{"data": {"bikes": [{"lon": -77.03752583333333, "lat": 38.925449, "name": "3ed8787f02b4c885bd747a4b5b0a6a1e", "fusion_lat": 0.0, "fusion_lon": 0.0, "rental_uris": {"android": "https://dc.lft.to/lastmile_qr_scan", "ios": "https://dc.lft.to/lastmile_qr_scan"}, "is_reserved": 0, "is_disabled": 0, "type": "electric_scooter", "bike_id": "3ed8787f02b4c885bd747a4b5b0a6a1e"}, {"lon": -77.02398316666667, "lat": 38.91140583333333, "name": "28c6e8007dee531c94f98d32e6cb2885", "fusion_lat": 0.0, "fusion_lon": 0.0, "rental_uris": {"android": "https://dc.lft.to/lastmile_qr_scan", "ios": "https://dc.lft.to/lastmile_qr_scan"}, "is_reserved": 0, "is_disabled": 0, "type": "electric_scooter", "bike_id": "28c6e8007dee531c94f98d32e6cb2885"}, {"lon": -77.0201025, "lat": 38.904735, "name": "204125b04210a1b7a77b621bdf6e095f", "fusion_lat": 0.0, "fusion_lon": 0.0, "rental_uris": {"android": "https://dc.lft.to/lastmile_qr_scan", "ios": "https://dc.lft.to/lastmile_qr_scan"}, "is_reserved": 0, "is_disabled": 0, "type": "electric_scooter", "bike_id": "204125b04210a1b7a77b621bdf6e095f"}, {"lon": -77.03172583333334, "lat": 38.906992, "name": "882dfb50a25ac697a0e864f5de71d12e", "fusion_lat": 0.0, "fusion_lon": 0.0, "rental_uris": {"android": "https://dc.lft.to/lastmile_qr_scan", "ios": "https://dc.lft.to/lastmile_qr_scan"}, "is_reserved": 0, "is_disabled": 0, "type": "electric_scooter", "bike_id": "882dfb50a25ac697a0e864f5de71d12e"}, {"lon": -77.00721366666667, "lat": 38.88492183333334, "name": "77a1937036bdf89b6c8db43b16737059", "fusion_lat": 0.0, "fusion_lon": 0.0, "rental_uris": {"android": "https://dc.lft.to/lastmile_qr_scan", "ios": "https://dc.lft.to/lastmile_qr_scan"}, "is_reserved": 0, "is_disabled": 0, "type": "electric_scooter", "bike_id": "77a1937036bdf89b6c8db43b16737059"}, {"lon": -77.04160083333333, "lat": 38.91896766666667, "name": "a86793b6b782d81c2e51dc7a2503ab45", "fusion_lat": 0.0, "fusion_lon": 0.0, "rental_uris": {"android": "https://dc.lft.to/lastmile_qr_scan", "ios": "https://dc.lft.to/lastmile_qr_scan"}, "is_reserved": 0, "is_disabled": 0, "type": "electric_scooter", "bike_id": "a86793b6b782d81c2e51dc7a2503ab45"}, {"lon": -77.030269, "lat": 38.92955533333333, "name": "c7689a5ce5c8227905e5c41470da863a", "fusion_lat": 0.0, "fusion_lon": 0.0, "rental_uris": {"android": "https://dc.lft.to/lastmile_qr_scan", "ios": "https://dc.lft.to/lastmile_qr_scan"}, "is_reserved": 0, "is_disabled": 0, "type": "electric_scooter", "bike_id": "c7689a5ce5c8227905e5c41470da863a"}, {"lon": -76.90536533333334, "lat": 38.8973425, "name": "442b1f0481ee4fcf330ec984699dd884", "fusion_lat": 0.0, "fusion_lon": 0.0, "rental_uris": {"android": "https://dc.lft.to/lastmile_qr_scan", "ios": "https://dc.lft.to/lastmile_qr_scan"}, "is_reserved": 0, "is_disabled": 0, "type": "electric_bike", "bike_id": "442b1f0481ee4fcf330ec984699dd884"}, {"lon": -77.00065966666666, "lat": 38.900521, "name": "721a09b3f6e70b9afb4826e03d1f2b2d", "fusion_lat": 0.0, "fusion_lon": 0.0, "rental_uris": {"android": "https://dc.lft.to/lastmile_qr_scan", "ios": "https://dc.lft.to/lastmile_qr_scan"}, "is_reserved": 0, "is_disabled": 0, "type": "electric_scooter", "bike_id": "721a09b3f6e70b9afb4826e03d1f2b2d"}, {"lon": -77.00837366666667, "lat": 38.91543166666666, "name": "56bfd7b4a31d3244f494cdaf25b340cc", "fusion_lat": 0.0, "fusion_lon": 0.0, "rental_uris": {"android": "https://dc.lft.to/lastmile_qr_scan", "ios": "https://dc.lft.to/lastmile_qr_scan"}, "is_reserved": 0, "is_disabled": 0, "type": "electric_scooter", "bike_id": "56bfd7b4a31d3244f494cdaf25b340cc"}, {"lon": -77.03085316666666, "lat": 38.909881, "name": "edbea2303d9b1dc82c42e52db67bd1ec", "fusion_lat": 0.0, "fusion_lon": 0.0, "rental_uris": {"android": "https://dc.lft.to/lastmile_qr_scan", "ios": "https://dc.lft.to/lastmile_qr_scan"}, "is_reserved": 0, "is_disabled": 0, "type": "electric_scooter", "bike_id": "edbea2303d9b1dc82c42e52db67bd1ec"}, {"lon": -77.01515966666666, "lat": 38.88731683333334, "name": "9556d7dd69d5cfe75a3700a4b28ed009", "fusion_lat": 0.0, "fusion_lon": 0.0, "rental_uris": {"android": "https://dc.lft.to/lastmile_qr_scan", "ios": "https://dc.lft.to/lastmile_qr_scan"}, "is_reserved": 0, "is_disabled": 0, "type": "electric_scooter", "bike_id": "9556d7dd69d5cfe75a3700a4b28ed009"}, {"lon": -77.04040666666667, "lat": 38.92300866666667, "name": "303d474fd1eccad6b31a357099716cbb", "fusion_lat": 0.0, "fusion_lon": 0.0, "rental_uris": {"android": "https://dc.lft.to/lastmile_qr_scan", "ios": "https://dc.lft.to/lastmile_qr_scan"}, "is_reserved": 0, "is_disabled": 0, "type": "electric_scooter", "bike_id": "303d474fd1eccad6b31a357099716cbb"}, {"lon": -77.04886083333334, "lat": 38.91238766666667, "name": "776d967e07bd9c601b929da620a6917d", "fusion_lat": 0.0, "fusion_lon": 0.0, "rental_uris": {"android": "https://dc.lft.to/lastmile_qr_scan", "ios": "https://dc.lft.to/lastmile_qr_scan"}, "is_reserved": 0, "is_disabled": 0, "type": "electric_scooter", "bike_id": "776d967e07bd9c601b929da620a6917d"}, {"lon": -77.02684733333334, "lat": 38.924852, "name": "9ff320df2cb4f8efffba8aa56a9951cb", "fusion_lat": 0.0, "fusion_lon": 0.0, "rental_uris": {"android": "https://dc.lft.to/lastmile_qr_scan", "ios": "https://dc.lft.to/lastmile_qr_scan"}, "is_reserved": 0, "is_disabled": 0, "type": "electric_scooter", "bike_id": "9ff320df2cb4f8efffba8aa56a9951cb"}, {"lon": -76.974496, "lat": 38.96662766666667, "name": "e57d4d3ccec3bcd84edcb2be848c3de9", "fusion_lat": 0.0, "fusion_lon": 0.0, "rental_uris": {"android": "https://dc.lft.to/lastmile_qr_scan", "ios": "https://dc.lft.to/lastmile_qr_scan"}, "is_reserved": 0, "is_disabled": 0, "type": "electric_bike", "bike_id": "e57d4d3ccec3bcd84edcb2be848c3de9"}, {"lon": -76.98524083333334, "lat": 38.88379333333334, "name": "cad6196a506d2dba3eafe9b1e7e9fe38", "fusion_lat": 0.0, "fusion_lon": 0.0, "rental_uris": {"android": "https://dc.lft.to/lastmile_qr_scan", "ios": "https://dc.lft.to/lastmile_qr_scan"}, "is_reserved": 0, "is_disabled": 0, "type": "electric_scooter", "bike_id": "cad6196a506d2dba3eafe9b1e7e9fe38"}, {"lon": -76.998272, "lat": 38.888669666666665, "name": "4209988bae81322d26d1bfa59edce5bf", "fusion_lat": 0.0, "fusion_lon": 0.0, "rental_uris": {"android": "https://dc.lft.to/lastmile_qr_scan", "ios": "https://dc.lft.to/lastmile_qr_scan"}, "is_reserved": 0, "is_disabled": 0, "type": "electric_scooter", "bike_id": "4209988bae81322d26d1bfa59edce5bf"}, {"lon": -77.01891433333333, "lat": 38.9118105, "name": "3c948176ccc26547c7fe9def2024717c", "fusion_lat": 0.0, "fusion_lon": 0.0, "rental_uris": {"android": "https://dc.lft.to/lastmile_qr_scan", "ios": "https://dc.lft.to/lastmile_qr_scan"}, "is_reserved": 0, "is_disabled": 0, "type": "electric_scooter", "bike_id": "3c948176ccc26547c7fe9def2024717c"}, {"lon": -77.03657883333334, "lat": 38.9227585, "name": "5883ded83c64aac056f85c4e799a9e08", "fusion_lat": 0.0, "fusion_lon": 0.0, "rental_uris": {"android": "https://dc.lft.to/lastmile_qr_scan", "ios": "https://dc.lft.to/lastmile_qr_scan"}, "is_reserved": 0, "is_disabled": 0, "type": "electric_scooter", "bike_id": "5883ded83c64aac056f85c4e799a9e08"}, {"lon": -77.13233016666666, "lat": 38.8697275, "name": "7ca262e7e5c74f5e3e08684cb0a63b87", "fusion_lat": 0.0, "fusion_lon": 0.0, "rental_uris": {"android": "https://dc.lft.to/lastmile_qr_scan", "ios": "https://dc.lft.to/lastmile_qr_scan"}, "is_reserved": 0, "is_disabled": 0, "type": "electric_bike", "bike_id": "7ca262e7e5c74f5e3e08684cb0a63b87"}, {"lon": -77.02738666666667, "lat": 38.92851, "name": "6dcd7f215163cb1cdbda6c04c04417b8", "fusion_lat": 0.0, "fusion_lon": 0.0, "rental_uris": {"android": "https://dc.lft.to/lastmile_qr_scan", "ios": "https://dc.lft.to/lastmile_qr_scan"}, "is_reserved": 0, "is_disabled": 0, "type": "electric_scooter", "bike_id": "6dcd7f215163cb1cdbda6c04c04417b8"}, {"lon": -77.0028165, "lat": 38.905760666666666, "name": "ab069eca4f95c31880e63afdc090073d", "fusion_lat": 0.0, "fusion_lon": 0.0, "rental_uris": {"android": "https://dc.lft.to/lastmile_qr_scan", "ios": "https://dc.lft.to/lastmile_qr_scan"}, "is_reserved": 0, "is_disabled": 0, "type": "electric_scooter", "bike_id": "ab069eca4f95c31880e63afdc090073d"}, {"lon": -77.04344466666667, "lat": 38.8964825, "name": "4965804c25712729f8d91f37b3b53ddb", "fusion_lat": 0.0, "fusion_lon": 0.0, "rental_uris": {"android": "https://dc.lft.to/lastmile_qr_scan", "ios": "https://dc.lft.to/lastmile_qr_scan"}, "is_reserved": 0, "is_disabled": 0, "type": "electric_scooter", "bike_id": "4965804c25712729f8d91f37b3b53ddb"}, {"lon": -77.0517895, "lat": 38.924288833333335, "name": "c565495a54056ae7b0fdb8022ff07758", "fusion_lat": 0.0, "fusion_lon": 0.0, "rental_uris": {"android": "https://dc.lft.to/lastmile_qr_scan", "ios": "https://dc.lft.to/lastmile_qr_scan"}, "is_reserved": 0, "is_disabled": 0, "type": "electric_scooter", "bike_id": "c565495a54056ae7b0fdb8022ff07758"}, {"lon": -77.03302866666667, "lat": 38.8964395, "name": "dc9d99a679c68b2a40dbb8a93550ae10", "fusion_lat": 0.0, "fusion_lon": 0.0, "rental_uris": {"android": "https://dc.lft.to/lastmile_qr_scan", "ios": "https://dc.lft.to/lastmile_qr_scan"}, "is_reserved": 0, "is_disabled": 0, "type": "electric_scooter", "bike_id": "dc9d99a679c68b2a40dbb8a93550ae10"}, {"lon": -77.03834883333333, "lat": 38.9118695, "name": "786e6a8f9e57855391b32c0273a438e8", "fusion_lat": 0.0, "fusion_lon": 0.0, "rental_uris": {"android": "https://dc.lft.to/lastmile_qr_scan", "ios": "https://dc.lft.to/lastmile_qr_scan"}, "is_reserved": 0, "is_disabled": 0, "type": "electric_scooter", "bike_id": "786e6a8f9e57855391b32c0273a438e8"}, {"lon": -77.00225133333333, "lat": 38.9005, "name": "9cc3c7f9206d049eaa8f41da2b32d701", "fusion_lat": 0.0, "fusion_lon": 0.0, "rental_uris": {"android": "https://dc.lft.to/lastmile_qr_scan", "ios": "https://dc.lft.to/lastmile_qr_scan"}, "is_reserved": 0, "is_disabled": 0, "type": "electric_bike", "bike_id": "9cc3c7f9206d049eaa8f41da2b32d701"}, {"lon": -76.99963116666666, "lat": 38.90868783333333, "name": "622e0753aaffe2bf2fdf2e59c20cc50f", "fusion_lat": 0.0, "fusion_lon": 0.0, "rental_uris": {"android": "https://dc.lft.to/lastmile_qr_scan", "ios": "https://dc.lft.to/lastmile_qr_scan"}, "is_reserved": 0, "is_disabled": 0, "type": "electric_scooter", "bike_id": "622e0753aaffe2bf2fdf2e59c20cc50f"}, {"lon": -77.03319183333333, "lat": 38.9302805, "name": "c472ae2b1760db844bc2a29d8916b528", "fusion_lat": 0.0, "fusion_lon": 0.0, "rental_uris": {"android": "https://dc.lft.to/lastmile_qr_scan", "ios": "https://dc.lft.to/lastmile_qr_scan"}, "is_reserved": 0, "is_disabled": 0, "type": "electric_scooter", "bike_id": "c472ae2b1760db844bc2a29d8916b528"}, {"lon": -77.03237416666667, "lat": 38.91478716666667, "name": "292290f697e46b879388255b9c49c385", "fusion_lat": 0.0, "fusion_lon": 0.0, "rental_uris": {"android": "https://dc.lft.to/lastmile_qr_scan", "ios": "https://dc.lft.to/lastmile_qr_scan"}, "is_reserved": 0, "is_disabled": 0, "type": "electric_scooter", "bike_id": "292290f697e46b879388255b9c49c385"}, {"lon": -77.0501175, "lat": 38.901969666666666, "name": "fdc7fd777d868a27fba02d8e978c857a", "fusion_lat": 0.0, "fusion_lon": 0.0, "rental_uris": {"android": "https://dc.lft.to/lastmile_qr_scan", "ios": "https://dc.lft.to/lastmile_qr_scan"}, "is_reserved": 0, "is_disabled": 0, "type": "electric_scooter", "bike_id": "fdc7fd777d868a27fba02d8e978c857a"}, {"lon": -77.02393866666667, "lat": 38.8873945, "name": "b9706069a57123a520f5949987444258", "fusion_lat": 0.0, "fusion_lon": 0.0, "rental_uris": {"android": "https://dc.lft.to/lastmile_qr_scan", "ios": "https://dc.lft.to/lastmile_qr_scan"}, "is_reserved": 0, "is_disabled": 0, "type": "electric_scooter", "bike_id": "b9706069a57123a520f5949987444258"}, {"lon": -77.04271416666667, "lat": 38.898256833333335, "name": "81736f567a568df2fe944afafd3ebce1", "fusion_lat": 0.0, "fusion_lon": 0.0, "rental_uris": {"android": "https://dc.lft.to/lastmile_qr_scan", "ios": "https://dc.lft.to/lastmile_qr_scan"}, "is_reserved": 0, "is_disabled": 0, "type": "electric_scooter", "bike_id": "81736f567a568df2fe944afafd3ebce1"}, {"lon": -77.04282233333333, "lat": 38.91106116666667, "name": "a90a5f527df737572c5fa7fe80657a2d", "fusion_lat": 0.0, "fusion_lon": 0.0, "rental_uris": {"android": "https://dc.lft.to/lastmile_qr_scan", "ios": "https://dc.lft.to/lastmile_qr_scan"}, "is_reserved": 0, "is_disabled": 0, "type": "electric_scooter", "bike_id": "a90a5f527df737572c5fa7fe80657a2d"}, {"lon": -77.03182066666666, "lat": 38.916098166666664, "name": "bf86840cb0501599ff23d5a47b7e1d4d", "fusion_lat": 0.0, "fusion_lon": 0.0, "rental_uris": {"android": "https://dc.lft.to/lastmile_qr_scan", "ios": "https://dc.lft.to/lastmile_qr_scan"}, "is_reserved": 0, "is_disabled": 0, "type": "electric_scooter", "bike_id": "bf86840cb0501599ff23d5a47b7e1d4d"}, {"lon": -77.0616595, "lat": 38.942177, "name": "c7a0cfc0e345cb0a19631a6fe69cef91", "fusion_lat": 0.0, "fusion_lon": 0.0, "rental_uris": {"android": "https://dc.lft.to/lastmile_qr_scan", "ios": "https://dc.lft.to/lastmile_qr_scan"}, "is_reserved": 0, "is_disabled": 0, "type": "electric_scooter", "bike_id": "c7a0cfc0e345cb0a19631a6fe69cef91"}, {"lon": -77.02707583333333, "lat": 38.90256883333333, "name": "f91988e1f6b24c809fd4ed95c5f5ace7", "fusion_lat": 0.0, "fusion_lon": 0.0, "rental_uris": {"android": "https://dc.lft.to/lastmile_qr_scan", "ios": "https://dc.lft.to/lastmile_qr_scan"}, "is_reserved": 0, "is_disabled": 0, "type": "electric_scooter", "bike_id": "f91988e1f6b24c809fd4ed95c5f5ace7"}, {"lon": -77.1274185, "lat": 38.88817233333333, "name": "baf998ed3f97c347f4faa3445ce03eba", "fusion_lat": 0.0, "fusion_lon": 0.0, "rental_uris": {"android": "https://dc.lft.to/lastmile_qr_scan", "ios": "https://dc.lft.to/lastmile_qr_scan"}, "is_reserved": 0, "is_disabled": 0, "type": "electric_bike", "bike_id": "baf998ed3f97c347f4faa3445ce03eba"}, {"lon": -77.03952433333333, "lat": 38.902457166666665, "name": "18e23f52b5fd9788204f93d58bb60874", "fusion_lat": 0.0, "fusion_lon": 0.0, "rental_uris": {"android": "https://dc.lft.to/lastmile_qr_scan", "ios": "https://dc.lft.to/lastmile_qr_scan"}, "is_reserved": 0, "is_disabled": 0, "type": "electric_scooter", "bike_id": "18e23f52b5fd9788204f93d58bb60874"}, {"lon": -77.025908, "lat": 38.8924115, "name": "baee9c6122628ed4c5456b1a6944e07c", "fusion_lat": 0.0, "fusion_lon": 0.0, "rental_uris": {"android": "https://dc.lft.to/lastmile_qr_scan", "ios": "https://dc.lft.to/lastmile_qr_scan"}, "is_reserved": 0, "is_disabled": 0, "type": "electric_scooter", "bike_id": "baee9c6122628ed4c5456b1a6944e07c"}, {"lon": -77.00080983333334, "lat": 38.886770166666665, "name": "277aa3f8f92a7002045e6d733b57c2ec", "fusion_lat": 0.0, "fusion_lon": 0.0, "rental_uris": {"android": "https://dc.lft.to/lastmile_qr_scan", "ios": "https://dc.lft.to/lastmile_qr_scan"}, "is_reserved": 0, "is_disabled": 0, "type": "electric_scooter", "bike_id": "277aa3f8f92a7002045e6d733b57c2ec"}, {"lon": -77.03834716666667, "lat": 38.911162833333336, "name": "7236bb5cfeb5dd27e91ca13e9d81bb85", "fusion_lat": 0.0, "fusion_lon": 0.0, "rental_uris": {"android": "https://dc.lft.to/lastmile_qr_scan", "ios": "https://dc.lft.to/lastmile_qr_scan"}, "is_reserved": 0, "is_disabled": 0, "type": "electric_scooter", "bike_id": "7236bb5cfeb5dd27e91ca13e9d81bb85"}, {"lon": -76.941207, "lat": 38.907894666666664, "name": "705790575541ff72cd26b5b10b0d8b0d", "fusion_lat": 0.0, "fusion_lon": 0.0, "rental_uris": {"android": "https://dc.lft.to/lastmile_qr_scan", "ios": "https://dc.lft.to/lastmile_qr_scan"}, "is_reserved": 0, "is_disabled": 0, "type": "electric_scooter", "bike_id": "705790575541ff72cd26b5b10b0d8b0d"}, {"lon": -76.9381, "lat": 38.91303516666667, "name": "52824459b9986f83fdfa14413c0798e9", "fusion_lat": 0.0, "fusion_lon": 0.0, "rental_uris": {"android": "https://dc.lft.to/lastmile_qr_scan", "ios": "https://dc.lft.to/lastmile_qr_scan"}, "is_reserved": 0, "is_disabled": 0, "type": "electric_scooter", "bike_id": "52824459b9986f83fdfa14413c0798e9"}, {"lon": -76.931644, "lat": 38.89872666666667, "name": "ae1228523874c7151e7b47d98537a433", "fusion_lat": 0.0, "fusion_lon": 0.0, "rental_uris": {"android": "https://dc.lft.to/lastmile_qr_scan", "ios": "https://dc.lft.to/lastmile_qr_scan"}, "is_reserved": 0, "is_disabled": 0, "type": "electric_scooter", "bike_id": "ae1228523874c7151e7b47d98537a433"}, {"lon": -76.987691, "lat": 38.91175416666667, "name": "99846a1608c28da53e2bf7cf46fde95e", "fusion_lat": 0.0, "fusion_lon": 0.0, "rental_uris": {"android": "https://dc.lft.to/lastmile_qr_scan", "ios": "https://dc.lft.to/lastmile_qr_scan"}, "is_reserved": 0, "is_disabled": 0, "type": "electric_scooter", "bike_id": "99846a1608c28da53e2bf7cf46fde95e"}, {"lon": -77.01997133333333, "lat": 38.913413, "name": "c0d71cb3cbcf5bdb30439fb730a08d93", "fusion_lat": 0.0, "fusion_lon": 0.0, "rental_uris": {"android": "https://dc.lft.to/lastmile_qr_scan", "ios": "https://dc.lft.to/lastmile_qr_scan"}, "is_reserved": 0, "is_disabled": 0, "type": "electric_scooter", "bike_id": "c0d71cb3cbcf5bdb30439fb730a08d93"}, {"lon": -77.02382683333333, "lat": 38.9116185, "name": "003982ac0d90630c3d9beca4f11e57fb", "fusion_lat": 0.0, "fusion_lon": 0.0, "rental_uris": {"android": "https://dc.lft.to/lastmile_qr_scan", "ios": "https://dc.lft.to/lastmile_qr_scan"}, "is_reserved": 0, "is_disabled": 0, "type": "electric_scooter", "bike_id": "003982ac0d90630c3d9beca4f11e57fb"}, {"lon": -77.032105, "lat": 38.893607333333335, "name": "0bf795ea5ae004e00fbeadcbcabbd3b1", "fusion_lat": 0.0, "fusion_lon": 0.0, "rental_uris": {"android": "https://dc.lft.to/lastmile_qr_scan", "ios": "https://dc.lft.to/lastmile_qr_scan"}, "is_reserved": 0, "is_disabled": 0, "type": "electric_scooter", "bike_id": "0bf795ea5ae004e00fbeadcbcabbd3b1"}, {"lon": -77.03435266666666, "lat": 38.90719716666667, "name": "b26e5080686a1df53d2c5a13333005c1", "fusion_lat": 0.0, "fusion_lon": 0.0, "rental_uris": {"android": "https://dc.lft.to/lastmile_qr_scan", "ios": "https://dc.lft.to/lastmile_qr_scan"}, "is_reserved": 0, "is_disabled": 0, "type": "electric_scooter", "bike_id": "b26e5080686a1df53d2c5a13333005c1"}, {"lon": -77.0398705, "lat": 38.830485833333334, "name": "d36f9f3a7349154f80ec4184d2240927", "fusion_lat": 0.0, "fusion_lon": 0.0, "rental_uris": {"android": "https://dc.lft.to/lastmile_qr_scan", "ios": "https://dc.lft.to/lastmile_qr_scan"}, "is_reserved": 0, "is_disabled": 0, "type": "electric_bike", "bike_id": "d36f9f3a7349154f80ec4184d2240927"}, {"lon": -77.03009316666666, "lat": 38.934869166666665, "name": "739bf022d13950fed6b53458d0e94172", "fusion_lat": 0.0, "fusion_lon": 0.0, "rental_uris": {"android": "https://dc.lft.to/lastmile_qr_scan", "ios": "https://dc.lft.to/lastmile_qr_scan"}, "is_reserved": 0, "is_disabled": 0, "type": "electric_bike", "bike_id": "739bf022d13950fed6b53458d0e94172"}, {"lon": -77.0300045, "lat": 38.900191, "name": "007368458c6803d10f689bea75e54446", "fusion_lat": 0.0, "fusion_lon": 0.0, "rental_uris": {"android": "https://dc.lft.to/lastmile_qr_scan", "ios": "https://dc.lft.to/lastmile_qr_scan"}, "is_reserved": 0, "is_disabled": 0, "type": "electric_scooter", "bike_id": "007368458c6803d10f689bea75e54446"}, {"lon": -77.0337455, "lat": 38.88750233333333, "name": "57ac528e5273d42e52733e63342d3e6f", "fusion_lat": 0.0, "fusion_lon": 0.0, "rental_uris": {"android": "https://dc.lft.to/lastmile_qr_scan", "ios": "https://dc.lft.to/lastmile_qr_scan"}, "is_reserved": 0, "is_disabled": 0, "type": "electric_scooter", "bike_id": "57ac528e5273d42e52733e63342d3e6f"}, {"lon": -76.95533, "lat": 38.88871833333333, "name": "1a4daa8f6f8bfbd9a119fa67456a6544", "fusion_lat": 0.0, "fusion_lon": 0.0, "rental_uris": {"android": "https://dc.lft.to/lastmile_qr_scan", "ios": "https://dc.lft.to/lastmile_qr_scan"}, "is_reserved": 0, "is_disabled": 0, "type": "electric_scooter", "bike_id": "1a4daa8f6f8bfbd9a119fa67456a6544"}, {"lon": -77.04532966666666, "lat": 38.90060366666667, "name": "e4737f5149a904e392f55dbe011d028f", "fusion_lat": 0.0, "fusion_lon": 0.0, "rental_uris": {"android": "https://dc.lft.to/lastmile_qr_scan", "ios": "https://dc.lft.to/lastmile_qr_scan"}, "is_reserved": 0, "is_disabled": 0, "type": "electric_scooter", "bike_id": "e4737f5149a904e392f55dbe011d028f"}, {"lon": -77.03644333333334, "lat": 38.949136, "name": "1e42ebdd2aef7ecaa4b196f7e1ba3daf", "fusion_lat": 0.0, "fusion_lon": 0.0, "rental_uris": {"android": "https://dc.lft.to/lastmile_qr_scan", "ios": "https://dc.lft.to/lastmile_qr_scan"}, "is_reserved": 0, "is_disabled": 0, "type": "electric_scooter", "bike_id": "1e42ebdd2aef7ecaa4b196f7e1ba3daf"}, {"lon": -77.06831216666667, "lat": 38.91178, "name": "fe587d9d4dc02e31bdb2f33a9d486aec", "fusion_lat": 0.0, "fusion_lon": 0.0, "rental_uris": {"android": "https://dc.lft.to/lastmile_qr_scan", "ios": "https://dc.lft.to/lastmile_qr_scan"}, "is_reserved": 0, "is_disabled": 0, "type": "electric_scooter", "bike_id": "fe587d9d4dc02e31bdb2f33a9d486aec"}, {"lon": -77.05374383333333, "lat": 38.92337416666667, "name": "a435f67faa4eebc9b975b33b733f17eb", "fusion_lat": 0.0, "fusion_lon": 0.0, "rental_uris": {"android": "https://dc.lft.to/lastmile_qr_scan", "ios": "https://dc.lft.to/lastmile_qr_scan"}, "is_reserved": 0, "is_disabled": 0, "type": "electric_scooter", "bike_id": "a435f67faa4eebc9b975b33b733f17eb"}, {"lon": -77.14987783333333, "lat": 39.094595, "name": "e2d94217061335f0562e7d8373a9ae90", "fusion_lat": 0.0, "fusion_lon": 0.0, "rental_uris": {"android": "https://dc.lft.to/lastmile_qr_scan", "ios": "https://dc.lft.to/lastmile_qr_scan"}, "is_reserved": 0, "is_disabled": 0, "type": "electric_bike", "bike_id": "e2d94217061335f0562e7d8373a9ae90"}, {"lon": -77.090382, "lat": 38.8411325, "name": "2c088945b963e19cfda5527c7de430d5", "fusion_lat": 0.0, "fusion_lon": 0.0, "rental_uris": {"android": "https://dc.lft.to/lastmile_qr_scan", "ios": "https://dc.lft.to/lastmile_qr_scan"}, "is_reserved": 0, "is_disabled": 0, "type": "electric_bike", "bike_id": "2c088945b963e19cfda5527c7de430d5"}, {"lon": -77.03863566666666, "lat": 38.932089, "name": "46b9f097f0efbb30554f68da095e74f8", "fusion_lat": 0.0, "fusion_lon": 0.0, "rental_uris": {"android": "https://dc.lft.to/lastmile_qr_scan", "ios": "https://dc.lft.to/lastmile_qr_scan"}, "is_reserved": 0, "is_disabled": 0, "type": "electric_scooter", "bike_id": "46b9f097f0efbb30554f68da095e74f8"}, {"lon": -77.00350516666667, "lat": 38.89156216666667, "name": "05ba66eeae7abe40b918448bc9374529", "fusion_lat": 0.0, "fusion_lon": 0.0, "rental_uris": {"android": "https://dc.lft.to/lastmile_qr_scan", "ios": "https://dc.lft.to/lastmile_qr_scan"}, "is_reserved": 0, "is_disabled": 0, "type": "electric_scooter", "bike_id": "05ba66eeae7abe40b918448bc9374529"}, {"lon": -77.199101, "lat": 38.875280000000004, "name": "d326fcad8e0df64676b13b5194760f79", "fusion_lat": 0.0, "fusion_lon": 0.0, "rental_uris": {"android": "https://dc.lft.to/lastmile_qr_scan", "ios": "https://dc.lft.to/lastmile_qr_scan"}, "is_reserved": 0, "is_disabled": 0, "type": "electric_bike", "bike_id": "d326fcad8e0df64676b13b5194760f79"}, {"lon": -77.07657266666666, "lat": 38.910818, "name": "cffc86d41a49a631c324d8ae434dd48b", "fusion_lat": 0.0, "fusion_lon": 0.0, "rental_uris": {"android": "https://dc.lft.to/lastmile_qr_scan", "ios": "https://dc.lft.to/lastmile_qr_scan"}, "is_reserved": 0, "is_disabled": 0, "type": "electric_scooter", "bike_id": "cffc86d41a49a631c324d8ae434dd48b"}, {"lon": -77.00651433333333, "lat": 38.90861666666667, "name": "e14822e6c6171d69c4815d5eb359d180", "fusion_lat": 0.0, "fusion_lon": 0.0, "rental_uris": {"android": "https://dc.lft.to/lastmile_qr_scan", "ios": "https://dc.lft.to/lastmile_qr_scan"}, "is_reserved": 0, "is_disabled": 0, "type": "electric_scooter", "bike_id": "e14822e6c6171d69c4815d5eb359d180"}, {"lon": -77.0676425, "lat": 38.905113166666666, "name": "f0100ab8d0f7983f5c0d5c468a26ad00", "fusion_lat": 0.0, "fusion_lon": 0.0, "rental_uris": {"android": "https://dc.lft.to/lastmile_qr_scan", "ios": "https://dc.lft.to/lastmile_qr_scan"}, "is_reserved": 0, "is_disabled": 0, "type": "electric_scooter", "bike_id": "f0100ab8d0f7983f5c0d5c468a26ad00"}, {"lon": -76.93188316666667, "lat": 38.898739666666664, "name": "fd266c089f139843528f629b5017633e", "fusion_lat": 0.0, "fusion_lon": 0.0, "rental_uris": {"android": "https://dc.lft.to/lastmile_qr_scan", "ios": "https://dc.lft.to/lastmile_qr_scan"}, "is_reserved": 0, "is_disabled": 0, "type": "electric_scooter", "bike_id": "fd266c089f139843528f629b5017633e"}, {"lon": -77.02827216666667, "lat": 38.89530666666667, "name": "2a5bb7f8c14135261193dc12948ebe2e", "fusion_lat": 0.0, "fusion_lon": 0.0, "rental_uris": {"android": "https://dc.lft.to/lastmile_qr_scan", "ios": "https://dc.lft.to/lastmile_qr_scan"}, "is_reserved": 0, "is_disabled": 0, "type": "electric_scooter", "bike_id": "2a5bb7f8c14135261193dc12948ebe2e"}, {"lon": -76.99064016666667, "lat": 38.9002885, "name": "27552d3136c5c2444fc0a75831398760", "fusion_lat": 0.0, "fusion_lon": 0.0, "rental_uris": {"android": "https://dc.lft.to/lastmile_qr_scan", "ios": "https://dc.lft.to/lastmile_qr_scan"}, "is_reserved": 0, "is_disabled": 0, "type": "electric_scooter", "bike_id": "27552d3136c5c2444fc0a75831398760"}, {"lon": -77.0013605, "lat": 38.904073833333335, "name": "ce58a70909bd33f26af96e8175f9becb", "fusion_lat": 0.0, "fusion_lon": 0.0, "rental_uris": {"android": "https://dc.lft.to/lastmile_qr_scan", "ios": "https://dc.lft.to/lastmile_qr_scan"}, "is_reserved": 0, "is_disabled": 0, "type": "electric_scooter", "bike_id": "ce58a70909bd33f26af96e8175f9becb"}, {"lon": -77.03219683333333, "lat": 38.920094, "name": "acce2c43bafd55d5325c8bdab12d0f35", "fusion_lat": 0.0, "fusion_lon": 0.0, "rental_uris": {"android": "https://dc.lft.to/lastmile_qr_scan", "ios": "https://dc.lft.to/lastmile_qr_scan"}, "is_reserved": 0, "is_disabled": 0, "type": "electric_scooter", "bike_id": "acce2c43bafd55d5325c8bdab12d0f35"}, {"lon": -77.03340316666667, "lat": 38.9216, "name": "e90eda6434d532d8726745d6ee085cd0", "fusion_lat": 0.0, "fusion_lon": 0.0, "rental_uris": {"android": "https://dc.lft.to/lastmile_qr_scan", "ios": "https://dc.lft.to/lastmile_qr_scan"}, "is_reserved": 0, "is_disabled": 0, "type": "electric_scooter", "bike_id": "e90eda6434d532d8726745d6ee085cd0"}, {"lon": -76.98510966666667, "lat": 38.880806, "name": "3720de09077c4d26d6accb2402d23774", "fusion_lat": 0.0, "fusion_lon": 0.0, "rental_uris": {"android": "https://dc.lft.to/lastmile_qr_scan", "ios": "https://dc.lft.to/lastmile_qr_scan"}, "is_reserved": 0, "is_disabled": 0, "type": "electric_bike", "bike_id": "3720de09077c4d26d6accb2402d23774"}, {"lon": -76.99938566666667, "lat": 38.896161666666664, "name": "d5751982732a213f6e8322bda3915e91", "fusion_lat": 0.0, "fusion_lon": 0.0, "rental_uris": {"android": "https://dc.lft.to/lastmile_qr_scan", "ios": "https://dc.lft.to/lastmile_qr_scan"}, "is_reserved": 0, "is_disabled": 0, "type": "electric_scooter", "bike_id": "d5751982732a213f6e8322bda3915e91"}, {"lon": -77.04898616666667, "lat": 38.904384666666665, "name": "b960658fb046e76ca12bb07165379470", "fusion_lat": 0.0, "fusion_lon": 0.0, "rental_uris": {"android": "https://dc.lft.to/lastmile_qr_scan", "ios": "https://dc.lft.to/lastmile_qr_scan"}, "is_reserved": 0, "is_disabled": 0, "type": "electric_scooter", "bike_id": "b960658fb046e76ca12bb07165379470"}, {"lon": -77.01973883333334, "lat": 38.878405666666666, "name": "bf295256e35415e2de1706b124bb8c4e", "fusion_lat": 0.0, "fusion_lon": 0.0, "rental_uris": {"android": "https://dc.lft.to/lastmile_qr_scan", "ios": "https://dc.lft.to/lastmile_qr_scan"}, "is_reserved": 0, "is_disabled": 0, "type": "electric_scooter", "bike_id": "bf295256e35415e2de1706b124bb8c4e"}, {"lon": -77.02828416666667, "lat": 38.9170865, "name": "c33c124306c5d63718cff8ff73f40de3", "fusion_lat": 0.0, "fusion_lon": 0.0, "rental_uris": {"android": "https://dc.lft.to/lastmile_qr_scan", "ios": "https://dc.lft.to/lastmile_qr_scan"}, "is_reserved": 0, "is_disabled": 0, "type": "electric_scooter", "bike_id": "c33c124306c5d63718cff8ff73f40de3"}, {"lon": -76.95209683333333, "lat": 38.9367015, "name": "623853f4a851bfe1975b25637231589e", "fusion_lat": 0.0, "fusion_lon": 0.0, "rental_uris": {"android": "https://dc.lft.to/lastmile_qr_scan", "ios": "https://dc.lft.to/lastmile_qr_scan"}, "is_reserved": 0, "is_disabled": 0, "type": "electric_bike", "bike_id": "623853f4a851bfe1975b25637231589e"}, {"lon": -77.01116933333333, "lat": 38.915614, "name": "f9ee49ace2c25873ca04b72dea554c1e", "fusion_lat": 0.0, "fusion_lon": 0.0, "rental_uris": {"android": "https://dc.lft.to/lastmile_qr_scan", "ios": "https://dc.lft.to/lastmile_qr_scan"}, "is_reserved": 0, "is_disabled": 0, "type": "electric_scooter", "bike_id": "f9ee49ace2c25873ca04b72dea554c1e"}, {"lon": -77.01530666666666, "lat": 38.886233, "name": "6b5db43069fbdd8295675f6adaf6ec0b", "fusion_lat": 0.0, "fusion_lon": 0.0, "rental_uris": {"android": "https://dc.lft.to/lastmile_qr_scan", "ios": "https://dc.lft.to/lastmile_qr_scan"}, "is_reserved": 0, "is_disabled": 0, "type": "electric_scooter", "bike_id": "6b5db43069fbdd8295675f6adaf6ec0b"}, {"lon": -77.0500385, "lat": 38.89228766666667, "name": "2793df55da0c55601c8d649418f0baa4", "fusion_lat": 0.0, "fusion_lon": 0.0, "rental_uris": {"android": "https://dc.lft.to/lastmile_qr_scan", "ios": "https://dc.lft.to/lastmile_qr_scan"}, "is_reserved": 0, "is_disabled": 0, "type": "electric_scooter", "bike_id": "2793df55da0c55601c8d649418f0baa4"}, {"lon": -77.02561233333333, "lat": 38.89240483333333, "name": "22d732fc2c5c90dc2c3db15eb7d113a4", "fusion_lat": 0.0, "fusion_lon": 0.0, "rental_uris": {"android": "https://dc.lft.to/lastmile_qr_scan", "ios": "https://dc.lft.to/lastmile_qr_scan"}, "is_reserved": 0, "is_disabled": 0, "type": "electric_scooter", "bike_id": "22d732fc2c5c90dc2c3db15eb7d113a4"}, {"lon": -77.0486045, "lat": 38.91960483333333, "name": "ade8ff8831b1d0d55459b01db35f0272", "fusion_lat": 0.0, "fusion_lon": 0.0, "rental_uris": {"android": "https://dc.lft.to/lastmile_qr_scan", "ios": "https://dc.lft.to/lastmile_qr_scan"}, "is_reserved": 0, "is_disabled": 0, "type": "electric_scooter", "bike_id": "ade8ff8831b1d0d55459b01db35f0272"}, {"lon": -77.03208616666667, "lat": 38.9089355, "name": "5a651f2b9fae97cd71830aedcd1a85e1", "fusion_lat": 0.0, "fusion_lon": 0.0, "rental_uris": {"android": "https://dc.lft.to/lastmile_qr_scan", "ios": "https://dc.lft.to/lastmile_qr_scan"}, "is_reserved": 0, "is_disabled": 0, "type": "electric_scooter", "bike_id": "5a651f2b9fae97cd71830aedcd1a85e1"}, {"lon": -77.02542516666666, "lat": 38.92072183333333, "name": "8c25f838d9ac0dac1c552363bc71ae73", "fusion_lat": 0.0, "fusion_lon": 0.0, "rental_uris": {"android": "https://dc.lft.to/lastmile_qr_scan", "ios": "https://dc.lft.to/lastmile_qr_scan"}, "is_reserved": 0, "is_disabled": 0, "type": "electric_scooter", "bike_id": "8c25f838d9ac0dac1c552363bc71ae73"}, {"lon": -77.0372655, "lat": 38.917143, "name": "3bf0340956b134053853a89eaedfa429", "fusion_lat": 0.0, "fusion_lon": 0.0, "rental_uris": {"android": "https://dc.lft.to/lastmile_qr_scan", "ios": "https://dc.lft.to/lastmile_qr_scan"}, "is_reserved": 0, "is_disabled": 0, "type": "electric_scooter", "bike_id": "3bf0340956b134053853a89eaedfa429"}, {"lon": -77.03850233333333, "lat": 38.908128833333336, "name": "425c76bc3dbba1f95abc62b866361d31", "fusion_lat": 0.0, "fusion_lon": 0.0, "rental_uris": {"android": "https://dc.lft.to/lastmile_qr_scan", "ios": "https://dc.lft.to/lastmile_qr_scan"}, "is_reserved": 0, "is_disabled": 0, "type": "electric_scooter", "bike_id": "425c76bc3dbba1f95abc62b866361d31"}, {"lon": -77.02979816666667, "lat": 38.90769433333333, "name": "b43281cbde1d951f39c4f3f8cbab3225", "fusion_lat": 0.0, "fusion_lon": 0.0, "rental_uris": {"android": "https://dc.lft.to/lastmile_qr_scan", "ios": "https://dc.lft.to/lastmile_qr_scan"}, "is_reserved": 0, "is_disabled": 0, "type": "electric_scooter", "bike_id": "b43281cbde1d951f39c4f3f8cbab3225"}, {"lon": -76.9918215, "lat": 38.9050275, "name": "91f9361aa902d50861760ccb0994180c", "fusion_lat": 0.0, "fusion_lon": 0.0, "rental_uris": {"android": "https://dc.lft.to/lastmile_qr_scan", "ios": "https://dc.lft.to/lastmile_qr_scan"}, "is_reserved": 0, "is_disabled": 0, "type": "electric_scooter", "bike_id": "91f9361aa902d50861760ccb0994180c"}, {"lon": -76.99744916666667, "lat": 38.900164333333336, "name": "de717df3e947d01b5b57407d79020a74", "fusion_lat": 0.0, "fusion_lon": 0.0, "rental_uris": {"android": "https://dc.lft.to/lastmile_qr_scan", "ios": "https://dc.lft.to/lastmile_qr_scan"}, "is_reserved": 0, "is_disabled": 0, "type": "electric_scooter", "bike_id": "de717df3e947d01b5b57407d79020a74"}, {"lon": -77.01861883333333, "lat": 38.89261166666667, "name": "c30888bc3657ff0a1071494555a11995", "fusion_lat": 0.0, "fusion_lon": 0.0, "rental_uris": {"android": "https://dc.lft.to/lastmile_qr_scan", "ios": "https://dc.lft.to/lastmile_qr_scan"}, "is_reserved": 0, "is_disabled": 0, "type": "electric_scooter", "bike_id": "c30888bc3657ff0a1071494555a11995"}, {"lon": -76.990224, "lat": 38.858654333333334, "name": "ab47f54ea7d4e1c38127ed86bc6f5651", "fusion_lat": 0.0, "fusion_lon": 0.0, "rental_uris": {"android": "https://dc.lft.to/lastmile_qr_scan", "ios": "https://dc.lft.to/lastmile_qr_scan"}, "is_reserved": 0, "is_disabled": 0, "type": "electric_scooter", "bike_id": "ab47f54ea7d4e1c38127ed86bc6f5651"}, {"lon": -77.04414116666666, "lat": 38.905775, "name": "f1dd5fa6319730313cdc9b8b79e60b20", "fusion_lat": 0.0, "fusion_lon": 0.0, "rental_uris": {"android": "https://dc.lft.to/lastmile_qr_scan", "ios": "https://dc.lft.to/lastmile_qr_scan"}, "is_reserved": 0, "is_disabled": 0, "type": "electric_scooter", "bike_id": "f1dd5fa6319730313cdc9b8b79e60b20"}, {"lon": -76.98264733333333, "lat": 38.86352466666666, "name": "3902d56f67d02faacd685b33e8f02fc2", "fusion_lat": 0.0, "fusion_lon": 0.0, "rental_uris": {"android": "https://dc.lft.to/lastmile_qr_scan", "ios": "https://dc.lft.to/lastmile_qr_scan"}, "is_reserved": 0, "is_disabled": 0, "type": "electric_scooter", "bike_id": "3902d56f67d02faacd685b33e8f02fc2"}, {"lon": -77.0479635, "lat": 38.8936735, "name": "090de9cbc41422eed216c8487165b713", "fusion_lat": 0.0, "fusion_lon": 0.0, "rental_uris": {"android": "https://dc.lft.to/lastmile_qr_scan", "ios": "https://dc.lft.to/lastmile_qr_scan"}, "is_reserved": 0, "is_disabled": 0, "type": "electric_scooter", "bike_id": "090de9cbc41422eed216c8487165b713"}, {"lon": -77.03268366666667, "lat": 38.93824083333333, "name": "bd4cf0ce82f9f7a43aa85bca45340ab6", "fusion_lat": 0.0, "fusion_lon": 0.0, "rental_uris": {"android": "https://dc.lft.to/lastmile_qr_scan", "ios": "https://dc.lft.to/lastmile_qr_scan"}, "is_reserved": 0, "is_disabled": 0, "type": "electric_scooter", "bike_id": "bd4cf0ce82f9f7a43aa85bca45340ab6"}, {"lon": -77.0057735, "lat": 38.872104, "name": "c8cf5b8396ad36f94d192cf162cc4e94", "fusion_lat": 0.0, "fusion_lon": 0.0, "rental_uris": {"android": "https://dc.lft.to/lastmile_qr_scan", "ios": "https://dc.lft.to/lastmile_qr_scan"}, "is_reserved": 0, "is_disabled": 0, "type": "electric_scooter", "bike_id": "c8cf5b8396ad36f94d192cf162cc4e94"}, {"lon": -77.04225983333333, "lat": 38.938573, "name": "104e0002e13c792513d2e86fdc1c4a97", "fusion_lat": 0.0, "fusion_lon": 0.0, "rental_uris": {"android": "https://dc.lft.to/lastmile_qr_scan", "ios": "https://dc.lft.to/lastmile_qr_scan"}, "is_reserved": 0, "is_disabled": 0, "type": "electric_bike", "bike_id": "104e0002e13c792513d2e86fdc1c4a97"}, {"lon": -77.01835383333334, "lat": 38.908729, "name": "e99a092f78de62bcfd20200501d566bb", "fusion_lat": 0.0, "fusion_lon": 0.0, "rental_uris": {"android": "https://dc.lft.to/lastmile_qr_scan", "ios": "https://dc.lft.to/lastmile_qr_scan"}, "is_reserved": 0, "is_disabled": 0, "type": "electric_scooter", "bike_id": "e99a092f78de62bcfd20200501d566bb"}, {"lon": -77.0165055, "lat": 38.95336866666667, "name": "f0f5ace9eae70ea1428094aafc8db542", "fusion_lat": 0.0, "fusion_lon": 0.0, "rental_uris": {"android": "https://dc.lft.to/lastmile_qr_scan", "ios": "https://dc.lft.to/lastmile_qr_scan"}, "is_reserved": 0, "is_disabled": 0, "type": "electric_scooter", "bike_id": "f0f5ace9eae70ea1428094aafc8db542"}, {"lon": -77.05445116666667, "lat": 38.896069833333335, "name": "4c3ef0aa3676a4a7cfe0ccac843a6b48", "fusion_lat": 0.0, "fusion_lon": 0.0, "rental_uris": {"android": "https://dc.lft.to/lastmile_qr_scan", "ios": "https://dc.lft.to/lastmile_qr_scan"}, "is_reserved": 0, "is_disabled": 0, "type": "electric_scooter", "bike_id": "4c3ef0aa3676a4a7cfe0ccac843a6b48"}, {"lon": -77.02888283333333, "lat": 38.9072205, "name": "12ed6d0981535c18289060acc61a223a", "fusion_lat": 0.0, "fusion_lon": 0.0, "rental_uris": {"android": "https://dc.lft.to/lastmile_qr_scan", "ios": "https://dc.lft.to/lastmile_qr_scan"}, "is_reserved": 0, "is_disabled": 0, "type": "electric_bike", "bike_id": "12ed6d0981535c18289060acc61a223a"}, {"lon": -77.011989, "lat": 38.9002385, "name": "e38e9cef4443f6aa70a7f70d81ba667a", "fusion_lat": 0.0, "fusion_lon": 0.0, "rental_uris": {"android": "https://dc.lft.to/lastmile_qr_scan", "ios": "https://dc.lft.to/lastmile_qr_scan"}, "is_reserved": 0, "is_disabled": 0, "type": "electric_scooter", "bike_id": "e38e9cef4443f6aa70a7f70d81ba667a"}, {"lon": -77.020495, "lat": 38.915533, "name": "c07817d1b94ce8a6a57f109ba68f85e0", "fusion_lat": 0.0, "fusion_lon": 0.0, "rental_uris": {"android": "https://dc.lft.to/lastmile_qr_scan", "ios": "https://dc.lft.to/lastmile_qr_scan"}, "is_reserved": 0, "is_disabled": 0, "type": "electric_scooter", "bike_id": "c07817d1b94ce8a6a57f109ba68f85e0"}, {"lon": -77.04662683333333, "lat": 38.8933735, "name": "6d36c0f5bfebdd065152cc4e44503653", "fusion_lat": 0.0, "fusion_lon": 0.0, "rental_uris": {"android": "https://dc.lft.to/lastmile_qr_scan", "ios": "https://dc.lft.to/lastmile_qr_scan"}, "is_reserved": 0, "is_disabled": 0, "type": "electric_scooter", "bike_id": "6d36c0f5bfebdd065152cc4e44503653"}, {"lon": -77.0417085, "lat": 38.90626916666667, "name": "3f8280c8c9970438dbe8ac8db5d1b7d4", "fusion_lat": 0.0, "fusion_lon": 0.0, "rental_uris": {"android": "https://dc.lft.to/lastmile_qr_scan", "ios": "https://dc.lft.to/lastmile_qr_scan"}, "is_reserved": 0, "is_disabled": 0, "type": "electric_scooter", "bike_id": "3f8280c8c9970438dbe8ac8db5d1b7d4"}, {"lon": -77.04347416666667, "lat": 38.898252666666664, "name": "fbb6ec1433387883d2fe00e6e66e9d17", "fusion_lat": 0.0, "fusion_lon": 0.0, "rental_uris": {"android": "https://dc.lft.to/lastmile_qr_scan", "ios": "https://dc.lft.to/lastmile_qr_scan"}, "is_reserved": 0, "is_disabled": 0, "type": "electric_scooter", "bike_id": "fbb6ec1433387883d2fe00e6e66e9d17"}, {"lon": -77.038037, "lat": 38.905538, "name": "74f7adab76b02f4f334beeb101fba04c", "fusion_lat": 0.0, "fusion_lon": 0.0, "rental_uris": {"android": "https://dc.lft.to/lastmile_qr_scan", "ios": "https://dc.lft.to/lastmile_qr_scan"}, "is_reserved": 0, "is_disabled": 0, "type": "electric_scooter", "bike_id": "74f7adab76b02f4f334beeb101fba04c"}, {"lon": -77.032218, "lat": 38.892205, "name": "ef26611e45d3172e7ecd79322be87818", "fusion_lat": 0.0, "fusion_lon": 0.0, "rental_uris": {"android": "https://dc.lft.to/lastmile_qr_scan", "ios": "https://dc.lft.to/lastmile_qr_scan"}, "is_reserved": 0, "is_disabled": 0, "type": "electric_scooter", "bike_id": "ef26611e45d3172e7ecd79322be87818"}, {"lon": -77.1068615, "lat": 38.93579283333333, "name": "8ab7100c9e15f9192cad58a247aa5e75", "fusion_lat": 0.0, "fusion_lon": 0.0, "rental_uris": {"android": "https://dc.lft.to/lastmile_qr_scan", "ios": "https://dc.lft.to/lastmile_qr_scan"}, "is_reserved": 0, "is_disabled": 0, "type": "electric_bike", "bike_id": "8ab7100c9e15f9192cad58a247aa5e75"}, {"lon": -77.02418133333333, "lat": 38.90425366666667, "name": "80fcb963cde25aa740de5bda1df2712a", "fusion_lat": 0.0, "fusion_lon": 0.0, "rental_uris": {"android": "https://dc.lft.to/lastmile_qr_scan", "ios": "https://dc.lft.to/lastmile_qr_scan"}, "is_reserved": 0, "is_disabled": 0, "type": "electric_scooter", "bike_id": "80fcb963cde25aa740de5bda1df2712a"}, {"lon": -76.991605, "lat": 38.90039766666666, "name": "206aadfb2fc59ec2a428bb4ec6921b81", "fusion_lat": 0.0, "fusion_lon": 0.0, "rental_uris": {"android": "https://dc.lft.to/lastmile_qr_scan", "ios": "https://dc.lft.to/lastmile_qr_scan"}, "is_reserved": 0, "is_disabled": 0, "type": "electric_scooter", "bike_id": "206aadfb2fc59ec2a428bb4ec6921b81"}, {"lon": -77.0490625, "lat": 38.9053235, "name": "fa6a93eee345baa655c4bab3d85e58fb", "fusion_lat": 0.0, "fusion_lon": 0.0, "rental_uris": {"android": "https://dc.lft.to/lastmile_qr_scan", "ios": "https://dc.lft.to/lastmile_qr_scan"}, "is_reserved": 0, "is_disabled": 0, "type": "electric_scooter", "bike_id": "fa6a93eee345baa655c4bab3d85e58fb"}, {"lon": -77.01088033333333, "lat": 38.893964, "name": "eba1052aecf35c81e418904434b29380", "fusion_lat": 0.0, "fusion_lon": 0.0, "rental_uris": {"android": "https://dc.lft.to/lastmile_qr_scan", "ios": "https://dc.lft.to/lastmile_qr_scan"}, "is_reserved": 0, "is_disabled": 0, "type": "electric_scooter", "bike_id": "eba1052aecf35c81e418904434b29380"}, {"lon": -77.0380345, "lat": 38.929992166666665, "name": "652b398bbb6c1ce06536c271464d7d68", "fusion_lat": 0.0, "fusion_lon": 0.0, "rental_uris": {"android": "https://dc.lft.to/lastmile_qr_scan", "ios": "https://dc.lft.to/lastmile_qr_scan"}, "is_reserved": 0, "is_disabled": 0, "type": "electric_scooter", "bike_id": "652b398bbb6c1ce06536c271464d7d68"}, {"lon": -77.0382805, "lat": 38.91107933333333, "name": "95256dea13d45d6122eab0a488b6b9e3", "fusion_lat": 0.0, "fusion_lon": 0.0, "rental_uris": {"android": "https://dc.lft.to/lastmile_qr_scan", "ios": "https://dc.lft.to/lastmile_qr_scan"}, "is_reserved": 0, "is_disabled": 0, "type": "electric_scooter", "bike_id": "95256dea13d45d6122eab0a488b6b9e3"}, {"lon": -77.002686, "lat": 38.90733216666667, "name": "a06c459549dc72bc60e81daad0350882", "fusion_lat": 0.0, "fusion_lon": 0.0, "rental_uris": {"android": "https://dc.lft.to/lastmile_qr_scan", "ios": "https://dc.lft.to/lastmile_qr_scan"}, "is_reserved": 0, "is_disabled": 0, "type": "electric_scooter", "bike_id": "a06c459549dc72bc60e81daad0350882"}, {"lon": -76.97252533333334, "lat": 38.957406, "name": "a0653388eea856ac20e82466a3ac9996", "fusion_lat": 0.0, "fusion_lon": 0.0, "rental_uris": {"android": "https://dc.lft.to/lastmile_qr_scan", "ios": "https://dc.lft.to/lastmile_qr_scan"}, "is_reserved": 0, "is_disabled": 0, "type": "electric_bike", "bike_id": "a0653388eea856ac20e82466a3ac9996"}, {"lon": -77.07606583333333, "lat": 38.912151, "name": "73574199e49b216b79096f530c945a2b", "fusion_lat": 0.0, "fusion_lon": 0.0, "rental_uris": {"android": "https://dc.lft.to/lastmile_qr_scan", "ios": "https://dc.lft.to/lastmile_qr_scan"}, "is_reserved": 0, "is_disabled": 0, "type": "electric_scooter", "bike_id": "73574199e49b216b79096f530c945a2b"}, {"lon": -77.18738783333333, "lat": 38.89352433333333, "name": "fca10eaca19f055b0a7683e85e9fcd5e", "fusion_lat": 0.0, "fusion_lon": 0.0, "rental_uris": {"android": "https://dc.lft.to/lastmile_qr_scan", "ios": "https://dc.lft.to/lastmile_qr_scan"}, "is_reserved": 0, "is_disabled": 0, "type": "electric_bike", "bike_id": "fca10eaca19f055b0a7683e85e9fcd5e"}, {"lon": -76.95655383333333, "lat": 38.89606833333333, "name": "a1bd6ac2fbfc79c576f1b7e02d8a2eec", "fusion_lat": 0.0, "fusion_lon": 0.0, "rental_uris": {"android": "https://dc.lft.to/lastmile_qr_scan", "ios": "https://dc.lft.to/lastmile_qr_scan"}, "is_reserved": 0, "is_disabled": 0, "type": "electric_scooter", "bike_id": "a1bd6ac2fbfc79c576f1b7e02d8a2eec"}, {"lon": -77.03322866666667, "lat": 38.9256185, "name": "bda3c8d8fa696187ca081e586ba7115c", "fusion_lat": 0.0, "fusion_lon": 0.0, "rental_uris": {"android": "https://dc.lft.to/lastmile_qr_scan", "ios": "https://dc.lft.to/lastmile_qr_scan"}, "is_reserved": 0, "is_disabled": 0, "type": "electric_scooter", "bike_id": "bda3c8d8fa696187ca081e586ba7115c"}, {"lon": -76.94653233333334, "lat": 38.89826133333333, "name": "94b6942137ab9e6ae9cea0d7c0a357e8", "fusion_lat": 0.0, "fusion_lon": 0.0, "rental_uris": {"android": "https://dc.lft.to/lastmile_qr_scan", "ios": "https://dc.lft.to/lastmile_qr_scan"}, "is_reserved": 0, "is_disabled": 0, "type": "electric_scooter", "bike_id": "94b6942137ab9e6ae9cea0d7c0a357e8"}, {"lon": -76.988517, "lat": 38.90344666666667, "name": "b1716c87d3be44256957d6821c55ded4", "fusion_lat": 0.0, "fusion_lon": 0.0, "rental_uris": {"android": "https://dc.lft.to/lastmile_qr_scan", "ios": "https://dc.lft.to/lastmile_qr_scan"}, "is_reserved": 0, "is_disabled": 0, "type": "electric_scooter", "bike_id": "b1716c87d3be44256957d6821c55ded4"}, {"lon": -77.04438483333334, "lat": 38.91260116666667, "name": "3c17a27e35798a1aaa5334505602f8e7", "fusion_lat": 0.0, "fusion_lon": 0.0, "rental_uris": {"android": "https://dc.lft.to/lastmile_qr_scan", "ios": "https://dc.lft.to/lastmile_qr_scan"}, "is_reserved": 0, "is_disabled": 0, "type": "electric_scooter", "bike_id": "3c17a27e35798a1aaa5334505602f8e7"}, {"lon": -77.04201933333333, "lat": 38.927197166666666, "name": "2945003f3cb3cbb2a2582f3d7d69bf2c", "fusion_lat": 0.0, "fusion_lon": 0.0, "rental_uris": {"android": "https://dc.lft.to/lastmile_qr_scan", "ios": "https://dc.lft.to/lastmile_qr_scan"}, "is_reserved": 0, "is_disabled": 0, "type": "electric_scooter", "bike_id": "2945003f3cb3cbb2a2582f3d7d69bf2c"}, {"lon": -77.048806, "lat": 38.90471616666667, "name": "2f55a75495d3fa3d4838fdf88a23f196", "fusion_lat": 0.0, "fusion_lon": 0.0, "rental_uris": {"android": "https://dc.lft.to/lastmile_qr_scan", "ios": "https://dc.lft.to/lastmile_qr_scan"}, "is_reserved": 0, "is_disabled": 0, "type": "electric_scooter", "bike_id": "2f55a75495d3fa3d4838fdf88a23f196"}, {"lon": -77.03307516666666, "lat": 38.908200666666666, "name": "8292223252877e939e78b5e519628698", "fusion_lat": 0.0, "fusion_lon": 0.0, "rental_uris": {"android": "https://dc.lft.to/lastmile_qr_scan", "ios": "https://dc.lft.to/lastmile_qr_scan"}, "is_reserved": 0, "is_disabled": 0, "type": "electric_scooter", "bike_id": "8292223252877e939e78b5e519628698"}, {"lon": -77.046385, "lat": 38.89219683333334, "name": "05886789fcffd32fb33cecc9f4797aa7", "fusion_lat": 0.0, "fusion_lon": 0.0, "rental_uris": {"android": "https://dc.lft.to/lastmile_qr_scan", "ios": "https://dc.lft.to/lastmile_qr_scan"}, "is_reserved": 0, "is_disabled": 0, "type": "electric_scooter", "bike_id": "05886789fcffd32fb33cecc9f4797aa7"}, {"lon": -77.02316566666667, "lat": 38.908895666666666, "name": "60d879d3e0a0bbe8c0fa9aae2650d1e4", "fusion_lat": 0.0, "fusion_lon": 0.0, "rental_uris": {"android": "https://dc.lft.to/lastmile_qr_scan", "ios": "https://dc.lft.to/lastmile_qr_scan"}, "is_reserved": 0, "is_disabled": 0, "type": "electric_scooter", "bike_id": "60d879d3e0a0bbe8c0fa9aae2650d1e4"}, {"lon": -77.02725116666667, "lat": 38.9408975, "name": "d0078f1aa94230377bae5870a3503cb5", "fusion_lat": 0.0, "fusion_lon": 0.0, "rental_uris": {"android": "https://dc.lft.to/lastmile_qr_scan", "ios": "https://dc.lft.to/lastmile_qr_scan"}, "is_reserved": 0, "is_disabled": 0, "type": "electric_scooter", "bike_id": "d0078f1aa94230377bae5870a3503cb5"}, {"lon": -77.04544483333333, "lat": 38.89482316666667, "name": "56727ce1ae7b23e93ef7faa3b5ba49f8", "fusion_lat": 0.0, "fusion_lon": 0.0, "rental_uris": {"android": "https://dc.lft.to/lastmile_qr_scan", "ios": "https://dc.lft.to/lastmile_qr_scan"}, "is_reserved": 0, "is_disabled": 0, "type": "electric_scooter", "bike_id": "56727ce1ae7b23e93ef7faa3b5ba49f8"}, {"lon": -77.03527233333334, "lat": 38.906668833333335, "name": "ced97b76518ef6a978316e8fe33fa946", "fusion_lat": 0.0, "fusion_lon": 0.0, "rental_uris": {"android": "https://dc.lft.to/lastmile_qr_scan", "ios": "https://dc.lft.to/lastmile_qr_scan"}, "is_reserved": 0, "is_disabled": 0, "type": "electric_scooter", "bike_id": "ced97b76518ef6a978316e8fe33fa946"}, {"lon": -77.02694183333334, "lat": 38.909372166666664, "name": "27b06a1e2e592aab8c7f61d1f81377d4", "fusion_lat": 0.0, "fusion_lon": 0.0, "rental_uris": {"android": "https://dc.lft.to/lastmile_qr_scan", "ios": "https://dc.lft.to/lastmile_qr_scan"}, "is_reserved": 0, "is_disabled": 0, "type": "electric_scooter", "bike_id": "27b06a1e2e592aab8c7f61d1f81377d4"}, {"lon": -77.03211033333334, "lat": 38.900414, "name": "e0c2a9b2235324240d2daa9471355058", "fusion_lat": 0.0, "fusion_lon": 0.0, "rental_uris": {"android": "https://dc.lft.to/lastmile_qr_scan", "ios": "https://dc.lft.to/lastmile_qr_scan"}, "is_reserved": 0, "is_disabled": 0, "type": "electric_scooter", "bike_id": "e0c2a9b2235324240d2daa9471355058"}, {"lon": -77.00340333333334, "lat": 38.895289166666664, "name": "089cb25aeb948c46ad13ded4adb505dc", "fusion_lat": 0.0, "fusion_lon": 0.0, "rental_uris": {"android": "https://dc.lft.to/lastmile_qr_scan", "ios": "https://dc.lft.to/lastmile_qr_scan"}, "is_reserved": 0, "is_disabled": 0, "type": "electric_scooter", "bike_id": "089cb25aeb948c46ad13ded4adb505dc"}, {"lon": -77.03861383333333, "lat": 38.90767066666667, "name": "37adef3915e9a790eb2dc39d8a227517", "fusion_lat": 0.0, "fusion_lon": 0.0, "rental_uris": {"android": "https://dc.lft.to/lastmile_qr_scan", "ios": "https://dc.lft.to/lastmile_qr_scan"}, "is_reserved": 0, "is_disabled": 0, "type": "electric_scooter", "bike_id": "37adef3915e9a790eb2dc39d8a227517"}, {"lon": -76.9478745, "lat": 38.896406999999996, "name": "2f1221fb683d3905c90e31c9357b0eb2", "fusion_lat": 0.0, "fusion_lon": 0.0, "rental_uris": {"android": "https://dc.lft.to/lastmile_qr_scan", "ios": "https://dc.lft.to/lastmile_qr_scan"}, "is_reserved": 0, "is_disabled": 0, "type": "electric_bike", "bike_id": "2f1221fb683d3905c90e31c9357b0eb2"}, {"lon": -77.033658, "lat": 38.89839033333333, "name": "2628d3f1bd7d28d471d77dc5567c00dd", "fusion_lat": 0.0, "fusion_lon": 0.0, "rental_uris": {"android": "https://dc.lft.to/lastmile_qr_scan", "ios": "https://dc.lft.to/lastmile_qr_scan"}, "is_reserved": 0, "is_disabled": 0, "type": "electric_scooter", "bike_id": "2628d3f1bd7d28d471d77dc5567c00dd"}, {"lon": -76.983676, "lat": 38.91522233333333, "name": "831bbd974b182ce67fad18e5e39b3d35", "fusion_lat": 0.0, "fusion_lon": 0.0, "rental_uris": {"android": "https://dc.lft.to/lastmile_qr_scan", "ios": "https://dc.lft.to/lastmile_qr_scan"}, "is_reserved": 0, "is_disabled": 0, "type": "electric_scooter", "bike_id": "831bbd974b182ce67fad18e5e39b3d35"}, {"lon": -77.03747916666667, "lat": 38.922064, "name": "3188c7ae565b3babf2dfdc18823df42d", "fusion_lat": 0.0, "fusion_lon": 0.0, "rental_uris": {"android": "https://dc.lft.to/lastmile_qr_scan", "ios": "https://dc.lft.to/lastmile_qr_scan"}, "is_reserved": 0, "is_disabled": 0, "type": "electric_scooter", "bike_id": "3188c7ae565b3babf2dfdc18823df42d"}, {"lon": -77.02828166666667, "lat": 38.887390333333336, "name": "00c8a0d70d0aded062b14d52f68092f1", "fusion_lat": 0.0, "fusion_lon": 0.0, "rental_uris": {"android": "https://dc.lft.to/lastmile_qr_scan", "ios": "https://dc.lft.to/lastmile_qr_scan"}, "is_reserved": 0, "is_disabled": 0, "type": "electric_scooter", "bike_id": "00c8a0d70d0aded062b14d52f68092f1"}, {"lon": -77.05941466666667, "lat": 38.9366535, "name": "90f90fe7561a57f552a50bffbdb3ebc6", "fusion_lat": 0.0, "fusion_lon": 0.0, "rental_uris": {"android": "https://dc.lft.to/lastmile_qr_scan", "ios": "https://dc.lft.to/lastmile_qr_scan"}, "is_reserved": 0, "is_disabled": 0, "type": "electric_scooter", "bike_id": "90f90fe7561a57f552a50bffbdb3ebc6"}, {"lon": -76.9906785, "lat": 38.863567333333336, "name": "3b1b5e2fed61ba0b876cf50074858456", "fusion_lat": 0.0, "fusion_lon": 0.0, "rental_uris": {"android": "https://dc.lft.to/lastmile_qr_scan", "ios": "https://dc.lft.to/lastmile_qr_scan"}, "is_reserved": 0, "is_disabled": 0, "type": "electric_scooter", "bike_id": "3b1b5e2fed61ba0b876cf50074858456"}, {"lon": -76.95518316666667, "lat": 38.890481666666666, "name": "d3251b2a2bc28166e84d94106062a76e", "fusion_lat": 0.0, "fusion_lon": 0.0, "rental_uris": {"android": "https://dc.lft.to/lastmile_qr_scan", "ios": "https://dc.lft.to/lastmile_qr_scan"}, "is_reserved": 0, "is_disabled": 0, "type": "electric_scooter", "bike_id": "d3251b2a2bc28166e84d94106062a76e"}, {"lon": -77.021916, "lat": 38.9112945, "name": "b29e28e781fe187ba3b1b4aa3886a705", "fusion_lat": 0.0, "fusion_lon": 0.0, "rental_uris": {"android": "https://dc.lft.to/lastmile_qr_scan", "ios": "https://dc.lft.to/lastmile_qr_scan"}, "is_reserved": 0, "is_disabled": 0, "type": "electric_scooter", "bike_id": "b29e28e781fe187ba3b1b4aa3886a705"}, {"lon": -77.07663816666667, "lat": 38.906222166666666, "name": "c4ae7b2b65e466fcf7ea9c944a234b50", "fusion_lat": 0.0, "fusion_lon": 0.0, "rental_uris": {"android": "https://dc.lft.to/lastmile_qr_scan", "ios": "https://dc.lft.to/lastmile_qr_scan"}, "is_reserved": 0, "is_disabled": 0, "type": "electric_scooter", "bike_id": "c4ae7b2b65e466fcf7ea9c944a234b50"}, {"lon": -77.03678216666667, "lat": 38.9125575, "name": "b1ca2968a42bff5065f967f84a09a610", "fusion_lat": 0.0, "fusion_lon": 0.0, "rental_uris": {"android": "https://dc.lft.to/lastmile_qr_scan", "ios": "https://dc.lft.to/lastmile_qr_scan"}, "is_reserved": 0, "is_disabled": 0, "type": "electric_scooter", "bike_id": "b1ca2968a42bff5065f967f84a09a610"}, {"lon": -76.9906325, "lat": 38.90393533333334, "name": "a8b90408197956e84f9c1917e63d734c", "fusion_lat": 0.0, "fusion_lon": 0.0, "rental_uris": {"android": "https://dc.lft.to/lastmile_qr_scan", "ios": "https://dc.lft.to/lastmile_qr_scan"}, "is_reserved": 0, "is_disabled": 0, "type": "electric_scooter", "bike_id": "a8b90408197956e84f9c1917e63d734c"}, {"lon": -76.98561683333334, "lat": 38.8688845, "name": "ad70b324cc263a5d05e4324261353e80", "fusion_lat": 0.0, "fusion_lon": 0.0, "rental_uris": {"android": "https://dc.lft.to/lastmile_qr_scan", "ios": "https://dc.lft.to/lastmile_qr_scan"}, "is_reserved": 0, "is_disabled": 0, "type": "electric_bike", "bike_id": "ad70b324cc263a5d05e4324261353e80"}, {"lon": -77.03187483333333, "lat": 38.893927, "name": "4c9068bc34b7803a61d27bc32dcb1e98", "fusion_lat": 0.0, "fusion_lon": 0.0, "rental_uris": {"android": "https://dc.lft.to/lastmile_qr_scan", "ios": "https://dc.lft.to/lastmile_qr_scan"}, "is_reserved": 0, "is_disabled": 0, "type": "electric_scooter", "bike_id": "4c9068bc34b7803a61d27bc32dcb1e98"}, {"lon": -77.02695566666667, "lat": 38.909318999999996, "name": "4444c81f0296c3a1cf914bb714d28eb2", "fusion_lat": 0.0, "fusion_lon": 0.0, "rental_uris": {"android": "https://dc.lft.to/lastmile_qr_scan", "ios": "https://dc.lft.to/lastmile_qr_scan"}, "is_reserved": 0, "is_disabled": 0, "type": "electric_scooter", "bike_id": "4444c81f0296c3a1cf914bb714d28eb2"}, {"lon": -76.9463425, "lat": 38.94622416666667, "name": "4c7ecb9769a07dd63ec5d5bf72668a12", "fusion_lat": 0.0, "fusion_lon": 0.0, "rental_uris": {"android": "https://dc.lft.to/lastmile_qr_scan", "ios": "https://dc.lft.to/lastmile_qr_scan"}, "is_reserved": 0, "is_disabled": 0, "type": "electric_bike", "bike_id": "4c7ecb9769a07dd63ec5d5bf72668a12"}, {"lon": -77.00219216666666, "lat": 38.900725666666666, "name": "85727cc991e2b36f5b93bda55ebecd54", "fusion_lat": 0.0, "fusion_lon": 0.0, "rental_uris": {"android": "https://dc.lft.to/lastmile_qr_scan", "ios": "https://dc.lft.to/lastmile_qr_scan"}, "is_reserved": 0, "is_disabled": 0, "type": "electric_scooter", "bike_id": "85727cc991e2b36f5b93bda55ebecd54"}, {"lon": -77.062874, "lat": 38.90453483333334, "name": "18449f767bf8ecf2bebad0da76dbd65f", "fusion_lat": 0.0, "fusion_lon": 0.0, "rental_uris": {"android": "https://dc.lft.to/lastmile_qr_scan", "ios": "https://dc.lft.to/lastmile_qr_scan"}, "is_reserved": 0, "is_disabled": 0, "type": "electric_scooter", "bike_id": "18449f767bf8ecf2bebad0da76dbd65f"}, {"lon": -77.01842033333334, "lat": 38.91350383333333, "name": "7d66d94ef2a6c41511681314353dc1c4", "fusion_lat": 0.0, "fusion_lon": 0.0, "rental_uris": {"android": "https://dc.lft.to/lastmile_qr_scan", "ios": "https://dc.lft.to/lastmile_qr_scan"}, "is_reserved": 0, "is_disabled": 0, "type": "electric_scooter", "bike_id": "7d66d94ef2a6c41511681314353dc1c4"}, {"lon": -77.02196416666666, "lat": 38.91689183333333, "name": "84141314d552f9ae9611856e5eaebada", "fusion_lat": 0.0, "fusion_lon": 0.0, "rental_uris": {"android": "https://dc.lft.to/lastmile_qr_scan", "ios": "https://dc.lft.to/lastmile_qr_scan"}, "is_reserved": 0, "is_disabled": 0, "type": "electric_scooter", "bike_id": "84141314d552f9ae9611856e5eaebada"}, {"lon": -77.0335295, "lat": 38.92885116666667, "name": "5b17428bcd555b57010bb0198bad05a0", "fusion_lat": 0.0, "fusion_lon": 0.0, "rental_uris": {"android": "https://dc.lft.to/lastmile_qr_scan", "ios": "https://dc.lft.to/lastmile_qr_scan"}, "is_reserved": 0, "is_disabled": 0, "type": "electric_scooter", "bike_id": "5b17428bcd555b57010bb0198bad05a0"}, {"lon": -77.04227433333334, "lat": 38.911105166666665, "name": "d27a6df36bda7841e9c240fe451bf226", "fusion_lat": 0.0, "fusion_lon": 0.0, "rental_uris": {"android": "https://dc.lft.to/lastmile_qr_scan", "ios": "https://dc.lft.to/lastmile_qr_scan"}, "is_reserved": 0, "is_disabled": 0, "type": "electric_scooter", "bike_id": "d27a6df36bda7841e9c240fe451bf226"}, {"lon": -76.98127266666667, "lat": 38.8919605, "name": "ec2ca25682678b853dce441a89ac4162", "fusion_lat": 0.0, "fusion_lon": 0.0, "rental_uris": {"android": "https://dc.lft.to/lastmile_qr_scan", "ios": "https://dc.lft.to/lastmile_qr_scan"}, "is_reserved": 0, "is_disabled": 0, "type": "electric_scooter", "bike_id": "ec2ca25682678b853dce441a89ac4162"}, {"lon": -77.0464285, "lat": 38.89228383333333, "name": "782414a93fb438457f969a2e639ef928", "fusion_lat": 0.0, "fusion_lon": 0.0, "rental_uris": {"android": "https://dc.lft.to/lastmile_qr_scan", "ios": "https://dc.lft.to/lastmile_qr_scan"}, "is_reserved": 0, "is_disabled": 0, "type": "electric_scooter", "bike_id": "782414a93fb438457f969a2e639ef928"}, {"lon": -76.994999, "lat": 38.86246516666667, "name": "a913e2132798d03f6aad4dd6b00112c7", "fusion_lat": 0.0, "fusion_lon": 0.0, "rental_uris": {"android": "https://dc.lft.to/lastmile_qr_scan", "ios": "https://dc.lft.to/lastmile_qr_scan"}, "is_reserved": 0, "is_disabled": 0, "type": "electric_scooter", "bike_id": "a913e2132798d03f6aad4dd6b00112c7"}, {"lon": -77.03164216666667, "lat": 38.944554333333336, "name": "3e30992ee16fed2a793745ee806e589f", "fusion_lat": 0.0, "fusion_lon": 0.0, "rental_uris": {"android": "https://dc.lft.to/lastmile_qr_scan", "ios": "https://dc.lft.to/lastmile_qr_scan"}, "is_reserved": 0, "is_disabled": 0, "type": "electric_bike", "bike_id": "3e30992ee16fed2a793745ee806e589f"}, {"lon": -77.02720316666667, "lat": 38.9719055, "name": "fd2652bb841eccdb66c337f8f6535252", "fusion_lat": 0.0, "fusion_lon": 0.0, "rental_uris": {"android": "https://dc.lft.to/lastmile_qr_scan", "ios": "https://dc.lft.to/lastmile_qr_scan"}, "is_reserved": 0, "is_disabled": 0, "type": "electric_bike", "bike_id": "fd2652bb841eccdb66c337f8f6535252"}, {"lon": -76.94741016666667, "lat": 38.896936333333336, "name": "79b6892e11266830138a42cedafc7c97", "fusion_lat": 0.0, "fusion_lon": 0.0, "rental_uris": {"android": "https://dc.lft.to/lastmile_qr_scan", "ios": "https://dc.lft.to/lastmile_qr_scan"}, "is_reserved": 0, "is_disabled": 0, "type": "electric_scooter", "bike_id": "79b6892e11266830138a42cedafc7c97"}, {"lon": -77.02948216666667, "lat": 38.90487916666667, "name": "9bcdbb2ace714c6b160b2c4cb9174ee3", "fusion_lat": 0.0, "fusion_lon": 0.0, "rental_uris": {"android": "https://dc.lft.to/lastmile_qr_scan", "ios": "https://dc.lft.to/lastmile_qr_scan"}, "is_reserved": 0, "is_disabled": 0, "type": "electric_scooter", "bike_id": "9bcdbb2ace714c6b160b2c4cb9174ee3"}, {"lon": -77.0472405, "lat": 38.8996305, "name": "0f94f677a3dedc9b81d65f0fd7551a01", "fusion_lat": 0.0, "fusion_lon": 0.0, "rental_uris": {"android": "https://dc.lft.to/lastmile_qr_scan", "ios": "https://dc.lft.to/lastmile_qr_scan"}, "is_reserved": 0, "is_disabled": 0, "type": "electric_scooter", "bike_id": "0f94f677a3dedc9b81d65f0fd7551a01"}, {"lon": -76.9812995, "lat": 38.904915833333334, "name": "c41f31add326101d66219107d7e5b1d3", "fusion_lat": 0.0, "fusion_lon": 0.0, "rental_uris": {"android": "https://dc.lft.to/lastmile_qr_scan", "ios": "https://dc.lft.to/lastmile_qr_scan"}, "is_reserved": 0, "is_disabled": 0, "type": "electric_scooter", "bike_id": "c41f31add326101d66219107d7e5b1d3"}, {"lon": -77.01117516666666, "lat": 38.8950205, "name": "3ec88ea4ce7f9c3d02a722ae25d4cdbb", "fusion_lat": 0.0, "fusion_lon": 0.0, "rental_uris": {"android": "https://dc.lft.to/lastmile_qr_scan", "ios": "https://dc.lft.to/lastmile_qr_scan"}, "is_reserved": 0, "is_disabled": 0, "type": "electric_scooter", "bike_id": "3ec88ea4ce7f9c3d02a722ae25d4cdbb"}, {"lon": -77.02356733333333, "lat": 38.89739, "name": "8fbb4bf69ba2d0b5411f071b32e990e8", "fusion_lat": 0.0, "fusion_lon": 0.0, "rental_uris": {"android": "https://dc.lft.to/lastmile_qr_scan", "ios": "https://dc.lft.to/lastmile_qr_scan"}, "is_reserved": 0, "is_disabled": 0, "type": "electric_scooter", "bike_id": "8fbb4bf69ba2d0b5411f071b32e990e8"}, {"lon": -77.04644666666667, "lat": 38.852051333333335, "name": "f039d55627ee2014f830e27de7983f30", "fusion_lat": 0.0, "fusion_lon": 0.0, "rental_uris": {"android": "https://dc.lft.to/lastmile_qr_scan", "ios": "https://dc.lft.to/lastmile_qr_scan"}, "is_reserved": 0, "is_disabled": 0, "type": "electric_bike", "bike_id": "f039d55627ee2014f830e27de7983f30"}, {"lon": -77.021608, "lat": 38.92456383333333, "name": "3eaf7bb0f18470a6c546787cfa249d0c", "fusion_lat": 0.0, "fusion_lon": 0.0, "rental_uris": {"android": "https://dc.lft.to/lastmile_qr_scan", "ios": "https://dc.lft.to/lastmile_qr_scan"}, "is_reserved": 0, "is_disabled": 0, "type": "electric_scooter", "bike_id": "3eaf7bb0f18470a6c546787cfa249d0c"}, {"lon": -76.99950516666667, "lat": 38.8429065, "name": "10f112b64e1a973fc24d5c0ab3bc0f9d", "fusion_lat": 0.0, "fusion_lon": 0.0, "rental_uris": {"android": "https://dc.lft.to/lastmile_qr_scan", "ios": "https://dc.lft.to/lastmile_qr_scan"}, "is_reserved": 0, "is_disabled": 0, "type": "electric_scooter", "bike_id": "10f112b64e1a973fc24d5c0ab3bc0f9d"}, {"lon": -77.0443935, "lat": 38.91869366666667, "name": "7037f9393d8882cdb3dc6feb582d60b2", "fusion_lat": 0.0, "fusion_lon": 0.0, "rental_uris": {"android": "https://dc.lft.to/lastmile_qr_scan", "ios": "https://dc.lft.to/lastmile_qr_scan"}, "is_reserved": 0, "is_disabled": 0, "type": "electric_scooter", "bike_id": "7037f9393d8882cdb3dc6feb582d60b2"}, {"lon": -77.037527, "lat": 38.916831333333334, "name": "cd925e4e3517d5cae4063b1e0f8778f0", "fusion_lat": 0.0, "fusion_lon": 0.0, "rental_uris": {"android": "https://dc.lft.to/lastmile_qr_scan", "ios": "https://dc.lft.to/lastmile_qr_scan"}, "is_reserved": 0, "is_disabled": 0, "type": "electric_scooter", "bike_id": "cd925e4e3517d5cae4063b1e0f8778f0"}, {"lon": -77.03324016666667, "lat": 38.90041566666667, "name": "3ba71680ee7a3ef64358af4abb6044fc", "fusion_lat": 0.0, "fusion_lon": 0.0, "rental_uris": {"android": "https://dc.lft.to/lastmile_qr_scan", "ios": "https://dc.lft.to/lastmile_qr_scan"}, "is_reserved": 0, "is_disabled": 0, "type": "electric_scooter", "bike_id": "3ba71680ee7a3ef64358af4abb6044fc"}, {"lon": -77.0333885, "lat": 38.917077, "name": "2e7e8731059b67bd2dbdd64e2861bd28", "fusion_lat": 0.0, "fusion_lon": 0.0, "rental_uris": {"android": "https://dc.lft.to/lastmile_qr_scan", "ios": "https://dc.lft.to/lastmile_qr_scan"}, "is_reserved": 0, "is_disabled": 0, "type": "electric_scooter", "bike_id": "2e7e8731059b67bd2dbdd64e2861bd28"}, {"lon": -77.02812666666667, "lat": 38.881768, "name": "8b786257d4ded78d69e1f98bbde9b915", "fusion_lat": 0.0, "fusion_lon": 0.0, "rental_uris": {"android": "https://dc.lft.to/lastmile_qr_scan", "ios": "https://dc.lft.to/lastmile_qr_scan"}, "is_reserved": 0, "is_disabled": 0, "type": "electric_scooter", "bike_id": "8b786257d4ded78d69e1f98bbde9b915"}, {"lon": -77.02899566666666, "lat": 38.903255333333334, "name": "44684e53077f16dbb2c90890f4fd0a8d", "fusion_lat": 0.0, "fusion_lon": 0.0, "rental_uris": {"android": "https://dc.lft.to/lastmile_qr_scan", "ios": "https://dc.lft.to/lastmile_qr_scan"}, "is_reserved": 0, "is_disabled": 0, "type": "electric_scooter", "bike_id": "44684e53077f16dbb2c90890f4fd0a8d"}, {"lon": -77.04474983333333, "lat": 38.89970483333333, "name": "dd454404b51281d6c7919175607bdafa", "fusion_lat": 0.0, "fusion_lon": 0.0, "rental_uris": {"android": "https://dc.lft.to/lastmile_qr_scan", "ios": "https://dc.lft.to/lastmile_qr_scan"}, "is_reserved": 0, "is_disabled": 0, "type": "electric_scooter", "bike_id": "dd454404b51281d6c7919175607bdafa"}, {"lon": -77.02767433333334, "lat": 38.894688333333335, "name": "89ca52d28fbd57d197c60a2a57ac343b", "fusion_lat": 0.0, "fusion_lon": 0.0, "rental_uris": {"android": "https://dc.lft.to/lastmile_qr_scan", "ios": "https://dc.lft.to/lastmile_qr_scan"}, "is_reserved": 0, "is_disabled": 0, "type": "electric_scooter", "bike_id": "89ca52d28fbd57d197c60a2a57ac343b"}, {"lon": -77.05639583333334, "lat": 38.905366666666666, "name": "773e31fabd7bcd1632951c3ed0dca76d", "fusion_lat": 0.0, "fusion_lon": 0.0, "rental_uris": {"android": "https://dc.lft.to/lastmile_qr_scan", "ios": "https://dc.lft.to/lastmile_qr_scan"}, "is_reserved": 0, "is_disabled": 0, "type": "electric_scooter", "bike_id": "773e31fabd7bcd1632951c3ed0dca76d"}, {"lon": -77.03411283333334, "lat": 38.922774, "name": "3bf70bbc05c705254518543d3fb24fda", "fusion_lat": 0.0, "fusion_lon": 0.0, "rental_uris": {"android": "https://dc.lft.to/lastmile_qr_scan", "ios": "https://dc.lft.to/lastmile_qr_scan"}, "is_reserved": 0, "is_disabled": 0, "type": "electric_scooter", "bike_id": "3bf70bbc05c705254518543d3fb24fda"}, {"lon": -77.0461135, "lat": 38.92233066666667, "name": "e00dc1e3a86ecdf8cd3daf83afa74ba6", "fusion_lat": 0.0, "fusion_lon": 0.0, "rental_uris": {"android": "https://dc.lft.to/lastmile_qr_scan", "ios": "https://dc.lft.to/lastmile_qr_scan"}, "is_reserved": 0, "is_disabled": 0, "type": "electric_scooter", "bike_id": "e00dc1e3a86ecdf8cd3daf83afa74ba6"}, {"lon": -77.04078366666667, "lat": 38.917525, "name": "c7cb3e9e83b37f252db079cba0039cf9", "fusion_lat": 0.0, "fusion_lon": 0.0, "rental_uris": {"android": "https://dc.lft.to/lastmile_qr_scan", "ios": "https://dc.lft.to/lastmile_qr_scan"}, "is_reserved": 0, "is_disabled": 0, "type": "electric_scooter", "bike_id": "c7cb3e9e83b37f252db079cba0039cf9"}, {"lon": -77.01745933333333, "lat": 38.902491, "name": "b5c6620d140cdde7a3cb571c0d104df9", "fusion_lat": 0.0, "fusion_lon": 0.0, "rental_uris": {"android": "https://dc.lft.to/lastmile_qr_scan", "ios": "https://dc.lft.to/lastmile_qr_scan"}, "is_reserved": 0, "is_disabled": 0, "type": "electric_scooter", "bike_id": "b5c6620d140cdde7a3cb571c0d104df9"}, {"lon": -77.03851716666667, "lat": 38.9101355, "name": "a5fee96737544ab755c0b42734dfe450", "fusion_lat": 0.0, "fusion_lon": 0.0, "rental_uris": {"android": "https://dc.lft.to/lastmile_qr_scan", "ios": "https://dc.lft.to/lastmile_qr_scan"}, "is_reserved": 0, "is_disabled": 0, "type": "electric_scooter", "bike_id": "a5fee96737544ab755c0b42734dfe450"}, {"lon": -76.94721033333333, "lat": 38.897344833333335, "name": "efffdf590ac67174dced777b89cfc587", "fusion_lat": 0.0, "fusion_lon": 0.0, "rental_uris": {"android": "https://dc.lft.to/lastmile_qr_scan", "ios": "https://dc.lft.to/lastmile_qr_scan"}, "is_reserved": 0, "is_disabled": 0, "type": "electric_scooter", "bike_id": "efffdf590ac67174dced777b89cfc587"}, {"lon": -77.058537, "lat": 38.93420316666667, "name": "929beaa4cc4877557ba844a8d29d75d1", "fusion_lat": 0.0, "fusion_lon": 0.0, "rental_uris": {"android": "https://dc.lft.to/lastmile_qr_scan", "ios": "https://dc.lft.to/lastmile_qr_scan"}, "is_reserved": 0, "is_disabled": 0, "type": "electric_scooter", "bike_id": "929beaa4cc4877557ba844a8d29d75d1"}, {"lon": -77.043492, "lat": 38.904228, "name": "6e6a701baaa83ffbbc020ae4184f8517", "fusion_lat": 0.0, "fusion_lon": 0.0, "rental_uris": {"android": "https://dc.lft.to/lastmile_qr_scan", "ios": "https://dc.lft.to/lastmile_qr_scan"}, "is_reserved": 0, "is_disabled": 0, "type": "electric_scooter", "bike_id": "6e6a701baaa83ffbbc020ae4184f8517"}, {"lon": -76.98713916666667, "lat": 38.862590833333336, "name": "a6ca15ddeefb412b3af56ce0411f6c88", "fusion_lat": 0.0, "fusion_lon": 0.0, "rental_uris": {"android": "https://dc.lft.to/lastmile_qr_scan", "ios": "https://dc.lft.to/lastmile_qr_scan"}, "is_reserved": 0, "is_disabled": 0, "type": "electric_scooter", "bike_id": "a6ca15ddeefb412b3af56ce0411f6c88"}, {"lon": -77.01405833333334, "lat": 38.92840016666667, "name": "ea60e170b362f45bf184aa9df8b71a3b", "fusion_lat": 0.0, "fusion_lon": 0.0, "rental_uris": {"android": "https://dc.lft.to/lastmile_qr_scan", "ios": "https://dc.lft.to/lastmile_qr_scan"}, "is_reserved": 0, "is_disabled": 0, "type": "electric_scooter", "bike_id": "ea60e170b362f45bf184aa9df8b71a3b"}, {"lon": -76.99159533333334, "lat": 38.8823665, "name": "d81fab41223534386c16d375a6ef7cc9", "fusion_lat": 0.0, "fusion_lon": 0.0, "rental_uris": {"android": "https://dc.lft.to/lastmile_qr_scan", "ios": "https://dc.lft.to/lastmile_qr_scan"}, "is_reserved": 0, "is_disabled": 0, "type": "electric_scooter", "bike_id": "d81fab41223534386c16d375a6ef7cc9"}, {"lon": -77.01990233333333, "lat": 38.91520083333333, "name": "4e06a515687c923640fa3f997283cfc0", "fusion_lat": 0.0, "fusion_lon": 0.0, "rental_uris": {"android": "https://dc.lft.to/lastmile_qr_scan", "ios": "https://dc.lft.to/lastmile_qr_scan"}, "is_reserved": 0, "is_disabled": 0, "type": "electric_scooter", "bike_id": "4e06a515687c923640fa3f997283cfc0"}, {"lon": -77.00138683333333, "lat": 38.904055, "name": "8007195aa84a46ec925e6d0babea6dd2", "fusion_lat": 0.0, "fusion_lon": 0.0, "rental_uris": {"android": "https://dc.lft.to/lastmile_qr_scan", "ios": "https://dc.lft.to/lastmile_qr_scan"}, "is_reserved": 0, "is_disabled": 0, "type": "electric_scooter", "bike_id": "8007195aa84a46ec925e6d0babea6dd2"}, {"lon": -77.01108033333334, "lat": 38.96307266666667, "name": "f76b650f57a9dae61d44ecaa589ae1cd", "fusion_lat": 0.0, "fusion_lon": 0.0, "rental_uris": {"android": "https://dc.lft.to/lastmile_qr_scan", "ios": "https://dc.lft.to/lastmile_qr_scan"}, "is_reserved": 0, "is_disabled": 0, "type": "electric_bike", "bike_id": "f76b650f57a9dae61d44ecaa589ae1cd"}, {"lon": -77.03881083333333, "lat": 38.91188133333333, "name": "c5f286da18dfd3fde74a5bb4db74776f", "fusion_lat": 0.0, "fusion_lon": 0.0, "rental_uris": {"android": "https://dc.lft.to/lastmile_qr_scan", "ios": "https://dc.lft.to/lastmile_qr_scan"}, "is_reserved": 0, "is_disabled": 0, "type": "electric_scooter", "bike_id": "c5f286da18dfd3fde74a5bb4db74776f"}, {"lon": -76.973311, "lat": 38.9047775, "name": "943f3fae680e3c87c59d4f7e91eb547d", "fusion_lat": 0.0, "fusion_lon": 0.0, "rental_uris": {"android": "https://dc.lft.to/lastmile_qr_scan", "ios": "https://dc.lft.to/lastmile_qr_scan"}, "is_reserved": 0, "is_disabled": 0, "type": "electric_scooter", "bike_id": "943f3fae680e3c87c59d4f7e91eb547d"}, {"lon": -77.03222433333333, "lat": 38.8977895, "name": "910dce0da7221e23855978889212b806", "fusion_lat": 0.0, "fusion_lon": 0.0, "rental_uris": {"android": "https://dc.lft.to/lastmile_qr_scan", "ios": "https://dc.lft.to/lastmile_qr_scan"}, "is_reserved": 0, "is_disabled": 0, "type": "electric_scooter", "bike_id": "910dce0da7221e23855978889212b806"}, {"lon": -77.10899383333333, "lat": 38.8303885, "name": "f597422188e4a7a7c99bdf1e1391dca2", "fusion_lat": 0.0, "fusion_lon": 0.0, "rental_uris": {"android": "https://dc.lft.to/lastmile_qr_scan", "ios": "https://dc.lft.to/lastmile_qr_scan"}, "is_reserved": 0, "is_disabled": 0, "type": "electric_bike", "bike_id": "f597422188e4a7a7c99bdf1e1391dca2"}, {"lon": -77.02600316666667, "lat": 38.89836483333333, "name": "f14f70f6fff5100b3036731f2fa4c228", "fusion_lat": 0.0, "fusion_lon": 0.0, "rental_uris": {"android": "https://dc.lft.to/lastmile_qr_scan", "ios": "https://dc.lft.to/lastmile_qr_scan"}, "is_reserved": 0, "is_disabled": 0, "type": "electric_scooter", "bike_id": "f14f70f6fff5100b3036731f2fa4c228"}, {"lon": -77.02941366666667, "lat": 38.942806166666664, "name": "e3fb8d85755aea88e9e0879ebc57dcdc", "fusion_lat": 0.0, "fusion_lon": 0.0, "rental_uris": {"android": "https://dc.lft.to/lastmile_qr_scan", "ios": "https://dc.lft.to/lastmile_qr_scan"}, "is_reserved": 0, "is_disabled": 0, "type": "electric_scooter", "bike_id": "e3fb8d85755aea88e9e0879ebc57dcdc"}, {"lon": -77.1290415, "lat": 38.86374166666667, "name": "8b1062e17712f11110e5ea27a94abb41", "fusion_lat": 0.0, "fusion_lon": 0.0, "rental_uris": {"android": "https://dc.lft.to/lastmile_qr_scan", "ios": "https://dc.lft.to/lastmile_qr_scan"}, "is_reserved": 0, "is_disabled": 0, "type": "electric_bike", "bike_id": "8b1062e17712f11110e5ea27a94abb41"}, {"lon": -77.04013166666667, "lat": 38.89646183333333, "name": "37b340d80c3a629220ac3cd78469b307", "fusion_lat": 0.0, "fusion_lon": 0.0, "rental_uris": {"android": "https://dc.lft.to/lastmile_qr_scan", "ios": "https://dc.lft.to/lastmile_qr_scan"}, "is_reserved": 0, "is_disabled": 0, "type": "electric_scooter", "bike_id": "37b340d80c3a629220ac3cd78469b307"}, {"lon": -77.03434366666667, "lat": 38.919269666666665, "name": "34dfc99e5957c26dc08603b76e32f500", "fusion_lat": 0.0, "fusion_lon": 0.0, "rental_uris": {"android": "https://dc.lft.to/lastmile_qr_scan", "ios": "https://dc.lft.to/lastmile_qr_scan"}, "is_reserved": 0, "is_disabled": 0, "type": "electric_scooter", "bike_id": "34dfc99e5957c26dc08603b76e32f500"}, {"lon": -77.02689783333334, "lat": 38.9069095, "name": "7fe948e86c85b891b1cd79f5724a859d", "fusion_lat": 0.0, "fusion_lon": 0.0, "rental_uris": {"android": "https://dc.lft.to/lastmile_qr_scan", "ios": "https://dc.lft.to/lastmile_qr_scan"}, "is_reserved": 0, "is_disabled": 0, "type": "electric_scooter", "bike_id": "7fe948e86c85b891b1cd79f5724a859d"}, {"lon": -77.05718616666667, "lat": 38.904822, "name": "399d6e987751ed1fdac77b00a1de0fd3", "fusion_lat": 0.0, "fusion_lon": 0.0, "rental_uris": {"android": "https://dc.lft.to/lastmile_qr_scan", "ios": "https://dc.lft.to/lastmile_qr_scan"}, "is_reserved": 0, "is_disabled": 0, "type": "electric_scooter", "bike_id": "399d6e987751ed1fdac77b00a1de0fd3"}, {"lon": -77.06077783333333, "lat": 38.93914066666667, "name": "9a0dd265d47793a5fdd1316437b7f8a5", "fusion_lat": 0.0, "fusion_lon": 0.0, "rental_uris": {"android": "https://dc.lft.to/lastmile_qr_scan", "ios": "https://dc.lft.to/lastmile_qr_scan"}, "is_reserved": 0, "is_disabled": 0, "type": "electric_scooter", "bike_id": "9a0dd265d47793a5fdd1316437b7f8a5"}, {"lon": -77.005561, "lat": 38.875333166666664, "name": "d6be5124ab357c46da4f16a692ae7de6", "fusion_lat": 0.0, "fusion_lon": 0.0, "rental_uris": {"android": "https://dc.lft.to/lastmile_qr_scan", "ios": "https://dc.lft.to/lastmile_qr_scan"}, "is_reserved": 0, "is_disabled": 0, "type": "electric_scooter", "bike_id": "d6be5124ab357c46da4f16a692ae7de6"}, {"lon": -77.050397, "lat": 38.924024, "name": "4a02cabcbd801e3a6510cabed588f093", "fusion_lat": 0.0, "fusion_lon": 0.0, "rental_uris": {"android": "https://dc.lft.to/lastmile_qr_scan", "ios": "https://dc.lft.to/lastmile_qr_scan"}, "is_reserved": 0, "is_disabled": 0, "type": "electric_scooter", "bike_id": "4a02cabcbd801e3a6510cabed588f093"}, {"lon": -77.033911, "lat": 38.88659883333333, "name": "7081c91886ad05540ea5a07a1bebe670", "fusion_lat": 0.0, "fusion_lon": 0.0, "rental_uris": {"android": "https://dc.lft.to/lastmile_qr_scan", "ios": "https://dc.lft.to/lastmile_qr_scan"}, "is_reserved": 0, "is_disabled": 0, "type": "electric_scooter", "bike_id": "7081c91886ad05540ea5a07a1bebe670"}, {"lon": -77.06630933333334, "lat": 38.913662, "name": "155dfc45dcbef19d4bfc935f4624309a", "fusion_lat": 0.0, "fusion_lon": 0.0, "rental_uris": {"android": "https://dc.lft.to/lastmile_qr_scan", "ios": "https://dc.lft.to/lastmile_qr_scan"}, "is_reserved": 0, "is_disabled": 0, "type": "electric_scooter", "bike_id": "155dfc45dcbef19d4bfc935f4624309a"}, {"lon": -76.99066033333334, "lat": 38.863515666666665, "name": "d205ad4b163341461537bd9a2cc585b5", "fusion_lat": 0.0, "fusion_lon": 0.0, "rental_uris": {"android": "https://dc.lft.to/lastmile_qr_scan", "ios": "https://dc.lft.to/lastmile_qr_scan"}, "is_reserved": 0, "is_disabled": 0, "type": "electric_scooter", "bike_id": "d205ad4b163341461537bd9a2cc585b5"}, {"lon": -77.02514116666667, "lat": 38.919275, "name": "7c77df2532968734e4b8273b58fb6593", "fusion_lat": 0.0, "fusion_lon": 0.0, "rental_uris": {"android": "https://dc.lft.to/lastmile_qr_scan", "ios": "https://dc.lft.to/lastmile_qr_scan"}, "is_reserved": 0, "is_disabled": 0, "type": "electric_scooter", "bike_id": "7c77df2532968734e4b8273b58fb6593"}, {"lon": -77.05554083333334, "lat": 38.8996955, "name": "8ec8aaf03b79f1ae0705f3c5c1660424", "fusion_lat": 0.0, "fusion_lon": 0.0, "rental_uris": {"android": "https://dc.lft.to/lastmile_qr_scan", "ios": "https://dc.lft.to/lastmile_qr_scan"}, "is_reserved": 0, "is_disabled": 0, "type": "electric_scooter", "bike_id": "8ec8aaf03b79f1ae0705f3c5c1660424"}, {"lon": -77.0331905, "lat": 38.8986955, "name": "a4df7b846e44d45b59607e3f5993afa1", "fusion_lat": 0.0, "fusion_lon": 0.0, "rental_uris": {"android": "https://dc.lft.to/lastmile_qr_scan", "ios": "https://dc.lft.to/lastmile_qr_scan"}, "is_reserved": 0, "is_disabled": 0, "type": "electric_scooter", "bike_id": "a4df7b846e44d45b59607e3f5993afa1"}, {"lon": -76.965308, "lat": 38.876303166666666, "name": "641dfa60e48b23377102585e5fcff31e", "fusion_lat": 0.0, "fusion_lon": 0.0, "rental_uris": {"android": "https://dc.lft.to/lastmile_qr_scan", "ios": "https://dc.lft.to/lastmile_qr_scan"}, "is_reserved": 0, "is_disabled": 0, "type": "electric_scooter", "bike_id": "641dfa60e48b23377102585e5fcff31e"}, {"lon": -77.04612616666667, "lat": 38.902505, "name": "0e13f12d38c7ec7932157a7fac2d0af1", "fusion_lat": 0.0, "fusion_lon": 0.0, "rental_uris": {"android": "https://dc.lft.to/lastmile_qr_scan", "ios": "https://dc.lft.to/lastmile_qr_scan"}, "is_reserved": 0, "is_disabled": 0, "type": "electric_scooter", "bike_id": "0e13f12d38c7ec7932157a7fac2d0af1"}, {"lon": -77.048927, "lat": 38.89234233333333, "name": "8bfc94a85349f60de5989d3429cca43d", "fusion_lat": 0.0, "fusion_lon": 0.0, "rental_uris": {"android": "https://dc.lft.to/lastmile_qr_scan", "ios": "https://dc.lft.to/lastmile_qr_scan"}, "is_reserved": 0, "is_disabled": 0, "type": "electric_scooter", "bike_id": "8bfc94a85349f60de5989d3429cca43d"}, {"lon": -76.993404, "lat": 38.961923666666664, "name": "0d3d8ee060de3d4d32df0a61ac3d23c7", "fusion_lat": 0.0, "fusion_lon": 0.0, "rental_uris": {"android": "https://dc.lft.to/lastmile_qr_scan", "ios": "https://dc.lft.to/lastmile_qr_scan"}, "is_reserved": 0, "is_disabled": 0, "type": "electric_bike", "bike_id": "0d3d8ee060de3d4d32df0a61ac3d23c7"}, {"lon": -77.04214316666666, "lat": 38.9232315, "name": "e397fd6430787b650d48050464dd284c", "fusion_lat": 0.0, "fusion_lon": 0.0, "rental_uris": {"android": "https://dc.lft.to/lastmile_qr_scan", "ios": "https://dc.lft.to/lastmile_qr_scan"}, "is_reserved": 0, "is_disabled": 0, "type": "electric_scooter", "bike_id": "e397fd6430787b650d48050464dd284c"}, {"lon": -77.00349633333333, "lat": 38.8966075, "name": "0200b22fa9ddafd49fed9984426c9f5c", "fusion_lat": 0.0, "fusion_lon": 0.0, "rental_uris": {"android": "https://dc.lft.to/lastmile_qr_scan", "ios": "https://dc.lft.to/lastmile_qr_scan"}, "is_reserved": 0, "is_disabled": 0, "type": "electric_scooter", "bike_id": "0200b22fa9ddafd49fed9984426c9f5c"}, {"lon": -77.01872366666667, "lat": 38.948941833333336, "name": "344c5f0d2c5d30dd7026b63fc58f7095", "fusion_lat": 0.0, "fusion_lon": 0.0, "rental_uris": {"android": "https://dc.lft.to/lastmile_qr_scan", "ios": "https://dc.lft.to/lastmile_qr_scan"}, "is_reserved": 0, "is_disabled": 0, "type": "electric_scooter", "bike_id": "344c5f0d2c5d30dd7026b63fc58f7095"}, {"lon": -77.02928833333333, "lat": 38.882161833333335, "name": "c8f7c40185ae29986d9393ef00dde458", "fusion_lat": 0.0, "fusion_lon": 0.0, "rental_uris": {"android": "https://dc.lft.to/lastmile_qr_scan", "ios": "https://dc.lft.to/lastmile_qr_scan"}, "is_reserved": 0, "is_disabled": 0, "type": "electric_scooter", "bike_id": "c8f7c40185ae29986d9393ef00dde458"}, {"lon": -77.02693933333333, "lat": 38.90940966666667, "name": "7033568cdc95ceec58cfe43aca97ab82", "fusion_lat": 0.0, "fusion_lon": 0.0, "rental_uris": {"android": "https://dc.lft.to/lastmile_qr_scan", "ios": "https://dc.lft.to/lastmile_qr_scan"}, "is_reserved": 0, "is_disabled": 0, "type": "electric_scooter", "bike_id": "7033568cdc95ceec58cfe43aca97ab82"}, {"lon": -77.0406795, "lat": 38.898311, "name": "0322d7669a2379cf86c7abf353854f1c", "fusion_lat": 0.0, "fusion_lon": 0.0, "rental_uris": {"android": "https://dc.lft.to/lastmile_qr_scan", "ios": "https://dc.lft.to/lastmile_qr_scan"}, "is_reserved": 0, "is_disabled": 0, "type": "electric_scooter", "bike_id": "0322d7669a2379cf86c7abf353854f1c"}, {"lon": -76.927118, "lat": 38.887678666666666, "name": "393010496e455b219c5d4c1cce9a8a00", "fusion_lat": 0.0, "fusion_lon": 0.0, "rental_uris": {"android": "https://dc.lft.to/lastmile_qr_scan", "ios": "https://dc.lft.to/lastmile_qr_scan"}, "is_reserved": 0, "is_disabled": 0, "type": "electric_scooter", "bike_id": "393010496e455b219c5d4c1cce9a8a00"}, {"lon": -76.99748433333333, "lat": 38.9003365, "name": "2bbf3b4537b115ed28ee44cdf53e2c02", "fusion_lat": 0.0, "fusion_lon": 0.0, "rental_uris": {"android": "https://dc.lft.to/lastmile_qr_scan", "ios": "https://dc.lft.to/lastmile_qr_scan"}, "is_reserved": 0, "is_disabled": 0, "type": "electric_scooter", "bike_id": "2bbf3b4537b115ed28ee44cdf53e2c02"}, {"lon": -76.98902866666667, "lat": 38.866938166666664, "name": "37c39bf4462f7f626767323b55726476", "fusion_lat": 0.0, "fusion_lon": 0.0, "rental_uris": {"android": "https://dc.lft.to/lastmile_qr_scan", "ios": "https://dc.lft.to/lastmile_qr_scan"}, "is_reserved": 0, "is_disabled": 0, "type": "electric_scooter", "bike_id": "37c39bf4462f7f626767323b55726476"}, {"lon": -77.06989266666666, "lat": 38.9469355, "name": "731e4601d153fd65d1ff1ca0a01fb2f4", "fusion_lat": 0.0, "fusion_lon": 0.0, "rental_uris": {"android": "https://dc.lft.to/lastmile_qr_scan", "ios": "https://dc.lft.to/lastmile_qr_scan"}, "is_reserved": 0, "is_disabled": 0, "type": "electric_scooter", "bike_id": "731e4601d153fd65d1ff1ca0a01fb2f4"}, {"lon": -77.1273915, "lat": 38.89567683333333, "name": "9552a68cbcee654a1e1b259850b34892", "fusion_lat": 0.0, "fusion_lon": 0.0, "rental_uris": {"android": "https://dc.lft.to/lastmile_qr_scan", "ios": "https://dc.lft.to/lastmile_qr_scan"}, "is_reserved": 0, "is_disabled": 0, "type": "electric_bike", "bike_id": "9552a68cbcee654a1e1b259850b34892"}, {"lon": -77.04633883333334, "lat": 38.919106166666666, "name": "03f5aad44c7b61221d3ed760aece9c02", "fusion_lat": 0.0, "fusion_lon": 0.0, "rental_uris": {"android": "https://dc.lft.to/lastmile_qr_scan", "ios": "https://dc.lft.to/lastmile_qr_scan"}, "is_reserved": 0, "is_disabled": 0, "type": "electric_scooter", "bike_id": "03f5aad44c7b61221d3ed760aece9c02"}, {"lon": -76.99408316666667, "lat": 38.91002566666667, "name": "51b804cac605b6a1f99d9b4edf787482", "fusion_lat": 0.0, "fusion_lon": 0.0, "rental_uris": {"android": "https://dc.lft.to/lastmile_qr_scan", "ios": "https://dc.lft.to/lastmile_qr_scan"}, "is_reserved": 0, "is_disabled": 0, "type": "electric_scooter", "bike_id": "51b804cac605b6a1f99d9b4edf787482"}, {"lon": -76.99634983333334, "lat": 38.846190166666666, "name": "ee267623306cb6abb92d36caa7ce33fa", "fusion_lat": 0.0, "fusion_lon": 0.0, "rental_uris": {"android": "https://dc.lft.to/lastmile_qr_scan", "ios": "https://dc.lft.to/lastmile_qr_scan"}, "is_reserved": 0, "is_disabled": 0, "type": "electric_scooter", "bike_id": "ee267623306cb6abb92d36caa7ce33fa"}, {"lon": -77.01228466666667, "lat": 38.930437, "name": "42d3dba2710269e1495ab6506619ba58", "fusion_lat": 0.0, "fusion_lon": 0.0, "rental_uris": {"android": "https://dc.lft.to/lastmile_qr_scan", "ios": "https://dc.lft.to/lastmile_qr_scan"}, "is_reserved": 0, "is_disabled": 0, "type": "electric_scooter", "bike_id": "42d3dba2710269e1495ab6506619ba58"}, {"lon": -77.00024283333333, "lat": 38.906847666666664, "name": "c0020799d0e2a5e9490a63f9361b5ae2", "fusion_lat": 0.0, "fusion_lon": 0.0, "rental_uris": {"android": "https://dc.lft.to/lastmile_qr_scan", "ios": "https://dc.lft.to/lastmile_qr_scan"}, "is_reserved": 0, "is_disabled": 0, "type": "electric_scooter", "bike_id": "c0020799d0e2a5e9490a63f9361b5ae2"}, {"lon": -77.05159433333333, "lat": 38.9238785, "name": "7bfdda6945c77e7dafd1d076e4a90df4", "fusion_lat": 0.0, "fusion_lon": 0.0, "rental_uris": {"android": "https://dc.lft.to/lastmile_qr_scan", "ios": "https://dc.lft.to/lastmile_qr_scan"}, "is_reserved": 0, "is_disabled": 0, "type": "electric_scooter", "bike_id": "7bfdda6945c77e7dafd1d076e4a90df4"}, {"lon": -76.9861555, "lat": 38.854583, "name": "7920261c93e80c505198bbfdc38e9516", "fusion_lat": 0.0, "fusion_lon": 0.0, "rental_uris": {"android": "https://dc.lft.to/lastmile_qr_scan", "ios": "https://dc.lft.to/lastmile_qr_scan"}, "is_reserved": 0, "is_disabled": 0, "type": "electric_scooter", "bike_id": "7920261c93e80c505198bbfdc38e9516"}, {"lon": -77.00923633333333, "lat": 38.910442833333335, "name": "89a43126f5f87b814aecc5a48b56554c", "fusion_lat": 0.0, "fusion_lon": 0.0, "rental_uris": {"android": "https://dc.lft.to/lastmile_qr_scan", "ios": "https://dc.lft.to/lastmile_qr_scan"}, "is_reserved": 0, "is_disabled": 0, "type": "electric_scooter", "bike_id": "89a43126f5f87b814aecc5a48b56554c"}, {"lon": -77.04062983333333, "lat": 38.91766483333333, "name": "2b89af9e189ca74009c58c7ccab17972", "fusion_lat": 0.0, "fusion_lon": 0.0, "rental_uris": {"android": "https://dc.lft.to/lastmile_qr_scan", "ios": "https://dc.lft.to/lastmile_qr_scan"}, "is_reserved": 0, "is_disabled": 0, "type": "electric_scooter", "bike_id": "2b89af9e189ca74009c58c7ccab17972"}, {"lon": -77.047787, "lat": 38.9050555, "name": "769e7b6242d66f27e3ec9536b9615b8f", "fusion_lat": 0.0, "fusion_lon": 0.0, "rental_uris": {"android": "https://dc.lft.to/lastmile_qr_scan", "ios": "https://dc.lft.to/lastmile_qr_scan"}, "is_reserved": 0, "is_disabled": 0, "type": "electric_bike", "bike_id": "769e7b6242d66f27e3ec9536b9615b8f"}, {"lon": -77.02831433333333, "lat": 38.91412916666667, "name": "5cccd19a6710694bbace1acca1afb614", "fusion_lat": 0.0, "fusion_lon": 0.0, "rental_uris": {"android": "https://dc.lft.to/lastmile_qr_scan", "ios": "https://dc.lft.to/lastmile_qr_scan"}, "is_reserved": 0, "is_disabled": 0, "type": "electric_scooter", "bike_id": "5cccd19a6710694bbace1acca1afb614"}, {"lon": -76.998403, "lat": 38.83921983333333, "name": "ea7a8d3a7c2f8db03b739d47e10546ee", "fusion_lat": 0.0, "fusion_lon": 0.0, "rental_uris": {"android": "https://dc.lft.to/lastmile_qr_scan", "ios": "https://dc.lft.to/lastmile_qr_scan"}, "is_reserved": 0, "is_disabled": 0, "type": "electric_bike", "bike_id": "ea7a8d3a7c2f8db03b739d47e10546ee"}, {"lon": -77.02568416666666, "lat": 38.8874525, "name": "abf87e74af9d32f184a6dac968b1b108", "fusion_lat": 0.0, "fusion_lon": 0.0, "rental_uris": {"android": "https://dc.lft.to/lastmile_qr_scan", "ios": "https://dc.lft.to/lastmile_qr_scan"}, "is_reserved": 0, "is_disabled": 0, "type": "electric_scooter", "bike_id": "abf87e74af9d32f184a6dac968b1b108"}, {"lon": -76.98020816666667, "lat": 38.9037875, "name": "9d6e087b5ee046f8cfa033c150f7b572", "fusion_lat": 0.0, "fusion_lon": 0.0, "rental_uris": {"android": "https://dc.lft.to/lastmile_qr_scan", "ios": "https://dc.lft.to/lastmile_qr_scan"}, "is_reserved": 0, "is_disabled": 0, "type": "electric_scooter", "bike_id": "9d6e087b5ee046f8cfa033c150f7b572"}, {"lon": -77.01776233333334, "lat": 38.974386, "name": "57c59443eeb10c5d3f72e6a4552891a8", "fusion_lat": 0.0, "fusion_lon": 0.0, "rental_uris": {"android": "https://dc.lft.to/lastmile_qr_scan", "ios": "https://dc.lft.to/lastmile_qr_scan"}, "is_reserved": 0, "is_disabled": 0, "type": "electric_bike", "bike_id": "57c59443eeb10c5d3f72e6a4552891a8"}, {"lon": -77.034794, "lat": 38.91707916666667, "name": "aa43d7f5779577ad125ae66166b3502b", "fusion_lat": 0.0, "fusion_lon": 0.0, "rental_uris": {"android": "https://dc.lft.to/lastmile_qr_scan", "ios": "https://dc.lft.to/lastmile_qr_scan"}, "is_reserved": 0, "is_disabled": 0, "type": "electric_scooter", "bike_id": "aa43d7f5779577ad125ae66166b3502b"}, {"lon": -76.93572266666666, "lat": 38.88528216666667, "name": "d27b3084ad2acad5e9cfd97180dbfac5", "fusion_lat": 0.0, "fusion_lon": 0.0, "rental_uris": {"android": "https://dc.lft.to/lastmile_qr_scan", "ios": "https://dc.lft.to/lastmile_qr_scan"}, "is_reserved": 0, "is_disabled": 0, "type": "electric_bike", "bike_id": "d27b3084ad2acad5e9cfd97180dbfac5"}, {"lon": -77.00509916666667, "lat": 38.8753225, "name": "f1b50c09fd86c88e4e9979346b8b1c40", "fusion_lat": 0.0, "fusion_lon": 0.0, "rental_uris": {"android": "https://dc.lft.to/lastmile_qr_scan", "ios": "https://dc.lft.to/lastmile_qr_scan"}, "is_reserved": 0, "is_disabled": 0, "type": "electric_scooter", "bike_id": "f1b50c09fd86c88e4e9979346b8b1c40"}, {"lon": -77.03218216666667, "lat": 38.916477, "name": "0ff7d1304a4f07f1c2cfb794e12c2cb2", "fusion_lat": 0.0, "fusion_lon": 0.0, "rental_uris": {"android": "https://dc.lft.to/lastmile_qr_scan", "ios": "https://dc.lft.to/lastmile_qr_scan"}, "is_reserved": 0, "is_disabled": 0, "type": "electric_scooter", "bike_id": "0ff7d1304a4f07f1c2cfb794e12c2cb2"}, {"lon": -77.03008616666666, "lat": 38.93453216666666, "name": "609420b8941f148b1321292a7b532932", "fusion_lat": 0.0, "fusion_lon": 0.0, "rental_uris": {"android": "https://dc.lft.to/lastmile_qr_scan", "ios": "https://dc.lft.to/lastmile_qr_scan"}, "is_reserved": 0, "is_disabled": 0, "type": "electric_scooter", "bike_id": "609420b8941f148b1321292a7b532932"}, {"lon": -77.01076433333333, "lat": 38.9625705, "name": "d6cb655aa78eeacda84a4dcdd0254d8e", "fusion_lat": 0.0, "fusion_lon": 0.0, "rental_uris": {"android": "https://dc.lft.to/lastmile_qr_scan", "ios": "https://dc.lft.to/lastmile_qr_scan"}, "is_reserved": 0, "is_disabled": 0, "type": "electric_bike", "bike_id": "d6cb655aa78eeacda84a4dcdd0254d8e"}, {"lon": -77.03731483333334, "lat": 38.933555166666665, "name": "c613f9be2a625839eef3a715510bc9cc", "fusion_lat": 0.0, "fusion_lon": 0.0, "rental_uris": {"android": "https://dc.lft.to/lastmile_qr_scan", "ios": "https://dc.lft.to/lastmile_qr_scan"}, "is_reserved": 0, "is_disabled": 0, "type": "electric_scooter", "bike_id": "c613f9be2a625839eef3a715510bc9cc"}, {"lon": -77.03370033333333, "lat": 38.89288033333333, "name": "cfbfe8088d0d3abefac4fb3002becc30", "fusion_lat": 0.0, "fusion_lon": 0.0, "rental_uris": {"android": "https://dc.lft.to/lastmile_qr_scan", "ios": "https://dc.lft.to/lastmile_qr_scan"}, "is_reserved": 0, "is_disabled": 0, "type": "electric_scooter", "bike_id": "cfbfe8088d0d3abefac4fb3002becc30"}, {"lon": -77.04374816666666, "lat": 38.89222683333333, "name": "032c60c38d2938b3452fc75bc54c5749", "fusion_lat": 0.0, "fusion_lon": 0.0, "rental_uris": {"android": "https://dc.lft.to/lastmile_qr_scan", "ios": "https://dc.lft.to/lastmile_qr_scan"}, "is_reserved": 0, "is_disabled": 0, "type": "electric_scooter", "bike_id": "032c60c38d2938b3452fc75bc54c5749"}, {"lon": -77.06394083333333, "lat": 38.92904816666667, "name": "c0f0f5d23994203e6b030a73eb21228b", "fusion_lat": 0.0, "fusion_lon": 0.0, "rental_uris": {"android": "https://dc.lft.to/lastmile_qr_scan", "ios": "https://dc.lft.to/lastmile_qr_scan"}, "is_reserved": 0, "is_disabled": 0, "type": "electric_scooter", "bike_id": "c0f0f5d23994203e6b030a73eb21228b"}, {"lon": -77.12819333333333, "lat": 38.86527733333333, "name": "01c28e1af197b6aa8354be7701626ae2", "fusion_lat": 0.0, "fusion_lon": 0.0, "rental_uris": {"android": "https://dc.lft.to/lastmile_qr_scan", "ios": "https://dc.lft.to/lastmile_qr_scan"}, "is_reserved": 0, "is_disabled": 0, "type": "electric_bike", "bike_id": "01c28e1af197b6aa8354be7701626ae2"}, {"lon": -77.07050466666666, "lat": 38.824432, "name": "fb7ee4d002f6a21cffb629d10bca5e34", "fusion_lat": 0.0, "fusion_lon": 0.0, "rental_uris": {"android": "https://dc.lft.to/lastmile_qr_scan", "ios": "https://dc.lft.to/lastmile_qr_scan"}, "is_reserved": 0, "is_disabled": 0, "type": "electric_bike", "bike_id": "fb7ee4d002f6a21cffb629d10bca5e34"}, {"lon": -77.01699416666666, "lat": 38.9049195, "name": "6dbd1821a2c272ef798faa9e76a704c4", "fusion_lat": 0.0, "fusion_lon": 0.0, "rental_uris": {"android": "https://dc.lft.to/lastmile_qr_scan", "ios": "https://dc.lft.to/lastmile_qr_scan"}, "is_reserved": 0, "is_disabled": 0, "type": "electric_scooter", "bike_id": "6dbd1821a2c272ef798faa9e76a704c4"}, {"lon": -77.1298415, "lat": 38.799908, "name": "3744d3b1bfecad344445a3087389697d", "fusion_lat": 0.0, "fusion_lon": 0.0, "rental_uris": {"android": "https://dc.lft.to/lastmile_qr_scan", "ios": "https://dc.lft.to/lastmile_qr_scan"}, "is_reserved": 0, "is_disabled": 0, "type": "electric_bike", "bike_id": "3744d3b1bfecad344445a3087389697d"}, {"lon": -76.94723083333334, "lat": 38.896555666666664, "name": "5e04600e9d78cc89c1c943169af44a6a", "fusion_lat": 0.0, "fusion_lon": 0.0, "rental_uris": {"android": "https://dc.lft.to/lastmile_qr_scan", "ios": "https://dc.lft.to/lastmile_qr_scan"}, "is_reserved": 0, "is_disabled": 0, "type": "electric_scooter", "bike_id": "5e04600e9d78cc89c1c943169af44a6a"}, {"lon": -77.06891983333334, "lat": 38.940250666666664, "name": "d2563bfa005911f3a1d98ee73437f286", "fusion_lat": 0.0, "fusion_lon": 0.0, "rental_uris": {"android": "https://dc.lft.to/lastmile_qr_scan", "ios": "https://dc.lft.to/lastmile_qr_scan"}, "is_reserved": 0, "is_disabled": 0, "type": "electric_scooter", "bike_id": "d2563bfa005911f3a1d98ee73437f286"}, {"lon": -77.04162, "lat": 38.914266833333336, "name": "e476e0edd488247bb4bff58dd3329738", "fusion_lat": 0.0, "fusion_lon": 0.0, "rental_uris": {"android": "https://dc.lft.to/lastmile_qr_scan", "ios": "https://dc.lft.to/lastmile_qr_scan"}, "is_reserved": 0, "is_disabled": 0, "type": "electric_scooter", "bike_id": "e476e0edd488247bb4bff58dd3329738"}, {"lon": -77.05527283333333, "lat": 38.8993425, "name": "d2c6ac6b34be3132c314d88b2b15a82b", "fusion_lat": 0.0, "fusion_lon": 0.0, "rental_uris": {"android": "https://dc.lft.to/lastmile_qr_scan", "ios": "https://dc.lft.to/lastmile_qr_scan"}, "is_reserved": 0, "is_disabled": 0, "type": "electric_scooter", "bike_id": "d2c6ac6b34be3132c314d88b2b15a82b"}, {"lon": -77.03791016666666, "lat": 38.92630416666667, "name": "fcfe7e32439c87392b6c72eb1888e0c1", "fusion_lat": 0.0, "fusion_lon": 0.0, "rental_uris": {"android": "https://dc.lft.to/lastmile_qr_scan", "ios": "https://dc.lft.to/lastmile_qr_scan"}, "is_reserved": 0, "is_disabled": 0, "type": "electric_scooter", "bike_id": "fcfe7e32439c87392b6c72eb1888e0c1"}, {"lon": -77.10720883333333, "lat": 38.85572233333333, "name": "804c7d338895396a1c9247fec8be23e2", "fusion_lat": 0.0, "fusion_lon": 0.0, "rental_uris": {"android": "https://dc.lft.to/lastmile_qr_scan", "ios": "https://dc.lft.to/lastmile_qr_scan"}, "is_reserved": 0, "is_disabled": 0, "type": "electric_bike", "bike_id": "804c7d338895396a1c9247fec8be23e2"}, {"lon": -76.94873566666666, "lat": 38.88954616666667, "name": "d26ded35d2fd013c982a1f3b7675a60f", "fusion_lat": 0.0, "fusion_lon": 0.0, "rental_uris": {"android": "https://dc.lft.to/lastmile_qr_scan", "ios": "https://dc.lft.to/lastmile_qr_scan"}, "is_reserved": 0, "is_disabled": 0, "type": "electric_bike", "bike_id": "d26ded35d2fd013c982a1f3b7675a60f"}, {"lon": -76.98231183333333, "lat": 38.92503583333333, "name": "6ceb58aeaf3d24a89142580b27b000e4", "fusion_lat": 0.0, "fusion_lon": 0.0, "rental_uris": {"android": "https://dc.lft.to/lastmile_qr_scan", "ios": "https://dc.lft.to/lastmile_qr_scan"}, "is_reserved": 0, "is_disabled": 0, "type": "electric_bike", "bike_id": "6ceb58aeaf3d24a89142580b27b000e4"}, {"lon": -77.03316033333333, "lat": 38.91414116666667, "name": "fb994de669d2abc4d8edf60f43038479", "fusion_lat": 0.0, "fusion_lon": 0.0, "rental_uris": {"android": "https://dc.lft.to/lastmile_qr_scan", "ios": "https://dc.lft.to/lastmile_qr_scan"}, "is_reserved": 0, "is_disabled": 0, "type": "electric_scooter", "bike_id": "fb994de669d2abc4d8edf60f43038479"}, {"lon": -76.9817415, "lat": 38.9004115, "name": "ccc13c30f90ebe354595bd80feebad70", "fusion_lat": 0.0, "fusion_lon": 0.0, "rental_uris": {"android": "https://dc.lft.to/lastmile_qr_scan", "ios": "https://dc.lft.to/lastmile_qr_scan"}, "is_reserved": 0, "is_disabled": 0, "type": "electric_scooter", "bike_id": "ccc13c30f90ebe354595bd80feebad70"}, {"lon": -76.8782355, "lat": 38.992308666666666, "name": "404cc2ce4e0bb54ca5167b270c652f99", "fusion_lat": 0.0, "fusion_lon": 0.0, "rental_uris": {"android": "https://dc.lft.to/lastmile_qr_scan", "ios": "https://dc.lft.to/lastmile_qr_scan"}, "is_reserved": 0, "is_disabled": 0, "type": "electric_bike", "bike_id": "404cc2ce4e0bb54ca5167b270c652f99"}, {"lon": -76.97744816666666, "lat": 38.90005083333333, "name": "35ad7c35afe5a848d39111e0ea33f6d6", "fusion_lat": 0.0, "fusion_lon": 0.0, "rental_uris": {"android": "https://dc.lft.to/lastmile_qr_scan", "ios": "https://dc.lft.to/lastmile_qr_scan"}, "is_reserved": 0, "is_disabled": 0, "type": "electric_scooter", "bike_id": "35ad7c35afe5a848d39111e0ea33f6d6"}, {"lon": -76.93160266666666, "lat": 38.898733666666665, "name": "ac7b0d19f0e11cba4460f9dd9188addb", "fusion_lat": 0.0, "fusion_lon": 0.0, "rental_uris": {"android": "https://dc.lft.to/lastmile_qr_scan", "ios": "https://dc.lft.to/lastmile_qr_scan"}, "is_reserved": 0, "is_disabled": 0, "type": "electric_scooter", "bike_id": "ac7b0d19f0e11cba4460f9dd9188addb"}, {"lon": -77.02696166666666, "lat": 38.916375, "name": "60476595208224d0e3e927f8a8941d10", "fusion_lat": 0.0, "fusion_lon": 0.0, "rental_uris": {"android": "https://dc.lft.to/lastmile_qr_scan", "ios": "https://dc.lft.to/lastmile_qr_scan"}, "is_reserved": 0, "is_disabled": 0, "type": "electric_scooter", "bike_id": "60476595208224d0e3e927f8a8941d10"}, {"lon": -77.0181645, "lat": 38.90236683333333, "name": "9246fefc25e3cf65bf986b34419e4a9b", "fusion_lat": 0.0, "fusion_lon": 0.0, "rental_uris": {"android": "https://dc.lft.to/lastmile_qr_scan", "ios": "https://dc.lft.to/lastmile_qr_scan"}, "is_reserved": 0, "is_disabled": 0, "type": "electric_scooter", "bike_id": "9246fefc25e3cf65bf986b34419e4a9b"}, {"lon": -77.03134166666666, "lat": 38.915616, "name": "335dfcbe0984eb5369a59f5131d5e689", "fusion_lat": 0.0, "fusion_lon": 0.0, "rental_uris": {"android": "https://dc.lft.to/lastmile_qr_scan", "ios": "https://dc.lft.to/lastmile_qr_scan"}, "is_reserved": 0, "is_disabled": 0, "type": "electric_scooter", "bike_id": "335dfcbe0984eb5369a59f5131d5e689"}, {"lon": -76.98578833333333, "lat": 38.91445133333333, "name": "57d20d453d3bce40b7c05ae665f6a4c6", "fusion_lat": 0.0, "fusion_lon": 0.0, "rental_uris": {"android": "https://dc.lft.to/lastmile_qr_scan", "ios": "https://dc.lft.to/lastmile_qr_scan"}, "is_reserved": 0, "is_disabled": 0, "type": "electric_scooter", "bike_id": "57d20d453d3bce40b7c05ae665f6a4c6"}, {"lon": -76.87496933333334, "lat": 38.990883833333335, "name": "8f662872c999b911c372d92d6e1ffd3f", "fusion_lat": 0.0, "fusion_lon": 0.0, "rental_uris": {"android": "https://dc.lft.to/lastmile_qr_scan", "ios": "https://dc.lft.to/lastmile_qr_scan"}, "is_reserved": 0, "is_disabled": 0, "type": "electric_bike", "bike_id": "8f662872c999b911c372d92d6e1ffd3f"}, {"lon": -77.02966833333333, "lat": 38.93028266666666, "name": "ff35ab02a43533ad86700a2d010c2b87", "fusion_lat": 0.0, "fusion_lon": 0.0, "rental_uris": {"android": "https://dc.lft.to/lastmile_qr_scan", "ios": "https://dc.lft.to/lastmile_qr_scan"}, "is_reserved": 0, "is_disabled": 0, "type": "electric_scooter", "bike_id": "ff35ab02a43533ad86700a2d010c2b87"}, {"lon": -77.0437255, "lat": 38.907289666666664, "name": "39d3136a654e8c8b3fbc9296b3f78725", "fusion_lat": 0.0, "fusion_lon": 0.0, "rental_uris": {"android": "https://dc.lft.to/lastmile_qr_scan", "ios": "https://dc.lft.to/lastmile_qr_scan"}, "is_reserved": 0, "is_disabled": 0, "type": "electric_scooter", "bike_id": "39d3136a654e8c8b3fbc9296b3f78725"}, {"lon": -77.11228316666667, "lat": 38.8287255, "name": "3198342aa2df283ae696294976c80c6f", "fusion_lat": 0.0, "fusion_lon": 0.0, "rental_uris": {"android": "https://dc.lft.to/lastmile_qr_scan", "ios": "https://dc.lft.to/lastmile_qr_scan"},