{"data": {"bikes": [{"lon": -77.00915583333334, "bike_id": "cde96df48e8b9a8580110d76881af220", "lat": 38.827830666666664, "fusion_lon": 0.0, "fusion_lat": 0.0, "type": "electric_bike", "name": "cde96df48e8b9a8580110d76881af220", "is_disabled": 0, "rental_uris": {"ios": "https://dc.lft.to/lastmile_qr_scan", "android": "https://dc.lft.to/lastmile_qr_scan"}, "is_reserved": 0}, {"lon": -76.98294216666666, "bike_id": "bf85aa87e190af5bb203de35b81021a1", "lat": 38.901032666666666, "fusion_lon": 0.0, "fusion_lat": 0.0, "type": "electric_scooter", "name": "bf85aa87e190af5bb203de35b81021a1", "is_disabled": 0, "rental_uris": {"ios": "https://dc.lft.to/lastmile_qr_scan", "android": "https://dc.lft.to/lastmile_qr_scan"}, "is_reserved": 0}, {"lon": -77.02115983333333, "bike_id": "f060ad6297970fbb69814e3cb68eb048", "lat": 38.93698916666666, "fusion_lon": 0.0, "fusion_lat": 0.0, "type": "electric_scooter", "name": "f060ad6297970fbb69814e3cb68eb048", "is_disabled": 0, "rental_uris": {"ios": "https://dc.lft.to/lastmile_qr_scan", "android": "https://dc.lft.to/lastmile_qr_scan"}, "is_reserved": 0}, {"lon": -77.03814483333333, "bike_id": "f3db68931bd9460e99f75ca21f8146f3", "lat": 38.93093983333333, "fusion_lon": 0.0, "fusion_lat": 0.0, "type": "electric_scooter", "name": "f3db68931bd9460e99f75ca21f8146f3", "is_disabled": 0, "rental_uris": {"ios": "https://dc.lft.to/lastmile_qr_scan", "android": "https://dc.lft.to/lastmile_qr_scan"}, "is_reserved": 0}, {"lon": -77.0295045, "bike_id": "c8bac73cb1bb486d930c39f39046ebe7", "lat": 38.90506283333333, "fusion_lon": 0.0, "fusion_lat": 0.0, "type": "electric_scooter", "name": "c8bac73cb1bb486d930c39f39046ebe7", "is_disabled": 0, "rental_uris": {"ios": "https://dc.lft.to/lastmile_qr_scan", "android": "https://dc.lft.to/lastmile_qr_scan"}, "is_reserved": 0}, {"lon": -76.99760833333333, "bike_id": "84b5860598582b1f39df6451577be0e4", "lat": 38.922723833333336, "fusion_lon": 0.0, "fusion_lat": 0.0, "type": "electric_scooter", "name": "84b5860598582b1f39df6451577be0e4", "is_disabled": 0, "rental_uris": {"ios": "https://dc.lft.to/lastmile_qr_scan", "android": "https://dc.lft.to/lastmile_qr_scan"}, "is_reserved": 0}, {"lon": -76.96359633333333, "bike_id": "900e4bea55926134282931a7482624a3", "lat": 38.93500683333333, "fusion_lon": 0.0, "fusion_lat": 0.0, "type": "electric_scooter", "name": "900e4bea55926134282931a7482624a3", "is_disabled": 0, "rental_uris": {"ios": "https://dc.lft.to/lastmile_qr_scan", "android": "https://dc.lft.to/lastmile_qr_scan"}, "is_reserved": 0}, {"lon": -77.000717, "bike_id": "e9f7e2e0c639782243b40a12db11c4df", "lat": 38.92437833333334, "fusion_lon": 0.0, "fusion_lat": 0.0, "type": "electric_scooter", "name": "e9f7e2e0c639782243b40a12db11c4df", "is_disabled": 0, "rental_uris": {"ios": "https://dc.lft.to/lastmile_qr_scan", "android": "https://dc.lft.to/lastmile_qr_scan"}, "is_reserved": 0}, {"lon": -77.033031, "bike_id": "b6fcbc2444a53d6ec43e96cc94a7c87b", "lat": 38.907328166666666, "fusion_lon": 0.0, "fusion_lat": 0.0, "type": "electric_scooter", "name": "b6fcbc2444a53d6ec43e96cc94a7c87b", "is_disabled": 0, "rental_uris": {"ios": "https://dc.lft.to/lastmile_qr_scan", "android": "https://dc.lft.to/lastmile_qr_scan"}, "is_reserved": 0}, {"lon": -77.01302083333333, "bike_id": "18834f7c6f0e12b1af359085af359a12", "lat": 38.94327166666667, "fusion_lon": 0.0, "fusion_lat": 0.0, "type": "electric_scooter", "name": "18834f7c6f0e12b1af359085af359a12", "is_disabled": 0, "rental_uris": {"ios": "https://dc.lft.to/lastmile_qr_scan", "android": "https://dc.lft.to/lastmile_qr_scan"}, "is_reserved": 0}, {"lon": -77.0442895, "bike_id": "54d42bb6305d5f6ee124b6f2f5ad5b14", "lat": 38.90982733333333, "fusion_lon": 0.0, "fusion_lat": 0.0, "type": "electric_scooter", "name": "54d42bb6305d5f6ee124b6f2f5ad5b14", "is_disabled": 0, "rental_uris": {"ios": "https://dc.lft.to/lastmile_qr_scan", "android": "https://dc.lft.to/lastmile_qr_scan"}, "is_reserved": 0}, {"lon": -77.02898, "bike_id": "c7d3191f4faf0dfee308a5a2030cf3d3", "lat": 38.91696366666667, "fusion_lon": 0.0, "fusion_lat": 0.0, "type": "electric_scooter", "name": "c7d3191f4faf0dfee308a5a2030cf3d3", "is_disabled": 0, "rental_uris": {"ios": "https://dc.lft.to/lastmile_qr_scan", "android": "https://dc.lft.to/lastmile_qr_scan"}, "is_reserved": 0}, {"lon": -77.0057795, "bike_id": "c135fe3a6ae9aa429cff30298e80012a", "lat": 38.835913166666664, "fusion_lon": 0.0, "fusion_lat": 0.0, "type": "electric_scooter", "name": "c135fe3a6ae9aa429cff30298e80012a", "is_disabled": 0, "rental_uris": {"ios": "https://dc.lft.to/lastmile_qr_scan", "android": "https://dc.lft.to/lastmile_qr_scan"}, "is_reserved": 0}, {"lon": -76.96092066666667, "bike_id": "fc8770189de0d8a3fa79429890e16f4e", "lat": 38.9186185, "fusion_lon": 0.0, "fusion_lat": 0.0, "type": "electric_bike", "name": "fc8770189de0d8a3fa79429890e16f4e", "is_disabled": 0, "rental_uris": {"ios": "https://dc.lft.to/lastmile_qr_scan", "android": "https://dc.lft.to/lastmile_qr_scan"}, "is_reserved": 0}, {"lon": -77.04465233333333, "bike_id": "7a92378367af73f17fb55f7ed4aa339b", "lat": 38.9111585, "fusion_lon": 0.0, "fusion_lat": 0.0, "type": "electric_bike", "name": "7a92378367af73f17fb55f7ed4aa339b", "is_disabled": 0, "rental_uris": {"ios": "https://dc.lft.to/lastmile_qr_scan", "android": "https://dc.lft.to/lastmile_qr_scan"}, "is_reserved": 0}, {"lon": -77.07226983333334, "bike_id": "2ee82bf9b94364c2a7eb0a4845410e93", "lat": 38.968146, "fusion_lon": 0.0, "fusion_lat": 0.0, "type": "electric_bike", "name": "2ee82bf9b94364c2a7eb0a4845410e93", "is_disabled": 0, "rental_uris": {"ios": "https://dc.lft.to/lastmile_qr_scan", "android": "https://dc.lft.to/lastmile_qr_scan"}, "is_reserved": 0}, {"lon": -77.048739, "bike_id": "fe4940f4fc8d8c8259243674c793b822", "lat": 38.89234733333333, "fusion_lon": 0.0, "fusion_lat": 0.0, "type": "electric_scooter", "name": "fe4940f4fc8d8c8259243674c793b822", "is_disabled": 0, "rental_uris": {"ios": "https://dc.lft.to/lastmile_qr_scan", "android": "https://dc.lft.to/lastmile_qr_scan"}, "is_reserved": 0}, {"lon": -77.03226283333333, "bike_id": "eb8e96154b7ae029e1cf790c269a427e", "lat": 38.92868383333333, "fusion_lon": 0.0, "fusion_lat": 0.0, "type": "electric_scooter", "name": "eb8e96154b7ae029e1cf790c269a427e", "is_disabled": 0, "rental_uris": {"ios": "https://dc.lft.to/lastmile_qr_scan", "android": "https://dc.lft.to/lastmile_qr_scan"}, "is_reserved": 0}, {"lon": -77.0700615, "bike_id": "02f8eb27eea1edeb14bfb061bab9daec", "lat": 38.958516833333334, "fusion_lon": 0.0, "fusion_lat": 0.0, "type": "electric_scooter", "name": "02f8eb27eea1edeb14bfb061bab9daec", "is_disabled": 0, "rental_uris": {"ios": "https://dc.lft.to/lastmile_qr_scan", "android": "https://dc.lft.to/lastmile_qr_scan"}, "is_reserved": 0}, {"lon": -76.99378433333334, "bike_id": "243f8ced4cd7e230cadea151af4d7cbe", "lat": 38.971839833333334, "fusion_lon": 0.0, "fusion_lat": 0.0, "type": "electric_bike", "name": "243f8ced4cd7e230cadea151af4d7cbe", "is_disabled": 0, "rental_uris": {"ios": "https://dc.lft.to/lastmile_qr_scan", "android": "https://dc.lft.to/lastmile_qr_scan"}, "is_reserved": 0}, {"lon": -77.03317683333333, "bike_id": "2fb048a34ed4b94cf2e0d9e61961473c", "lat": 38.890007, "fusion_lon": 0.0, "fusion_lat": 0.0, "type": "electric_scooter", "name": "2fb048a34ed4b94cf2e0d9e61961473c", "is_disabled": 0, "rental_uris": {"ios": "https://dc.lft.to/lastmile_qr_scan", "android": "https://dc.lft.to/lastmile_qr_scan"}, "is_reserved": 0}, {"lon": -77.02441733333333, "bike_id": "81b1f9089dd971b256f04d8748f61839", "lat": 38.91412483333333, "fusion_lon": 0.0, "fusion_lat": 0.0, "type": "electric_scooter", "name": "81b1f9089dd971b256f04d8748f61839", "is_disabled": 0, "rental_uris": {"ios": "https://dc.lft.to/lastmile_qr_scan", "android": "https://dc.lft.to/lastmile_qr_scan"}, "is_reserved": 0}, {"lon": -77.050358, "bike_id": "d2ca11654c7b3a3b8212e7e09245b865", "lat": 38.90049233333333, "fusion_lon": 0.0, "fusion_lat": 0.0, "type": "electric_scooter", "name": "d2ca11654c7b3a3b8212e7e09245b865", "is_disabled": 0, "rental_uris": {"ios": "https://dc.lft.to/lastmile_qr_scan", "android": "https://dc.lft.to/lastmile_qr_scan"}, "is_reserved": 0}, {"lon": -77.00032766666666, "bike_id": "3fe7e897c744ab3a2b2acf54fbf35308", "lat": 38.967857, "fusion_lon": 0.0, "fusion_lat": 0.0, "type": "electric_bike", "name": "3fe7e897c744ab3a2b2acf54fbf35308", "is_disabled": 0, "rental_uris": {"ios": "https://dc.lft.to/lastmile_qr_scan", "android": "https://dc.lft.to/lastmile_qr_scan"}, "is_reserved": 0}, {"lon": -77.03203066666667, "bike_id": "741f3740699e7de737dcab2271169c7b", "lat": 38.9440745, "fusion_lon": 0.0, "fusion_lat": 0.0, "type": "electric_scooter", "name": "741f3740699e7de737dcab2271169c7b", "is_disabled": 0, "rental_uris": {"ios": "https://dc.lft.to/lastmile_qr_scan", "android": "https://dc.lft.to/lastmile_qr_scan"}, "is_reserved": 0}, {"lon": -77.023425, "bike_id": "c88a09a2b3584b57db75f3b57b7e3adf", "lat": 38.94081116666667, "fusion_lon": 0.0, "fusion_lat": 0.0, "type": "electric_scooter", "name": "c88a09a2b3584b57db75f3b57b7e3adf", "is_disabled": 0, "rental_uris": {"ios": "https://dc.lft.to/lastmile_qr_scan", "android": "https://dc.lft.to/lastmile_qr_scan"}, "is_reserved": 0}, {"lon": -77.04195816666666, "bike_id": "66f8e76560f39f29c4dc9e449a9dde16", "lat": 38.9204665, "fusion_lon": 0.0, "fusion_lat": 0.0, "type": "electric_scooter", "name": "66f8e76560f39f29c4dc9e449a9dde16", "is_disabled": 0, "rental_uris": {"ios": "https://dc.lft.to/lastmile_qr_scan", "android": "https://dc.lft.to/lastmile_qr_scan"}, "is_reserved": 0}, {"lon": -77.0455825, "bike_id": "956f3b63a8aab3250470c900289e3663", "lat": 38.896098, "fusion_lon": 0.0, "fusion_lat": 0.0, "type": "electric_scooter", "name": "956f3b63a8aab3250470c900289e3663", "is_disabled": 0, "rental_uris": {"ios": "https://dc.lft.to/lastmile_qr_scan", "android": "https://dc.lft.to/lastmile_qr_scan"}, "is_reserved": 0}, {"lon": -77.03308566666666, "bike_id": "83402a868873c9f247f20b351d8865d7", "lat": 38.901247166666664, "fusion_lon": 0.0, "fusion_lat": 0.0, "type": "electric_scooter", "name": "83402a868873c9f247f20b351d8865d7", "is_disabled": 0, "rental_uris": {"ios": "https://dc.lft.to/lastmile_qr_scan", "android": "https://dc.lft.to/lastmile_qr_scan"}, "is_reserved": 0}, {"lon": -77.06061516666666, "bike_id": "c35f2353aa333f7082c8ea5c96fa2b94", "lat": 38.80856883333333, "fusion_lon": 0.0, "fusion_lat": 0.0, "type": "electric_bike", "name": "c35f2353aa333f7082c8ea5c96fa2b94", "is_disabled": 0, "rental_uris": {"ios": "https://dc.lft.to/lastmile_qr_scan", "android": "https://dc.lft.to/lastmile_qr_scan"}, "is_reserved": 0}, {"lon": -77.02783166666667, "bike_id": "6ed4cb2fdb27921509d587918b3cf39d", "lat": 38.92770483333334, "fusion_lon": 0.0, "fusion_lat": 0.0, "type": "electric_scooter", "name": "6ed4cb2fdb27921509d587918b3cf39d", "is_disabled": 0, "rental_uris": {"ios": "https://dc.lft.to/lastmile_qr_scan", "android": "https://dc.lft.to/lastmile_qr_scan"}, "is_reserved": 0}, {"lon": -77.0054585, "bike_id": "2c713a7d9a000452f388631761a5d116", "lat": 38.8745945, "fusion_lon": 0.0, "fusion_lat": 0.0, "type": "electric_scooter", "name": "2c713a7d9a000452f388631761a5d116", "is_disabled": 0, "rental_uris": {"ios": "https://dc.lft.to/lastmile_qr_scan", "android": "https://dc.lft.to/lastmile_qr_scan"}, "is_reserved": 0}, {"lon": -77.03767966666666, "bike_id": "83266f8c88f8cda066a26e6d5c50858b", "lat": 38.929401666666664, "fusion_lon": 0.0, "fusion_lat": 0.0, "type": "electric_scooter", "name": "83266f8c88f8cda066a26e6d5c50858b", "is_disabled": 0, "rental_uris": {"ios": "https://dc.lft.to/lastmile_qr_scan", "android": "https://dc.lft.to/lastmile_qr_scan"}, "is_reserved": 0}, {"lon": -77.03800383333333, "bike_id": "83d5e95521917f0a9a794d92f4d12916", "lat": 38.91034066666667, "fusion_lon": 0.0, "fusion_lat": 0.0, "type": "electric_scooter", "name": "83d5e95521917f0a9a794d92f4d12916", "is_disabled": 0, "rental_uris": {"ios": "https://dc.lft.to/lastmile_qr_scan", "android": "https://dc.lft.to/lastmile_qr_scan"}, "is_reserved": 0}, {"lon": -76.96258616666667, "bike_id": "2cf0abb90195099e04d1fcccf5fe73d1", "lat": 38.88245666666667, "fusion_lon": 0.0, "fusion_lat": 0.0, "type": "electric_bike", "name": "2cf0abb90195099e04d1fcccf5fe73d1", "is_disabled": 0, "rental_uris": {"ios": "https://dc.lft.to/lastmile_qr_scan", "android": "https://dc.lft.to/lastmile_qr_scan"}, "is_reserved": 0}, {"lon": -76.98351866666667, "bike_id": "d3ae4261d778863a043994da6bcbb91a", "lat": 38.892024, "fusion_lon": 0.0, "fusion_lat": 0.0, "type": "electric_bike", "name": "d3ae4261d778863a043994da6bcbb91a", "is_disabled": 0, "rental_uris": {"ios": "https://dc.lft.to/lastmile_qr_scan", "android": "https://dc.lft.to/lastmile_qr_scan"}, "is_reserved": 0}, {"lon": -77.00657416666667, "bike_id": "0cbab8b70741a0dfdd5a8e52546c6e7c", "lat": 38.9446415, "fusion_lon": 0.0, "fusion_lat": 0.0, "type": "electric_scooter", "name": "0cbab8b70741a0dfdd5a8e52546c6e7c", "is_disabled": 0, "rental_uris": {"ios": "https://dc.lft.to/lastmile_qr_scan", "android": "https://dc.lft.to/lastmile_qr_scan"}, "is_reserved": 0}, {"lon": -77.03172733333334, "bike_id": "a7bc66424424b6db5e1cfee24eda67be", "lat": 38.9360115, "fusion_lon": 0.0, "fusion_lat": 0.0, "type": "electric_scooter", "name": "a7bc66424424b6db5e1cfee24eda67be", "is_disabled": 0, "rental_uris": {"ios": "https://dc.lft.to/lastmile_qr_scan", "android": "https://dc.lft.to/lastmile_qr_scan"}, "is_reserved": 0}, {"lon": -77.04560633333334, "bike_id": "dfbfc19ad0a8512273345123290c42c4", "lat": 38.91591616666667, "fusion_lon": 0.0, "fusion_lat": 0.0, "type": "electric_scooter", "name": "dfbfc19ad0a8512273345123290c42c4", "is_disabled": 0, "rental_uris": {"ios": "https://dc.lft.to/lastmile_qr_scan", "android": "https://dc.lft.to/lastmile_qr_scan"}, "is_reserved": 0}, {"lon": -77.03206533333334, "bike_id": "a8ad00b3b5d294aabfee206c2d823b4c", "lat": 38.9163065, "fusion_lon": 0.0, "fusion_lat": 0.0, "type": "electric_scooter", "name": "a8ad00b3b5d294aabfee206c2d823b4c", "is_disabled": 0, "rental_uris": {"ios": "https://dc.lft.to/lastmile_qr_scan", "android": "https://dc.lft.to/lastmile_qr_scan"}, "is_reserved": 0}, {"lon": -77.185627, "bike_id": "1740f34f8a00791a29d928acbde7bb45", "lat": 39.09975033333333, "fusion_lon": 0.0, "fusion_lat": 0.0, "type": "electric_bike", "name": "1740f34f8a00791a29d928acbde7bb45", "is_disabled": 0, "rental_uris": {"ios": "https://dc.lft.to/lastmile_qr_scan", "android": "https://dc.lft.to/lastmile_qr_scan"}, "is_reserved": 0}, {"lon": -77.03914666666667, "bike_id": "adc2e6fa11ee99b2dbada83ffa7ca718", "lat": 38.91839866666667, "fusion_lon": 0.0, "fusion_lat": 0.0, "type": "electric_scooter", "name": "adc2e6fa11ee99b2dbada83ffa7ca718", "is_disabled": 0, "rental_uris": {"ios": "https://dc.lft.to/lastmile_qr_scan", "android": "https://dc.lft.to/lastmile_qr_scan"}, "is_reserved": 0}, {"lon": -76.97732533333334, "bike_id": "0f29d23eb3e3564612a33661f246b20c", "lat": 38.864828333333335, "fusion_lon": 0.0, "fusion_lat": 0.0, "type": "electric_bike", "name": "0f29d23eb3e3564612a33661f246b20c", "is_disabled": 0, "rental_uris": {"ios": "https://dc.lft.to/lastmile_qr_scan", "android": "https://dc.lft.to/lastmile_qr_scan"}, "is_reserved": 0}, {"lon": -77.00713033333334, "bike_id": "0c328ba6147a4683d55d7bbd2edd4c9e", "lat": 38.945992, "fusion_lon": 0.0, "fusion_lat": 0.0, "type": "electric_bike", "name": "0c328ba6147a4683d55d7bbd2edd4c9e", "is_disabled": 0, "rental_uris": {"ios": "https://dc.lft.to/lastmile_qr_scan", "android": "https://dc.lft.to/lastmile_qr_scan"}, "is_reserved": 0}, {"lon": -77.02163566666667, "bike_id": "1a22239b5e38c0faeda60fd5c52b3cff", "lat": 38.926120166666664, "fusion_lon": 0.0, "fusion_lat": 0.0, "type": "electric_scooter", "name": "1a22239b5e38c0faeda60fd5c52b3cff", "is_disabled": 0, "rental_uris": {"ios": "https://dc.lft.to/lastmile_qr_scan", "android": "https://dc.lft.to/lastmile_qr_scan"}, "is_reserved": 0}, {"lon": -76.97617916666667, "bike_id": "638fb79db69202f26f8807e2bc5ca1a3", "lat": 38.92649466666667, "fusion_lon": 0.0, "fusion_lat": 0.0, "type": "electric_scooter", "name": "638fb79db69202f26f8807e2bc5ca1a3", "is_disabled": 0, "rental_uris": {"ios": "https://dc.lft.to/lastmile_qr_scan", "android": "https://dc.lft.to/lastmile_qr_scan"}, "is_reserved": 0}, {"lon": -77.088104, "bike_id": "6c1f71acf09907e655908cbb9c5c2292", "lat": 38.9117545, "fusion_lon": 0.0, "fusion_lat": 0.0, "type": "electric_bike", "name": "6c1f71acf09907e655908cbb9c5c2292", "is_disabled": 0, "rental_uris": {"ios": "https://dc.lft.to/lastmile_qr_scan", "android": "https://dc.lft.to/lastmile_qr_scan"}, "is_reserved": 0}, {"lon": -77.03923033333334, "bike_id": "e639f841814e5f73dc087062cff5cdb3", "lat": 38.92801566666667, "fusion_lon": 0.0, "fusion_lat": 0.0, "type": "electric_scooter", "name": "e639f841814e5f73dc087062cff5cdb3", "is_disabled": 0, "rental_uris": {"ios": "https://dc.lft.to/lastmile_qr_scan", "android": "https://dc.lft.to/lastmile_qr_scan"}, "is_reserved": 0}, {"lon": -77.018677, "bike_id": "a584ba7167fb152de258323827ecf215", "lat": 38.95152133333333, "fusion_lon": 0.0, "fusion_lat": 0.0, "type": "electric_scooter", "name": "a584ba7167fb152de258323827ecf215", "is_disabled": 0, "rental_uris": {"ios": "https://dc.lft.to/lastmile_qr_scan", "android": "https://dc.lft.to/lastmile_qr_scan"}, "is_reserved": 0}, {"lon": -76.95232166666666, "bike_id": "a50b82534e7297c02355ca84c030eab5", "lat": 38.8910095, "fusion_lon": 0.0, "fusion_lat": 0.0, "type": "electric_scooter", "name": "a50b82534e7297c02355ca84c030eab5", "is_disabled": 0, "rental_uris": {"ios": "https://dc.lft.to/lastmile_qr_scan", "android": "https://dc.lft.to/lastmile_qr_scan"}, "is_reserved": 0}, {"lon": -76.9978065, "bike_id": "9e8c7e28f3a7b8ba568846b7ed3fdcb3", "lat": 38.8442425, "fusion_lon": 0.0, "fusion_lat": 0.0, "type": "electric_scooter", "name": "9e8c7e28f3a7b8ba568846b7ed3fdcb3", "is_disabled": 0, "rental_uris": {"ios": "https://dc.lft.to/lastmile_qr_scan", "android": "https://dc.lft.to/lastmile_qr_scan"}, "is_reserved": 0}, {"lon": -76.99105583333333, "bike_id": "70b91e72f713b16ee9c92d56b77afbb8", "lat": 38.90319366666667, "fusion_lon": 0.0, "fusion_lat": 0.0, "type": "electric_scooter", "name": "70b91e72f713b16ee9c92d56b77afbb8", "is_disabled": 0, "rental_uris": {"ios": "https://dc.lft.to/lastmile_qr_scan", "android": "https://dc.lft.to/lastmile_qr_scan"}, "is_reserved": 0}, {"lon": -77.0632565, "bike_id": "fd52c33b385214bcdeb1b4bb087e9782", "lat": 38.90769566666667, "fusion_lon": 0.0, "fusion_lat": 0.0, "type": "electric_scooter", "name": "fd52c33b385214bcdeb1b4bb087e9782", "is_disabled": 0, "rental_uris": {"ios": "https://dc.lft.to/lastmile_qr_scan", "android": "https://dc.lft.to/lastmile_qr_scan"}, "is_reserved": 0}, {"lon": -77.02194266666666, "bike_id": "aca0e9ed10227013ee00eb8a7a72c061", "lat": 38.910577833333335, "fusion_lon": 0.0, "fusion_lat": 0.0, "type": "electric_scooter", "name": "aca0e9ed10227013ee00eb8a7a72c061", "is_disabled": 0, "rental_uris": {"ios": "https://dc.lft.to/lastmile_qr_scan", "android": "https://dc.lft.to/lastmile_qr_scan"}, "is_reserved": 0}, {"lon": -77.068653, "bike_id": "dd7c13f0e5d64efefbeaac1b8ffeefe3", "lat": 38.805761833333335, "fusion_lon": 0.0, "fusion_lat": 0.0, "type": "electric_bike", "name": "dd7c13f0e5d64efefbeaac1b8ffeefe3", "is_disabled": 0, "rental_uris": {"ios": "https://dc.lft.to/lastmile_qr_scan", "android": "https://dc.lft.to/lastmile_qr_scan"}, "is_reserved": 0}, {"lon": -77.00755516666666, "bike_id": "ef104deb91a262f65fa447cced9dad88", "lat": 38.870944333333334, "fusion_lon": 0.0, "fusion_lat": 0.0, "type": "electric_scooter", "name": "ef104deb91a262f65fa447cced9dad88", "is_disabled": 0, "rental_uris": {"ios": "https://dc.lft.to/lastmile_qr_scan", "android": "https://dc.lft.to/lastmile_qr_scan"}, "is_reserved": 0}, {"lon": -76.94633933333333, "bike_id": "179feaae2d44cb09a7a7f887b63898a8", "lat": 38.898330666666666, "fusion_lon": 0.0, "fusion_lat": 0.0, "type": "electric_scooter", "name": "179feaae2d44cb09a7a7f887b63898a8", "is_disabled": 0, "rental_uris": {"ios": "https://dc.lft.to/lastmile_qr_scan", "android": "https://dc.lft.to/lastmile_qr_scan"}, "is_reserved": 0}, {"lon": -77.0403175, "bike_id": "a4bc5cd093c7607c46d0ce3671480cc8", "lat": 38.924028666666665, "fusion_lon": 0.0, "fusion_lat": 0.0, "type": "electric_scooter", "name": "a4bc5cd093c7607c46d0ce3671480cc8", "is_disabled": 0, "rental_uris": {"ios": "https://dc.lft.to/lastmile_qr_scan", "android": "https://dc.lft.to/lastmile_qr_scan"}, "is_reserved": 0}, {"lon": -77.02258966666666, "bike_id": "1382d7b63c3346a1f2290c8030d5241f", "lat": 38.9289595, "fusion_lon": 0.0, "fusion_lat": 0.0, "type": "electric_scooter", "name": "1382d7b63c3346a1f2290c8030d5241f", "is_disabled": 0, "rental_uris": {"ios": "https://dc.lft.to/lastmile_qr_scan", "android": "https://dc.lft.to/lastmile_qr_scan"}, "is_reserved": 0}, {"lon": -77.0215055, "bike_id": "a7863812449cdbf83a16109b431317aa", "lat": 38.9025945, "fusion_lon": 0.0, "fusion_lat": 0.0, "type": "electric_scooter", "name": "a7863812449cdbf83a16109b431317aa", "is_disabled": 0, "rental_uris": {"ios": "https://dc.lft.to/lastmile_qr_scan", "android": "https://dc.lft.to/lastmile_qr_scan"}, "is_reserved": 0}, {"lon": -77.02163466666667, "bike_id": "a49c6b2d03a83017cb43d250cc4bdbae", "lat": 38.89495766666667, "fusion_lon": 0.0, "fusion_lat": 0.0, "type": "electric_scooter", "name": "a49c6b2d03a83017cb43d250cc4bdbae", "is_disabled": 0, "rental_uris": {"ios": "https://dc.lft.to/lastmile_qr_scan", "android": "https://dc.lft.to/lastmile_qr_scan"}, "is_reserved": 0}, {"lon": -76.9653245, "bike_id": "0824eef9becd2d648e22c91dc5c89912", "lat": 38.87479733333333, "fusion_lon": 0.0, "fusion_lat": 0.0, "type": "electric_scooter", "name": "0824eef9becd2d648e22c91dc5c89912", "is_disabled": 0, "rental_uris": {"ios": "https://dc.lft.to/lastmile_qr_scan", "android": "https://dc.lft.to/lastmile_qr_scan"}, "is_reserved": 0}, {"lon": -77.07228583333334, "bike_id": "36fa68e14717d7e6ac769f24a9c81ee7", "lat": 38.92268633333333, "fusion_lon": 0.0, "fusion_lat": 0.0, "type": "electric_scooter", "name": "36fa68e14717d7e6ac769f24a9c81ee7", "is_disabled": 0, "rental_uris": {"ios": "https://dc.lft.to/lastmile_qr_scan", "android": "https://dc.lft.to/lastmile_qr_scan"}, "is_reserved": 0}, {"lon": -77.040042, "bike_id": "2b8a625b0cf34c91344e8fdee8e13ed6", "lat": 38.9037155, "fusion_lon": 0.0, "fusion_lat": 0.0, "type": "electric_scooter", "name": "2b8a625b0cf34c91344e8fdee8e13ed6", "is_disabled": 0, "rental_uris": {"ios": "https://dc.lft.to/lastmile_qr_scan", "android": "https://dc.lft.to/lastmile_qr_scan"}, "is_reserved": 0}, {"lon": -77.03938016666666, "bike_id": "e21d56f3cc558186a4072fc5931b2682", "lat": 38.899666833333335, "fusion_lon": 0.0, "fusion_lat": 0.0, "type": "electric_scooter", "name": "e21d56f3cc558186a4072fc5931b2682", "is_disabled": 0, "rental_uris": {"ios": "https://dc.lft.to/lastmile_qr_scan", "android": "https://dc.lft.to/lastmile_qr_scan"}, "is_reserved": 0}, {"lon": -77.04315133333333, "bike_id": "0728f30161ccffa93496c494341661d6", "lat": 38.903495666666664, "fusion_lon": 0.0, "fusion_lat": 0.0, "type": "electric_scooter", "name": "0728f30161ccffa93496c494341661d6", "is_disabled": 0, "rental_uris": {"ios": "https://dc.lft.to/lastmile_qr_scan", "android": "https://dc.lft.to/lastmile_qr_scan"}, "is_reserved": 0}, {"lon": -77.02565533333333, "bike_id": "95ec3472f7fe43d941b2bd96c3b39e56", "lat": 38.933536333333336, "fusion_lon": 0.0, "fusion_lat": 0.0, "type": "electric_scooter", "name": "95ec3472f7fe43d941b2bd96c3b39e56", "is_disabled": 0, "rental_uris": {"ios": "https://dc.lft.to/lastmile_qr_scan", "android": "https://dc.lft.to/lastmile_qr_scan"}, "is_reserved": 0}, {"lon": -77.06021666666666, "bike_id": "09cd3920791d9c2c59966fba1ef83ab3", "lat": 38.90501183333333, "fusion_lon": 0.0, "fusion_lat": 0.0, "type": "electric_scooter", "name": "09cd3920791d9c2c59966fba1ef83ab3", "is_disabled": 0, "rental_uris": {"ios": "https://dc.lft.to/lastmile_qr_scan", "android": "https://dc.lft.to/lastmile_qr_scan"}, "is_reserved": 0}, {"lon": -77.06923316666666, "bike_id": "1df3dceda99ae4990749df1d2f818498", "lat": 38.95553566666667, "fusion_lon": 0.0, "fusion_lat": 0.0, "type": "electric_bike", "name": "1df3dceda99ae4990749df1d2f818498", "is_disabled": 0, "rental_uris": {"ios": "https://dc.lft.to/lastmile_qr_scan", "android": "https://dc.lft.to/lastmile_qr_scan"}, "is_reserved": 0}, {"lon": -76.94885166666667, "bike_id": "bfc603cd9f60f38598dad389c8a89c5e", "lat": 38.89511433333333, "fusion_lon": 0.0, "fusion_lat": 0.0, "type": "electric_scooter", "name": "bfc603cd9f60f38598dad389c8a89c5e", "is_disabled": 0, "rental_uris": {"ios": "https://dc.lft.to/lastmile_qr_scan", "android": "https://dc.lft.to/lastmile_qr_scan"}, "is_reserved": 0}, {"lon": -77.03176366666666, "bike_id": "96d0e512a2697244c82b92af98d12f12", "lat": 38.91270633333333, "fusion_lon": 0.0, "fusion_lat": 0.0, "type": "electric_scooter", "name": "96d0e512a2697244c82b92af98d12f12", "is_disabled": 0, "rental_uris": {"ios": "https://dc.lft.to/lastmile_qr_scan", "android": "https://dc.lft.to/lastmile_qr_scan"}, "is_reserved": 0}, {"lon": -77.04335, "bike_id": "c0dcb74edf13828940452e6c005425c6", "lat": 38.910395333333334, "fusion_lon": 0.0, "fusion_lat": 0.0, "type": "electric_scooter", "name": "c0dcb74edf13828940452e6c005425c6", "is_disabled": 0, "rental_uris": {"ios": "https://dc.lft.to/lastmile_qr_scan", "android": "https://dc.lft.to/lastmile_qr_scan"}, "is_reserved": 0}, {"lon": -77.03408683333333, "bike_id": "71551e9162bc7ab480150781addb55c3", "lat": 38.9342115, "fusion_lon": 0.0, "fusion_lat": 0.0, "type": "electric_scooter", "name": "71551e9162bc7ab480150781addb55c3", "is_disabled": 0, "rental_uris": {"ios": "https://dc.lft.to/lastmile_qr_scan", "android": "https://dc.lft.to/lastmile_qr_scan"}, "is_reserved": 0}, {"lon": -77.03648716666666, "bike_id": "848c628baaa1b41f5ff954e887497540", "lat": 38.904894, "fusion_lon": 0.0, "fusion_lat": 0.0, "type": "electric_scooter", "name": "848c628baaa1b41f5ff954e887497540", "is_disabled": 0, "rental_uris": {"ios": "https://dc.lft.to/lastmile_qr_scan", "android": "https://dc.lft.to/lastmile_qr_scan"}, "is_reserved": 0}, {"lon": -77.04642516666667, "bike_id": "82b85c058134ae8b9bdae70a26a186e7", "lat": 38.92117183333333, "fusion_lon": 0.0, "fusion_lat": 0.0, "type": "electric_scooter", "name": "82b85c058134ae8b9bdae70a26a186e7", "is_disabled": 0, "rental_uris": {"ios": "https://dc.lft.to/lastmile_qr_scan", "android": "https://dc.lft.to/lastmile_qr_scan"}, "is_reserved": 0}, {"lon": -77.04122583333333, "bike_id": "68c735a737f4659fb1bed1bc9f2c1b24", "lat": 38.923043166666666, "fusion_lon": 0.0, "fusion_lat": 0.0, "type": "electric_scooter", "name": "68c735a737f4659fb1bed1bc9f2c1b24", "is_disabled": 0, "rental_uris": {"ios": "https://dc.lft.to/lastmile_qr_scan", "android": "https://dc.lft.to/lastmile_qr_scan"}, "is_reserved": 0}, {"lon": -76.9996025, "bike_id": "0a6717d22a2fa898e6db3aae1a95be19", "lat": 38.908482, "fusion_lon": 0.0, "fusion_lat": 0.0, "type": "electric_scooter", "name": "0a6717d22a2fa898e6db3aae1a95be19", "is_disabled": 0, "rental_uris": {"ios": "https://dc.lft.to/lastmile_qr_scan", "android": "https://dc.lft.to/lastmile_qr_scan"}, "is_reserved": 0}, {"lon": -77.05902766666667, "bike_id": "640802fe4f9e04103e1ae752564da811", "lat": 38.936270666666665, "fusion_lon": 0.0, "fusion_lat": 0.0, "type": "electric_scooter", "name": "640802fe4f9e04103e1ae752564da811", "is_disabled": 0, "rental_uris": {"ios": "https://dc.lft.to/lastmile_qr_scan", "android": "https://dc.lft.to/lastmile_qr_scan"}, "is_reserved": 0}, {"lon": -77.0610495, "bike_id": "05e76e773ef161f354dac08f894ba16a", "lat": 38.937065, "fusion_lon": 0.0, "fusion_lat": 0.0, "type": "electric_scooter", "name": "05e76e773ef161f354dac08f894ba16a", "is_disabled": 0, "rental_uris": {"ios": "https://dc.lft.to/lastmile_qr_scan", "android": "https://dc.lft.to/lastmile_qr_scan"}, "is_reserved": 0}, {"lon": -77.04252683333333, "bike_id": "3c40101430e0ee34c765b3a4d5611dc8", "lat": 38.90020783333333, "fusion_lon": 0.0, "fusion_lat": 0.0, "type": "electric_scooter", "name": "3c40101430e0ee34c765b3a4d5611dc8", "is_disabled": 0, "rental_uris": {"ios": "https://dc.lft.to/lastmile_qr_scan", "android": "https://dc.lft.to/lastmile_qr_scan"}, "is_reserved": 0}, {"lon": -77.03765633333333, "bike_id": "4f24a260c10168aa00484ddcd4756634", "lat": 38.92472216666667, "fusion_lon": 0.0, "fusion_lat": 0.0, "type": "electric_scooter", "name": "4f24a260c10168aa00484ddcd4756634", "is_disabled": 0, "rental_uris": {"ios": "https://dc.lft.to/lastmile_qr_scan", "android": "https://dc.lft.to/lastmile_qr_scan"}, "is_reserved": 0}, {"lon": -77.04038716666666, "bike_id": "542ba58ff907f40c83ecbdcdf270fe1b", "lat": 38.9256725, "fusion_lon": 0.0, "fusion_lat": 0.0, "type": "electric_scooter", "name": "542ba58ff907f40c83ecbdcdf270fe1b", "is_disabled": 0, "rental_uris": {"ios": "https://dc.lft.to/lastmile_qr_scan", "android": "https://dc.lft.to/lastmile_qr_scan"}, "is_reserved": 0}, {"lon": -77.04135716666667, "bike_id": "16359756c5d12088b2857d6f20a6509a", "lat": 38.899428, "fusion_lon": 0.0, "fusion_lat": 0.0, "type": "electric_scooter", "name": "16359756c5d12088b2857d6f20a6509a", "is_disabled": 0, "rental_uris": {"ios": "https://dc.lft.to/lastmile_qr_scan", "android": "https://dc.lft.to/lastmile_qr_scan"}, "is_reserved": 0}, {"lon": -77.02575266666666, "bike_id": "3a709f8a744a81fdd1e9ecfb0b1dc3fd", "lat": 38.892239000000004, "fusion_lon": 0.0, "fusion_lat": 0.0, "type": "electric_scooter", "name": "3a709f8a744a81fdd1e9ecfb0b1dc3fd", "is_disabled": 0, "rental_uris": {"ios": "https://dc.lft.to/lastmile_qr_scan", "android": "https://dc.lft.to/lastmile_qr_scan"}, "is_reserved": 0}, {"lon": -77.03076566666667, "bike_id": "a526e4b63156d836c2b3c33dcfc873dd", "lat": 38.880357000000004, "fusion_lon": 0.0, "fusion_lat": 0.0, "type": "electric_scooter", "name": "a526e4b63156d836c2b3c33dcfc873dd", "is_disabled": 0, "rental_uris": {"ios": "https://dc.lft.to/lastmile_qr_scan", "android": "https://dc.lft.to/lastmile_qr_scan"}, "is_reserved": 0}, {"lon": -77.04281216666666, "bike_id": "496a52fec67f34a01be2ec7d3ef4e4dc", "lat": 38.9341355, "fusion_lon": 0.0, "fusion_lat": 0.0, "type": "electric_scooter", "name": "496a52fec67f34a01be2ec7d3ef4e4dc", "is_disabled": 0, "rental_uris": {"ios": "https://dc.lft.to/lastmile_qr_scan", "android": "https://dc.lft.to/lastmile_qr_scan"}, "is_reserved": 0}, {"lon": -77.00041816666666, "bike_id": "ff46d848252fa94dbb6c27bd901678ef", "lat": 38.90812533333333, "fusion_lon": 0.0, "fusion_lat": 0.0, "type": "electric_scooter", "name": "ff46d848252fa94dbb6c27bd901678ef", "is_disabled": 0, "rental_uris": {"ios": "https://dc.lft.to/lastmile_qr_scan", "android": "https://dc.lft.to/lastmile_qr_scan"}, "is_reserved": 0}, {"lon": -77.0120545, "bike_id": "d36d00985ef4e799154beb30c401894e", "lat": 38.88551983333333, "fusion_lon": 0.0, "fusion_lat": 0.0, "type": "electric_scooter", "name": "d36d00985ef4e799154beb30c401894e", "is_disabled": 0, "rental_uris": {"ios": "https://dc.lft.to/lastmile_qr_scan", "android": "https://dc.lft.to/lastmile_qr_scan"}, "is_reserved": 0}, {"lon": -77.03138016666666, "bike_id": "8068156c8b87127249ad257eba90b9ec", "lat": 38.929643, "fusion_lon": 0.0, "fusion_lat": 0.0, "type": "electric_scooter", "name": "8068156c8b87127249ad257eba90b9ec", "is_disabled": 0, "rental_uris": {"ios": "https://dc.lft.to/lastmile_qr_scan", "android": "https://dc.lft.to/lastmile_qr_scan"}, "is_reserved": 0}, {"lon": -77.03264883333334, "bike_id": "6e5c4bd94ae443b464542e0c7a1345c3", "lat": 38.93922283333333, "fusion_lon": 0.0, "fusion_lat": 0.0, "type": "electric_scooter", "name": "6e5c4bd94ae443b464542e0c7a1345c3", "is_disabled": 0, "rental_uris": {"ios": "https://dc.lft.to/lastmile_qr_scan", "android": "https://dc.lft.to/lastmile_qr_scan"}, "is_reserved": 0}, {"lon": -77.00520816666666, "bike_id": "3e2060b215d6c66905495fc3ce6eda27", "lat": 38.9148025, "fusion_lon": 0.0, "fusion_lat": 0.0, "type": "electric_bike", "name": "3e2060b215d6c66905495fc3ce6eda27", "is_disabled": 0, "rental_uris": {"ios": "https://dc.lft.to/lastmile_qr_scan", "android": "https://dc.lft.to/lastmile_qr_scan"}, "is_reserved": 0}, {"lon": -76.98880033333333, "bike_id": "3eb93d3bea9b7c0d4be68f939a30dafc", "lat": 38.86657966666667, "fusion_lon": 0.0, "fusion_lat": 0.0, "type": "electric_scooter", "name": "3eb93d3bea9b7c0d4be68f939a30dafc", "is_disabled": 0, "rental_uris": {"ios": "https://dc.lft.to/lastmile_qr_scan", "android": "https://dc.lft.to/lastmile_qr_scan"}, "is_reserved": 0}, {"lon": -77.03835916666667, "bike_id": "ae2259c650cc736af648956127fa2a1a", "lat": 38.908771333333334, "fusion_lon": 0.0, "fusion_lat": 0.0, "type": "electric_scooter", "name": "ae2259c650cc736af648956127fa2a1a", "is_disabled": 0, "rental_uris": {"ios": "https://dc.lft.to/lastmile_qr_scan", "android": "https://dc.lft.to/lastmile_qr_scan"}, "is_reserved": 0}, {"lon": -77.05022716666667, "bike_id": "3081cc746930fe632a30799afbb5b79d", "lat": 38.90506216666667, "fusion_lon": 0.0, "fusion_lat": 0.0, "type": "electric_scooter", "name": "3081cc746930fe632a30799afbb5b79d", "is_disabled": 0, "rental_uris": {"ios": "https://dc.lft.to/lastmile_qr_scan", "android": "https://dc.lft.to/lastmile_qr_scan"}, "is_reserved": 0}, {"lon": -77.03276516666666, "bike_id": "aa2a04ea2709f36f46ba65e849cc6420", "lat": 38.901432166666666, "fusion_lon": 0.0, "fusion_lat": 0.0, "type": "electric_scooter", "name": "aa2a04ea2709f36f46ba65e849cc6420", "is_disabled": 0, "rental_uris": {"ios": "https://dc.lft.to/lastmile_qr_scan", "android": "https://dc.lft.to/lastmile_qr_scan"}, "is_reserved": 0}, {"lon": -77.02694983333333, "bike_id": "f9ffafb1be03caebe2316a62b6e6a23a", "lat": 38.906641, "fusion_lon": 0.0, "fusion_lat": 0.0, "type": "electric_scooter", "name": "f9ffafb1be03caebe2316a62b6e6a23a", "is_disabled": 0, "rental_uris": {"ios": "https://dc.lft.to/lastmile_qr_scan", "android": "https://dc.lft.to/lastmile_qr_scan"}, "is_reserved": 0}, {"lon": -77.09494316666667, "bike_id": "728eb1dd41c2ecf06d663e9cb6a9f292", "lat": 38.80764216666667, "fusion_lon": 0.0, "fusion_lat": 0.0, "type": "electric_bike", "name": "728eb1dd41c2ecf06d663e9cb6a9f292", "is_disabled": 0, "rental_uris": {"ios": "https://dc.lft.to/lastmile_qr_scan", "android": "https://dc.lft.to/lastmile_qr_scan"}, "is_reserved": 0}, {"lon": -77.04152016666667, "bike_id": "fa0a6dcad2487eb2b1d230590ebea199", "lat": 38.917993833333334, "fusion_lon": 0.0, "fusion_lat": 0.0, "type": "electric_scooter", "name": "fa0a6dcad2487eb2b1d230590ebea199", "is_disabled": 0, "rental_uris": {"ios": "https://dc.lft.to/lastmile_qr_scan", "android": "https://dc.lft.to/lastmile_qr_scan"}, "is_reserved": 0}, {"lon": -76.98836383333334, "bike_id": "439dc07e67b5362997faaca15ed58c9b", "lat": 38.901244166666665, "fusion_lon": 0.0, "fusion_lat": 0.0, "type": "electric_scooter", "name": "439dc07e67b5362997faaca15ed58c9b", "is_disabled": 0, "rental_uris": {"ios": "https://dc.lft.to/lastmile_qr_scan", "android": "https://dc.lft.to/lastmile_qr_scan"}, "is_reserved": 0}, {"lon": -77.02409466666667, "bike_id": "78e7d906113da16da381e7765ec014c8", "lat": 38.92149416666667, "fusion_lon": 0.0, "fusion_lat": 0.0, "type": "electric_scooter", "name": "78e7d906113da16da381e7765ec014c8", "is_disabled": 0, "rental_uris": {"ios": "https://dc.lft.to/lastmile_qr_scan", "android": "https://dc.lft.to/lastmile_qr_scan"}, "is_reserved": 0}, {"lon": -77.0061285, "bike_id": "f39da1ece92d5f7ea32f72fa2e411449", "lat": 38.871792, "fusion_lon": 0.0, "fusion_lat": 0.0, "type": "electric_scooter", "name": "f39da1ece92d5f7ea32f72fa2e411449", "is_disabled": 0, "rental_uris": {"ios": "https://dc.lft.to/lastmile_qr_scan", "android": "https://dc.lft.to/lastmile_qr_scan"}, "is_reserved": 0}, {"lon": -77.04876733333333, "bike_id": "a1eb3daffcdbe6252e150736f371cd3a", "lat": 38.892352, "fusion_lon": 0.0, "fusion_lat": 0.0, "type": "electric_scooter", "name": "a1eb3daffcdbe6252e150736f371cd3a", "is_disabled": 0, "rental_uris": {"ios": "https://dc.lft.to/lastmile_qr_scan", "android": "https://dc.lft.to/lastmile_qr_scan"}, "is_reserved": 0}, {"lon": -77.0161295, "bike_id": "3e6a26f52530e60cf56438d3adbf8b6d", "lat": 38.90610016666667, "fusion_lon": 0.0, "fusion_lat": 0.0, "type": "electric_scooter", "name": "3e6a26f52530e60cf56438d3adbf8b6d", "is_disabled": 0, "rental_uris": {"ios": "https://dc.lft.to/lastmile_qr_scan", "android": "https://dc.lft.to/lastmile_qr_scan"}, "is_reserved": 0}, {"lon": -77.03639716666666, "bike_id": "cab9178483c96fefa98c12586c419b10", "lat": 38.924647, "fusion_lon": 0.0, "fusion_lat": 0.0, "type": "electric_scooter", "name": "cab9178483c96fefa98c12586c419b10", "is_disabled": 0, "rental_uris": {"ios": "https://dc.lft.to/lastmile_qr_scan", "android": "https://dc.lft.to/lastmile_qr_scan"}, "is_reserved": 0}, {"lon": -77.03652633333333, "bike_id": "939e6961ef64d0df3b42c815ef6814e8", "lat": 38.9034965, "fusion_lon": 0.0, "fusion_lat": 0.0, "type": "electric_scooter", "name": "939e6961ef64d0df3b42c815ef6814e8", "is_disabled": 0, "rental_uris": {"ios": "https://dc.lft.to/lastmile_qr_scan", "android": "https://dc.lft.to/lastmile_qr_scan"}, "is_reserved": 0}, {"lon": -76.95572233333333, "bike_id": "80522d0bb7cfc808bbb7f9becbc8a263", "lat": 38.88765583333333, "fusion_lon": 0.0, "fusion_lat": 0.0, "type": "electric_scooter", "name": "80522d0bb7cfc808bbb7f9becbc8a263", "is_disabled": 0, "rental_uris": {"ios": "https://dc.lft.to/lastmile_qr_scan", "android": "https://dc.lft.to/lastmile_qr_scan"}, "is_reserved": 0}, {"lon": -76.98923683333334, "bike_id": "da1b8ba7f06d798bedc28645d65134d6", "lat": 38.858088333333335, "fusion_lon": 0.0, "fusion_lat": 0.0, "type": "electric_scooter", "name": "da1b8ba7f06d798bedc28645d65134d6", "is_disabled": 0, "rental_uris": {"ios": "https://dc.lft.to/lastmile_qr_scan", "android": "https://dc.lft.to/lastmile_qr_scan"}, "is_reserved": 0}, {"lon": -77.0284355, "bike_id": "4a083221b4d6617697670649d0045d80", "lat": 38.925682333333334, "fusion_lon": 0.0, "fusion_lat": 0.0, "type": "electric_scooter", "name": "4a083221b4d6617697670649d0045d80", "is_disabled": 0, "rental_uris": {"ios": "https://dc.lft.to/lastmile_qr_scan", "android": "https://dc.lft.to/lastmile_qr_scan"}, "is_reserved": 0}, {"lon": -77.02227366666666, "bike_id": "6f7993c2db09ca6452ccfaddab8144f5", "lat": 38.926142, "fusion_lon": 0.0, "fusion_lat": 0.0, "type": "electric_scooter", "name": "6f7993c2db09ca6452ccfaddab8144f5", "is_disabled": 0, "rental_uris": {"ios": "https://dc.lft.to/lastmile_qr_scan", "android": "https://dc.lft.to/lastmile_qr_scan"}, "is_reserved": 0}, {"lon": -77.04390366666667, "bike_id": "dbe53ce14f2906ab68a9f007c29abfa1", "lat": 39.04717433333333, "fusion_lon": 0.0, "fusion_lat": 0.0, "type": "electric_bike", "name": "dbe53ce14f2906ab68a9f007c29abfa1", "is_disabled": 0, "rental_uris": {"ios": "https://dc.lft.to/lastmile_qr_scan", "android": "https://dc.lft.to/lastmile_qr_scan"}, "is_reserved": 0}, {"lon": -77.02030333333333, "bike_id": "52fb2f6a1d3e82ef2dc5639dea3db31b", "lat": 38.924181833333336, "fusion_lon": 0.0, "fusion_lat": 0.0, "type": "electric_scooter", "name": "52fb2f6a1d3e82ef2dc5639dea3db31b", "is_disabled": 0, "rental_uris": {"ios": "https://dc.lft.to/lastmile_qr_scan", "android": "https://dc.lft.to/lastmile_qr_scan"}, "is_reserved": 0}, {"lon": -77.06344866666667, "bike_id": "8a67449112033594e05c83b9eeea3106", "lat": 38.90597533333333, "fusion_lon": 0.0, "fusion_lat": 0.0, "type": "electric_scooter", "name": "8a67449112033594e05c83b9eeea3106", "is_disabled": 0, "rental_uris": {"ios": "https://dc.lft.to/lastmile_qr_scan", "android": "https://dc.lft.to/lastmile_qr_scan"}, "is_reserved": 0}, {"lon": -77.0223445, "bike_id": "a0bab813ea489b86c3550db3d71d193a", "lat": 38.962143, "fusion_lon": 0.0, "fusion_lat": 0.0, "type": "electric_bike", "name": "a0bab813ea489b86c3550db3d71d193a", "is_disabled": 0, "rental_uris": {"ios": "https://dc.lft.to/lastmile_qr_scan", "android": "https://dc.lft.to/lastmile_qr_scan"}, "is_reserved": 0}, {"lon": -77.0466075, "bike_id": "883978ade5c64953e21d386deacc6fce", "lat": 38.898267, "fusion_lon": 0.0, "fusion_lat": 0.0, "type": "electric_scooter", "name": "883978ade5c64953e21d386deacc6fce", "is_disabled": 0, "rental_uris": {"ios": "https://dc.lft.to/lastmile_qr_scan", "android": "https://dc.lft.to/lastmile_qr_scan"}, "is_reserved": 0}, {"lon": -77.02748433333333, "bike_id": "ad0c8bb8326c52adee1133bc556a7c50", "lat": 38.929223, "fusion_lon": 0.0, "fusion_lat": 0.0, "type": "electric_scooter", "name": "ad0c8bb8326c52adee1133bc556a7c50", "is_disabled": 0, "rental_uris": {"ios": "https://dc.lft.to/lastmile_qr_scan", "android": "https://dc.lft.to/lastmile_qr_scan"}, "is_reserved": 0}, {"lon": -77.05260816666667, "bike_id": "32dbb2019a613da2a6705a880bd6ba89", "lat": 38.900057, "fusion_lon": 0.0, "fusion_lat": 0.0, "type": "electric_scooter", "name": "32dbb2019a613da2a6705a880bd6ba89", "is_disabled": 0, "rental_uris": {"ios": "https://dc.lft.to/lastmile_qr_scan", "android": "https://dc.lft.to/lastmile_qr_scan"}, "is_reserved": 0}, {"lon": -77.02453033333333, "bike_id": "655e3f0c7e7f76ce09e7aa3bdbdc6212", "lat": 38.938594333333334, "fusion_lon": 0.0, "fusion_lat": 0.0, "type": "electric_scooter", "name": "655e3f0c7e7f76ce09e7aa3bdbdc6212", "is_disabled": 0, "rental_uris": {"ios": "https://dc.lft.to/lastmile_qr_scan", "android": "https://dc.lft.to/lastmile_qr_scan"}, "is_reserved": 0}, {"lon": -77.02970783333333, "bike_id": "19f692200835e0252119f31a2d4ac5de", "lat": 38.912465166666664, "fusion_lon": 0.0, "fusion_lat": 0.0, "type": "electric_scooter", "name": "19f692200835e0252119f31a2d4ac5de", "is_disabled": 0, "rental_uris": {"ios": "https://dc.lft.to/lastmile_qr_scan", "android": "https://dc.lft.to/lastmile_qr_scan"}, "is_reserved": 0}, {"lon": -77.0502305, "bike_id": "954b630356b7d8258edde0fe935c8ddf", "lat": 38.90137433333334, "fusion_lon": 0.0, "fusion_lat": 0.0, "type": "electric_scooter", "name": "954b630356b7d8258edde0fe935c8ddf", "is_disabled": 0, "rental_uris": {"ios": "https://dc.lft.to/lastmile_qr_scan", "android": "https://dc.lft.to/lastmile_qr_scan"}, "is_reserved": 0}, {"lon": -77.03049483333334, "bike_id": "7820316b5ebb75415efd1bde753fa7d8", "lat": 38.88427633333333, "fusion_lon": 0.0, "fusion_lat": 0.0, "type": "electric_scooter", "name": "7820316b5ebb75415efd1bde753fa7d8", "is_disabled": 0, "rental_uris": {"ios": "https://dc.lft.to/lastmile_qr_scan", "android": "https://dc.lft.to/lastmile_qr_scan"}, "is_reserved": 0}, {"lon": -77.04162333333333, "bike_id": "f838547cf413ceaae7ec9d775f3da852", "lat": 38.91250433333333, "fusion_lon": 0.0, "fusion_lat": 0.0, "type": "electric_scooter", "name": "f838547cf413ceaae7ec9d775f3da852", "is_disabled": 0, "rental_uris": {"ios": "https://dc.lft.to/lastmile_qr_scan", "android": "https://dc.lft.to/lastmile_qr_scan"}, "is_reserved": 0}, {"lon": -77.04173683333333, "bike_id": "c6e28b73734904156377e02087ea5887", "lat": 38.92315466666667, "fusion_lon": 0.0, "fusion_lat": 0.0, "type": "electric_scooter", "name": "c6e28b73734904156377e02087ea5887", "is_disabled": 0, "rental_uris": {"ios": "https://dc.lft.to/lastmile_qr_scan", "android": "https://dc.lft.to/lastmile_qr_scan"}, "is_reserved": 0}, {"lon": -76.9373595, "bike_id": "c2cefeebb0d305a28f85688c852cceb7", "lat": 38.8901535, "fusion_lon": 0.0, "fusion_lat": 0.0, "type": "electric_scooter", "name": "c2cefeebb0d305a28f85688c852cceb7", "is_disabled": 0, "rental_uris": {"ios": "https://dc.lft.to/lastmile_qr_scan", "android": "https://dc.lft.to/lastmile_qr_scan"}, "is_reserved": 0}, {"lon": -77.04151383333334, "bike_id": "08b759bc03c22df4a5a713865fc4ec69", "lat": 38.92335583333333, "fusion_lon": 0.0, "fusion_lat": 0.0, "type": "electric_scooter", "name": "08b759bc03c22df4a5a713865fc4ec69", "is_disabled": 0, "rental_uris": {"ios": "https://dc.lft.to/lastmile_qr_scan", "android": "https://dc.lft.to/lastmile_qr_scan"}, "is_reserved": 0}, {"lon": -77.05380466666666, "bike_id": "911152dcbc24bd5ef19f7ca509529e7c", "lat": 38.90392, "fusion_lon": 0.0, "fusion_lat": 0.0, "type": "electric_scooter", "name": "911152dcbc24bd5ef19f7ca509529e7c", "is_disabled": 0, "rental_uris": {"ios": "https://dc.lft.to/lastmile_qr_scan", "android": "https://dc.lft.to/lastmile_qr_scan"}, "is_reserved": 0}, {"lon": -77.03088383333333, "bike_id": "8ca95ee12358e6ad763c26eed0a7878b", "lat": 38.910004, "fusion_lon": 0.0, "fusion_lat": 0.0, "type": "electric_scooter", "name": "8ca95ee12358e6ad763c26eed0a7878b", "is_disabled": 0, "rental_uris": {"ios": "https://dc.lft.to/lastmile_qr_scan", "android": "https://dc.lft.to/lastmile_qr_scan"}, "is_reserved": 0}, {"lon": -77.0240305, "bike_id": "016817f3d40f46aa6a5fdbd04aad7d27", "lat": 38.900159333333335, "fusion_lon": 0.0, "fusion_lat": 0.0, "type": "electric_scooter", "name": "016817f3d40f46aa6a5fdbd04aad7d27", "is_disabled": 0, "rental_uris": {"ios": "https://dc.lft.to/lastmile_qr_scan", "android": "https://dc.lft.to/lastmile_qr_scan"}, "is_reserved": 0}, {"lon": -76.98999583333334, "bike_id": "fb40ddd88f7343e47962e6049087b7bf", "lat": 38.8650375, "fusion_lon": 0.0, "fusion_lat": 0.0, "type": "electric_scooter", "name": "fb40ddd88f7343e47962e6049087b7bf", "is_disabled": 0, "rental_uris": {"ios": "https://dc.lft.to/lastmile_qr_scan", "android": "https://dc.lft.to/lastmile_qr_scan"}, "is_reserved": 0}, {"lon": -77.0344495, "bike_id": "8fe065b6cd0c574cd7e0da697c2e525d", "lat": 38.909783833333336, "fusion_lon": 0.0, "fusion_lat": 0.0, "type": "electric_scooter", "name": "8fe065b6cd0c574cd7e0da697c2e525d", "is_disabled": 0, "rental_uris": {"ios": "https://dc.lft.to/lastmile_qr_scan", "android": "https://dc.lft.to/lastmile_qr_scan"}, "is_reserved": 0}, {"lon": -76.989191, "bike_id": "f391aa37d89e9900f12cdf2f96cfb6e7", "lat": 38.901830833333335, "fusion_lon": 0.0, "fusion_lat": 0.0, "type": "electric_scooter", "name": "f391aa37d89e9900f12cdf2f96cfb6e7", "is_disabled": 0, "rental_uris": {"ios": "https://dc.lft.to/lastmile_qr_scan", "android": "https://dc.lft.to/lastmile_qr_scan"}, "is_reserved": 0}, {"lon": -77.0410375, "bike_id": "69dfd58881dd850b818d6a4502725e53", "lat": 38.923129833333334, "fusion_lon": 0.0, "fusion_lat": 0.0, "type": "electric_scooter", "name": "69dfd58881dd850b818d6a4502725e53", "is_disabled": 0, "rental_uris": {"ios": "https://dc.lft.to/lastmile_qr_scan", "android": "https://dc.lft.to/lastmile_qr_scan"}, "is_reserved": 0}, {"lon": -77.0568855, "bike_id": "9ec5396e31674e53e862c23dc663c593", "lat": 38.905125, "fusion_lon": 0.0, "fusion_lat": 0.0, "type": "electric_bike", "name": "9ec5396e31674e53e862c23dc663c593", "is_disabled": 0, "rental_uris": {"ios": "https://dc.lft.to/lastmile_qr_scan", "android": "https://dc.lft.to/lastmile_qr_scan"}, "is_reserved": 0}, {"lon": -76.9575425, "bike_id": "54bf0e4193157d27aaa1e9f60aa168b6", "lat": 38.8842175, "fusion_lon": 0.0, "fusion_lat": 0.0, "type": "electric_scooter", "name": "54bf0e4193157d27aaa1e9f60aa168b6", "is_disabled": 0, "rental_uris": {"ios": "https://dc.lft.to/lastmile_qr_scan", "android": "https://dc.lft.to/lastmile_qr_scan"}, "is_reserved": 0}, {"lon": -77.06299933333334, "bike_id": "f160dc42006ebce9ac7cf47c12662fcf", "lat": 38.905997, "fusion_lon": 0.0, "fusion_lat": 0.0, "type": "electric_scooter", "name": "f160dc42006ebce9ac7cf47c12662fcf", "is_disabled": 0, "rental_uris": {"ios": "https://dc.lft.to/lastmile_qr_scan", "android": "https://dc.lft.to/lastmile_qr_scan"}, "is_reserved": 0}, {"lon": -77.0278425, "bike_id": "3f0483658816a255ec5fe3c4975c9673", "lat": 38.88744883333333, "fusion_lon": 0.0, "fusion_lat": 0.0, "type": "electric_scooter", "name": "3f0483658816a255ec5fe3c4975c9673", "is_disabled": 0, "rental_uris": {"ios": "https://dc.lft.to/lastmile_qr_scan", "android": "https://dc.lft.to/lastmile_qr_scan"}, "is_reserved": 0}, {"lon": -76.99552733333333, "bike_id": "92e5c25938ae17e546033090b6887706", "lat": 38.88380933333333, "fusion_lon": 0.0, "fusion_lat": 0.0, "type": "electric_bike", "name": "92e5c25938ae17e546033090b6887706", "is_disabled": 0, "rental_uris": {"ios": "https://dc.lft.to/lastmile_qr_scan", "android": "https://dc.lft.to/lastmile_qr_scan"}, "is_reserved": 0}, {"lon": -77.04173083333333, "bike_id": "cf8fe9c11c35471eab47ec603df531d9", "lat": 38.91729483333334, "fusion_lon": 0.0, "fusion_lat": 0.0, "type": "electric_scooter", "name": "cf8fe9c11c35471eab47ec603df531d9", "is_disabled": 0, "rental_uris": {"ios": "https://dc.lft.to/lastmile_qr_scan", "android": "https://dc.lft.to/lastmile_qr_scan"}, "is_reserved": 0}, {"lon": -77.02797866666667, "bike_id": "6e11c814486cd504e48ae467dc8a08ef", "lat": 38.92024133333334, "fusion_lon": 0.0, "fusion_lat": 0.0, "type": "electric_scooter", "name": "6e11c814486cd504e48ae467dc8a08ef", "is_disabled": 0, "rental_uris": {"ios": "https://dc.lft.to/lastmile_qr_scan", "android": "https://dc.lft.to/lastmile_qr_scan"}, "is_reserved": 0}, {"lon": -77.02371783333334, "bike_id": "6eed286295c1a32207ab63230c4ca104", "lat": 38.9178255, "fusion_lon": 0.0, "fusion_lat": 0.0, "type": "electric_scooter", "name": "6eed286295c1a32207ab63230c4ca104", "is_disabled": 0, "rental_uris": {"ios": "https://dc.lft.to/lastmile_qr_scan", "android": "https://dc.lft.to/lastmile_qr_scan"}, "is_reserved": 0}, {"lon": -77.04019, "bike_id": "b6ee3dad3cc259b5600e283a9a4988b7", "lat": 38.91566183333333, "fusion_lon": 0.0, "fusion_lat": 0.0, "type": "electric_scooter", "name": "b6ee3dad3cc259b5600e283a9a4988b7", "is_disabled": 0, "rental_uris": {"ios": "https://dc.lft.to/lastmile_qr_scan", "android": "https://dc.lft.to/lastmile_qr_scan"}, "is_reserved": 0}, {"lon": -77.045445, "bike_id": "c39eac0f81f5aca757536daf5b6aa481", "lat": 38.92052116666667, "fusion_lon": 0.0, "fusion_lat": 0.0, "type": "electric_scooter", "name": "c39eac0f81f5aca757536daf5b6aa481", "is_disabled": 0, "rental_uris": {"ios": "https://dc.lft.to/lastmile_qr_scan", "android": "https://dc.lft.to/lastmile_qr_scan"}, "is_reserved": 0}, {"lon": -77.0332805, "bike_id": "c39a5347026454ea2ed9b4fcbb8f055c", "lat": 38.90969916666667, "fusion_lon": 0.0, "fusion_lat": 0.0, "type": "electric_scooter", "name": "c39a5347026454ea2ed9b4fcbb8f055c", "is_disabled": 0, "rental_uris": {"ios": "https://dc.lft.to/lastmile_qr_scan", "android": "https://dc.lft.to/lastmile_qr_scan"}, "is_reserved": 0}, {"lon": -77.027302, "bike_id": "4374c437645745dad22ce4b39f7d9fc5", "lat": 38.932126833333335, "fusion_lon": 0.0, "fusion_lat": 0.0, "type": "electric_scooter", "name": "4374c437645745dad22ce4b39f7d9fc5", "is_disabled": 0, "rental_uris": {"ios": "https://dc.lft.to/lastmile_qr_scan", "android": "https://dc.lft.to/lastmile_qr_scan"}, "is_reserved": 0}, {"lon": -77.00214533333333, "bike_id": "37753d3a3d22aa8a692d021a14a542d1", "lat": 38.91449183333334, "fusion_lon": 0.0, "fusion_lat": 0.0, "type": "electric_scooter", "name": "37753d3a3d22aa8a692d021a14a542d1", "is_disabled": 0, "rental_uris": {"ios": "https://dc.lft.to/lastmile_qr_scan", "android": "https://dc.lft.to/lastmile_qr_scan"}, "is_reserved": 0}, {"lon": -76.99003033333334, "bike_id": "073670d604ec27ddd59985621dc0a944", "lat": 38.865023666666666, "fusion_lon": 0.0, "fusion_lat": 0.0, "type": "electric_scooter", "name": "073670d604ec27ddd59985621dc0a944", "is_disabled": 0, "rental_uris": {"ios": "https://dc.lft.to/lastmile_qr_scan", "android": "https://dc.lft.to/lastmile_qr_scan"}, "is_reserved": 0}, {"lon": -77.05575266666666, "bike_id": "0f301bd32d097a1f6accc513c8bed4cc", "lat": 38.915944833333334, "fusion_lon": 0.0, "fusion_lat": 0.0, "type": "electric_scooter", "name": "0f301bd32d097a1f6accc513c8bed4cc", "is_disabled": 0, "rental_uris": {"ios": "https://dc.lft.to/lastmile_qr_scan", "android": "https://dc.lft.to/lastmile_qr_scan"}, "is_reserved": 0}, {"lon": -77.03335883333334, "bike_id": "706101c6b04aaed19dff59e455691530", "lat": 38.936409833333336, "fusion_lon": 0.0, "fusion_lat": 0.0, "type": "electric_scooter", "name": "706101c6b04aaed19dff59e455691530", "is_disabled": 0, "rental_uris": {"ios": "https://dc.lft.to/lastmile_qr_scan", "android": "https://dc.lft.to/lastmile_qr_scan"}, "is_reserved": 0}, {"lon": -77.024766, "bike_id": "8b1bb04c6c68627f54a4123e2dfa7bc2", "lat": 38.8802255, "fusion_lon": 0.0, "fusion_lat": 0.0, "type": "electric_scooter", "name": "8b1bb04c6c68627f54a4123e2dfa7bc2", "is_disabled": 0, "rental_uris": {"ios": "https://dc.lft.to/lastmile_qr_scan", "android": "https://dc.lft.to/lastmile_qr_scan"}, "is_reserved": 0}, {"lon": -76.98709983333333, "bike_id": "9881390a9be8531f3a00ce046433a6ac", "lat": 38.86535683333334, "fusion_lon": 0.0, "fusion_lat": 0.0, "type": "electric_scooter", "name": "9881390a9be8531f3a00ce046433a6ac", "is_disabled": 0, "rental_uris": {"ios": "https://dc.lft.to/lastmile_qr_scan", "android": "https://dc.lft.to/lastmile_qr_scan"}, "is_reserved": 0}, {"lon": -77.020916, "bike_id": "e37e914fde19ff7a3801b0f8b229d47e", "lat": 38.957486833333334, "fusion_lon": 0.0, "fusion_lat": 0.0, "type": "electric_scooter", "name": "e37e914fde19ff7a3801b0f8b229d47e", "is_disabled": 0, "rental_uris": {"ios": "https://dc.lft.to/lastmile_qr_scan", "android": "https://dc.lft.to/lastmile_qr_scan"}, "is_reserved": 0}, {"lon": -76.9872375, "bike_id": "01f7e7bc50a26d3893c9c874c4bb8a94", "lat": 38.86713533333333, "fusion_lon": 0.0, "fusion_lat": 0.0, "type": "electric_scooter", "name": "01f7e7bc50a26d3893c9c874c4bb8a94", "is_disabled": 0, "rental_uris": {"ios": "https://dc.lft.to/lastmile_qr_scan", "android": "https://dc.lft.to/lastmile_qr_scan"}, "is_reserved": 0}, {"lon": -76.9933185, "bike_id": "2072234dd25d8a0f455f9b7fe7574d6b", "lat": 38.871443, "fusion_lon": 0.0, "fusion_lat": 0.0, "type": "electric_scooter", "name": "2072234dd25d8a0f455f9b7fe7574d6b", "is_disabled": 0, "rental_uris": {"ios": "https://dc.lft.to/lastmile_qr_scan", "android": "https://dc.lft.to/lastmile_qr_scan"}, "is_reserved": 0}, {"lon": -77.02325033333334, "bike_id": "7c82b92d808d3052f862435ccb9256a1", "lat": 38.9222705, "fusion_lon": 0.0, "fusion_lat": 0.0, "type": "electric_scooter", "name": "7c82b92d808d3052f862435ccb9256a1", "is_disabled": 0, "rental_uris": {"ios": "https://dc.lft.to/lastmile_qr_scan", "android": "https://dc.lft.to/lastmile_qr_scan"}, "is_reserved": 0}, {"lon": -77.04254066666667, "bike_id": "4b5555f1ed2421de43272d339d001c2a", "lat": 38.92286033333333, "fusion_lon": 0.0, "fusion_lat": 0.0, "type": "electric_scooter", "name": "4b5555f1ed2421de43272d339d001c2a", "is_disabled": 0, "rental_uris": {"ios": "https://dc.lft.to/lastmile_qr_scan", "android": "https://dc.lft.to/lastmile_qr_scan"}, "is_reserved": 0}, {"lon": -77.0330615, "bike_id": "ad8dbf4dccb4128fdce8633d14a1628a", "lat": 38.9036325, "fusion_lon": 0.0, "fusion_lat": 0.0, "type": "electric_scooter", "name": "ad8dbf4dccb4128fdce8633d14a1628a", "is_disabled": 0, "rental_uris": {"ios": "https://dc.lft.to/lastmile_qr_scan", "android": "https://dc.lft.to/lastmile_qr_scan"}, "is_reserved": 0}, {"lon": -77.02652683333334, "bike_id": "c0b696805dd8663484f6a51fc15d6846", "lat": 38.897122833333334, "fusion_lon": 0.0, "fusion_lat": 0.0, "type": "electric_scooter", "name": "c0b696805dd8663484f6a51fc15d6846", "is_disabled": 0, "rental_uris": {"ios": "https://dc.lft.to/lastmile_qr_scan", "android": "https://dc.lft.to/lastmile_qr_scan"}, "is_reserved": 0}, {"lon": -77.0311875, "bike_id": "60ae4195a8b7b54f8e4bd7a3c3df90c2", "lat": 38.91701666666667, "fusion_lon": 0.0, "fusion_lat": 0.0, "type": "electric_scooter", "name": "60ae4195a8b7b54f8e4bd7a3c3df90c2", "is_disabled": 0, "rental_uris": {"ios": "https://dc.lft.to/lastmile_qr_scan", "android": "https://dc.lft.to/lastmile_qr_scan"}, "is_reserved": 0}, {"lon": -77.02534633333333, "bike_id": "4722f34eb4f762532029aa1b1e5f0927", "lat": 38.90569333333333, "fusion_lon": 0.0, "fusion_lat": 0.0, "type": "electric_scooter", "name": "4722f34eb4f762532029aa1b1e5f0927", "is_disabled": 0, "rental_uris": {"ios": "https://dc.lft.to/lastmile_qr_scan", "android": "https://dc.lft.to/lastmile_qr_scan"}, "is_reserved": 0}, {"lon": -77.02936833333334, "bike_id": "2d626e736b86e3a8b9ef116281ea9a57", "lat": 38.916908166666666, "fusion_lon": 0.0, "fusion_lat": 0.0, "type": "electric_scooter", "name": "2d626e736b86e3a8b9ef116281ea9a57", "is_disabled": 0, "rental_uris": {"ios": "https://dc.lft.to/lastmile_qr_scan", "android": "https://dc.lft.to/lastmile_qr_scan"}, "is_reserved": 0}, {"lon": -77.02232633333334, "bike_id": "fb00681e62f589702d7e83b0f3c8e58c", "lat": 38.962036166666664, "fusion_lon": 0.0, "fusion_lat": 0.0, "type": "electric_scooter", "name": "fb00681e62f589702d7e83b0f3c8e58c", "is_disabled": 0, "rental_uris": {"ios": "https://dc.lft.to/lastmile_qr_scan", "android": "https://dc.lft.to/lastmile_qr_scan"}, "is_reserved": 0}, {"lon": -77.06014116666667, "bike_id": "e89721b1992db788486184fad8cd7bd9", "lat": 38.901145666666665, "fusion_lon": 0.0, "fusion_lat": 0.0, "type": "electric_scooter", "name": "e89721b1992db788486184fad8cd7bd9", "is_disabled": 0, "rental_uris": {"ios": "https://dc.lft.to/lastmile_qr_scan", "android": "https://dc.lft.to/lastmile_qr_scan"}, "is_reserved": 0}, {"lon": -77.01969483333333, "bike_id": "3f05db8aafcd144f622ee84df75ffe62", "lat": 38.87837316666667, "fusion_lon": 0.0, "fusion_lat": 0.0, "type": "electric_scooter", "name": "3f05db8aafcd144f622ee84df75ffe62", "is_disabled": 0, "rental_uris": {"ios": "https://dc.lft.to/lastmile_qr_scan", "android": "https://dc.lft.to/lastmile_qr_scan"}, "is_reserved": 0}, {"lon": -77.0486905, "bike_id": "b24d45b5dbd29a6bc58f9517db56a88f", "lat": 38.89230666666667, "fusion_lon": 0.0, "fusion_lat": 0.0, "type": "electric_scooter", "name": "b24d45b5dbd29a6bc58f9517db56a88f", "is_disabled": 0, "rental_uris": {"ios": "https://dc.lft.to/lastmile_qr_scan", "android": "https://dc.lft.to/lastmile_qr_scan"}, "is_reserved": 0}, {"lon": -77.0218845, "bike_id": "b50a2afb1d31182d279fd1929b8e237b", "lat": 38.90113983333333, "fusion_lon": 0.0, "fusion_lat": 0.0, "type": "electric_scooter", "name": "b50a2afb1d31182d279fd1929b8e237b", "is_disabled": 0, "rental_uris": {"ios": "https://dc.lft.to/lastmile_qr_scan", "android": "https://dc.lft.to/lastmile_qr_scan"}, "is_reserved": 0}, {"lon": -76.97334666666667, "bike_id": "464dc98725cb39110efdd428854643e5", "lat": 38.865201666666664, "fusion_lon": 0.0, "fusion_lat": 0.0, "type": "electric_bike", "name": "464dc98725cb39110efdd428854643e5", "is_disabled": 0, "rental_uris": {"ios": "https://dc.lft.to/lastmile_qr_scan", "android": "https://dc.lft.to/lastmile_qr_scan"}, "is_reserved": 0}, {"lon": -76.985615, "bike_id": "49732ec7be32afebdef1a0a0894ccb83", "lat": 38.90916766666667, "fusion_lon": 0.0, "fusion_lat": 0.0, "type": "electric_scooter", "name": "49732ec7be32afebdef1a0a0894ccb83", "is_disabled": 0, "rental_uris": {"ios": "https://dc.lft.to/lastmile_qr_scan", "android": "https://dc.lft.to/lastmile_qr_scan"}, "is_reserved": 0}, {"lon": -77.036457, "bike_id": "f89b82bdf78a02b66851f902ced2b7a8", "lat": 38.912266333333335, "fusion_lon": 0.0, "fusion_lat": 0.0, "type": "electric_scooter", "name": "f89b82bdf78a02b66851f902ced2b7a8", "is_disabled": 0, "rental_uris": {"ios": "https://dc.lft.to/lastmile_qr_scan", "android": "https://dc.lft.to/lastmile_qr_scan"}, "is_reserved": 0}, {"lon": -77.03189516666667, "bike_id": "c8b73fb5dd067bede2ab09ba9e0a975e", "lat": 38.928696333333335, "fusion_lon": 0.0, "fusion_lat": 0.0, "type": "electric_scooter", "name": "c8b73fb5dd067bede2ab09ba9e0a975e", "is_disabled": 0, "rental_uris": {"ios": "https://dc.lft.to/lastmile_qr_scan", "android": "https://dc.lft.to/lastmile_qr_scan"}, "is_reserved": 0}, {"lon": -77.05860066666666, "bike_id": "7908967f412460fd984a16aa4adcc3a3", "lat": 38.93605633333333, "fusion_lon": 0.0, "fusion_lat": 0.0, "type": "electric_scooter", "name": "7908967f412460fd984a16aa4adcc3a3", "is_disabled": 0, "rental_uris": {"ios": "https://dc.lft.to/lastmile_qr_scan", "android": "https://dc.lft.to/lastmile_qr_scan"}, "is_reserved": 0}, {"lon": -77.0169945, "bike_id": "1bd44c727024b86351c39f19b84e01b8", "lat": 38.879202166666666, "fusion_lon": 0.0, "fusion_lat": 0.0, "type": "electric_scooter", "name": "1bd44c727024b86351c39f19b84e01b8", "is_disabled": 0, "rental_uris": {"ios": "https://dc.lft.to/lastmile_qr_scan", "android": "https://dc.lft.to/lastmile_qr_scan"}, "is_reserved": 0}, {"lon": -77.032175, "bike_id": "2ba35959ccfcc981200424424ef1ffc4", "lat": 38.892231333333335, "fusion_lon": 0.0, "fusion_lat": 0.0, "type": "electric_scooter", "name": "2ba35959ccfcc981200424424ef1ffc4", "is_disabled": 0, "rental_uris": {"ios": "https://dc.lft.to/lastmile_qr_scan", "android": "https://dc.lft.to/lastmile_qr_scan"}, "is_reserved": 0}, {"lon": -77.03909783333333, "bike_id": "45dde3a20b25134c34669bb4da8a4242", "lat": 38.91838683333334, "fusion_lon": 0.0, "fusion_lat": 0.0, "type": "electric_scooter", "name": "45dde3a20b25134c34669bb4da8a4242", "is_disabled": 0, "rental_uris": {"ios": "https://dc.lft.to/lastmile_qr_scan", "android": "https://dc.lft.to/lastmile_qr_scan"}, "is_reserved": 0}, {"lon": -76.98082216666667, "bike_id": "2a370fe5217d700c15032470701ec426", "lat": 38.88423016666667, "fusion_lon": 0.0, "fusion_lat": 0.0, "type": "electric_scooter", "name": "2a370fe5217d700c15032470701ec426", "is_disabled": 0, "rental_uris": {"ios": "https://dc.lft.to/lastmile_qr_scan", "android": "https://dc.lft.to/lastmile_qr_scan"}, "is_reserved": 0}, {"lon": -77.06979866666667, "bike_id": "b905ff55bdcf4b616be36108c89914ee", "lat": 38.955202, "fusion_lon": 0.0, "fusion_lat": 0.0, "type": "electric_scooter", "name": "b905ff55bdcf4b616be36108c89914ee", "is_disabled": 0, "rental_uris": {"ios": "https://dc.lft.to/lastmile_qr_scan", "android": "https://dc.lft.to/lastmile_qr_scan"}, "is_reserved": 0}, {"lon": -77.03284333333333, "bike_id": "5b0ab6a5c4d5e9ba132ad38e4d4ef5f3", "lat": 38.9288765, "fusion_lon": 0.0, "fusion_lat": 0.0, "type": "electric_scooter", "name": "5b0ab6a5c4d5e9ba132ad38e4d4ef5f3", "is_disabled": 0, "rental_uris": {"ios": "https://dc.lft.to/lastmile_qr_scan", "android": "https://dc.lft.to/lastmile_qr_scan"}, "is_reserved": 0}, {"lon": -77.040963, "bike_id": "31c21c2d7b0a0fcac6d1318205988011", "lat": 38.9172335, "fusion_lon": 0.0, "fusion_lat": 0.0, "type": "electric_scooter", "name": "31c21c2d7b0a0fcac6d1318205988011", "is_disabled": 0, "rental_uris": {"ios": "https://dc.lft.to/lastmile_qr_scan", "android": "https://dc.lft.to/lastmile_qr_scan"}, "is_reserved": 0}, {"lon": -76.90741166666666, "bike_id": "2bac3b8c648aa4cd7dbee976e1d1abad", "lat": 38.896184166666664, "fusion_lon": 0.0, "fusion_lat": 0.0, "type": "electric_bike", "name": "2bac3b8c648aa4cd7dbee976e1d1abad", "is_disabled": 0, "rental_uris": {"ios": "https://dc.lft.to/lastmile_qr_scan", "android": "https://dc.lft.to/lastmile_qr_scan"}, "is_reserved": 0}, {"lon": -77.027606, "bike_id": "b0cbfe287fa901f4e3aa6e8d75427440", "lat": 38.95427, "fusion_lon": 0.0, "fusion_lat": 0.0, "type": "electric_scooter", "name": "b0cbfe287fa901f4e3aa6e8d75427440", "is_disabled": 0, "rental_uris": {"ios": "https://dc.lft.to/lastmile_qr_scan", "android": "https://dc.lft.to/lastmile_qr_scan"}, "is_reserved": 0}, {"lon": -77.00558566666666, "bike_id": "5d305b0fbb9291386e172ce732a19bf2", "lat": 38.874721, "fusion_lon": 0.0, "fusion_lat": 0.0, "type": "electric_scooter", "name": "5d305b0fbb9291386e172ce732a19bf2", "is_disabled": 0, "rental_uris": {"ios": "https://dc.lft.to/lastmile_qr_scan", "android": "https://dc.lft.to/lastmile_qr_scan"}, "is_reserved": 0}, {"lon": -77.00074716666667, "bike_id": "28e75da9aa28c44302ee5bfe3a3ebc15", "lat": 38.87376966666667, "fusion_lon": 0.0, "fusion_lat": 0.0, "type": "electric_scooter", "name": "28e75da9aa28c44302ee5bfe3a3ebc15", "is_disabled": 0, "rental_uris": {"ios": "https://dc.lft.to/lastmile_qr_scan", "android": "https://dc.lft.to/lastmile_qr_scan"}, "is_reserved": 0}, {"lon": -77.04814283333333, "bike_id": "61a1fd4e744f37987dc5e4eb12f347fb", "lat": 38.911098833333334, "fusion_lon": 0.0, "fusion_lat": 0.0, "type": "electric_scooter", "name": "61a1fd4e744f37987dc5e4eb12f347fb", "is_disabled": 0, "rental_uris": {"ios": "https://dc.lft.to/lastmile_qr_scan", "android": "https://dc.lft.to/lastmile_qr_scan"}, "is_reserved": 0}, {"lon": -77.04473333333334, "bike_id": "d15592c6dea261f82fec644774db4eff", "lat": 38.923902, "fusion_lon": 0.0, "fusion_lat": 0.0, "type": "electric_scooter", "name": "d15592c6dea261f82fec644774db4eff", "is_disabled": 0, "rental_uris": {"ios": "https://dc.lft.to/lastmile_qr_scan", "android": "https://dc.lft.to/lastmile_qr_scan"}, "is_reserved": 0}, {"lon": -77.03239366666666, "bike_id": "bd7ce039a769530adf997602480cc064", "lat": 38.92847716666667, "fusion_lon": 0.0, "fusion_lat": 0.0, "type": "electric_scooter", "name": "bd7ce039a769530adf997602480cc064", "is_disabled": 0, "rental_uris": {"ios": "https://dc.lft.to/lastmile_qr_scan", "android": "https://dc.lft.to/lastmile_qr_scan"}, "is_reserved": 0}, {"lon": -77.039851, "bike_id": "ac51da78296030c480f21484a60f3ca5", "lat": 38.93340166666667, "fusion_lon": 0.0, "fusion_lat": 0.0, "type": "electric_scooter", "name": "ac51da78296030c480f21484a60f3ca5", "is_disabled": 0, "rental_uris": {"ios": "https://dc.lft.to/lastmile_qr_scan", "android": "https://dc.lft.to/lastmile_qr_scan"}, "is_reserved": 0}, {"lon": -76.97998966666667, "bike_id": "ae8b72bb7cc8740e93c2e9a93aa06dc9", "lat": 38.9010745, "fusion_lon": 0.0, "fusion_lat": 0.0, "type": "electric_scooter", "name": "ae8b72bb7cc8740e93c2e9a93aa06dc9", "is_disabled": 0, "rental_uris": {"ios": "https://dc.lft.to/lastmile_qr_scan", "android": "https://dc.lft.to/lastmile_qr_scan"}, "is_reserved": 0}, {"lon": -76.98527583333333, "bike_id": "a5ad61743f3b1eb059424e61f397d95d", "lat": 38.8668445, "fusion_lon": 0.0, "fusion_lat": 0.0, "type": "electric_scooter", "name": "a5ad61743f3b1eb059424e61f397d95d", "is_disabled": 0, "rental_uris": {"ios": "https://dc.lft.to/lastmile_qr_scan", "android": "https://dc.lft.to/lastmile_qr_scan"}, "is_reserved": 0}, {"lon": -77.04867283333333, "bike_id": "0044db4c3b1cc36648e4023304f895ce", "lat": 38.892223333333334, "fusion_lon": 0.0, "fusion_lat": 0.0, "type": "electric_scooter", "name": "0044db4c3b1cc36648e4023304f895ce", "is_disabled": 0, "rental_uris": {"ios": "https://dc.lft.to/lastmile_qr_scan", "android": "https://dc.lft.to/lastmile_qr_scan"}, "is_reserved": 0}, {"lon": -77.01330266666666, "bike_id": "0ea1648becc1a55422fa5c6a06d91480", "lat": 38.90031116666667, "fusion_lon": 0.0, "fusion_lat": 0.0, "type": "electric_scooter", "name": "0ea1648becc1a55422fa5c6a06d91480", "is_disabled": 0, "rental_uris": {"ios": "https://dc.lft.to/lastmile_qr_scan", "android": "https://dc.lft.to/lastmile_qr_scan"}, "is_reserved": 0}, {"lon": -76.94196533333333, "bike_id": "2b6a6776eef84ebe0fc260138846d049", "lat": 38.8930965, "fusion_lon": 0.0, "fusion_lat": 0.0, "type": "electric_bike", "name": "2b6a6776eef84ebe0fc260138846d049", "is_disabled": 0, "rental_uris": {"ios": "https://dc.lft.to/lastmile_qr_scan", "android": "https://dc.lft.to/lastmile_qr_scan"}, "is_reserved": 0}, {"lon": -77.02720766666667, "bike_id": "35deac079dcae255e3ed75c395336a29", "lat": 38.9052345, "fusion_lon": 0.0, "fusion_lat": 0.0, "type": "electric_scooter", "name": "35deac079dcae255e3ed75c395336a29", "is_disabled": 0, "rental_uris": {"ios": "https://dc.lft.to/lastmile_qr_scan", "android": "https://dc.lft.to/lastmile_qr_scan"}, "is_reserved": 0}, {"lon": -77.0425135, "bike_id": "580807445b9f6c0874415b2346786dd3", "lat": 38.92253933333333, "fusion_lon": 0.0, "fusion_lat": 0.0, "type": "electric_scooter", "name": "580807445b9f6c0874415b2346786dd3", "is_disabled": 0, "rental_uris": {"ios": "https://dc.lft.to/lastmile_qr_scan", "android": "https://dc.lft.to/lastmile_qr_scan"}, "is_reserved": 0}, {"lon": -77.04152716666667, "bike_id": "b87f6798903faeff2034b429202153e9", "lat": 38.918185, "fusion_lon": 0.0, "fusion_lat": 0.0, "type": "electric_scooter", "name": "b87f6798903faeff2034b429202153e9", "is_disabled": 0, "rental_uris": {"ios": "https://dc.lft.to/lastmile_qr_scan", "android": "https://dc.lft.to/lastmile_qr_scan"}, "is_reserved": 0}, {"lon": -77.03878633333333, "bike_id": "cfd68921a2912120a16742fa4cc558c7", "lat": 38.931834333333335, "fusion_lon": 0.0, "fusion_lat": 0.0, "type": "electric_scooter", "name": "cfd68921a2912120a16742fa4cc558c7", "is_disabled": 0, "rental_uris": {"ios": "https://dc.lft.to/lastmile_qr_scan", "android": "https://dc.lft.to/lastmile_qr_scan"}, "is_reserved": 0}, {"lon": -76.97328933333333, "bike_id": "6853501007f68a05eeb04340e2407809", "lat": 38.90409266666666, "fusion_lon": 0.0, "fusion_lat": 0.0, "type": "electric_scooter", "name": "6853501007f68a05eeb04340e2407809", "is_disabled": 0, "rental_uris": {"ios": "https://dc.lft.to/lastmile_qr_scan", "android": "https://dc.lft.to/lastmile_qr_scan"}, "is_reserved": 0}, {"lon": -76.99143716666667, "bike_id": "09b18cc3eb828a57a31c910909032254", "lat": 38.882153333333335, "fusion_lon": 0.0, "fusion_lat": 0.0, "type": "electric_bike", "name": "09b18cc3eb828a57a31c910909032254", "is_disabled": 0, "rental_uris": {"ios": "https://dc.lft.to/lastmile_qr_scan", "android": "https://dc.lft.to/lastmile_qr_scan"}, "is_reserved": 0}, {"lon": -77.04222233333333, "bike_id": "ac0c49d4a792605828136e2faff55095", "lat": 38.921201, "fusion_lon": 0.0, "fusion_lat": 0.0, "type": "electric_scooter", "name": "ac0c49d4a792605828136e2faff55095", "is_disabled": 0, "rental_uris": {"ios": "https://dc.lft.to/lastmile_qr_scan", "android": "https://dc.lft.to/lastmile_qr_scan"}, "is_reserved": 0}, {"lon": -77.04607516666667, "bike_id": "b8561f8175e6381c946feae5f40a23f5", "lat": 38.916615, "fusion_lon": 0.0, "fusion_lat": 0.0, "type": "electric_scooter", "name": "b8561f8175e6381c946feae5f40a23f5", "is_disabled": 0, "rental_uris": {"ios": "https://dc.lft.to/lastmile_qr_scan", "android": "https://dc.lft.to/lastmile_qr_scan"}, "is_reserved": 0}, {"lon": -77.021802, "bike_id": "a489f8cf9ea0c6164159cdd9ead94528", "lat": 38.9042065, "fusion_lon": 0.0, "fusion_lat": 0.0, "type": "electric_bike", "name": "a489f8cf9ea0c6164159cdd9ead94528", "is_disabled": 0, "rental_uris": {"ios": "https://dc.lft.to/lastmile_qr_scan", "android": "https://dc.lft.to/lastmile_qr_scan"}, "is_reserved": 0}, {"lon": -76.99757716666667, "bike_id": "245c5ea215f4c07f10bead0f219ff1dd", "lat": 38.90041216666667, "fusion_lon": 0.0, "fusion_lat": 0.0, "type": "electric_scooter", "name": "245c5ea215f4c07f10bead0f219ff1dd", "is_disabled": 0, "rental_uris": {"ios": "https://dc.lft.to/lastmile_qr_scan", "android": "https://dc.lft.to/lastmile_qr_scan"}, "is_reserved": 0}, {"lon": -77.00675633333333, "bike_id": "f2a95140818a7b56c0abd7a1d757ddd5", "lat": 38.945125833333336, "fusion_lon": 0.0, "fusion_lat": 0.0, "type": "electric_bike", "name": "f2a95140818a7b56c0abd7a1d757ddd5", "is_disabled": 0, "rental_uris": {"ios": "https://dc.lft.to/lastmile_qr_scan", "android": "https://dc.lft.to/lastmile_qr_scan"}, "is_reserved": 0}, {"lon": -77.01763883333334, "bike_id": "75a3faf19aff623d5c8554bbe9641dd4", "lat": 38.885963, "fusion_lon": 0.0, "fusion_lat": 0.0, "type": "electric_scooter", "name": "75a3faf19aff623d5c8554bbe9641dd4", "is_disabled": 0, "rental_uris": {"ios": "https://dc.lft.to/lastmile_qr_scan", "android": "https://dc.lft.to/lastmile_qr_scan"}, "is_reserved": 0}, {"lon": -77.02671283333333, "bike_id": "f138bb51418fd2d28a16b12680d75210", "lat": 38.92875266666667, "fusion_lon": 0.0, "fusion_lat": 0.0, "type": "electric_scooter", "name": "f138bb51418fd2d28a16b12680d75210", "is_disabled": 0, "rental_uris": {"ios": "https://dc.lft.to/lastmile_qr_scan", "android": "https://dc.lft.to/lastmile_qr_scan"}, "is_reserved": 0}, {"lon": -77.03215566666667, "bike_id": "39261711062e3295e26f41378c0fcbdf", "lat": 38.8985535, "fusion_lon": 0.0, "fusion_lat": 0.0, "type": "electric_scooter", "name": "39261711062e3295e26f41378c0fcbdf", "is_disabled": 0, "rental_uris": {"ios": "https://dc.lft.to/lastmile_qr_scan", "android": "https://dc.lft.to/lastmile_qr_scan"}, "is_reserved": 0}, {"lon": -77.04439, "bike_id": "3ca375cab7eb6e2ce737789ec5af4ffa", "lat": 38.921602166666666, "fusion_lon": 0.0, "fusion_lat": 0.0, "type": "electric_scooter", "name": "3ca375cab7eb6e2ce737789ec5af4ffa", "is_disabled": 0, "rental_uris": {"ios": "https://dc.lft.to/lastmile_qr_scan", "android": "https://dc.lft.to/lastmile_qr_scan"}, "is_reserved": 0}, {"lon": -76.99488433333333, "bike_id": "d1ae0d8164132f7897b76d67fcbd15e7", "lat": 38.862462666666666, "fusion_lon": 0.0, "fusion_lat": 0.0, "type": "electric_scooter", "name": "d1ae0d8164132f7897b76d67fcbd15e7", "is_disabled": 0, "rental_uris": {"ios": "https://dc.lft.to/lastmile_qr_scan", "android": "https://dc.lft.to/lastmile_qr_scan"}, "is_reserved": 0}, {"lon": -77.00589866666667, "bike_id": "d5bd47952aa8ca55facc7d85272d4aef", "lat": 38.90632, "fusion_lon": 0.0, "fusion_lat": 0.0, "type": "electric_scooter", "name": "d5bd47952aa8ca55facc7d85272d4aef", "is_disabled": 0, "rental_uris": {"ios": "https://dc.lft.to/lastmile_qr_scan", "android": "https://dc.lft.to/lastmile_qr_scan"}, "is_reserved": 0}, {"lon": -77.05143033333333, "bike_id": "e9e34690ee345c09dc098b2ce00e6884", "lat": 38.90560766666667, "fusion_lon": 0.0, "fusion_lat": 0.0, "type": "electric_scooter", "name": "e9e34690ee345c09dc098b2ce00e6884", "is_disabled": 0, "rental_uris": {"ios": "https://dc.lft.to/lastmile_qr_scan", "android": "https://dc.lft.to/lastmile_qr_scan"}, "is_reserved": 0}, {"lon": -77.0414375, "bike_id": "912511417412d85ca3bb7a82367e9062", "lat": 38.92295933333333, "fusion_lon": 0.0, "fusion_lat": 0.0, "type": "electric_scooter", "name": "912511417412d85ca3bb7a82367e9062", "is_disabled": 0, "rental_uris": {"ios": "https://dc.lft.to/lastmile_qr_scan", "android": "https://dc.lft.to/lastmile_qr_scan"}, "is_reserved": 0}, {"lon": -77.03980183333333, "bike_id": "4c4b3a3880f339862b773fb092f41e58", "lat": 38.8922405, "fusion_lon": 0.0, "fusion_lat": 0.0, "type": "electric_scooter", "name": "4c4b3a3880f339862b773fb092f41e58", "is_disabled": 0, "rental_uris": {"ios": "https://dc.lft.to/lastmile_qr_scan", "android": "https://dc.lft.to/lastmile_qr_scan"}, "is_reserved": 0}, {"lon": -77.01371716666667, "bike_id": "8131d6505a2606a44191d854712c1867", "lat": 38.8922085, "fusion_lon": 0.0, "fusion_lat": 0.0, "type": "electric_scooter", "name": "8131d6505a2606a44191d854712c1867", "is_disabled": 0, "rental_uris": {"ios": "https://dc.lft.to/lastmile_qr_scan", "android": "https://dc.lft.to/lastmile_qr_scan"}, "is_reserved": 0}, {"lon": -77.03984266666667, "bike_id": "7f179e842b03c9d0031fb147d88faae9", "lat": 38.93334516666667, "fusion_lon": 0.0, "fusion_lat": 0.0, "type": "electric_scooter", "name": "7f179e842b03c9d0031fb147d88faae9", "is_disabled": 0, "rental_uris": {"ios": "https://dc.lft.to/lastmile_qr_scan", "android": "https://dc.lft.to/lastmile_qr_scan"}, "is_reserved": 0}, {"lon": -76.99033066666667, "bike_id": "ff6bb926c70c601686b620618b712241", "lat": 38.8984965, "fusion_lon": 0.0, "fusion_lat": 0.0, "type": "electric_scooter", "name": "ff6bb926c70c601686b620618b712241", "is_disabled": 0, "rental_uris": {"ios": "https://dc.lft.to/lastmile_qr_scan", "android": "https://dc.lft.to/lastmile_qr_scan"}, "is_reserved": 0}, {"lon": -77.0115515, "bike_id": "edef0cdf0019f07a2613a3277e5c8dbf", "lat": 38.87192916666667, "fusion_lon": 0.0, "fusion_lat": 0.0, "type": "electric_scooter", "name": "edef0cdf0019f07a2613a3277e5c8dbf", "is_disabled": 0, "rental_uris": {"ios": "https://dc.lft.to/lastmile_qr_scan", "android": "https://dc.lft.to/lastmile_qr_scan"}, "is_reserved": 0}, {"lon": -76.99377433333333, "bike_id": "43887a8afd5804aa8889d1c6e4f54274", "lat": 38.879726833333336, "fusion_lon": 0.0, "fusion_lat": 0.0, "type": "electric_scooter", "name": "43887a8afd5804aa8889d1c6e4f54274", "is_disabled": 0, "rental_uris": {"ios": "https://dc.lft.to/lastmile_qr_scan", "android": "https://dc.lft.to/lastmile_qr_scan"}, "is_reserved": 0}, {"lon": -76.99003333333333, "bike_id": "99d74677646b9b2c4c824760d836689a", "lat": 38.86509866666667, "fusion_lon": 0.0, "fusion_lat": 0.0, "type": "electric_scooter", "name": "99d74677646b9b2c4c824760d836689a", "is_disabled": 0, "rental_uris": {"ios": "https://dc.lft.to/lastmile_qr_scan", "android": "https://dc.lft.to/lastmile_qr_scan"}, "is_reserved": 0}, {"lon": -77.02766483333333, "bike_id": "885df81d86a68877aa39e7375ce51a7a", "lat": 38.89221366666666, "fusion_lon": 0.0, "fusion_lat": 0.0, "type": "electric_scooter", "name": "885df81d86a68877aa39e7375ce51a7a", "is_disabled": 0, "rental_uris": {"ios": "https://dc.lft.to/lastmile_qr_scan", "android": "https://dc.lft.to/lastmile_qr_scan"}, "is_reserved": 0}, {"lon": -77.02189516666667, "bike_id": "ccd048620395722c3c7cbcd887354333", "lat": 38.900345333333334, "fusion_lon": 0.0, "fusion_lat": 0.0, "type": "electric_scooter", "name": "ccd048620395722c3c7cbcd887354333", "is_disabled": 0, "rental_uris": {"ios": "https://dc.lft.to/lastmile_qr_scan", "android": "https://dc.lft.to/lastmile_qr_scan"}, "is_reserved": 0}, {"lon": -77.02778683333334, "bike_id": "abaf206b119cf282aa7d53a204647c15", "lat": 38.887424833333334, "fusion_lon": 0.0, "fusion_lat": 0.0, "type": "electric_scooter", "name": "abaf206b119cf282aa7d53a204647c15", "is_disabled": 0, "rental_uris": {"ios": "https://dc.lft.to/lastmile_qr_scan", "android": "https://dc.lft.to/lastmile_qr_scan"}, "is_reserved": 0}, {"lon": -77.02733233333333, "bike_id": "d602b343563db65c6754ef606ebd8b18", "lat": 38.897168666666666, "fusion_lon": 0.0, "fusion_lat": 0.0, "type": "electric_scooter", "name": "d602b343563db65c6754ef606ebd8b18", "is_disabled": 0, "rental_uris": {"ios": "https://dc.lft.to/lastmile_qr_scan", "android": "https://dc.lft.to/lastmile_qr_scan"}, "is_reserved": 0}, {"lon": -77.03744616666667, "bike_id": "540f5d3a8e0863c782a885adf3bf9770", "lat": 38.91809516666667, "fusion_lon": 0.0, "fusion_lat": 0.0, "type": "electric_scooter", "name": "540f5d3a8e0863c782a885adf3bf9770", "is_disabled": 0, "rental_uris": {"ios": "https://dc.lft.to/lastmile_qr_scan", "android": "https://dc.lft.to/lastmile_qr_scan"}, "is_reserved": 0}, {"lon": -77.0551545, "bike_id": "f5d1ad6842bdc7d7adacd7ac40921428", "lat": 38.899902166666664, "fusion_lon": 0.0, "fusion_lat": 0.0, "type": "electric_scooter", "name": "f5d1ad6842bdc7d7adacd7ac40921428", "is_disabled": 0, "rental_uris": {"ios": "https://dc.lft.to/lastmile_qr_scan", "android": "https://dc.lft.to/lastmile_qr_scan"}, "is_reserved": 0}, {"lon": -77.0272415, "bike_id": "2671a0c894203553efb4754ae816bd68", "lat": 38.91335983333333, "fusion_lon": 0.0, "fusion_lat": 0.0, "type": "electric_scooter", "name": "2671a0c894203553efb4754ae816bd68", "is_disabled": 0, "rental_uris": {"ios": "https://dc.lft.to/lastmile_qr_scan", "android": "https://dc.lft.to/lastmile_qr_scan"}, "is_reserved": 0}, {"lon": -76.97921416666667, "bike_id": "5ed4ec8ee7bd326f85ac535e78973da3", "lat": 38.90494283333334, "fusion_lon": 0.0, "fusion_lat": 0.0, "type": "electric_scooter", "name": "5ed4ec8ee7bd326f85ac535e78973da3", "is_disabled": 0, "rental_uris": {"ios": "https://dc.lft.to/lastmile_qr_scan", "android": "https://dc.lft.to/lastmile_qr_scan"}, "is_reserved": 0}, {"lon": -77.08185783333333, "bike_id": "e16f6bfefd8603424decdbd46382e115", "lat": 38.9496435, "fusion_lon": 0.0, "fusion_lat": 0.0, "type": "electric_scooter", "name": "e16f6bfefd8603424decdbd46382e115", "is_disabled": 0, "rental_uris": {"ios": "https://dc.lft.to/lastmile_qr_scan", "android": "https://dc.lft.to/lastmile_qr_scan"}, "is_reserved": 0}, {"lon": -77.03810666666666, "bike_id": "668d1b35dcc6728e7766a3f51fcf2582", "lat": 38.93111716666667, "fusion_lon": 0.0, "fusion_lat": 0.0, "type": "electric_scooter", "name": "668d1b35dcc6728e7766a3f51fcf2582", "is_disabled": 0, "rental_uris": {"ios": "https://dc.lft.to/lastmile_qr_scan", "android": "https://dc.lft.to/lastmile_qr_scan"}, "is_reserved": 0}, {"lon": -77.03864533333333, "bike_id": "0ca22c09ac33aa94a9770cf86dc9b3a9", "lat": 38.909712166666665, "fusion_lon": 0.0, "fusion_lat": 0.0, "type": "electric_scooter", "name": "0ca22c09ac33aa94a9770cf86dc9b3a9", "is_disabled": 0, "rental_uris": {"ios": "https://dc.lft.to/lastmile_qr_scan", "android": "https://dc.lft.to/lastmile_qr_scan"}, "is_reserved": 0}, {"lon": -76.9784305, "bike_id": "bed52916662c07970b7d54bcf08a8e96", "lat": 38.865651166666666, "fusion_lon": 0.0, "fusion_lat": 0.0, "type": "electric_scooter", "name": "bed52916662c07970b7d54bcf08a8e96", "is_disabled": 0, "rental_uris": {"ios": "https://dc.lft.to/lastmile_qr_scan", "android": "https://dc.lft.to/lastmile_qr_scan"}, "is_reserved": 0}, {"lon": -77.02723516666667, "bike_id": "6e32ad1228537ffbd63b571aec7636e7", "lat": 38.897099833333336, "fusion_lon": 0.0, "fusion_lat": 0.0, "type": "electric_scooter", "name": "6e32ad1228537ffbd63b571aec7636e7", "is_disabled": 0, "rental_uris": {"ios": "https://dc.lft.to/lastmile_qr_scan", "android": "https://dc.lft.to/lastmile_qr_scan"}, "is_reserved": 0}, {"lon": -77.02390783333334, "bike_id": "9ea243b5a83e534883c9a4feb58b0677", "lat": 38.915124166666665, "fusion_lon": 0.0, "fusion_lat": 0.0, "type": "electric_scooter", "name": "9ea243b5a83e534883c9a4feb58b0677", "is_disabled": 0, "rental_uris": {"ios": "https://dc.lft.to/lastmile_qr_scan", "android": "https://dc.lft.to/lastmile_qr_scan"}, "is_reserved": 0}, {"lon": -77.03453466666667, "bike_id": "e0a694e15680c3443fd5e275ad994fab", "lat": 38.918088166666664, "fusion_lon": 0.0, "fusion_lat": 0.0, "type": "electric_scooter", "name": "e0a694e15680c3443fd5e275ad994fab", "is_disabled": 0, "rental_uris": {"ios": "https://dc.lft.to/lastmile_qr_scan", "android": "https://dc.lft.to/lastmile_qr_scan"}, "is_reserved": 0}, {"lon": -77.03901833333333, "bike_id": "3363cbde949bb15e3c2b963fdf8ce3fa", "lat": 38.92344416666667, "fusion_lon": 0.0, "fusion_lat": 0.0, "type": "electric_scooter", "name": "3363cbde949bb15e3c2b963fdf8ce3fa", "is_disabled": 0, "rental_uris": {"ios": "https://dc.lft.to/lastmile_qr_scan", "android": "https://dc.lft.to/lastmile_qr_scan"}, "is_reserved": 0}, {"lon": -77.0220195, "bike_id": "3bb03aa94cdaca993b8357d257312bb3", "lat": 38.916500166666665, "fusion_lon": 0.0, "fusion_lat": 0.0, "type": "electric_scooter", "name": "3bb03aa94cdaca993b8357d257312bb3", "is_disabled": 0, "rental_uris": {"ios": "https://dc.lft.to/lastmile_qr_scan", "android": "https://dc.lft.to/lastmile_qr_scan"}, "is_reserved": 0}, {"lon": -77.04876866666666, "bike_id": "c41dc42e4fc03d5a49a1aaf5b7540ba7", "lat": 38.892334, "fusion_lon": 0.0, "fusion_lat": 0.0, "type": "electric_scooter", "name": "c41dc42e4fc03d5a49a1aaf5b7540ba7", "is_disabled": 0, "rental_uris": {"ios": "https://dc.lft.to/lastmile_qr_scan", "android": "https://dc.lft.to/lastmile_qr_scan"}, "is_reserved": 0}, {"lon": -77.0436185, "bike_id": "2026bbf84ef43db07f1867e9b49077ea", "lat": 39.015357, "fusion_lon": 0.0, "fusion_lat": 0.0, "type": "electric_bike", "name": "2026bbf84ef43db07f1867e9b49077ea", "is_disabled": 0, "rental_uris": {"ios": "https://dc.lft.to/lastmile_qr_scan", "android": "https://dc.lft.to/lastmile_qr_scan"}, "is_reserved": 0}, {"lon": -77.06416283333333, "bike_id": "7c836ca124e1a4e98f03de9ed2c5cf8b", "lat": 38.99331733333333, "fusion_lon": 0.0, "fusion_lat": 0.0, "type": "electric_scooter", "name": "7c836ca124e1a4e98f03de9ed2c5cf8b", "is_disabled": 0, "rental_uris": {"ios": "https://dc.lft.to/lastmile_qr_scan", "android": "https://dc.lft.to/lastmile_qr_scan"}, "is_reserved": 0}, {"lon": -77.03630316666667, "bike_id": "0cee5b4b5c483d8a808d9e657fda2848", "lat": 38.94496483333333, "fusion_lon": 0.0, "fusion_lat": 0.0, "type": "electric_scooter", "name": "0cee5b4b5c483d8a808d9e657fda2848", "is_disabled": 0, "rental_uris": {"ios": "https://dc.lft.to/lastmile_qr_scan", "android": "https://dc.lft.to/lastmile_qr_scan"}, "is_reserved": 0}, {"lon": -76.96527533333334, "bike_id": "922e03c52dbf55b6abf20e28b25267e6", "lat": 38.8762655, "fusion_lon": 0.0, "fusion_lat": 0.0, "type": "electric_scooter", "name": "922e03c52dbf55b6abf20e28b25267e6", "is_disabled": 0, "rental_uris": {"ios": "https://dc.lft.to/lastmile_qr_scan", "android": "https://dc.lft.to/lastmile_qr_scan"}, "is_reserved": 0}, {"lon": -77.0145755, "bike_id": "e27ba21cff947291b5b34aad6af8c789", "lat": 38.8767115, "fusion_lon": 0.0, "fusion_lat": 0.0, "type": "electric_bike", "name": "e27ba21cff947291b5b34aad6af8c789", "is_disabled": 0, "rental_uris": {"ios": "https://dc.lft.to/lastmile_qr_scan", "android": "https://dc.lft.to/lastmile_qr_scan"}, "is_reserved": 0}, {"lon": -77.02112216666667, "bike_id": "76e2b64b2395fe439ba7541fc49fb446", "lat": 38.905631666666665, "fusion_lon": 0.0, "fusion_lat": 0.0, "type": "electric_scooter", "name": "76e2b64b2395fe439ba7541fc49fb446", "is_disabled": 0, "rental_uris": {"ios": "https://dc.lft.to/lastmile_qr_scan", "android": "https://dc.lft.to/lastmile_qr_scan"}, "is_reserved": 0}, {"lon": -77.0546815, "bike_id": "45dbd8dc6b8c25cd429a00ae27bd1ae3", "lat": 38.925722, "fusion_lon": 0.0, "fusion_lat": 0.0, "type": "electric_scooter", "name": "45dbd8dc6b8c25cd429a00ae27bd1ae3", "is_disabled": 0, "rental_uris": {"ios": "https://dc.lft.to/lastmile_qr_scan", "android": "https://dc.lft.to/lastmile_qr_scan"}, "is_reserved": 0}, {"lon": -77.02327983333333, "bike_id": "aa84333283b02b712aa3f1d1eb746e30", "lat": 38.924089, "fusion_lon": 0.0, "fusion_lat": 0.0, "type": "electric_scooter", "name": "aa84333283b02b712aa3f1d1eb746e30", "is_disabled": 0, "rental_uris": {"ios": "https://dc.lft.to/lastmile_qr_scan", "android": "https://dc.lft.to/lastmile_qr_scan"}, "is_reserved": 0}, {"lon": -77.03869316666666, "bike_id": "bfff67397109717ae5b151a93795b5aa", "lat": 38.92150483333333, "fusion_lon": 0.0, "fusion_lat": 0.0, "type": "electric_scooter", "name": "bfff67397109717ae5b151a93795b5aa", "is_disabled": 0, "rental_uris": {"ios": "https://dc.lft.to/lastmile_qr_scan", "android": "https://dc.lft.to/lastmile_qr_scan"}, "is_reserved": 0}, {"lon": -77.0296835, "bike_id": "93a32dfee9db0773e09d805196a76131", "lat": 38.91664516666667, "fusion_lon": 0.0, "fusion_lat": 0.0, "type": "electric_scooter", "name": "93a32dfee9db0773e09d805196a76131", "is_disabled": 0, "rental_uris": {"ios": "https://dc.lft.to/lastmile_qr_scan", "android": "https://dc.lft.to/lastmile_qr_scan"}, "is_reserved": 0}, {"lon": -77.04154716666666, "bike_id": "64cd66e473cbfa9704acbec040ff0ab8", "lat": 38.91984183333334, "fusion_lon": 0.0, "fusion_lat": 0.0, "type": "electric_scooter", "name": "64cd66e473cbfa9704acbec040ff0ab8", "is_disabled": 0, "rental_uris": {"ios": "https://dc.lft.to/lastmile_qr_scan", "android": "https://dc.lft.to/lastmile_qr_scan"}, "is_reserved": 0}, {"lon": -76.94031333333334, "bike_id": "b223966fa3acab0f4075fec871a55dcd", "lat": 38.90817583333333, "fusion_lon": 0.0, "fusion_lat": 0.0, "type": "electric_bike", "name": "b223966fa3acab0f4075fec871a55dcd", "is_disabled": 0, "rental_uris": {"ios": "https://dc.lft.to/lastmile_qr_scan", "android": "https://dc.lft.to/lastmile_qr_scan"}, "is_reserved": 0}, {"lon": -77.0367675, "bike_id": "21ceaa03db64f94ff4cc7743ce782294", "lat": 38.93931533333333, "fusion_lon": 0.0, "fusion_lat": 0.0, "type": "electric_scooter", "name": "21ceaa03db64f94ff4cc7743ce782294", "is_disabled": 0, "rental_uris": {"ios": "https://dc.lft.to/lastmile_qr_scan", "android": "https://dc.lft.to/lastmile_qr_scan"}, "is_reserved": 0}, {"lon": -77.0332855, "bike_id": "0b27455d66674720357b031b1b59b78c", "lat": 38.89824733333333, "fusion_lon": 0.0, "fusion_lat": 0.0, "type": "electric_scooter", "name": "0b27455d66674720357b031b1b59b78c", "is_disabled": 0, "rental_uris": {"ios": "https://dc.lft.to/lastmile_qr_scan", "android": "https://dc.lft.to/lastmile_qr_scan"}, "is_reserved": 0}, {"lon": -76.99293416666667, "bike_id": "f835d67253923f527c1505e9cc43f5d5", "lat": 38.898865, "fusion_lon": 0.0, "fusion_lat": 0.0, "type": "electric_scooter", "name": "f835d67253923f527c1505e9cc43f5d5", "is_disabled": 0, "rental_uris": {"ios": "https://dc.lft.to/lastmile_qr_scan", "android": "https://dc.lft.to/lastmile_qr_scan"}, "is_reserved": 0}, {"lon": -77.02753416666667, "bike_id": "5c658ce40a3727415091d8f04c896277", "lat": 38.916949833333334, "fusion_lon": 0.0, "fusion_lat": 0.0, "type": "electric_scooter", "name": "5c658ce40a3727415091d8f04c896277", "is_disabled": 0, "rental_uris": {"ios": "https://dc.lft.to/lastmile_qr_scan", "android": "https://dc.lft.to/lastmile_qr_scan"}, "is_reserved": 0}, {"lon": -77.05326466666666, "bike_id": "8b0d03d8416bc1d7d7b3f483d3f7f6bd", "lat": 38.904193, "fusion_lon": 0.0, "fusion_lat": 0.0, "type": "electric_scooter", "name": "8b0d03d8416bc1d7d7b3f483d3f7f6bd", "is_disabled": 0, "rental_uris": {"ios": "https://dc.lft.to/lastmile_qr_scan", "android": "https://dc.lft.to/lastmile_qr_scan"}, "is_reserved": 0}, {"lon": -77.04229016666666, "bike_id": "566e373a50952df966396df6042cd9c5", "lat": 38.9134265, "fusion_lon": 0.0, "fusion_lat": 0.0, "type": "electric_scooter", "name": "566e373a50952df966396df6042cd9c5", "is_disabled": 0, "rental_uris": {"ios": "https://dc.lft.to/lastmile_qr_scan", "android": "https://dc.lft.to/lastmile_qr_scan"}, "is_reserved": 0}, {"lon": -77.00381666666667, "bike_id": "28c9f0ce5f1aa04329bbf57fc59fcf1e", "lat": 38.836022666666665, "fusion_lon": 0.0, "fusion_lat": 0.0, "type": "electric_bike", "name": "28c9f0ce5f1aa04329bbf57fc59fcf1e", "is_disabled": 0, "rental_uris": {"ios": "https://dc.lft.to/lastmile_qr_scan", "android": "https://dc.lft.to/lastmile_qr_scan"}, "is_reserved": 0}, {"lon": -77.02165, "bike_id": "84afe6d76d3c5d73e7f1a27f42e7aa8e", "lat": 38.92998683333333, "fusion_lon": 0.0, "fusion_lat": 0.0, "type": "electric_scooter", "name": "84afe6d76d3c5d73e7f1a27f42e7aa8e", "is_disabled": 0, "rental_uris": {"ios": "https://dc.lft.to/lastmile_qr_scan", "android": "https://dc.lft.to/lastmile_qr_scan"}, "is_reserved": 0}, {"lon": -77.02609783333334, "bike_id": "19953c9f6bd6504383f883b6d724dcc7", "lat": 38.934925666666665, "fusion_lon": 0.0, "fusion_lat": 0.0, "type": "electric_scooter", "name": "19953c9f6bd6504383f883b6d724dcc7", "is_disabled": 0, "rental_uris": {"ios": "https://dc.lft.to/lastmile_qr_scan", "android": "https://dc.lft.to/lastmile_qr_scan"}, "is_reserved": 0}, {"lon": -77.03454983333333, "bike_id": "3abfbb42ee3f8afd0f3a7610167864c3", "lat": 38.90524416666667, "fusion_lon": 0.0, "fusion_lat": 0.0, "type": "electric_scooter", "name": "3abfbb42ee3f8afd0f3a7610167864c3", "is_disabled": 0, "rental_uris": {"ios": "https://dc.lft.to/lastmile_qr_scan", "android": "https://dc.lft.to/lastmile_qr_scan"}, "is_reserved": 0}, {"lon": -77.03272683333333, "bike_id": "3779c100edd9099700b11cd97032d06b", "lat": 38.932053833333335, "fusion_lon": 0.0, "fusion_lat": 0.0, "type": "electric_scooter", "name": "3779c100edd9099700b11cd97032d06b", "is_disabled": 0, "rental_uris": {"ios": "https://dc.lft.to/lastmile_qr_scan", "android": "https://dc.lft.to/lastmile_qr_scan"}, "is_reserved": 0}, {"lon": -77.03581433333333, "bike_id": "cfcbb23b84b9d8a36ec2c7e9f2f3b601", "lat": 38.91041233333333, "fusion_lon": 0.0, "fusion_lat": 0.0, "type": "electric_scooter", "name": "cfcbb23b84b9d8a36ec2c7e9f2f3b601", "is_disabled": 0, "rental_uris": {"ios": "https://dc.lft.to/lastmile_qr_scan", "android": "https://dc.lft.to/lastmile_qr_scan"}, "is_reserved": 0}, {"lon": -77.03539666666667, "bike_id": "29d0253d6afeda6f55d286cbc7648c87", "lat": 38.9249615, "fusion_lon": 0.0, "fusion_lat": 0.0, "type": "electric_scooter", "name": "29d0253d6afeda6f55d286cbc7648c87", "is_disabled": 0, "rental_uris": {"ios": "https://dc.lft.to/lastmile_qr_scan", "android": "https://dc.lft.to/lastmile_qr_scan"}, "is_reserved": 0}, {"lon": -77.0319745, "bike_id": "9b4b84d89a6ba86ff6f2d8d5b0147e26", "lat": 38.917376, "fusion_lon": 0.0, "fusion_lat": 0.0, "type": "electric_scooter", "name": "9b4b84d89a6ba86ff6f2d8d5b0147e26", "is_disabled": 0, "rental_uris": {"ios": "https://dc.lft.to/lastmile_qr_scan", "android": "https://dc.lft.to/lastmile_qr_scan"}, "is_reserved": 0}, {"lon": -77.04455183333333, "bike_id": "5b294b47e442cd81cf0afc75f9f4ad42", "lat": 38.90859916666667, "fusion_lon": 0.0, "fusion_lat": 0.0, "type": "electric_scooter", "name": "5b294b47e442cd81cf0afc75f9f4ad42", "is_disabled": 0, "rental_uris": {"ios": "https://dc.lft.to/lastmile_qr_scan", "android": "https://dc.lft.to/lastmile_qr_scan"}, "is_reserved": 0}, {"lon": -77.032595, "bike_id": "ab0f1e0db61323a8efa2e51fa7a10363", "lat": 38.937766333333336, "fusion_lon": 0.0, "fusion_lat": 0.0, "type": "electric_scooter", "name": "ab0f1e0db61323a8efa2e51fa7a10363", "is_disabled": 0, "rental_uris": {"ios": "https://dc.lft.to/lastmile_qr_scan", "android": "https://dc.lft.to/lastmile_qr_scan"}, "is_reserved": 0}, {"lon": -77.0314765, "bike_id": "331cd9840d3b6c59e908fbf2c4d20fd2", "lat": 38.93242766666667, "fusion_lon": 0.0, "fusion_lat": 0.0, "type": "electric_scooter", "name": "331cd9840d3b6c59e908fbf2c4d20fd2", "is_disabled": 0, "rental_uris": {"ios": "https://dc.lft.to/lastmile_qr_scan", "android": "https://dc.lft.to/lastmile_qr_scan"}, "is_reserved": 0}, {"lon": -77.0442765, "bike_id": "59236915a1d579ede6690ce291213445", "lat": 38.911282, "fusion_lon": 0.0, "fusion_lat": 0.0, "type": "electric_scooter", "name": "59236915a1d579ede6690ce291213445", "is_disabled": 0, "rental_uris": {"ios": "https://dc.lft.to/lastmile_qr_scan", "android": "https://dc.lft.to/lastmile_qr_scan"}, "is_reserved": 0}, {"lon": -77.04805333333333, "bike_id": "24ad1d8f2e981d40cc44cf5fe1c221d8", "lat": 38.914048333333334, "fusion_lon": 0.0, "fusion_lat": 0.0, "type": "electric_scooter", "name": "24ad1d8f2e981d40cc44cf5fe1c221d8", "is_disabled": 0, "rental_uris": {"ios": "https://dc.lft.to/lastmile_qr_scan", "android": "https://dc.lft.to/lastmile_qr_scan"}, "is_reserved": 0}, {"lon": -77.02437616666667, "bike_id": "be28074e8b00d4894b2cd2b4d8e112c0", "lat": 38.884254, "fusion_lon": 0.0, "fusion_lat": 0.0, "type": "electric_scooter", "name": "be28074e8b00d4894b2cd2b4d8e112c0", "is_disabled": 0, "rental_uris": {"ios": "https://dc.lft.to/lastmile_qr_scan", "android": "https://dc.lft.to/lastmile_qr_scan"}, "is_reserved": 0}, {"lon": -77.018069, "bike_id": "0eae6874c1cbe6155978ff7a18b11c63", "lat": 38.901339, "fusion_lon": 0.0, "fusion_lat": 0.0, "type": "electric_scooter", "name": "0eae6874c1cbe6155978ff7a18b11c63", "is_disabled": 0, "rental_uris": {"ios": "https://dc.lft.to/lastmile_qr_scan", "android": "https://dc.lft.to/lastmile_qr_scan"}, "is_reserved": 0}, {"lon": -77.00364783333333, "bike_id": "177c8c48ca907e6d48ffd4a961fa6dc0", "lat": 38.89887783333333, "fusion_lon": 0.0, "fusion_lat": 0.0, "type": "electric_scooter", "name": "177c8c48ca907e6d48ffd4a961fa6dc0", "is_disabled": 0, "rental_uris": {"ios": "https://dc.lft.to/lastmile_qr_scan", "android": "https://dc.lft.to/lastmile_qr_scan"}, "is_reserved": 0}, {"lon": -77.00212416666666, "bike_id": "27c5e484c946ecf641cbc33fb5dec4bb", "lat": 38.90034683333333, "fusion_lon": 0.0, "fusion_lat": 0.0, "type": "electric_scooter", "name": "27c5e484c946ecf641cbc33fb5dec4bb", "is_disabled": 0, "rental_uris": {"ios": "https://dc.lft.to/lastmile_qr_scan", "android": "https://dc.lft.to/lastmile_qr_scan"}, "is_reserved": 0}, {"lon": -77.0226665, "bike_id": "8074a9e4067f40ee8fbe487ceffa8015", "lat": 38.90718666666667, "fusion_lon": 0.0, "fusion_lat": 0.0, "type": "electric_scooter", "name": "8074a9e4067f40ee8fbe487ceffa8015", "is_disabled": 0, "rental_uris": {"ios": "https://dc.lft.to/lastmile_qr_scan", "android": "https://dc.lft.to/lastmile_qr_scan"}, "is_reserved": 0}, {"lon": -77.04015183333334, "bike_id": "15dd6d4616ba4f8b865826a1788eeba7", "lat": 38.9036815, "fusion_lon": 0.0, "fusion_lat": 0.0, "type": "electric_scooter", "name": "15dd6d4616ba4f8b865826a1788eeba7", "is_disabled": 0, "rental_uris": {"ios": "https://dc.lft.to/lastmile_qr_scan", "android": "https://dc.lft.to/lastmile_qr_scan"}, "is_reserved": 0}, {"lon": -77.03355483333333, "bike_id": "d3d8db09f11ac3b49396ee5c3456b750", "lat": 38.92344766666667, "fusion_lon": 0.0, "fusion_lat": 0.0, "type": "electric_scooter", "name": "d3d8db09f11ac3b49396ee5c3456b750", "is_disabled": 0, "rental_uris": {"ios": "https://dc.lft.to/lastmile_qr_scan", "android": "https://dc.lft.to/lastmile_qr_scan"}, "is_reserved": 0}, {"lon": -77.0394335, "bike_id": "cbd639acfa3aa69a5b219498a05a765c", "lat": 38.915654, "fusion_lon": 0.0, "fusion_lat": 0.0, "type": "electric_scooter", "name": "cbd639acfa3aa69a5b219498a05a765c", "is_disabled": 0, "rental_uris": {"ios": "https://dc.lft.to/lastmile_qr_scan", "android": "https://dc.lft.to/lastmile_qr_scan"}, "is_reserved": 0}, {"lon": -76.98241, "bike_id": "d026980c96be1a30f57aba0a72e4adaf", "lat": 38.8886405, "fusion_lon": 0.0, "fusion_lat": 0.0, "type": "electric_scooter", "name": "d026980c96be1a30f57aba0a72e4adaf", "is_disabled": 0, "rental_uris": {"ios": "https://dc.lft.to/lastmile_qr_scan", "android": "https://dc.lft.to/lastmile_qr_scan"}, "is_reserved": 0}, {"lon": -77.03216616666667, "bike_id": "ae373fa9dde4b495f9c1c33bd129760a", "lat": 38.89222483333333, "fusion_lon": 0.0, "fusion_lat": 0.0, "type": "electric_scooter", "name": "ae373fa9dde4b495f9c1c33bd129760a", "is_disabled": 0, "rental_uris": {"ios": "https://dc.lft.to/lastmile_qr_scan", "android": "https://dc.lft.to/lastmile_qr_scan"}, "is_reserved": 0}, {"lon": -77.04159633333333, "bike_id": "3274f7804dfa490bc5c960fda87313c5", "lat": 38.91249416666667, "fusion_lon": 0.0, "fusion_lat": 0.0, "type": "electric_scooter", "name": "3274f7804dfa490bc5c960fda87313c5", "is_disabled": 0, "rental_uris": {"ios": "https://dc.lft.to/lastmile_qr_scan", "android": "https://dc.lft.to/lastmile_qr_scan"}, "is_reserved": 0}, {"lon": -77.06492, "bike_id": "e8f6fe228cb86e7ce1bb0063f4460b95", "lat": 38.92905666666667, "fusion_lon": 0.0, "fusion_lat": 0.0, "type": "electric_scooter", "name": "e8f6fe228cb86e7ce1bb0063f4460b95", "is_disabled": 0, "rental_uris": {"ios": "https://dc.lft.to/lastmile_qr_scan", "android": "https://dc.lft.to/lastmile_qr_scan"}, "is_reserved": 0}, {"lon": -77.00096666666667, "bike_id": "904ec6ad80d10e125a4a84af1f309377", "lat": 38.881268666666664, "fusion_lon": 0.0, "fusion_lat": 0.0, "type": "electric_scooter", "name": "904ec6ad80d10e125a4a84af1f309377", "is_disabled": 0, "rental_uris": {"ios": "https://dc.lft.to/lastmile_qr_scan", "android": "https://dc.lft.to/lastmile_qr_scan"}, "is_reserved": 0}, {"lon": -76.98037333333333, "bike_id": "d4ddbcebbc8fbbf4acbbfea11e5728bd", "lat": 38.8896665, "fusion_lon": 0.0, "fusion_lat": 0.0, "type": "electric_scooter", "name": "d4ddbcebbc8fbbf4acbbfea11e5728bd", "is_disabled": 0, "rental_uris": {"ios": "https://dc.lft.to/lastmile_qr_scan", "android": "https://dc.lft.to/lastmile_qr_scan"}, "is_reserved": 0}, {"lon": -76.98342283333334, "bike_id": "ebc0b058f95fb3ab7cc1f17193af261c", "lat": 38.866417166666665, "fusion_lon": 0.0, "fusion_lat": 0.0, "type": "electric_scooter", "name": "ebc0b058f95fb3ab7cc1f17193af261c", "is_disabled": 0, "rental_uris": {"ios": "https://dc.lft.to/lastmile_qr_scan", "android": "https://dc.lft.to/lastmile_qr_scan"}, "is_reserved": 0}, {"lon": -77.07750533333333, "bike_id": "f8c7f9353efedd13a404386e2ccb0050", "lat": 38.841910166666665, "fusion_lon": 0.0, "fusion_lat": 0.0, "type": "electric_bike", "name": "f8c7f9353efedd13a404386e2ccb0050", "is_disabled": 0, "rental_uris": {"ios": "https://dc.lft.to/lastmile_qr_scan", "android": "https://dc.lft.to/lastmile_qr_scan"}, "is_reserved": 0}, {"lon": -76.9319005, "bike_id": "a714978242d7b561d790c8775746f730", "lat": 38.89873816666667, "fusion_lon": 0.0, "fusion_lat": 0.0, "type": "electric_scooter", "name": "a714978242d7b561d790c8775746f730", "is_disabled": 0, "rental_uris": {"ios": "https://dc.lft.to/lastmile_qr_scan", "android": "https://dc.lft.to/lastmile_qr_scan"}, "is_reserved": 0}, {"lon": -76.99013033333334, "bike_id": "4e737387aa0556675e55efe323cd7763", "lat": 38.88267533333333, "fusion_lon": 0.0, "fusion_lat": 0.0, "type": "electric_scooter", "name": "4e737387aa0556675e55efe323cd7763", "is_disabled": 0, "rental_uris": {"ios": "https://dc.lft.to/lastmile_qr_scan", "android": "https://dc.lft.to/lastmile_qr_scan"}, "is_reserved": 0},