{"data": {"bikes": [{"is_reserved": 0, "fusion_lon": 0.0, "lon": -77.048366, "fusion_lat": 0.0, "rental_uris": {"ios": "https://dc.lft.to/lastmile_qr_scan", "android": "https://dc.lft.to/lastmile_qr_scan"}, "bike_id": "23464acde69f3f236f6035e0446a94c6", "lat": 38.914879, "type": "electric_scooter", "name": "23464acde69f3f236f6035e0446a94c6", "is_disabled": 0}, {"is_reserved": 0, "fusion_lon": 0.0, "lon": -77.08591066666666, "fusion_lat": 0.0, "rental_uris": {"ios": "https://dc.lft.to/lastmile_qr_scan", "android": "https://dc.lft.to/lastmile_qr_scan"}, "bike_id": "00d3b49c06553dcf905968c6250effee", "lat": 38.938395666666665, "type": "electric_bike", "name": "00d3b49c06553dcf905968c6250effee", "is_disabled": 0}, {"is_reserved": 0, "fusion_lon": 0.0, "lon": -77.01508266666667, "fusion_lat": 0.0, "rental_uris": {"ios": "https://dc.lft.to/lastmile_qr_scan", "android": "https://dc.lft.to/lastmile_qr_scan"}, "bike_id": "b7b0c71d5ad00a2e976d3290bb7eee2c", "lat": 38.917700833333335, "type": "electric_scooter", "name": "b7b0c71d5ad00a2e976d3290bb7eee2c", "is_disabled": 0}, {"is_reserved": 0, "fusion_lon": 0.0, "lon": -77.04842566666666, "fusion_lat": 0.0, "rental_uris": {"ios": "https://dc.lft.to/lastmile_qr_scan", "android": "https://dc.lft.to/lastmile_qr_scan"}, "bike_id": "f13c5766d0e6c7be39971cca30655a12", "lat": 38.9126565, "type": "electric_scooter", "name": "f13c5766d0e6c7be39971cca30655a12", "is_disabled": 0}, {"is_reserved": 0, "fusion_lon": 0.0, "lon": -77.12940083333334, "fusion_lat": 0.0, "rental_uris": {"ios": "https://dc.lft.to/lastmile_qr_scan", "android": "https://dc.lft.to/lastmile_qr_scan"}, "bike_id": "582abd7581f4cec9b4f16e0cb338f70c", "lat": 38.865149, "type": "electric_bike", "name": "582abd7581f4cec9b4f16e0cb338f70c", "is_disabled": 0}, {"is_reserved": 0, "fusion_lon": 0.0, "lon": -77.02656616666667, "fusion_lat": 0.0, "rental_uris": {"ios": "https://dc.lft.to/lastmile_qr_scan", "android": "https://dc.lft.to/lastmile_qr_scan"}, "bike_id": "9bcb6010aaa42755821a315b6ee6e5ae", "lat": 38.897395, "type": "electric_scooter", "name": "9bcb6010aaa42755821a315b6ee6e5ae", "is_disabled": 0}, {"is_reserved": 0, "fusion_lon": 0.0, "lon": -77.00890983333333, "fusion_lat": 0.0, "rental_uris": {"ios": "https://dc.lft.to/lastmile_qr_scan", "android": "https://dc.lft.to/lastmile_qr_scan"}, "bike_id": "5d80d50769eb1f89c8cda12dc4f21b04", "lat": 38.88498766666667, "type": "electric_scooter", "name": "5d80d50769eb1f89c8cda12dc4f21b04", "is_disabled": 0}, {"is_reserved": 0, "fusion_lon": 0.0, "lon": -77.0371775, "fusion_lat": 0.0, "rental_uris": {"ios": "https://dc.lft.to/lastmile_qr_scan", "android": "https://dc.lft.to/lastmile_qr_scan"}, "bike_id": "d4e9ab2366be3db2657aa122c335d5e6", "lat": 38.9263185, "type": "electric_scooter", "name": "d4e9ab2366be3db2657aa122c335d5e6", "is_disabled": 0}, {"is_reserved": 0, "fusion_lon": 0.0, "lon": -77.03390783333333, "fusion_lat": 0.0, "rental_uris": {"ios": "https://dc.lft.to/lastmile_qr_scan", "android": "https://dc.lft.to/lastmile_qr_scan"}, "bike_id": "aa040406841a0c59d3d393a8299125bd", "lat": 38.92048833333333, "type": "electric_scooter", "name": "aa040406841a0c59d3d393a8299125bd", "is_disabled": 0}, {"is_reserved": 0, "fusion_lon": 0.0, "lon": -77.02800333333333, "fusion_lat": 0.0, "rental_uris": {"ios": "https://dc.lft.to/lastmile_qr_scan", "android": "https://dc.lft.to/lastmile_qr_scan"}, "bike_id": "75a1459a87f29fc7ec5d10d0da893a86", "lat": 38.96042816666667, "type": "electric_scooter", "name": "75a1459a87f29fc7ec5d10d0da893a86", "is_disabled": 0}, {"is_reserved": 0, "fusion_lon": 0.0, "lon": -77.03180683333333, "fusion_lat": 0.0, "rental_uris": {"ios": "https://dc.lft.to/lastmile_qr_scan", "android": "https://dc.lft.to/lastmile_qr_scan"}, "bike_id": "eb68444a390f79c44a14871cebe877c7", "lat": 38.92489333333333, "type": "electric_scooter", "name": "eb68444a390f79c44a14871cebe877c7", "is_disabled": 0}, {"is_reserved": 0, "fusion_lon": 0.0, "lon": -77.02294833333333, "fusion_lat": 0.0, "rental_uris": {"ios": "https://dc.lft.to/lastmile_qr_scan", "android": "https://dc.lft.to/lastmile_qr_scan"}, "bike_id": "4e222c32dadcca431b75d8fb36a76b10", "lat": 38.89508433333334, "type": "electric_scooter", "name": "4e222c32dadcca431b75d8fb36a76b10", "is_disabled": 0}, {"is_reserved": 0, "fusion_lon": 0.0, "lon": -77.02386733333333, "fusion_lat": 0.0, "rental_uris": {"ios": "https://dc.lft.to/lastmile_qr_scan", "android": "https://dc.lft.to/lastmile_qr_scan"}, "bike_id": "7022ceaae99206aa208f69cf5251239f", "lat": 38.93209983333333, "type": "electric_bike", "name": "7022ceaae99206aa208f69cf5251239f", "is_disabled": 0}, {"is_reserved": 0, "fusion_lon": 0.0, "lon": -76.93759966666667, "fusion_lat": 0.0, "rental_uris": {"ios": "https://dc.lft.to/lastmile_qr_scan", "android": "https://dc.lft.to/lastmile_qr_scan"}, "bike_id": "8639b73a3423ee29218867e1c18026c3", "lat": 38.8903885, "type": "electric_scooter", "name": "8639b73a3423ee29218867e1c18026c3", "is_disabled": 0}, {"is_reserved": 0, "fusion_lon": 0.0, "lon": -77.03629316666667, "fusion_lat": 0.0, "rental_uris": {"ios": "https://dc.lft.to/lastmile_qr_scan", "android": "https://dc.lft.to/lastmile_qr_scan"}, "bike_id": "6ecf21be577409def257a7aab4c63457", "lat": 38.9367375, "type": "electric_scooter", "name": "6ecf21be577409def257a7aab4c63457", "is_disabled": 0}, {"is_reserved": 0, "fusion_lon": 0.0, "lon": -77.06351266666667, "fusion_lat": 0.0, "rental_uris": {"ios": "https://dc.lft.to/lastmile_qr_scan", "android": "https://dc.lft.to/lastmile_qr_scan"}, "bike_id": "786ccf1c9eeda59fad1caee60c2e06b1", "lat": 38.944483, "type": "electric_scooter", "name": "786ccf1c9eeda59fad1caee60c2e06b1", "is_disabled": 0}, {"is_reserved": 0, "fusion_lon": 0.0, "lon": -77.02548833333333, "fusion_lat": 0.0, "rental_uris": {"ios": "https://dc.lft.to/lastmile_qr_scan", "android": "https://dc.lft.to/lastmile_qr_scan"}, "bike_id": "88e8b094aab3d8255eea7029c048aa8b", "lat": 38.91633483333333, "type": "electric_scooter", "name": "88e8b094aab3d8255eea7029c048aa8b", "is_disabled": 0}, {"is_reserved": 0, "fusion_lon": 0.0, "lon": -77.0298385, "fusion_lat": 0.0, "rental_uris": {"ios": "https://dc.lft.to/lastmile_qr_scan", "android": "https://dc.lft.to/lastmile_qr_scan"}, "bike_id": "5abdee38f30f0ed469c3f74e99cadd24", "lat": 38.9460305, "type": "electric_scooter", "name": "5abdee38f30f0ed469c3f74e99cadd24", "is_disabled": 0}, {"is_reserved": 0, "fusion_lon": 0.0, "lon": -77.0426605, "fusion_lat": 0.0, "rental_uris": {"ios": "https://dc.lft.to/lastmile_qr_scan", "android": "https://dc.lft.to/lastmile_qr_scan"}, "bike_id": "2761094d191cc520b66f40ee1edff462", "lat": 38.90744, "type": "electric_scooter", "name": "2761094d191cc520b66f40ee1edff462", "is_disabled": 0}, {"is_reserved": 0, "fusion_lon": 0.0, "lon": -77.03565183333333, "fusion_lat": 0.0, "rental_uris": {"ios": "https://dc.lft.to/lastmile_qr_scan", "android": "https://dc.lft.to/lastmile_qr_scan"}, "bike_id": "c2dfa3895324c0c7d2db579ce241ea1c", "lat": 38.92698, "type": "electric_scooter", "name": "c2dfa3895324c0c7d2db579ce241ea1c", "is_disabled": 0}, {"is_reserved": 0, "fusion_lon": 0.0, "lon": -77.07884883333334, "fusion_lat": 0.0, "rental_uris": {"ios": "https://dc.lft.to/lastmile_qr_scan", "android": "https://dc.lft.to/lastmile_qr_scan"}, "bike_id": "d075b25569279b9a38a0af178eb165b6", "lat": 38.8425155, "type": "electric_bike", "name": "d075b25569279b9a38a0af178eb165b6", "is_disabled": 0}, {"is_reserved": 0, "fusion_lon": 0.0, "lon": -76.98374583333333, "fusion_lat": 0.0, "rental_uris": {"ios": "https://dc.lft.to/lastmile_qr_scan", "android": "https://dc.lft.to/lastmile_qr_scan"}, "bike_id": "a835d6f54731a9b1f6afebf98d21501f", "lat": 38.906485833333335, "type": "electric_scooter", "name": "a835d6f54731a9b1f6afebf98d21501f", "is_disabled": 0}, {"is_reserved": 0, "fusion_lon": 0.0, "lon": -76.98655583333333, "fusion_lat": 0.0, "rental_uris": {"ios": "https://dc.lft.to/lastmile_qr_scan", "android": "https://dc.lft.to/lastmile_qr_scan"}, "bike_id": "2e03b7dbd052d193814557a0ed6a3615", "lat": 38.85809033333334, "type": "electric_scooter", "name": "2e03b7dbd052d193814557a0ed6a3615", "is_disabled": 0}, {"is_reserved": 0, "fusion_lon": 0.0, "lon": -77.03187566666666, "fusion_lat": 0.0, "rental_uris": {"ios": "https://dc.lft.to/lastmile_qr_scan", "android": "https://dc.lft.to/lastmile_qr_scan"}, "bike_id": "4351439cdefeed722ac35213eb0d4a4b", "lat": 38.91756083333333, "type": "electric_scooter", "name": "4351439cdefeed722ac35213eb0d4a4b", "is_disabled": 0}, {"is_reserved": 0, "fusion_lon": 0.0, "lon": -77.01986466666666, "fusion_lat": 0.0, "rental_uris": {"ios": "https://dc.lft.to/lastmile_qr_scan", "android": "https://dc.lft.to/lastmile_qr_scan"}, "bike_id": "66097f25370013c1e50cb1ec53f787f3", "lat": 38.91524233333333, "type": "electric_scooter", "name": "66097f25370013c1e50cb1ec53f787f3", "is_disabled": 0}, {"is_reserved": 0, "fusion_lon": 0.0, "lon": -77.02215366666667, "fusion_lat": 0.0, "rental_uris": {"ios": "https://dc.lft.to/lastmile_qr_scan", "android": "https://dc.lft.to/lastmile_qr_scan"}, "bike_id": "5546a63c163da2f7db3dcdd7d548a6e3", "lat": 38.912676833333336, "type": "electric_scooter", "name": "5546a63c163da2f7db3dcdd7d548a6e3", "is_disabled": 0}, {"is_reserved": 0, "fusion_lon": 0.0, "lon": -77.05021116666667, "fusion_lat": 0.0, "rental_uris": {"ios": "https://dc.lft.to/lastmile_qr_scan", "android": "https://dc.lft.to/lastmile_qr_scan"}, "bike_id": "b121b9a6afa06ba63387309d2e979c4f", "lat": 38.897392833333335, "type": "electric_scooter", "name": "b121b9a6afa06ba63387309d2e979c4f", "is_disabled": 0}, {"is_reserved": 0, "fusion_lon": 0.0, "lon": -77.03192116666666, "fusion_lat": 0.0, "rental_uris": {"ios": "https://dc.lft.to/lastmile_qr_scan", "android": "https://dc.lft.to/lastmile_qr_scan"}, "bike_id": "135493c1d5f47574727839e5d7cbe12b", "lat": 38.913267, "type": "electric_scooter", "name": "135493c1d5f47574727839e5d7cbe12b", "is_disabled": 0}, {"is_reserved": 0, "fusion_lon": 0.0, "lon": -76.99275233333333, "fusion_lat": 0.0, "rental_uris": {"ios": "https://dc.lft.to/lastmile_qr_scan", "android": "https://dc.lft.to/lastmile_qr_scan"}, "bike_id": "f91e203d615a16c43471e18ad2838526", "lat": 38.9725715, "type": "electric_bike", "name": "f91e203d615a16c43471e18ad2838526", "is_disabled": 0}, {"is_reserved": 0, "fusion_lon": 0.0, "lon": -77.04563983333334, "fusion_lat": 0.0, "rental_uris": {"ios": "https://dc.lft.to/lastmile_qr_scan", "android": "https://dc.lft.to/lastmile_qr_scan"}, "bike_id": "dcecb0df307fe3c98d2e21f554fa3954", "lat": 38.908639, "type": "electric_scooter", "name": "dcecb0df307fe3c98d2e21f554fa3954", "is_disabled": 0}, {"is_reserved": 0, "fusion_lon": 0.0, "lon": -77.038583, "fusion_lat": 0.0, "rental_uris": {"ios": "https://dc.lft.to/lastmile_qr_scan", "android": "https://dc.lft.to/lastmile_qr_scan"}, "bike_id": "e1a271721d34f9d8bc420faa5ea0f2e9", "lat": 38.90260983333334, "type": "electric_scooter", "name": "e1a271721d34f9d8bc420faa5ea0f2e9", "is_disabled": 0}, {"is_reserved": 0, "fusion_lon": 0.0, "lon": -76.996259, "fusion_lat": 0.0, "rental_uris": {"ios": "https://dc.lft.to/lastmile_qr_scan", "android": "https://dc.lft.to/lastmile_qr_scan"}, "bike_id": "59d3d7d7e941c910948fa4a6b44c3299", "lat": 38.950693, "type": "electric_scooter", "name": "59d3d7d7e941c910948fa4a6b44c3299", "is_disabled": 0}, {"is_reserved": 0, "fusion_lon": 0.0, "lon": -77.051791, "fusion_lat": 0.0, "rental_uris": {"ios": "https://dc.lft.to/lastmile_qr_scan", "android": "https://dc.lft.to/lastmile_qr_scan"}, "bike_id": "e40b79ae8d2e30d5337622d39a1e4f28", "lat": 38.924257, "type": "electric_scooter", "name": "e40b79ae8d2e30d5337622d39a1e4f28", "is_disabled": 0}, {"is_reserved": 0, "fusion_lon": 0.0, "lon": -77.02340883333333, "fusion_lat": 0.0, "rental_uris": {"ios": "https://dc.lft.to/lastmile_qr_scan", "android": "https://dc.lft.to/lastmile_qr_scan"}, "bike_id": "fb5db978b7760b899735f834a274e666", "lat": 38.9270935, "type": "electric_scooter", "name": "fb5db978b7760b899735f834a274e666", "is_disabled": 0}, {"is_reserved": 0, "fusion_lon": 0.0, "lon": -77.03354133333333, "fusion_lat": 0.0, "rental_uris": {"ios": "https://dc.lft.to/lastmile_qr_scan", "android": "https://dc.lft.to/lastmile_qr_scan"}, "bike_id": "e7479c47add246e49fa55c590e49aea7", "lat": 38.935845, "type": "electric_scooter", "name": "e7479c47add246e49fa55c590e49aea7", "is_disabled": 0}, {"is_reserved": 0, "fusion_lon": 0.0, "lon": -77.03380516666667, "fusion_lat": 0.0, "rental_uris": {"ios": "https://dc.lft.to/lastmile_qr_scan", "android": "https://dc.lft.to/lastmile_qr_scan"}, "bike_id": "9e5cfd2e17627c2fdb97fe248cfe6a25", "lat": 38.917099, "type": "electric_scooter", "name": "9e5cfd2e17627c2fdb97fe248cfe6a25", "is_disabled": 0}, {"is_reserved": 0, "fusion_lon": 0.0, "lon": -77.03246666666666, "fusion_lat": 0.0, "rental_uris": {"ios": "https://dc.lft.to/lastmile_qr_scan", "android": "https://dc.lft.to/lastmile_qr_scan"}, "bike_id": "7e434f56a12ef1bdd2282d7d77941e16", "lat": 38.92721816666667, "type": "electric_scooter", "name": "7e434f56a12ef1bdd2282d7d77941e16", "is_disabled": 0}, {"is_reserved": 0, "fusion_lon": 0.0, "lon": -77.03385083333333, "fusion_lat": 0.0, "rental_uris": {"ios": "https://dc.lft.to/lastmile_qr_scan", "android": "https://dc.lft.to/lastmile_qr_scan"}, "bike_id": "4e735e6452e9c3b4a638fa41b6424624", "lat": 38.92539166666667, "type": "electric_scooter", "name": "4e735e6452e9c3b4a638fa41b6424624", "is_disabled": 0}, {"is_reserved": 0, "fusion_lon": 0.0, "lon": -77.05284183333333, "fusion_lat": 0.0, "rental_uris": {"ios": "https://dc.lft.to/lastmile_qr_scan", "android": "https://dc.lft.to/lastmile_qr_scan"}, "bike_id": "ff9af2246c31a100e702610b067575d5", "lat": 38.910136666666666, "type": "electric_scooter", "name": "ff9af2246c31a100e702610b067575d5", "is_disabled": 0}, {"is_reserved": 0, "fusion_lon": 0.0, "lon": -77.038461, "fusion_lat": 0.0, "rental_uris": {"ios": "https://dc.lft.to/lastmile_qr_scan", "android": "https://dc.lft.to/lastmile_qr_scan"}, "bike_id": "9768649c3d7db1e1fdf8d899d55fa15c", "lat": 38.909887166666664, "type": "electric_scooter", "name": "9768649c3d7db1e1fdf8d899d55fa15c", "is_disabled": 0}, {"is_reserved": 0, "fusion_lon": 0.0, "lon": -77.0384265, "fusion_lat": 0.0, "rental_uris": {"ios": "https://dc.lft.to/lastmile_qr_scan", "android": "https://dc.lft.to/lastmile_qr_scan"}, "bike_id": "54a57bd10826fea3c8ed92fa31bb74b4", "lat": 38.909690833333336, "type": "electric_scooter", "name": "54a57bd10826fea3c8ed92fa31bb74b4", "is_disabled": 0}, {"is_reserved": 0, "fusion_lon": 0.0, "lon": -77.05339116666667, "fusion_lat": 0.0, "rental_uris": {"ios": "https://dc.lft.to/lastmile_qr_scan", "android": "https://dc.lft.to/lastmile_qr_scan"}, "bike_id": "31aff4bbedcc40d35e1c98c19a36b1ff", "lat": 39.040796, "type": "electric_bike", "name": "31aff4bbedcc40d35e1c98c19a36b1ff", "is_disabled": 0}, {"is_reserved": 0, "fusion_lon": 0.0, "lon": -77.03275833333333, "fusion_lat": 0.0, "rental_uris": {"ios": "https://dc.lft.to/lastmile_qr_scan", "android": "https://dc.lft.to/lastmile_qr_scan"}, "bike_id": "4e7d44fa4770e01f9ab286f117edb0c5", "lat": 38.92263483333333, "type": "electric_scooter", "name": "4e7d44fa4770e01f9ab286f117edb0c5", "is_disabled": 0}, {"is_reserved": 0, "fusion_lon": 0.0, "lon": -77.04583866666667, "fusion_lat": 0.0, "rental_uris": {"ios": "https://dc.lft.to/lastmile_qr_scan", "android": "https://dc.lft.to/lastmile_qr_scan"}, "bike_id": "7a19ed5ff20be600801e5deadd28295f", "lat": 38.9212115, "type": "electric_scooter", "name": "7a19ed5ff20be600801e5deadd28295f", "is_disabled": 0}, {"is_reserved": 0, "fusion_lon": 0.0, "lon": -77.04003516666667, "fusion_lat": 0.0, "rental_uris": {"ios": "https://dc.lft.to/lastmile_qr_scan", "android": "https://dc.lft.to/lastmile_qr_scan"}, "bike_id": "8ae3dd31b89da7ac0163b9dd9dd2d3b6", "lat": 38.89635, "type": "electric_scooter", "name": "8ae3dd31b89da7ac0163b9dd9dd2d3b6", "is_disabled": 0}, {"is_reserved": 0, "fusion_lon": 0.0, "lon": -77.0274285, "fusion_lat": 0.0, "rental_uris": {"ios": "https://dc.lft.to/lastmile_qr_scan", "android": "https://dc.lft.to/lastmile_qr_scan"}, "bike_id": "5e672e4a958f124ec3eef89e2afc11f6", "lat": 38.930722833333334, "type": "electric_scooter", "name": "5e672e4a958f124ec3eef89e2afc11f6", "is_disabled": 0}, {"is_reserved": 0, "fusion_lon": 0.0, "lon": -77.03572283333334, "fusion_lat": 0.0, "rental_uris": {"ios": "https://dc.lft.to/lastmile_qr_scan", "android": "https://dc.lft.to/lastmile_qr_scan"}, "bike_id": "7f6d0945f115b2665d3194b3f04fe166", "lat": 38.916938333333334, "type": "electric_scooter", "name": "7f6d0945f115b2665d3194b3f04fe166", "is_disabled": 0}, {"is_reserved": 0, "fusion_lon": 0.0, "lon": -77.039577, "fusion_lat": 0.0, "rental_uris": {"ios": "https://dc.lft.to/lastmile_qr_scan", "android": "https://dc.lft.to/lastmile_qr_scan"}, "bike_id": "41373602abe47b189293e3fbe1c9daec", "lat": 38.92468, "type": "electric_scooter", "name": "41373602abe47b189293e3fbe1c9daec", "is_disabled": 0}, {"is_reserved": 0, "fusion_lon": 0.0, "lon": -77.02379016666667, "fusion_lat": 0.0, "rental_uris": {"ios": "https://dc.lft.to/lastmile_qr_scan", "android": "https://dc.lft.to/lastmile_qr_scan"}, "bike_id": "120cad1ba78cc83df34badae69d4b848", "lat": 38.90727966666667, "type": "electric_scooter", "name": "120cad1ba78cc83df34badae69d4b848", "is_disabled": 0}, {"is_reserved": 0, "fusion_lon": 0.0, "lon": -77.03359733333333, "fusion_lat": 0.0, "rental_uris": {"ios": "https://dc.lft.to/lastmile_qr_scan", "android": "https://dc.lft.to/lastmile_qr_scan"}, "bike_id": "8a65964b4d46641a358fefbb827118b6", "lat": 38.90715933333333, "type": "electric_scooter", "name": "8a65964b4d46641a358fefbb827118b6", "is_disabled": 0}, {"is_reserved": 0, "fusion_lon": 0.0, "lon": -76.989033, "fusion_lat": 0.0, "rental_uris": {"ios": "https://dc.lft.to/lastmile_qr_scan", "android": "https://dc.lft.to/lastmile_qr_scan"}, "bike_id": "dd6cfd2ff8a6ecdd790c843d6d0d4e02", "lat": 38.900330833333335, "type": "electric_scooter", "name": "dd6cfd2ff8a6ecdd790c843d6d0d4e02", "is_disabled": 0}, {"is_reserved": 0, "fusion_lon": 0.0, "lon": -76.99851933333333, "fusion_lat": 0.0, "rental_uris": {"ios": "https://dc.lft.to/lastmile_qr_scan", "android": "https://dc.lft.to/lastmile_qr_scan"}, "bike_id": "a4e636a2c59f6ef924373aa5ffc8dbda", "lat": 38.90054166666667, "type": "electric_scooter", "name": "a4e636a2c59f6ef924373aa5ffc8dbda", "is_disabled": 0}, {"is_reserved": 0, "fusion_lon": 0.0, "lon": -77.024622, "fusion_lat": 0.0, "rental_uris": {"ios": "https://dc.lft.to/lastmile_qr_scan", "android": "https://dc.lft.to/lastmile_qr_scan"}, "bike_id": "76277e56495f5e0e4b61410c2c9ea082", "lat": 38.91698233333334, "type": "electric_scooter", "name": "76277e56495f5e0e4b61410c2c9ea082", "is_disabled": 0}, {"is_reserved": 0, "fusion_lon": 0.0, "lon": -76.96560333333333, "fusion_lat": 0.0, "rental_uris": {"ios": "https://dc.lft.to/lastmile_qr_scan", "android": "https://dc.lft.to/lastmile_qr_scan"}, "bike_id": "5b658bc1e7870cace25a12d4e183ce8f", "lat": 38.918440833333335, "type": "electric_scooter", "name": "5b658bc1e7870cace25a12d4e183ce8f", "is_disabled": 0}, {"is_reserved": 0, "fusion_lon": 0.0, "lon": -77.02912816666667, "fusion_lat": 0.0, "rental_uris": {"ios": "https://dc.lft.to/lastmile_qr_scan", "android": "https://dc.lft.to/lastmile_qr_scan"}, "bike_id": "e2bd94f91b7c5dcdf950657892745bcf", "lat": 38.916904333333335, "type": "electric_scooter", "name": "e2bd94f91b7c5dcdf950657892745bcf", "is_disabled": 0}, {"is_reserved": 0, "fusion_lon": 0.0, "lon": -77.0342955, "fusion_lat": 0.0, "rental_uris": {"ios": "https://dc.lft.to/lastmile_qr_scan", "android": "https://dc.lft.to/lastmile_qr_scan"}, "bike_id": "2a32ddb29103a89b94b218e40d60b4f4", "lat": 38.919139, "type": "electric_scooter", "name": "2a32ddb29103a89b94b218e40d60b4f4", "is_disabled": 0}, {"is_reserved": 0, "fusion_lon": 0.0, "lon": -77.03211533333334, "fusion_lat": 0.0, "rental_uris": {"ios": "https://dc.lft.to/lastmile_qr_scan", "android": "https://dc.lft.to/lastmile_qr_scan"}, "bike_id": "1a5254d7cb4a28dbe9237ebe8f781aa9", "lat": 38.92789, "type": "electric_scooter", "name": "1a5254d7cb4a28dbe9237ebe8f781aa9", "is_disabled": 0}, {"is_reserved": 0, "fusion_lon": 0.0, "lon": -77.0058055, "fusion_lat": 0.0, "rental_uris": {"ios": "https://dc.lft.to/lastmile_qr_scan", "android": "https://dc.lft.to/lastmile_qr_scan"}, "bike_id": "3939454192188625297a2a7584c77cd5", "lat": 38.87581733333333, "type": "electric_scooter", "name": "3939454192188625297a2a7584c77cd5", "is_disabled": 0}, {"is_reserved": 0, "fusion_lon": 0.0, "lon": -77.03463316666667, "fusion_lat": 0.0, "rental_uris": {"ios": "https://dc.lft.to/lastmile_qr_scan", "android": "https://dc.lft.to/lastmile_qr_scan"}, "bike_id": "f7a4869aeb7036496a91afb81d664ff9", "lat": 38.90162483333334, "type": "electric_scooter", "name": "f7a4869aeb7036496a91afb81d664ff9", "is_disabled": 0}, {"is_reserved": 0, "fusion_lon": 0.0, "lon": -77.03919633333334, "fusion_lat": 0.0, "rental_uris": {"ios": "https://dc.lft.to/lastmile_qr_scan", "android": "https://dc.lft.to/lastmile_qr_scan"}, "bike_id": "663515e5112474e835c566d6136a348c", "lat": 38.908183333333334, "type": "electric_scooter", "name": "663515e5112474e835c566d6136a348c", "is_disabled": 0}, {"is_reserved": 0, "fusion_lon": 0.0, "lon": -77.01266716666666, "fusion_lat": 0.0, "rental_uris": {"ios": "https://dc.lft.to/lastmile_qr_scan", "android": "https://dc.lft.to/lastmile_qr_scan"}, "bike_id": "dd530a3052e2b895f220a894b38fca7d", "lat": 38.864528, "type": "electric_bike", "name": "dd530a3052e2b895f220a894b38fca7d", "is_disabled": 0}, {"is_reserved": 0, "fusion_lon": 0.0, "lon": -77.02371766666667, "fusion_lat": 0.0, "rental_uris": {"ios": "https://dc.lft.to/lastmile_qr_scan", "android": "https://dc.lft.to/lastmile_qr_scan"}, "bike_id": "5f1f44bdca84d9254f948f3762046c5c", "lat": 38.93527783333333, "type": "electric_scooter", "name": "5f1f44bdca84d9254f948f3762046c5c", "is_disabled": 0}, {"is_reserved": 0, "fusion_lon": 0.0, "lon": -77.07279933333334, "fusion_lat": 0.0, "rental_uris": {"ios": "https://dc.lft.to/lastmile_qr_scan", "android": "https://dc.lft.to/lastmile_qr_scan"}, "bike_id": "2846c4aeaf6253de9c72437a3dc11c14", "lat": 38.93468816666667, "type": "electric_scooter", "name": "2846c4aeaf6253de9c72437a3dc11c14", "is_disabled": 0}, {"is_reserved": 0, "fusion_lon": 0.0, "lon": -77.02177583333334, "fusion_lat": 0.0, "rental_uris": {"ios": "https://dc.lft.to/lastmile_qr_scan", "android": "https://dc.lft.to/lastmile_qr_scan"}, "bike_id": "57d7117fb76fef9792c45a818a57079d", "lat": 38.942876, "type": "electric_scooter", "name": "57d7117fb76fef9792c45a818a57079d", "is_disabled": 0}, {"is_reserved": 0, "fusion_lon": 0.0, "lon": -76.98715316666667, "fusion_lat": 0.0, "rental_uris": {"ios": "https://dc.lft.to/lastmile_qr_scan", "android": "https://dc.lft.to/lastmile_qr_scan"}, "bike_id": "30c80440c7b0e36c2f4a090f938fd1b7", "lat": 38.86630683333333, "type": "electric_scooter", "name": "30c80440c7b0e36c2f4a090f938fd1b7", "is_disabled": 0}, {"is_reserved": 0, "fusion_lon": 0.0, "lon": -77.02482333333333, "fusion_lat": 0.0, "rental_uris": {"ios": "https://dc.lft.to/lastmile_qr_scan", "android": "https://dc.lft.to/lastmile_qr_scan"}, "bike_id": "7c7d609105efc241d3c09e054e05540b", "lat": 38.91879383333333, "type": "electric_scooter", "name": "7c7d609105efc241d3c09e054e05540b", "is_disabled": 0}, {"is_reserved": 0, "fusion_lon": 0.0, "lon": -77.029546, "fusion_lat": 0.0, "rental_uris": {"ios": "https://dc.lft.to/lastmile_qr_scan", "android": "https://dc.lft.to/lastmile_qr_scan"}, "bike_id": "28555628aaa1eeb78f0c07ff1042f196", "lat": 38.91682766666667, "type": "electric_scooter", "name": "28555628aaa1eeb78f0c07ff1042f196", "is_disabled": 0}, {"is_reserved": 0, "fusion_lon": 0.0, "lon": -77.03264216666666, "fusion_lat": 0.0, "rental_uris": {"ios": "https://dc.lft.to/lastmile_qr_scan", "android": "https://dc.lft.to/lastmile_qr_scan"}, "bike_id": "52fa126705dbc76a9831a29ad02e3313", "lat": 38.93881833333333, "type": "electric_scooter", "name": "52fa126705dbc76a9831a29ad02e3313", "is_disabled": 0}, {"is_reserved": 0, "fusion_lon": 0.0, "lon": -77.0183845, "fusion_lat": 0.0, "rental_uris": {"ios": "https://dc.lft.to/lastmile_qr_scan", "android": "https://dc.lft.to/lastmile_qr_scan"}, "bike_id": "29ea56f1a1fe7cf12df3697b604b5b90", "lat": 38.902533, "type": "electric_scooter", "name": "29ea56f1a1fe7cf12df3697b604b5b90", "is_disabled": 0}, {"is_reserved": 0, "fusion_lon": 0.0, "lon": -77.07080483333333, "fusion_lat": 0.0, "rental_uris": {"ios": "https://dc.lft.to/lastmile_qr_scan", "android": "https://dc.lft.to/lastmile_qr_scan"}, "bike_id": "a7382b1e14c28b0ad7cc24c510b10146", "lat": 38.89655066666667, "type": "electric_scooter", "name": "a7382b1e14c28b0ad7cc24c510b10146", "is_disabled": 0}, {"is_reserved": 0, "fusion_lon": 0.0, "lon": -77.02559366666667, "fusion_lat": 0.0, "rental_uris": {"ios": "https://dc.lft.to/lastmile_qr_scan", "android": "https://dc.lft.to/lastmile_qr_scan"}, "bike_id": "28ae5d3ab9edbc5dc939fe1202ed54bf", "lat": 38.997088, "type": "electric_bike", "name": "28ae5d3ab9edbc5dc939fe1202ed54bf", "is_disabled": 0}, {"is_reserved": 0, "fusion_lon": 0.0, "lon": -77.04516983333333, "fusion_lat": 0.0, "rental_uris": {"ios": "https://dc.lft.to/lastmile_qr_scan", "android": "https://dc.lft.to/lastmile_qr_scan"}, "bike_id": "c685f4b86e13cd4adb1d79340b7857f3", "lat": 38.89219666666666, "type": "electric_scooter", "name": "c685f4b86e13cd4adb1d79340b7857f3", "is_disabled": 0}, {"is_reserved": 0, "fusion_lon": 0.0, "lon": -77.03286183333333, "fusion_lat": 0.0, "rental_uris": {"ios": "https://dc.lft.to/lastmile_qr_scan", "android": "https://dc.lft.to/lastmile_qr_scan"}, "bike_id": "70d1b4fcd8e931081cfd33d14efba63b", "lat": 38.93785033333333, "type": "electric_scooter", "name": "70d1b4fcd8e931081cfd33d14efba63b", "is_disabled": 0}, {"is_reserved": 0, "fusion_lon": 0.0, "lon": -76.98337066666667, "fusion_lat": 0.0, "rental_uris": {"ios": "https://dc.lft.to/lastmile_qr_scan", "android": "https://dc.lft.to/lastmile_qr_scan"}, "bike_id": "7ac350c2cb77aa5e7ab0cf10fc94dd9c", "lat": 38.865647333333335, "type": "electric_scooter", "name": "7ac350c2cb77aa5e7ab0cf10fc94dd9c", "is_disabled": 0}, {"is_reserved": 0, "fusion_lon": 0.0, "lon": -77.024248, "fusion_lat": 0.0, "rental_uris": {"ios": "https://dc.lft.to/lastmile_qr_scan", "android": "https://dc.lft.to/lastmile_qr_scan"}, "bike_id": "ad10ab6da98d558c776bbd73e755ff14", "lat": 38.922375333333335, "type": "electric_scooter", "name": "ad10ab6da98d558c776bbd73e755ff14", "is_disabled": 0}, {"is_reserved": 0, "fusion_lon": 0.0, "lon": -77.03192366666667, "fusion_lat": 0.0, "rental_uris": {"ios": "https://dc.lft.to/lastmile_qr_scan", "android": "https://dc.lft.to/lastmile_qr_scan"}, "bike_id": "daa67cae6f2012e0db927c9a51f25942", "lat": 38.930604, "type": "electric_scooter", "name": "daa67cae6f2012e0db927c9a51f25942", "is_disabled": 0}, {"is_reserved": 0, "fusion_lon": 0.0, "lon": -77.12982783333334, "fusion_lat": 0.0, "rental_uris": {"ios": "https://dc.lft.to/lastmile_qr_scan", "android": "https://dc.lft.to/lastmile_qr_scan"}, "bike_id": "1fa42b47027dd84b7ee685c521758ba7", "lat": 38.79979733333333, "type": "electric_bike", "name": "1fa42b47027dd84b7ee685c521758ba7", "is_disabled": 0}, {"is_reserved": 0, "fusion_lon": 0.0, "lon": -77.04897783333334, "fusion_lat": 0.0, "rental_uris": {"ios": "https://dc.lft.to/lastmile_qr_scan", "android": "https://dc.lft.to/lastmile_qr_scan"}, "bike_id": "690d76738bb5c7107cfdafd6eff8ff62", "lat": 38.903915, "type": "electric_scooter", "name": "690d76738bb5c7107cfdafd6eff8ff62", "is_disabled": 0}, {"is_reserved": 0, "fusion_lon": 0.0, "lon": -77.02242883333334, "fusion_lat": 0.0, "rental_uris": {"ios": "https://dc.lft.to/lastmile_qr_scan", "android": "https://dc.lft.to/lastmile_qr_scan"}, "bike_id": "f64f9656e349d8abd72facadcd79cbf4", "lat": 38.924644, "type": "electric_scooter", "name": "f64f9656e349d8abd72facadcd79cbf4", "is_disabled": 0}, {"is_reserved": 0, "fusion_lon": 0.0, "lon": -77.02201816666667, "fusion_lat": 0.0, "rental_uris": {"ios": "https://dc.lft.to/lastmile_qr_scan", "android": "https://dc.lft.to/lastmile_qr_scan"}, "bike_id": "7d360354b206e674b6636656b08ca88a", "lat": 38.915866, "type": "electric_scooter", "name": "7d360354b206e674b6636656b08ca88a", "is_disabled": 0}, {"is_reserved": 0, "fusion_lon": 0.0, "lon": -77.02635783333334, "fusion_lat": 0.0, "rental_uris": {"ios": "https://dc.lft.to/lastmile_qr_scan", "android": "https://dc.lft.to/lastmile_qr_scan"}, "bike_id": "30d8af94ddee6c3d0fd40fc398035aec", "lat": 38.89224216666667, "type": "electric_scooter", "name": "30d8af94ddee6c3d0fd40fc398035aec", "is_disabled": 0}, {"is_reserved": 0, "fusion_lon": 0.0, "lon": -77.03862616666666, "fusion_lat": 0.0, "rental_uris": {"ios": "https://dc.lft.to/lastmile_qr_scan", "android": "https://dc.lft.to/lastmile_qr_scan"}, "bike_id": "1183d85461c9fe73859d1baa406a42e4", "lat": 38.90248033333334, "type": "electric_scooter", "name": "1183d85461c9fe73859d1baa406a42e4", "is_disabled": 0}, {"is_reserved": 0, "fusion_lon": 0.0, "lon": -77.021752, "fusion_lat": 0.0, "rental_uris": {"ios": "https://dc.lft.to/lastmile_qr_scan", "android": "https://dc.lft.to/lastmile_qr_scan"}, "bike_id": "fbcf4c223c593256b86b6c4c7cf3e635", "lat": 38.9428665, "type": "electric_scooter", "name": "fbcf4c223c593256b86b6c4c7cf3e635", "is_disabled": 0}, {"is_reserved": 0, "fusion_lon": 0.0, "lon": -77.04120066666667, "fusion_lat": 0.0, "rental_uris": {"ios": "https://dc.lft.to/lastmile_qr_scan", "android": "https://dc.lft.to/lastmile_qr_scan"}, "bike_id": "f01b64d2cf0b5937182baa0b20c4c047", "lat": 38.933523666666666, "type": "electric_scooter", "name": "f01b64d2cf0b5937182baa0b20c4c047", "is_disabled": 0}, {"is_reserved": 0, "fusion_lon": 0.0, "lon": -77.040617, "fusion_lat": 0.0, "rental_uris": {"ios": "https://dc.lft.to/lastmile_qr_scan", "android": "https://dc.lft.to/lastmile_qr_scan"}, "bike_id": "c24c7a1421ce3a142423f6cda60f9605", "lat": 38.931399666666664, "type": "electric_scooter", "name": "c24c7a1421ce3a142423f6cda60f9605", "is_disabled": 0}, {"is_reserved": 0, "fusion_lon": 0.0, "lon": -77.031196, "fusion_lat": 0.0, "rental_uris": {"ios": "https://dc.lft.to/lastmile_qr_scan", "android": "https://dc.lft.to/lastmile_qr_scan"}, "bike_id": "9eaf6f630163fa97c799dcecf315f0d8", "lat": 38.898399, "type": "electric_scooter", "name": "9eaf6f630163fa97c799dcecf315f0d8", "is_disabled": 0}, {"is_reserved": 0, "fusion_lon": 0.0, "lon": -77.02173533333334, "fusion_lat": 0.0, "rental_uris": {"ios": "https://dc.lft.to/lastmile_qr_scan", "android": "https://dc.lft.to/lastmile_qr_scan"}, "bike_id": "889885a4a78b5dbb98f2f653ae4dd593", "lat": 38.899688166666664, "type": "electric_scooter", "name": "889885a4a78b5dbb98f2f653ae4dd593", "is_disabled": 0}, {"is_reserved": 0, "fusion_lon": 0.0, "lon": -76.98755433333334, "fusion_lat": 0.0, "rental_uris": {"ios": "https://dc.lft.to/lastmile_qr_scan", "android": "https://dc.lft.to/lastmile_qr_scan"}, "bike_id": "7ae91af9cd66fb9c28a7ea6712478c93", "lat": 38.857700666666666, "type": "electric_bike", "name": "7ae91af9cd66fb9c28a7ea6712478c93", "is_disabled": 0}, {"is_reserved": 0, "fusion_lon": 0.0, "lon": -76.98896933333333, "fusion_lat": 0.0, "rental_uris": {"ios": "https://dc.lft.to/lastmile_qr_scan", "android": "https://dc.lft.to/lastmile_qr_scan"}, "bike_id": "d8e77dfeffcdb682276636c040577ce0", "lat": 38.866625666666664, "type": "electric_scooter", "name": "d8e77dfeffcdb682276636c040577ce0", "is_disabled": 0}, {"is_reserved": 0, "fusion_lon": 0.0, "lon": -77.02286, "fusion_lat": 0.0, "rental_uris": {"ios": "https://dc.lft.to/lastmile_qr_scan", "android": "https://dc.lft.to/lastmile_qr_scan"}, "bike_id": "ffbd1d3ff44b47d27629013b5e882f69", "lat": 38.89512933333334, "type": "electric_scooter", "name": "ffbd1d3ff44b47d27629013b5e882f69", "is_disabled": 0}, {"is_reserved": 0, "fusion_lon": 0.0, "lon": -77.0283435, "fusion_lat": 0.0, "rental_uris": {"ios": "https://dc.lft.to/lastmile_qr_scan", "android": "https://dc.lft.to/lastmile_qr_scan"}, "bike_id": "78a83e78fa16cc39e027285ad050aace", "lat": 38.887299166666665, "type": "electric_scooter", "name": "78a83e78fa16cc39e027285ad050aace", "is_disabled": 0}, {"is_reserved": 0, "fusion_lon": 0.0, "lon": -77.06311566666666, "fusion_lat": 0.0, "rental_uris": {"ios": "https://dc.lft.to/lastmile_qr_scan", "android": "https://dc.lft.to/lastmile_qr_scan"}, "bike_id": "4af7c0cd930580cbbc2a2ec7f53bff40", "lat": 38.79852016666667, "type": "electric_bike", "name": "4af7c0cd930580cbbc2a2ec7f53bff40", "is_disabled": 0}, {"is_reserved": 0, "fusion_lon": 0.0, "lon": -77.07823283333333, "fusion_lat": 0.0, "rental_uris": {"ios": "https://dc.lft.to/lastmile_qr_scan", "android": "https://dc.lft.to/lastmile_qr_scan"}, "bike_id": "6bf783dbfe5c89a17c2070167ec90caf", "lat": 38.9314855, "type": "electric_scooter", "name": "6bf783dbfe5c89a17c2070167ec90caf", "is_disabled": 0}, {"is_reserved": 0, "fusion_lon": 0.0, "lon": -77.02323466666667, "fusion_lat": 0.0, "rental_uris": {"ios": "https://dc.lft.to/lastmile_qr_scan", "android": "https://dc.lft.to/lastmile_qr_scan"}, "bike_id": "994c2384d22fb4dfae8a916a36e4a2ac", "lat": 38.90724216666667, "type": "electric_scooter", "name": "994c2384d22fb4dfae8a916a36e4a2ac", "is_disabled": 0}, {"is_reserved": 0, "fusion_lon": 0.0, "lon": -77.02887216666667, "fusion_lat": 0.0, "rental_uris": {"ios": "https://dc.lft.to/lastmile_qr_scan", "android": "https://dc.lft.to/lastmile_qr_scan"}, "bike_id": "5b39beae57946f12ecbd22a5e1f1ece3", "lat": 38.919147, "type": "electric_scooter", "name": "5b39beae57946f12ecbd22a5e1f1ece3", "is_disabled": 0}, {"is_reserved": 0, "fusion_lon": 0.0, "lon": -77.0212815, "fusion_lat": 0.0, "rental_uris": {"ios": "https://dc.lft.to/lastmile_qr_scan", "android": "https://dc.lft.to/lastmile_qr_scan"}, "bike_id": "b150ba338499a06168645c6faa1531c0", "lat": 38.903163166666666, "type": "electric_scooter", "name": "b150ba338499a06168645c6faa1531c0", "is_disabled": 0}, {"is_reserved": 0, "fusion_lon": 0.0, "lon": -77.02934383333333, "fusion_lat": 0.0, "rental_uris": {"ios": "https://dc.lft.to/lastmile_qr_scan", "android": "https://dc.lft.to/lastmile_qr_scan"}, "bike_id": "a1392975fae6edcdfab152dc0d04f983", "lat": 38.90256866666667, "type": "electric_scooter", "name": "a1392975fae6edcdfab152dc0d04f983", "is_disabled": 0}, {"is_reserved": 0, "fusion_lon": 0.0, "lon": -77.023977, "fusion_lat": 0.0, "rental_uris": {"ios": "https://dc.lft.to/lastmile_qr_scan", "android": "https://dc.lft.to/lastmile_qr_scan"}, "bike_id": "6227c2adde3681a0e605ec448686ad84", "lat": 38.919688, "type": "electric_scooter", "name": "6227c2adde3681a0e605ec448686ad84", "is_disabled": 0}, {"is_reserved": 0, "fusion_lon": 0.0, "lon": -77.0320365, "fusion_lat": 0.0, "rental_uris": {"ios": "https://dc.lft.to/lastmile_qr_scan", "android": "https://dc.lft.to/lastmile_qr_scan"}, "bike_id": "854d20b5522f08e47ffad0a6138d2bac", "lat": 38.910646, "type": "electric_scooter", "name": "854d20b5522f08e47ffad0a6138d2bac", "is_disabled": 0}, {"is_reserved": 0, "fusion_lon": 0.0, "lon": -77.0260145, "fusion_lat": 0.0, "rental_uris": {"ios": "https://dc.lft.to/lastmile_qr_scan", "android": "https://dc.lft.to/lastmile_qr_scan"}, "bike_id": "ec9f0d34205e85467c724d82f71e23fe", "lat": 38.944104333333335, "type": "electric_scooter", "name": "ec9f0d34205e85467c724d82f71e23fe", "is_disabled": 0}, {"is_reserved": 0, "fusion_lon": 0.0, "lon": -76.97725766666667, "fusion_lat": 0.0, "rental_uris": {"ios": "https://dc.lft.to/lastmile_qr_scan", "android": "https://dc.lft.to/lastmile_qr_scan"}, "bike_id": "6667c3b36bbb6a12e418086ef374bcdc", "lat": 38.872438833333334, "type": "electric_scooter", "name": "6667c3b36bbb6a12e418086ef374bcdc", "is_disabled": 0}, {"is_reserved": 0, "fusion_lon": 0.0, "lon": -77.007014, "fusion_lat": 0.0, "rental_uris": {"ios": "https://dc.lft.to/lastmile_qr_scan", "android": "https://dc.lft.to/lastmile_qr_scan"}, "bike_id": "1a93eb5146fc8d4e895802d650e9fea9", "lat": 38.95242666666667, "type": "electric_scooter", "name": "1a93eb5146fc8d4e895802d650e9fea9", "is_disabled": 0}, {"is_reserved": 0, "fusion_lon": 0.0, "lon": -76.99782183333333, "fusion_lat": 0.0, "rental_uris": {"ios": "https://dc.lft.to/lastmile_qr_scan", "android": "https://dc.lft.to/lastmile_qr_scan"}, "bike_id": "7582a03bd8bcdd2f45c278d9064083d9", "lat": 38.84435583333333, "type": "electric_scooter", "name": "7582a03bd8bcdd2f45c278d9064083d9", "is_disabled": 0}, {"is_reserved": 0, "fusion_lon": 0.0, "lon": -77.05023183333333, "fusion_lat": 0.0, "rental_uris": {"ios": "https://dc.lft.to/lastmile_qr_scan", "android": "https://dc.lft.to/lastmile_qr_scan"}, "bike_id": "04548fc090723d580c93d451cc0f64d6", "lat": 38.90315733333333, "type": "electric_scooter", "name": "04548fc090723d580c93d451cc0f64d6", "is_disabled": 0}, {"is_reserved": 0, "fusion_lon": 0.0, "lon": -77.05006716666666, "fusion_lat": 0.0, "rental_uris": {"ios": "https://dc.lft.to/lastmile_qr_scan", "android": "https://dc.lft.to/lastmile_qr_scan"}, "bike_id": "3924782ae59ef1bce364b8aea9715afa", "lat": 38.905503, "type": "electric_scooter", "name": "3924782ae59ef1bce364b8aea9715afa", "is_disabled": 0}, {"is_reserved": 0, "fusion_lon": 0.0, "lon": -77.0109585, "fusion_lat": 0.0, "rental_uris": {"ios": "https://dc.lft.to/lastmile_qr_scan", "android": "https://dc.lft.to/lastmile_qr_scan"}, "bike_id": "846155f044972d3ed41b5673be8d2354", "lat": 38.907244, "type": "electric_scooter", "name": "846155f044972d3ed41b5673be8d2354", "is_disabled": 0}, {"is_reserved": 0, "fusion_lon": 0.0, "lon": -77.0416665, "fusion_lat": 0.0, "rental_uris": {"ios": "https://dc.lft.to/lastmile_qr_scan", "android": "https://dc.lft.to/lastmile_qr_scan"}, "bike_id": "d1b9ff4cdd7178c8c776b2ad4e2da8d3", "lat": 38.8984245, "type": "electric_scooter", "name": "d1b9ff4cdd7178c8c776b2ad4e2da8d3", "is_disabled": 0}, {"is_reserved": 0, "fusion_lon": 0.0, "lon": -77.05393216666667, "fusion_lat": 0.0, "rental_uris": {"ios": "https://dc.lft.to/lastmile_qr_scan", "android": "https://dc.lft.to/lastmile_qr_scan"}, "bike_id": "57a1f97ec21d0711adf6ba91c92cfd30", "lat": 38.804464833333334, "type": "electric_bike", "name": "57a1f97ec21d0711adf6ba91c92cfd30", "is_disabled": 0}, {"is_reserved": 0, "fusion_lon": 0.0, "lon": -77.0146275, "fusion_lat": 0.0, "rental_uris": {"ios": "https://dc.lft.to/lastmile_qr_scan", "android": "https://dc.lft.to/lastmile_qr_scan"}, "bike_id": "ddf298d47640e1f1eba6f97a44506e4c", "lat": 38.92701183333333, "type": "electric_scooter", "name": "ddf298d47640e1f1eba6f97a44506e4c", "is_disabled": 0}, {"is_reserved": 0, "fusion_lon": 0.0, "lon": -76.9809285, "fusion_lat": 0.0, "rental_uris": {"ios": "https://dc.lft.to/lastmile_qr_scan", "android": "https://dc.lft.to/lastmile_qr_scan"}, "bike_id": "d4b901f11a00fe05427d7ea80ac6fb88", "lat": 38.900045, "type": "electric_scooter", "name": "d4b901f11a00fe05427d7ea80ac6fb88", "is_disabled": 0}, {"is_reserved": 0, "fusion_lon": 0.0, "lon": -77.04508016666666, "fusion_lat": 0.0, "rental_uris": {"ios": "https://dc.lft.to/lastmile_qr_scan", "android": "https://dc.lft.to/lastmile_qr_scan"}, "bike_id": "52b6cf895ec53ba1a233a534fcd98418", "lat": 38.91596916666667, "type": "electric_scooter", "name": "52b6cf895ec53ba1a233a534fcd98418", "is_disabled": 0}, {"is_reserved": 0, "fusion_lon": 0.0, "lon": -77.04769116666667, "fusion_lat": 0.0, "rental_uris": {"ios": "https://dc.lft.to/lastmile_qr_scan", "android": "https://dc.lft.to/lastmile_qr_scan"}, "bike_id": "9805cebcdb3c3c7ae597c34db3d9ad8c", "lat": 38.897286333333334, "type": "electric_scooter", "name": "9805cebcdb3c3c7ae597c34db3d9ad8c", "is_disabled": 0}, {"is_reserved": 0, "fusion_lon": 0.0, "lon": -77.01273533333334, "fusion_lat": 0.0, "rental_uris": {"ios": "https://dc.lft.to/lastmile_qr_scan", "android": "https://dc.lft.to/lastmile_qr_scan"}, "bike_id": "4e2047af752bbf83edc2a0ca925068ed", "lat": 38.91535483333333, "type": "electric_scooter", "name": "4e2047af752bbf83edc2a0ca925068ed", "is_disabled": 0}, {"is_reserved": 0, "fusion_lon": 0.0, "lon": -76.97540033333334, "fusion_lat": 0.0, "rental_uris": {"ios": "https://dc.lft.to/lastmile_qr_scan", "android": "https://dc.lft.to/lastmile_qr_scan"}, "bike_id": "343afcd33dea313fbc6dc3a6c624ebe0", "lat": 38.9032455, "type": "electric_scooter", "name": "343afcd33dea313fbc6dc3a6c624ebe0", "is_disabled": 0}, {"is_reserved": 0, "fusion_lon": 0.0, "lon": -77.0273895, "fusion_lat": 0.0, "rental_uris": {"ios": "https://dc.lft.to/lastmile_qr_scan", "android": "https://dc.lft.to/lastmile_qr_scan"}, "bike_id": "29faf599fdff68d296bd3245e9def577", "lat": 38.927680333333335, "type": "electric_scooter", "name": "29faf599fdff68d296bd3245e9def577", "is_disabled": 0}, {"is_reserved": 0, "fusion_lon": 0.0, "lon": -76.94157183333333, "fusion_lat": 0.0, "rental_uris": {"ios": "https://dc.lft.to/lastmile_qr_scan", "android": "https://dc.lft.to/lastmile_qr_scan"}, "bike_id": "e37599a3336a94ff6f93a0aac08894dd", "lat": 38.883643166666666, "type": "electric_scooter", "name": "e37599a3336a94ff6f93a0aac08894dd", "is_disabled": 0}, {"is_reserved": 0, "fusion_lon": 0.0, "lon": -77.01413483333333, "fusion_lat": 0.0, "rental_uris": {"ios": "https://dc.lft.to/lastmile_qr_scan", "android": "https://dc.lft.to/lastmile_qr_scan"}, "bike_id": "e12a49c3a26abb6ba524103d73a97c83", "lat": 38.92803816666667, "type": "electric_scooter", "name": "e12a49c3a26abb6ba524103d73a97c83", "is_disabled": 0}, {"is_reserved": 0, "fusion_lon": 0.0, "lon": -76.99035566666667, "fusion_lat": 0.0, "rental_uris": {"ios": "https://dc.lft.to/lastmile_qr_scan", "android": "https://dc.lft.to/lastmile_qr_scan"}, "bike_id": "844aeefffc052177e57f02bcc5b314e0", "lat": 38.938767, "type": "electric_bike", "name": "844aeefffc052177e57f02bcc5b314e0", "is_disabled": 0}, {"is_reserved": 0, "fusion_lon": 0.0, "lon": -77.133079, "fusion_lat": 0.0, "rental_uris": {"ios": "https://dc.lft.to/lastmile_qr_scan", "android": "https://dc.lft.to/lastmile_qr_scan"}, "bike_id": "b02f011a576ecca501f139222d3c913b", "lat": 38.887104666666666, "type": "electric_bike", "name": "b02f011a576ecca501f139222d3c913b", "is_disabled": 0}, {"is_reserved": 0, "fusion_lon": 0.0, "lon": -77.011458, "fusion_lat": 0.0, "rental_uris": {"ios": "https://dc.lft.to/lastmile_qr_scan", "android": "https://dc.lft.to/lastmile_qr_scan"}, "bike_id": "211b18d365f60c56a7266c7f41c10641", "lat": 38.900221333333334, "type": "electric_scooter", "name": "211b18d365f60c56a7266c7f41c10641", "is_disabled": 0}, {"is_reserved": 0, "fusion_lon": 0.0, "lon": -77.04240183333333, "fusion_lat": 0.0, "rental_uris": {"ios": "https://dc.lft.to/lastmile_qr_scan", "android": "https://dc.lft.to/lastmile_qr_scan"}, "bike_id": "00e0a098df3bc5623a2bcc431b934aea", "lat": 38.922204, "type": "electric_scooter", "name": "00e0a098df3bc5623a2bcc431b934aea", "is_disabled": 0}, {"is_reserved": 0, "fusion_lon": 0.0, "lon": -77.00060416666666, "fusion_lat": 0.0, "rental_uris": {"ios": "https://dc.lft.to/lastmile_qr_scan", "android": "https://dc.lft.to/lastmile_qr_scan"}, "bike_id": "04629ace697ae3a2f4548154fe3f19f0", "lat": 38.90727033333334, "type": "electric_scooter", "name": "04629ace697ae3a2f4548154fe3f19f0", "is_disabled": 0}, {"is_reserved": 0, "fusion_lon": 0.0, "lon": -77.06824633333333, "fusion_lat": 0.0, "rental_uris": {"ios": "https://dc.lft.to/lastmile_qr_scan", "android": "https://dc.lft.to/lastmile_qr_scan"}, "bike_id": "4e423eedf9c7e250f27938eaa8bea706", "lat": 38.9180185, "type": "electric_scooter", "name": "4e423eedf9c7e250f27938eaa8bea706", "is_disabled": 0}, {"is_reserved": 0, "fusion_lon": 0.0, "lon": -77.01901933333333, "fusion_lat": 0.0, "rental_uris": {"ios": "https://dc.lft.to/lastmile_qr_scan", "android": "https://dc.lft.to/lastmile_qr_scan"}, "bike_id": "6c3e131aa8675eeb8749bf8b87e4559a", "lat": 38.90513466666667, "type": "electric_scooter", "name": "6c3e131aa8675eeb8749bf8b87e4559a", "is_disabled": 0}, {"is_reserved": 0, "fusion_lon": 0.0, "lon": -77.04491933333334, "fusion_lat": 0.0, "rental_uris": {"ios": "https://dc.lft.to/lastmile_qr_scan", "android": "https://dc.lft.to/lastmile_qr_scan"}, "bike_id": "8a5c74d5c46a20d3266ea7f1aac80fc8", "lat": 38.9046445, "type": "electric_scooter", "name": "8a5c74d5c46a20d3266ea7f1aac80fc8", "is_disabled": 0}, {"is_reserved": 0, "fusion_lon": 0.0, "lon": -77.03473716666667, "fusion_lat": 0.0, "rental_uris": {"ios": "https://dc.lft.to/lastmile_qr_scan", "android": "https://dc.lft.to/lastmile_qr_scan"}, "bike_id": "6ec5bd2626cc0e8333fa445356875359", "lat": 38.917031333333334, "type": "electric_scooter", "name": "6ec5bd2626cc0e8333fa445356875359", "is_disabled": 0}, {"is_reserved": 0, "fusion_lon": 0.0, "lon": -77.02490233333333, "fusion_lat": 0.0, "rental_uris": {"ios": "https://dc.lft.to/lastmile_qr_scan", "android": "https://dc.lft.to/lastmile_qr_scan"}, "bike_id": "ca1d484a7f0a74fec58ed3efb7be65c4", "lat": 38.94184216666667, "type": "electric_scooter", "name": "ca1d484a7f0a74fec58ed3efb7be65c4", "is_disabled": 0}, {"is_reserved": 0, "fusion_lon": 0.0, "lon": -77.00101783333334, "fusion_lat": 0.0, "rental_uris": {"ios": "https://dc.lft.to/lastmile_qr_scan", "android": "https://dc.lft.to/lastmile_qr_scan"}, "bike_id": "c8d16c5bb3a7fedd42192a724f19b414", "lat": 38.90008983333333, "type": "electric_scooter", "name": "c8d16c5bb3a7fedd42192a724f19b414", "is_disabled": 0}, {"is_reserved": 0, "fusion_lon": 0.0, "lon": -77.02970816666667, "fusion_lat": 0.0, "rental_uris": {"ios": "https://dc.lft.to/lastmile_qr_scan", "android": "https://dc.lft.to/lastmile_qr_scan"}, "bike_id": "57fcd4f287c330c838389b7ca2c0b246", "lat": 38.917238833333336, "type": "electric_scooter", "name": "57fcd4f287c330c838389b7ca2c0b246", "is_disabled": 0}, {"is_reserved": 0, "fusion_lon": 0.0, "lon": -77.07698616666667, "fusion_lat": 0.0, "rental_uris": {"ios": "https://dc.lft.to/lastmile_qr_scan", "android": "https://dc.lft.to/lastmile_qr_scan"}, "bike_id": "d25f2806480d112069b51a92859b5194", "lat": 38.99415666666667, "type": "electric_bike", "name": "d25f2806480d112069b51a92859b5194", "is_disabled": 0}, {"is_reserved": 0, "fusion_lon": 0.0, "lon": -77.0033795, "fusion_lat": 0.0, "rental_uris": {"ios": "https://dc.lft.to/lastmile_qr_scan", "android": "https://dc.lft.to/lastmile_qr_scan"}, "bike_id": "3f8328b245bcc14359f426dbfbbfba10", "lat": 38.907125, "type": "electric_scooter", "name": "3f8328b245bcc14359f426dbfbbfba10", "is_disabled": 0}, {"is_reserved": 0, "fusion_lon": 0.0, "lon": -76.99782316666666, "fusion_lat": 0.0, "rental_uris": {"ios": "https://dc.lft.to/lastmile_qr_scan", "android": "https://dc.lft.to/lastmile_qr_scan"}, "bike_id": "c710f723c689256df0daa8e0f0075c01", "lat": 38.84437283333333, "type": "electric_scooter", "name": "c710f723c689256df0daa8e0f0075c01", "is_disabled": 0}, {"is_reserved": 0, "fusion_lon": 0.0, "lon": -77.03451466666667, "fusion_lat": 0.0, "rental_uris": {"ios": "https://dc.lft.to/lastmile_qr_scan", "android": "https://dc.lft.to/lastmile_qr_scan"}, "bike_id": "1e4af3559ee4a2858dde5d6d4f88ac13", "lat": 38.903762, "type": "electric_scooter", "name": "1e4af3559ee4a2858dde5d6d4f88ac13", "is_disabled": 0}, {"is_reserved": 0, "fusion_lon": 0.0, "lon": -77.02047783333333, "fusion_lat": 0.0, "rental_uris": {"ios": "https://dc.lft.to/lastmile_qr_scan", "android": "https://dc.lft.to/lastmile_qr_scan"}, "bike_id": "0cf3fc3f4014315db7f5113c317dca9b", "lat": 38.93644283333333, "type": "electric_scooter", "name": "0cf3fc3f4014315db7f5113c317dca9b", "is_disabled": 0}, {"is_reserved": 0, "fusion_lon": 0.0, "lon": -77.04255633333334, "fusion_lat": 0.0, "rental_uris": {"ios": "https://dc.lft.to/lastmile_qr_scan", "android": "https://dc.lft.to/lastmile_qr_scan"}, "bike_id": "d1f042226b0bd3e01023724deeb156a2", "lat": 38.922459833333335, "type": "electric_scooter", "name": "d1f042226b0bd3e01023724deeb156a2", "is_disabled": 0}, {"is_reserved": 0, "fusion_lon": 0.0, "lon": -77.046955, "fusion_lat": 0.0, "rental_uris": {"ios": "https://dc.lft.to/lastmile_qr_scan", "android": "https://dc.lft.to/lastmile_qr_scan"}, "bike_id": "3d963e2626b867c1241f44c4c8c78409", "lat": 38.89866683333333, "type": "electric_scooter", "name": "3d963e2626b867c1241f44c4c8c78409", "is_disabled": 0}, {"is_reserved": 0, "fusion_lon": 0.0, "lon": -76.9339585, "fusion_lat": 0.0, "rental_uris": {"ios": "https://dc.lft.to/lastmile_qr_scan", "android": "https://dc.lft.to/lastmile_qr_scan"}, "bike_id": "e327e610e6dee858bfbdbc4fb746cb41", "lat": 38.898891, "type": "electric_scooter", "name": "e327e610e6dee858bfbdbc4fb746cb41", "is_disabled": 0}, {"is_reserved": 0, "fusion_lon": 0.0, "lon": -76.9868795, "fusion_lat": 0.0, "rental_uris": {"ios": "https://dc.lft.to/lastmile_qr_scan", "android": "https://dc.lft.to/lastmile_qr_scan"}, "bike_id": "7f5c9a2fd01263fe4dabd3c17d19fe03", "lat": 38.90035066666667, "type": "electric_scooter", "name": "7f5c9a2fd01263fe4dabd3c17d19fe03", "is_disabled": 0}, {"is_reserved": 0, "fusion_lon": 0.0, "lon": -77.03829066666667, "fusion_lat": 0.0, "rental_uris": {"ios": "https://dc.lft.to/lastmile_qr_scan", "android": "https://dc.lft.to/lastmile_qr_scan"}, "bike_id": "d4b63306d480e5ca2abbc4ecc57ae671", "lat": 38.92166533333334, "type": "electric_scooter", "name": "d4b63306d480e5ca2abbc4ecc57ae671", "is_disabled": 0}, {"is_reserved": 0, "fusion_lon": 0.0, "lon": -77.024118, "fusion_lat": 0.0, "rental_uris": {"ios": "https://dc.lft.to/lastmile_qr_scan", "android": "https://dc.lft.to/lastmile_qr_scan"}, "bike_id": "3121e7a027e94301363a7f79dc339385", "lat": 38.9311575, "type": "electric_scooter", "name": "3121e7a027e94301363a7f79dc339385", "is_disabled": 0}, {"is_reserved": 0, "fusion_lon": 0.0, "lon": -77.0271485, "fusion_lat": 0.0, "rental_uris": {"ios": "https://dc.lft.to/lastmile_qr_scan", "android": "https://dc.lft.to/lastmile_qr_scan"}, "bike_id": "7327adbb5bcc32cceb24ed46239174c0", "lat": 38.917157333333336, "type": "electric_scooter", "name": "7327adbb5bcc32cceb24ed46239174c0", "is_disabled": 0}, {"is_reserved": 0, "fusion_lon": 0.0, "lon": -77.0320015, "fusion_lat": 0.0, "rental_uris": {"ios": "https://dc.lft.to/lastmile_qr_scan", "android": "https://dc.lft.to/lastmile_qr_scan"}, "bike_id": "974495cfe7dc0c784a1a7213f86706a1", "lat": 38.9162755, "type": "electric_scooter", "name": "974495cfe7dc0c784a1a7213f86706a1", "is_disabled": 0}, {"is_reserved": 0, "fusion_lon": 0.0, "lon": -77.05168383333333, "fusion_lat": 0.0, "rental_uris": {"ios": "https://dc.lft.to/lastmile_qr_scan", "android": "https://dc.lft.to/lastmile_qr_scan"}, "bike_id": "ae173d75469e257c67ad6b53bba737b3", "lat": 38.9240785, "type": "electric_scooter", "name": "ae173d75469e257c67ad6b53bba737b3", "is_disabled": 0}, {"is_reserved": 0, "fusion_lon": 0.0, "lon": -77.04895333333333, "fusion_lat": 0.0, "rental_uris": {"ios": "https://dc.lft.to/lastmile_qr_scan", "android": "https://dc.lft.to/lastmile_qr_scan"}, "bike_id": "71c83628bb2a6c4ef45952b526c81f04", "lat": 38.905424, "type": "electric_scooter", "name": "71c83628bb2a6c4ef45952b526c81f04", "is_disabled": 0}, {"is_reserved": 0, "fusion_lon": 0.0, "lon": -77.02482933333333, "fusion_lat": 0.0, "rental_uris": {"ios": "https://dc.lft.to/lastmile_qr_scan", "android": "https://dc.lft.to/lastmile_qr_scan"}, "bike_id": "c29f3ecf3df0b12e8a36c22ab726a984", "lat": 38.88294066666667, "type": "electric_scooter", "name": "c29f3ecf3df0b12e8a36c22ab726a984", "is_disabled": 0}, {"is_reserved": 0, "fusion_lon": 0.0, "lon": -77.03211366666666, "fusion_lat": 0.0, "rental_uris": {"ios": "https://dc.lft.to/lastmile_qr_scan", "android": "https://dc.lft.to/lastmile_qr_scan"}, "bike_id": "dfeb3169c6d93eeae632e9e09eb0ca2f", "lat": 38.912756333333334, "type": "electric_scooter", "name": "dfeb3169c6d93eeae632e9e09eb0ca2f", "is_disabled": 0}, {"is_reserved": 0, "fusion_lon": 0.0, "lon": -77.03353316666667, "fusion_lat": 0.0, "rental_uris": {"ios": "https://dc.lft.to/lastmile_qr_scan", "android": "https://dc.lft.to/lastmile_qr_scan"}, "bike_id": "d1002d8741b6f3717e9c51f01cc23f93", "lat": 38.892474666666665, "type": "electric_scooter", "name": "d1002d8741b6f3717e9c51f01cc23f93", "is_disabled": 0}, {"is_reserved": 0, "fusion_lon": 0.0, "lon": -77.02686133333333, "fusion_lat": 0.0, "rental_uris": {"ios": "https://dc.lft.to/lastmile_qr_scan", "android": "https://dc.lft.to/lastmile_qr_scan"}, "bike_id": "35741c4c43e9b7d6573b8aa64baf03e5", "lat": 38.95499816666667, "type": "electric_scooter", "name": "35741c4c43e9b7d6573b8aa64baf03e5", "is_disabled": 0}, {"is_reserved": 0, "fusion_lon": 0.0, "lon": -77.051032, "fusion_lat": 0.0, "rental_uris": {"ios": "https://dc.lft.to/lastmile_qr_scan", "android": "https://dc.lft.to/lastmile_qr_scan"}, "bike_id": "2ccc8e29a4467f21dc0275b5f9a2d526", "lat": 38.8968525, "type": "electric_scooter", "name": "2ccc8e29a4467f21dc0275b5f9a2d526", "is_disabled": 0}, {"is_reserved": 0, "fusion_lon": 0.0, "lon": -77.22928983333334, "fusion_lat": 0.0, "rental_uris": {"ios": "https://dc.lft.to/lastmile_qr_scan", "android": "https://dc.lft.to/lastmile_qr_scan"}, "bike_id": "bc3004d8a1ee6d6bc1498f80570f0442", "lat": 38.93188416666667, "type": "electric_bike", "name": "bc3004d8a1ee6d6bc1498f80570f0442", "is_disabled": 0}, {"is_reserved": 0, "fusion_lon": 0.0, "lon": -77.01596383333333, "fusion_lat": 0.0, "rental_uris": {"ios": "https://dc.lft.to/lastmile_qr_scan", "android": "https://dc.lft.to/lastmile_qr_scan"}, "bike_id": "8e7e1ac60d60484b3c36ee67ed333cdb", "lat": 38.927133166666664, "type": "electric_scooter", "name": "8e7e1ac60d60484b3c36ee67ed333cdb", "is_disabled": 0}, {"is_reserved": 0, "fusion_lon": 0.0, "lon": -77.01195666666666, "fusion_lat": 0.0, "rental_uris": {"ios": "https://dc.lft.to/lastmile_qr_scan", "android": "https://dc.lft.to/lastmile_qr_scan"}, "bike_id": "534e0705c506efcf6babe97826498a0c", "lat": 38.92764966666667, "type": "electric_scooter", "name": "534e0705c506efcf6babe97826498a0c", "is_disabled": 0}, {"is_reserved": 0, "fusion_lon": 0.0, "lon": -77.03219016666667, "fusion_lat": 0.0, "rental_uris": {"ios": "https://dc.lft.to/lastmile_qr_scan", "android": "https://dc.lft.to/lastmile_qr_scan"}, "bike_id": "bf23caef6a90123edceab5ce2be37159", "lat": 38.916414, "type": "electric_scooter", "name": "bf23caef6a90123edceab5ce2be37159", "is_disabled": 0}, {"is_reserved": 0, "fusion_lon": 0.0, "lon": -77.03131383333333, "fusion_lat": 0.0, "rental_uris": {"ios": "https://dc.lft.to/lastmile_qr_scan", "android": "https://dc.lft.to/lastmile_qr_scan"}, "bike_id": "f446f5b7c446d80fac45ceef3b10f0a5", "lat": 38.916017, "type": "electric_scooter", "name": "f446f5b7c446d80fac45ceef3b10f0a5", "is_disabled": 0}, {"is_reserved": 0, "fusion_lon": 0.0, "lon": -76.9470545, "fusion_lat": 0.0, "rental_uris": {"ios": "https://dc.lft.to/lastmile_qr_scan", "android": "https://dc.lft.to/lastmile_qr_scan"}, "bike_id": "feb46ff4f61ec1d387b307f1e9eaebde", "lat": 38.89363433333333, "type": "electric_scooter", "name": "feb46ff4f61ec1d387b307f1e9eaebde", "is_disabled": 0}, {"is_reserved": 0, "fusion_lon": 0.0, "lon": -77.0433515, "fusion_lat": 0.0, "rental_uris": {"ios": "https://dc.lft.to/lastmile_qr_scan", "android": "https://dc.lft.to/lastmile_qr_scan"}, "bike_id": "38e2fd54665c34745b4d2bbf8e7f8ebd", "lat": 38.9261525, "type": "electric_scooter", "name": "38e2fd54665c34745b4d2bbf8e7f8ebd", "is_disabled": 0}, {"is_reserved": 0, "fusion_lon": 0.0, "lon": -76.98506333333333, "fusion_lat": 0.0, "rental_uris": {"ios": "https://dc.lft.to/lastmile_qr_scan", "android": "https://dc.lft.to/lastmile_qr_scan"}, "bike_id": "133f8f98c3aca0b972dd26a8e2c9de17", "lat": 38.860577666666664, "type": "electric_scooter", "name": "133f8f98c3aca0b972dd26a8e2c9de17", "is_disabled": 0}, {"is_reserved": 0, "fusion_lon": 0.0, "lon": -77.04362883333333, "fusion_lat": 0.0, "rental_uris": {"ios": "https://dc.lft.to/lastmile_qr_scan", "android": "https://dc.lft.to/lastmile_qr_scan"}, "bike_id": "634770af6a6b0f0ddf674f20bacfb4d7", "lat": 38.9103645, "type": "electric_scooter", "name": "634770af6a6b0f0ddf674f20bacfb4d7", "is_disabled": 0}, {"is_reserved": 0, "fusion_lon": 0.0, "lon": -77.2341335, "fusion_lat": 0.0, "rental_uris": {"ios": "https://dc.lft.to/lastmile_qr_scan", "android": "https://dc.lft.to/lastmile_qr_scan"}, "bike_id": "c3503023e05afe34a7237a2702f24188", "lat": 38.87578383333334, "type": "electric_bike", "name": "c3503023e05afe34a7237a2702f24188", "is_disabled": 0}, {"is_reserved": 0, "fusion_lon": 0.0, "lon": -77.02177533333334, "fusion_lat": 0.0, "rental_uris": {"ios": "https://dc.lft.to/lastmile_qr_scan", "android": "https://dc.lft.to/lastmile_qr_scan"}, "bike_id": "b3b4f7888426ea4b2c8d747e124e4a57", "lat": 38.900265833333336, "type": "electric_scooter", "name": "b3b4f7888426ea4b2c8d747e124e4a57", "is_disabled": 0}, {"is_reserved": 0, "fusion_lon": 0.0, "lon": -77.009868, "fusion_lat": 0.0, "rental_uris": {"ios": "https://dc.lft.to/lastmile_qr_scan", "android": "https://dc.lft.to/lastmile_qr_scan"}, "bike_id": "89cda7f44588b6b07453b6c546a2333c", "lat": 38.872841333333334, "type": "electric_scooter", "name": "89cda7f44588b6b07453b6c546a2333c", "is_disabled": 0}, {"is_reserved": 0, "fusion_lon": 0.0, "lon": -77.02218783333333, "fusion_lat": 0.0, "rental_uris": {"ios": "https://dc.lft.to/lastmile_qr_scan", "android": "https://dc.lft.to/lastmile_qr_scan"}, "bike_id": "a979d47a75191ef309973122a274986a", "lat": 38.91412833333333, "type": "electric_scooter", "name": "a979d47a75191ef309973122a274986a", "is_disabled": 0}, {"is_reserved": 0, "fusion_lon": 0.0, "lon": -76.9870185, "fusion_lat": 0.0, "rental_uris": {"ios": "https://dc.lft.to/lastmile_qr_scan", "android": "https://dc.lft.to/lastmile_qr_scan"}, "bike_id": "da57aca0d0b414eed3b084f405c068df", "lat": 38.919083, "type": "electric_scooter", "name": "da57aca0d0b414eed3b084f405c068df", "is_disabled": 0}, {"is_reserved": 0, "fusion_lon": 0.0, "lon": -77.02874666666666, "fusion_lat": 0.0, "rental_uris": {"ios": "https://dc.lft.to/lastmile_qr_scan", "android": "https://dc.lft.to/lastmile_qr_scan"}, "bike_id": "29cad98b91f570258bf95028de5e31b1", "lat": 38.9213525, "type": "electric_bike", "name": "29cad98b91f570258bf95028de5e31b1", "is_disabled": 0}, {"is_reserved": 0, "fusion_lon": 0.0, "lon": -77.02366016666667, "fusion_lat": 0.0, "rental_uris": {"ios": "https://dc.lft.to/lastmile_qr_scan", "android": "https://dc.lft.to/lastmile_qr_scan"}, "bike_id": "70309ecad5cdcebb35d11f7d69d1b8dc", "lat": 38.91544016666667, "type": "electric_scooter", "name": "70309ecad5cdcebb35d11f7d69d1b8dc", "is_disabled": 0}, {"is_reserved": 0, "fusion_lon": 0.0, "lon": -77.025333, "fusion_lat": 0.0, "rental_uris": {"ios": "https://dc.lft.to/lastmile_qr_scan", "android": "https://dc.lft.to/lastmile_qr_scan"}, "bike_id": "bf8170586479e865e2854d87633329ab", "lat": 38.92085266666667, "type": "electric_scooter", "name": "bf8170586479e865e2854d87633329ab", "is_disabled": 0}, {"is_reserved": 0, "fusion_lon": 0.0, "lon": -77.03352883333334, "fusion_lat": 0.0, "rental_uris": {"ios": "https://dc.lft.to/lastmile_qr_scan", "android": "https://dc.lft.to/lastmile_qr_scan"}, "bike_id": "aa4c018563715dcaa41944535489b602", "lat": 38.89237216666667, "type": "electric_scooter", "name": "aa4c018563715dcaa41944535489b602", "is_disabled": 0}, {"is_reserved": 0, "fusion_lon": 0.0, "lon": -77.01345883333333, "fusion_lat": 0.0, "rental_uris": {"ios": "https://dc.lft.to/lastmile_qr_scan", "android": "https://dc.lft.to/lastmile_qr_scan"}, "bike_id": "504f35855d9c428bf6a287668ab8fc63", "lat": 38.91911483333333, "type": "electric_scooter", "name": "504f35855d9c428bf6a287668ab8fc63", "is_disabled": 0}, {"is_reserved": 0, "fusion_lon": 0.0, "lon": -77.0350225, "fusion_lat": 0.0, "rental_uris": {"ios": "https://dc.lft.to/lastmile_qr_scan", "android": "https://dc.lft.to/lastmile_qr_scan"}, "bike_id": "94b7908cb99112f131fe98782a6311c0", "lat": 38.931566833333335, "type": "electric_scooter", "name": "94b7908cb99112f131fe98782a6311c0", "is_disabled": 0}, {"is_reserved": 0, "fusion_lon": 0.0, "lon": -77.02328633333333, "fusion_lat": 0.0, "rental_uris": {"ios": "https://dc.lft.to/lastmile_qr_scan", "android": "https://dc.lft.to/lastmile_qr_scan"}, "bike_id": "1bae57a0f093413e64133082a803103f", "lat": 38.91660383333333, "type": "electric_scooter", "name": "1bae57a0f093413e64133082a803103f", "is_disabled": 0}, {"is_reserved": 0, "fusion_lon": 0.0, "lon": -77.02650516666667, "fusion_lat": 0.0, "rental_uris": {"ios": "https://dc.lft.to/lastmile_qr_scan", "android": "https://dc.lft.to/lastmile_qr_scan"}, "bike_id": "a4a5de230fcdae58f62972222c34b766", "lat": 38.98437, "type": "electric_scooter", "name": "a4a5de230fcdae58f62972222c34b766", "is_disabled": 0}, {"is_reserved": 0, "fusion_lon": 0.0, "lon": -77.03274483333334, "fusion_lat": 0.0, "rental_uris": {"ios": "https://dc.lft.to/lastmile_qr_scan", "android": "https://dc.lft.to/lastmile_qr_scan"}, "bike_id": "d671fc86a6ea2649f193d088a451a6fc", "lat": 38.928583333333336, "type": "electric_scooter", "name": "d671fc86a6ea2649f193d088a451a6fc", "is_disabled": 0}, {"is_reserved": 0, "fusion_lon": 0.0, "lon": -76.9656485, "fusion_lat": 0.0, "rental_uris": {"ios": "https://dc.lft.to/lastmile_qr_scan", "android": "https://dc.lft.to/lastmile_qr_scan"}, "bike_id": "6a54ae1b820b7665c15a8f4239bc28a6", "lat": 38.91839616666667, "type": "electric_scooter", "name": "6a54ae1b820b7665c15a8f4239bc28a6", "is_disabled": 0}, {"is_reserved": 0, "fusion_lon": 0.0, "lon": -76.98475566666667, "fusion_lat": 0.0, "rental_uris": {"ios": "https://dc.lft.to/lastmile_qr_scan", "android": "https://dc.lft.to/lastmile_qr_scan"}, "bike_id": "c69d3815d1192562566b7da72764a9bd", "lat": 38.913132, "type": "electric_scooter", "name": "c69d3815d1192562566b7da72764a9bd", "is_disabled": 0}, {"is_reserved": 0, "fusion_lon": 0.0, "lon": -77.0734255, "fusion_lat": 0.0, "rental_uris": {"ios": "https://dc.lft.to/lastmile_qr_scan", "android": "https://dc.lft.to/lastmile_qr_scan"}, "bike_id": "d0c90a26c47d1cd05fc1caaeab047e4a", "lat": 38.931908, "type": "electric_scooter", "name": "d0c90a26c47d1cd05fc1caaeab047e4a", "is_disabled": 0}, {"is_reserved": 0, "fusion_lon": 0.0, "lon": -77.01138266666666, "fusion_lat": 0.0, "rental_uris": {"ios": "https://dc.lft.to/lastmile_qr_scan", "android": "https://dc.lft.to/lastmile_qr_scan"}, "bike_id": "da799682916b82597ab67f20b4beff93", "lat": 38.900100333333334, "type": "electric_scooter", "name": "da799682916b82597ab67f20b4beff93", "is_disabled": 0}, {"is_reserved": 0, "fusion_lon": 0.0, "lon": -77.026999, "fusion_lat": 0.0, "rental_uris": {"ios": "https://dc.lft.to/lastmile_qr_scan", "android": "https://dc.lft.to/lastmile_qr_scan"}, "bike_id": "3674639d90b5251a62542c0577911311", "lat": 38.9068085, "type": "electric_scooter", "name": "3674639d90b5251a62542c0577911311", "is_disabled": 0}, {"is_reserved": 0, "fusion_lon": 0.0, "lon": -77.09660333333333, "fusion_lat": 0.0, "rental_uris": {"ios": "https://dc.lft.to/lastmile_qr_scan", "android": "https://dc.lft.to/lastmile_qr_scan"}, "bike_id": "a170dab4be07c19df13fbaea00870a64", "lat": 38.98845583333333, "type": "electric_bike", "name": "a170dab4be07c19df13fbaea00870a64", "is_disabled": 0}, {"is_reserved": 0, "fusion_lon": 0.0, "lon": -77.059151, "fusion_lat": 0.0, "rental_uris": {"ios": "https://dc.lft.to/lastmile_qr_scan", "android": "https://dc.lft.to/lastmile_qr_scan"}, "bike_id": "a441dddc75434c9284591b1036f377d3", "lat": 38.904492166666664, "type": "electric_scooter", "name": "a441dddc75434c9284591b1036f377d3", "is_disabled": 0}, {"is_reserved": 0, "fusion_lon": 0.0, "lon": -76.994882, "fusion_lat": 0.0, "rental_uris": {"ios": "https://dc.lft.to/lastmile_qr_scan", "android": "https://dc.lft.to/lastmile_qr_scan"}, "bike_id": "2a10e49b0e7d83c8f9c143b832c5088e", "lat": 38.901062333333336, "type": "electric_scooter", "name": "2a10e49b0e7d83c8f9c143b832c5088e", "is_disabled": 0}, {"is_reserved": 0, "fusion_lon": 0.0, "lon": -76.99612933333333, "fusion_lat": 0.0, "rental_uris": {"ios": "https://dc.lft.to/lastmile_qr_scan", "android": "https://dc.lft.to/lastmile_qr_scan"}, "bike_id": "764f2b8126bf71817365080995800e0f", "lat": 38.88495016666667, "type": "electric_scooter", "name": "764f2b8126bf71817365080995800e0f", "is_disabled": 0}, {"is_reserved": 0, "fusion_lon": 0.0, "lon": -76.98521933333333, "fusion_lat": 0.0, "rental_uris": {"ios": "https://dc.lft.to/lastmile_qr_scan", "android": "https://dc.lft.to/lastmile_qr_scan"}, "bike_id": "6b58f50927917e62492aa4a7e746f09b", "lat": 38.860064, "type": "electric_scooter", "name": "6b58f50927917e62492aa4a7e746f09b", "is_disabled": 0}, {"is_reserved": 0, "fusion_lon": 0.0, "lon": -77.03443883333334, "fusion_lat": 0.0, "rental_uris": {"ios": "https://dc.lft.to/lastmile_qr_scan", "android": "https://dc.lft.to/lastmile_qr_scan"}, "bike_id": "abb0f5af70e3103c4779d04bb2d3bb4f", "lat": 38.933217, "type": "electric_scooter", "name": "abb0f5af70e3103c4779d04bb2d3bb4f", "is_disabled": 0}, {"is_reserved": 0, "fusion_lon": 0.0, "lon": -77.0454085, "fusion_lat": 0.0, "rental_uris": {"ios": "https://dc.lft.to/lastmile_qr_scan", "android": "https://dc.lft.to/lastmile_qr_scan"}, "bike_id": "8665f2d71410aa52c5c3c6924646265a", "lat": 38.90242166666667, "type": "electric_scooter", "name": "8665f2d71410aa52c5c3c6924646265a", "is_disabled": 0}, {"is_reserved": 0, "fusion_lon": 0.0, "lon": -77.0612215, "fusion_lat": 0.0, "rental_uris": {"ios": "https://dc.lft.to/lastmile_qr_scan", "android": "https://dc.lft.to/lastmile_qr_scan"}, "bike_id": "d14b18db48f2f442791125b766a1bbc6", "lat": 38.904739166666666, "type": "electric_scooter", "name": "d14b18db48f2f442791125b766a1bbc6", "is_disabled": 0}, {"is_reserved": 0, "fusion_lon": 0.0, "lon": -77.16244, "fusion_lat": 0.0, "rental_uris": {"ios": "https://dc.lft.to/lastmile_qr_scan", "android": "https://dc.lft.to/lastmile_qr_scan"}, "bike_id": "f687dea5e1eafc4127129d51dd56120f", "lat": 38.886540833333335, "type": "electric_bike", "name": "f687dea5e1eafc4127129d51dd56120f", "is_disabled": 0}, {"is_reserved": 0, "fusion_lon": 0.0, "lon": -77.03035183333333, "fusion_lat": 0.0, "rental_uris": {"ios": "https://dc.lft.to/lastmile_qr_scan", "android": "https://dc.lft.to/lastmile_qr_scan"}, "bike_id": "ad627ebaa288d6f05a4bbe72223eb095", "lat": 38.90265566666667, "type": "electric_scooter", "name": "ad627ebaa288d6f05a4bbe72223eb095", "is_disabled": 0}, {"is_reserved": 0, "fusion_lon": 0.0, "lon": -76.97334083333334, "fusion_lat": 0.0, "rental_uris": {"ios": "https://dc.lft.to/lastmile_qr_scan", "android": "https://dc.lft.to/lastmile_qr_scan"}, "bike_id": "4a70ebc2c9b6dbfa3178d47c1b84c98f", "lat": 38.90407616666667, "type": "electric_scooter", "name": "4a70ebc2c9b6dbfa3178d47c1b84c98f", "is_disabled": 0}, {"is_reserved": 0, "fusion_lon": 0.0, "lon": -76.952561, "fusion_lat": 0.0, "rental_uris": {"ios": "https://dc.lft.to/lastmile_qr_scan", "android": "https://dc.lft.to/lastmile_qr_scan"}, "bike_id": "39d7a2fafee3e931b787777fee928880", "lat": 38.906911, "type": "electric_bike", "name": "39d7a2fafee3e931b787777fee928880", "is_disabled": 0}, {"is_reserved": 0, "fusion_lon": 0.0, "lon": -77.20140083333334, "fusion_lat": 0.0, "rental_uris": {"ios": "https://dc.lft.to/lastmile_qr_scan", "android": "https://dc.lft.to/lastmile_qr_scan"}, "bike_id": "c34bbf70ec228f3b69dbf1082d4a3281", "lat": 38.92217333333333, "type": "electric_bike", "name": "c34bbf70ec228f3b69dbf1082d4a3281", "is_disabled": 0}, {"is_reserved": 0, "fusion_lon": 0.0, "lon": -77.0231075, "fusion_lat": 0.0, "rental_uris": {"ios": "https://dc.lft.to/lastmile_qr_scan", "android": "https://dc.lft.to/lastmile_qr_scan"}, "bike_id": "1ff8946b849e126de13a4c2d0b2796dd", "lat": 38.9159335, "type": "electric_scooter", "name": "1ff8946b849e126de13a4c2d0b2796dd", "is_disabled": 0}, {"is_reserved": 0, "fusion_lon": 0.0, "lon": -77.0167445, "fusion_lat": 0.0, "rental_uris": {"ios": "https://dc.lft.to/lastmile_qr_scan", "android": "https://dc.lft.to/lastmile_qr_scan"}, "bike_id": "d07bfef00482ab6e79a9ec089a648413", "lat": 38.920442666666666, "type": "electric_scooter", "name": "d07bfef00482ab6e79a9ec089a648413", "is_disabled": 0}, {"is_reserved": 0, "fusion_lon": 0.0, "lon": -77.03289166666667, "fusion_lat": 0.0, "rental_uris": {"ios": "https://dc.lft.to/lastmile_qr_scan", "android": "https://dc.lft.to/lastmile_qr_scan"}, "bike_id": "a75acf911cb5f359023a79d4c183a89b", "lat": 38.922766833333334, "type": "electric_scooter", "name": "a75acf911cb5f359023a79d4c183a89b", "is_disabled": 0}, {"is_reserved": 0, "fusion_lon": 0.0, "lon": -77.0185755, "fusion_lat": 0.0, "rental_uris": {"ios": "https://dc.lft.to/lastmile_qr_scan", "android": "https://dc.lft.to/lastmile_qr_scan"}, "bike_id": "df3ecaed047b989fb954e8a3e546629e", "lat": 38.902689333333335, "type": "electric_scooter", "name": "df3ecaed047b989fb954e8a3e546629e", "is_disabled": 0}, {"is_reserved": 0, "fusion_lon": 0.0, "lon": -77.050051, "fusion_lat": 0.0, "rental_uris": {"ios": "https://dc.lft.to/lastmile_qr_scan", "android": "https://dc.lft.to/lastmile_qr_scan"}, "bike_id": "9b3a7b32852af88a22ee88a6b126728d", "lat": 38.9011145, "type": "electric_scooter", "name": "9b3a7b32852af88a22ee88a6b126728d", "is_disabled": 0}, {"is_reserved": 0, "fusion_lon": 0.0, "lon": -77.02532016666666, "fusion_lat": 0.0, "rental_uris": {"ios": "https://dc.lft.to/lastmile_qr_scan", "android": "https://dc.lft.to/lastmile_qr_scan"}, "bike_id": "5eaf32bce1ab40847ff64ad05c56a906", "lat": 38.918183166666665, "type": "electric_scooter", "name": "5eaf32bce1ab40847ff64ad05c56a906", "is_disabled": 0}, {"is_reserved": 0, "fusion_lon": 0.0, "lon": -77.0770065, "fusion_lat": 0.0, "rental_uris": {"ios": "https://dc.lft.to/lastmile_qr_scan", "android": "https://dc.lft.to/lastmile_qr_scan"}, "bike_id": "a5b88e6a038d7a73efb9363a04c8e8ad", "lat": 38.9438005, "type": "electric_scooter", "name": "a5b88e6a038d7a73efb9363a04c8e8ad", "is_disabled": 0}, {"is_reserved": 0, "fusion_lon": 0.0, "lon": -77.09959816666667, "fusion_lat": 0.0, "rental_uris": {"ios": "https://dc.lft.to/lastmile_qr_scan", "android": "https://dc.lft.to/lastmile_qr_scan"}, "bike_id": "ee99747a6b751157e95df399c17a1b2d", "lat": 38.8579185, "type": "electric_bike", "name": "ee99747a6b751157e95df399c17a1b2d", "is_disabled": 0}, {"is_reserved": 0, "fusion_lon": 0.0, "lon": -76.95838916666666, "fusion_lat": 0.0, "rental_uris": {"ios": "https://dc.lft.to/lastmile_qr_scan", "android": "https://dc.lft.to/lastmile_qr_scan"}, "bike_id": "1c1bdd179ca37daae10fbff514f1307b", "lat": 38.93046966666667, "type": "electric_bike", "name": "1c1bdd179ca37daae10fbff514f1307b", "is_disabled": 0}, {"is_reserved": 0, "fusion_lon": 0.0, "lon": -77.0223665, "fusion_lat": 0.0, "rental_uris": {"ios": "https://dc.lft.to/lastmile_qr_scan", "android": "https://dc.lft.to/lastmile_qr_scan"}, "bike_id": "14be45ac7ef44d94e4e24029d0d29923", "lat": 38.98109133333333, "type": "electric_scooter", "name": "14be45ac7ef44d94e4e24029d0d29923", "is_disabled": 0}, {"is_reserved": 0, "fusion_lon": 0.0, "lon": -77.006134, "fusion_lat": 0.0, "rental_uris": {"ios": "https://dc.lft.to/lastmile_qr_scan", "android": "https://dc.lft.to/lastmile_qr_scan"}, "bike_id": "24219a3a0ed4804fd6144626967f1cd4", "lat": 38.87177416666667, "type": "electric_scooter", "name": "24219a3a0ed4804fd6144626967f1cd4", "is_disabled": 0}, {"is_reserved": 0, "fusion_lon": 0.0, "lon": -77.03778716666666, "fusion_lat": 0.0, "rental_uris": {"ios": "https://dc.lft.to/lastmile_qr_scan", "android": "https://dc.lft.to/lastmile_qr_scan"}, "bike_id": "e51787c0761ce23b6841115d79099dc7", "lat": 38.9168415, "type": "electric_scooter", "name": "e51787c0761ce23b6841115d79099dc7", "is_disabled": 0}, {"is_reserved": 0, "fusion_lon": 0.0, "lon": -77.04529566666666, "fusion_lat": 0.0, "rental_uris": {"ios": "https://dc.lft.to/lastmile_qr_scan", "android": "https://dc.lft.to/lastmile_qr_scan"}, "bike_id": "9deadc767640f28d16d723b14317eb52", "lat": 39.03302033333333, "type": "electric_bike", "name": "9deadc767640f28d16d723b14317eb52", "is_disabled": 0}, {"is_reserved": 0, "fusion_lon": 0.0, "lon": -76.98763766666667, "fusion_lat": 0.0, "rental_uris": {"ios": "https://dc.lft.to/lastmile_qr_scan", "android": "https://dc.lft.to/lastmile_qr_scan"}, "bike_id": "d3e3b552274c1c6976f7a1415e40eea3", "lat": 38.90028733333333, "type": "electric_scooter", "name": "d3e3b552274c1c6976f7a1415e40eea3", "is_disabled": 0}, {"is_reserved": 0, "fusion_lon": 0.0, "lon": -77.024321, "fusion_lat": 0.0, "rental_uris": {"ios": "https://dc.lft.to/lastmile_qr_scan", "android": "https://dc.lft.to/lastmile_qr_scan"}, "bike_id": "a602090121a44c4b7d9b6407c8e64f96", "lat": 38.900982666666664, "type": "electric_scooter", "name": "a602090121a44c4b7d9b6407c8e64f96", "is_disabled": 0}, {"is_reserved": 0, "fusion_lon": 0.0, "lon": -77.03469083333333, "fusion_lat": 0.0, "rental_uris": {"ios": "https://dc.lft.to/lastmile_qr_scan", "android": "https://dc.lft.to/lastmile_qr_scan"}, "bike_id": "7793c882f0effb19e25d5849308535dd", "lat": 38.9182305, "type": "electric_scooter", "name": "7793c882f0effb19e25d5849308535dd", "is_disabled": 0}, {"is_reserved": 0, "fusion_lon": 0.0, "lon": -76.9723905, "fusion_lat": 0.0, "rental_uris": {"ios": "https://dc.lft.to/lastmile_qr_scan", "android": "https://dc.lft.to/lastmile_qr_scan"}, "bike_id": "1dfe96a11cca4db79f468c4ed4472178", "lat": 38.90421766666667, "type": "electric_bike", "name": "1dfe96a11cca4db79f468c4ed4472178", "is_disabled": 0}, {"is_reserved": 0, "fusion_lon": 0.0, "lon": -77.02866033333333, "fusion_lat": 0.0, "rental_uris": {"ios": "https://dc.lft.to/lastmile_qr_scan", "android": "https://dc.lft.to/lastmile_qr_scan"}, "bike_id": "a257139efaf75d6be9a64e44d2790c66", "lat": 38.8933735, "type": "electric_scooter", "name": "a257139efaf75d6be9a64e44d2790c66", "is_disabled": 0}, {"is_reserved": 0, "fusion_lon": 0.0, "lon": -77.03201633333333, "fusion_lat": 0.0, "rental_uris": {"ios": "https://dc.lft.to/lastmile_qr_scan", "android": "https://dc.lft.to/lastmile_qr_scan"}, "bike_id": "b2e5eaba855897608c6982d55607e695", "lat": 38.91353683333333, "type": "electric_scooter", "name": "b2e5eaba855897608c6982d55607e695", "is_disabled": 0}, {"is_reserved": 0, "fusion_lon": 0.0, "lon": -77.12662566666667, "fusion_lat": 0.0, "rental_uris": {"ios": "https://dc.lft.to/lastmile_qr_scan", "android": "https://dc.lft.to/lastmile_qr_scan"}, "bike_id": "63b6a049bccc3f1ab05c899aa623ad3e", "lat": 38.8150505, "type": "electric_bike", "name": "63b6a049bccc3f1ab05c899aa623ad3e", "is_disabled": 0}, {"is_reserved": 0, "fusion_lon": 0.0, "lon": -77.01430166666667, "fusion_lat": 0.0, "rental_uris": {"ios": "https://dc.lft.to/lastmile_qr_scan", "android": "https://dc.lft.to/lastmile_qr_scan"}, "bike_id": "6281ea8494e3077c76d19f109ed9622d", "lat": 38.97216683333333, "type": "electric_bike", "name": "6281ea8494e3077c76d19f109ed9622d", "is_disabled": 0}, {"is_reserved": 0, "fusion_lon": 0.0, "lon": -77.04994983333333, "fusion_lat": 0.0, "rental_uris": {"ios": "https://dc.lft.to/lastmile_qr_scan", "android": "https://dc.lft.to/lastmile_qr_scan"}, "bike_id": "b2c89cbb4085f88e6b00ae841b0893c3", "lat": 38.901124333333335, "type": "electric_scooter", "name": "b2c89cbb4085f88e6b00ae841b0893c3", "is_disabled": 0}, {"is_reserved": 0, "fusion_lon": 0.0, "lon": -76.992493, "fusion_lat": 0.0, "rental_uris": {"ios": "https://dc.lft.to/lastmile_qr_scan", "android": "https://dc.lft.to/lastmile_qr_scan"}, "bike_id": "4bac793b812612aff2a2b04f7dd38be5", "lat": 38.79465883333334, "type": "electric_bike", "name": "4bac793b812612aff2a2b04f7dd38be5", "is_disabled": 0}, {"is_reserved": 0, "fusion_lon": 0.0, "lon": -76.98388216666666, "fusion_lat": 0.0, "rental_uris": {"ios": "https://dc.lft.to/lastmile_qr_scan", "android": "https://dc.lft.to/lastmile_qr_scan"}, "bike_id": "6a7b2970d62d890161e3de395dc51d73", "lat": 38.86663883333333, "type": "electric_scooter", "name": "6a7b2970d62d890161e3de395dc51d73", "is_disabled": 0}, {"is_reserved": 0, "fusion_lon": 0.0, "lon": -77.04044483333334, "fusion_lat": 0.0, "rental_uris": {"ios": "https://dc.lft.to/lastmile_qr_scan", "android": "https://dc.lft.to/lastmile_qr_scan"}, "bike_id": "4b61291ba961bd82257c4e74f06774f7", "lat": 38.90890783333333, "type": "electric_scooter", "name": "4b61291ba961bd82257c4e74f06774f7", "is_disabled": 0}, {"is_reserved": 0, "fusion_lon": 0.0, "lon": -77.02403816666667, "fusion_lat": 0.0, "rental_uris": {"ios": "https://dc.lft.to/lastmile_qr_scan", "android": "https://dc.lft.to/lastmile_qr_scan"}, "bike_id": "e9d80cb6f07defe1a31b015823d6e393", "lat": 38.9085295, "type": "electric_scooter", "name": "e9d80cb6f07defe1a31b015823d6e393", "is_disabled": 0}, {"is_reserved": 0, "fusion_lon": 0.0, "lon": -77.01198883333333, "fusion_lat": 0.0, "rental_uris": {"ios": "https://dc.lft.to/lastmile_qr_scan", "android": "https://dc.lft.to/lastmile_qr_scan"}, "bike_id": "b4319c9a500166187694eaad20b03fb5", "lat": 38.91564733333333, "type": "electric_scooter", "name": "b4319c9a500166187694eaad20b03fb5", "is_disabled": 0}, {"is_reserved": 0, "fusion_lon": 0.0, "lon": -76.98545083333333, "fusion_lat": 0.0, "rental_uris": {"ios": "https://dc.lft.to/lastmile_qr_scan", "android": "https://dc.lft.to/lastmile_qr_scan"}, "bike_id": "68762aaae56912f524d1cbb9f42ed9b3", "lat": 38.86689666666667, "type": "electric_scooter", "name": "68762aaae56912f524d1cbb9f42ed9b3", "is_disabled": 0}, {"is_reserved": 0, "fusion_lon": 0.0, "lon": -77.077005, "fusion_lat": 0.0, "rental_uris": {"ios": "https://dc.lft.to/lastmile_qr_scan", "android": "https://dc.lft.to/lastmile_qr_scan"}, "bike_id": "6348fc7ab33e94fc21aed18ad77ebf3d", "lat": 38.943786333333335, "type": "electric_scooter", "name": "6348fc7ab33e94fc21aed18ad77ebf3d", "is_disabled": 0}, {"is_reserved": 0, "fusion_lon": 0.0, "lon": -77.0092745, "fusion_lat": 0.0, "rental_uris": {"ios": "https://dc.lft.to/lastmile_qr_scan", "android": "https://dc.lft.to/lastmile_qr_scan"}, "bike_id": "e47a37a4d1803e3b705a40300a2e977a", "lat": 38.8960165, "type": "electric_scooter", "name": "e47a37a4d1803e3b705a40300a2e977a", "is_disabled": 0}, {"is_reserved": 0, "fusion_lon": 0.0, "lon": -77.04696966666667, "fusion_lat": 0.0, "rental_uris": {"ios": "https://dc.lft.to/lastmile_qr_scan", "android": "https://dc.lft.to/lastmile_qr_scan"}, "bike_id": "1b175a06a4e18e90a081a0b34945fda1", "lat": 38.92098, "type": "electric_scooter", "name": "1b175a06a4e18e90a081a0b34945fda1", "is_disabled": 0}, {"is_reserved": 0, "fusion_lon": 0.0, "lon": -76.95167066666667, "fusion_lat": 0.0, "rental_uris": {"ios": "https://dc.lft.to/lastmile_qr_scan", "android": "https://dc.lft.to/lastmile_qr_scan"}, "bike_id": "631890ee26199d271e17b3723638a63b", "lat": 38.885183, "type": "electric_bike", "name": "631890ee26199d271e17b3723638a63b", "is_disabled": 0}, {"is_reserved": 0, "fusion_lon": 0.0, "lon": -76.99001833333334, "fusion_lat": 0.0, "rental_uris": {"ios": "https://dc.lft.to/lastmile_qr_scan", "android": "https://dc.lft.to/lastmile_qr_scan"}, "bike_id": "0cb755b4243e4a53d345fcb6d9c7521d", "lat": 38.8650705, "type": "electric_scooter", "name": "0cb755b4243e4a53d345fcb6d9c7521d", "is_disabled": 0}, {"is_reserved": 0, "fusion_lon": 0.0, "lon": -76.947705, "fusion_lat": 0.0, "rental_uris": {"ios": "https://dc.lft.to/lastmile_qr_scan", "android": "https://dc.lft.to/lastmile_qr_scan"}, "bike_id": "f387050ef6be04f8b26a94331a90067a", "lat": 38.896063, "type": "electric_scooter", "name": "f387050ef6be04f8b26a94331a90067a", "is_disabled": 0}, {"is_reserved": 0, "fusion_lon": 0.0, "lon": -77.03208533333333, "fusion_lat": 0.0, "rental_uris": {"ios": "https://dc.lft.to/lastmile_qr_scan", "android": "https://dc.lft.to/lastmile_qr_scan"}, "bike_id": "328d97625b0f53af9e9b35fe70cfd075", "lat": 38.892336, "type": "electric_scooter", "name": "328d97625b0f53af9e9b35fe70cfd075", "is_disabled": 0}, {"is_reserved": 0, "fusion_lon": 0.0, "lon": -77.02786783333333, "fusion_lat": 0.0, "rental_uris": {"ios": "https://dc.lft.to/lastmile_qr_scan", "android": "https://dc.lft.to/lastmile_qr_scan"}, "bike_id": "f874fc4992166577fdf66d951fcf778c", "lat": 38.91702866666667, "type": "electric_scooter", "name": "f874fc4992166577fdf66d951fcf778c", "is_disabled": 0}, {"is_reserved": 0, "fusion_lon": 0.0, "lon": -76.91095533333333, "fusion_lat": 0.0, "rental_uris": {"ios": "https://dc.lft.to/lastmile_qr_scan", "android": "https://dc.lft.to/lastmile_qr_scan"}, "bike_id": "57eb6e16ee97fcdfc5a0390ed12389c5", "lat": 38.88316233333333, "type": "electric_bike", "name": "57eb6e16ee97fcdfc5a0390ed12389c5", "is_disabled": 0}, {"is_reserved": 0, "fusion_lon": 0.0, "lon": -77.03172466666666, "fusion_lat": 0.0, "rental_uris": {"ios": "https://dc.lft.to/lastmile_qr_scan", "android": "https://dc.lft.to/lastmile_qr_scan"}, "bike_id": "c771c6345915500c6bf0231c562e7cc7", "lat": 38.91417116666667, "type": "electric_scooter", "name": "c771c6345915500c6bf0231c562e7cc7", "is_disabled": 0}, {"is_reserved": 0, "fusion_lon": 0.0, "lon": -77.04163733333333, "fusion_lat": 0.0, "rental_uris": {"ios": "https://dc.lft.to/lastmile_qr_scan", "android": "https://dc.lft.to/lastmile_qr_scan"}, "bike_id": "ccacf814f0cddd7c6a84af3e05601336", "lat": 38.8923365, "type": "electric_scooter", "name": "ccacf814f0cddd7c6a84af3e05601336", "is_disabled": 0}, {"is_reserved": 0, "fusion_lon": 0.0, "lon": -77.02794133333333, "fusion_lat": 0.0, "rental_uris": {"ios": "https://dc.lft.to/lastmile_qr_scan", "android": "https://dc.lft.to/lastmile_qr_scan"}, "bike_id": "e0ce0c0b243ada4db69803f95ff6c0e0", "lat": 38.93080033333333, "type": "electric_scooter", "name": "e0ce0c0b243ada4db69803f95ff6c0e0", "is_disabled": 0}, {"is_reserved": 0, "fusion_lon": 0.0, "lon": -77.03885066666666, "fusion_lat": 0.0, "rental_uris": {"ios": "https://dc.lft.to/lastmile_qr_scan", "android": "https://dc.lft.to/lastmile_qr_scan"}, "bike_id": "86bfc594ed451ded4f661aaa402605e8", "lat": 38.9032715, "type": "electric_scooter", "name": "86bfc594ed451ded4f661aaa402605e8", "is_disabled": 0}, {"is_reserved": 0, "fusion_lon": 0.0, "lon": -77.01226066666666, "fusion_lat": 0.0, "rental_uris": {"ios": "https://dc.lft.to/lastmile_qr_scan", "android": "https://dc.lft.to/lastmile_qr_scan"}, "bike_id": "04d9ef10cc9b52585dabce3d998f115b", "lat": 38.91411466666667, "type": "electric_scooter", "name": "04d9ef10cc9b52585dabce3d998f115b", "is_disabled": 0}, {"is_reserved": 0, "fusion_lon": 0.0, "lon": -76.93340716666667, "fusion_lat": 0.0, "rental_uris": {"ios": "https://dc.lft.to/lastmile_qr_scan", "android": "https://dc.lft.to/lastmile_qr_scan"}, "bike_id": "2b5221b5e83ec7ca84d8ce1472f29e60", "lat": 38.908659, "type": "electric_scooter", "name": "2b5221b5e83ec7ca84d8ce1472f29e60", "is_disabled": 0}, {"is_reserved": 0, "fusion_lon": 0.0, "lon": -77.0540575, "fusion_lat": 0.0, "rental_uris": {"ios": "https://dc.lft.to/lastmile_qr_scan", "android": "https://dc.lft.to/lastmile_qr_scan"}, "bike_id": "dc1ffb96a80eb635993c9704f6463e63", "lat": 38.9011995, "type": "electric_scooter", "name": "dc1ffb96a80eb635993c9704f6463e63", "is_disabled": 0}, {"is_reserved": 0, "fusion_lon": 0.0, "lon": -77.03271783333334, "fusion_lat": 0.0, "rental_uris": {"ios": "https://dc.lft.to/lastmile_qr_scan", "android": "https://dc.lft.to/lastmile_qr_scan"}, "bike_id": "960378ea1f25411fef39684024e7980a", "lat": 38.932468, "type": "electric_scooter", "name": "960378ea1f25411fef39684024e7980a", "is_disabled": 0}, {"is_reserved": 0, "fusion_lon": 0.0, "lon": -77.02280716666667, "fusion_lat": 0.0, "rental_uris": {"ios": "https://dc.lft.to/lastmile_qr_scan", "android": "https://dc.lft.to/lastmile_qr_scan"}, "bike_id": "018c06cc94bcf04da56cfe791c2c0cd6", "lat": 38.90278566666667, "type": "electric_scooter", "name": "018c06cc94bcf04da56cfe791c2c0cd6", "is_disabled": 0}, {"is_reserved": 0, "fusion_lon": 0.0, "lon": -77.07193783333334, "fusion_lat": 0.0, "rental_uris": {"ios": "https://dc.lft.to/lastmile_qr_scan", "android": "https://dc.lft.to/lastmile_qr_scan"}, "bike_id": "3dd1aa2804fa78a516ee2b19a07a1f97", "lat": 38.906772333333336, "type": "electric_scooter", "name": "3dd1aa2804fa78a516ee2b19a07a1f97", "is_disabled": 0}, {"is_reserved": 0, "fusion_lon": 0.0, "lon": -77.03112366666667, "fusion_lat": 0.0, "rental_uris": {"ios": "https://dc.lft.to/lastmile_qr_scan", "android": "https://dc.lft.to/lastmile_qr_scan"}, "bike_id": "c249b46b5feffe1d1176ebea326a6626", "lat": 38.90455466666667, "type": "electric_scooter", "name": "c249b46b5feffe1d1176ebea326a6626", "is_disabled": 0}, {"is_reserved": 0, "fusion_lon": 0.0, "lon": -77.05122, "fusion_lat": 0.0, "rental_uris": {"ios": "https://dc.lft.to/lastmile_qr_scan", "android": "https://dc.lft.to/lastmile_qr_scan"}, "bike_id": "9e79d3e30c36e8a91cd75ad96acd79f7", "lat": 38.89679016666667, "type": "electric_scooter", "name": "9e79d3e30c36e8a91cd75ad96acd79f7", "is_disabled": 0}, {"is_reserved": 0, "fusion_lon": 0.0, "lon": -76.99906733333333, "fusion_lat": 0.0, "rental_uris": {"ios": "https://dc.lft.to/lastmile_qr_scan", "android": "https://dc.lft.to/lastmile_qr_scan"}, "bike_id": "55af2663ac3057c2e88af682508afcad", "lat": 38.9427275, "type": "electric_bike", "name": "55af2663ac3057c2e88af682508afcad", "is_disabled": 0}, {"is_reserved": 0, "fusion_lon": 0.0, "lon": -77.00140083333334, "fusion_lat": 0.0, "rental_uris": {"ios": "https://dc.lft.to/lastmile_qr_scan", "android": "https://dc.lft.to/lastmile_qr_scan"}, "bike_id": "cd421b983be661c7365fa23373ca2f37", "lat": 38.878831, "type": "electric_scooter", "name": "cd421b983be661c7365fa23373ca2f37", "is_disabled": 0}, {"is_reserved": 0, "fusion_lon": 0.0, "lon": -76.98616183333333, "fusion_lat": 0.0, "rental_uris": {"ios": "https://dc.lft.to/lastmile_qr_scan", "android": "https://dc.lft.to/lastmile_qr_scan"}, "bike_id": "d88bbdfa90d6d185a41aceb1ef9014b9", "lat": 38.903469666666666, "type": "electric_scooter", "name": "d88bbdfa90d6d185a41aceb1ef9014b9", "is_disabled": 0}, {"is_reserved": 0, "fusion_lon": 0.0, "lon": -77.01780466666666, "fusion_lat": 0.0, "rental_uris": {"ios": "https://dc.lft.to/lastmile_qr_scan", "android": "https://dc.lft.to/lastmile_qr_scan"}, "bike_id": "3a8fd4d1b992ad989a8ed3936d966264", "lat": 38.87763016666667, "type": "electric_scooter", "name": "3a8fd4d1b992ad989a8ed3936d966264", "is_disabled": 0}, {"is_reserved": 0, "fusion_lon": 0.0, "lon": -76.98603933333334, "fusion_lat": 0.0, "rental_uris": {"ios": "https://dc.lft.to/lastmile_qr_scan", "android": "https://dc.lft.to/lastmile_qr_scan"}, "bike_id": "8d47c5bbb99c6e1fc01261ade6bcc85b", "lat": 38.860089, "type": "electric_scooter", "name": "8d47c5bbb99c6e1fc01261ade6bcc85b", "is_disabled": 0}, {"is_reserved": 0, "fusion_lon": 0.0, "lon": -77.03929033333333, "fusion_lat": 0.0, "rental_uris": {"ios": "https://dc.lft.to/lastmile_qr_scan", "android": "https://dc.lft.to/lastmile_qr_scan"}, "bike_id": "84fa9fae820eb1ef408f65d72dfc143b", "lat": 38.901444166666664, "type": "electric_scooter", "name": "84fa9fae820eb1ef408f65d72dfc143b", "is_disabled": 0}, {"is_reserved": 0, "fusion_lon": 0.0, "lon": -77.0397915, "fusion_lat": 0.0, "rental_uris": {"ios": "https://dc.lft.to/lastmile_qr_scan", "android": "https://dc.lft.to/lastmile_qr_scan"}, "bike_id": "63817722b26a22e65fda01ae7250c643", "lat": 38.906169166666665, "type": "electric_scooter", "name": "63817722b26a22e65fda01ae7250c643", "is_disabled": 0}, {"is_reserved": 0, "fusion_lon": 0.0, "lon": -77.04989, "fusion_lat": 0.0, "rental_uris": {"ios": "https://dc.lft.to/lastmile_qr_scan", "android": "https://dc.lft.to/lastmile_qr_scan"}, "bike_id": "4b3e619ef91db884b715fa2ce249d62f", "lat": 38.892266666666664, "type": "electric_scooter", "name": "4b3e619ef91db884b715fa2ce249d62f", "is_disabled": 0}, {"is_reserved": 0, "fusion_lon": 0.0, "lon": -77.066142, "fusion_lat": 0.0, "rental_uris": {"ios": "https://dc.lft.to/lastmile_qr_scan", "android": "https://dc.lft.to/lastmile_qr_scan"}, "bike_id": "562b1e65049bcb96f2b27d1026825233", "lat": 38.905187833333336, "type": "electric_scooter", "name": "562b1e65049bcb96f2b27d1026825233", "is_disabled": 0}, {"is_reserved": 0, "fusion_lon": 0.0, "lon": -77.0238265, "fusion_lat": 0.0, "rental_uris": {"ios": "https://dc.lft.to/lastmile_qr_scan", "android": "https://dc.lft.to/lastmile_qr_scan"}, "bike_id": "f74e620a54c2ced6cf598051a55c7c23", "lat": 38.892292166666664, "type": "electric_scooter", "name": "f74e620a54c2ced6cf598051a55c7c23", "is_disabled": 0}, {"is_reserved": 0, "fusion_lon": 0.0, "lon": -77.03125466666667, "fusion_lat": 0.0, "rental_uris": {"ios": "https://dc.lft.to/lastmile_qr_scan", "android": "https://dc.lft.to/lastmile_qr_scan"}, "bike_id": "39f137641f3d8bec9cd10d1108cc8283", "lat": 38.90716583333333, "type": "electric_scooter", "name": "39f137641f3d8bec9cd10d1108cc8283", "is_disabled": 0}, {"is_reserved": 0, "fusion_lon": 0.0, "lon": -77.04175416666666, "fusion_lat": 0.0, "rental_uris": {"ios": "https://dc.lft.to/lastmile_qr_scan", "android": "https://dc.lft.to/lastmile_qr_scan"}, "bike_id": "1d1283f18d62a78d6b7e9a955d739d51", "lat": 38.9181615, "type": "electric_scooter", "name": "1d1283f18d62a78d6b7e9a955d739d51", "is_disabled": 0}, {"is_reserved": 0, "fusion_lon": 0.0, "lon": -77.028154, "fusion_lat": 0.0, "rental_uris": {"ios": "https://dc.lft.to/lastmile_qr_scan", "android": "https://dc.lft.to/lastmile_qr_scan"}, "bike_id": "509b31b7301b6eaefaf798a7d1b19043", "lat": 38.898538333333335, "type": "electric_scooter", "name": "509b31b7301b6eaefaf798a7d1b19043", "is_disabled": 0}, {"is_reserved": 0, "fusion_lon": 0.0, "lon": -77.043779, "fusion_lat": 0.0, "rental_uris": {"ios": "https://dc.lft.to/lastmile_qr_scan", "android": "https://dc.lft.to/lastmile_qr_scan"}, "bike_id": "57b473c49192898fc73bb4e33e46ee25", "lat": 38.892231833333334, "type": "electric_scooter", "name": "57b473c49192898fc73bb4e33e46ee25", "is_disabled": 0}, {"is_reserved": 0, "fusion_lon": 0.0, "lon": -77.002264, "fusion_lat": 0.0, "rental_uris": {"ios": "https://dc.lft.to/lastmile_qr_scan", "android": "https://dc.lft.to/lastmile_qr_scan"}, "bike_id": "6da98ab2b5cfd3a09990bd9c927ecb8c", "lat": 38.9250955, "type": "electric_scooter", "name": "6da98ab2b5cfd3a09990bd9c927ecb8c", "is_disabled": 0}, {"is_reserved": 0, "fusion_lon": 0.0, "lon": -77.05302933333333, "fusion_lat": 0.0, "rental_uris": {"ios": "https://dc.lft.to/lastmile_qr_scan", "android": "https://dc.lft.to/lastmile_qr_scan"}, "bike_id": "594fa7d0dc676ddb83c2154dca844ce2", "lat": 38.905388333333335, "type": "electric_scooter", "name": "594fa7d0dc676ddb83c2154dca844ce2", "is_disabled": 0}, {"is_reserved": 0, "fusion_lon": 0.0, "lon": -77.02233216666667, "fusion_lat": 0.0, "rental_uris": {"ios": "https://dc.lft.to/lastmile_qr_scan", "android": "https://dc.lft.to/lastmile_qr_scan"}, "bike_id": "82402762672da2e0e241e9f9e5087363", "lat": 38.892197333333336, "type": "electric_scooter", "name": "82402762672da2e0e241e9f9e5087363", "is_disabled": 0}, {"is_reserved": 0, "fusion_lon": 0.0, "lon": -76.94641633333333, "fusion_lat": 0.0, "rental_uris": {"ios": "https://dc.lft.to/lastmile_qr_scan", "android": "https://dc.lft.to/lastmile_qr_scan"}, "bike_id": "1b399f1cf42001f1617c9c713234c994", "lat": 38.89858683333333, "type": "electric_scooter", "name": "1b399f1cf42001f1617c9c713234c994", "is_disabled": 0}, {"is_reserved": 0, "fusion_lon": 0.0, "lon": -76.97168466666666, "fusion_lat": 0.0, "rental_uris": {"ios": "https://dc.lft.to/lastmile_qr_scan", "android": "https://dc.lft.to/lastmile_qr_scan"}, "bike_id": "86a9bcaa08247e8e4cf3ad974a829b3f", "lat": 38.861375833333334, "type": "electric_scooter", "name": "86a9bcaa08247e8e4cf3ad974a829b3f", "is_disabled": 0}, {"is_reserved": 0, "fusion_lon": 0.0, "lon": -77.05733716666667, "fusion_lat": 0.0, "rental_uris": {"ios": "https://dc.lft.to/lastmile_qr_scan", "android": "https://dc.lft.to/lastmile_qr_scan"}, "bike_id": "9790c71a22127021166e18c3e161c0bb", "lat": 38.933712166666666, "type": "electric_scooter", "name": "9790c71a22127021166e18c3e161c0bb", "is_disabled": 0}, {"is_reserved": 0, "fusion_lon": 0.0, "lon": -77.02393716666667, "fusion_lat": 0.0, "rental_uris": {"ios": "https://dc.lft.to/lastmile_qr_scan", "android": "https://dc.lft.to/lastmile_qr_scan"}, "bike_id": "992f67a02dec9d85da6924b5bda858b9", "lat": 38.9197045, "type": "electric_scooter", "name": "992f67a02dec9d85da6924b5bda858b9", "is_disabled": 0}, {"is_reserved": 0, "fusion_lon": 0.0, "lon": -77.07246616666667, "fusion_lat": 0.0, "rental_uris": {"ios": "https://dc.lft.to/lastmile_qr_scan", "android": "https://dc.lft.to/lastmile_qr_scan"}, "bike_id": "6a97d3d52446b197f48614eb32042794", "lat": 38.93947583333333, "type": "electric_scooter", "name": "6a97d3d52446b197f48614eb32042794", "is_disabled": 0}, {"is_reserved": 0, "fusion_lon": 0.0, "lon": -77.125282, "fusion_lat": 0.0, "rental_uris": {"ios": "https://dc.lft.to/lastmile_qr_scan", "android": "https://dc.lft.to/lastmile_qr_scan"}, "bike_id": "3f2d84c20bc12ac349e2171a636e788f", "lat": 39.056322, "type": "electric_bike", "name": "3f2d84c20bc12ac349e2171a636e788f", "is_disabled": 0}, {"is_reserved": 0, "fusion_lon": 0.0, "lon": -77.042031, "fusion_lat": 0.0, "rental_uris": {"ios": "https://dc.lft.to/lastmile_qr_scan", "android": "https://dc.lft.to/lastmile_qr_scan"}, "bike_id": "89fee0eb4453e1b9bc11fd2e0f1a24b8", "lat": 38.920914, "type": "electric_scooter", "name": "89fee0eb4453e1b9bc11fd2e0f1a24b8", "is_disabled": 0}, {"is_reserved": 0, "fusion_lon": 0.0, "lon": -77.0262575, "fusion_lat": 0.0, "rental_uris": {"ios": "https://dc.lft.to/lastmile_qr_scan", "android": "https://dc.lft.to/lastmile_qr_scan"}, "bike_id": "9d82efe0c50df81823919349a6e800ab", "lat": 38.93331966666667, "type": "electric_scooter", "name": "9d82efe0c50df81823919349a6e800ab", "is_disabled": 0}, {"is_reserved": 0, "fusion_lon": 0.0, "lon": -77.0217, "fusion_lat": 0.0, "rental_uris": {"ios": "https://dc.lft.to/lastmile_qr_scan", "android": "https://dc.lft.to/lastmile_qr_scan"}, "bike_id": "6afe5038a5c3538ac6517951b1336be2", "lat": 38.9056975, "type": "electric_scooter", "name": "6afe5038a5c3538ac6517951b1336be2", "is_disabled": 0}, {"is_reserved": 0, "fusion_lon": 0.0, "lon": -77.04694216666667, "fusion_lat": 0.0, "rental_uris": {"ios": "https://dc.lft.to/lastmile_qr_scan", "android": "https://dc.lft.to/lastmile_qr_scan"}, "bike_id": "80611fa6fa9f3669314e997920588aaf", "lat": 38.892235166666666, "type": "electric_scooter", "name": "80611fa6fa9f3669314e997920588aaf", "is_disabled": 0}, {"is_reserved": 0, "fusion_lon": 0.0, "lon": -77.01144516666666, "fusion_lat": 0.0, "rental_uris": {"ios": "https://dc.lft.to/lastmile_qr_scan", "android": "https://dc.lft.to/lastmile_qr_scan"}, "bike_id": "43c734343356fcca92720fbd9fb6fab4", "lat": 38.900167333333336, "type": "electric_scooter", "name": "43c734343356fcca92720fbd9fb6fab4", "is_disabled": 0}, {"is_reserved": 0, "fusion_lon": 0.0, "lon": -77.04631266666667, "fusion_lat": 0.0, "rental_uris": {"ios": "https://dc.lft.to/lastmile_qr_scan", "android": "https://dc.lft.to/lastmile_qr_scan"}, "bike_id": "bee3b38722e4a438640614cf46b6bcab", "lat": 38.91805816666667, "type": "electric_scooter", "name": "bee3b38722e4a438640614cf46b6bcab", "is_disabled": 0}, {"is_reserved": 0, "fusion_lon": 0.0, "lon": -76.94258716666667, "fusion_lat": 0.0, "rental_uris": {"ios": "https://dc.lft.to/lastmile_qr_scan", "android": "https://dc.lft.to/lastmile_qr_scan"}, "bike_id": "b4a8507b7c606a2dac7d8505275f9fb6", "lat": 38.89844433333333, "type": "electric_scooter", "name": "b4a8507b7c606a2dac7d8505275f9fb6", "is_disabled": 0}, {"is_reserved": 0, "fusion_lon": 0.0, "lon": -77.00321633333333, "fusion_lat": 0.0, "rental_uris": {"ios": "https://dc.lft.to/lastmile_qr_scan", "android": "https://dc.lft.to/lastmile_qr_scan"}, "bike_id": "ed3887c54b1db2ba8afe3eeb2878caa8", "lat": 38.9194965, "type": "electric_scooter", "name": "ed3887c54b1db2ba8afe3eeb2878caa8", "is_disabled": 0}, {"is_reserved": 0, "fusion_lon": 0.0, "lon": -77.03410866666667, "fusion_lat": 0.0, "rental_uris": {"ios": "https://dc.lft.to/lastmile_qr_scan", "android": "https://dc.lft.to/lastmile_qr_scan"}, "bike_id": "028b7dbb8a1ec97b3aa956bc5107f447", "lat": 38.92862366666667, "type": "electric_scooter", "name": "028b7dbb8a1ec97b3aa956bc5107f447", "is_disabled": 0}, {"is_reserved": 0, "fusion_lon": 0.0, "lon": -77.03279, "fusion_lat": 0.0, "rental_uris": {"ios": "https://dc.lft.to/lastmile_qr_scan", "android": "https://dc.lft.to/lastmile_qr_scan"}, "bike_id": "bd5f2902a3f1a9f3171813c37658cc68", "lat": 38.928442833333335, "type": "electric_scooter", "name": "bd5f2902a3f1a9f3171813c37658cc68", "is_disabled": 0}, {"is_reserved": 0, "fusion_lon": 0.0, "lon": -77.069851, "fusion_lat": 0.0, "rental_uris": {"ios": "https://dc.lft.to/lastmile_qr_scan", "android": "https://dc.lft.to/lastmile_qr_scan"}, "bike_id": "ebde6f1cc6d50401cc9eb5197a5c8ba9", "lat": 38.95526383333333, "type": "electric_bike", "name": "ebde6f1cc6d50401cc9eb5197a5c8ba9", "is_disabled": 0}, {"is_reserved": 0, "fusion_lon": 0.0, "lon": -77.00885883333333, "fusion_lat": 0.0, "rental_uris": {"ios": "https://dc.lft.to/lastmile_qr_scan", "android": "https://dc.lft.to/lastmile_qr_scan"}, "bike_id": "588e71f9adbfcb397a5b1bb75deb7573", "lat": 38.876745166666666, "type": "electric_scooter", "name": "588e71f9adbfcb397a5b1bb75deb7573", "is_disabled": 0}, {"is_reserved": 0, "fusion_lon": 0.0, "lon": -76.92680266666666, "fusion_lat": 0.0, "rental_uris": {"ios": "https://dc.lft.to/lastmile_qr_scan", "android": "https://dc.lft.to/lastmile_qr_scan"}, "bike_id": "19eca2c5c326eae6a5615824fc06e210", "lat": 38.88846316666667, "type": "electric_scooter", "name": "19eca2c5c326eae6a5615824fc06e210", "is_disabled": 0}, {"is_reserved": 0, "fusion_lon": 0.0, "lon": -76.9914675, "fusion_lat": 0.0, "rental_uris": {"ios": "https://dc.lft.to/lastmile_qr_scan", "android": "https://dc.lft.to/lastmile_qr_scan"}, "bike_id": "80e6328d7d70012a4556b8846ad1d3e7", "lat": 38.88531666666667, "type": "electric_scooter", "name": "80e6328d7d70012a4556b8846ad1d3e7", "is_disabled": 0}, {"is_reserved": 0, "fusion_lon": 0.0, "lon": -77.000677, "fusion_lat": 0.0, "rental_uris": {"ios": "https://dc.lft.to/lastmile_qr_scan", "android": "https://dc.lft.to/lastmile_qr_scan"}, "bike_id": "97be53ef0b6b435b9f769cc32bd88989", "lat": 38.88674183333333, "type": "electric_scooter", "name": "97be53ef0b6b435b9f769cc32bd88989", "is_disabled": 0}, {"is_reserved": 0, "fusion_lon": 0.0, "lon": -76.9698205, "fusion_lat": 0.0, "rental_uris": {"ios": "https://dc.lft.to/lastmile_qr_scan", "android": "https://dc.lft.to/lastmile_qr_scan"}, "bike_id": "49cd207c198e6b7c11c4388399618854", "lat": 38.878660833333335, "type": "electric_scooter", "name": "49cd207c198e6b7c11c4388399618854", "is_disabled": 0}, {"is_reserved": 0, "fusion_lon": 0.0, "lon": -77.03424383333333, "fusion_lat": 0.0, "rental_uris": {"ios": "https://dc.lft.to/lastmile_qr_scan", "android": "https://dc.lft.to/lastmile_qr_scan"}, "bike_id": "493fa55eff0d7f9fb488eeb3f75b58d8", "lat": 38.91914333333333, "type": "electric_scooter", "name": "493fa55eff0d7f9fb488eeb3f75b58d8", "is_disabled": 0}, {"is_reserved": 0, "fusion_lon": 0.0, "lon": -77.0319225, "fusion_lat": 0.0, "rental_uris": {"ios": "https://dc.lft.to/lastmile_qr_scan", "android": "https://dc.lft.to/lastmile_qr_scan"}, "bike_id": "ea1542bd2fd7408ddaa59f5569028430", "lat": 38.900286, "type": "electric_scooter", "name": "ea1542bd2fd7408ddaa59f5569028430", "is_disabled": 0}, {"is_reserved": 0, "fusion_lon": 0.0, "lon": -77.033268, "fusion_lat": 0.0, "rental_uris": {"ios": "https://dc.lft.to/lastmile_qr_scan", "android": "https://dc.lft.to/lastmile_qr_scan"}, "bike_id": "445a8a9c2bd9261f74f34288f51ac85b", "lat": 38.89841766666667, "type": "electric_scooter", "name": "445a8a9c2bd9261f74f34288f51ac85b", "is_disabled": 0}, {"is_reserved": 0, "fusion_lon": 0.0, "lon": -77.00716866666667, "fusion_lat": 0.0, "rental_uris": {"ios": "https://dc.lft.to/lastmile_qr_scan", "android": "https://dc.lft.to/lastmile_qr_scan"}, "bike_id": "4a8465d179d5970ee07c7ec1e9cf2b69", "lat": 38.88491783333333, "type": "electric_scooter", "name": "4a8465d179d5970ee07c7ec1e9cf2b69", "is_disabled": 0}, {"is_reserved": 0, "fusion_lon": 0.0, "lon": -77.04414016666666, "fusion_lat": 0.0, "rental_uris": {"ios": "https://dc.lft.to/lastmile_qr_scan", "android": "https://dc.lft.to/lastmile_qr_scan"},