{"data": {"bikes": [{"rental_uris": {"android": "https://dc.lft.to/lastmile_qr_scan", "ios": "https://dc.lft.to/lastmile_qr_scan"}, "lon": -77.02599266666667, "name": "cea9488609f35603b3fa6ba4ff7e50d3", "fusion_lon": 0.0, "bike_id": "cea9488609f35603b3fa6ba4ff7e50d3", "is_reserved": 0, "type": "electric_scooter", "lat": 38.927969, "fusion_lat": 0.0, "is_disabled": 0}, {"rental_uris": {"android": "https://dc.lft.to/lastmile_qr_scan", "ios": "https://dc.lft.to/lastmile_qr_scan"}, "lon": -77.023611, "name": "e7a934a9c469926a95eb81ef834570d5", "fusion_lon": 0.0, "bike_id": "e7a934a9c469926a95eb81ef834570d5", "is_reserved": 0, "type": "electric_scooter", "lat": 38.919505, "fusion_lat": 0.0, "is_disabled": 0}, {"rental_uris": {"android": "https://dc.lft.to/lastmile_qr_scan", "ios": "https://dc.lft.to/lastmile_qr_scan"}, "lon": -77.01322966666666, "name": "c94c600a33df0ecf5f4b8125b5055083", "fusion_lon": 0.0, "bike_id": "c94c600a33df0ecf5f4b8125b5055083", "is_reserved": 0, "type": "electric_scooter", "lat": 38.871571333333335, "fusion_lat": 0.0, "is_disabled": 0}, {"rental_uris": {"android": "https://dc.lft.to/lastmile_qr_scan", "ios": "https://dc.lft.to/lastmile_qr_scan"}, "lon": -76.96759183333333, "name": "edaedab7d212e46957e58832dcaa4e71", "fusion_lon": 0.0, "bike_id": "edaedab7d212e46957e58832dcaa4e71", "is_reserved": 0, "type": "electric_bike", "lat": 38.957594, "fusion_lat": 0.0, "is_disabled": 0}, {"rental_uris": {"android": "https://dc.lft.to/lastmile_qr_scan", "ios": "https://dc.lft.to/lastmile_qr_scan"}, "lon": -77.035203, "name": "dcc6012779795f40fba6be964ee6165d", "fusion_lon": 0.0, "bike_id": "dcc6012779795f40fba6be964ee6165d", "is_reserved": 0, "type": "electric_scooter", "lat": 38.92239333333333, "fusion_lat": 0.0, "is_disabled": 0}, {"rental_uris": {"android": "https://dc.lft.to/lastmile_qr_scan", "ios": "https://dc.lft.to/lastmile_qr_scan"}, "lon": -76.92921933333334, "name": "fa46662ae3307c7d65254d05d0298e69", "fusion_lon": 0.0, "bike_id": "fa46662ae3307c7d65254d05d0298e69", "is_reserved": 0, "type": "electric_scooter", "lat": 38.8920625, "fusion_lat": 0.0, "is_disabled": 0}, {"rental_uris": {"android": "https://dc.lft.to/lastmile_qr_scan", "ios": "https://dc.lft.to/lastmile_qr_scan"}, "lon": -77.017063, "name": "2fd34aa01cd099e011e75452b2a353b7", "fusion_lon": 0.0, "bike_id": "2fd34aa01cd099e011e75452b2a353b7", "is_reserved": 0, "type": "electric_scooter", "lat": 38.872669, "fusion_lat": 0.0, "is_disabled": 0}, {"rental_uris": {"android": "https://dc.lft.to/lastmile_qr_scan", "ios": "https://dc.lft.to/lastmile_qr_scan"}, "lon": -77.05521016666667, "name": "323dc620fe18074cd7f7b8c893a3e331", "fusion_lon": 0.0, "bike_id": "323dc620fe18074cd7f7b8c893a3e331", "is_reserved": 0, "type": "electric_scooter", "lat": 38.897316333333336, "fusion_lat": 0.0, "is_disabled": 0}, {"rental_uris": {"android": "https://dc.lft.to/lastmile_qr_scan", "ios": "https://dc.lft.to/lastmile_qr_scan"}, "lon": -77.00191033333333, "name": "5d0f5cc7575d0a8983e8c5aca851764a", "fusion_lon": 0.0, "bike_id": "5d0f5cc7575d0a8983e8c5aca851764a", "is_reserved": 0, "type": "electric_scooter", "lat": 38.903772833333335, "fusion_lat": 0.0, "is_disabled": 0}, {"rental_uris": {"android": "https://dc.lft.to/lastmile_qr_scan", "ios": "https://dc.lft.to/lastmile_qr_scan"}, "lon": -77.01908, "name": "a13995ee904a001801dc69e855ad8d61", "fusion_lon": 0.0, "bike_id": "a13995ee904a001801dc69e855ad8d61", "is_reserved": 0, "type": "electric_scooter", "lat": 38.9237075, "fusion_lat": 0.0, "is_disabled": 0}, {"rental_uris": {"android": "https://dc.lft.to/lastmile_qr_scan", "ios": "https://dc.lft.to/lastmile_qr_scan"}, "lon": -77.039752, "name": "0ecc1bf6790627a5d2ef540b278a4713", "fusion_lon": 0.0, "bike_id": "0ecc1bf6790627a5d2ef540b278a4713", "is_reserved": 0, "type": "electric_scooter", "lat": 38.89223833333333, "fusion_lat": 0.0, "is_disabled": 0}, {"rental_uris": {"android": "https://dc.lft.to/lastmile_qr_scan", "ios": "https://dc.lft.to/lastmile_qr_scan"}, "lon": -77.11251466666667, "name": "1f4301673eea7c9fcfeb86b7372550be", "fusion_lon": 0.0, "bike_id": "1f4301673eea7c9fcfeb86b7372550be", "is_reserved": 0, "type": "electric_bike", "lat": 38.808627333333334, "fusion_lat": 0.0, "is_disabled": 0}, {"rental_uris": {"android": "https://dc.lft.to/lastmile_qr_scan", "ios": "https://dc.lft.to/lastmile_qr_scan"}, "lon": -77.0123025, "name": "61d8699a6a7dc7b093d832a569fc9d88", "fusion_lon": 0.0, "bike_id": "61d8699a6a7dc7b093d832a569fc9d88", "is_reserved": 0, "type": "electric_bike", "lat": 38.89822, "fusion_lat": 0.0, "is_disabled": 0}, {"rental_uris": {"android": "https://dc.lft.to/lastmile_qr_scan", "ios": "https://dc.lft.to/lastmile_qr_scan"}, "lon": -77.02558866666666, "name": "3043cd46876b48fcd689babe0d80ffa4", "fusion_lon": 0.0, "bike_id": "3043cd46876b48fcd689babe0d80ffa4", "is_reserved": 0, "type": "electric_scooter", "lat": 38.941679, "fusion_lat": 0.0, "is_disabled": 0}, {"rental_uris": {"android": "https://dc.lft.to/lastmile_qr_scan", "ios": "https://dc.lft.to/lastmile_qr_scan"}, "lon": -77.0449695, "name": "d6ffbc42c11fd9d8b4312c6b1c741337", "fusion_lon": 0.0, "bike_id": "d6ffbc42c11fd9d8b4312c6b1c741337", "is_reserved": 0, "type": "electric_scooter", "lat": 38.90783166666667, "fusion_lat": 0.0, "is_disabled": 0}, {"rental_uris": {"android": "https://dc.lft.to/lastmile_qr_scan", "ios": "https://dc.lft.to/lastmile_qr_scan"}, "lon": -77.02323583333333, "name": "9b0092fb6456877facae7406e5b98585", "fusion_lon": 0.0, "bike_id": "9b0092fb6456877facae7406e5b98585", "is_reserved": 0, "type": "electric_scooter", "lat": 38.91696816666666, "fusion_lat": 0.0, "is_disabled": 0}, {"rental_uris": {"android": "https://dc.lft.to/lastmile_qr_scan", "ios": "https://dc.lft.to/lastmile_qr_scan"}, "lon": -77.0358845, "name": "9cf726c4f368af517fa3e8ceed37ebbd", "fusion_lon": 0.0, "bike_id": "9cf726c4f368af517fa3e8ceed37ebbd", "is_reserved": 0, "type": "electric_scooter", "lat": 38.9169745, "fusion_lat": 0.0, "is_disabled": 0}, {"rental_uris": {"android": "https://dc.lft.to/lastmile_qr_scan", "ios": "https://dc.lft.to/lastmile_qr_scan"}, "lon": -77.05861533333334, "name": "a438eed103c7069d9e2a361edb9f8806", "fusion_lon": 0.0, "bike_id": "a438eed103c7069d9e2a361edb9f8806", "is_reserved": 0, "type": "electric_scooter", "lat": 38.935999833333334, "fusion_lat": 0.0, "is_disabled": 0}, {"rental_uris": {"android": "https://dc.lft.to/lastmile_qr_scan", "ios": "https://dc.lft.to/lastmile_qr_scan"}, "lon": -77.01691516666666, "name": "04eac6081be5f808bccf32bed6e284d5", "fusion_lon": 0.0, "bike_id": "04eac6081be5f808bccf32bed6e284d5", "is_reserved": 0, "type": "electric_scooter", "lat": 38.904643166666666, "fusion_lat": 0.0, "is_disabled": 0}, {"rental_uris": {"android": "https://dc.lft.to/lastmile_qr_scan", "ios": "https://dc.lft.to/lastmile_qr_scan"}, "lon": -77.03656933333333, "name": "9df7a5b0f4c0d752acec7f8810395341", "fusion_lon": 0.0, "bike_id": "9df7a5b0f4c0d752acec7f8810395341", "is_reserved": 0, "type": "electric_scooter", "lat": 38.93017916666667, "fusion_lat": 0.0, "is_disabled": 0}, {"rental_uris": {"android": "https://dc.lft.to/lastmile_qr_scan", "ios": "https://dc.lft.to/lastmile_qr_scan"}, "lon": -77.0477625, "name": "18c1a365ef9d822f6fc1b1eaebb57dba", "fusion_lon": 0.0, "bike_id": "18c1a365ef9d822f6fc1b1eaebb57dba", "is_reserved": 0, "type": "electric_bike", "lat": 38.90509633333333, "fusion_lat": 0.0, "is_disabled": 0}, {"rental_uris": {"android": "https://dc.lft.to/lastmile_qr_scan", "ios": "https://dc.lft.to/lastmile_qr_scan"}, "lon": -77.017072, "name": "8a4b5315da26c35bf132b7c563d0b98b", "fusion_lon": 0.0, "bike_id": "8a4b5315da26c35bf132b7c563d0b98b", "is_reserved": 0, "type": "electric_scooter", "lat": 38.899831166666665, "fusion_lat": 0.0, "is_disabled": 0}, {"rental_uris": {"android": "https://dc.lft.to/lastmile_qr_scan", "ios": "https://dc.lft.to/lastmile_qr_scan"}, "lon": -77.02188183333334, "name": "8e8418007ffb08d2c18e5b1f02d5c429", "fusion_lon": 0.0, "bike_id": "8e8418007ffb08d2c18e5b1f02d5c429", "is_reserved": 0, "type": "electric_scooter", "lat": 38.919917, "fusion_lat": 0.0, "is_disabled": 0}, {"rental_uris": {"android": "https://dc.lft.to/lastmile_qr_scan", "ios": "https://dc.lft.to/lastmile_qr_scan"}, "lon": -77.02541366666667, "name": "62d6a2b7ce308e25482a712872de3fb9", "fusion_lon": 0.0, "bike_id": "62d6a2b7ce308e25482a712872de3fb9", "is_reserved": 0, "type": "electric_bike", "lat": 38.98918116666667, "fusion_lat": 0.0, "is_disabled": 0}, {"rental_uris": {"android": "https://dc.lft.to/lastmile_qr_scan", "ios": "https://dc.lft.to/lastmile_qr_scan"}, "lon": -77.03659983333333, "name": "eec791ddaceb89d6c36b4de2ad1c70e3", "fusion_lon": 0.0, "bike_id": "eec791ddaceb89d6c36b4de2ad1c70e3", "is_reserved": 0, "type": "electric_scooter", "lat": 38.9228615, "fusion_lat": 0.0, "is_disabled": 0}, {"rental_uris": {"android": "https://dc.lft.to/lastmile_qr_scan", "ios": "https://dc.lft.to/lastmile_qr_scan"}, "lon": -77.01793883333333, "name": "ce7733f10b2ff6b2abdc9e62057dfd72", "fusion_lon": 0.0, "bike_id": "ce7733f10b2ff6b2abdc9e62057dfd72", "is_reserved": 0, "type": "electric_scooter", "lat": 38.919459833333335, "fusion_lat": 0.0, "is_disabled": 0}, {"rental_uris": {"android": "https://dc.lft.to/lastmile_qr_scan", "ios": "https://dc.lft.to/lastmile_qr_scan"}, "lon": -77.02710333333333, "name": "a7d21aaaf1340db2306c33b27ce3e9a1", "fusion_lon": 0.0, "bike_id": "a7d21aaaf1340db2306c33b27ce3e9a1", "is_reserved": 0, "type": "electric_scooter", "lat": 38.9182275, "fusion_lat": 0.0, "is_disabled": 0}, {"rental_uris": {"android": "https://dc.lft.to/lastmile_qr_scan", "ios": "https://dc.lft.to/lastmile_qr_scan"}, "lon": -77.05707483333333, "name": "449a3ba9cd03074f2c69cfc9abd2db20", "fusion_lon": 0.0, "bike_id": "449a3ba9cd03074f2c69cfc9abd2db20", "is_reserved": 0, "type": "electric_scooter", "lat": 38.933468, "fusion_lat": 0.0, "is_disabled": 0}, {"rental_uris": {"android": "https://dc.lft.to/lastmile_qr_scan", "ios": "https://dc.lft.to/lastmile_qr_scan"}, "lon": -77.025109, "name": "4d59053bf2cb7122f12c0d4f4b5134d7", "fusion_lon": 0.0, "bike_id": "4d59053bf2cb7122f12c0d4f4b5134d7", "is_reserved": 0, "type": "electric_scooter", "lat": 38.920863833333335, "fusion_lat": 0.0, "is_disabled": 0}, {"rental_uris": {"android": "https://dc.lft.to/lastmile_qr_scan", "ios": "https://dc.lft.to/lastmile_qr_scan"}, "lon": -77.03833666666667, "name": "d4dc0301e029199f452801da4f9547a6", "fusion_lon": 0.0, "bike_id": "d4dc0301e029199f452801da4f9547a6", "is_reserved": 0, "type": "electric_scooter", "lat": 38.911921, "fusion_lat": 0.0, "is_disabled": 0}, {"rental_uris": {"android": "https://dc.lft.to/lastmile_qr_scan", "ios": "https://dc.lft.to/lastmile_qr_scan"}, "lon": -77.01626066666667, "name": "23a83f38b4b270da27e2bdf4a664abc5", "fusion_lon": 0.0, "bike_id": "23a83f38b4b270da27e2bdf4a664abc5", "is_reserved": 0, "type": "electric_scooter", "lat": 38.90599016666667, "fusion_lat": 0.0, "is_disabled": 0}, {"rental_uris": {"android": "https://dc.lft.to/lastmile_qr_scan", "ios": "https://dc.lft.to/lastmile_qr_scan"}, "lon": -77.1186535, "name": "20c8939e2f3c993718e1ef377af2ca76", "fusion_lon": 0.0, "bike_id": "20c8939e2f3c993718e1ef377af2ca76", "is_reserved": 0, "type": "electric_bike", "lat": 38.89849666666667, "fusion_lat": 0.0, "is_disabled": 0}, {"rental_uris": {"android": "https://dc.lft.to/lastmile_qr_scan", "ios": "https://dc.lft.to/lastmile_qr_scan"}, "lon": -77.0381675, "name": "c700e9466289368694798dba8aa89b50", "fusion_lon": 0.0, "bike_id": "c700e9466289368694798dba8aa89b50", "is_reserved": 0, "type": "electric_scooter", "lat": 38.91700316666667, "fusion_lat": 0.0, "is_disabled": 0}, {"rental_uris": {"android": "https://dc.lft.to/lastmile_qr_scan", "ios": "https://dc.lft.to/lastmile_qr_scan"}, "lon": -77.026113, "name": "09212c9924612340096807c8ab481a6c", "fusion_lon": 0.0, "bike_id": "09212c9924612340096807c8ab481a6c", "is_reserved": 0, "type": "electric_scooter", "lat": 38.88354283333334, "fusion_lat": 0.0, "is_disabled": 0}, {"rental_uris": {"android": "https://dc.lft.to/lastmile_qr_scan", "ios": "https://dc.lft.to/lastmile_qr_scan"}, "lon": -77.07769266666666, "name": "e229c817bf48a0897d883a063965d35e", "fusion_lon": 0.0, "bike_id": "e229c817bf48a0897d883a063965d35e", "is_reserved": 0, "type": "electric_scooter", "lat": 38.95466116666667, "fusion_lat": 0.0, "is_disabled": 0}, {"rental_uris": {"android": "https://dc.lft.to/lastmile_qr_scan", "ios": "https://dc.lft.to/lastmile_qr_scan"}, "lon": -76.93365716666666, "name": "a5489d098eaaa219d6bfc82ffee2fd15", "fusion_lon": 0.0, "bike_id": "a5489d098eaaa219d6bfc82ffee2fd15", "is_reserved": 0, "type": "electric_scooter", "lat": 38.899146333333334, "fusion_lat": 0.0, "is_disabled": 0}, {"rental_uris": {"android": "https://dc.lft.to/lastmile_qr_scan", "ios": "https://dc.lft.to/lastmile_qr_scan"}, "lon": -77.02963383333334, "name": "8cd24f11c5300993979aebb8a9dc23e8", "fusion_lon": 0.0, "bike_id": "8cd24f11c5300993979aebb8a9dc23e8", "is_reserved": 0, "type": "electric_scooter", "lat": 38.92928633333333, "fusion_lat": 0.0, "is_disabled": 0}, {"rental_uris": {"android": "https://dc.lft.to/lastmile_qr_scan", "ios": "https://dc.lft.to/lastmile_qr_scan"}, "lon": -77.03660633333334, "name": "7068cfc632c92de982058bacfba94be0", "fusion_lon": 0.0, "bike_id": "7068cfc632c92de982058bacfba94be0", "is_reserved": 0, "type": "electric_scooter", "lat": 38.9224015, "fusion_lat": 0.0, "is_disabled": 0}, {"rental_uris": {"android": "https://dc.lft.to/lastmile_qr_scan", "ios": "https://dc.lft.to/lastmile_qr_scan"}, "lon": -76.99977733333333, "name": "cd4d11572f23b763877460cd647ef85d", "fusion_lon": 0.0, "bike_id": "cd4d11572f23b763877460cd647ef85d", "is_reserved": 0, "type": "electric_scooter", "lat": 38.87496683333333, "fusion_lat": 0.0, "is_disabled": 0}, {"rental_uris": {"android": "https://dc.lft.to/lastmile_qr_scan", "ios": "https://dc.lft.to/lastmile_qr_scan"}, "lon": -77.04716983333333, "name": "7ebc508bebb5fe8deffbaf88f986b1c7", "fusion_lon": 0.0, "bike_id": "7ebc508bebb5fe8deffbaf88f986b1c7", "is_reserved": 0, "type": "electric_scooter", "lat": 38.91324083333333, "fusion_lat": 0.0, "is_disabled": 0}, {"rental_uris": {"android": "https://dc.lft.to/lastmile_qr_scan", "ios": "https://dc.lft.to/lastmile_qr_scan"}, "lon": -77.029643, "name": "4878c6bccd70f0e0fadfed4423fc3042", "fusion_lon": 0.0, "bike_id": "4878c6bccd70f0e0fadfed4423fc3042", "is_reserved": 0, "type": "electric_scooter", "lat": 38.917168833333335, "fusion_lat": 0.0, "is_disabled": 0}, {"rental_uris": {"android": "https://dc.lft.to/lastmile_qr_scan", "ios": "https://dc.lft.to/lastmile_qr_scan"}, "lon": -77.04235166666666, "name": "6d8c52e660b3506e05bb6e423d323675", "fusion_lon": 0.0, "bike_id": "6d8c52e660b3506e05bb6e423d323675", "is_reserved": 0, "type": "electric_scooter", "lat": 38.905778833333336, "fusion_lat": 0.0, "is_disabled": 0}, {"rental_uris": {"android": "https://dc.lft.to/lastmile_qr_scan", "ios": "https://dc.lft.to/lastmile_qr_scan"}, "lon": -77.02034033333334, "name": "6547379d1b3a96a54c72756e8355a1cf", "fusion_lon": 0.0, "bike_id": "6547379d1b3a96a54c72756e8355a1cf", "is_reserved": 0, "type": "electric_scooter", "lat": 38.89447666666667, "fusion_lat": 0.0, "is_disabled": 0}, {"rental_uris": {"android": "https://dc.lft.to/lastmile_qr_scan", "ios": "https://dc.lft.to/lastmile_qr_scan"}, "lon": -77.04955683333333, "name": "97082b7fd264edc00b058fbf03e24607", "fusion_lon": 0.0, "bike_id": "97082b7fd264edc00b058fbf03e24607", "is_reserved": 0, "type": "electric_bike", "lat": 39.0109335, "fusion_lat": 0.0, "is_disabled": 0}, {"rental_uris": {"android": "https://dc.lft.to/lastmile_qr_scan", "ios": "https://dc.lft.to/lastmile_qr_scan"}, "lon": -77.01957483333334, "name": "de3e2bad08b5a0caabd987821de4dae1", "fusion_lon": 0.0, "bike_id": "de3e2bad08b5a0caabd987821de4dae1", "is_reserved": 0, "type": "electric_scooter", "lat": 38.92327366666667, "fusion_lat": 0.0, "is_disabled": 0}, {"rental_uris": {"android": "https://dc.lft.to/lastmile_qr_scan", "ios": "https://dc.lft.to/lastmile_qr_scan"}, "lon": -77.033375, "name": "2e40f0107928de9b5bdea6888917cc29", "fusion_lon": 0.0, "bike_id": "2e40f0107928de9b5bdea6888917cc29", "is_reserved": 0, "type": "electric_scooter", "lat": 38.91707566666667, "fusion_lat": 0.0, "is_disabled": 0}, {"rental_uris": {"android": "https://dc.lft.to/lastmile_qr_scan", "ios": "https://dc.lft.to/lastmile_qr_scan"}, "lon": -76.99661016666667, "name": "0a6842592b0b96bdc2bb00b5d81b4d07", "fusion_lon": 0.0, "bike_id": "0a6842592b0b96bdc2bb00b5d81b4d07", "is_reserved": 0, "type": "electric_scooter", "lat": 38.92441083333333, "fusion_lat": 0.0, "is_disabled": 0}, {"rental_uris": {"android": "https://dc.lft.to/lastmile_qr_scan", "ios": "https://dc.lft.to/lastmile_qr_scan"}, "lon": -76.9874615, "name": "5883abbc7b912064253675c4fe5166cc", "fusion_lon": 0.0, "bike_id": "5883abbc7b912064253675c4fe5166cc", "is_reserved": 0, "type": "electric_bike", "lat": 38.857838666666666, "fusion_lat": 0.0, "is_disabled": 0}, {"rental_uris": {"android": "https://dc.lft.to/lastmile_qr_scan", "ios": "https://dc.lft.to/lastmile_qr_scan"}, "lon": -76.91064116666666, "name": "c69ec2f60e5b487369f5d19c57c62e18", "fusion_lon": 0.0, "bike_id": "c69ec2f60e5b487369f5d19c57c62e18", "is_reserved": 0, "type": "electric_bike", "lat": 39.01075, "fusion_lat": 0.0, "is_disabled": 0}, {"rental_uris": {"android": "https://dc.lft.to/lastmile_qr_scan", "ios": "https://dc.lft.to/lastmile_qr_scan"}, "lon": -77.032496, "name": "caaf5714d059e89b59898ea3c410060d", "fusion_lon": 0.0, "bike_id": "caaf5714d059e89b59898ea3c410060d", "is_reserved": 0, "type": "electric_scooter", "lat": 38.92997583333333, "fusion_lat": 0.0, "is_disabled": 0}, {"rental_uris": {"android": "https://dc.lft.to/lastmile_qr_scan", "ios": "https://dc.lft.to/lastmile_qr_scan"}, "lon": -77.06381966666666, "name": "87ef97e0c951667b6393350b2e30a862", "fusion_lon": 0.0, "bike_id": "87ef97e0c951667b6393350b2e30a862", "is_reserved": 0, "type": "electric_scooter", "lat": 38.905280166666664, "fusion_lat": 0.0, "is_disabled": 0}, {"rental_uris": {"android": "https://dc.lft.to/lastmile_qr_scan", "ios": "https://dc.lft.to/lastmile_qr_scan"}, "lon": -77.002198, "name": "056d66312d71d54d614b0a3aee32ebbb", "fusion_lon": 0.0, "bike_id": "056d66312d71d54d614b0a3aee32ebbb", "is_reserved": 0, "type": "electric_scooter", "lat": 38.88501933333333, "fusion_lat": 0.0, "is_disabled": 0}, {"rental_uris": {"android": "https://dc.lft.to/lastmile_qr_scan", "ios": "https://dc.lft.to/lastmile_qr_scan"}, "lon": -77.0159075, "name": "86daed8987fda59fa95a45c270398c96", "fusion_lon": 0.0, "bike_id": "86daed8987fda59fa95a45c270398c96", "is_reserved": 0, "type": "electric_scooter", "lat": 38.89777216666667, "fusion_lat": 0.0, "is_disabled": 0}, {"rental_uris": {"android": "https://dc.lft.to/lastmile_qr_scan", "ios": "https://dc.lft.to/lastmile_qr_scan"}, "lon": -76.98509083333333, "name": "59639907f90879654661f212ef388657", "fusion_lon": 0.0, "bike_id": "59639907f90879654661f212ef388657", "is_reserved": 0, "type": "electric_scooter", "lat": 38.880816833333334, "fusion_lat": 0.0, "is_disabled": 0}, {"rental_uris": {"android": "https://dc.lft.to/lastmile_qr_scan", "ios": "https://dc.lft.to/lastmile_qr_scan"}, "lon": -76.97102866666667, "name": "0426c42c64b7ac5cba44d3a84c90c9d0", "fusion_lon": 0.0, "bike_id": "0426c42c64b7ac5cba44d3a84c90c9d0", "is_reserved": 0, "type": "electric_bike", "lat": 38.95028583333333, "fusion_lat": 0.0, "is_disabled": 0}, {"rental_uris": {"android": "https://dc.lft.to/lastmile_qr_scan", "ios": "https://dc.lft.to/lastmile_qr_scan"}, "lon": -77.01939566666667, "name": "2f7fe003469f2d590186dcec5194f9e0", "fusion_lon": 0.0, "bike_id": "2f7fe003469f2d590186dcec5194f9e0", "is_reserved": 0, "type": "electric_scooter", "lat": 38.92427166666667, "fusion_lat": 0.0, "is_disabled": 0}, {"rental_uris": {"android": "https://dc.lft.to/lastmile_qr_scan", "ios": "https://dc.lft.to/lastmile_qr_scan"}, "lon": -77.0076545, "name": "06dc2e4382cef45ce31f97d05fb2101a", "fusion_lon": 0.0, "bike_id": "06dc2e4382cef45ce31f97d05fb2101a", "is_reserved": 0, "type": "electric_scooter", "lat": 38.9005495, "fusion_lat": 0.0, "is_disabled": 0}, {"rental_uris": {"android": "https://dc.lft.to/lastmile_qr_scan", "ios": "https://dc.lft.to/lastmile_qr_scan"}, "lon": -77.04661333333334, "name": "ebdd5e82fc0ca03920de3c8fff1028c6", "fusion_lon": 0.0, "bike_id": "ebdd5e82fc0ca03920de3c8fff1028c6", "is_reserved": 0, "type": "electric_bike", "lat": 38.894753333333334, "fusion_lat": 0.0, "is_disabled": 0}, {"rental_uris": {"android": "https://dc.lft.to/lastmile_qr_scan", "ios": "https://dc.lft.to/lastmile_qr_scan"}, "lon": -77.0312775, "name": "aed71d7dfd8b3e1d286d587c396d1f00", "fusion_lon": 0.0, "bike_id": "aed71d7dfd8b3e1d286d587c396d1f00", "is_reserved": 0, "type": "electric_scooter", "lat": 38.920223, "fusion_lat": 0.0, "is_disabled": 0}, {"rental_uris": {"android": "https://dc.lft.to/lastmile_qr_scan", "ios": "https://dc.lft.to/lastmile_qr_scan"}, "lon": -77.021776, "name": "98c3c9c463b467bc7688190fce2c3a23", "fusion_lon": 0.0, "bike_id": "98c3c9c463b467bc7688190fce2c3a23", "is_reserved": 0, "type": "electric_scooter", "lat": 38.92001, "fusion_lat": 0.0, "is_disabled": 0}, {"rental_uris": {"android": "https://dc.lft.to/lastmile_qr_scan", "ios": "https://dc.lft.to/lastmile_qr_scan"}, "lon": -76.99840966666666, "name": "ab22f3fa07c21061f99e8f59b9ccd3d4", "fusion_lon": 0.0, "bike_id": "ab22f3fa07c21061f99e8f59b9ccd3d4", "is_reserved": 0, "type": "electric_scooter", "lat": 38.90036516666667, "fusion_lat": 0.0, "is_disabled": 0}, {"rental_uris": {"android": "https://dc.lft.to/lastmile_qr_scan", "ios": "https://dc.lft.to/lastmile_qr_scan"}, "lon": -76.99058533333333, "name": "687a4dd3bfb2d2b036a5ad1838876466", "fusion_lon": 0.0, "bike_id": "687a4dd3bfb2d2b036a5ad1838876466", "is_reserved": 0, "type": "electric_scooter", "lat": 38.863766, "fusion_lat": 0.0, "is_disabled": 0}, {"rental_uris": {"android": "https://dc.lft.to/lastmile_qr_scan", "ios": "https://dc.lft.to/lastmile_qr_scan"}, "lon": -77.03516233333333, "name": "0ffe46e738f870f1faf5a2ee01b0989f", "fusion_lon": 0.0, "bike_id": "0ffe46e738f870f1faf5a2ee01b0989f", "is_reserved": 0, "type": "electric_scooter", "lat": 38.91864366666667, "fusion_lat": 0.0, "is_disabled": 0}, {"rental_uris": {"android": "https://dc.lft.to/lastmile_qr_scan", "ios": "https://dc.lft.to/lastmile_qr_scan"}, "lon": -77.03785466666666, "name": "777ee20bc8c3a2f11a7f889db743de6b", "fusion_lon": 0.0, "bike_id": "777ee20bc8c3a2f11a7f889db743de6b", "is_reserved": 0, "type": "electric_bike", "lat": 38.99520066666667, "fusion_lat": 0.0, "is_disabled": 0}, {"rental_uris": {"android": "https://dc.lft.to/lastmile_qr_scan", "ios": "https://dc.lft.to/lastmile_qr_scan"}, "lon": -77.03899983333334, "name": "211920499337d08833e86eadf977ea28", "fusion_lon": 0.0, "bike_id": "211920499337d08833e86eadf977ea28", "is_reserved": 0, "type": "electric_scooter", "lat": 38.906358, "fusion_lat": 0.0, "is_disabled": 0}, {"rental_uris": {"android": "https://dc.lft.to/lastmile_qr_scan", "ios": "https://dc.lft.to/lastmile_qr_scan"}, "lon": -76.97700583333334, "name": "596eb2e62693f0f773bbb87d1060cbe0", "fusion_lon": 0.0, "bike_id": "596eb2e62693f0f773bbb87d1060cbe0", "is_reserved": 0, "type": "electric_scooter", "lat": 38.89943516666666, "fusion_lat": 0.0, "is_disabled": 0}, {"rental_uris": {"android": "https://dc.lft.to/lastmile_qr_scan", "ios": "https://dc.lft.to/lastmile_qr_scan"}, "lon": -77.02166733333334, "name": "aedc85aa3677fafd078c56b644daf878", "fusion_lon": 0.0, "bike_id": "aedc85aa3677fafd078c56b644daf878", "is_reserved": 0, "type": "electric_scooter", "lat": 38.91417933333334, "fusion_lat": 0.0, "is_disabled": 0}, {"rental_uris": {"android": "https://dc.lft.to/lastmile_qr_scan", "ios": "https://dc.lft.to/lastmile_qr_scan"}, "lon": -76.9841055, "name": "2505f4d3152b9de66d9445fd41dd65b5", "fusion_lon": 0.0, "bike_id": "2505f4d3152b9de66d9445fd41dd65b5", "is_reserved": 0, "type": "electric_scooter", "lat": 38.90583066666667, "fusion_lat": 0.0, "is_disabled": 0}, {"rental_uris": {"android": "https://dc.lft.to/lastmile_qr_scan", "ios": "https://dc.lft.to/lastmile_qr_scan"}, "lon": -77.0149075, "name": "9a273dfc45c8ee81b1703007cac814dc", "fusion_lon": 0.0, "bike_id": "9a273dfc45c8ee81b1703007cac814dc", "is_reserved": 0, "type": "electric_scooter", "lat": 38.95763933333333, "fusion_lat": 0.0, "is_disabled": 0}, {"rental_uris": {"android": "https://dc.lft.to/lastmile_qr_scan", "ios": "https://dc.lft.to/lastmile_qr_scan"}, "lon": -76.8684695, "name": "1b1ab68c1a49c7158082c888fd54dfc5", "fusion_lon": 0.0, "bike_id": "1b1ab68c1a49c7158082c888fd54dfc5", "is_reserved": 0, "type": "electric_bike", "lat": 38.893971, "fusion_lat": 0.0, "is_disabled": 0}, {"rental_uris": {"android": "https://dc.lft.to/lastmile_qr_scan", "ios": "https://dc.lft.to/lastmile_qr_scan"}, "lon": -77.01100583333333, "name": "78baac2e575f805e9caf021ea4b48582", "fusion_lon": 0.0, "bike_id": "78baac2e575f805e9caf021ea4b48582", "is_reserved": 0, "type": "electric_scooter", "lat": 38.8947595, "fusion_lat": 0.0, "is_disabled": 0}, {"rental_uris": {"android": "https://dc.lft.to/lastmile_qr_scan", "ios": "https://dc.lft.to/lastmile_qr_scan"}, "lon": -77.03049766666666, "name": "37ca3df9c8b107bd41f76dd0017db567", "fusion_lon": 0.0, "bike_id": "37ca3df9c8b107bd41f76dd0017db567", "is_reserved": 0, "type": "electric_scooter", "lat": 38.92483583333333, "fusion_lat": 0.0, "is_disabled": 0}, {"rental_uris": {"android": "https://dc.lft.to/lastmile_qr_scan", "ios": "https://dc.lft.to/lastmile_qr_scan"}, "lon": -77.04187583333334, "name": "a951c4a9b0bf53e34b722f4e2d5aa71e", "fusion_lon": 0.0, "bike_id": "a951c4a9b0bf53e34b722f4e2d5aa71e", "is_reserved": 0, "type": "electric_scooter", "lat": 38.9204855, "fusion_lat": 0.0, "is_disabled": 0}, {"rental_uris": {"android": "https://dc.lft.to/lastmile_qr_scan", "ios": "https://dc.lft.to/lastmile_qr_scan"}, "lon": -77.0385855, "name": "b8321c3f7d87194225a64c92ea11be8c", "fusion_lon": 0.0, "bike_id": "b8321c3f7d87194225a64c92ea11be8c", "is_reserved": 0, "type": "electric_scooter", "lat": 38.9175455, "fusion_lat": 0.0, "is_disabled": 0}, {"rental_uris": {"android": "https://dc.lft.to/lastmile_qr_scan", "ios": "https://dc.lft.to/lastmile_qr_scan"}, "lon": -77.03800083333333, "name": "d4ae7057f64c46f3c829d227a30a2581", "fusion_lon": 0.0, "bike_id": "d4ae7057f64c46f3c829d227a30a2581", "is_reserved": 0, "type": "electric_scooter", "lat": 38.902678333333334, "fusion_lat": 0.0, "is_disabled": 0}, {"rental_uris": {"android": "https://dc.lft.to/lastmile_qr_scan", "ios": "https://dc.lft.to/lastmile_qr_scan"}, "lon": -76.9790395, "name": "56be40d94e57596bb25cfa1e0e9cee5d", "fusion_lon": 0.0, "bike_id": "56be40d94e57596bb25cfa1e0e9cee5d", "is_reserved": 0, "type": "electric_scooter", "lat": 38.8666355, "fusion_lat": 0.0, "is_disabled": 0}, {"rental_uris": {"android": "https://dc.lft.to/lastmile_qr_scan", "ios": "https://dc.lft.to/lastmile_qr_scan"}, "lon": -77.0319995, "name": "f726d1b60988aa2eac568f65fc10fefc", "fusion_lon": 0.0, "bike_id": "f726d1b60988aa2eac568f65fc10fefc", "is_reserved": 0, "type": "electric_scooter", "lat": 38.91815716666667, "fusion_lat": 0.0, "is_disabled": 0}, {"rental_uris": {"android": "https://dc.lft.to/lastmile_qr_scan", "ios": "https://dc.lft.to/lastmile_qr_scan"}, "lon": -76.93479216666667, "name": "2a7b0349ec74a92d747293ce27e7a5b9", "fusion_lon": 0.0, "bike_id": "2a7b0349ec74a92d747293ce27e7a5b9", "is_reserved": 0, "type": "electric_scooter", "lat": 38.89503066666666, "fusion_lat": 0.0, "is_disabled": 0}, {"rental_uris": {"android": "https://dc.lft.to/lastmile_qr_scan", "ios": "https://dc.lft.to/lastmile_qr_scan"}, "lon": -77.04080233333333, "name": "d5e9f586ebae3e89ae90bdf5c9fd0dda", "fusion_lon": 0.0, "bike_id": "d5e9f586ebae3e89ae90bdf5c9fd0dda", "is_reserved": 0, "type": "electric_scooter", "lat": 38.892262, "fusion_lat": 0.0, "is_disabled": 0}, {"rental_uris": {"android": "https://dc.lft.to/lastmile_qr_scan", "ios": "https://dc.lft.to/lastmile_qr_scan"}, "lon": -76.9359535, "name": "d4f94c8405e54d07ea43a61d0017b5c9", "fusion_lon": 0.0, "bike_id": "d4f94c8405e54d07ea43a61d0017b5c9", "is_reserved": 0, "type": "electric_scooter", "lat": 38.89365816666667, "fusion_lat": 0.0, "is_disabled": 0}, {"rental_uris": {"android": "https://dc.lft.to/lastmile_qr_scan", "ios": "https://dc.lft.to/lastmile_qr_scan"}, "lon": -76.9881515, "name": "e4c5e53f435c5490de84ac7279744784", "fusion_lon": 0.0, "bike_id": "e4c5e53f435c5490de84ac7279744784", "is_reserved": 0, "type": "electric_bike", "lat": 38.803849, "fusion_lat": 0.0, "is_disabled": 0}, {"rental_uris": {"android": "https://dc.lft.to/lastmile_qr_scan", "ios": "https://dc.lft.to/lastmile_qr_scan"}, "lon": -77.0366595, "name": "1a83cb8957285c0f45ef551fe0369b08", "fusion_lon": 0.0, "bike_id": "1a83cb8957285c0f45ef551fe0369b08", "is_reserved": 0, "type": "electric_scooter", "lat": 38.92242016666667, "fusion_lat": 0.0, "is_disabled": 0}, {"rental_uris": {"android": "https://dc.lft.to/lastmile_qr_scan", "ios": "https://dc.lft.to/lastmile_qr_scan"}, "lon": -77.01655733333334, "name": "7f62bd6fd15c1e573276a143296a7b9e", "fusion_lon": 0.0, "bike_id": "7f62bd6fd15c1e573276a143296a7b9e", "is_reserved": 0, "type": "electric_scooter", "lat": 38.913266666666665, "fusion_lat": 0.0, "is_disabled": 0}, {"rental_uris": {"android": "https://dc.lft.to/lastmile_qr_scan", "ios": "https://dc.lft.to/lastmile_qr_scan"}, "lon": -76.94891983333333, "name": "f1ccacf2c71966b528b629fc48185b9e", "fusion_lon": 0.0, "bike_id": "f1ccacf2c71966b528b629fc48185b9e", "is_reserved": 0, "type": "electric_scooter", "lat": 38.8953525, "fusion_lat": 0.0, "is_disabled": 0}, {"rental_uris": {"android": "https://dc.lft.to/lastmile_qr_scan", "ios": "https://dc.lft.to/lastmile_qr_scan"}, "lon": -77.07166883333333, "name": "c8e2215b5d6aa574b90d706a5ce4c67f", "fusion_lon": 0.0, "bike_id": "c8e2215b5d6aa574b90d706a5ce4c67f", "is_reserved": 0, "type": "electric_scooter", "lat": 38.90768883333333, "fusion_lat": 0.0, "is_disabled": 0}, {"rental_uris": {"android": "https://dc.lft.to/lastmile_qr_scan", "ios": "https://dc.lft.to/lastmile_qr_scan"}, "lon": -76.9304665, "name": "4bbd0d40d1b0f7fdef609ab120ad2730", "fusion_lon": 0.0, "bike_id": "4bbd0d40d1b0f7fdef609ab120ad2730", "is_reserved": 0, "type": "electric_scooter", "lat": 38.88390666666667, "fusion_lat": 0.0, "is_disabled": 0}, {"rental_uris": {"android": "https://dc.lft.to/lastmile_qr_scan", "ios": "https://dc.lft.to/lastmile_qr_scan"}, "lon": -77.19135716666666, "name": "fad73c9662df605d97989e541742182e", "fusion_lon": 0.0, "bike_id": "fad73c9662df605d97989e541742182e", "is_reserved": 0, "type": "electric_bike", "lat": 38.89458533333333, "fusion_lat": 0.0, "is_disabled": 0}, {"rental_uris": {"android": "https://dc.lft.to/lastmile_qr_scan", "ios": "https://dc.lft.to/lastmile_qr_scan"}, "lon": -77.03397183333334, "name": "9fe9dde554fa15df05b08d7bd6c1c816", "fusion_lon": 0.0, "bike_id": "9fe9dde554fa15df05b08d7bd6c1c816", "is_reserved": 0, "type": "electric_scooter", "lat": 38.9254285, "fusion_lat": 0.0, "is_disabled": 0}, {"rental_uris": {"android": "https://dc.lft.to/lastmile_qr_scan", "ios": "https://dc.lft.to/lastmile_qr_scan"}, "lon": -77.03195666666667, "name": "a04034e08b9fb847aa569ddd1dcee0d7", "fusion_lon": 0.0, "bike_id": "a04034e08b9fb847aa569ddd1dcee0d7", "is_reserved": 0, "type": "electric_scooter", "lat": 38.91336733333333, "fusion_lat": 0.0, "is_disabled": 0}, {"rental_uris": {"android": "https://dc.lft.to/lastmile_qr_scan", "ios": "https://dc.lft.to/lastmile_qr_scan"}, "lon": -76.94733116666667, "name": "aca5a0babe92ab16f40737b60f5fe87d", "fusion_lon": 0.0, "bike_id": "aca5a0babe92ab16f40737b60f5fe87d", "is_reserved": 0, "type": "electric_scooter", "lat": 38.896739833333335, "fusion_lat": 0.0, "is_disabled": 0}, {"rental_uris": {"android": "https://dc.lft.to/lastmile_qr_scan", "ios": "https://dc.lft.to/lastmile_qr_scan"}, "lon": -76.989892, "name": "1b2b30a6a33e838218758946eb325cc4", "fusion_lon": 0.0, "bike_id": "1b2b30a6a33e838218758946eb325cc4", "is_reserved": 0, "type": "electric_bike", "lat": 38.936786166666664, "fusion_lat": 0.0, "is_disabled": 0}, {"rental_uris": {"android": "https://dc.lft.to/lastmile_qr_scan", "ios": "https://dc.lft.to/lastmile_qr_scan"}, "lon": -76.94699083333333, "name": "9b69f87e62dd24521c700f7d6c3b7f89", "fusion_lon": 0.0, "bike_id": "9b69f87e62dd24521c700f7d6c3b7f89", "is_reserved": 0, "type": "electric_scooter", "lat": 38.897285333333336, "fusion_lat": 0.0, "is_disabled": 0}, {"rental_uris": {"android": "https://dc.lft.to/lastmile_qr_scan", "ios": "https://dc.lft.to/lastmile_qr_scan"}, "lon": -77.0320695, "name": "6aa86049b83015d2618082cb3ccad2bb", "fusion_lon": 0.0, "bike_id": "6aa86049b83015d2618082cb3ccad2bb", "is_reserved": 0, "type": "electric_scooter", "lat": 38.9325745, "fusion_lat": 0.0, "is_disabled": 0}, {"rental_uris": {"android": "https://dc.lft.to/lastmile_qr_scan", "ios": "https://dc.lft.to/lastmile_qr_scan"}, "lon": -77.02821066666667, "name": "f69e3ac12664a50be3ff674e8baa22e6", "fusion_lon": 0.0, "bike_id": "f69e3ac12664a50be3ff674e8baa22e6", "is_reserved": 0, "type": "electric_scooter", "lat": 38.90264966666667, "fusion_lat": 0.0, "is_disabled": 0}, {"rental_uris": {"android": "https://dc.lft.to/lastmile_qr_scan", "ios": "https://dc.lft.to/lastmile_qr_scan"}, "lon": -77.032049, "name": "a7e0a39b5a423eaac1bca732996d8e75", "fusion_lon": 0.0, "bike_id": "a7e0a39b5a423eaac1bca732996d8e75", "is_reserved": 0, "type": "electric_scooter", "lat": 38.913426666666666, "fusion_lat": 0.0, "is_disabled": 0}, {"rental_uris": {"android": "https://dc.lft.to/lastmile_qr_scan", "ios": "https://dc.lft.to/lastmile_qr_scan"}, "lon": -77.0177105, "name": "3cbf67c46f5663bde95534a701f7da55", "fusion_lon": 0.0, "bike_id": "3cbf67c46f5663bde95534a701f7da55", "is_reserved": 0, "type": "electric_scooter", "lat": 38.919433166666664, "fusion_lat": 0.0, "is_disabled": 0}, {"rental_uris": {"android": "https://dc.lft.to/lastmile_qr_scan", "ios": "https://dc.lft.to/lastmile_qr_scan"}, "lon": -77.032111, "name": "7a78aed8b2e3bbe7cae6f8c0da1ecd45", "fusion_lon": 0.0, "bike_id": "7a78aed8b2e3bbe7cae6f8c0da1ecd45", "is_reserved": 0, "type": "electric_scooter", "lat": 38.908154833333334, "fusion_lat": 0.0, "is_disabled": 0}, {"rental_uris": {"android": "https://dc.lft.to/lastmile_qr_scan", "ios": "https://dc.lft.to/lastmile_qr_scan"}, "lon": -77.0270565, "name": "876827f390e179d24fb9bf658544c42f", "fusion_lon": 0.0, "bike_id": "876827f390e179d24fb9bf658544c42f", "is_reserved": 0, "type": "electric_scooter", "lat": 38.91816033333333, "fusion_lat": 0.0, "is_disabled": 0}, {"rental_uris": {"android": "https://dc.lft.to/lastmile_qr_scan", "ios": "https://dc.lft.to/lastmile_qr_scan"}, "lon": -77.034719, "name": "b73edae8b542ccc16dd5b32a8296ed05", "fusion_lon": 0.0, "bike_id": "b73edae8b542ccc16dd5b32a8296ed05", "is_reserved": 0, "type": "electric_scooter", "lat": 38.902683, "fusion_lat": 0.0, "is_disabled": 0}, {"rental_uris": {"android": "https://dc.lft.to/lastmile_qr_scan", "ios": "https://dc.lft.to/lastmile_qr_scan"}, "lon": -77.00333966666666, "name": "5ad227bed9f06990b4708339a383b0d9", "fusion_lon": 0.0, "bike_id": "5ad227bed9f06990b4708339a383b0d9", "is_reserved": 0, "type": "electric_scooter", "lat": 38.8935595, "fusion_lat": 0.0, "is_disabled": 0}, {"rental_uris": {"android": "https://dc.lft.to/lastmile_qr_scan", "ios": "https://dc.lft.to/lastmile_qr_scan"}, "lon": -77.0651695, "name": "401bf6607d789c96cf6d68f21f77a939", "fusion_lon": 0.0, "bike_id": "401bf6607d789c96cf6d68f21f77a939", "is_reserved": 0, "type": "electric_bike", "lat": 38.90556616666667, "fusion_lat": 0.0, "is_disabled": 0}, {"rental_uris": {"android": "https://dc.lft.to/lastmile_qr_scan", "ios": "https://dc.lft.to/lastmile_qr_scan"}, "lon": -77.044859, "name": "04e49100ebb87149eff21c60bdb4b0a5", "fusion_lon": 0.0, "bike_id": "04e49100ebb87149eff21c60bdb4b0a5", "is_reserved": 0, "type": "electric_scooter", "lat": 38.90070033333333, "fusion_lat": 0.0, "is_disabled": 0}, {"rental_uris": {"android": "https://dc.lft.to/lastmile_qr_scan", "ios": "https://dc.lft.to/lastmile_qr_scan"}, "lon": -76.97709383333333, "name": "fa0fa6d20c5511198948187106f0eb3c", "fusion_lon": 0.0, "bike_id": "fa0fa6d20c5511198948187106f0eb3c", "is_reserved": 0, "type": "electric_scooter", "lat": 38.8879475, "fusion_lat": 0.0, "is_disabled": 0}, {"rental_uris": {"android": "https://dc.lft.to/lastmile_qr_scan", "ios": "https://dc.lft.to/lastmile_qr_scan"}, "lon": -77.06484333333333, "name": "a981a3bc63595fe2a5eb187b32a7709b", "fusion_lon": 0.0, "bike_id": "a981a3bc63595fe2a5eb187b32a7709b", "is_reserved": 0, "type": "electric_scooter", "lat": 38.936334, "fusion_lat": 0.0, "is_disabled": 0}, {"rental_uris": {"android": "https://dc.lft.to/lastmile_qr_scan", "ios": "https://dc.lft.to/lastmile_qr_scan"}, "lon": -77.01696616666666, "name": "4e04b76aafa8da2c148f7baa628e2c9f", "fusion_lon": 0.0, "bike_id": "4e04b76aafa8da2c148f7baa628e2c9f", "is_reserved": 0, "type": "electric_scooter", "lat": 38.97496, "fusion_lat": 0.0, "is_disabled": 0}, {"rental_uris": {"android": "https://dc.lft.to/lastmile_qr_scan", "ios": "https://dc.lft.to/lastmile_qr_scan"}, "lon": -77.03168, "name": "e0263c7f7585ef170913436abe4a055e", "fusion_lon": 0.0, "bike_id": "e0263c7f7585ef170913436abe4a055e", "is_reserved": 0, "type": "electric_scooter", "lat": 38.89997483333333, "fusion_lat": 0.0, "is_disabled": 0}, {"rental_uris": {"android": "https://dc.lft.to/lastmile_qr_scan", "ios": "https://dc.lft.to/lastmile_qr_scan"}, "lon": -77.057234, "name": "396fa7c352f3f2f7a5649f9947695984", "fusion_lon": 0.0, "bike_id": "396fa7c352f3f2f7a5649f9947695984", "is_reserved": 0, "type": "electric_scooter", "lat": 38.908477, "fusion_lat": 0.0, "is_disabled": 0}, {"rental_uris": {"android": "https://dc.lft.to/lastmile_qr_scan", "ios": "https://dc.lft.to/lastmile_qr_scan"}, "lon": -77.06236766666666, "name": "08c4cffcfa485e06da0e6a8c5b75fef3", "fusion_lon": 0.0, "bike_id": "08c4cffcfa485e06da0e6a8c5b75fef3", "is_reserved": 0, "type": "electric_scooter", "lat": 38.905268, "fusion_lat": 0.0, "is_disabled": 0}, {"rental_uris": {"android": "https://dc.lft.to/lastmile_qr_scan", "ios": "https://dc.lft.to/lastmile_qr_scan"}, "lon": -77.01461866666666, "name": "12feb025cc1f777b5238fa3f78fc3e1c", "fusion_lon": 0.0, "bike_id": "12feb025cc1f777b5238fa3f78fc3e1c", "is_reserved": 0, "type": "electric_scooter", "lat": 38.91044766666667, "fusion_lat": 0.0, "is_disabled": 0}, {"rental_uris": {"android": "https://dc.lft.to/lastmile_qr_scan", "ios": "https://dc.lft.to/lastmile_qr_scan"}, "lon": -77.0355295, "name": "668d26c46340704cbce08a38fd443625", "fusion_lon": 0.0, "bike_id": "668d26c46340704cbce08a38fd443625", "is_reserved": 0, "type": "electric_scooter", "lat": 38.907513, "fusion_lat": 0.0, "is_disabled": 0}, {"rental_uris": {"android": "https://dc.lft.to/lastmile_qr_scan", "ios": "https://dc.lft.to/lastmile_qr_scan"}, "lon": -76.97898166666667, "name": "528eabb79e228639c22484442f039bb8", "fusion_lon": 0.0, "bike_id": "528eabb79e228639c22484442f039bb8", "is_reserved": 0, "type": "electric_bike", "lat": 38.8989665, "fusion_lat": 0.0, "is_disabled": 0}, {"rental_uris": {"android": "https://dc.lft.to/lastmile_qr_scan", "ios": "https://dc.lft.to/lastmile_qr_scan"}, "lon": -77.0219645, "name": "9e4b513fd99c9db1b91265716014096b", "fusion_lon": 0.0, "bike_id": "9e4b513fd99c9db1b91265716014096b", "is_reserved": 0, "type": "electric_scooter", "lat": 38.90357016666667, "fusion_lat": 0.0, "is_disabled": 0}, {"rental_uris": {"android": "https://dc.lft.to/lastmile_qr_scan", "ios": "https://dc.lft.to/lastmile_qr_scan"}, "lon": -77.03252166666667, "name": "df13f59d53e7a2feaf84ccb239fed285", "fusion_lon": 0.0, "bike_id": "df13f59d53e7a2feaf84ccb239fed285", "is_reserved": 0, "type": "electric_bike", "lat": 38.8878205, "fusion_lat": 0.0, "is_disabled": 0}, {"rental_uris": {"android": "https://dc.lft.to/lastmile_qr_scan", "ios": "https://dc.lft.to/lastmile_qr_scan"}, "lon": -76.98702516666667, "name": "cc20d64a42f9fa1355d210a9fa7bbda1", "fusion_lon": 0.0, "bike_id": "cc20d64a42f9fa1355d210a9fa7bbda1", "is_reserved": 0, "type": "electric_scooter", "lat": 38.863402, "fusion_lat": 0.0, "is_disabled": 0}, {"rental_uris": {"android": "https://dc.lft.to/lastmile_qr_scan", "ios": "https://dc.lft.to/lastmile_qr_scan"}, "lon": -77.03901483333334, "name": "e088f82a8f45c3763736d4321fc8dd71", "fusion_lon": 0.0, "bike_id": "e088f82a8f45c3763736d4321fc8dd71", "is_reserved": 0, "type": "electric_scooter", "lat": 38.9036065, "fusion_lat": 0.0, "is_disabled": 0}, {"rental_uris": {"android": "https://dc.lft.to/lastmile_qr_scan", "ios": "https://dc.lft.to/lastmile_qr_scan"}, "lon": -77.01405533333333, "name": "7cc69a496223ff5f375c478dc6b525df", "fusion_lon": 0.0, "bike_id": "7cc69a496223ff5f375c478dc6b525df", "is_reserved": 0, "type": "electric_scooter", "lat": 38.92827066666667, "fusion_lat": 0.0, "is_disabled": 0}, {"rental_uris": {"android": "https://dc.lft.to/lastmile_qr_scan", "ios": "https://dc.lft.to/lastmile_qr_scan"}, "lon": -77.05024783333333, "name": "b06b9accfc621ab2c0633d206b077d66", "fusion_lon": 0.0, "bike_id": "b06b9accfc621ab2c0633d206b077d66", "is_reserved": 0, "type": "electric_scooter", "lat": 38.923651166666666, "fusion_lat": 0.0, "is_disabled": 0}, {"rental_uris": {"android": "https://dc.lft.to/lastmile_qr_scan", "ios": "https://dc.lft.to/lastmile_qr_scan"}, "lon": -77.0338255, "name": "88b5b92fb3d84b91ec50980517ef8a18", "fusion_lon": 0.0, "bike_id": "88b5b92fb3d84b91ec50980517ef8a18", "is_reserved": 0, "type": "electric_scooter", "lat": 38.92162033333334, "fusion_lat": 0.0, "is_disabled": 0}, {"rental_uris": {"android": "https://dc.lft.to/lastmile_qr_scan", "ios": "https://dc.lft.to/lastmile_qr_scan"}, "lon": -77.02210783333334, "name": "c8805b7a156161b671867129d59f29ec", "fusion_lon": 0.0, "bike_id": "c8805b7a156161b671867129d59f29ec", "is_reserved": 0, "type": "electric_scooter", "lat": 38.912532, "fusion_lat": 0.0, "is_disabled": 0}, {"rental_uris": {"android": "https://dc.lft.to/lastmile_qr_scan", "ios": "https://dc.lft.to/lastmile_qr_scan"}, "lon": -76.985433, "name": "a6f1a7de14f9baccd639a1d522804b58", "fusion_lon": 0.0, "bike_id": "a6f1a7de14f9baccd639a1d522804b58", "is_reserved": 0, "type": "electric_scooter", "lat": 38.920267, "fusion_lat": 0.0, "is_disabled": 0}, {"rental_uris": {"android": "https://dc.lft.to/lastmile_qr_scan", "ios": "https://dc.lft.to/lastmile_qr_scan"}, "lon": -77.01911783333334, "name": "40cc55b9b1336f671b543c83707e4a41", "fusion_lon": 0.0, "bike_id": "40cc55b9b1336f671b543c83707e4a41", "is_reserved": 0, "type": "electric_scooter", "lat": 38.921778333333336, "fusion_lat": 0.0, "is_disabled": 0}, {"rental_uris": {"android": "https://dc.lft.to/lastmile_qr_scan", "ios": "https://dc.lft.to/lastmile_qr_scan"}, "lon": -76.90067316666666, "name": "d15a527c713320d9982d325ac3ad03b0", "fusion_lon": 0.0, "bike_id": "d15a527c713320d9982d325ac3ad03b0", "is_reserved": 0, "type": "electric_bike", "lat": 38.8876875, "fusion_lat": 0.0, "is_disabled": 0}, {"rental_uris": {"android": "https://dc.lft.to/lastmile_qr_scan", "ios": "https://dc.lft.to/lastmile_qr_scan"}, "lon": -77.017231, "name": "c205cd2fcfc71ced538325331ef60185", "fusion_lon": 0.0, "bike_id": "c205cd2fcfc71ced538325331ef60185", "is_reserved": 0, "type": "electric_scooter", "lat": 38.90733766666666, "fusion_lat": 0.0, "is_disabled": 0}, {"rental_uris": {"android": "https://dc.lft.to/lastmile_qr_scan", "ios": "https://dc.lft.to/lastmile_qr_scan"}, "lon": -77.02302433333334, "name": "4cd0bf0b6420a2c775c11d410d135e83", "fusion_lon": 0.0, "bike_id": "4cd0bf0b6420a2c775c11d410d135e83", "is_reserved": 0, "type": "electric_bike", "lat": 38.9667415, "fusion_lat": 0.0, "is_disabled": 0}, {"rental_uris": {"android": "https://dc.lft.to/lastmile_qr_scan", "ios": "https://dc.lft.to/lastmile_qr_scan"}, "lon": -76.93263033333334, "name": "4f834a2b646db50f9b07e5b549b91290", "fusion_lon": 0.0, "bike_id": "4f834a2b646db50f9b07e5b549b91290", "is_reserved": 0, "type": "electric_scooter", "lat": 38.88772266666667, "fusion_lat": 0.0, "is_disabled": 0}, {"rental_uris": {"android": "https://dc.lft.to/lastmile_qr_scan", "ios": "https://dc.lft.to/lastmile_qr_scan"}, "lon": -77.02185666666666, "name": "1c5149f2843f392148d089066228c32c", "fusion_lon": 0.0, "bike_id": "1c5149f2843f392148d089066228c32c", "is_reserved": 0, "type": "electric_scooter", "lat": 38.91572983333333, "fusion_lat": 0.0, "is_disabled": 0}, {"rental_uris": {"android": "https://dc.lft.to/lastmile_qr_scan", "ios": "https://dc.lft.to/lastmile_qr_scan"}, "lon": -77.01755383333334, "name": "215ab40c9b42e2c5737e1633a8d08d9f", "fusion_lon": 0.0, "bike_id": "215ab40c9b42e2c5737e1633a8d08d9f", "is_reserved": 0, "type": "electric_scooter", "lat": 38.91359583333333, "fusion_lat": 0.0, "is_disabled": 0}, {"rental_uris": {"android": "https://dc.lft.to/lastmile_qr_scan", "ios": "https://dc.lft.to/lastmile_qr_scan"}, "lon": -77.0125895, "name": "5bfa40355911357847925c4bb6362c4f", "fusion_lon": 0.0, "bike_id": "5bfa40355911357847925c4bb6362c4f", "is_reserved": 0, "type": "electric_scooter", "lat": 38.95181083333333, "fusion_lat": 0.0, "is_disabled": 0}, {"rental_uris": {"android": "https://dc.lft.to/lastmile_qr_scan", "ios": "https://dc.lft.to/lastmile_qr_scan"}, "lon": -76.97002966666666, "name": "5151a7f56bb4e38a1f2d2f7612d106fd", "fusion_lon": 0.0, "bike_id": "5151a7f56bb4e38a1f2d2f7612d106fd", "is_reserved": 0, "type": "electric_scooter", "lat": 38.8601845, "fusion_lat": 0.0, "is_disabled": 0}, {"rental_uris": {"android": "https://dc.lft.to/lastmile_qr_scan", "ios": "https://dc.lft.to/lastmile_qr_scan"}, "lon": -77.01930966666667, "name": "3ddf6abcd93d44ee72520a704ff65a39", "fusion_lon": 0.0, "bike_id": "3ddf6abcd93d44ee72520a704ff65a39", "is_reserved": 0, "type": "electric_scooter", "lat": 38.919311666666665, "fusion_lat": 0.0, "is_disabled": 0}, {"rental_uris": {"android": "https://dc.lft.to/lastmile_qr_scan", "ios": "https://dc.lft.to/lastmile_qr_scan"}, "lon": -76.9277065, "name": "2506cd00aea6b9f4430b5fc531bd7cce", "fusion_lon": 0.0, "bike_id": "2506cd00aea6b9f4430b5fc531bd7cce", "is_reserved": 0, "type": "electric_scooter", "lat": 38.89536866666667, "fusion_lat": 0.0, "is_disabled": 0}, {"rental_uris": {"android": "https://dc.lft.to/lastmile_qr_scan", "ios": "https://dc.lft.to/lastmile_qr_scan"}, "lon": -77.02549483333334, "name": "6be034029da80118f5b587019a832592", "fusion_lon": 0.0, "bike_id": "6be034029da80118f5b587019a832592", "is_reserved": 0, "type": "electric_scooter", "lat": 38.916332, "fusion_lat": 0.0, "is_disabled": 0}, {"rental_uris": {"android": "https://dc.lft.to/lastmile_qr_scan", "ios": "https://dc.lft.to/lastmile_qr_scan"}, "lon": -77.0375905, "name": "3051bde9c2dedcf29e2131daa51e4e4a", "fusion_lon": 0.0, "bike_id": "3051bde9c2dedcf29e2131daa51e4e4a", "is_reserved": 0, "type": "electric_scooter", "lat": 38.916866666666664, "fusion_lat": 0.0, "is_disabled": 0}, {"rental_uris": {"android": "https://dc.lft.to/lastmile_qr_scan", "ios": "https://dc.lft.to/lastmile_qr_scan"}, "lon": -76.9833655, "name": "7f5061a02af120d048d2d98a39d054c9", "fusion_lon": 0.0, "bike_id": "7f5061a02af120d048d2d98a39d054c9", "is_reserved": 0, "type": "electric_scooter", "lat": 38.8954405, "fusion_lat": 0.0, "is_disabled": 0}, {"rental_uris": {"android": "https://dc.lft.to/lastmile_qr_scan", "ios": "https://dc.lft.to/lastmile_qr_scan"}, "lon": -76.9986375, "name": "ee25cad6d0a14067a0ba5bb1b5748ef4", "fusion_lon": 0.0, "bike_id": "ee25cad6d0a14067a0ba5bb1b5748ef4", "is_reserved": 0, "type": "electric_scooter", "lat": 38.90896083333333, "fusion_lat": 0.0, "is_disabled": 0}, {"rental_uris": {"android": "https://dc.lft.to/lastmile_qr_scan", "ios": "https://dc.lft.to/lastmile_qr_scan"}, "lon": -77.0271445, "name": "8839a2aa7b0fb4e154c324cd13d5a76c", "fusion_lon": 0.0, "bike_id": "8839a2aa7b0fb4e154c324cd13d5a76c", "is_reserved": 0, "type": "electric_scooter", "lat": 38.92480583333333, "fusion_lat": 0.0, "is_disabled": 0}, {"rental_uris": {"android": "https://dc.lft.to/lastmile_qr_scan", "ios": "https://dc.lft.to/lastmile_qr_scan"}, "lon": -77.01804116666666, "name": "cd4ddcbc2bb8fb3da43ef5b86c543111", "fusion_lon": 0.0, "bike_id": "cd4ddcbc2bb8fb3da43ef5b86c543111", "is_reserved": 0, "type": "electric_scooter", "lat": 38.92141066666667, "fusion_lat": 0.0, "is_disabled": 0}, {"rental_uris": {"android": "https://dc.lft.to/lastmile_qr_scan", "ios": "https://dc.lft.to/lastmile_qr_scan"}, "lon": -76.97348683333334, "name": "9e136db77f17aa2a4050e33d84a58467", "fusion_lon": 0.0, "bike_id": "9e136db77f17aa2a4050e33d84a58467", "is_reserved": 0, "type": "electric_scooter", "lat": 38.904021666666665, "fusion_lat": 0.0, "is_disabled": 0}, {"rental_uris": {"android": "https://dc.lft.to/lastmile_qr_scan", "ios": "https://dc.lft.to/lastmile_qr_scan"}, "lon": -77.05137433333333, "name": "bfee5e7a01864ce4a0f967488c0515b7", "fusion_lon": 0.0, "bike_id": "bfee5e7a01864ce4a0f967488c0515b7", "is_reserved": 0, "type": "electric_bike", "lat": 38.84780033333333, "fusion_lat": 0.0, "is_disabled": 0}, {"rental_uris": {"android": "https://dc.lft.to/lastmile_qr_scan", "ios": "https://dc.lft.to/lastmile_qr_scan"}, "lon": -77.02372483333333, "name": "c8b954d5e39ec749145d1ca1dbab7976", "fusion_lon": 0.0, "bike_id": "c8b954d5e39ec749145d1ca1dbab7976", "is_reserved": 0, "type": "electric_scooter", "lat": 38.902279166666666, "fusion_lat": 0.0, "is_disabled": 0}, {"rental_uris": {"android": "https://dc.lft.to/lastmile_qr_scan", "ios": "https://dc.lft.to/lastmile_qr_scan"}, "lon": -77.03610583333334, "name": "6797abe87dcf4fd5658448f7fdc1d8cf", "fusion_lon": 0.0, "bike_id": "6797abe87dcf4fd5658448f7fdc1d8cf", "is_reserved": 0, "type": "electric_scooter", "lat": 38.96675533333333, "fusion_lat": 0.0, "is_disabled": 0}, {"rental_uris": {"android": "https://dc.lft.to/lastmile_qr_scan", "ios": "https://dc.lft.to/lastmile_qr_scan"}, "lon": -77.03198733333333, "name": "d13c1075ea67f3481744c40b474618ed", "fusion_lon": 0.0, "bike_id": "d13c1075ea67f3481744c40b474618ed", "is_reserved": 0, "type": "electric_scooter", "lat": 38.9147005, "fusion_lat": 0.0, "is_disabled": 0}, {"rental_uris": {"android": "https://dc.lft.to/lastmile_qr_scan", "ios": "https://dc.lft.to/lastmile_qr_scan"}, "lon": -77.030965, "name": "5669b2a5b8b568c3485417ced02c9a40", "fusion_lon": 0.0, "bike_id": "5669b2a5b8b568c3485417ced02c9a40", "is_reserved": 0, "type": "electric_scooter", "lat": 38.91412483333333, "fusion_lat": 0.0, "is_disabled": 0}, {"rental_uris": {"android": "https://dc.lft.to/lastmile_qr_scan", "ios": "https://dc.lft.to/lastmile_qr_scan"}, "lon": -77.03199183333334, "name": "a45216dd6af46450f6e2592d6072cf60", "fusion_lon": 0.0, "bike_id": "a45216dd6af46450f6e2592d6072cf60", "is_reserved": 0, "type": "electric_scooter", "lat": 38.914709333333334, "fusion_lat": 0.0, "is_disabled": 0}, {"rental_uris": {"android": "https://dc.lft.to/lastmile_qr_scan", "ios": "https://dc.lft.to/lastmile_qr_scan"}, "lon": -77.0419255, "name": "ea1d20784979f665d6f9433d899b31aa", "fusion_lon": 0.0, "bike_id": "ea1d20784979f665d6f9433d899b31aa", "is_reserved": 0, "type": "electric_scooter", "lat": 38.920433833333334, "fusion_lat": 0.0, "is_disabled": 0}, {"rental_uris": {"android": "https://dc.lft.to/lastmile_qr_scan", "ios": "https://dc.lft.to/lastmile_qr_scan"}, "lon": -77.02656383333333, "name": "b447eb3ca83c2946675f4826d1f8b479", "fusion_lon": 0.0, "bike_id": "b447eb3ca83c2946675f4826d1f8b479", "is_reserved": 0, "type": "electric_scooter", "lat": 38.8947375, "fusion_lat": 0.0, "is_disabled": 0}, {"rental_uris": {"android": "https://dc.lft.to/lastmile_qr_scan", "ios": "https://dc.lft.to/lastmile_qr_scan"}, "lon": -77.05703433333333, "name": "45a36767469a1df87c72124d1772f1dd", "fusion_lon": 0.0, "bike_id": "45a36767469a1df87c72124d1772f1dd", "is_reserved": 0, "type": "electric_scooter", "lat": 38.93355566666666, "fusion_lat": 0.0, "is_disabled": 0}, {"rental_uris": {"android": "https://dc.lft.to/lastmile_qr_scan", "ios": "https://dc.lft.to/lastmile_qr_scan"}, "lon": -77.0243145, "name": "ecefe15733bb5fbf7f7f95c66325d6f9", "fusion_lon": 0.0, "bike_id": "ecefe15733bb5fbf7f7f95c66325d6f9", "is_reserved": 0, "type": "electric_scooter", "lat": 38.920503, "fusion_lat": 0.0, "is_disabled": 0}, {"rental_uris": {"android": "https://dc.lft.to/lastmile_qr_scan", "ios": "https://dc.lft.to/lastmile_qr_scan"}, "lon": -77.04231366666667, "name": "dc4c3f9533e2a34601f08130a0057e60", "fusion_lon": 0.0, "bike_id": "dc4c3f9533e2a34601f08130a0057e60", "is_reserved": 0, "type": "electric_scooter", "lat": 38.907261166666665, "fusion_lat": 0.0, "is_disabled": 0}, {"rental_uris": {"android": "https://dc.lft.to/lastmile_qr_scan", "ios": "https://dc.lft.to/lastmile_qr_scan"}, "lon": -77.02782266666667, "name": "a9db4ce6cd982eee0a6610933f858063", "fusion_lon": 0.0, "bike_id": "a9db4ce6cd982eee0a6610933f858063", "is_reserved": 0, "type": "electric_scooter", "lat": 38.896275, "fusion_lat": 0.0, "is_disabled": 0}, {"rental_uris": {"android": "https://dc.lft.to/lastmile_qr_scan", "ios": "https://dc.lft.to/lastmile_qr_scan"}, "lon": -77.06692216666667, "name": "61f1fffffff314e8d19ff59fb9b14c71", "fusion_lon": 0.0, "bike_id": "61f1fffffff314e8d19ff59fb9b14c71", "is_reserved": 0, "type": "electric_bike", "lat": 38.8456025, "fusion_lat": 0.0, "is_disabled": 0}, {"rental_uris": {"android": "https://dc.lft.to/lastmile_qr_scan", "ios": "https://dc.lft.to/lastmile_qr_scan"}, "lon": -77.02489316666667, "name": "62d1efc5102f8ff900b8bdff029f36b4", "fusion_lon": 0.0, "bike_id": "62d1efc5102f8ff900b8bdff029f36b4", "is_reserved": 0, "type": "electric_scooter", "lat": 38.90723783333333, "fusion_lat": 0.0, "is_disabled": 0}, {"rental_uris": {"android": "https://dc.lft.to/lastmile_qr_scan", "ios": "https://dc.lft.to/lastmile_qr_scan"}, "lon": -77.0417425, "name": "0b4ba3c7b7b4ec6816195cc8a7cb9b8b", "fusion_lon": 0.0, "bike_id": "0b4ba3c7b7b4ec6816195cc8a7cb9b8b", "is_reserved": 0, "type": "electric_scooter", "lat": 38.90517533333333, "fusion_lat": 0.0, "is_disabled": 0}, {"rental_uris": {"android": "https://dc.lft.to/lastmile_qr_scan", "ios": "https://dc.lft.to/lastmile_qr_scan"}, "lon": -76.97616383333333, "name": "5f324239a416830784137977420b1774", "fusion_lon": 0.0, "bike_id": "5f324239a416830784137977420b1774", "is_reserved": 0, "type": "electric_bike", "lat": 38.84035, "fusion_lat": 0.0, "is_disabled": 0}, {"rental_uris": {"android": "https://dc.lft.to/lastmile_qr_scan", "ios": "https://dc.lft.to/lastmile_qr_scan"}, "lon": -77.02562616666667, "name": "bd2eaed3b641703c275fc824197325ff", "fusion_lon": 0.0, "bike_id": "bd2eaed3b641703c275fc824197325ff", "is_reserved": 0, "type": "electric_scooter", "lat": 38.933511, "fusion_lat": 0.0, "is_disabled": 0}, {"rental_uris": {"android": "https://dc.lft.to/lastmile_qr_scan", "ios": "https://dc.lft.to/lastmile_qr_scan"}, "lon": -77.02005033333333, "name": "457e792b157be3806e45a899be21d722", "fusion_lon": 0.0, "bike_id": "457e792b157be3806e45a899be21d722", "is_reserved": 0, "type": "electric_scooter", "lat": 38.9350565, "fusion_lat": 0.0, "is_disabled": 0}, {"rental_uris": {"android": "https://dc.lft.to/lastmile_qr_scan", "ios": "https://dc.lft.to/lastmile_qr_scan"}, "lon": -77.03787916666667, "name": "523d4808b993f2b6196b4cdf670a8234", "fusion_lon": 0.0, "bike_id": "523d4808b993f2b6196b4cdf670a8234", "is_reserved": 0, "type": "electric_scooter", "lat": 38.920696, "fusion_lat": 0.0, "is_disabled": 0}, {"rental_uris": {"android": "https://dc.lft.to/lastmile_qr_scan", "ios": "https://dc.lft.to/lastmile_qr_scan"}, "lon": -76.94994183333333, "name": "1cbd5ddb7bbab10c9e066aa5a36eca71", "fusion_lon": 0.0, "bike_id": "1cbd5ddb7bbab10c9e066aa5a36eca71", "is_reserved": 0, "type": "electric_scooter", "lat": 38.9062485, "fusion_lat": 0.0, "is_disabled": 0}, {"rental_uris": {"android": "https://dc.lft.to/lastmile_qr_scan", "ios": "https://dc.lft.to/lastmile_qr_scan"}, "lon": -77.06447566666667, "name": "eb8349293afb244371f20ae710cdc43f", "fusion_lon": 0.0, "bike_id": "eb8349293afb244371f20ae710cdc43f", "is_reserved": 0, "type": "electric_scooter", "lat": 38.90789316666667, "fusion_lat": 0.0, "is_disabled": 0}, {"rental_uris": {"android": "https://dc.lft.to/lastmile_qr_scan", "ios": "https://dc.lft.to/lastmile_qr_scan"}, "lon": -77.02949016666666, "name": "61e277a675175e9c1d0630f7af3e3503", "fusion_lon": 0.0, "bike_id": "61e277a675175e9c1d0630f7af3e3503", "is_reserved": 0, "type": "electric_scooter", "lat": 38.916827, "fusion_lat": 0.0, "is_disabled": 0}, {"rental_uris": {"android": "https://dc.lft.to/lastmile_qr_scan", "ios": "https://dc.lft.to/lastmile_qr_scan"}, "lon": -77.06296666666667, "name": "3e5457e46dc19517d53a2ca3f42f402a", "fusion_lon": 0.0, "bike_id": "3e5457e46dc19517d53a2ca3f42f402a", "is_reserved": 0, "type": "electric_scooter", "lat": 38.90395483333333, "fusion_lat": 0.0, "is_disabled": 0}, {"rental_uris": {"android": "https://dc.lft.to/lastmile_qr_scan", "ios": "https://dc.lft.to/lastmile_qr_scan"}, "lon": -76.980077, "name": "978fd1690b0dede4602eda440de409ff", "fusion_lon": 0.0, "bike_id": "978fd1690b0dede4602eda440de409ff", "is_reserved": 0, "type": "electric_scooter", "lat": 38.894872166666666, "fusion_lat": 0.0, "is_disabled": 0}, {"rental_uris": {"android": "https://dc.lft.to/lastmile_qr_scan", "ios": "https://dc.lft.to/lastmile_qr_scan"}, "lon": -77.01115783333333, "name": "f627bafc6e67583fc7c68ec526c69e69", "fusion_lon": 0.0, "bike_id": "f627bafc6e67583fc7c68ec526c69e69", "is_reserved": 0, "type": "electric_scooter", "lat": 38.8851155, "fusion_lat": 0.0, "is_disabled": 0}, {"rental_uris": {"android": "https://dc.lft.to/lastmile_qr_scan", "ios": "https://dc.lft.to/lastmile_qr_scan"}, "lon": -77.02141966666667, "name": "5ddddc779faa73e292e06e1d8a3ac873", "fusion_lon": 0.0, "bike_id": "5ddddc779faa73e292e06e1d8a3ac873", "is_reserved": 0, "type": "electric_scooter", "lat": 38.9191695, "fusion_lat": 0.0, "is_disabled": 0}, {"rental_uris": {"android": "https://dc.lft.to/lastmile_qr_scan", "ios": "https://dc.lft.to/lastmile_qr_scan"}, "lon": -77.02289933333333, "name": "58173caea9b9713594f16a11b3d3038b", "fusion_lon": 0.0, "bike_id": "58173caea9b9713594f16a11b3d3038b", "is_reserved": 0, "type": "electric_scooter", "lat": 38.926609666666664, "fusion_lat": 0.0, "is_disabled": 0}, {"rental_uris": {"android": "https://dc.lft.to/lastmile_qr_scan", "ios": "https://dc.lft.to/lastmile_qr_scan"}, "lon": -77.03313966666667, "name": "d6b5ffd95ee76ab0de4c1277ce956bea", "fusion_lon": 0.0, "bike_id": "d6b5ffd95ee76ab0de4c1277ce956bea", "is_reserved": 0, "type": "electric_scooter", "lat": 38.938899666666664, "fusion_lat": 0.0, "is_disabled": 0}, {"rental_uris": {"android": "https://dc.lft.to/lastmile_qr_scan", "ios": "https://dc.lft.to/lastmile_qr_scan"}, "lon": -76.99485616666666, "name": "3e1cef6787e409eba6d69972915f7be1", "fusion_lon": 0.0, "bike_id": "3e1cef6787e409eba6d69972915f7be1", "is_reserved": 0, "type": "electric_scooter", "lat": 38.892116, "fusion_lat": 0.0, "is_disabled": 0}, {"rental_uris": {"android": "https://dc.lft.to/lastmile_qr_scan", "ios": "https://dc.lft.to/lastmile_qr_scan"}, "lon": -77.11347966666666, "name": "2783e827afde8a87437f19a82e747998", "fusion_lon": 0.0, "bike_id": "2783e827afde8a87437f19a82e747998", "is_reserved": 0, "type": "electric_bike", "lat": 38.8313455, "fusion_lat": 0.0, "is_disabled": 0}, {"rental_uris": {"android": "https://dc.lft.to/lastmile_qr_scan", "ios": "https://dc.lft.to/lastmile_qr_scan"}, "lon": -77.02334983333333, "name": "968922d5f0e29563b4e2f6bef309bc33", "fusion_lon": 0.0, "bike_id": "968922d5f0e29563b4e2f6bef309bc33", "is_reserved": 0, "type": "electric_scooter", "lat": 38.941756166666664, "fusion_lat": 0.0, "is_disabled": 0}, {"rental_uris": {"android": "https://dc.lft.to/lastmile_qr_scan", "ios": "https://dc.lft.to/lastmile_qr_scan"}, "lon": -77.02933033333333, "name": "1733f8e1ff72f1509cd5783739824e5e", "fusion_lon": 0.0, "bike_id": "1733f8e1ff72f1509cd5783739824e5e", "is_reserved": 0, "type": "electric_scooter", "lat": 38.90003083333333, "fusion_lat": 0.0, "is_disabled": 0}, {"rental_uris": {"android": "https://dc.lft.to/lastmile_qr_scan", "ios": "https://dc.lft.to/lastmile_qr_scan"}, "lon": -76.97638683333334, "name": "3414e7e777845793759683fde3c92f13", "fusion_lon": 0.0, "bike_id": "3414e7e777845793759683fde3c92f13", "is_reserved": 0, "type": "electric_bike", "lat": 38.88688166666667, "fusion_lat": 0.0, "is_disabled": 0}, {"rental_uris": {"android": "https://dc.lft.to/lastmile_qr_scan", "ios": "https://dc.lft.to/lastmile_qr_scan"}, "lon": -77.03090833333333, "name": "bcf525ae02c823354ef7a7d0a7df94bf", "fusion_lon": 0.0, "bike_id": "bcf525ae02c823354ef7a7d0a7df94bf", "is_reserved": 0, "type": "electric_scooter", "lat": 38.9325285, "fusion_lat": 0.0, "is_disabled": 0}, {"rental_uris": {"android": "https://dc.lft.to/lastmile_qr_scan", "ios": "https://dc.lft.to/lastmile_qr_scan"}, "lon": -77.0166705, "name": "d031e0f4c9e7def769c2ae964784462c", "fusion_lon": 0.0, "bike_id": "d031e0f4c9e7def769c2ae964784462c", "is_reserved": 0, "type": "electric_scooter", "lat": 38.897416, "fusion_lat": 0.0, "is_disabled": 0}, {"rental_uris": {"android": "https://dc.lft.to/lastmile_qr_scan", "ios": "https://dc.lft.to/lastmile_qr_scan"}, "lon": -76.983906, "name": "5ea49aa3a83cc5db041cbd1cbf9def19", "fusion_lon": 0.0, "bike_id": "5ea49aa3a83cc5db041cbd1cbf9def19", "is_reserved": 0, "type": "electric_scooter", "lat": 38.91574983333334, "fusion_lat": 0.0, "is_disabled": 0}, {"rental_uris": {"android": "https://dc.lft.to/lastmile_qr_scan", "ios": "https://dc.lft.to/lastmile_qr_scan"}, "lon": -77.0231235, "name": "3e3864b14f03924fa35775d8254625f9", "fusion_lon": 0.0, "bike_id": "3e3864b14f03924fa35775d8254625f9", "is_reserved": 0, "type": "electric_scooter", "lat": 38.92068583333333, "fusion_lat": 0.0, "is_disabled": 0}, {"rental_uris": {"android": "https://dc.lft.to/lastmile_qr_scan", "ios": "https://dc.lft.to/lastmile_qr_scan"}, "lon": -77.0351675, "name": "b9fcb57bb4fb6f719e1108576834da44", "fusion_lon": 0.0, "bike_id": "b9fcb57bb4fb6f719e1108576834da44", "is_reserved": 0, "type": "electric_scooter", "lat": 38.935971333333335, "fusion_lat": 0.0, "is_disabled": 0}, {"rental_uris": {"android": "https://dc.lft.to/lastmile_qr_scan", "ios": "https://dc.lft.to/lastmile_qr_scan"}, "lon": -76.93175716666667, "name": "347bf0863abef9193a688262bd41eaae", "fusion_lon": 0.0, "bike_id": "347bf0863abef9193a688262bd41eaae", "is_reserved": 0, "type": "electric_scooter", "lat": 38.8988705, "fusion_lat": 0.0, "is_disabled": 0}, {"rental_uris": {"android": "https://dc.lft.to/lastmile_qr_scan", "ios": "https://dc.lft.to/lastmile_qr_scan"}, "lon": -77.027142, "name": "f18ae1a8874bdc63985e039f24f77420", "fusion_lon": 0.0, "bike_id": "f18ae1a8874bdc63985e039f24f77420", "is_reserved": 0, "type": "electric_scooter", "lat": 38.92483433333334, "fusion_lat": 0.0, "is_disabled": 0}, {"rental_uris": {"android": "https://dc.lft.to/lastmile_qr_scan", "ios": "https://dc.lft.to/lastmile_qr_scan"}, "lon": -77.04866233333334, "name": "4139ea4389fe693371341f1d51161c57", "fusion_lon": 0.0, "bike_id": "4139ea4389fe693371341f1d51161c57", "is_reserved": 0, "type": "electric_scooter", "lat": 38.9005265, "fusion_lat": 0.0, "is_disabled": 0}, {"rental_uris": {"android": "https://dc.lft.to/lastmile_qr_scan", "ios": "https://dc.lft.to/lastmile_qr_scan"}, "lon": -77.0441765, "name": "ebc39b634b7a1d1ae6c827ccc1ff6208", "fusion_lon": 0.0, "bike_id": "ebc39b634b7a1d1ae6c827ccc1ff6208", "is_reserved": 0, "type": "electric_scooter", "lat": 38.911297, "fusion_lat": 0.0, "is_disabled": 0}, {"rental_uris": {"android": "https://dc.lft.to/lastmile_qr_scan", "ios": "https://dc.lft.to/lastmile_qr_scan"}, "lon": -77.023857, "name": "31cf8d3bcc5abcc49ceed90e206124d6", "fusion_lon": 0.0, "bike_id": "31cf8d3bcc5abcc49ceed90e206124d6", "is_reserved": 0, "type": "electric_scooter", "lat": 38.916083, "fusion_lat": 0.0, "is_disabled": 0}, {"rental_uris": {"android": "https://dc.lft.to/lastmile_qr_scan", "ios": "https://dc.lft.to/lastmile_qr_scan"}, "lon": -76.99378566666667, "name": "1f85069c02d0af96ac99dc303cfce78d", "fusion_lon": 0.0, "bike_id": "1f85069c02d0af96ac99dc303cfce78d", "is_reserved": 0, "type": "electric_scooter", "lat": 38.89341866666667, "fusion_lat": 0.0, "is_disabled": 0}, {"rental_uris": {"android": "https://dc.lft.to/lastmile_qr_scan", "ios": "https://dc.lft.to/lastmile_qr_scan"}, "lon": -77.05002766666667, "name": "3a92d460d0ad922f505b6ed6821f4a84", "fusion_lon": 0.0, "bike_id": "3a92d460d0ad922f505b6ed6821f4a84", "is_reserved": 0, "type": "electric_scooter", "lat": 38.9052905, "fusion_lat": 0.0, "is_disabled": 0}, {"rental_uris": {"android": "https://dc.lft.to/lastmile_qr_scan", "ios": "https://dc.lft.to/lastmile_qr_scan"}, "lon": -77.0205165, "name": "2249d3c17d5dfa16712d3c1231a6fa0a", "fusion_lon": 0.0, "bike_id": "2249d3c17d5dfa16712d3c1231a6fa0a", "is_reserved": 0, "type": "electric_scooter", "lat": 38.923603, "fusion_lat": 0.0, "is_disabled": 0}, {"rental_uris": {"android": "https://dc.lft.to/lastmile_qr_scan", "ios": "https://dc.lft.to/lastmile_qr_scan"}, "lon": -77.01228733333333, "name": "d0c3743998514eac5109327894d4ba86", "fusion_lon": 0.0, "bike_id": "d0c3743998514eac5109327894d4ba86", "is_reserved": 0, "type": "electric_bike", "lat": 38.9302235, "fusion_lat": 0.0, "is_disabled": 0}, {"rental_uris": {"android": "https://dc.lft.to/lastmile_qr_scan", "ios": "https://dc.lft.to/lastmile_qr_scan"}, "lon": -77.03074433333333, "name": "a5969755808d5e7dba650d7d780eace8", "fusion_lon": 0.0, "bike_id": "a5969755808d5e7dba650d7d780eace8", "is_reserved": 0, "type": "electric_scooter", "lat": 38.933181833333336, "fusion_lat": 0.0, "is_disabled": 0}, {"rental_uris": {"android": "https://dc.lft.to/lastmile_qr_scan", "ios": "https://dc.lft.to/lastmile_qr_scan"}, "lon": -76.9907005, "name": "700f26b95b6ef3c31edca4a44f650713", "fusion_lon": 0.0, "bike_id": "700f26b95b6ef3c31edca4a44f650713", "is_reserved": 0, "type": "electric_bike", "lat": 38.898120666666664, "fusion_lat": 0.0, "is_disabled": 0}, {"rental_uris": {"android": "https://dc.lft.to/lastmile_qr_scan", "ios": "https://dc.lft.to/lastmile_qr_scan"}, "lon": -77.02674333333333, "name": "22ab8fa14dbc96e7c910127e46b96e41", "fusion_lon": 0.0, "bike_id": "22ab8fa14dbc96e7c910127e46b96e41", "is_reserved": 0, "type": "electric_scooter", "lat": 38.98434266666667, "fusion_lat": 0.0, "is_disabled": 0}, {"rental_uris": {"android": "https://dc.lft.to/lastmile_qr_scan", "ios": "https://dc.lft.to/lastmile_qr_scan"}, "lon": -77.03430466666667, "name": "da25a26d5eb25892cfb9a7864c882bd4", "fusion_lon": 0.0, "bike_id": "da25a26d5eb25892cfb9a7864c882bd4", "is_reserved": 0, "type": "electric_scooter", "lat": 38.91036416666667, "fusion_lat": 0.0, "is_disabled": 0}, {"rental_uris": {"android": "https://dc.lft.to/lastmile_qr_scan", "ios": "https://dc.lft.to/lastmile_qr_scan"}, "lon": -77.01241433333334, "name": "91ae1ea22341bdbaec6d74bceda882ee", "fusion_lon": 0.0, "bike_id": "91ae1ea22341bdbaec6d74bceda882ee", "is_reserved": 0, "type": "electric_scooter", "lat": 38.9158215, "fusion_lat": 0.0, "is_disabled": 0}, {"rental_uris": {"android": "https://dc.lft.to/lastmile_qr_scan", "ios": "https://dc.lft.to/lastmile_qr_scan"}, "lon": -76.98414033333333, "name": "abc26415f738aac989da39a9e43c558e", "fusion_lon": 0.0, "bike_id": "abc26415f738aac989da39a9e43c558e", "is_reserved": 0, "type": "electric_scooter", "lat": 38.913863, "fusion_lat": 0.0, "is_disabled": 0}, {"rental_uris": {"android": "https://dc.lft.to/lastmile_qr_scan", "ios": "https://dc.lft.to/lastmile_qr_scan"}, "lon": -77.00345433333334, "name": "4278de90c67e6489c60f6a66348d60cd", "fusion_lon": 0.0, "bike_id": "4278de90c67e6489c60f6a66348d60cd", "is_reserved": 0, "type": "electric_scooter", "lat": 38.884390333333336, "fusion_lat": 0.0, "is_disabled": 0}, {"rental_uris": {"android": "https://dc.lft.to/lastmile_qr_scan", "ios": "https://dc.lft.to/lastmile_qr_scan"}, "lon": -76.990298, "name": "bd133fbb8bb422c53d9d8ca67add62b6", "fusion_lon": 0.0, "bike_id": "bd133fbb8bb422c53d9d8ca67add62b6", "is_reserved": 0, "type": "electric_scooter", "lat": 38.88878666666667, "fusion_lat": 0.0, "is_disabled": 0}, {"rental_uris": {"android": "https://dc.lft.to/lastmile_qr_scan", "ios": "https://dc.lft.to/lastmile_qr_scan"}, "lon": -77.002849, "name": "0526d2d66927f25a81bf914c3e477a87", "fusion_lon": 0.0, "bike_id": "0526d2d66927f25a81bf914c3e477a87", "is_reserved": 0, "type": "electric_bike", "lat": 38.960123333333335, "fusion_lat": 0.0, "is_disabled": 0}, {"rental_uris": {"android": "https://dc.lft.to/lastmile_qr_scan", "ios": "https://dc.lft.to/lastmile_qr_scan"}, "lon": -77.0057905, "name": "c17f90e22551ca96724eb3a54511d3f6", "fusion_lon": 0.0, "bike_id": "c17f90e22551ca96724eb3a54511d3f6", "is_reserved": 0, "type": "electric_scooter", "lat": 38.90564416666667, "fusion_lat": 0.0, "is_disabled": 0}, {"rental_uris": {"android": "https://dc.lft.to/lastmile_qr_scan", "ios": "https://dc.lft.to/lastmile_qr_scan"}, "lon": -77.0335665, "name": "1246c1f9a6b412f8e19009d20b4bad14", "fusion_lon": 0.0, "bike_id": "1246c1f9a6b412f8e19009d20b4bad14", "is_reserved": 0, "type": "electric_scooter", "lat": 38.900537166666666, "fusion_lat": 0.0, "is_disabled": 0}, {"rental_uris": {"android": "https://dc.lft.to/lastmile_qr_scan", "ios": "https://dc.lft.to/lastmile_qr_scan"}, "lon": -77.0320405, "name": "827eb5baa912bcddfb7df9bfc22d7ebb", "fusion_lon": 0.0, "bike_id": "827eb5baa912bcddfb7df9bfc22d7ebb", "is_reserved": 0, "type": "electric_scooter", "lat": 38.897784, "fusion_lat": 0.0, "is_disabled": 0}, {"rental_uris": {"android": "https://dc.lft.to/lastmile_qr_scan", "ios": "https://dc.lft.to/lastmile_qr_scan"}, "lon": -77.04687066666666, "name": "69645d635628206a4923aeef1e6fb8de", "fusion_lon": 0.0, "bike_id": "69645d635628206a4923aeef1e6fb8de", "is_reserved": 0, "type": "electric_scooter", "lat": 38.90238266666667, "fusion_lat": 0.0, "is_disabled": 0}, {"rental_uris": {"android": "https://dc.lft.to/lastmile_qr_scan", "ios": "https://dc.lft.to/lastmile_qr_scan"}, "lon": -77.0316605, "name": "a53c2009031eafa3df35a4c3a6aa5461", "fusion_lon": 0.0, "bike_id": "a53c2009031eafa3df35a4c3a6aa5461", "is_reserved": 0, "type": "electric_scooter", "lat": 38.893317, "fusion_lat": 0.0, "is_disabled": 0}, {"rental_uris": {"android": "https://dc.lft.to/lastmile_qr_scan", "ios": "https://dc.lft.to/lastmile_qr_scan"}, "lon": -76.99838983333333, "name": "499a98d0604eb6b6d93abe106994bf9d", "fusion_lon": 0.0, "bike_id": "499a98d0604eb6b6d93abe106994bf9d", "is_reserved": 0, "type": "electric_scooter", "lat": 38.900271000000004, "fusion_lat": 0.0, "is_disabled": 0}, {"rental_uris": {"android": "https://dc.lft.to/lastmile_qr_scan", "ios": "https://dc.lft.to/lastmile_qr_scan"}, "lon": -77.03166316666666, "name": "ebb54799c2fe6e5bc7e4a581cf444c6d", "fusion_lon": 0.0, "bike_id": "ebb54799c2fe6e5bc7e4a581cf444c6d", "is_reserved": 0, "type": "electric_scooter", "lat": 38.899908, "fusion_lat": 0.0, "is_disabled": 0}, {"rental_uris": {"android": "https://dc.lft.to/lastmile_qr_scan", "ios": "https://dc.lft.to/lastmile_qr_scan"}, "lon": -77.03915516666666, "name": "11018d370420b3f5a895e990fdc3805d", "fusion_lon": 0.0, "bike_id": "11018d370420b3f5a895e990fdc3805d", "is_reserved": 0, "type": "electric_bike", "lat": 39.035647833333336, "fusion_lat": 0.0, "is_disabled": 0}, {"rental_uris": {"android": "https://dc.lft.to/lastmile_qr_scan", "ios": "https://dc.lft.to/lastmile_qr_scan"}, "lon": -77.020328, "name": "57e62a011b56d17a74836071000511c1", "fusion_lon": 0.0, "bike_id": "57e62a011b56d17a74836071000511c1", "is_reserved": 0, "type": "electric_scooter", "lat": 38.92417716666667, "fusion_lat": 0.0, "is_disabled": 0}, {"rental_uris": {"android": "https://dc.lft.to/lastmile_qr_scan", "ios": "https://dc.lft.to/lastmile_qr_scan"}, "lon": -77.005771, "name": "55c13ef841c064321968cff7d15d9ec3", "fusion_lon": 0.0, "bike_id": "55c13ef841c064321968cff7d15d9ec3", "is_reserved": 0, "type": "electric_scooter", "lat": 38.87575916666667, "fusion_lat": 0.0, "is_disabled": 0}, {"rental_uris": {"android": "https://dc.lft.to/lastmile_qr_scan", "ios": "https://dc.lft.to/lastmile_qr_scan"}, "lon": -77.0285125, "name": "84a2cc09a57e72c698f2c053065fa480", "fusion_lon": 0.0, "bike_id": "84a2cc09a57e72c698f2c053065fa480", "is_reserved": 0, "type": "electric_scooter", "lat": 38.93527433333333, "fusion_lat": 0.0, "is_disabled": 0}, {"rental_uris": {"android": "https://dc.lft.to/lastmile_qr_scan", "ios": "https://dc.lft.to/lastmile_qr_scan"}, "lon": -77.04537016666667, "name": "735c24883147f933d99b0766b396143a", "fusion_lon": 0.0, "bike_id": "735c24883147f933d99b0766b396143a", "is_reserved": 0, "type": "electric_scooter", "lat": 38.90730333333333, "fusion_lat": 0.0, "is_disabled": 0}, {"rental_uris": {"android": "https://dc.lft.to/lastmile_qr_scan", "ios": "https://dc.lft.to/lastmile_qr_scan"}, "lon": -77.0191445, "name": "20ab849d38712ae0534cae5ce5cc846e", "fusion_lon": 0.0, "bike_id": "20ab849d38712ae0534cae5ce5cc846e", "is_reserved": 0, "type": "electric_scooter", "lat": 38.92149666666667, "fusion_lat": 0.0, "is_disabled": 0}, {"rental_uris": {"android": "https://dc.lft.to/lastmile_qr_scan", "ios": "https://dc.lft.to/lastmile_qr_scan"}, "lon": -77.06921633333333, "name": "a251ee2cda5951e501c247137f54edbd", "fusion_lon": 0.0, "bike_id": "a251ee2cda5951e501c247137f54edbd", "is_reserved": 0, "type": "electric_scooter", "lat": 38.9078065, "fusion_lat": 0.0, "is_disabled": 0}, {"rental_uris": {"android": "https://dc.lft.to/lastmile_qr_scan", "ios": "https://dc.lft.to/lastmile_qr_scan"}, "lon": -77.00808033333334, "name": "41fee38f822ec89b0e5d3dcae52ba598", "fusion_lon": 0.0, "bike_id": "41fee38f822ec89b0e5d3dcae52ba598", "is_reserved": 0, "type": "electric_scooter", "lat": 38.907081833333336, "fusion_lat": 0.0, "is_disabled": 0}, {"rental_uris": {"android": "https://dc.lft.to/lastmile_qr_scan", "ios": "https://dc.lft.to/lastmile_qr_scan"}, "lon": -76.98541466666667, "name": "307c59af06290f947ea18b1542ba360f", "fusion_lon": 0.0, "bike_id": "307c59af06290f947ea18b1542ba360f", "is_reserved": 0, "type": "electric_scooter", "lat": 38.88528066666667, "fusion_lat": 0.0, "is_disabled": 0}, {"rental_uris": {"android": "https://dc.lft.to/lastmile_qr_scan", "ios": "https://dc.lft.to/lastmile_qr_scan"}, "lon": -77.072483, "name": "b251ae4f095d4d29e7e13c6f3f605ec2", "fusion_lon": 0.0, "bike_id": "b251ae4f095d4d29e7e13c6f3f605ec2", "is_reserved": 0, "type": "electric_scooter", "lat": 38.90780916666667, "fusion_lat": 0.0, "is_disabled": 0}, {"rental_uris": {"android": "https://dc.lft.to/lastmile_qr_scan", "ios": "https://dc.lft.to/lastmile_qr_scan"}, "lon": -77.02889466666667, "name": "6d423d952a859f707e43f86dcba610ec", "fusion_lon": 0.0, "bike_id": "6d423d952a859f707e43f86dcba610ec", "is_reserved": 0, "type": "electric_scooter", "lat": 38.923202, "fusion_lat": 0.0, "is_disabled": 0}, {"rental_uris": {"android": "https://dc.lft.to/lastmile_qr_scan", "ios": "https://dc.lft.to/lastmile_qr_scan"}, "lon": -77.0263625, "name": "6d9f40ffb1f1cb9d151cb001555e51bf", "fusion_lon": 0.0, "bike_id": "6d9f40ffb1f1cb9d151cb001555e51bf", "is_reserved": 0, "type": "electric_scooter", "lat": 38.902628, "fusion_lat": 0.0, "is_disabled": 0}, {"rental_uris": {"android": "https://dc.lft.to/lastmile_qr_scan", "ios": "https://dc.lft.to/lastmile_qr_scan"}, "lon": -77.02793483333333, "name": "672864152ba9dcbfa8c707d8b3dc8dec", "fusion_lon": 0.0, "bike_id": "672864152ba9dcbfa8c707d8b3dc8dec", "is_reserved": 0, "type": "electric_scooter", "lat": 38.907189, "fusion_lat": 0.0, "is_disabled": 0}, {"rental_uris": {"android": "https://dc.lft.to/lastmile_qr_scan", "ios": "https://dc.lft.to/lastmile_qr_scan"}, "lon": -77.02715866666666, "name": "13c0b8e4f2176ffd53ff9a57c5fea476", "fusion_lon": 0.0, "bike_id": "13c0b8e4f2176ffd53ff9a57c5fea476", "is_reserved": 0, "type": "electric_scooter", "lat": 38.9007345, "fusion_lat": 0.0, "is_disabled": 0}, {"rental_uris": {"android": "https://dc.lft.to/lastmile_qr_scan", "ios": "https://dc.lft.to/lastmile_qr_scan"}, "lon": -77.023419, "name": "d4a039bf7470d2117d810b220b54886a", "fusion_lon": 0.0, "bike_id": "d4a039bf7470d2117d810b220b54886a", "is_reserved": 0, "type": "electric_scooter", "lat": 38.949671, "fusion_lat": 0.0, "is_disabled": 0}, {"rental_uris": {"android": "https://dc.lft.to/lastmile_qr_scan", "ios": "https://dc.lft.to/lastmile_qr_scan"}, "lon": -77.0420455, "name": "8cdbda421c87495a43bd7cd13d5d634a", "fusion_lon": 0.0, "bike_id": "8cdbda421c87495a43bd7cd13d5d634a", "is_reserved": 0, "type": "electric_scooter", "lat": 38.90577183333333, "fusion_lat": 0.0, "is_disabled": 0}, {"rental_uris": {"android": "https://dc.lft.to/lastmile_qr_scan", "ios": "https://dc.lft.to/lastmile_qr_scan"}, "lon": -77.0238995, "name": "6fd80348f1c491cb9276b0f53183cb4e", "fusion_lon": 0.0, "bike_id": "6fd80348f1c491cb9276b0f53183cb4e", "is_reserved": 0, "type": "electric_scooter", "lat": 38.90707, "fusion_lat": 0.0, "is_disabled": 0}, {"rental_uris": {"android": "https://dc.lft.to/lastmile_qr_scan", "ios": "https://dc.lft.to/lastmile_qr_scan"}, "lon": -77.023929, "name": "8a823e2d73958648b933e36baed68c0d", "fusion_lon": 0.0, "bike_id": "8a823e2d73958648b933e36baed68c0d", "is_reserved": 0, "type": "electric_scooter", "lat": 38.93704016666667, "fusion_lat": 0.0, "is_disabled": 0}, {"rental_uris": {"android": "https://dc.lft.to/lastmile_qr_scan", "ios": "https://dc.lft.to/lastmile_qr_scan"}, "lon": -76.97711983333333, "name": "c89b9f3a22d13949b88f4457f3552c00", "fusion_lon": 0.0, "bike_id": "c89b9f3a22d13949b88f4457f3552c00", "is_reserved": 0, "type": "electric_scooter", "lat": 38.8879665, "fusion_lat": 0.0, "is_disabled": 0}, {"rental_uris": {"android": "https://dc.lft.to/lastmile_qr_scan", "ios": "https://dc.lft.to/lastmile_qr_scan"}, "lon": -77.05032433333334, "name": "b1e2985f3a3e97cacb9a9a1e0496cf1e", "fusion_lon": 0.0, "bike_id": "b1e2985f3a3e97cacb9a9a1e0496cf1e", "is_reserved": 0, "type": "electric_scooter", "lat": 38.90612016666667, "fusion_lat": 0.0, "is_disabled": 0}, {"rental_uris": {"android": "https://dc.lft.to/lastmile_qr_scan", "ios": "https://dc.lft.to/lastmile_qr_scan"}, "lon": -77.01559683333333, "name": "b284cbc2b018675ebb8cbabc2b67bde9", "fusion_lon": 0.0, "bike_id": "b284cbc2b018675ebb8cbabc2b67bde9", "is_reserved": 0, "type": "electric_scooter", "lat": 38.87296, "fusion_lat": 0.0, "is_disabled": 0}, {"rental_uris": {"android": "https://dc.lft.to/lastmile_qr_scan", "ios": "https://dc.lft.to/lastmile_qr_scan"}, "lon": -77.01946, "name": "76da9a93e74931cdcd3498db8b3ab00a", "fusion_lon": 0.0, "bike_id": "76da9a93e74931cdcd3498db8b3ab00a", "is_reserved": 0, "type": "electric_scooter", "lat": 38.92418116666666, "fusion_lat": 0.0, "is_disabled": 0}, {"rental_uris": {"android": "https://dc.lft.to/lastmile_qr_scan", "ios": "https://dc.lft.to/lastmile_qr_scan"}, "lon": -77.016103, "name": "c24412a877d2eb3244c2e926efc8383b", "fusion_lon": 0.0, "bike_id": "c24412a877d2eb3244c2e926efc8383b", "is_reserved": 0, "type": "electric_scooter", "lat": 38.90589283333333, "fusion_lat": 0.0, "is_disabled": 0}, {"rental_uris": {"android": "https://dc.lft.to/lastmile_qr_scan", "ios": "https://dc.lft.to/lastmile_qr_scan"}, "lon": -77.02961166666667, "name": "5894b40a6e60516d71f4b350d4718c7e", "fusion_lon": 0.0, "bike_id": "5894b40a6e60516d71f4b350d4718c7e", "is_reserved": 0, "type": "electric_scooter", "lat": 38.92686966666667, "fusion_lat": 0.0, "is_disabled": 0}, {"rental_uris": {"android": "https://dc.lft.to/lastmile_qr_scan", "ios": "https://dc.lft.to/lastmile_qr_scan"}, "lon": -77.01905533333333, "name": "21700e5a1809e52ae29433fcbac12d44", "fusion_lon": 0.0, "bike_id": "21700e5a1809e52ae29433fcbac12d44", "is_reserved": 0, "type": "electric_scooter", "lat": 38.923414333333334, "fusion_lat": 0.0, "is_disabled": 0}, {"rental_uris": {"android": "https://dc.lft.to/lastmile_qr_scan", "ios": "https://dc.lft.to/lastmile_qr_scan"}, "lon": -77.041026, "name": "751dae25442e0307d0a29756285c7fd2", "fusion_lon": 0.0, "bike_id": "751dae25442e0307d0a29756285c7fd2", "is_reserved": 0, "type": "electric_scooter", "lat": 38.91066166666667, "fusion_lat": 0.0, "is_disabled": 0}, {"rental_uris": {"android": "https://dc.lft.to/lastmile_qr_scan", "ios": "https://dc.lft.to/lastmile_qr_scan"}, "lon": -77.1119535, "name": "d8b4e4c1a7666a447501df29e022c605", "fusion_lon": 0.0, "bike_id": "d8b4e4c1a7666a447501df29e022c605", "is_reserved": 0, "type": "electric_bike", "lat": 38.8827145, "fusion_lat": 0.0, "is_disabled": 0}, {"rental_uris": {"android": "https://dc.lft.to/lastmile_qr_scan", "ios": "https://dc.lft.to/lastmile_qr_scan"}, "lon": -77.07447866666666, "name": "a5153565135aa5b35a462df80076fbc9", "fusion_lon": 0.0, "bike_id": "a5153565135aa5b35a462df80076fbc9", "is_reserved": 0, "type": "electric_scooter", "lat": 38.935574333333335, "fusion_lat": 0.0, "is_disabled": 0}, {"rental_uris": {"android": "https://dc.lft.to/lastmile_qr_scan", "ios": "https://dc.lft.to/lastmile_qr_scan"}, "lon": -77.0346145, "name": "f2ba7f9fb06771809d9fcb6515ed43b6", "fusion_lon": 0.0, "bike_id": "f2ba7f9fb06771809d9fcb6515ed43b6", "is_reserved": 0, "type": "electric_scooter", "lat": 38.92068483333333, "fusion_lat": 0.0, "is_disabled": 0}, {"rental_uris": {"android": "https://dc.lft.to/lastmile_qr_scan", "ios": "https://dc.lft.to/lastmile_qr_scan"}, "lon": -77.041731, "name": "4778f5003bc0351e75be1bb6cb5a95ac", "fusion_lon": 0.0, "bike_id": "4778f5003bc0351e75be1bb6cb5a95ac", "is_reserved": 0, "type": "electric_scooter", "lat": 38.90470333333333, "fusion_lat": 0.0, "is_disabled": 0}, {"rental_uris": {"android": "https://dc.lft.to/lastmile_qr_scan", "ios": "https://dc.lft.to/lastmile_qr_scan"}, "lon": -76.97326966666667, "name": "aec74225efc36432deac2c4b17532e56", "fusion_lon": 0.0, "bike_id": "aec74225efc36432deac2c4b17532e56", "is_reserved": 0, "type": "electric_bike", "lat": 38.9306105, "fusion_lat": 0.0, "is_disabled": 0}, {"rental_uris": {"android": "https://dc.lft.to/lastmile_qr_scan", "ios": "https://dc.lft.to/lastmile_qr_scan"}, "lon": -77.04061433333334, "name": "ba8f38744c39f47fd858732a7fde022e", "fusion_lon": 0.0, "bike_id": "ba8f38744c39f47fd858732a7fde022e", "is_reserved": 0, "type": "electric_scooter", "lat": 38.899045666666666, "fusion_lat": 0.0, "is_disabled": 0}, {"rental_uris": {"android": "https://dc.lft.to/lastmile_qr_scan", "ios": "https://dc.lft.to/lastmile_qr_scan"}, "lon": -77.04331916666666, "name": "901af899c2cd9975175cefbcf2bb79c3", "fusion_lon": 0.0, "bike_id": "901af899c2cd9975175cefbcf2bb79c3", "is_reserved": 0, "type": "electric_scooter", "lat": 38.906062666666664, "fusion_lat": 0.0, "is_disabled": 0}, {"rental_uris": {"android": "https://dc.lft.to/lastmile_qr_scan", "ios": "https://dc.lft.to/lastmile_qr_scan"}, "lon": -77.0364635, "name": "13068dbb4eb39b4d645c956514adb7bc", "fusion_lon": 0.0, "bike_id": "13068dbb4eb39b4d645c956514adb7bc", "is_reserved": 0, "type": "electric_scooter", "lat": 38.9037765, "fusion_lat": 0.0, "is_disabled": 0}, {"rental_uris": {"android": "https://dc.lft.to/lastmile_qr_scan", "ios": "https://dc.lft.to/lastmile_qr_scan"}, "lon": -77.01632766666667, "name": "22ee02718bd0cd058cc1944a25841e60", "fusion_lon": 0.0, "bike_id": "22ee02718bd0cd058cc1944a25841e60", "is_reserved": 0, "type": "electric_scooter", "lat": 38.88121733333333, "fusion_lat": 0.0, "is_disabled": 0}, {"rental_uris": {"android": "https://dc.lft.to/lastmile_qr_scan", "ios": "https://dc.lft.to/lastmile_qr_scan"}, "lon": -76.98822483333333, "name": "167d8cdfd179a482e2c6e9f7ccccc643", "fusion_lon": 0.0, "bike_id": "167d8cdfd179a482e2c6e9f7ccccc643", "is_reserved": 0, "type": "electric_scooter", "lat": 38.90039216666667, "fusion_lat": 0.0, "is_disabled": 0}, {"rental_uris": {"android": "https://dc.lft.to/lastmile_qr_scan", "ios": "https://dc.lft.to/lastmile_qr_scan"}, "lon": -77.01693066666667, "name": "236b4b437d73e46c2306d0af4b8d0ef3", "fusion_lon": 0.0, "bike_id": "236b4b437d73e46c2306d0af4b8d0ef3", "is_reserved": 0, "type": "electric_scooter", "lat": 38.974964, "fusion_lat": 0.0, "is_disabled": 0}, {"rental_uris": {"android": "https://dc.lft.to/lastmile_qr_scan", "ios": "https://dc.lft.to/lastmile_qr_scan"}, "lon": -77.036386, "name": "fa0f546d806bf560c173a926b83ee071", "fusion_lon": 0.0, "bike_id": "fa0f546d806bf560c173a926b83ee071", "is_reserved": 0, "type": "electric_scooter", "lat": 38.9055415, "fusion_lat": 0.0, "is_disabled": 0}, {"rental_uris": {"android": "https://dc.lft.to/lastmile_qr_scan", "ios": "https://dc.lft.to/lastmile_qr_scan"}, "lon": -77.020628, "name": "67d691c7c0e178310f8d6cbda2c19103", "fusion_lon": 0.0, "bike_id": "67d691c7c0e178310f8d6cbda2c19103", "is_reserved": 0, "type": "electric_scooter", "lat": 38.95747166666666, "fusion_lat": 0.0, "is_disabled": 0}, {"rental_uris": {"android": "https://dc.lft.to/lastmile_qr_scan", "ios": "https://dc.lft.to/lastmile_qr_scan"}, "lon": -77.02367983333333, "name": "601b4843962b4e5853c15de43705a1f4", "fusion_lon": 0.0, "bike_id": "601b4843962b4e5853c15de43705a1f4", "is_reserved": 0, "type": "electric_scooter", "lat": 38.902143, "fusion_lat": 0.0, "is_disabled": 0}, {"rental_uris": {"android": "https://dc.lft.to/lastmile_qr_scan", "ios": "https://dc.lft.to/lastmile_qr_scan"}, "lon": -76.984609, "name": "cf54786c4e890e587d49ed0fed4b43b6", "fusion_lon": 0.0, "bike_id": "cf54786c4e890e587d49ed0fed4b43b6", "is_reserved": 0, "type": "electric_scooter", "lat": 38.89365, "fusion_lat": 0.0, "is_disabled": 0}, {"rental_uris": {"android": "https://dc.lft.to/lastmile_qr_scan", "ios": "https://dc.lft.to/lastmile_qr_scan"}, "lon": -77.0371885, "name": "f63261a0cefa350f0addc4abaa64b3e9", "fusion_lon": 0.0, "bike_id": "f63261a0cefa350f0addc4abaa64b3e9", "is_reserved": 0, "type": "electric_scooter", "lat": 38.8807545, "fusion_lat": 0.0, "is_disabled": 0}, {"rental_uris": {"android": "https://dc.lft.to/lastmile_qr_scan", "ios": "https://dc.lft.to/lastmile_qr_scan"}, "lon": -76.929762, "name": "2e7ec7c35c3d2ce10513f7ca42fcd502", "fusion_lon": 0.0, "bike_id": "2e7ec7c35c3d2ce10513f7ca42fcd502", "is_reserved": 0, "type": "electric_scooter", "lat": 38.89611383333333, "fusion_lat": 0.0, "is_disabled": 0}, {"rental_uris": {"android": "https://dc.lft.to/lastmile_qr_scan", "ios": "https://dc.lft.to/lastmile_qr_scan"}, "lon": -77.0414335, "name": "c6d901c4b3d96431ac5fafbd75124a76", "fusion_lon": 0.0, "bike_id": "c6d901c4b3d96431ac5fafbd75124a76", "is_reserved": 0, "type": "electric_scooter", "lat": 38.8958065, "fusion_lat": 0.0, "is_disabled": 0}, {"rental_uris": {"android": "https://dc.lft.to/lastmile_qr_scan", "ios": "https://dc.lft.to/lastmile_qr_scan"}, "lon": -77.00570283333333, "name": "401ace0692a1badc0d954524e8c232dc", "fusion_lon": 0.0, "bike_id": "401ace0692a1badc0d954524e8c232dc", "is_reserved": 0, "type": "electric_scooter", "lat": 38.9056865, "fusion_lat": 0.0, "is_disabled": 0}, {"rental_uris": {"android": "https://dc.lft.to/lastmile_qr_scan", "ios": "https://dc.lft.to/lastmile_qr_scan"}, "lon": -77.03171466666667, "name": "a359a62413c6ed47ebbd7ced3d70f65c", "fusion_lon": 0.0, "bike_id": "a359a62413c6ed47ebbd7ced3d70f65c", "is_reserved": 0, "type": "electric_scooter", "lat": 38.9141345, "fusion_lat": 0.0, "is_disabled": 0}, {"rental_uris": {"android": "https://dc.lft.to/lastmile_qr_scan", "ios": "https://dc.lft.to/lastmile_qr_scan"}, "lon": -77.0355385, "name": "6693e48173bc7933181f88f35f209600", "fusion_lon": 0.0, "bike_id": "6693e48173bc7933181f88f35f209600", "is_reserved": 0, "type": "electric_scooter", "lat": 38.91865583333333, "fusion_lat": 0.0, "is_disabled": 0}, {"rental_uris": {"android": "https://dc.lft.to/lastmile_qr_scan", "ios": "https://dc.lft.to/lastmile_qr_scan"}, "lon": -77.0235295, "name": "fe4a767797e125547cbce520344b3f43", "fusion_lon": 0.0, "bike_id": "fe4a767797e125547cbce520344b3f43", "is_reserved": 0, "type": "electric_scooter", "lat": 38.91564533333333, "fusion_lat": 0.0, "is_disabled": 0}, {"rental_uris": {"android": "https://dc.lft.to/lastmile_qr_scan", "ios": "https://dc.lft.to/lastmile_qr_scan"}, "lon": -77.02110016666667, "name": "3a2e7c6eb5e942d9d2d54db278654d2f", "fusion_lon": 0.0, "bike_id": "3a2e7c6eb5e942d9d2d54db278654d2f", "is_reserved": 0, "type": "electric_scooter", "lat": 38.92755783333333, "fusion_lat": 0.0, "is_disabled": 0}, {"rental_uris": {"android": "https://dc.lft.to/lastmile_qr_scan", "ios": "https://dc.lft.to/lastmile_qr_scan"}, "lon": -77.01958666666667, "name": "841a49d3fea7b1349b34ba5701241043", "fusion_lon": 0.0, "bike_id": "841a49d3fea7b1349b34ba5701241043", "is_reserved": 0, "type": "electric_scooter", "lat": 38.923271666666665, "fusion_lat": 0.0, "is_disabled": 0}, {"rental_uris": {"android": "https://dc.lft.to/lastmile_qr_scan", "ios": "https://dc.lft.to/lastmile_qr_scan"}, "lon": -77.04431483333333, "name": "271e119207d540c32f763ab93e01a3f8", "fusion_lon": 0.0, "bike_id": "271e119207d540c32f763ab93e01a3f8", "is_reserved": 0, "type": "electric_scooter", "lat": 38.92120083333333, "fusion_lat": 0.0, "is_disabled": 0}, {"rental_uris": {"android": "https://dc.lft.to/lastmile_qr_scan", "ios": "https://dc.lft.to/lastmile_qr_scan"}, "lon": -77.03198483333334, "name": "a7bcce7d6f066a6dbb96b216c559a82f", "fusion_lon": 0.0, "bike_id": "a7bcce7d6f066a6dbb96b216c559a82f", "is_reserved": 0, "type": "electric_scooter", "lat": 38.915077833333335, "fusion_lat": 0.0, "is_disabled": 0}, {"rental_uris": {"android": "https://dc.lft.to/lastmile_qr_scan", "ios": "https://dc.lft.to/lastmile_qr_scan"}, "lon": -77.048408, "name": "4443c1208bb291d2fcebfea95eb406d6", "fusion_lon": 0.0, "bike_id": "4443c1208bb291d2fcebfea95eb406d6", "is_reserved": 0, "type": "electric_scooter", "lat": 38.89972016666667, "fusion_lat": 0.0, "is_disabled": 0}, {"rental_uris": {"android": "https://dc.lft.to/lastmile_qr_scan", "ios": "https://dc.lft.to/lastmile_qr_scan"}, "lon": -77.04536016666667, "name": "57df724bddd29f97651cceabc625a762", "fusion_lon": 0.0, "bike_id": "57df724bddd29f97651cceabc625a762", "is_reserved": 0, "type": "electric_scooter", "lat": 38.8944735, "fusion_lat": 0.0, "is_disabled": 0}, {"rental_uris": {"android": "https://dc.lft.to/lastmile_qr_scan", "ios": "https://dc.lft.to/lastmile_qr_scan"}, "lon": -77.04655583333333, "name": "d2c1378af03ba293acd60a9d53c01503", "fusion_lon": 0.0, "bike_id": "d2c1378af03ba293acd60a9d53c01503", "is_reserved": 0, "type": "electric_scooter", "lat": 38.900000666666664, "fusion_lat": 0.0, "is_disabled": 0}, {"rental_uris": {"android": "https://dc.lft.to/lastmile_qr_scan", "ios": "https://dc.lft.to/lastmile_qr_scan"}, "lon": -77.02580483333334, "name": "5143eb5d4427970c1802b89582485958", "fusion_lon": 0.0, "bike_id": "5143eb5d4427970c1802b89582485958", "is_reserved": 0, "type": "electric_scooter", "lat": 38.926925833333335, "fusion_lat": 0.0, "is_disabled": 0}, {"rental_uris": {"android": "https://dc.lft.to/lastmile_qr_scan", "ios": "https://dc.lft.to/lastmile_qr_scan"}, "lon": -77.02900516666666, "name": "5edd1bbe1c792369a3fca6a322de114f", "fusion_lon": 0.0, "bike_id": "5edd1bbe1c792369a3fca6a322de114f", "is_reserved": 0, "type": "electric_scooter", "lat": 38.917140333333336, "fusion_lat": 0.0, "is_disabled": 0}, {"rental_uris": {"android": "https://dc.lft.to/lastmile_qr_scan", "ios": "https://dc.lft.to/lastmile_qr_scan"}, "lon": -76.987539, "name": "05851bb6689c24f36cf738720ec641fd", "fusion_lon": 0.0, "bike_id": "05851bb6689c24f36cf738720ec641fd", "is_reserved": 0, "type": "electric_scooter", "lat": 38.87842583333333, "fusion_lat": 0.0, "is_disabled": 0}, {"rental_uris": {"android": "https://dc.lft.to/lastmile_qr_scan", "ios": "https://dc.lft.to/lastmile_qr_scan"}, "lon": -77.0299515, "name": "bd6241653ef4f3506f66ede3ff4c2596", "fusion_lon": 0.0, "bike_id": "bd6241653ef4f3506f66ede3ff4c2596", "is_reserved": 0, "type": "electric_scooter", "lat": 38.91703416666667, "fusion_lat": 0.0, "is_disabled": 0}, {"rental_uris": {"android": "https://dc.lft.to/lastmile_qr_scan", "ios": "https://dc.lft.to/lastmile_qr_scan"}, "lon": -76.9241635, "name": "eefe7dd89a848900c95f2030f9a73e4e", "fusion_lon": 0.0, "bike_id": "eefe7dd89a848900c95f2030f9a73e4e", "is_reserved": 0, "type": "electric_scooter", "lat": 38.8837265, "fusion_lat": 0.0, "is_disabled": 0}, {"rental_uris": {"android": "https://dc.lft.to/lastmile_qr_scan", "ios": "https://dc.lft.to/lastmile_qr_scan"}, "lon": -76.93852133333333, "name": "7daddfe060668b3d889002bdebf6687b", "fusion_lon": 0.0, "bike_id": "7daddfe060668b3d889002bdebf6687b", "is_reserved": 0, "type": "electric_scooter", "lat": 38.899667666666666, "fusion_lat": 0.0, "is_disabled": 0}, {"rental_uris": {"android": "https://dc.lft.to/lastmile_qr_scan", "ios": "https://dc.lft.to/lastmile_qr_scan"}, "lon": -77.03658383333334, "name": "e3ddfcd0c0df9da56a12c2897466ffb6", "fusion_lon": 0.0, "bike_id": "e3ddfcd0c0df9da56a12c2897466ffb6", "is_reserved": 0, "type": "electric_scooter", "lat": 38.9301745, "fusion_lat": 0.0, "is_disabled": 0}, {"rental_uris": {"android": "https://dc.lft.to/lastmile_qr_scan", "ios": "https://dc.lft.to/lastmile_qr_scan"}, "lon": -77.0727045, "name": "270c83c0eeb915dd47051d42b6fc0d47", "fusion_lon": 0.0, "bike_id": "270c83c0eeb915dd47051d42b6fc0d47", "is_reserved": 0, "type": "electric_scooter", "lat": 38.9353665, "fusion_lat": 0.0, "is_disabled": 0}, {"rental_uris": {"android": "https://dc.lft.to/lastmile_qr_scan", "ios": "https://dc.lft.to/lastmile_qr_scan"}, "lon": -77.02088383333333, "name": "daf248ae2718363f53bb07a17db110cd", "fusion_lon": 0.0, "bike_id": "daf248ae2718363f53bb07a17db110cd", "is_reserved": 0, "type": "electric_scooter", "lat": 38.91543333333333, "fusion_lat": 0.0, "is_disabled": 0}, {"rental_uris": {"android": "https://dc.lft.to/lastmile_qr_scan", "ios": "https://dc.lft.to/lastmile_qr_scan"}, "lon": -77.0469645, "name": "189a84d9e7ca16e852c549f5b9c252bb", "fusion_lon": 0.0, "bike_id": "189a84d9e7ca16e852c549f5b9c252bb", "is_reserved": 0, "type": "electric_scooter", "lat": 38.92260616666667, "fusion_lat": 0.0, "is_disabled": 0}, {"rental_uris": {"android": "https://dc.lft.to/lastmile_qr_scan", "ios": "https://dc.lft.to/lastmile_qr_scan"}, "lon": -76.9875575, "name": "38fb2617600714ec24d6ee0e63dd038f", "fusion_lon": 0.0, "bike_id": "38fb2617600714ec24d6ee0e63dd038f", "is_reserved": 0, "type": "electric_bike", "lat": 38.844576833333335, "fusion_lat": 0.0, "is_disabled": 0}, {"rental_uris": {"android": "https://dc.lft.to/lastmile_qr_scan", "ios": "https://dc.lft.to/lastmile_qr_scan"}, "lon": -77.04613433333333, "name": "cdeb368bb9b49d12e70834f97457aa7e", "fusion_lon": 0.0, "bike_id": "cdeb368bb9b49d12e70834f97457aa7e", "is_reserved": 0, "type": "electric_scooter", "lat": 38.89804266666667, "fusion_lat": 0.0, "is_disabled": 0}, {"rental_uris": {"android": "https://dc.lft.to/lastmile_qr_scan", "ios": "https://dc.lft.to/lastmile_qr_scan"}, "lon": -77.04132516666667, "name": "06676cd228febc550911a9f30064dd03", "fusion_lon": 0.0, "bike_id": "06676cd228febc550911a9f30064dd03", "is_reserved": 0, "type": "electric_scooter", "lat": 38.934681833333336, "fusion_lat": 0.0, "is_disabled": 0}, {"rental_uris": {"android": "https://dc.lft.to/lastmile_qr_scan", "ios": "https://dc.lft.to/lastmile_qr_scan"}, "lon": -77.07240083333333, "name": "aec1111a683be0faf802cbf9653d5451", "fusion_lon": 0.0, "bike_id": "aec1111a683be0faf802cbf9653d5451", "is_reserved": 0, "type": "electric_scooter", "lat": 38.939492333333334, "fusion_lat": 0.0, "is_disabled": 0}, {"rental_uris": {"android": "https://dc.lft.to/lastmile_qr_scan", "ios": "https://dc.lft.to/lastmile_qr_scan"}, "lon": -77.0514665, "name": "f6556083e93d4943986960ce1d8b06c4", "fusion_lon": 0.0, "bike_id": "f6556083e93d4943986960ce1d8b06c4", "is_reserved": 0, "type": "electric_scooter", "lat": 38.896719166666664, "fusion_lat": 0.0, "is_disabled": 0}, {"rental_uris": {"android": "https://dc.lft.to/lastmile_qr_scan", "ios": "https://dc.lft.to/lastmile_qr_scan"}, "lon": -76.98008666666666, "name": "2e768ba6e4bcff3b4b9ade2abb6854f9", "fusion_lon": 0.0, "bike_id": "2e768ba6e4bcff3b4b9ade2abb6854f9", "is_reserved": 0, "type": "electric_scooter", "lat": 38.900909, "fusion_lat": 0.0, "is_disabled": 0}, {"rental_uris": {"android": "https://dc.lft.to/lastmile_qr_scan", "ios": "https://dc.lft.to/lastmile_qr_scan"}, "lon": -77.00608116666666, "name": "8def1f6cfe4adf6df55b4efba7735cdd", "fusion_lon": 0.0, "bike_id": "8def1f6cfe4adf6df55b4efba7735cdd", "is_reserved": 0, "type": "electric_scooter", "lat": 38.87180216666667, "fusion_lat": 0.0, "is_disabled": 0}, {"rental_uris": {"android": "https://dc.lft.to/lastmile_qr_scan", "ios": "https://dc.lft.to/lastmile_qr_scan"}, "lon": -77.0232945, "name": "df745641754cae0c221fe875032ce7d1", "fusion_lon": 0.0, "bike_id": "df745641754cae0c221fe875032ce7d1", "is_reserved": 0, "type": "electric_scooter", "lat": 38.922316333333335, "fusion_lat": 0.0, "is_disabled": 0}, {"rental_uris": {"android": "https://dc.lft.to/lastmile_qr_scan", "ios": "https://dc.lft.to/lastmile_qr_scan"}, "lon": -77.03763033333334, "name": "8bb7314d4170edde86c6eab69de0037a", "fusion_lon": 0.0, "bike_id": "8bb7314d4170edde86c6eab69de0037a", "is_reserved": 0, "type": "electric_scooter", "lat": 38.90780016666667, "fusion_lat": 0.0, "is_disabled": 0}, {"rental_uris": {"android": "https://dc.lft.to/lastmile_qr_scan", "ios": "https://dc.lft.to/lastmile_qr_scan"}, "lon": -77.019061, "name": "2d9a8ed2fd7a3dd47251158d71374568", "fusion_lon": 0.0, "bike_id": "2d9a8ed2fd7a3dd47251158d71374568", "is_reserved": 0, "type": "electric_scooter", "lat": 38.91413816666667, "fusion_lat": 0.0, "is_disabled": 0}, {"rental_uris": {"android": "https://dc.lft.to/lastmile_qr_scan", "ios": "https://dc.lft.to/lastmile_qr_scan"}, "lon": -77.023046, "name": "23adcbb09f8c5e7ca4bddd9d072eb3c6", "fusion_lon": 0.0, "bike_id": "23adcbb09f8c5e7ca4bddd9d072eb3c6", "is_reserved": 0, "type": "electric_scooter", "lat": 38.90156483333333, "fusion_lat": 0.0, "is_disabled": 0}, {"rental_uris": {"android": "https://dc.lft.to/lastmile_qr_scan", "ios": "https://dc.lft.to/lastmile_qr_scan"}, "lon": -76.93733966666667, "name": "4f65f7f49d1f1ef12dc7ccbc2d4dcb36", "fusion_lon": 0.0, "bike_id": "4f65f7f49d1f1ef12dc7ccbc2d4dcb36", "is_reserved": 0, "type": "electric_scooter", "lat": 38.8901335, "fusion_lat": 0.0, "is_disabled": 0}, {"rental_uris": {"android": "https://dc.lft.to/lastmile_qr_scan", "ios": "https://dc.lft.to/lastmile_qr_scan"}, "lon": -77.073449, "name": "63ba67520ba0983173208783fbde64a5", "fusion_lon": 0.0, "bike_id": "63ba67520ba0983173208783fbde64a5", "is_reserved": 0, "type": "electric_scooter", "lat": 38.911028, "fusion_lat": 0.0, "is_disabled": 0}, {"rental_uris": {"android": "https://dc.lft.to/lastmile_qr_scan", "ios": "https://dc.lft.to/lastmile_qr_scan"}, "lon": -77.0434355, "name": "faf1cf363b6c95a45a8e5f96b5ade87c", "fusion_lon": 0.0, "bike_id": "faf1cf363b6c95a45a8e5f96b5ade87c", "is_reserved": 0, "type": "electric_scooter", "lat": 38.907272166666665, "fusion_lat": 0.0, "is_disabled": 0}, {"rental_uris": {"android": "https://dc.lft.to/lastmile_qr_scan", "ios": "https://dc.lft.to/lastmile_qr_scan"}, "lon": -77.01222616666666, "name": "8085175697f535cdaf806395076222a2", "fusion_lon": 0.0, "bike_id": "8085175697f535cdaf806395076222a2", "is_reserved": 0, "type": "electric_scooter", "lat": 38.90035133333333, "fusion_lat": 0.0, "is_disabled": 0}, {"rental_uris": {"android": "https://dc.lft.to/lastmile_qr_scan", "ios": "https://dc.lft.to/lastmile_qr_scan"}, "lon": -77.02495533333334, "name": "36a283f7aab326821b73645937ca6883", "fusion_lon": 0.0, "bike_id": "36a283f7aab326821b73645937ca6883", "is_reserved": 0, "type": "electric_scooter", "lat": 38.904021166666666, "fusion_lat": 0.0, "is_disabled": 0}, {"rental_uris": {"android": "https://dc.lft.to/lastmile_qr_scan", "ios": "https://dc.lft.to/lastmile_qr_scan"}, "lon": -77.0487805, "name": "f35a559079197a7bfd0a877e70c5c741", "fusion_lon": 0.0, "bike_id": "f35a559079197a7bfd0a877e70c5c741", "is_reserved": 0, "type": "electric_scooter", "lat": 38.905177333333334, "fusion_lat": 0.0, "is_disabled": 0},