{"data": {"bikes": [{"rental_uris": {"android": "https://dc.lft.to/lastmile_qr_scan", "ios": "https://dc.lft.to/lastmile_qr_scan"}, "type": "electric_scooter", "lon": -76.98237866666666, "name": "d4fea09d51bfaf4c238d6d18c988396f", "bike_id": "d4fea09d51bfaf4c238d6d18c988396f", "fusion_lat": 0.0, "is_reserved": 0, "lat": 38.9031015, "fusion_lon": 0.0, "is_disabled": 0}, {"rental_uris": {"android": "https://dc.lft.to/lastmile_qr_scan", "ios": "https://dc.lft.to/lastmile_qr_scan"}, "type": "electric_scooter", "lon": -77.01395466666666, "name": "10111666927eacdba5f4c25afbe2dd63", "bike_id": "10111666927eacdba5f4c25afbe2dd63", "fusion_lat": 0.0, "is_reserved": 0, "lat": 38.88029316666667, "fusion_lon": 0.0, "is_disabled": 0}, {"rental_uris": {"android": "https://dc.lft.to/lastmile_qr_scan", "ios": "https://dc.lft.to/lastmile_qr_scan"}, "type": "electric_scooter", "lon": -77.02503383333334, "name": "0a4c99d53b799bc1ace78a505d0c3a80", "bike_id": "0a4c99d53b799bc1ace78a505d0c3a80", "fusion_lat": 0.0, "is_reserved": 0, "lat": 38.926432166666665, "fusion_lon": 0.0, "is_disabled": 0}, {"rental_uris": {"android": "https://dc.lft.to/lastmile_qr_scan", "ios": "https://dc.lft.to/lastmile_qr_scan"}, "type": "electric_scooter", "lon": -77.01696583333333, "name": "81983abf267efbbac9eb86b075a6d2b3", "bike_id": "81983abf267efbbac9eb86b075a6d2b3", "fusion_lat": 0.0, "is_reserved": 0, "lat": 38.88329366666667, "fusion_lon": 0.0, "is_disabled": 0}, {"rental_uris": {"android": "https://dc.lft.to/lastmile_qr_scan", "ios": "https://dc.lft.to/lastmile_qr_scan"}, "type": "electric_scooter", "lon": -77.03438283333334, "name": "4a52e492fea4b2e6356c8f1c2256d121", "bike_id": "4a52e492fea4b2e6356c8f1c2256d121", "fusion_lat": 0.0, "is_reserved": 0, "lat": 38.9286895, "fusion_lon": 0.0, "is_disabled": 0}, {"rental_uris": {"android": "https://dc.lft.to/lastmile_qr_scan", "ios": "https://dc.lft.to/lastmile_qr_scan"}, "type": "electric_scooter", "lon": -77.0420105, "name": "eb9fdbbd8e67ce681004e158e4a594a3", "bike_id": "eb9fdbbd8e67ce681004e158e4a594a3", "fusion_lat": 0.0, "is_reserved": 0, "lat": 38.89223633333334, "fusion_lon": 0.0, "is_disabled": 0}, {"rental_uris": {"android": "https://dc.lft.to/lastmile_qr_scan", "ios": "https://dc.lft.to/lastmile_qr_scan"}, "type": "electric_scooter", "lon": -76.9378755, "name": "b755818fe8ac7b8859d0ddf7273c0a6d", "bike_id": "b755818fe8ac7b8859d0ddf7273c0a6d", "fusion_lat": 0.0, "is_reserved": 0, "lat": 38.899721166666666, "fusion_lon": 0.0, "is_disabled": 0}, {"rental_uris": {"android": "https://dc.lft.to/lastmile_qr_scan", "ios": "https://dc.lft.to/lastmile_qr_scan"}, "type": "electric_scooter", "lon": -77.01966483333334, "name": "95a1a0cbff616f5f2a0cdcba79607a54", "bike_id": "95a1a0cbff616f5f2a0cdcba79607a54", "fusion_lat": 0.0, "is_reserved": 0, "lat": 38.876356666666666, "fusion_lon": 0.0, "is_disabled": 0}, {"rental_uris": {"android": "https://dc.lft.to/lastmile_qr_scan", "ios": "https://dc.lft.to/lastmile_qr_scan"}, "type": "electric_scooter", "lon": -76.99028116666666, "name": "d46f1ef0a1816e626ef49052d0bc701e", "bike_id": "d46f1ef0a1816e626ef49052d0bc701e", "fusion_lat": 0.0, "is_reserved": 0, "lat": 38.8640645, "fusion_lon": 0.0, "is_disabled": 0}, {"rental_uris": {"android": "https://dc.lft.to/lastmile_qr_scan", "ios": "https://dc.lft.to/lastmile_qr_scan"}, "type": "electric_scooter", "lon": -77.028702, "name": "1b9d93894bdfdb803cf237f287eed299", "bike_id": "1b9d93894bdfdb803cf237f287eed299", "fusion_lat": 0.0, "is_reserved": 0, "lat": 38.90363216666667, "fusion_lon": 0.0, "is_disabled": 0}, {"rental_uris": {"android": "https://dc.lft.to/lastmile_qr_scan", "ios": "https://dc.lft.to/lastmile_qr_scan"}, "type": "electric_scooter", "lon": -77.03837166666666, "name": "a1c2ee8c01762bc3dadd3d049a46bbd5", "bike_id": "a1c2ee8c01762bc3dadd3d049a46bbd5", "fusion_lat": 0.0, "is_reserved": 0, "lat": 38.903171666666665, "fusion_lon": 0.0, "is_disabled": 0}, {"rental_uris": {"android": "https://dc.lft.to/lastmile_qr_scan", "ios": "https://dc.lft.to/lastmile_qr_scan"}, "type": "electric_scooter", "lon": -76.990261, "name": "9a4a9265b886c09884a89a091c0c5b1f", "bike_id": "9a4a9265b886c09884a89a091c0c5b1f", "fusion_lat": 0.0, "is_reserved": 0, "lat": 38.901494666666665, "fusion_lon": 0.0, "is_disabled": 0}, {"rental_uris": {"android": "https://dc.lft.to/lastmile_qr_scan", "ios": "https://dc.lft.to/lastmile_qr_scan"}, "type": "electric_bike", "lon": -77.069382, "name": "9ac262fb1e97bf38e77856bbce8d5269", "bike_id": "9ac262fb1e97bf38e77856bbce8d5269", "fusion_lat": 0.0, "is_reserved": 0, "lat": 38.99043233333333, "fusion_lon": 0.0, "is_disabled": 0}, {"rental_uris": {"android": "https://dc.lft.to/lastmile_qr_scan", "ios": "https://dc.lft.to/lastmile_qr_scan"}, "type": "electric_scooter", "lon": -77.07078733333333, "name": "c08d6c62af906b504b4472f5d6330043", "bike_id": "c08d6c62af906b504b4472f5d6330043", "fusion_lat": 0.0, "is_reserved": 0, "lat": 38.939077, "fusion_lon": 0.0, "is_disabled": 0}, {"rental_uris": {"android": "https://dc.lft.to/lastmile_qr_scan", "ios": "https://dc.lft.to/lastmile_qr_scan"}, "type": "electric_scooter", "lon": -76.99027933333333, "name": "95e0bdd7b7f634791960911b661ba15b", "bike_id": "95e0bdd7b7f634791960911b661ba15b", "fusion_lat": 0.0, "is_reserved": 0, "lat": 38.8887345, "fusion_lon": 0.0, "is_disabled": 0}, {"rental_uris": {"android": "https://dc.lft.to/lastmile_qr_scan", "ios": "https://dc.lft.to/lastmile_qr_scan"}, "type": "electric_scooter", "lon": -77.04511583333333, "name": "3ee0c596d9c6c048da523f9d9718a7f2", "bike_id": "3ee0c596d9c6c048da523f9d9718a7f2", "fusion_lat": 0.0, "is_reserved": 0, "lat": 38.89223616666666, "fusion_lon": 0.0, "is_disabled": 0}, {"rental_uris": {"android": "https://dc.lft.to/lastmile_qr_scan", "ios": "https://dc.lft.to/lastmile_qr_scan"}, "type": "electric_scooter", "lon": -77.034876, "name": "fa11c86fc722ac122297f635e14d17d7", "bike_id": "fa11c86fc722ac122297f635e14d17d7", "fusion_lat": 0.0, "is_reserved": 0, "lat": 38.924795, "fusion_lon": 0.0, "is_disabled": 0}, {"rental_uris": {"android": "https://dc.lft.to/lastmile_qr_scan", "ios": "https://dc.lft.to/lastmile_qr_scan"}, "type": "electric_scooter", "lon": -77.0250315, "name": "4f349a2af0ad88ee230dfcd950b6845e", "bike_id": "4f349a2af0ad88ee230dfcd950b6845e", "fusion_lat": 0.0, "is_reserved": 0, "lat": 38.9419985, "fusion_lon": 0.0, "is_disabled": 0}, {"rental_uris": {"android": "https://dc.lft.to/lastmile_qr_scan", "ios": "https://dc.lft.to/lastmile_qr_scan"}, "type": "electric_scooter", "lon": -77.03444116666667, "name": "0ca40f40b400006aaf63b131a4c3ac1b", "bike_id": "0ca40f40b400006aaf63b131a4c3ac1b", "fusion_lat": 0.0, "is_reserved": 0, "lat": 38.928732333333336, "fusion_lon": 0.0, "is_disabled": 0}, {"rental_uris": {"android": "https://dc.lft.to/lastmile_qr_scan", "ios": "https://dc.lft.to/lastmile_qr_scan"}, "type": "electric_scooter", "lon": -77.02511783333334, "name": "38cccd272a0956afa98c74f03dfb3d41", "bike_id": "38cccd272a0956afa98c74f03dfb3d41", "fusion_lat": 0.0, "is_reserved": 0, "lat": 38.91921133333334, "fusion_lon": 0.0, "is_disabled": 0}, {"rental_uris": {"android": "https://dc.lft.to/lastmile_qr_scan", "ios": "https://dc.lft.to/lastmile_qr_scan"}, "type": "electric_scooter", "lon": -76.97717866666666, "name": "57744f03f2c36701a06ce93e276fbed9", "bike_id": "57744f03f2c36701a06ce93e276fbed9", "fusion_lat": 0.0, "is_reserved": 0, "lat": 38.8724335, "fusion_lon": 0.0, "is_disabled": 0}, {"rental_uris": {"android": "https://dc.lft.to/lastmile_qr_scan", "ios": "https://dc.lft.to/lastmile_qr_scan"}, "type": "electric_scooter", "lon": -77.0799305, "name": "dcb9929204d878ff011663f2ca75abaa", "bike_id": "dcb9929204d878ff011663f2ca75abaa", "fusion_lat": 0.0, "is_reserved": 0, "lat": 38.92371033333333, "fusion_lon": 0.0, "is_disabled": 0}, {"rental_uris": {"android": "https://dc.lft.to/lastmile_qr_scan", "ios": "https://dc.lft.to/lastmile_qr_scan"}, "type": "electric_scooter", "lon": -77.04025783333333, "name": "f922e34a6b6976d594c641aaa3d4047a", "bike_id": "f922e34a6b6976d594c641aaa3d4047a", "fusion_lat": 0.0, "is_reserved": 0, "lat": 38.92461216666667, "fusion_lon": 0.0, "is_disabled": 0}, {"rental_uris": {"android": "https://dc.lft.to/lastmile_qr_scan", "ios": "https://dc.lft.to/lastmile_qr_scan"}, "type": "electric_scooter", "lon": -77.033393, "name": "6992531d89f8c1e9cb4b83821943b7ef", "bike_id": "6992531d89f8c1e9cb4b83821943b7ef", "fusion_lat": 0.0, "is_reserved": 0, "lat": 38.90374216666667, "fusion_lon": 0.0, "is_disabled": 0}, {"rental_uris": {"android": "https://dc.lft.to/lastmile_qr_scan", "ios": "https://dc.lft.to/lastmile_qr_scan"}, "type": "electric_scooter", "lon": -77.039552, "name": "aa2d2f5edb6578b258a6674378f514ac", "bike_id": "aa2d2f5edb6578b258a6674378f514ac", "fusion_lat": 0.0, "is_reserved": 0, "lat": 38.9061305, "fusion_lon": 0.0, "is_disabled": 0}, {"rental_uris": {"android": "https://dc.lft.to/lastmile_qr_scan", "ios": "https://dc.lft.to/lastmile_qr_scan"}, "type": "electric_scooter", "lon": -77.02421483333333, "name": "e08d5e7759d1fa772c4779e4e7d60a12", "bike_id": "e08d5e7759d1fa772c4779e4e7d60a12", "fusion_lat": 0.0, "is_reserved": 0, "lat": 38.90960283333333, "fusion_lon": 0.0, "is_disabled": 0}, {"rental_uris": {"android": "https://dc.lft.to/lastmile_qr_scan", "ios": "https://dc.lft.to/lastmile_qr_scan"}, "type": "electric_scooter", "lon": -77.00875466666666, "name": "f07e89afe85b66f526be1cc338b288bf", "bike_id": "f07e89afe85b66f526be1cc338b288bf", "fusion_lat": 0.0, "is_reserved": 0, "lat": 38.906694, "fusion_lon": 0.0, "is_disabled": 0}, {"rental_uris": {"android": "https://dc.lft.to/lastmile_qr_scan", "ios": "https://dc.lft.to/lastmile_qr_scan"}, "type": "electric_scooter", "lon": -77.02169533333333, "name": "8452420b1655465a2d18bcb95a26a627", "bike_id": "8452420b1655465a2d18bcb95a26a627", "fusion_lat": 0.0, "is_reserved": 0, "lat": 38.88749416666667, "fusion_lon": 0.0, "is_disabled": 0}, {"rental_uris": {"android": "https://dc.lft.to/lastmile_qr_scan", "ios": "https://dc.lft.to/lastmile_qr_scan"}, "type": "electric_scooter", "lon": -77.03469866666667, "name": "749e56d9af9d07e5e8b2e8ec8d150a6a", "bike_id": "749e56d9af9d07e5e8b2e8ec8d150a6a", "fusion_lat": 0.0, "is_reserved": 0, "lat": 38.909211666666664, "fusion_lon": 0.0, "is_disabled": 0}, {"rental_uris": {"android": "https://dc.lft.to/lastmile_qr_scan", "ios": "https://dc.lft.to/lastmile_qr_scan"}, "type": "electric_scooter", "lon": -77.04003716666666, "name": "bb8298037a346798a6f61e5b5f26b017", "bike_id": "bb8298037a346798a6f61e5b5f26b017", "fusion_lat": 0.0, "is_reserved": 0, "lat": 38.9180775, "fusion_lon": 0.0, "is_disabled": 0}, {"rental_uris": {"android": "https://dc.lft.to/lastmile_qr_scan", "ios": "https://dc.lft.to/lastmile_qr_scan"}, "type": "electric_scooter", "lon": -77.019621, "name": "860b31027fb6e4cf9a6bffdaae7efd18", "bike_id": "860b31027fb6e4cf9a6bffdaae7efd18", "fusion_lat": 0.0, "is_reserved": 0, "lat": 38.935787, "fusion_lon": 0.0, "is_disabled": 0}, {"rental_uris": {"android": "https://dc.lft.to/lastmile_qr_scan", "ios": "https://dc.lft.to/lastmile_qr_scan"}, "type": "electric_scooter", "lon": -77.0448075, "name": "aeac53d79a1652a83edff1e79f2e9ca9", "bike_id": "aeac53d79a1652a83edff1e79f2e9ca9", "fusion_lat": 0.0, "is_reserved": 0, "lat": 38.896261833333334, "fusion_lon": 0.0, "is_disabled": 0}, {"rental_uris": {"android": "https://dc.lft.to/lastmile_qr_scan", "ios": "https://dc.lft.to/lastmile_qr_scan"}, "type": "electric_bike", "lon": -76.97331433333333, "name": "81facab650d7f3644196d3ff58e0bd25", "bike_id": "81facab650d7f3644196d3ff58e0bd25", "fusion_lat": 0.0, "is_reserved": 0, "lat": 38.850644833333334, "fusion_lon": 0.0, "is_disabled": 0}, {"rental_uris": {"android": "https://dc.lft.to/lastmile_qr_scan", "ios": "https://dc.lft.to/lastmile_qr_scan"}, "type": "electric_scooter", "lon": -77.04663366666666, "name": "c283d2856d333f15aed18c42b5eb3ec2", "bike_id": "c283d2856d333f15aed18c42b5eb3ec2", "fusion_lat": 0.0, "is_reserved": 0, "lat": 38.905133, "fusion_lon": 0.0, "is_disabled": 0}, {"rental_uris": {"android": "https://dc.lft.to/lastmile_qr_scan", "ios": "https://dc.lft.to/lastmile_qr_scan"}, "type": "electric_bike", "lon": -77.19549266666667, "name": "49da501b7be0b0dc6357af293d17299a", "bike_id": "49da501b7be0b0dc6357af293d17299a", "fusion_lat": 0.0, "is_reserved": 0, "lat": 39.115112333333336, "fusion_lon": 0.0, "is_disabled": 0}, {"rental_uris": {"android": "https://dc.lft.to/lastmile_qr_scan", "ios": "https://dc.lft.to/lastmile_qr_scan"}, "type": "electric_scooter", "lon": -76.99825566666667, "name": "ec3948f87dde43c3b6ecf35c3bc1aacb", "bike_id": "ec3948f87dde43c3b6ecf35c3bc1aacb", "fusion_lat": 0.0, "is_reserved": 0, "lat": 38.88267966666667, "fusion_lon": 0.0, "is_disabled": 0}, {"rental_uris": {"android": "https://dc.lft.to/lastmile_qr_scan", "ios": "https://dc.lft.to/lastmile_qr_scan"}, "type": "electric_scooter", "lon": -76.9903175, "name": "51dffe57aafcc79c49d6de0e6ac3d4f2", "bike_id": "51dffe57aafcc79c49d6de0e6ac3d4f2", "fusion_lat": 0.0, "is_reserved": 0, "lat": 38.92344516666667, "fusion_lon": 0.0, "is_disabled": 0}, {"rental_uris": {"android": "https://dc.lft.to/lastmile_qr_scan", "ios": "https://dc.lft.to/lastmile_qr_scan"}, "type": "electric_bike", "lon": -76.966959, "name": "31fcb4baa486cb0bdca3734b242b57df", "bike_id": "31fcb4baa486cb0bdca3734b242b57df", "fusion_lat": 0.0, "is_reserved": 0, "lat": 38.868552, "fusion_lon": 0.0, "is_disabled": 0}, {"rental_uris": {"android": "https://dc.lft.to/lastmile_qr_scan", "ios": "https://dc.lft.to/lastmile_qr_scan"}, "type": "electric_scooter", "lon": -77.03586833333334, "name": "6690d2ca8f854f3f1b247872c458d4e7", "bike_id": "6690d2ca8f854f3f1b247872c458d4e7", "fusion_lat": 0.0, "is_reserved": 0, "lat": 38.92867066666667, "fusion_lon": 0.0, "is_disabled": 0}, {"rental_uris": {"android": "https://dc.lft.to/lastmile_qr_scan", "ios": "https://dc.lft.to/lastmile_qr_scan"}, "type": "electric_bike", "lon": -77.04979433333334, "name": "db392c981ba7dfc517cf66ef8dda972a", "bike_id": "db392c981ba7dfc517cf66ef8dda972a", "fusion_lat": 0.0, "is_reserved": 0, "lat": 38.992484833333336, "fusion_lon": 0.0, "is_disabled": 0}, {"rental_uris": {"android": "https://dc.lft.to/lastmile_qr_scan", "ios": "https://dc.lft.to/lastmile_qr_scan"}, "type": "electric_bike", "lon": -77.01202033333334, "name": "115f37e9e987a8c2afe71845b5d65c17", "bike_id": "115f37e9e987a8c2afe71845b5d65c17", "fusion_lat": 0.0, "is_reserved": 0, "lat": 38.95073516666667, "fusion_lon": 0.0, "is_disabled": 0}, {"rental_uris": {"android": "https://dc.lft.to/lastmile_qr_scan", "ios": "https://dc.lft.to/lastmile_qr_scan"}, "type": "electric_scooter", "lon": -77.04687833333334, "name": "ab2264cae289780f74c8760a9c38f879", "bike_id": "ab2264cae289780f74c8760a9c38f879", "fusion_lat": 0.0, "is_reserved": 0, "lat": 38.9158435, "fusion_lon": 0.0, "is_disabled": 0}, {"rental_uris": {"android": "https://dc.lft.to/lastmile_qr_scan", "ios": "https://dc.lft.to/lastmile_qr_scan"}, "type": "electric_scooter", "lon": -77.00919766666667, "name": "24ac209503e4ee62778d770422348b5b", "bike_id": "24ac209503e4ee62778d770422348b5b", "fusion_lat": 0.0, "is_reserved": 0, "lat": 38.87634583333333, "fusion_lon": 0.0, "is_disabled": 0}, {"rental_uris": {"android": "https://dc.lft.to/lastmile_qr_scan", "ios": "https://dc.lft.to/lastmile_qr_scan"}, "type": "electric_bike", "lon": -77.0287935, "name": "c53dbb5cf1d5406027108d44621cb6a7", "bike_id": "c53dbb5cf1d5406027108d44621cb6a7", "fusion_lat": 0.0, "is_reserved": 0, "lat": 38.97944, "fusion_lon": 0.0, "is_disabled": 0}, {"rental_uris": {"android": "https://dc.lft.to/lastmile_qr_scan", "ios": "https://dc.lft.to/lastmile_qr_scan"}, "type": "electric_scooter", "lon": -77.03216916666666, "name": "b46f9b540e8d9755ecdef8c4bf921ff3", "bike_id": "b46f9b540e8d9755ecdef8c4bf921ff3", "fusion_lat": 0.0, "is_reserved": 0, "lat": 38.9162135, "fusion_lon": 0.0, "is_disabled": 0}, {"rental_uris": {"android": "https://dc.lft.to/lastmile_qr_scan", "ios": "https://dc.lft.to/lastmile_qr_scan"}, "type": "electric_scooter", "lon": -77.02681766666667, "name": "8ac758607c0b3beb54e4f263f76f9185", "bike_id": "8ac758607c0b3beb54e4f263f76f9185", "fusion_lat": 0.0, "is_reserved": 0, "lat": 38.909591666666664, "fusion_lon": 0.0, "is_disabled": 0}, {"rental_uris": {"android": "https://dc.lft.to/lastmile_qr_scan", "ios": "https://dc.lft.to/lastmile_qr_scan"}, "type": "electric_scooter", "lon": -77.0628405, "name": "24b372027d4b98c3c9af9c368509f67d", "bike_id": "24b372027d4b98c3c9af9c368509f67d", "fusion_lat": 0.0, "is_reserved": 0, "lat": 38.906206, "fusion_lon": 0.0, "is_disabled": 0}, {"rental_uris": {"android": "https://dc.lft.to/lastmile_qr_scan", "ios": "https://dc.lft.to/lastmile_qr_scan"}, "type": "electric_scooter", "lon": -77.04576833333333, "name": "be8664066a3538f42a1edd27ba1a534c", "bike_id": "be8664066a3538f42a1edd27ba1a534c", "fusion_lat": 0.0, "is_reserved": 0, "lat": 38.91394183333333, "fusion_lon": 0.0, "is_disabled": 0}, {"rental_uris": {"android": "https://dc.lft.to/lastmile_qr_scan", "ios": "https://dc.lft.to/lastmile_qr_scan"}, "type": "electric_scooter", "lon": -76.94825233333333, "name": "50bbf4cb5a8ae184e494304a2a5dd38f", "bike_id": "50bbf4cb5a8ae184e494304a2a5dd38f", "fusion_lat": 0.0, "is_reserved": 0, "lat": 38.88513233333333, "fusion_lon": 0.0, "is_disabled": 0}, {"rental_uris": {"android": "https://dc.lft.to/lastmile_qr_scan", "ios": "https://dc.lft.to/lastmile_qr_scan"}, "type": "electric_scooter", "lon": -77.038454, "name": "ddbb19d38a4f287c0c41008c9dde3f29", "bike_id": "ddbb19d38a4f287c0c41008c9dde3f29", "fusion_lat": 0.0, "is_reserved": 0, "lat": 38.9121575, "fusion_lon": 0.0, "is_disabled": 0}, {"rental_uris": {"android": "https://dc.lft.to/lastmile_qr_scan", "ios": "https://dc.lft.to/lastmile_qr_scan"}, "type": "electric_scooter", "lon": -77.01946166666667, "name": "d97047a62757989fec45d0f60c5cb5f4", "bike_id": "d97047a62757989fec45d0f60c5cb5f4", "fusion_lat": 0.0, "is_reserved": 0, "lat": 38.922546833333335, "fusion_lon": 0.0, "is_disabled": 0}, {"rental_uris": {"android": "https://dc.lft.to/lastmile_qr_scan", "ios": "https://dc.lft.to/lastmile_qr_scan"}, "type": "electric_scooter", "lon": -77.02284716666666, "name": "b91cebf29b30b8835f5b8e2cbcd39357", "bike_id": "b91cebf29b30b8835f5b8e2cbcd39357", "fusion_lat": 0.0, "is_reserved": 0, "lat": 38.91648716666667, "fusion_lon": 0.0, "is_disabled": 0}, {"rental_uris": {"android": "https://dc.lft.to/lastmile_qr_scan", "ios": "https://dc.lft.to/lastmile_qr_scan"}, "type": "electric_scooter", "lon": -77.05417433333334, "name": "d09c0d196a35fb5acd619211f80011cd", "bike_id": "d09c0d196a35fb5acd619211f80011cd", "fusion_lat": 0.0, "is_reserved": 0, "lat": 38.90386, "fusion_lon": 0.0, "is_disabled": 0}, {"rental_uris": {"android": "https://dc.lft.to/lastmile_qr_scan", "ios": "https://dc.lft.to/lastmile_qr_scan"}, "type": "electric_scooter", "lon": -77.02206616666666, "name": "2f278df64e3dfb42c44368ccdfd32d14", "bike_id": "2f278df64e3dfb42c44368ccdfd32d14", "fusion_lat": 0.0, "is_reserved": 0, "lat": 38.895177833333335, "fusion_lon": 0.0, "is_disabled": 0}, {"rental_uris": {"android": "https://dc.lft.to/lastmile_qr_scan", "ios": "https://dc.lft.to/lastmile_qr_scan"}, "type": "electric_scooter", "lon": -77.02654516666666, "name": "36fd3d487fd6ea491fe29a3e3985ea86", "bike_id": "36fd3d487fd6ea491fe29a3e3985ea86", "fusion_lat": 0.0, "is_reserved": 0, "lat": 38.902421, "fusion_lon": 0.0, "is_disabled": 0}, {"rental_uris": {"android": "https://dc.lft.to/lastmile_qr_scan", "ios": "https://dc.lft.to/lastmile_qr_scan"}, "type": "electric_scooter", "lon": -77.03443683333333, "name": "85e66937782bd606db52e65141d48eff", "bike_id": "85e66937782bd606db52e65141d48eff", "fusion_lat": 0.0, "is_reserved": 0, "lat": 38.907169, "fusion_lon": 0.0, "is_disabled": 0}, {"rental_uris": {"android": "https://dc.lft.to/lastmile_qr_scan", "ios": "https://dc.lft.to/lastmile_qr_scan"}, "type": "electric_scooter", "lon": -76.99850833333333, "name": "b036756ac41ca4f2e6c9e478727cfaf1", "bike_id": "b036756ac41ca4f2e6c9e478727cfaf1", "fusion_lat": 0.0, "is_reserved": 0, "lat": 38.89999, "fusion_lon": 0.0, "is_disabled": 0}, {"rental_uris": {"android": "https://dc.lft.to/lastmile_qr_scan", "ios": "https://dc.lft.to/lastmile_qr_scan"}, "type": "electric_scooter", "lon": -76.98594416666667, "name": "f9d0ea82367817ce3f3af7e6fff40931", "bike_id": "f9d0ea82367817ce3f3af7e6fff40931", "fusion_lat": 0.0, "is_reserved": 0, "lat": 38.90012483333334, "fusion_lon": 0.0, "is_disabled": 0}, {"rental_uris": {"android": "https://dc.lft.to/lastmile_qr_scan", "ios": "https://dc.lft.to/lastmile_qr_scan"}, "type": "electric_scooter", "lon": -77.022048, "name": "61d181f1f68036f0f81ea6d1b3f9bb3a", "bike_id": "61d181f1f68036f0f81ea6d1b3f9bb3a", "fusion_lat": 0.0, "is_reserved": 0, "lat": 38.901741333333334, "fusion_lon": 0.0, "is_disabled": 0}, {"rental_uris": {"android": "https://dc.lft.to/lastmile_qr_scan", "ios": "https://dc.lft.to/lastmile_qr_scan"}, "type": "electric_scooter", "lon": -77.042087, "name": "35c9d1b3a5e1bfa6fa44da8e9fd6b5c8", "bike_id": "35c9d1b3a5e1bfa6fa44da8e9fd6b5c8", "fusion_lat": 0.0, "is_reserved": 0, "lat": 38.92131933333334, "fusion_lon": 0.0, "is_disabled": 0}, {"rental_uris": {"android": "https://dc.lft.to/lastmile_qr_scan", "ios": "https://dc.lft.to/lastmile_qr_scan"}, "type": "electric_scooter", "lon": -77.0343015, "name": "cb7df7b21ee33d6eeb2fef5e902ea225", "bike_id": "cb7df7b21ee33d6eeb2fef5e902ea225", "fusion_lat": 0.0, "is_reserved": 0, "lat": 38.907097666666665, "fusion_lon": 0.0, "is_disabled": 0}, {"rental_uris": {"android": "https://dc.lft.to/lastmile_qr_scan", "ios": "https://dc.lft.to/lastmile_qr_scan"}, "type": "electric_scooter", "lon": -77.05285866666667, "name": "593c8687bdca241abde4cacd98ab022a", "bike_id": "593c8687bdca241abde4cacd98ab022a", "fusion_lat": 0.0, "is_reserved": 0, "lat": 38.9105455, "fusion_lon": 0.0, "is_disabled": 0}, {"rental_uris": {"android": "https://dc.lft.to/lastmile_qr_scan", "ios": "https://dc.lft.to/lastmile_qr_scan"}, "type": "electric_scooter", "lon": -77.0217185, "name": "8824501ad4f01c94d2b42794a991ea5b", "bike_id": "8824501ad4f01c94d2b42794a991ea5b", "fusion_lat": 0.0, "is_reserved": 0, "lat": 38.94311416666667, "fusion_lon": 0.0, "is_disabled": 0}, {"rental_uris": {"android": "https://dc.lft.to/lastmile_qr_scan", "ios": "https://dc.lft.to/lastmile_qr_scan"}, "type": "electric_scooter", "lon": -76.99549283333333, "name": "0831864e74f6002181ba5a9585034fea", "bike_id": "0831864e74f6002181ba5a9585034fea", "fusion_lat": 0.0, "is_reserved": 0, "lat": 38.884193, "fusion_lon": 0.0, "is_disabled": 0}, {"rental_uris": {"android": "https://dc.lft.to/lastmile_qr_scan", "ios": "https://dc.lft.to/lastmile_qr_scan"}, "type": "electric_bike", "lon": -77.09524833333333, "name": "7f9cff11b76876af9de5f5c20bee6db1", "bike_id": "7f9cff11b76876af9de5f5c20bee6db1", "fusion_lat": 0.0, "is_reserved": 0, "lat": 38.8381185, "fusion_lon": 0.0, "is_disabled": 0}, {"rental_uris": {"android": "https://dc.lft.to/lastmile_qr_scan", "ios": "https://dc.lft.to/lastmile_qr_scan"}, "type": "electric_scooter", "lon": -77.04581833333333, "name": "ceba49b81e70b7a4c1f48b53e85318f2", "bike_id": "ceba49b81e70b7a4c1f48b53e85318f2", "fusion_lat": 0.0, "is_reserved": 0, "lat": 38.9213875, "fusion_lon": 0.0, "is_disabled": 0}, {"rental_uris": {"android": "https://dc.lft.to/lastmile_qr_scan", "ios": "https://dc.lft.to/lastmile_qr_scan"}, "type": "electric_scooter", "lon": -76.971823, "name": "2dc51471d97fd71d4f98cb4f07d5e8a9", "bike_id": "2dc51471d97fd71d4f98cb4f07d5e8a9", "fusion_lat": 0.0, "is_reserved": 0, "lat": 38.912635, "fusion_lon": 0.0, "is_disabled": 0}, {"rental_uris": {"android": "https://dc.lft.to/lastmile_qr_scan", "ios": "https://dc.lft.to/lastmile_qr_scan"}, "type": "electric_scooter", "lon": -77.03101383333333, "name": "d5a4b5735b90370b51fdcea76cbc8818", "bike_id": "d5a4b5735b90370b51fdcea76cbc8818", "fusion_lat": 0.0, "is_reserved": 0, "lat": 38.89746483333333, "fusion_lon": 0.0, "is_disabled": 0}, {"rental_uris": {"android": "https://dc.lft.to/lastmile_qr_scan", "ios": "https://dc.lft.to/lastmile_qr_scan"}, "type": "electric_scooter", "lon": -77.00746166666667, "name": "5f0ee7490865c3a6f0fa59562d91748a", "bike_id": "5f0ee7490865c3a6f0fa59562d91748a", "fusion_lat": 0.0, "is_reserved": 0, "lat": 38.87926016666667, "fusion_lon": 0.0, "is_disabled": 0}, {"rental_uris": {"android": "https://dc.lft.to/lastmile_qr_scan", "ios": "https://dc.lft.to/lastmile_qr_scan"}, "type": "electric_scooter", "lon": -77.04791716666666, "name": "9dd8ae6944f73cb154a691073c67404f", "bike_id": "9dd8ae6944f73cb154a691073c67404f", "fusion_lat": 0.0, "is_reserved": 0, "lat": 38.91916966666667, "fusion_lon": 0.0, "is_disabled": 0}, {"rental_uris": {"android": "https://dc.lft.to/lastmile_qr_scan", "ios": "https://dc.lft.to/lastmile_qr_scan"}, "type": "electric_scooter", "lon": -77.02711566666666, "name": "0a3ff453ebb6a442baa336c3320bfa4c", "bike_id": "0a3ff453ebb6a442baa336c3320bfa4c", "fusion_lat": 0.0, "is_reserved": 0, "lat": 38.9246525, "fusion_lon": 0.0, "is_disabled": 0}, {"rental_uris": {"android": "https://dc.lft.to/lastmile_qr_scan", "ios": "https://dc.lft.to/lastmile_qr_scan"}, "type": "electric_scooter", "lon": -77.03223033333333, "name": "bc29650f3841e2e6823a49d59a2ba589", "bike_id": "bc29650f3841e2e6823a49d59a2ba589", "fusion_lat": 0.0, "is_reserved": 0, "lat": 38.9085545, "fusion_lon": 0.0, "is_disabled": 0}, {"rental_uris": {"android": "https://dc.lft.to/lastmile_qr_scan", "ios": "https://dc.lft.to/lastmile_qr_scan"}, "type": "electric_scooter", "lon": -77.05457533333333, "name": "907eb406161dac668091ea6a8b65c58c", "bike_id": "907eb406161dac668091ea6a8b65c58c", "fusion_lat": 0.0, "is_reserved": 0, "lat": 38.92896266666666, "fusion_lon": 0.0, "is_disabled": 0}, {"rental_uris": {"android": "https://dc.lft.to/lastmile_qr_scan", "ios": "https://dc.lft.to/lastmile_qr_scan"}, "type": "electric_scooter", "lon": -77.03045716666666, "name": "f4280c71572b9cb451eb91d49f0e9f2c", "bike_id": "f4280c71572b9cb451eb91d49f0e9f2c", "fusion_lat": 0.0, "is_reserved": 0, "lat": 38.88407466666666, "fusion_lon": 0.0, "is_disabled": 0}, {"rental_uris": {"android": "https://dc.lft.to/lastmile_qr_scan", "ios": "https://dc.lft.to/lastmile_qr_scan"}, "type": "electric_scooter", "lon": -77.03880683333334, "name": "e7c7ba0ea177246d1487137d104b5638", "bike_id": "e7c7ba0ea177246d1487137d104b5638", "fusion_lat": 0.0, "is_reserved": 0, "lat": 38.92230883333333, "fusion_lon": 0.0, "is_disabled": 0}, {"rental_uris": {"android": "https://dc.lft.to/lastmile_qr_scan", "ios": "https://dc.lft.to/lastmile_qr_scan"}, "type": "electric_scooter", "lon": -77.002164, "name": "5793a9ce74e569cf2243e1143fb816a5", "bike_id": "5793a9ce74e569cf2243e1143fb816a5", "fusion_lat": 0.0, "is_reserved": 0, "lat": 38.908395666666664, "fusion_lon": 0.0, "is_disabled": 0}, {"rental_uris": {"android": "https://dc.lft.to/lastmile_qr_scan", "ios": "https://dc.lft.to/lastmile_qr_scan"}, "type": "electric_scooter", "lon": -77.02874383333334, "name": "9669f00388f573523dc999af154fc509", "bike_id": "9669f00388f573523dc999af154fc509", "fusion_lat": 0.0, "is_reserved": 0, "lat": 38.922305333333334, "fusion_lon": 0.0, "is_disabled": 0}, {"rental_uris": {"android": "https://dc.lft.to/lastmile_qr_scan", "ios": "https://dc.lft.to/lastmile_qr_scan"}, "type": "electric_scooter", "lon": -76.948139, "name": "3e2fc51d0970a6a1c7928bdeeb865479", "bike_id": "3e2fc51d0970a6a1c7928bdeeb865479", "fusion_lat": 0.0, "is_reserved": 0, "lat": 38.89342666666667, "fusion_lon": 0.0, "is_disabled": 0}, {"rental_uris": {"android": "https://dc.lft.to/lastmile_qr_scan", "ios": "https://dc.lft.to/lastmile_qr_scan"}, "type": "electric_scooter", "lon": -76.934335, "name": "31a10263892b560dec91f89caac67c77", "bike_id": "31a10263892b560dec91f89caac67c77", "fusion_lat": 0.0, "is_reserved": 0, "lat": 38.899648666666664, "fusion_lon": 0.0, "is_disabled": 0}, {"rental_uris": {"android": "https://dc.lft.to/lastmile_qr_scan", "ios": "https://dc.lft.to/lastmile_qr_scan"}, "type": "electric_scooter", "lon": -77.011349, "name": "98c9b6ea180a1415f02de5db0c127c24", "bike_id": "98c9b6ea180a1415f02de5db0c127c24", "fusion_lat": 0.0, "is_reserved": 0, "lat": 38.907316, "fusion_lon": 0.0, "is_disabled": 0}, {"rental_uris": {"android": "https://dc.lft.to/lastmile_qr_scan", "ios": "https://dc.lft.to/lastmile_qr_scan"}, "type": "electric_bike", "lon": -76.9790405, "name": "cd695609008f0fed6e023190b67e59b0", "bike_id": "cd695609008f0fed6e023190b67e59b0", "fusion_lat": 0.0, "is_reserved": 0, "lat": 38.8883245, "fusion_lon": 0.0, "is_disabled": 0}, {"rental_uris": {"android": "https://dc.lft.to/lastmile_qr_scan", "ios": "https://dc.lft.to/lastmile_qr_scan"}, "type": "electric_scooter", "lon": -77.01771266666667, "name": "384c849937daf08347aca38abc42da5f", "bike_id": "384c849937daf08347aca38abc42da5f", "fusion_lat": 0.0, "is_reserved": 0, "lat": 38.87292866666667, "fusion_lon": 0.0, "is_disabled": 0}, {"rental_uris": {"android": "https://dc.lft.to/lastmile_qr_scan", "ios": "https://dc.lft.to/lastmile_qr_scan"}, "type": "electric_scooter", "lon": -76.990007, "name": "57f467aefbeb061c821c0a140da9373d", "bike_id": "57f467aefbeb061c821c0a140da9373d", "fusion_lat": 0.0, "is_reserved": 0, "lat": 38.86502633333333, "fusion_lon": 0.0, "is_disabled": 0}, {"rental_uris": {"android": "https://dc.lft.to/lastmile_qr_scan", "ios": "https://dc.lft.to/lastmile_qr_scan"}, "type": "electric_scooter", "lon": -77.0530415, "name": "825a2c36603d4e0146b42f9dec50345c", "bike_id": "825a2c36603d4e0146b42f9dec50345c", "fusion_lat": 0.0, "is_reserved": 0, "lat": 38.92774883333333, "fusion_lon": 0.0, "is_disabled": 0}, {"rental_uris": {"android": "https://dc.lft.to/lastmile_qr_scan", "ios": "https://dc.lft.to/lastmile_qr_scan"}, "type": "electric_scooter", "lon": -77.02229966666667, "name": "8c02fa62641d2f9713fcfe66d247e075", "bike_id": "8c02fa62641d2f9713fcfe66d247e075", "fusion_lat": 0.0, "is_reserved": 0, "lat": 38.887682, "fusion_lon": 0.0, "is_disabled": 0}, {"rental_uris": {"android": "https://dc.lft.to/lastmile_qr_scan", "ios": "https://dc.lft.to/lastmile_qr_scan"}, "type": "electric_scooter", "lon": -77.0514845, "name": "f75f1b88e997cde8bd92c5b46b861d37", "bike_id": "f75f1b88e997cde8bd92c5b46b861d37", "fusion_lat": 0.0, "is_reserved": 0, "lat": 38.907999, "fusion_lon": 0.0, "is_disabled": 0}, {"rental_uris": {"android": "https://dc.lft.to/lastmile_qr_scan", "ios": "https://dc.lft.to/lastmile_qr_scan"}, "type": "electric_scooter", "lon": -76.994873, "name": "959f6b463c6b370a28c40166a8651321", "bike_id": "959f6b463c6b370a28c40166a8651321", "fusion_lat": 0.0, "is_reserved": 0, "lat": 38.862404166666664, "fusion_lon": 0.0, "is_disabled": 0}, {"rental_uris": {"android": "https://dc.lft.to/lastmile_qr_scan", "ios": "https://dc.lft.to/lastmile_qr_scan"}, "type": "electric_scooter", "lon": -77.03584033333334, "name": "0509abcd6d9c4d87ab44e2f09385cb2a", "bike_id": "0509abcd6d9c4d87ab44e2f09385cb2a", "fusion_lat": 0.0, "is_reserved": 0, "lat": 38.919120666666664, "fusion_lon": 0.0, "is_disabled": 0}, {"rental_uris": {"android": "https://dc.lft.to/lastmile_qr_scan", "ios": "https://dc.lft.to/lastmile_qr_scan"}, "type": "electric_scooter", "lon": -76.99728533333334, "name": "af8adbcd45a1eb07cb2879d22a209b68", "bike_id": "af8adbcd45a1eb07cb2879d22a209b68", "fusion_lat": 0.0, "is_reserved": 0, "lat": 38.90793883333333, "fusion_lon": 0.0, "is_disabled": 0}, {"rental_uris": {"android": "https://dc.lft.to/lastmile_qr_scan", "ios": "https://dc.lft.to/lastmile_qr_scan"}, "type": "electric_scooter", "lon": -77.034526, "name": "fe51adfe393226fcb174af9986571570", "bike_id": "fe51adfe393226fcb174af9986571570", "fusion_lat": 0.0, "is_reserved": 0, "lat": 38.90579, "fusion_lon": 0.0, "is_disabled": 0}, {"rental_uris": {"android": "https://dc.lft.to/lastmile_qr_scan", "ios": "https://dc.lft.to/lastmile_qr_scan"}, "type": "electric_scooter", "lon": -77.03437183333334, "name": "9f2c22b4e965e5fb3296d8e5f8bfe873", "bike_id": "9f2c22b4e965e5fb3296d8e5f8bfe873", "fusion_lat": 0.0, "is_reserved": 0, "lat": 38.918017666666664, "fusion_lon": 0.0, "is_disabled": 0}, {"rental_uris": {"android": "https://dc.lft.to/lastmile_qr_scan", "ios": "https://dc.lft.to/lastmile_qr_scan"}, "type": "electric_scooter", "lon": -76.99146583333334, "name": "23ff5b27ada6eda745763c2d050eb0fc", "bike_id": "23ff5b27ada6eda745763c2d050eb0fc", "fusion_lat": 0.0, "is_reserved": 0, "lat": 38.9012235, "fusion_lon": 0.0, "is_disabled": 0}, {"rental_uris": {"android": "https://dc.lft.to/lastmile_qr_scan", "ios": "https://dc.lft.to/lastmile_qr_scan"}, "type": "electric_scooter", "lon": -76.99751383333333, "name": "f0d65d00594f05ba46b4198329c2bdcf", "bike_id": "f0d65d00594f05ba46b4198329c2bdcf", "fusion_lat": 0.0, "is_reserved": 0, "lat": 38.9227575, "fusion_lon": 0.0, "is_disabled": 0}, {"rental_uris": {"android": "https://dc.lft.to/lastmile_qr_scan", "ios": "https://dc.lft.to/lastmile_qr_scan"}, "type": "electric_scooter", "lon": -76.98133633333333, "name": "ed4b3275ab82367a73d960e7b837b931", "bike_id": "ed4b3275ab82367a73d960e7b837b931", "fusion_lat": 0.0, "is_reserved": 0, "lat": 38.8841785, "fusion_lon": 0.0, "is_disabled": 0}, {"rental_uris": {"android": "https://dc.lft.to/lastmile_qr_scan", "ios": "https://dc.lft.to/lastmile_qr_scan"}, "type": "electric_scooter", "lon": -77.02024266666666, "name": "db7822ab5fbc41ef087c9974ed166da7", "bike_id": "db7822ab5fbc41ef087c9974ed166da7", "fusion_lat": 0.0, "is_reserved": 0, "lat": 38.89256783333333, "fusion_lon": 0.0, "is_disabled": 0}, {"rental_uris": {"android": "https://dc.lft.to/lastmile_qr_scan", "ios": "https://dc.lft.to/lastmile_qr_scan"}, "type": "electric_scooter", "lon": -76.9949435, "name": "4098a7ed9a3ce5b6ca180617c2759ef7", "bike_id": "4098a7ed9a3ce5b6ca180617c2759ef7", "fusion_lat": 0.0, "is_reserved": 0, "lat": 38.87681116666667, "fusion_lon": 0.0, "is_disabled": 0}, {"rental_uris": {"android": "https://dc.lft.to/lastmile_qr_scan", "ios": "https://dc.lft.to/lastmile_qr_scan"}, "type": "electric_scooter", "lon": -77.063452, "name": "10508a467a02ec6a7c18a1d1e82424a5", "bike_id": "10508a467a02ec6a7c18a1d1e82424a5", "fusion_lat": 0.0, "is_reserved": 0, "lat": 38.908426666666664, "fusion_lon": 0.0, "is_disabled": 0}, {"rental_uris": {"android": "https://dc.lft.to/lastmile_qr_scan", "ios": "https://dc.lft.to/lastmile_qr_scan"}, "type": "electric_scooter", "lon": -77.021604, "name": "fcd5d334d97a2f674061b8ee202ec188", "bike_id": "fcd5d334d97a2f674061b8ee202ec188", "fusion_lat": 0.0, "is_reserved": 0, "lat": 38.9408275, "fusion_lon": 0.0, "is_disabled": 0}, {"rental_uris": {"android": "https://dc.lft.to/lastmile_qr_scan", "ios": "https://dc.lft.to/lastmile_qr_scan"}, "type": "electric_scooter", "lon": -77.01766, "name": "02192da8f0c62ff397d1959242b84de6", "bike_id": "02192da8f0c62ff397d1959242b84de6", "fusion_lat": 0.0, "is_reserved": 0, "lat": 38.87294116666666, "fusion_lon": 0.0, "is_disabled": 0}, {"rental_uris": {"android": "https://dc.lft.to/lastmile_qr_scan", "ios": "https://dc.lft.to/lastmile_qr_scan"}, "type": "electric_bike", "lon": -77.11427533333334, "name": "ee5f4169ab732abf684ad077c0542d90", "bike_id": "ee5f4169ab732abf684ad077c0542d90", "fusion_lat": 0.0, "is_reserved": 0, "lat": 38.8524795, "fusion_lon": 0.0, "is_disabled": 0}, {"rental_uris": {"android": "https://dc.lft.to/lastmile_qr_scan", "ios": "https://dc.lft.to/lastmile_qr_scan"}, "type": "electric_scooter", "lon": -77.02696833333333, "name": "7f9b2490013be858d1fa294868e5c242", "bike_id": "7f9b2490013be858d1fa294868e5c242", "fusion_lat": 0.0, "is_reserved": 0, "lat": 38.91272383333333, "fusion_lon": 0.0, "is_disabled": 0}, {"rental_uris": {"android": "https://dc.lft.to/lastmile_qr_scan", "ios": "https://dc.lft.to/lastmile_qr_scan"}, "type": "electric_scooter", "lon": -76.99952666666667, "name": "cff9491553444326d0953cd41c54fc40", "bike_id": "cff9491553444326d0953cd41c54fc40", "fusion_lat": 0.0, "is_reserved": 0, "lat": 38.9086465, "fusion_lon": 0.0, "is_disabled": 0}, {"rental_uris": {"android": "https://dc.lft.to/lastmile_qr_scan", "ios": "https://dc.lft.to/lastmile_qr_scan"}, "type": "electric_scooter", "lon": -76.99630583333334, "name": "819a3838128de914142700a43b05abd8", "bike_id": "819a3838128de914142700a43b05abd8", "fusion_lat": 0.0, "is_reserved": 0, "lat": 38.900021, "fusion_lon": 0.0, "is_disabled": 0}, {"rental_uris": {"android": "https://dc.lft.to/lastmile_qr_scan", "ios": "https://dc.lft.to/lastmile_qr_scan"}, "type": "electric_bike", "lon": -76.99764133333333, "name": "fd594860e1aaa7f79cebc9118154c8e7", "bike_id": "fd594860e1aaa7f79cebc9118154c8e7", "fusion_lat": 0.0, "is_reserved": 0, "lat": 39.0059455, "fusion_lon": 0.0, "is_disabled": 0}, {"rental_uris": {"android": "https://dc.lft.to/lastmile_qr_scan", "ios": "https://dc.lft.to/lastmile_qr_scan"}, "type": "electric_scooter", "lon": -77.02319933333334, "name": "f5093fef77962be7bbc8c8be9739e128", "bike_id": "f5093fef77962be7bbc8c8be9739e128", "fusion_lat": 0.0, "is_reserved": 0, "lat": 38.916983, "fusion_lon": 0.0, "is_disabled": 0}, {"rental_uris": {"android": "https://dc.lft.to/lastmile_qr_scan", "ios": "https://dc.lft.to/lastmile_qr_scan"}, "type": "electric_scooter", "lon": -77.034065, "name": "a5a7d544a0ce4c3b5ee07497d5acaa14", "bike_id": "a5a7d544a0ce4c3b5ee07497d5acaa14", "fusion_lat": 0.0, "is_reserved": 0, "lat": 38.919193166666666, "fusion_lon": 0.0, "is_disabled": 0}, {"rental_uris": {"android": "https://dc.lft.to/lastmile_qr_scan", "ios": "https://dc.lft.to/lastmile_qr_scan"}, "type": "electric_scooter", "lon": -77.01343083333333, "name": "62937a8874fc0d5a1605d2adf776fc09", "bike_id": "62937a8874fc0d5a1605d2adf776fc09", "fusion_lat": 0.0, "is_reserved": 0, "lat": 38.919162666666665, "fusion_lon": 0.0, "is_disabled": 0}, {"rental_uris": {"android": "https://dc.lft.to/lastmile_qr_scan", "ios": "https://dc.lft.to/lastmile_qr_scan"}, "type": "electric_scooter", "lon": -77.01245783333333, "name": "8783c94f7eaf9056e0d02fcd4bec48cb", "bike_id": "8783c94f7eaf9056e0d02fcd4bec48cb", "fusion_lat": 0.0, "is_reserved": 0, "lat": 38.90863233333334, "fusion_lon": 0.0, "is_disabled": 0}, {"rental_uris": {"android": "https://dc.lft.to/lastmile_qr_scan", "ios": "https://dc.lft.to/lastmile_qr_scan"}, "type": "electric_scooter", "lon": -77.01276, "name": "65a186fe4eff97822de835277316617d", "bike_id": "65a186fe4eff97822de835277316617d", "fusion_lat": 0.0, "is_reserved": 0, "lat": 38.9156705, "fusion_lon": 0.0, "is_disabled": 0}, {"rental_uris": {"android": "https://dc.lft.to/lastmile_qr_scan", "ios": "https://dc.lft.to/lastmile_qr_scan"}, "type": "electric_scooter", "lon": -76.9651945, "name": "2caeef257e0de0891e13dd6b4624fd2b", "bike_id": "2caeef257e0de0891e13dd6b4624fd2b", "fusion_lat": 0.0, "is_reserved": 0, "lat": 38.87477966666667, "fusion_lon": 0.0, "is_disabled": 0}, {"rental_uris": {"android": "https://dc.lft.to/lastmile_qr_scan", "ios": "https://dc.lft.to/lastmile_qr_scan"}, "type": "electric_scooter", "lon": -77.07297533333333, "name": "5ba5143bde66196202f59ba67cdfd667", "bike_id": "5ba5143bde66196202f59ba67cdfd667", "fusion_lat": 0.0, "is_reserved": 0, "lat": 38.930648166666664, "fusion_lon": 0.0, "is_disabled": 0}, {"rental_uris": {"android": "https://dc.lft.to/lastmile_qr_scan", "ios": "https://dc.lft.to/lastmile_qr_scan"}, "type": "electric_scooter", "lon": -76.974739, "name": "b0bd281fad7e1819e01838c784054d3e", "bike_id": "b0bd281fad7e1819e01838c784054d3e", "fusion_lat": 0.0, "is_reserved": 0, "lat": 38.90352733333334, "fusion_lon": 0.0, "is_disabled": 0}, {"rental_uris": {"android": "https://dc.lft.to/lastmile_qr_scan", "ios": "https://dc.lft.to/lastmile_qr_scan"}, "type": "electric_scooter", "lon": -77.02698216666667, "name": "eee67c603137d42abbef6e3c62951da8", "bike_id": "eee67c603137d42abbef6e3c62951da8", "fusion_lat": 0.0, "is_reserved": 0, "lat": 38.950002, "fusion_lon": 0.0, "is_disabled": 0}, {"rental_uris": {"android": "https://dc.lft.to/lastmile_qr_scan", "ios": "https://dc.lft.to/lastmile_qr_scan"}, "type": "electric_scooter", "lon": -77.02148633333333, "name": "e2d6606623c1c203d5a4a97c4f2e3571", "bike_id": "e2d6606623c1c203d5a4a97c4f2e3571", "fusion_lat": 0.0, "is_reserved": 0, "lat": 38.88492683333333, "fusion_lon": 0.0, "is_disabled": 0}, {"rental_uris": {"android": "https://dc.lft.to/lastmile_qr_scan", "ios": "https://dc.lft.to/lastmile_qr_scan"}, "type": "electric_scooter", "lon": -77.04168433333334, "name": "3d120fc4338f30c7f6c79eacbf8b5662", "bike_id": "3d120fc4338f30c7f6c79eacbf8b5662", "fusion_lat": 0.0, "is_reserved": 0, "lat": 38.913358, "fusion_lon": 0.0, "is_disabled": 0}, {"rental_uris": {"android": "https://dc.lft.to/lastmile_qr_scan", "ios": "https://dc.lft.to/lastmile_qr_scan"}, "type": "electric_scooter", "lon": -77.01925016666667, "name": "d27749facf5f17daed18d17c75cca799", "bike_id": "d27749facf5f17daed18d17c75cca799", "fusion_lat": 0.0, "is_reserved": 0, "lat": 38.9357615, "fusion_lon": 0.0, "is_disabled": 0}, {"rental_uris": {"android": "https://dc.lft.to/lastmile_qr_scan", "ios": "https://dc.lft.to/lastmile_qr_scan"}, "type": "electric_scooter", "lon": -76.96431033333333, "name": "c6bf68d04c3010ef0901f3791c5dc451", "bike_id": "c6bf68d04c3010ef0901f3791c5dc451", "fusion_lat": 0.0, "is_reserved": 0, "lat": 38.934451, "fusion_lon": 0.0, "is_disabled": 0}, {"rental_uris": {"android": "https://dc.lft.to/lastmile_qr_scan", "ios": "https://dc.lft.to/lastmile_qr_scan"}, "type": "electric_scooter", "lon": -77.0343925, "name": "c60f22b1450643c02aff4bb7b952fbb8", "bike_id": "c60f22b1450643c02aff4bb7b952fbb8", "fusion_lat": 0.0, "is_reserved": 0, "lat": 38.917991666666666, "fusion_lon": 0.0, "is_disabled": 0}, {"rental_uris": {"android": "https://dc.lft.to/lastmile_qr_scan", "ios": "https://dc.lft.to/lastmile_qr_scan"}, "type": "electric_scooter", "lon": -77.00563466666667, "name": "a222be0e822aeec6a586932efaecec58", "bike_id": "a222be0e822aeec6a586932efaecec58", "fusion_lat": 0.0, "is_reserved": 0, "lat": 38.87850266666667, "fusion_lon": 0.0, "is_disabled": 0}, {"rental_uris": {"android": "https://dc.lft.to/lastmile_qr_scan", "ios": "https://dc.lft.to/lastmile_qr_scan"}, "type": "electric_scooter", "lon": -77.026985, "name": "3ef774f12a5c376ccc3af27f5261a5cd", "bike_id": "3ef774f12a5c376ccc3af27f5261a5cd", "fusion_lat": 0.0, "is_reserved": 0, "lat": 38.91823333333333, "fusion_lon": 0.0, "is_disabled": 0}, {"rental_uris": {"android": "https://dc.lft.to/lastmile_qr_scan", "ios": "https://dc.lft.to/lastmile_qr_scan"}, "type": "electric_scooter", "lon": -77.04466883333333, "name": "59a043210afd671ec6f3ab4e9458d21b", "bike_id": "59a043210afd671ec6f3ab4e9458d21b", "fusion_lat": 0.0, "is_reserved": 0, "lat": 38.918864166666665, "fusion_lon": 0.0, "is_disabled": 0}, {"rental_uris": {"android": "https://dc.lft.to/lastmile_qr_scan", "ios": "https://dc.lft.to/lastmile_qr_scan"}, "type": "electric_scooter", "lon": -77.04560866666667, "name": "b00e42cabfc4ebf2cd8f4974dd58ba46", "bike_id": "b00e42cabfc4ebf2cd8f4974dd58ba46", "fusion_lat": 0.0, "is_reserved": 0, "lat": 38.919356, "fusion_lon": 0.0, "is_disabled": 0}, {"rental_uris": {"android": "https://dc.lft.to/lastmile_qr_scan", "ios": "https://dc.lft.to/lastmile_qr_scan"}, "type": "electric_scooter", "lon": -77.02342483333334, "name": "3a2c5cdad9b2dec2a6260c2876cc6107", "bike_id": "3a2c5cdad9b2dec2a6260c2876cc6107", "fusion_lat": 0.0, "is_reserved": 0, "lat": 38.9620965, "fusion_lon": 0.0, "is_disabled": 0}, {"rental_uris": {"android": "https://dc.lft.to/lastmile_qr_scan", "ios": "https://dc.lft.to/lastmile_qr_scan"}, "type": "electric_scooter", "lon": -77.034773, "name": "0e9b6397777322088e9216b5b4c6e71b", "bike_id": "0e9b6397777322088e9216b5b4c6e71b", "fusion_lat": 0.0, "is_reserved": 0, "lat": 38.903319833333335, "fusion_lon": 0.0, "is_disabled": 0}, {"rental_uris": {"android": "https://dc.lft.to/lastmile_qr_scan", "ios": "https://dc.lft.to/lastmile_qr_scan"}, "type": "electric_scooter", "lon": -76.98991316666667, "name": "3131fe1dac0566e94e080d05f4426989", "bike_id": "3131fe1dac0566e94e080d05f4426989", "fusion_lat": 0.0, "is_reserved": 0, "lat": 38.86446633333333, "fusion_lon": 0.0, "is_disabled": 0}, {"rental_uris": {"android": "https://dc.lft.to/lastmile_qr_scan", "ios": "https://dc.lft.to/lastmile_qr_scan"}, "type": "electric_bike", "lon": -77.10992116666667, "name": "3b241828df2cdd0473aae71bcacb2e82", "bike_id": "3b241828df2cdd0473aae71bcacb2e82", "fusion_lat": 0.0, "is_reserved": 0, "lat": 38.870531, "fusion_lon": 0.0, "is_disabled": 0}, {"rental_uris": {"android": "https://dc.lft.to/lastmile_qr_scan", "ios": "https://dc.lft.to/lastmile_qr_scan"}, "type": "electric_scooter", "lon": -77.03142583333333, "name": "fea48d75030568e01da1ca3900a5209f", "bike_id": "fea48d75030568e01da1ca3900a5209f", "fusion_lat": 0.0, "is_reserved": 0, "lat": 38.91267466666667, "fusion_lon": 0.0, "is_disabled": 0}, {"rental_uris": {"android": "https://dc.lft.to/lastmile_qr_scan", "ios": "https://dc.lft.to/lastmile_qr_scan"}, "type": "electric_scooter", "lon": -76.99483616666667, "name": "e7e8d6b76191c83e1f35ab9743c3ea25", "bike_id": "e7e8d6b76191c83e1f35ab9743c3ea25", "fusion_lat": 0.0, "is_reserved": 0, "lat": 38.87737516666667, "fusion_lon": 0.0, "is_disabled": 0}, {"rental_uris": {"android": "https://dc.lft.to/lastmile_qr_scan", "ios": "https://dc.lft.to/lastmile_qr_scan"}, "type": "electric_scooter", "lon": -77.02510766666667, "name": "05673aa717aee08a71269306b03aa2b8", "bike_id": "05673aa717aee08a71269306b03aa2b8", "fusion_lat": 0.0, "is_reserved": 0, "lat": 38.90153333333333, "fusion_lon": 0.0, "is_disabled": 0}, {"rental_uris": {"android": "https://dc.lft.to/lastmile_qr_scan", "ios": "https://dc.lft.to/lastmile_qr_scan"}, "type": "electric_scooter", "lon": -76.946364, "name": "e230d99fe0f58bd020040f028ca96cd1", "bike_id": "e230d99fe0f58bd020040f028ca96cd1", "fusion_lat": 0.0, "is_reserved": 0, "lat": 38.89846166666667, "fusion_lon": 0.0, "is_disabled": 0}, {"rental_uris": {"android": "https://dc.lft.to/lastmile_qr_scan", "ios": "https://dc.lft.to/lastmile_qr_scan"}, "type": "electric_scooter", "lon": -77.0235485, "name": "e5d4c3e2e58780fe5e85110089319f63", "bike_id": "e5d4c3e2e58780fe5e85110089319f63", "fusion_lat": 0.0, "is_reserved": 0, "lat": 38.892223, "fusion_lon": 0.0, "is_disabled": 0}, {"rental_uris": {"android": "https://dc.lft.to/lastmile_qr_scan", "ios": "https://dc.lft.to/lastmile_qr_scan"}, "type": "electric_scooter", "lon": -77.03210733333333, "name": "1e983f42b36a96776c185f0def4daac7", "bike_id": "1e983f42b36a96776c185f0def4daac7", "fusion_lat": 0.0, "is_reserved": 0, "lat": 38.92213366666667, "fusion_lon": 0.0, "is_disabled": 0}, {"rental_uris": {"android": "https://dc.lft.to/lastmile_qr_scan", "ios": "https://dc.lft.to/lastmile_qr_scan"}, "type": "electric_scooter", "lon": -77.0477295, "name": "44823a2be9da2e1f1f99dccf39ddff72", "bike_id": "44823a2be9da2e1f1f99dccf39ddff72", "fusion_lat": 0.0, "is_reserved": 0, "lat": 38.91770433333333, "fusion_lon": 0.0, "is_disabled": 0}, {"rental_uris": {"android": "https://dc.lft.to/lastmile_qr_scan", "ios": "https://dc.lft.to/lastmile_qr_scan"}, "type": "electric_scooter", "lon": -77.03407733333333, "name": "4efe6b4bb6ccaaafa9165466f9f8d704", "bike_id": "4efe6b4bb6ccaaafa9165466f9f8d704", "fusion_lat": 0.0, "is_reserved": 0, "lat": 38.93176016666666, "fusion_lon": 0.0, "is_disabled": 0}, {"rental_uris": {"android": "https://dc.lft.to/lastmile_qr_scan", "ios": "https://dc.lft.to/lastmile_qr_scan"}, "type": "electric_scooter", "lon": -77.05003166666667, "name": "209d2d5d3ece6561d2e25a5ca9ac449a", "bike_id": "209d2d5d3ece6561d2e25a5ca9ac449a", "fusion_lat": 0.0, "is_reserved": 0, "lat": 38.89229866666667, "fusion_lon": 0.0, "is_disabled": 0}, {"rental_uris": {"android": "https://dc.lft.to/lastmile_qr_scan", "ios": "https://dc.lft.to/lastmile_qr_scan"}, "type": "electric_scooter", "lon": -77.03660333333333, "name": "5acf1330d5840ef81da769f6a5b5d186", "bike_id": "5acf1330d5840ef81da769f6a5b5d186", "fusion_lat": 0.0, "is_reserved": 0, "lat": 38.921147, "fusion_lon": 0.0, "is_disabled": 0}, {"rental_uris": {"android": "https://dc.lft.to/lastmile_qr_scan", "ios": "https://dc.lft.to/lastmile_qr_scan"}, "type": "electric_scooter", "lon": -77.08445516666667, "name": "9f246f0fe57a0e134cbb93142e4a67bb", "bike_id": "9f246f0fe57a0e134cbb93142e4a67bb", "fusion_lat": 0.0, "is_reserved": 0, "lat": 38.911753833333336, "fusion_lon": 0.0, "is_disabled": 0}, {"rental_uris": {"android": "https://dc.lft.to/lastmile_qr_scan", "ios": "https://dc.lft.to/lastmile_qr_scan"}, "type": "electric_scooter", "lon": -77.01131716666667, "name": "b45538cd69cad2cc3ef0c6b65f70069c", "bike_id": "b45538cd69cad2cc3ef0c6b65f70069c", "fusion_lat": 0.0, "is_reserved": 0, "lat": 38.90956366666666, "fusion_lon": 0.0, "is_disabled": 0}, {"rental_uris": {"android": "https://dc.lft.to/lastmile_qr_scan", "ios": "https://dc.lft.to/lastmile_qr_scan"}, "type": "electric_scooter", "lon": -76.996588, "name": "30304ebb160aee0856159f87998ccb76", "bike_id": "30304ebb160aee0856159f87998ccb76", "fusion_lat": 0.0, "is_reserved": 0, "lat": 38.858893, "fusion_lon": 0.0, "is_disabled": 0}, {"rental_uris": {"android": "https://dc.lft.to/lastmile_qr_scan", "ios": "https://dc.lft.to/lastmile_qr_scan"}, "type": "electric_scooter", "lon": -77.00020116666667, "name": "c8b66f63ee40cca02b0d9cd9a8762dbb", "bike_id": "c8b66f63ee40cca02b0d9cd9a8762dbb", "fusion_lat": 0.0, "is_reserved": 0, "lat": 38.90022466666667, "fusion_lon": 0.0, "is_disabled": 0}, {"rental_uris": {"android": "https://dc.lft.to/lastmile_qr_scan", "ios": "https://dc.lft.to/lastmile_qr_scan"}, "type": "electric_scooter", "lon": -77.01696866666667, "name": "8e9eac52aa40f582bf69a6c78c6b7e47", "bike_id": "8e9eac52aa40f582bf69a6c78c6b7e47", "fusion_lat": 0.0, "is_reserved": 0, "lat": 38.9202025, "fusion_lon": 0.0, "is_disabled": 0}, {"rental_uris": {"android": "https://dc.lft.to/lastmile_qr_scan", "ios": "https://dc.lft.to/lastmile_qr_scan"}, "type": "electric_scooter", "lon": -76.9832875, "name": "1659eb20263e39c67713438738bbe864", "bike_id": "1659eb20263e39c67713438738bbe864", "fusion_lat": 0.0, "is_reserved": 0, "lat": 38.889876666666666, "fusion_lon": 0.0, "is_disabled": 0}, {"rental_uris": {"android": "https://dc.lft.to/lastmile_qr_scan", "ios": "https://dc.lft.to/lastmile_qr_scan"}, "type": "electric_scooter", "lon": -77.01758333333333, "name": "4c8a8b85d22d9d55d1ed5373e295fd3a", "bike_id": "4c8a8b85d22d9d55d1ed5373e295fd3a", "fusion_lat": 0.0, "is_reserved": 0, "lat": 38.87721283333333, "fusion_lon": 0.0, "is_disabled": 0}, {"rental_uris": {"android": "https://dc.lft.to/lastmile_qr_scan", "ios": "https://dc.lft.to/lastmile_qr_scan"}, "type": "electric_scooter", "lon": -77.04175333333333, "name": "18a59b9e44c252396f91ab705e13319d", "bike_id": "18a59b9e44c252396f91ab705e13319d", "fusion_lat": 0.0, "is_reserved": 0, "lat": 38.91938433333333, "fusion_lon": 0.0, "is_disabled": 0}, {"rental_uris": {"android": "https://dc.lft.to/lastmile_qr_scan", "ios": "https://dc.lft.to/lastmile_qr_scan"}, "type": "electric_scooter", "lon": -77.02927516666666, "name": "5953aa407d4140adbeef670472640839", "bike_id": "5953aa407d4140adbeef670472640839", "fusion_lat": 0.0, "is_reserved": 0, "lat": 38.8821825, "fusion_lon": 0.0, "is_disabled": 0}, {"rental_uris": {"android": "https://dc.lft.to/lastmile_qr_scan", "ios": "https://dc.lft.to/lastmile_qr_scan"}, "type": "electric_bike", "lon": -76.98158566666666, "name": "c1fb4550b581bffd94a53db2e760f62b", "bike_id": "c1fb4550b581bffd94a53db2e760f62b", "fusion_lat": 0.0, "is_reserved": 0, "lat": 38.959588, "fusion_lon": 0.0, "is_disabled": 0}, {"rental_uris": {"android": "https://dc.lft.to/lastmile_qr_scan", "ios": "https://dc.lft.to/lastmile_qr_scan"}, "type": "electric_scooter", "lon": -76.98456433333334, "name": "2f1e5f0c7ec2caf203cd6707fa3004a3", "bike_id": "2f1e5f0c7ec2caf203cd6707fa3004a3", "fusion_lat": 0.0, "is_reserved": 0, "lat": 38.8801395, "fusion_lon": 0.0, "is_disabled": 0}, {"rental_uris": {"android": "https://dc.lft.to/lastmile_qr_scan", "ios": "https://dc.lft.to/lastmile_qr_scan"}, "type": "electric_scooter", "lon": -77.00008, "name": "8d79fe8b7aab8c7572ca08671dc03355", "bike_id": "8d79fe8b7aab8c7572ca08671dc03355", "fusion_lat": 0.0, "is_reserved": 0, "lat": 38.900121, "fusion_lon": 0.0, "is_disabled": 0}, {"rental_uris": {"android": "https://dc.lft.to/lastmile_qr_scan", "ios": "https://dc.lft.to/lastmile_qr_scan"}, "type": "electric_scooter", "lon": -77.02512266666666, "name": "c16a5abb3f21740ecb1e51e33ccba856", "bike_id": "c16a5abb3f21740ecb1e51e33ccba856", "fusion_lat": 0.0, "is_reserved": 0, "lat": 38.9417705, "fusion_lon": 0.0, "is_disabled": 0}, {"rental_uris": {"android": "https://dc.lft.to/lastmile_qr_scan", "ios": "https://dc.lft.to/lastmile_qr_scan"}, "type": "electric_scooter", "lon": -77.036364, "name": "74f5e4d405fd07b9ea636a6e9680ac55", "bike_id": "74f5e4d405fd07b9ea636a6e9680ac55", "fusion_lat": 0.0, "is_reserved": 0, "lat": 38.93666233333333, "fusion_lon": 0.0, "is_disabled": 0}, {"rental_uris": {"android": "https://dc.lft.to/lastmile_qr_scan", "ios": "https://dc.lft.to/lastmile_qr_scan"}, "type": "electric_scooter", "lon": -77.01871883333334, "name": "614ae3e010d02bb0e95f4eafc1f8a240", "bike_id": "614ae3e010d02bb0e95f4eafc1f8a240", "fusion_lat": 0.0, "is_reserved": 0, "lat": 38.94898833333333, "fusion_lon": 0.0, "is_disabled": 0}, {"rental_uris": {"android": "https://dc.lft.to/lastmile_qr_scan", "ios": "https://dc.lft.to/lastmile_qr_scan"}, "type": "electric_scooter", "lon": -77.0409615, "name": "51de29b69df2de0fc2b64cc4b0f87418", "bike_id": "51de29b69df2de0fc2b64cc4b0f87418", "fusion_lat": 0.0, "is_reserved": 0, "lat": 38.9209065, "fusion_lon": 0.0, "is_disabled": 0}, {"rental_uris": {"android": "https://dc.lft.to/lastmile_qr_scan", "ios": "https://dc.lft.to/lastmile_qr_scan"}, "type": "electric_scooter", "lon": -77.00935466666667, "name": "68675a9ae98dbfdf7e8118fb85139b46", "bike_id": "68675a9ae98dbfdf7e8118fb85139b46", "fusion_lat": 0.0, "is_reserved": 0, "lat": 38.87626216666666, "fusion_lon": 0.0, "is_disabled": 0}, {"rental_uris": {"android": "https://dc.lft.to/lastmile_qr_scan", "ios": "https://dc.lft.to/lastmile_qr_scan"}, "type": "electric_scooter", "lon": -77.001898, "name": "3b09fb691fc18aaab66d45356077275e", "bike_id": "3b09fb691fc18aaab66d45356077275e", "fusion_lat": 0.0, "is_reserved": 0, "lat": 38.903794833333336, "fusion_lon": 0.0, "is_disabled": 0}, {"rental_uris": {"android": "https://dc.lft.to/lastmile_qr_scan", "ios": "https://dc.lft.to/lastmile_qr_scan"}, "type": "electric_scooter", "lon": -76.9916245, "name": "fcb56e07e2275f54873d0df00808c79e", "bike_id": "fcb56e07e2275f54873d0df00808c79e", "fusion_lat": 0.0, "is_reserved": 0, "lat": 38.87916966666667, "fusion_lon": 0.0, "is_disabled": 0}, {"rental_uris": {"android": "https://dc.lft.to/lastmile_qr_scan", "ios": "https://dc.lft.to/lastmile_qr_scan"}, "type": "electric_scooter", "lon": -76.973444, "name": "776aa2cbc1decb2e54193f3fbbcf3008", "bike_id": "776aa2cbc1decb2e54193f3fbbcf3008", "fusion_lat": 0.0, "is_reserved": 0, "lat": 38.865056333333335, "fusion_lon": 0.0, "is_disabled": 0}, {"rental_uris": {"android": "https://dc.lft.to/lastmile_qr_scan", "ios": "https://dc.lft.to/lastmile_qr_scan"}, "type": "electric_scooter", "lon": -77.0296385, "name": "0e12534c0df98e70636014b4804da117", "bike_id": "0e12534c0df98e70636014b4804da117", "fusion_lat": 0.0, "is_reserved": 0, "lat": 38.89317883333333, "fusion_lon": 0.0, "is_disabled": 0}, {"rental_uris": {"android": "https://dc.lft.to/lastmile_qr_scan", "ios": "https://dc.lft.to/lastmile_qr_scan"}, "type": "electric_scooter", "lon": -77.03177533333333, "name": "4fae9bf545e62ff1cac63861c05c048f", "bike_id": "4fae9bf545e62ff1cac63861c05c048f", "fusion_lat": 0.0, "is_reserved": 0, "lat": 38.897444166666666, "fusion_lon": 0.0, "is_disabled": 0}, {"rental_uris": {"android": "https://dc.lft.to/lastmile_qr_scan", "ios": "https://dc.lft.to/lastmile_qr_scan"}, "type": "electric_scooter", "lon": -77.0328255, "name": "4e1b96b5048a9878f66988aabb721ab8", "bike_id": "4e1b96b5048a9878f66988aabb721ab8", "fusion_lat": 0.0, "is_reserved": 0, "lat": 38.9310165, "fusion_lon": 0.0, "is_disabled": 0}, {"rental_uris": {"android": "https://dc.lft.to/lastmile_qr_scan", "ios": "https://dc.lft.to/lastmile_qr_scan"}, "type": "electric_scooter", "lon": -76.92404933333333, "name": "0afacc15fd0fc4912297a54e34d80b3c", "bike_id": "0afacc15fd0fc4912297a54e34d80b3c", "fusion_lat": 0.0, "is_reserved": 0, "lat": 38.8898715, "fusion_lon": 0.0, "is_disabled": 0}, {"rental_uris": {"android": "https://dc.lft.to/lastmile_qr_scan", "ios": "https://dc.lft.to/lastmile_qr_scan"}, "type": "electric_bike", "lon": -76.9341225, "name": "b3603cf0ccd63f91c6ec3964a03a2925", "bike_id": "b3603cf0ccd63f91c6ec3964a03a2925", "fusion_lat": 0.0, "is_reserved": 0, "lat": 38.94623383333333, "fusion_lon": 0.0, "is_disabled": 0}, {"rental_uris": {"android": "https://dc.lft.to/lastmile_qr_scan", "ios": "https://dc.lft.to/lastmile_qr_scan"}, "type": "electric_scooter", "lon": -77.027163, "name": "3cf71e2aa9ae824d2294a4e3d9123ccc", "bike_id": "3cf71e2aa9ae824d2294a4e3d9123ccc", "fusion_lat": 0.0, "is_reserved": 0, "lat": 38.90905216666667, "fusion_lon": 0.0, "is_disabled": 0}, {"rental_uris": {"android": "https://dc.lft.to/lastmile_qr_scan", "ios": "https://dc.lft.to/lastmile_qr_scan"}, "type": "electric_scooter", "lon": -77.0123265, "name": "4f034b0223de91a46a8d2d53df4160ec", "bike_id": "4f034b0223de91a46a8d2d53df4160ec", "fusion_lat": 0.0, "is_reserved": 0, "lat": 38.8931835, "fusion_lon": 0.0, "is_disabled": 0}, {"rental_uris": {"android": "https://dc.lft.to/lastmile_qr_scan", "ios": "https://dc.lft.to/lastmile_qr_scan"}, "type": "electric_bike", "lon": -77.12983766666666, "name": "9a087b80d08e8d9a105bfc6e66a3d455", "bike_id": "9a087b80d08e8d9a105bfc6e66a3d455", "fusion_lat": 0.0, "is_reserved": 0, "lat": 38.799849, "fusion_lon": 0.0, "is_disabled": 0}, {"rental_uris": {"android": "https://dc.lft.to/lastmile_qr_scan", "ios": "https://dc.lft.to/lastmile_qr_scan"}, "type": "electric_scooter", "lon": -76.9870605, "name": "ce065bbd01d3bd13505474321e600606", "bike_id": "ce065bbd01d3bd13505474321e600606", "fusion_lat": 0.0, "is_reserved": 0, "lat": 38.86530316666666, "fusion_lon": 0.0, "is_disabled": 0}, {"rental_uris": {"android": "https://dc.lft.to/lastmile_qr_scan", "ios": "https://dc.lft.to/lastmile_qr_scan"}, "type": "electric_scooter", "lon": -76.94719866666667, "name": "de79ca9707cb03490b94fe0bdffb655b", "bike_id": "de79ca9707cb03490b94fe0bdffb655b", "fusion_lat": 0.0, "is_reserved": 0, "lat": 38.89676433333333, "fusion_lon": 0.0, "is_disabled": 0}, {"rental_uris": {"android": "https://dc.lft.to/lastmile_qr_scan", "ios": "https://dc.lft.to/lastmile_qr_scan"}, "type": "electric_bike", "lon": -77.128184, "name": "c7f4103878caea8680c7ac4ce57cc8e2", "bike_id": "c7f4103878caea8680c7ac4ce57cc8e2", "fusion_lat": 0.0, "is_reserved": 0, "lat": 38.86529566666667, "fusion_lon": 0.0, "is_disabled": 0}, {"rental_uris": {"android": "https://dc.lft.to/lastmile_qr_scan", "ios": "https://dc.lft.to/lastmile_qr_scan"}, "type": "electric_bike", "lon": -77.0120725, "name": "cd11de637afbf16bdf69665c4beb35b5", "bike_id": "cd11de637afbf16bdf69665c4beb35b5", "fusion_lat": 0.0, "is_reserved": 0, "lat": 38.87099283333333, "fusion_lon": 0.0, "is_disabled": 0}, {"rental_uris": {"android": "https://dc.lft.to/lastmile_qr_scan", "ios": "https://dc.lft.to/lastmile_qr_scan"}, "type": "electric_scooter", "lon": -77.01939383333334, "name": "902d78a7095a09f83584dce42d51eeec", "bike_id": "902d78a7095a09f83584dce42d51eeec", "fusion_lat": 0.0, "is_reserved": 0, "lat": 38.90974083333333, "fusion_lon": 0.0, "is_disabled": 0}, {"rental_uris": {"android": "https://dc.lft.to/lastmile_qr_scan", "ios": "https://dc.lft.to/lastmile_qr_scan"}, "type": "electric_scooter", "lon": -77.04240383333334, "name": "79ab8d0dd7b562fb2b32c7b38521db48", "bike_id": "79ab8d0dd7b562fb2b32c7b38521db48", "fusion_lat": 0.0, "is_reserved": 0, "lat": 38.92273, "fusion_lon": 0.0, "is_disabled": 0}, {"rental_uris": {"android": "https://dc.lft.to/lastmile_qr_scan", "ios": "https://dc.lft.to/lastmile_qr_scan"}, "type": "electric_scooter", "lon": -77.05054766666667, "name": "b26cf4d6c16a1fce41331b5aaab3be47", "bike_id": "b26cf4d6c16a1fce41331b5aaab3be47", "fusion_lat": 0.0, "is_reserved": 0, "lat": 38.923682666666664, "fusion_lon": 0.0, "is_disabled": 0}, {"rental_uris": {"android": "https://dc.lft.to/lastmile_qr_scan", "ios": "https://dc.lft.to/lastmile_qr_scan"}, "type": "electric_scooter", "lon": -76.97626766666667, "name": "5fc217fe0b4e6514583f736505994450", "bike_id": "5fc217fe0b4e6514583f736505994450", "fusion_lat": 0.0, "is_reserved": 0, "lat": 38.905730166666665, "fusion_lon": 0.0, "is_disabled": 0}, {"rental_uris": {"android": "https://dc.lft.to/lastmile_qr_scan", "ios": "https://dc.lft.to/lastmile_qr_scan"}, "type": "electric_scooter", "lon": -77.0225965, "name": "6d8a8889b61ef880cfabdae41dc71f20", "bike_id": "6d8a8889b61ef880cfabdae41dc71f20", "fusion_lat": 0.0, "is_reserved": 0, "lat": 38.928319333333334, "fusion_lon": 0.0, "is_disabled": 0}, {"rental_uris": {"android": "https://dc.lft.to/lastmile_qr_scan", "ios": "https://dc.lft.to/lastmile_qr_scan"}, "type": "electric_scooter", "lon": -76.994401, "name": "59077294eb5e92dfaf724cd422a37f3d", "bike_id": "59077294eb5e92dfaf724cd422a37f3d", "fusion_lat": 0.0, "is_reserved": 0, "lat": 38.905034666666666, "fusion_lon": 0.0, "is_disabled": 0}, {"rental_uris": {"android": "https://dc.lft.to/lastmile_qr_scan", "ios": "https://dc.lft.to/lastmile_qr_scan"}, "type": "electric_scooter", "lon": -77.06392783333334, "name": "9570a9227a2daae2a7505ecf8ed391cf", "bike_id": "9570a9227a2daae2a7505ecf8ed391cf", "fusion_lat": 0.0, "is_reserved": 0, "lat": 38.92905366666667, "fusion_lon": 0.0, "is_disabled": 0}, {"rental_uris": {"android": "https://dc.lft.to/lastmile_qr_scan", "ios": "https://dc.lft.to/lastmile_qr_scan"}, "type": "electric_bike", "lon": -76.9159705, "name": "4c4f1bace1379280795162956b56393b", "bike_id": "4c4f1bace1379280795162956b56393b", "fusion_lat": 0.0, "is_reserved": 0, "lat": 38.879827, "fusion_lon": 0.0, "is_disabled": 0}, {"rental_uris": {"android": "https://dc.lft.to/lastmile_qr_scan", "ios": "https://dc.lft.to/lastmile_qr_scan"}, "type": "electric_bike", "lon": -77.07046866666667, "name": "194e69e0626e9c97a6bc71d65195915c", "bike_id": "194e69e0626e9c97a6bc71d65195915c", "fusion_lat": 0.0, "is_reserved": 0, "lat": 38.824439166666664, "fusion_lon": 0.0, "is_disabled": 0}, {"rental_uris": {"android": "https://dc.lft.to/lastmile_qr_scan", "ios": "https://dc.lft.to/lastmile_qr_scan"}, "type": "electric_scooter", "lon": -77.03505233333334, "name": "b49f13fb7ec3c6ddd8950efe42f825dc", "bike_id": "b49f13fb7ec3c6ddd8950efe42f825dc", "fusion_lat": 0.0, "is_reserved": 0, "lat": 38.921448833333336, "fusion_lon": 0.0, "is_disabled": 0}, {"rental_uris": {"android": "https://dc.lft.to/lastmile_qr_scan", "ios": "https://dc.lft.to/lastmile_qr_scan"}, "type": "electric_scooter", "lon": -77.03265233333333, "name": "1737c2b5e7139da3ee519d0daf4da73a", "bike_id": "1737c2b5e7139da3ee519d0daf4da73a", "fusion_lat": 0.0, "is_reserved": 0, "lat": 38.928454, "fusion_lon": 0.0, "is_disabled": 0}, {"rental_uris": {"android": "https://dc.lft.to/lastmile_qr_scan", "ios": "https://dc.lft.to/lastmile_qr_scan"}, "type": "electric_scooter", "lon": -77.02648733333334, "name": "6cc84ddb1948c64035e2e83316902bc2", "bike_id": "6cc84ddb1948c64035e2e83316902bc2", "fusion_lat": 0.0, "is_reserved": 0, "lat": 38.90257866666666, "fusion_lon": 0.0, "is_disabled": 0}, {"rental_uris": {"android": "https://dc.lft.to/lastmile_qr_scan", "ios": "https://dc.lft.to/lastmile_qr_scan"}, "type": "electric_scooter", "lon": -77.02307483333334, "name": "52809b9e18e9f47a63eeb34de6d6eb72", "bike_id": "52809b9e18e9f47a63eeb34de6d6eb72", "fusion_lat": 0.0, "is_reserved": 0, "lat": 38.91655333333333, "fusion_lon": 0.0, "is_disabled": 0}, {"rental_uris": {"android": "https://dc.lft.to/lastmile_qr_scan", "ios": "https://dc.lft.to/lastmile_qr_scan"}, "type": "electric_scooter", "lon": -77.01938666666666, "name": "4d4eb607ad09b986d05c10339b0bd81f", "bike_id": "4d4eb607ad09b986d05c10339b0bd81f", "fusion_lat": 0.0, "is_reserved": 0, "lat": 38.900062, "fusion_lon": 0.0, "is_disabled": 0}, {"rental_uris": {"android": "https://dc.lft.to/lastmile_qr_scan", "ios": "https://dc.lft.to/lastmile_qr_scan"}, "type": "electric_scooter", "lon": -77.02348866666667, "name": "baa44fc4e2e9b39054382865a4b1ed03", "bike_id": "baa44fc4e2e9b39054382865a4b1ed03", "fusion_lat": 0.0, "is_reserved": 0, "lat": 38.9298805, "fusion_lon": 0.0, "is_disabled": 0}, {"rental_uris": {"android": "https://dc.lft.to/lastmile_qr_scan", "ios": "https://dc.lft.to/lastmile_qr_scan"}, "type": "electric_scooter", "lon": -77.040049, "name": "2e61a1618a2f8c398180274b9353d563", "bike_id": "2e61a1618a2f8c398180274b9353d563", "fusion_lat": 0.0, "is_reserved": 0, "lat": 38.9033805, "fusion_lon": 0.0, "is_disabled": 0}, {"rental_uris": {"android": "https://dc.lft.to/lastmile_qr_scan", "ios": "https://dc.lft.to/lastmile_qr_scan"}, "type": "electric_scooter", "lon": -77.0697775, "name": "e338ccb59276757ba55699acb4f99e02", "bike_id": "e338ccb59276757ba55699acb4f99e02", "fusion_lat": 0.0, "is_reserved": 0, "lat": 38.95295333333333, "fusion_lon": 0.0, "is_disabled": 0}, {"rental_uris": {"android": "https://dc.lft.to/lastmile_qr_scan", "ios": "https://dc.lft.to/lastmile_qr_scan"}, "type": "electric_bike", "lon": -76.99031483333333, "name": "061584980b5e1dddbc249ce448bd1858", "bike_id": "061584980b5e1dddbc249ce448bd1858", "fusion_lat": 0.0, "is_reserved": 0, "lat": 38.89809283333334, "fusion_lon": 0.0, "is_disabled": 0}, {"rental_uris": {"android": "https://dc.lft.to/lastmile_qr_scan", "ios": "https://dc.lft.to/lastmile_qr_scan"}, "type": "electric_scooter", "lon": -77.0288705, "name": "69400e10598198347f79330856fe3ef2", "bike_id": "69400e10598198347f79330856fe3ef2", "fusion_lat": 0.0, "is_reserved": 0, "lat": 38.90426016666667, "fusion_lon": 0.0, "is_disabled": 0}, {"rental_uris": {"android": "https://dc.lft.to/lastmile_qr_scan", "ios": "https://dc.lft.to/lastmile_qr_scan"}, "type": "electric_scooter", "lon": -77.041197, "name": "abd0205965d627f7e905ab101b7269da", "bike_id": "abd0205965d627f7e905ab101b7269da", "fusion_lat": 0.0, "is_reserved": 0, "lat": 38.921398833333335, "fusion_lon": 0.0, "is_disabled": 0}, {"rental_uris": {"android": "https://dc.lft.to/lastmile_qr_scan", "ios": "https://dc.lft.to/lastmile_qr_scan"}, "type": "electric_scooter", "lon": -77.02151183333334, "name": "80122a46447e60bd3a1fd8a65c05fb19", "bike_id": "80122a46447e60bd3a1fd8a65c05fb19", "fusion_lat": 0.0, "is_reserved": 0, "lat": 38.8792155, "fusion_lon": 0.0, "is_disabled": 0}, {"rental_uris": {"android": "https://dc.lft.to/lastmile_qr_scan", "ios": "https://dc.lft.to/lastmile_qr_scan"}, "type": "electric_scooter", "lon": -77.0320325, "name": "dfe65a221b80757cb594c993a125e913", "bike_id": "dfe65a221b80757cb594c993a125e913", "fusion_lat": 0.0, "is_reserved": 0, "lat": 38.918361166666664, "fusion_lon": 0.0, "is_disabled": 0}, {"rental_uris": {"android": "https://dc.lft.to/lastmile_qr_scan", "ios": "https://dc.lft.to/lastmile_qr_scan"}, "type": "electric_scooter", "lon": -77.02480866666667, "name": "523117a58cd55bc543cb19996749d424", "bike_id": "523117a58cd55bc543cb19996749d424", "fusion_lat": 0.0, "is_reserved": 0, "lat": 38.8801905, "fusion_lon": 0.0, "is_disabled": 0}, {"rental_uris": {"android": "https://dc.lft.to/lastmile_qr_scan", "ios": "https://dc.lft.to/lastmile_qr_scan"}, "type": "electric_scooter", "lon": -77.03716583333333, "name": "4b56778c1e1aacb0a805ade057a0c00a", "bike_id": "4b56778c1e1aacb0a805ade057a0c00a", "fusion_lat": 0.0, "is_reserved": 0, "lat": 38.918102, "fusion_lon": 0.0, "is_disabled": 0}, {"rental_uris": {"android": "https://dc.lft.to/lastmile_qr_scan", "ios": "https://dc.lft.to/lastmile_qr_scan"}, "type": "electric_bike", "lon": -76.964869, "name": "1f53e58449fe89a199990c1e69db707a", "bike_id": "1f53e58449fe89a199990c1e69db707a", "fusion_lat": 0.0, "is_reserved": 0, "lat": 38.875483333333335, "fusion_lon": 0.0, "is_disabled": 0}, {"rental_uris": {"android": "https://dc.lft.to/lastmile_qr_scan", "ios": "https://dc.lft.to/lastmile_qr_scan"}, "type": "electric_scooter", "lon": -77.046059, "name": "5cb2263d627ddcdffe1f12fac3e865e1", "bike_id": "5cb2263d627ddcdffe1f12fac3e865e1", "fusion_lat": 0.0, "is_reserved": 0, "lat": 38.88378633333333, "fusion_lon": 0.0, "is_disabled": 0}, {"rental_uris": {"android": "https://dc.lft.to/lastmile_qr_scan", "ios": "https://dc.lft.to/lastmile_qr_scan"}, "type": "electric_scooter", "lon": -77.08623933333334, "name": "5693bb8d4cd1a60a25983f273affc4ed", "bike_id": "5693bb8d4cd1a60a25983f273affc4ed", "fusion_lat": 0.0, "is_reserved": 0, "lat": 38.958739333333334, "fusion_lon": 0.0, "is_disabled": 0}, {"rental_uris": {"android": "https://dc.lft.to/lastmile_qr_scan", "ios": "https://dc.lft.to/lastmile_qr_scan"}, "type": "electric_scooter", "lon": -77.03785133333334, "name": "fda4bf638e01e4782985b2db3c418cb4", "bike_id": "fda4bf638e01e4782985b2db3c418cb4", "fusion_lat": 0.0, "is_reserved": 0, "lat": 38.92559266666667, "fusion_lon": 0.0, "is_disabled": 0}, {"rental_uris": {"android": "https://dc.lft.to/lastmile_qr_scan", "ios": "https://dc.lft.to/lastmile_qr_scan"}, "type": "electric_scooter", "lon": -76.94756833333334, "name": "f2a20cc83d8532770cf592a903ef6056", "bike_id": "f2a20cc83d8532770cf592a903ef6056", "fusion_lat": 0.0, "is_reserved": 0, "lat": 38.89671083333333, "fusion_lon": 0.0, "is_disabled": 0}, {"rental_uris": {"android": "https://dc.lft.to/lastmile_qr_scan", "ios": "https://dc.lft.to/lastmile_qr_scan"}, "type": "electric_scooter", "lon": -77.00864483333334, "name": "ec3ac51e7aafe7c61606ebb35600b19f", "bike_id": "ec3ac51e7aafe7c61606ebb35600b19f", "fusion_lat": 0.0, "is_reserved": 0, "lat": 38.876614333333336, "fusion_lon": 0.0, "is_disabled": 0}, {"rental_uris": {"android": "https://dc.lft.to/lastmile_qr_scan", "ios": "https://dc.lft.to/lastmile_qr_scan"}, "type": "electric_scooter", "lon": -77.011581, "name": "81456121c818950bdd241f187508bad7", "bike_id": "81456121c818950bdd241f187508bad7", "fusion_lat": 0.0, "is_reserved": 0, "lat": 38.91259816666667, "fusion_lon": 0.0, "is_disabled": 0}, {"rental_uris": {"android": "https://dc.lft.to/lastmile_qr_scan", "ios": "https://dc.lft.to/lastmile_qr_scan"}, "type": "electric_scooter", "lon": -76.99578133333333, "name": "c5ce2a8f4788649628d0eb9f813ad8ba", "bike_id": "c5ce2a8f4788649628d0eb9f813ad8ba", "fusion_lat": 0.0, "is_reserved": 0, "lat": 38.94945333333333, "fusion_lon": 0.0, "is_disabled": 0}, {"rental_uris": {"android": "https://dc.lft.to/lastmile_qr_scan", "ios": "https://dc.lft.to/lastmile_qr_scan"}, "type": "electric_bike", "lon": -76.95204583333333, "name": "c25f7ee6938c2af1dc66786b0592ca9c", "bike_id": "c25f7ee6938c2af1dc66786b0592ca9c", "fusion_lat": 0.0, "is_reserved": 0, "lat": 38.936683333333335, "fusion_lon": 0.0, "is_disabled": 0}, {"rental_uris": {"android": "https://dc.lft.to/lastmile_qr_scan", "ios": "https://dc.lft.to/lastmile_qr_scan"}, "type": "electric_scooter", "lon": -76.9499765, "name": "1311cea70037984c8cec0d7d2880f4b9", "bike_id": "1311cea70037984c8cec0d7d2880f4b9", "fusion_lat": 0.0, "is_reserved": 0, "lat": 38.89393033333333, "fusion_lon": 0.0, "is_disabled": 0}, {"rental_uris": {"android": "https://dc.lft.to/lastmile_qr_scan", "ios": "https://dc.lft.to/lastmile_qr_scan"}, "type": "electric_scooter", "lon": -76.99029566666667, "name": "4935796d677b3f9ee36b1fcaa854ef4a", "bike_id": "4935796d677b3f9ee36b1fcaa854ef4a", "fusion_lat": 0.0, "is_reserved": 0, "lat": 38.858671333333334, "fusion_lon": 0.0, "is_disabled": 0}, {"rental_uris": {"android": "https://dc.lft.to/lastmile_qr_scan", "ios": "https://dc.lft.to/lastmile_qr_scan"}, "type": "electric_scooter", "lon": -77.04897766666667, "name": "2294947055a4cabef56383647079c035", "bike_id": "2294947055a4cabef56383647079c035", "fusion_lat": 0.0, "is_reserved": 0, "lat": 38.892477166666666, "fusion_lon": 0.0, "is_disabled": 0}, {"rental_uris": {"android": "https://dc.lft.to/lastmile_qr_scan", "ios": "https://dc.lft.to/lastmile_qr_scan"}, "type": "electric_scooter", "lon": -77.02372616666666, "name": "647808cffd2586e5bb5f0f92382fd0d0", "bike_id": "647808cffd2586e5bb5f0f92382fd0d0", "fusion_lat": 0.0, "is_reserved": 0, "lat": 38.89222066666667, "fusion_lon": 0.0, "is_disabled": 0}, {"rental_uris": {"android": "https://dc.lft.to/lastmile_qr_scan", "ios": "https://dc.lft.to/lastmile_qr_scan"}, "type": "electric_scooter", "lon": -76.99582516666666, "name": "77ec68765da503ad30af7c1cd8968e3a", "bike_id": "77ec68765da503ad30af7c1cd8968e3a", "fusion_lat": 0.0, "is_reserved": 0, "lat": 38.920688, "fusion_lon": 0.0, "is_disabled": 0}, {"rental_uris": {"android": "https://dc.lft.to/lastmile_qr_scan", "ios": "https://dc.lft.to/lastmile_qr_scan"}, "type": "electric_bike", "lon": -77.0120605, "name": "98765b314d9687826edd668baf1119e7", "bike_id": "98765b314d9687826edd668baf1119e7", "fusion_lat": 0.0, "is_reserved": 0, "lat": 38.870867, "fusion_lon": 0.0, "is_disabled": 0}, {"rental_uris": {"android": "https://dc.lft.to/lastmile_qr_scan", "ios": "https://dc.lft.to/lastmile_qr_scan"}, "type": "electric_scooter", "lon": -77.008199, "name": "7356bc61d7b87e50c0d84ec9709929f3", "bike_id": "7356bc61d7b87e50c0d84ec9709929f3", "fusion_lat": 0.0, "is_reserved": 0, "lat": 38.876376666666665, "fusion_lon": 0.0, "is_disabled": 0}, {"rental_uris": {"android": "https://dc.lft.to/lastmile_qr_scan", "ios": "https://dc.lft.to/lastmile_qr_scan"}, "type": "electric_scooter", "lon": -77.01822133333333, "name": "9178bed5dd74823a7c60cb514527f090", "bike_id": "9178bed5dd74823a7c60cb514527f090", "fusion_lat": 0.0, "is_reserved": 0, "lat": 38.90808366666667, "fusion_lon": 0.0, "is_disabled": 0}, {"rental_uris": {"android": "https://dc.lft.to/lastmile_qr_scan", "ios": "https://dc.lft.to/lastmile_qr_scan"}, "type": "electric_scooter", "lon": -77.04333466666667, "name": "3bdf99f123811541544c948b42504c5b", "bike_id": "3bdf99f123811541544c948b42504c5b", "fusion_lat": 0.0, "is_reserved": 0, "lat": 38.90329783333333, "fusion_lon": 0.0, "is_disabled": 0}, {"rental_uris": {"android": "https://dc.lft.to/lastmile_qr_scan", "ios": "https://dc.lft.to/lastmile_qr_scan"}, "type": "electric_bike", "lon": -77.1091215, "name": "17b981c32d5edd0ba4338f68ddc01ceb", "bike_id": "17b981c32d5edd0ba4338f68ddc01ceb", "fusion_lat": 0.0, "is_reserved": 0, "lat": 39.0520215, "fusion_lon": 0.0, "is_disabled": 0}, {"rental_uris": {"android": "https://dc.lft.to/lastmile_qr_scan", "ios": "https://dc.lft.to/lastmile_qr_scan"}, "type": "electric_scooter", "lon": -76.96503966666667, "name": "6b75980851ab964e0b631bcbb0ef92b1", "bike_id": "6b75980851ab964e0b631bcbb0ef92b1", "fusion_lat": 0.0, "is_reserved": 0, "lat": 38.876483, "fusion_lon": 0.0, "is_disabled": 0}, {"rental_uris": {"android": "https://dc.lft.to/lastmile_qr_scan", "ios": "https://dc.lft.to/lastmile_qr_scan"}, "type": "electric_scooter", "lon": -77.043915, "name": "6c92273af5603d83d17b70d5478a2a5d", "bike_id": "6c92273af5603d83d17b70d5478a2a5d", "fusion_lat": 0.0, "is_reserved": 0, "lat": 38.9227785, "fusion_lon": 0.0, "is_disabled": 0}, {"rental_uris": {"android": "https://dc.lft.to/lastmile_qr_scan", "ios": "https://dc.lft.to/lastmile_qr_scan"}, "type": "electric_scooter", "lon": -76.983119, "name": "381abd9406362469375ebe03fa5e5a14", "bike_id": "381abd9406362469375ebe03fa5e5a14", "fusion_lat": 0.0, "is_reserved": 0, "lat": 38.868917333333336, "fusion_lon": 0.0, "is_disabled": 0}, {"rental_uris": {"android": "https://dc.lft.to/lastmile_qr_scan", "ios": "https://dc.lft.to/lastmile_qr_scan"}, "type": "electric_scooter", "lon": -77.03519566666667, "name": "9891da068147a152c275bff9f2dc54a8", "bike_id": "9891da068147a152c275bff9f2dc54a8", "fusion_lat": 0.0, "is_reserved": 0, "lat": 38.9189025, "fusion_lon": 0.0, "is_disabled": 0}, {"rental_uris": {"android": "https://dc.lft.to/lastmile_qr_scan", "ios": "https://dc.lft.to/lastmile_qr_scan"}, "type": "electric_scooter", "lon": -77.04122133333334, "name": "73b9dda5e42844d31cf46119d85305eb", "bike_id": "73b9dda5e42844d31cf46119d85305eb", "fusion_lat": 0.0, "is_reserved": 0, "lat": 38.906205, "fusion_lon": 0.0, "is_disabled": 0}, {"rental_uris": {"android": "https://dc.lft.to/lastmile_qr_scan", "ios": "https://dc.lft.to/lastmile_qr_scan"}, "type": "electric_scooter", "lon": -77.04335666666667, "name": "c6a2f382ed0bc943bf230d9c5d8a90b2", "bike_id": "c6a2f382ed0bc943bf230d9c5d8a90b2", "fusion_lat": 0.0, "is_reserved": 0, "lat": 38.904079, "fusion_lon": 0.0, "is_disabled": 0}, {"rental_uris": {"android": "https://dc.lft.to/lastmile_qr_scan", "ios": "https://dc.lft.to/lastmile_qr_scan"}, "type": "electric_scooter", "lon": -77.04999266666667, "name": "660ca39bc6ec9dfff426b25b69b8cd9f", "bike_id": "660ca39bc6ec9dfff426b25b69b8cd9f", "fusion_lat": 0.0, "is_reserved": 0, "lat": 38.90532316666667, "fusion_lon": 0.0, "is_disabled": 0}, {"rental_uris": {"android": "https://dc.lft.to/lastmile_qr_scan", "ios": "https://dc.lft.to/lastmile_qr_scan"}, "type": "electric_scooter", "lon": -77.071898, "name": "4a2c4bf06bb5f458544200e4b4e6cd38", "bike_id": "4a2c4bf06bb5f458544200e4b4e6cd38", "fusion_lat": 0.0, "is_reserved": 0, "lat": 38.9210365, "fusion_lon": 0.0, "is_disabled": 0}, {"rental_uris": {"android": "https://dc.lft.to/lastmile_qr_scan", "ios": "https://dc.lft.to/lastmile_qr_scan"}, "type": "electric_scooter", "lon": -76.99818883333333, "name": "caafc26cba480e21dc7b4520ff4f625e", "bike_id": "caafc26cba480e21dc7b4520ff4f625e", "fusion_lat": 0.0, "is_reserved": 0, "lat": 38.907167333333334, "fusion_lon": 0.0, "is_disabled": 0}, {"rental_uris": {"android": "https://dc.lft.to/lastmile_qr_scan", "ios": "https://dc.lft.to/lastmile_qr_scan"}, "type": "electric_scooter", "lon": -76.97330066666666, "name": "019541a55ddf5134e4f76a3164c3eff8", "bike_id": "019541a55ddf5134e4f76a3164c3eff8", "fusion_lat": 0.0, "is_reserved": 0, "lat": 38.9048145, "fusion_lon": 0.0, "is_disabled": 0}, {"rental_uris": {"android": "https://dc.lft.to/lastmile_qr_scan", "ios": "https://dc.lft.to/lastmile_qr_scan"}, "type": "electric_scooter", "lon": -77.03656666666667, "name": "d0eecf02f073380b7c8b0fafbcce4473", "bike_id": "d0eecf02f073380b7c8b0fafbcce4473", "fusion_lat": 0.0, "is_reserved": 0, "lat": 38.91318616666667, "fusion_lon": 0.0, "is_disabled": 0}, {"rental_uris": {"android": "https://dc.lft.to/lastmile_qr_scan", "ios": "https://dc.lft.to/lastmile_qr_scan"}, "type": "electric_scooter", "lon": -76.98687066666666, "name": "8f06ef1c99a1c9f01f0971926eb06e8a", "bike_id": "8f06ef1c99a1c9f01f0971926eb06e8a", "fusion_lat": 0.0, "is_reserved": 0, "lat": 38.90492033333334, "fusion_lon": 0.0, "is_disabled": 0}, {"rental_uris": {"android": "https://dc.lft.to/lastmile_qr_scan", "ios": "https://dc.lft.to/lastmile_qr_scan"}, "type": "electric_scooter", "lon": -77.0384995, "name": "bfb0b86306ab733fca91d6a7a718c7d7", "bike_id": "bfb0b86306ab733fca91d6a7a718c7d7", "fusion_lat": 0.0, "is_reserved": 0, "lat": 38.91014833333333, "fusion_lon": 0.0, "is_disabled": 0}, {"rental_uris": {"android": "https://dc.lft.to/lastmile_qr_scan", "ios": "https://dc.lft.to/lastmile_qr_scan"}, "type": "electric_scooter", "lon": -77.02271933333333, "name": "8f4428f06b7704836d4ef86c3c6cbf5d", "bike_id": "8f4428f06b7704836d4ef86c3c6cbf5d", "fusion_lat": 0.0, "is_reserved": 0, "lat": 38.88740116666666, "fusion_lon": 0.0, "is_disabled": 0}, {"rental_uris": {"android": "https://dc.lft.to/lastmile_qr_scan", "ios": "https://dc.lft.to/lastmile_qr_scan"}, "type": "electric_scooter", "lon": -77.099557, "name": "07d7c18e32dd6f6573e631f4ff20c38b", "bike_id": "07d7c18e32dd6f6573e631f4ff20c38b", "fusion_lat": 0.0, "is_reserved": 0, "lat": 38.92238733333333, "fusion_lon": 0.0, "is_disabled": 0}, {"rental_uris": {"android": "https://dc.lft.to/lastmile_qr_scan", "ios": "https://dc.lft.to/lastmile_qr_scan"}, "type": "electric_bike", "lon": -76.961741, "name": "ed6c8b06b207c2a29c06d350ec8bf0f8", "bike_id": "ed6c8b06b207c2a29c06d350ec8bf0f8", "fusion_lat": 0.0, "is_reserved": 0, "lat": 38.91859016666667, "fusion_lon": 0.0, "is_disabled": 0}, {"rental_uris": {"android": "https://dc.lft.to/lastmile_qr_scan", "ios": "https://dc.lft.to/lastmile_qr_scan"}, "type": "electric_scooter", "lon": -77.03457583333334, "name": "8f46d15169acc21236e17e21d9887ba8", "bike_id": "8f46d15169acc21236e17e21d9887ba8", "fusion_lat": 0.0, "is_reserved": 0, "lat": 38.935421833333336, "fusion_lon": 0.0, "is_disabled": 0}, {"rental_uris": {"android": "https://dc.lft.to/lastmile_qr_scan", "ios": "https://dc.lft.to/lastmile_qr_scan"}, "type": "electric_bike", "lon": -77.00140166666667, "name": "428e9edf12a79022fe211d56c31427c8", "bike_id": "428e9edf12a79022fe211d56c31427c8", "fusion_lat": 0.0, "is_reserved": 0, "lat": 38.92549783333333, "fusion_lon": 0.0, "is_disabled": 0}, {"rental_uris": {"android": "https://dc.lft.to/lastmile_qr_scan", "ios": "https://dc.lft.to/lastmile_qr_scan"}, "type": "electric_scooter", "lon": -77.01541733333333, "name": "4a7d39af926b5ae6b737cd09b2e491ab", "bike_id": "4a7d39af926b5ae6b737cd09b2e491ab", "fusion_lat": 0.0, "is_reserved": 0, "lat": 38.879349, "fusion_lon": 0.0, "is_disabled": 0}, {"rental_uris": {"android": "https://dc.lft.to/lastmile_qr_scan", "ios": "https://dc.lft.to/lastmile_qr_scan"}, "type": "electric_scooter", "lon": -77.03356516666666, "name": "b4ee8470fed6acff82e49c9dd8b02b74", "bike_id": "b4ee8470fed6acff82e49c9dd8b02b74", "fusion_lat": 0.0, "is_reserved": 0, "lat": 38.92440666666667, "fusion_lon": 0.0, "is_disabled": 0}, {"rental_uris": {"android": "https://dc.lft.to/lastmile_qr_scan", "ios": "https://dc.lft.to/lastmile_qr_scan"}, "type": "electric_scooter", "lon": -77.01761016666667, "name": "870fad459992e9a0113599dbcd89485b", "bike_id": "870fad459992e9a0113599dbcd89485b", "fusion_lat": 0.0, "is_reserved": 0, "lat": 38.873530833333334, "fusion_lon": 0.0, "is_disabled": 0}, {"rental_uris": {"android": "https://dc.lft.to/lastmile_qr_scan", "ios": "https://dc.lft.to/lastmile_qr_scan"}, "type": "electric_scooter", "lon": -77.04325566666667, "name": "21c88a11379624a5fef54e113d6a9411", "bike_id": "21c88a11379624a5fef54e113d6a9411", "fusion_lat": 0.0, "is_reserved": 0, "lat": 38.9049015, "fusion_lon": 0.0, "is_disabled": 0}, {"rental_uris": {"android": "https://dc.lft.to/lastmile_qr_scan", "ios": "https://dc.lft.to/lastmile_qr_scan"}, "type": "electric_scooter", "lon": -77.03347466666666, "name": "b34708f3280e674cdba07ece4cf4f65f", "bike_id": "b34708f3280e674cdba07ece4cf4f65f", "fusion_lat": 0.0, "is_reserved": 0, "lat": 38.9082305, "fusion_lon": 0.0, "is_disabled": 0}, {"rental_uris": {"android": "https://dc.lft.to/lastmile_qr_scan", "ios": "https://dc.lft.to/lastmile_qr_scan"}, "type": "electric_scooter", "lon": -77.022974, "name": "c38665857e8885c16bdd65875dbc3445", "bike_id": "c38665857e8885c16bdd65875dbc3445", "fusion_lat": 0.0, "is_reserved": 0, "lat": 38.918288833333335, "fusion_lon": 0.0, "is_disabled": 0}, {"rental_uris": {"android": "https://dc.lft.to/lastmile_qr_scan", "ios": "https://dc.lft.to/lastmile_qr_scan"}, "type": "electric_scooter", "lon": -77.03433933333334, "name": "9f4165cc58bb5ba4cc7341855499908e", "bike_id": "9f4165cc58bb5ba4cc7341855499908e", "fusion_lat": 0.0, "is_reserved": 0, "lat": 38.90575283333333, "fusion_lon": 0.0, "is_disabled": 0}, {"rental_uris": {"android": "https://dc.lft.to/lastmile_qr_scan", "ios": "https://dc.lft.to/lastmile_qr_scan"}, "type": "electric_scooter", "lon": -77.017434, "name": "0342280cc60aa3e03171c44003dc52db", "bike_id": "0342280cc60aa3e03171c44003dc52db", "fusion_lat": 0.0, "is_reserved": 0, "lat": 38.88629933333333, "fusion_lon": 0.0, "is_disabled": 0}, {"rental_uris": {"android": "https://dc.lft.to/lastmile_qr_scan", "ios": "https://dc.lft.to/lastmile_qr_scan"}, "type": "electric_scooter", "lon": -76.99959233333334, "name": "3a6bd7276a592d1b3cc4c886af216530", "bike_id": "3a6bd7276a592d1b3cc4c886af216530", "fusion_lat": 0.0, "is_reserved": 0, "lat": 38.90865733333333, "fusion_lon": 0.0, "is_disabled": 0}, {"rental_uris": {"android": "https://dc.lft.to/lastmile_qr_scan", "ios": "https://dc.lft.to/lastmile_qr_scan"}, "type": "electric_scooter", "lon": -77.07829233333334, "name": "55c246712e6e943acecb48350b2409a2", "bike_id": "55c246712e6e943acecb48350b2409a2", "fusion_lat": 0.0, "is_reserved": 0, "lat": 38.92677833333333, "fusion_lon": 0.0, "is_disabled": 0}, {"rental_uris": {"android": "https://dc.lft.to/lastmile_qr_scan", "ios": "https://dc.lft.to/lastmile_qr_scan"}, "type": "electric_scooter", "lon": -77.04099583333333, "name": "0f105c9ec69c34d988587073f4374102", "bike_id": "0f105c9ec69c34d988587073f4374102", "fusion_lat": 0.0, "is_reserved": 0, "lat": 38.91408166666667, "fusion_lon": 0.0, "is_disabled": 0}, {"rental_uris": {"android": "https://dc.lft.to/lastmile_qr_scan", "ios": "https://dc.lft.to/lastmile_qr_scan"}, "type": "electric_scooter", "lon": -77.018791, "name": "2e8d365f01464893018c1ab47a54a31e", "bike_id": "2e8d365f01464893018c1ab47a54a31e", "fusion_lat": 0.0, "is_reserved": 0, "lat": 38.91765516666667, "fusion_lon": 0.0, "is_disabled": 0}, {"rental_uris": {"android": "https://dc.lft.to/lastmile_qr_scan", "ios": "https://dc.lft.to/lastmile_qr_scan"}, "type": "electric_scooter", "lon": -77.0061625, "name": "b8bb15952d91fd3e143f2a71425ace4e", "bike_id": "b8bb15952d91fd3e143f2a71425ace4e", "fusion_lat": 0.0, "is_reserved": 0, "lat": 38.90555716666667, "fusion_lon": 0.0, "is_disabled": 0}, {"rental_uris": {"android": "https://dc.lft.to/lastmile_qr_scan", "ios": "https://dc.lft.to/lastmile_qr_scan"}, "type": "electric_bike", "lon": -77.03987266666667, "name": "a4caa76240c4398c71365bf47a560e12", "bike_id": "a4caa76240c4398c71365bf47a560e12", "fusion_lat": 0.0, "is_reserved": 0, "lat": 38.80295866666667, "fusion_lon": 0.0, "is_disabled": 0}, {"rental_uris": {"android": "https://dc.lft.to/lastmile_qr_scan", "ios": "https://dc.lft.to/lastmile_qr_scan"}, "type": "electric_scooter", "lon": -77.03655333333333, "name": "1488b3d37cbd7cd6e7f7001a4be471cc", "bike_id": "1488b3d37cbd7cd6e7f7001a4be471cc", "fusion_lat": 0.0, "is_reserved": 0, "lat": 38.92244516666667, "fusion_lon": 0.0, "is_disabled": 0}, {"rental_uris": {"android": "https://dc.lft.to/lastmile_qr_scan", "ios": "https://dc.lft.to/lastmile_qr_scan"}, "type": "electric_scooter", "lon": -77.02283133333333, "name": "6f91d269d6a411bf45f0ee960440ccde", "bike_id": "6f91d269d6a411bf45f0ee960440ccde", "fusion_lat": 0.0, "is_reserved": 0, "lat": 38.926908833333336, "fusion_lon": 0.0, "is_disabled": 0}, {"rental_uris": {"android": "https://dc.lft.to/lastmile_qr_scan", "ios": "https://dc.lft.to/lastmile_qr_scan"}, "type": "electric_scooter", "lon": -77.0037815, "name": "5b9405206c27fc61aee7a781f1761d94", "bike_id": "5b9405206c27fc61aee7a781f1761d94", "fusion_lat": 0.0, "is_reserved": 0, "lat": 38.9060645, "fusion_lon": 0.0, "is_disabled": 0}, {"rental_uris": {"android": "https://dc.lft.to/lastmile_qr_scan", "ios": "https://dc.lft.to/lastmile_qr_scan"}, "type": "electric_scooter", "lon": -77.00189716666667, "name": "558b8e102384b091cfbd0908d8e24e40", "bike_id": "558b8e102384b091cfbd0908d8e24e40", "fusion_lat": 0.0, "is_reserved": 0, "lat": 38.90724083333333, "fusion_lon": 0.0, "is_disabled": 0}, {"rental_uris": {"android": "https://dc.lft.to/lastmile_qr_scan", "ios": "https://dc.lft.to/lastmile_qr_scan"}, "type": "electric_scooter", "lon": -77.04107233333333, "name": "4f94fbe0bbe7928ef50d4cbf104e3054", "bike_id": "4f94fbe0bbe7928ef50d4cbf104e3054", "fusion_lat": 0.0, "is_reserved": 0, "lat": 38.925296, "fusion_lon": 0.0, "is_disabled": 0}, {"rental_uris": {"android": "https://dc.lft.to/lastmile_qr_scan", "ios": "https://dc.lft.to/lastmile_qr_scan"}, "type": "electric_scooter", "lon": -76.99621566666667, "name": "77e3b0c8085071a5b7aac54ff6e4e494", "bike_id": "77e3b0c8085071a5b7aac54ff6e4e494", "fusion_lat": 0.0, "is_reserved": 0, "lat": 38.88029616666667, "fusion_lon": 0.0, "is_disabled": 0}, {"rental_uris": {"android": "https://dc.lft.to/lastmile_qr_scan", "ios": "https://dc.lft.to/lastmile_qr_scan"}, "type": "electric_scooter", "lon": -76.99782766666667, "name": "79e347d2286802b3d97cdd51f60b9723", "bike_id": "79e347d2286802b3d97cdd51f60b9723", "fusion_lat": 0.0, "is_reserved": 0, "lat": 38.8442505, "fusion_lon": 0.0, "is_disabled": 0}, {"rental_uris": {"android": "https://dc.lft.to/lastmile_qr_scan", "ios": "https://dc.lft.to/lastmile_qr_scan"}, "type": "electric_scooter", "lon": -76.98929533333333, "name": "a3350f3e9682e3ba5ec96ce18248bd8c", "bike_id": "a3350f3e9682e3ba5ec96ce18248bd8c", "fusion_lat": 0.0, "is_reserved": 0, "lat": 38.865908166666664, "fusion_lon": 0.0, "is_disabled": 0}, {"rental_uris": {"android": "https://dc.lft.to/lastmile_qr_scan", "ios": "https://dc.lft.to/lastmile_qr_scan"}, "type": "electric_scooter", "lon": -76.99092866666666, "name": "c9d1bf2cd29e4efca63e843aa2a63c7a", "bike_id": "c9d1bf2cd29e4efca63e843aa2a63c7a", "fusion_lat": 0.0, "is_reserved": 0, "lat": 38.92951216666667, "fusion_lon": 0.0, "is_disabled": 0}, {"rental_uris": {"android": "https://dc.lft.to/lastmile_qr_scan", "ios": "https://dc.lft.to/lastmile_qr_scan"}, "type": "electric_scooter", "lon": -77.017991, "name": "e1dce296557674424de91c4dcbd99174", "bike_id": "e1dce296557674424de91c4dcbd99174", "fusion_lat": 0.0, "is_reserved": 0, "lat": 38.9039665, "fusion_lon": 0.0, "is_disabled": 0}, {"rental_uris": {"android": "https://dc.lft.to/lastmile_qr_scan", "ios": "https://dc.lft.to/lastmile_qr_scan"}, "type": "electric_scooter", "lon": -77.04968316666667, "name": "27ac86947749059d108149475bb97528", "bike_id": "27ac86947749059d108149475bb97528", "fusion_lat": 0.0, "is_reserved": 0, "lat": 38.912587, "fusion_lon": 0.0, "is_disabled": 0}, {"rental_uris": {"android": "https://dc.lft.to/lastmile_qr_scan", "ios": "https://dc.lft.to/lastmile_qr_scan"}, "type": "electric_bike", "lon": -76.92339383333334, "name": "d54812deaa351bfd48352edaa622f620", "bike_id": "d54812deaa351bfd48352edaa622f620", "fusion_lat": 0.0, "is_reserved": 0, "lat": 38.8879335, "fusion_lon": 0.0, "is_disabled": 0}, {"rental_uris": {"android": "https://dc.lft.to/lastmile_qr_scan", "ios": "https://dc.lft.to/lastmile_qr_scan"}, "type": "electric_scooter", "lon": -77.023443, "name": "d8412fa449f4c5890632d3c2caf75c61", "bike_id": "d8412fa449f4c5890632d3c2caf75c61", "fusion_lat": 0.0, "is_reserved": 0, "lat": 38.929684333333334, "fusion_lon": 0.0, "is_disabled": 0}, {"rental_uris": {"android": "https://dc.lft.to/lastmile_qr_scan", "ios": "https://dc.lft.to/lastmile_qr_scan"}, "type": "electric_scooter", "lon": -77.02984483333333, "name": "14d61a55da5e5071a359821864fd477b", "bike_id": "14d61a55da5e5071a359821864fd477b", "fusion_lat": 0.0, "is_reserved": 0, "lat": 38.93755733333333, "fusion_lon": 0.0, "is_disabled": 0}, {"rental_uris": {"android": "https://dc.lft.to/lastmile_qr_scan", "ios": "https://dc.lft.to/lastmile_qr_scan"}, "type": "electric_scooter", "lon": -77.04221333333334, "name": "c47431d1753736d39253ccd787d980d1", "bike_id": "c47431d1753736d39253ccd787d980d1", "fusion_lat": 0.0, "is_reserved": 0, "lat": 38.92627816666667, "fusion_lon": 0.0, "is_disabled": 0}, {"rental_uris": {"android": "https://dc.lft.to/lastmile_qr_scan", "ios": "https://dc.lft.to/lastmile_qr_scan"}, "type": "electric_scooter", "lon": -77.072723, "name": "32708fcb14c46215101484da33139e98", "bike_id": "32708fcb14c46215101484da33139e98", "fusion_lat": 0.0, "is_reserved": 0, "lat": 38.93480533333334, "fusion_lon": 0.0, "is_disabled": 0}, {"rental_uris": {"android": "https://dc.lft.to/lastmile_qr_scan", "ios": "https://dc.lft.to/lastmile_qr_scan"}, "type": "electric_scooter", "lon": -77.0317255, "name": "5d174394dc01ee4882ea09559454098d", "bike_id": "5d174394dc01ee4882ea09559454098d", "fusion_lat": 0.0, "is_reserved": 0, "lat": 38.90162566666667, "fusion_lon": 0.0, "is_disabled": 0}, {"rental_uris": {"android": "https://dc.lft.to/lastmile_qr_scan", "ios": "https://dc.lft.to/lastmile_qr_scan"}, "type": "electric_scooter", "lon": -76.9902755, "name": "447489893480e782cc55033391c04e25", "bike_id": "447489893480e782cc55033391c04e25", "fusion_lat": 0.0, "is_reserved": 0, "lat": 38.86405216666667, "fusion_lon": 0.0, "is_disabled": 0}, {"rental_uris": {"android": "https://dc.lft.to/lastmile_qr_scan", "ios": "https://dc.lft.to/lastmile_qr_scan"}, "type": "electric_bike", "lon": -77.0297915, "name": "12ed969f96de8928a54ca99dcd51efd1", "bike_id": "12ed969f96de8928a54ca99dcd51efd1", "fusion_lat": 0.0, "is_reserved": 0, "lat": 38.93697866666667, "fusion_lon": 0.0, "is_disabled": 0}, {"rental_uris": {"android": "https://dc.lft.to/lastmile_qr_scan", "ios": "https://dc.lft.to/lastmile_qr_scan"}, "type": "electric_scooter", "lon": -76.995207, "name": "b76bf31991dd8924605e1ccb9da44562", "bike_id": "b76bf31991dd8924605e1ccb9da44562", "fusion_lat": 0.0, "is_reserved": 0, "lat": 38.900152, "fusion_lon": 0.0, "is_disabled": 0}, {"rental_uris": {"android": "https://dc.lft.to/lastmile_qr_scan", "ios": "https://dc.lft.to/lastmile_qr_scan"}, "type": "electric_scooter", "lon": -77.035086, "name": "261f194b643bcdcf81df41306070e34e", "bike_id": "261f194b643bcdcf81df41306070e34e", "fusion_lat": 0.0, "is_reserved": 0, "lat": 38.9214255, "fusion_lon": 0.0, "is_disabled": 0}, {"rental_uris": {"android": "https://dc.lft.to/lastmile_qr_scan", "ios": "https://dc.lft.to/lastmile_qr_scan"}, "type": "electric_scooter", "lon": -77.03200683333333, "name": "862d6325eb9ba656a19143f682397fea", "bike_id": "862d6325eb9ba656a19143f682397fea", "fusion_lat": 0.0, "is_reserved": 0, "lat": 38.89640883333333, "fusion_lon": 0.0, "is_disabled": 0}, {"rental_uris": {"android": "https://dc.lft.to/lastmile_qr_scan", "ios": "https://dc.lft.to/lastmile_qr_scan"}, "type": "electric_scooter", "lon": -77.03241633333333, "name": "91e1d101c97495baa6b3bc55f2796d62", "bike_id": "91e1d101c97495baa6b3bc55f2796d62", "fusion_lat": 0.0, "is_reserved": 0, "lat": 38.9298995, "fusion_lon": 0.0, "is_disabled": 0}, {"rental_uris": {"android": "https://dc.lft.to/lastmile_qr_scan", "ios": "https://dc.lft.to/lastmile_qr_scan"}, "type": "electric_scooter", "lon": -77.02184916666667, "name": "1d910b0640f143e0077f9cc7ce5735dc", "bike_id": "1d910b0640f143e0077f9cc7ce5735dc", "fusion_lat": 0.0, "is_reserved": 0, "lat": 38.9106, "fusion_lon": 0.0, "is_disabled": 0}, {"rental_uris": {"android": "https://dc.lft.to/lastmile_qr_scan", "ios": "https://dc.lft.to/lastmile_qr_scan"}, "type": "electric_scooter", "lon": -76.97561216666666, "name": "69b2f9876262f3eb414b6c336a45a0d9", "bike_id": "69b2f9876262f3eb414b6c336a45a0d9", "fusion_lat": 0.0, "is_reserved": 0, "lat": 38.904425833333335, "fusion_lon": 0.0, "is_disabled": 0}, {"rental_uris": {"android": "https://dc.lft.to/lastmile_qr_scan", "ios": "https://dc.lft.to/lastmile_qr_scan"}, "type": "electric_scooter", "lon": -77.01800816666666, "name": "147a68aa55939d6690a39d83b27c9bd1", "bike_id": "147a68aa55939d6690a39d83b27c9bd1", "fusion_lat": 0.0, "is_reserved": 0, "lat": 38.8864115, "fusion_lon": 0.0, "is_disabled": 0}, {"rental_uris": {"android": "https://dc.lft.to/lastmile_qr_scan", "ios": "https://dc.lft.to/lastmile_qr_scan"}, "type": "electric_scooter", "lon": -77.041563, "name": "d124b268999c61ceca916256cb6d2764", "bike_id": "d124b268999c61ceca916256cb6d2764", "fusion_lat": 0.0, "is_reserved": 0, "lat": 38.919269, "fusion_lon": 0.0, "is_disabled": 0}, {"rental_uris": {"android": "https://dc.lft.to/lastmile_qr_scan", "ios": "https://dc.lft.to/lastmile_qr_scan"}, "type": "electric_scooter", "lon": -77.04676283333333, "name": "1c8667880f5c1aa383c95268d749af36", "bike_id": "1c8667880f5c1aa383c95268d749af36", "fusion_lat": 0.0, "is_reserved": 0, "lat": 38.910583333333335, "fusion_lon": 0.0, "is_disabled": 0}, {"rental_uris": {"android": "https://dc.lft.to/lastmile_qr_scan", "ios": "https://dc.lft.to/lastmile_qr_scan"}, "type": "electric_bike", "lon": -77.08436333333333, "name": "edfcebcff9fc2296d77c6a1428ff88e8", "bike_id": "edfcebcff9fc2296d77c6a1428ff88e8", "fusion_lat": 0.0, "is_reserved": 0, "lat": 38.81027666666667, "fusion_lon": 0.0, "is_disabled": 0}, {"rental_uris": {"android": "https://dc.lft.to/lastmile_qr_scan", "ios": "https://dc.lft.to/lastmile_qr_scan"}, "type": "electric_bike", "lon": -76.975006, "name": "d19efbe9552ab2b481e6539257498add", "bike_id": "d19efbe9552ab2b481e6539257498add", "fusion_lat": 0.0, "is_reserved": 0, "lat": 38.91934416666667, "fusion_lon": 0.0, "is_disabled": 0}, {"rental_uris": {"android": "https://dc.lft.to/lastmile_qr_scan", "ios": "https://dc.lft.to/lastmile_qr_scan"}, "type": "electric_scooter", "lon": -76.9914175, "name": "1ad826bd8e63a4558c394fa8bfa8304d", "bike_id": "1ad826bd8e63a4558c394fa8bfa8304d", "fusion_lat": 0.0, "is_reserved": 0, "lat": 38.886777333333335, "fusion_lon": 0.0, "is_disabled": 0}, {"rental_uris": {"android": "https://dc.lft.to/lastmile_qr_scan", "ios": "https://dc.lft.to/lastmile_qr_scan"}, "type": "electric_scooter", "lon": -76.94919616666667, "name": "925ae67b47b62b9a98446d70f6c9380e", "bike_id": "925ae67b47b62b9a98446d70f6c9380e", "fusion_lat": 0.0, "is_reserved": 0, "lat": 38.89266966666667, "fusion_lon": 0.0, "is_disabled": 0}, {"rental_uris": {"android": "https://dc.lft.to/lastmile_qr_scan", "ios": "https://dc.lft.to/lastmile_qr_scan"}, "type": "electric_scooter", "lon": -76.97929766666667, "name": "d842122f588f3f6c5580f9dddf7e0b0f", "bike_id": "d842122f588f3f6c5580f9dddf7e0b0f", "fusion_lat": 0.0, "is_reserved": 0, "lat": 38.902515666666666, "fusion_lon": 0.0, "is_disabled": 0}, {"rental_uris": {"android": "https://dc.lft.to/lastmile_qr_scan", "ios": "https://dc.lft.to/lastmile_qr_scan"}, "type": "electric_scooter", "lon": -77.0365395, "name": "64357edd5bd20c8f761e6e400c61cff7", "bike_id": "64357edd5bd20c8f761e6e400c61cff7", "fusion_lat": 0.0, "is_reserved": 0, "lat": 38.942010833333335, "fusion_lon": 0.0, "is_disabled": 0}, {"rental_uris": {"android": "https://dc.lft.to/lastmile_qr_scan", "ios": "https://dc.lft.to/lastmile_qr_scan"}, "type": "electric_scooter", "lon": -76.98454266666667, "name": "f2947ce8374c76825320345829bc0078", "bike_id": "f2947ce8374c76825320345829bc0078", "fusion_lat": 0.0, "is_reserved": 0, "lat": 38.88016116666667, "fusion_lon": 0.0, "is_disabled": 0}, {"rental_uris": {"android": "https://dc.lft.to/lastmile_qr_scan", "ios": "https://dc.lft.to/lastmile_qr_scan"}, "type": "electric_scooter", "lon": -77.02477666666667, "name": "07fe28ca60042f5b5bf4dcf4ff88c0da", "bike_id": "07fe28ca60042f5b5bf4dcf4ff88c0da", "fusion_lat": 0.0, "is_reserved": 0, "lat": 38.9362135, "fusion_lon": 0.0, "is_disabled": 0}, {"rental_uris": {"android": "https://dc.lft.to/lastmile_qr_scan", "ios": "https://dc.lft.to/lastmile_qr_scan"}, "type": "electric_scooter", "lon": -76.990125, "name": "6d2e5ad4b8bbbe4e7b7255c6cfe8bea6", "bike_id": "6d2e5ad4b8bbbe4e7b7255c6cfe8bea6", "fusion_lat": 0.0, "is_reserved": 0, "lat": 38.89910883333334, "fusion_lon": 0.0, "is_disabled": 0}, {"rental_uris": {"android": "https://dc.lft.to/lastmile_qr_scan", "ios": "https://dc.lft.to/lastmile_qr_scan"}, "type": "electric_scooter", "lon": -76.9949205, "name": "b603b9abea99f07ae973b33d800151e3", "bike_id": "b603b9abea99f07ae973b33d800151e3", "fusion_lat": 0.0, "is_reserved": 0, "lat": 38.86244266666667, "fusion_lon": 0.0, "is_disabled": 0}, {"rental_uris": {"android": "https://dc.lft.to/lastmile_qr_scan", "ios": "https://dc.lft.to/lastmile_qr_scan"}, "type": "electric_scooter", "lon": -77.024782, "name": "ca8ea929eb08ddd590c7c7bf22b3f07d", "bike_id": "ca8ea929eb08ddd590c7c7bf22b3f07d", "fusion_lat": 0.0, "is_reserved": 0, "lat": 38.938767666666664, "fusion_lon": 0.0, "is_disabled": 0}, {"rental_uris": {"android": "https://dc.lft.to/lastmile_qr_scan", "ios": "https://dc.lft.to/lastmile_qr_scan"},