{"data": {"bikes": [{"rental_uris": {"ios": "https://dc.lft.to/lastmile_qr_scan", "android": "https://dc.lft.to/lastmile_qr_scan"}, "type": "electric_scooter", "name": "d639f3e363a939ddc5b9157eedc12fc5", "is_reserved": 0, "lon": -77.03141, "is_disabled": 0, "fusion_lat": 0.0, "lat": 38.8875105, "bike_id": "d639f3e363a939ddc5b9157eedc12fc5", "fusion_lon": 0.0}, {"rental_uris": {"ios": "https://dc.lft.to/lastmile_qr_scan", "android": "https://dc.lft.to/lastmile_qr_scan"}, "type": "electric_bike", "name": "90dbf389c73dc3af4f03397d0b609354", "is_reserved": 0, "lon": -76.9580015, "is_disabled": 0, "fusion_lat": 0.0, "lat": 38.9804585, "bike_id": "90dbf389c73dc3af4f03397d0b609354", "fusion_lon": 0.0}, {"rental_uris": {"ios": "https://dc.lft.to/lastmile_qr_scan", "android": "https://dc.lft.to/lastmile_qr_scan"}, "type": "electric_scooter", "name": "e069939c712f4ea5c4a8b706e0fbda3e", "is_reserved": 0, "lon": -76.99792033333334, "is_disabled": 0, "fusion_lat": 0.0, "lat": 38.876312166666665, "bike_id": "e069939c712f4ea5c4a8b706e0fbda3e", "fusion_lon": 0.0}, {"rental_uris": {"ios": "https://dc.lft.to/lastmile_qr_scan", "android": "https://dc.lft.to/lastmile_qr_scan"}, "type": "electric_scooter", "name": "0e16907ae9babf82fef53a2209e53e49", "is_reserved": 0, "lon": -77.06088866666667, "is_disabled": 0, "fusion_lat": 0.0, "lat": 38.9398685, "bike_id": "0e16907ae9babf82fef53a2209e53e49", "fusion_lon": 0.0}, {"rental_uris": {"ios": "https://dc.lft.to/lastmile_qr_scan", "android": "https://dc.lft.to/lastmile_qr_scan"}, "type": "electric_scooter", "name": "48baa7678a6b8fdeb8da27155ca4b8f8", "is_reserved": 0, "lon": -77.0363045, "is_disabled": 0, "fusion_lat": 0.0, "lat": 38.936696166666664, "bike_id": "48baa7678a6b8fdeb8da27155ca4b8f8", "fusion_lon": 0.0}, {"rental_uris": {"ios": "https://dc.lft.to/lastmile_qr_scan", "android": "https://dc.lft.to/lastmile_qr_scan"}, "type": "electric_scooter", "name": "5d49747a05a092fb769876179c1f5091", "is_reserved": 0, "lon": -76.97569016666667, "is_disabled": 0, "fusion_lat": 0.0, "lat": 38.94424216666667, "bike_id": "5d49747a05a092fb769876179c1f5091", "fusion_lon": 0.0}, {"rental_uris": {"ios": "https://dc.lft.to/lastmile_qr_scan", "android": "https://dc.lft.to/lastmile_qr_scan"}, "type": "electric_bike", "name": "bf1e401ded6c6b6d0fd5df2aa09cd9dd", "is_reserved": 0, "lon": -77.00132716666667, "is_disabled": 0, "fusion_lat": 0.0, "lat": 38.994995833333334, "bike_id": "bf1e401ded6c6b6d0fd5df2aa09cd9dd", "fusion_lon": 0.0}, {"rental_uris": {"ios": "https://dc.lft.to/lastmile_qr_scan", "android": "https://dc.lft.to/lastmile_qr_scan"}, "type": "electric_bike", "name": "2e3e2a08d4e2b640f6df69740db1b7f9", "is_reserved": 0, "lon": -76.99256133333333, "is_disabled": 0, "fusion_lat": 0.0, "lat": 38.96073583333333, "bike_id": "2e3e2a08d4e2b640f6df69740db1b7f9", "fusion_lon": 0.0}, {"rental_uris": {"ios": "https://dc.lft.to/lastmile_qr_scan", "android": "https://dc.lft.to/lastmile_qr_scan"}, "type": "electric_scooter", "name": "9ecc1f6d06d06e86b2a43e61c6dcbfa9", "is_reserved": 0, "lon": -77.055069, "is_disabled": 0, "fusion_lat": 0.0, "lat": 38.92837883333333, "bike_id": "9ecc1f6d06d06e86b2a43e61c6dcbfa9", "fusion_lon": 0.0}, {"rental_uris": {"ios": "https://dc.lft.to/lastmile_qr_scan", "android": "https://dc.lft.to/lastmile_qr_scan"}, "type": "electric_scooter", "name": "8733750eb0c36e882e53f56044c792bd", "is_reserved": 0, "lon": -76.93741933333334, "is_disabled": 0, "fusion_lat": 0.0, "lat": 38.890086, "bike_id": "8733750eb0c36e882e53f56044c792bd", "fusion_lon": 0.0}, {"rental_uris": {"ios": "https://dc.lft.to/lastmile_qr_scan", "android": "https://dc.lft.to/lastmile_qr_scan"}, "type": "electric_scooter", "name": "a2117d13a24605b12368544680778e26", "is_reserved": 0, "lon": -77.02379366666666, "is_disabled": 0, "fusion_lat": 0.0, "lat": 38.9352645, "bike_id": "a2117d13a24605b12368544680778e26", "fusion_lon": 0.0}, {"rental_uris": {"ios": "https://dc.lft.to/lastmile_qr_scan", "android": "https://dc.lft.to/lastmile_qr_scan"}, "type": "electric_scooter", "name": "5c603716b75db595e6b11baccd79f485", "is_reserved": 0, "lon": -77.07339516666667, "is_disabled": 0, "fusion_lat": 0.0, "lat": 38.960929, "bike_id": "5c603716b75db595e6b11baccd79f485", "fusion_lon": 0.0}, {"rental_uris": {"ios": "https://dc.lft.to/lastmile_qr_scan", "android": "https://dc.lft.to/lastmile_qr_scan"}, "type": "electric_scooter", "name": "6d952a1d7238b3d2015d725c3b67e1aa", "is_reserved": 0, "lon": -77.02922783333334, "is_disabled": 0, "fusion_lat": 0.0, "lat": 38.94043716666667, "bike_id": "6d952a1d7238b3d2015d725c3b67e1aa", "fusion_lon": 0.0}, {"rental_uris": {"ios": "https://dc.lft.to/lastmile_qr_scan", "android": "https://dc.lft.to/lastmile_qr_scan"}, "type": "electric_scooter", "name": "ba62b338266a48671cc3200529363c87", "is_reserved": 0, "lon": -77.02197566666666, "is_disabled": 0, "fusion_lat": 0.0, "lat": 38.911287, "bike_id": "ba62b338266a48671cc3200529363c87", "fusion_lon": 0.0}, {"rental_uris": {"ios": "https://dc.lft.to/lastmile_qr_scan", "android": "https://dc.lft.to/lastmile_qr_scan"}, "type": "electric_scooter", "name": "d44972b0c050137c3a44bec321b1482d", "is_reserved": 0, "lon": -76.9703595, "is_disabled": 0, "fusion_lat": 0.0, "lat": 38.873185, "bike_id": "d44972b0c050137c3a44bec321b1482d", "fusion_lon": 0.0}, {"rental_uris": {"ios": "https://dc.lft.to/lastmile_qr_scan", "android": "https://dc.lft.to/lastmile_qr_scan"}, "type": "electric_scooter", "name": "94fa2ea45b8c4ebcb86abe6bd0175cb9", "is_reserved": 0, "lon": -76.93742616666667, "is_disabled": 0, "fusion_lat": 0.0, "lat": 38.89009333333333, "bike_id": "94fa2ea45b8c4ebcb86abe6bd0175cb9", "fusion_lon": 0.0}, {"rental_uris": {"ios": "https://dc.lft.to/lastmile_qr_scan", "android": "https://dc.lft.to/lastmile_qr_scan"}, "type": "electric_scooter", "name": "4741739e129228e78e38f8fd3e37728e", "is_reserved": 0, "lon": -77.0417615, "is_disabled": 0, "fusion_lat": 0.0, "lat": 38.903727, "bike_id": "4741739e129228e78e38f8fd3e37728e", "fusion_lon": 0.0}, {"rental_uris": {"ios": "https://dc.lft.to/lastmile_qr_scan", "android": "https://dc.lft.to/lastmile_qr_scan"}, "type": "electric_scooter", "name": "7e717b02075198959f2b54f80294ff90", "is_reserved": 0, "lon": -77.00768516666666, "is_disabled": 0, "fusion_lat": 0.0, "lat": 38.8783705, "bike_id": "7e717b02075198959f2b54f80294ff90", "fusion_lon": 0.0}, {"rental_uris": {"ios": "https://dc.lft.to/lastmile_qr_scan", "android": "https://dc.lft.to/lastmile_qr_scan"}, "type": "electric_scooter", "name": "ba977bbf0c1cd0c06cfa16b757d36fef", "is_reserved": 0, "lon": -77.03189933333333, "is_disabled": 0, "fusion_lat": 0.0, "lat": 38.91573533333333, "bike_id": "ba977bbf0c1cd0c06cfa16b757d36fef", "fusion_lon": 0.0}, {"rental_uris": {"ios": "https://dc.lft.to/lastmile_qr_scan", "android": "https://dc.lft.to/lastmile_qr_scan"}, "type": "electric_scooter", "name": "1ffb253c5ff08e1a21079b2fc4f8e7a3", "is_reserved": 0, "lon": -77.0060705, "is_disabled": 0, "fusion_lat": 0.0, "lat": 38.906465, "bike_id": "1ffb253c5ff08e1a21079b2fc4f8e7a3", "fusion_lon": 0.0}, {"rental_uris": {"ios": "https://dc.lft.to/lastmile_qr_scan", "android": "https://dc.lft.to/lastmile_qr_scan"}, "type": "electric_bike", "name": "e50893f0748377e9487a056bcd81eb66", "is_reserved": 0, "lon": -77.06696416666666, "is_disabled": 0, "fusion_lat": 0.0, "lat": 38.831695833333335, "bike_id": "e50893f0748377e9487a056bcd81eb66", "fusion_lon": 0.0}, {"rental_uris": {"ios": "https://dc.lft.to/lastmile_qr_scan", "android": "https://dc.lft.to/lastmile_qr_scan"}, "type": "electric_scooter", "name": "394895516eb33afe3e9016125a6ea7f6", "is_reserved": 0, "lon": -77.021541, "is_disabled": 0, "fusion_lat": 0.0, "lat": 38.89499433333334, "bike_id": "394895516eb33afe3e9016125a6ea7f6", "fusion_lon": 0.0}, {"rental_uris": {"ios": "https://dc.lft.to/lastmile_qr_scan", "android": "https://dc.lft.to/lastmile_qr_scan"}, "type": "electric_scooter", "name": "39a4b188f1e4ff446166d37c5ab55aca", "is_reserved": 0, "lon": -77.017569, "is_disabled": 0, "fusion_lat": 0.0, "lat": 38.876902333333334, "bike_id": "39a4b188f1e4ff446166d37c5ab55aca", "fusion_lon": 0.0}, {"rental_uris": {"ios": "https://dc.lft.to/lastmile_qr_scan", "android": "https://dc.lft.to/lastmile_qr_scan"}, "type": "electric_scooter", "name": "782f0885394b87f92c8f050c7db0d819", "is_reserved": 0, "lon": -77.03658233333333, "is_disabled": 0, "fusion_lat": 0.0, "lat": 38.922825333333336, "bike_id": "782f0885394b87f92c8f050c7db0d819", "fusion_lon": 0.0}, {"rental_uris": {"ios": "https://dc.lft.to/lastmile_qr_scan", "android": "https://dc.lft.to/lastmile_qr_scan"}, "type": "electric_scooter", "name": "0f645febe8f9d43f349baa951d89c188", "is_reserved": 0, "lon": -77.02797033333333, "is_disabled": 0, "fusion_lat": 0.0, "lat": 38.95608383333333, "bike_id": "0f645febe8f9d43f349baa951d89c188", "fusion_lon": 0.0}, {"rental_uris": {"ios": "https://dc.lft.to/lastmile_qr_scan", "android": "https://dc.lft.to/lastmile_qr_scan"}, "type": "electric_scooter", "name": "82393d1c5a193511d6601f746d6eaf1e", "is_reserved": 0, "lon": -77.07214483333334, "is_disabled": 0, "fusion_lat": 0.0, "lat": 38.8989995, "bike_id": "82393d1c5a193511d6601f746d6eaf1e", "fusion_lon": 0.0}, {"rental_uris": {"ios": "https://dc.lft.to/lastmile_qr_scan", "android": "https://dc.lft.to/lastmile_qr_scan"}, "type": "electric_scooter", "name": "f180028cc919ed4d206c3c4b543e25f8", "is_reserved": 0, "lon": -77.04189933333333, "is_disabled": 0, "fusion_lat": 0.0, "lat": 38.92050366666667, "bike_id": "f180028cc919ed4d206c3c4b543e25f8", "fusion_lon": 0.0}, {"rental_uris": {"ios": "https://dc.lft.to/lastmile_qr_scan", "android": "https://dc.lft.to/lastmile_qr_scan"}, "type": "electric_scooter", "name": "313fd0cfb3a5fbc3507ea8a435ee9556", "is_reserved": 0, "lon": -77.02058433333333, "is_disabled": 0, "fusion_lat": 0.0, "lat": 38.90851833333333, "bike_id": "313fd0cfb3a5fbc3507ea8a435ee9556", "fusion_lon": 0.0}, {"rental_uris": {"ios": "https://dc.lft.to/lastmile_qr_scan", "android": "https://dc.lft.to/lastmile_qr_scan"}, "type": "electric_scooter", "name": "96796eaa4595448d5c91fd5920c9feaf", "is_reserved": 0, "lon": -77.0451175, "is_disabled": 0, "fusion_lat": 0.0, "lat": 38.8860005, "bike_id": "96796eaa4595448d5c91fd5920c9feaf", "fusion_lon": 0.0}, {"rental_uris": {"ios": "https://dc.lft.to/lastmile_qr_scan", "android": "https://dc.lft.to/lastmile_qr_scan"}, "type": "electric_scooter", "name": "358e4c20ad67fa1a4e95edb0ad5786f7", "is_reserved": 0, "lon": -77.0187105, "is_disabled": 0, "fusion_lat": 0.0, "lat": 38.93053833333333, "bike_id": "358e4c20ad67fa1a4e95edb0ad5786f7", "fusion_lon": 0.0}, {"rental_uris": {"ios": "https://dc.lft.to/lastmile_qr_scan", "android": "https://dc.lft.to/lastmile_qr_scan"}, "type": "electric_scooter", "name": "8d32a9dba945939af02e335040f1e2d3", "is_reserved": 0, "lon": -77.0491365, "is_disabled": 0, "fusion_lat": 0.0, "lat": 38.919375, "bike_id": "8d32a9dba945939af02e335040f1e2d3", "fusion_lon": 0.0}, {"rental_uris": {"ios": "https://dc.lft.to/lastmile_qr_scan", "android": "https://dc.lft.to/lastmile_qr_scan"}, "type": "electric_bike", "name": "cec6628b58ad9c71d7ec249b53af24b8", "is_reserved": 0, "lon": -76.9999885, "is_disabled": 0, "fusion_lat": 0.0, "lat": 38.923912, "bike_id": "cec6628b58ad9c71d7ec249b53af24b8", "fusion_lon": 0.0}, {"rental_uris": {"ios": "https://dc.lft.to/lastmile_qr_scan", "android": "https://dc.lft.to/lastmile_qr_scan"}, "type": "electric_scooter", "name": "b0d8b59f8fa2db83b796efb3207ff6d6", "is_reserved": 0, "lon": -77.03718333333333, "is_disabled": 0, "fusion_lat": 0.0, "lat": 38.914799333333335, "bike_id": "b0d8b59f8fa2db83b796efb3207ff6d6", "fusion_lon": 0.0}, {"rental_uris": {"ios": "https://dc.lft.to/lastmile_qr_scan", "android": "https://dc.lft.to/lastmile_qr_scan"}, "type": "electric_scooter", "name": "9ff92706d3034df6f67a182e10af8d99", "is_reserved": 0, "lon": -77.038752, "is_disabled": 0, "fusion_lat": 0.0, "lat": 38.9215265, "bike_id": "9ff92706d3034df6f67a182e10af8d99", "fusion_lon": 0.0}, {"rental_uris": {"ios": "https://dc.lft.to/lastmile_qr_scan", "android": "https://dc.lft.to/lastmile_qr_scan"}, "type": "electric_scooter", "name": "5e55ebfb1eb3a6314c657b24636cd63e", "is_reserved": 0, "lon": -77.00985633333333, "is_disabled": 0, "fusion_lat": 0.0, "lat": 38.872876166666664, "bike_id": "5e55ebfb1eb3a6314c657b24636cd63e", "fusion_lon": 0.0}, {"rental_uris": {"ios": "https://dc.lft.to/lastmile_qr_scan", "android": "https://dc.lft.to/lastmile_qr_scan"}, "type": "electric_scooter", "name": "4ca1053af93301197ba4b0c7780ddfdc", "is_reserved": 0, "lon": -77.03202833333333, "is_disabled": 0, "fusion_lat": 0.0, "lat": 38.90706016666667, "bike_id": "4ca1053af93301197ba4b0c7780ddfdc", "fusion_lon": 0.0}, {"rental_uris": {"ios": "https://dc.lft.to/lastmile_qr_scan", "android": "https://dc.lft.to/lastmile_qr_scan"}, "type": "electric_scooter", "name": "577bea34332ebcbe433e49279bddcfff", "is_reserved": 0, "lon": -77.033649, "is_disabled": 0, "fusion_lat": 0.0, "lat": 38.910635, "bike_id": "577bea34332ebcbe433e49279bddcfff", "fusion_lon": 0.0}, {"rental_uris": {"ios": "https://dc.lft.to/lastmile_qr_scan", "android": "https://dc.lft.to/lastmile_qr_scan"}, "type": "electric_scooter", "name": "3f525580547f669b2170dfaca7803ce9", "is_reserved": 0, "lon": -77.017467, "is_disabled": 0, "fusion_lat": 0.0, "lat": 38.91242483333333, "bike_id": "3f525580547f669b2170dfaca7803ce9", "fusion_lon": 0.0}, {"rental_uris": {"ios": "https://dc.lft.to/lastmile_qr_scan", "android": "https://dc.lft.to/lastmile_qr_scan"}, "type": "electric_scooter", "name": "0935cc124974cb3cd1dd0984cbbd29cc", "is_reserved": 0, "lon": -77.04392216666666, "is_disabled": 0, "fusion_lat": 0.0, "lat": 38.923602333333335, "bike_id": "0935cc124974cb3cd1dd0984cbbd29cc", "fusion_lon": 0.0}, {"rental_uris": {"ios": "https://dc.lft.to/lastmile_qr_scan", "android": "https://dc.lft.to/lastmile_qr_scan"}, "type": "electric_scooter", "name": "3655569138c2cf78dbfde50b2073527e", "is_reserved": 0, "lon": -76.98029066666666, "is_disabled": 0, "fusion_lat": 0.0, "lat": 38.91679883333333, "bike_id": "3655569138c2cf78dbfde50b2073527e", "fusion_lon": 0.0}, {"rental_uris": {"ios": "https://dc.lft.to/lastmile_qr_scan", "android": "https://dc.lft.to/lastmile_qr_scan"}, "type": "electric_bike", "name": "8f3763c774435bc34fe9b8f9c0394514", "is_reserved": 0, "lon": -76.9416435, "is_disabled": 0, "fusion_lat": 0.0, "lat": 38.86552983333333, "bike_id": "8f3763c774435bc34fe9b8f9c0394514", "fusion_lon": 0.0}, {"rental_uris": {"ios": "https://dc.lft.to/lastmile_qr_scan", "android": "https://dc.lft.to/lastmile_qr_scan"}, "type": "electric_scooter", "name": "6f3c559a1b1da00829d3023e4f6fd9b4", "is_reserved": 0, "lon": -77.02340166666667, "is_disabled": 0, "fusion_lat": 0.0, "lat": 38.881283833333335, "bike_id": "6f3c559a1b1da00829d3023e4f6fd9b4", "fusion_lon": 0.0}, {"rental_uris": {"ios": "https://dc.lft.to/lastmile_qr_scan", "android": "https://dc.lft.to/lastmile_qr_scan"}, "type": "electric_scooter", "name": "78cc46916610b16b75b02294a5a3d27a", "is_reserved": 0, "lon": -77.01638033333333, "is_disabled": 0, "fusion_lat": 0.0, "lat": 38.915896333333336, "bike_id": "78cc46916610b16b75b02294a5a3d27a", "fusion_lon": 0.0}, {"rental_uris": {"ios": "https://dc.lft.to/lastmile_qr_scan", "android": "https://dc.lft.to/lastmile_qr_scan"}, "type": "electric_scooter", "name": "2b888bed55d70a66b6db7e6716f93ed7", "is_reserved": 0, "lon": -77.04623, "is_disabled": 0, "fusion_lat": 0.0, "lat": 38.900945666666665, "bike_id": "2b888bed55d70a66b6db7e6716f93ed7", "fusion_lon": 0.0}, {"rental_uris": {"ios": "https://dc.lft.to/lastmile_qr_scan", "android": "https://dc.lft.to/lastmile_qr_scan"}, "type": "electric_scooter", "name": "1195bf600bb826f7c0d4bf1578182d3a", "is_reserved": 0, "lon": -77.04140583333333, "is_disabled": 0, "fusion_lat": 0.0, "lat": 38.92118583333333, "bike_id": "1195bf600bb826f7c0d4bf1578182d3a", "fusion_lon": 0.0}, {"rental_uris": {"ios": "https://dc.lft.to/lastmile_qr_scan", "android": "https://dc.lft.to/lastmile_qr_scan"}, "type": "electric_scooter", "name": "08d2ddc8fad1df6c589a20fb52292ad5", "is_reserved": 0, "lon": -77.0448195, "is_disabled": 0, "fusion_lat": 0.0, "lat": 38.90944233333333, "bike_id": "08d2ddc8fad1df6c589a20fb52292ad5", "fusion_lon": 0.0}, {"rental_uris": {"ios": "https://dc.lft.to/lastmile_qr_scan", "android": "https://dc.lft.to/lastmile_qr_scan"}, "type": "electric_scooter", "name": "aea6fcf210dcb409f196e486aafd7677", "is_reserved": 0, "lon": -77.03874516666667, "is_disabled": 0, "fusion_lat": 0.0, "lat": 38.91271416666667, "bike_id": "aea6fcf210dcb409f196e486aafd7677", "fusion_lon": 0.0}, {"rental_uris": {"ios": "https://dc.lft.to/lastmile_qr_scan", "android": "https://dc.lft.to/lastmile_qr_scan"}, "type": "electric_scooter", "name": "172928f80db917aaa96939a5c7659b6d", "is_reserved": 0, "lon": -77.0039005, "is_disabled": 0, "fusion_lat": 0.0, "lat": 38.87463066666667, "bike_id": "172928f80db917aaa96939a5c7659b6d", "fusion_lon": 0.0}, {"rental_uris": {"ios": "https://dc.lft.to/lastmile_qr_scan", "android": "https://dc.lft.to/lastmile_qr_scan"}, "type": "electric_scooter", "name": "694cc681fb835bc311ddfe6fc073beb1", "is_reserved": 0, "lon": -76.99035933333333, "is_disabled": 0, "fusion_lat": 0.0, "lat": 38.888727, "bike_id": "694cc681fb835bc311ddfe6fc073beb1", "fusion_lon": 0.0}, {"rental_uris": {"ios": "https://dc.lft.to/lastmile_qr_scan", "android": "https://dc.lft.to/lastmile_qr_scan"}, "type": "electric_scooter", "name": "36f8adaa0fdace5e1e94b46891496b68", "is_reserved": 0, "lon": -77.0059115, "is_disabled": 0, "fusion_lat": 0.0, "lat": 38.900363666666664, "bike_id": "36f8adaa0fdace5e1e94b46891496b68", "fusion_lon": 0.0}, {"rental_uris": {"ios": "https://dc.lft.to/lastmile_qr_scan", "android": "https://dc.lft.to/lastmile_qr_scan"}, "type": "electric_scooter", "name": "82532233a7308b05cbcc8c16f547d842", "is_reserved": 0, "lon": -77.06805933333334, "is_disabled": 0, "fusion_lat": 0.0, "lat": 38.9051255, "bike_id": "82532233a7308b05cbcc8c16f547d842", "fusion_lon": 0.0}, {"rental_uris": {"ios": "https://dc.lft.to/lastmile_qr_scan", "android": "https://dc.lft.to/lastmile_qr_scan"}, "type": "electric_scooter", "name": "6929d145ca4157eb4e5bbd02ae7532f3", "is_reserved": 0, "lon": -77.00479683333333, "is_disabled": 0, "fusion_lat": 0.0, "lat": 38.87459483333333, "bike_id": "6929d145ca4157eb4e5bbd02ae7532f3", "fusion_lon": 0.0}, {"rental_uris": {"ios": "https://dc.lft.to/lastmile_qr_scan", "android": "https://dc.lft.to/lastmile_qr_scan"}, "type": "electric_scooter", "name": "77374826af6d646f73c7c542693b2238", "is_reserved": 0, "lon": -77.07199483333333, "is_disabled": 0, "fusion_lat": 0.0, "lat": 38.9126095, "bike_id": "77374826af6d646f73c7c542693b2238", "fusion_lon": 0.0}, {"rental_uris": {"ios": "https://dc.lft.to/lastmile_qr_scan", "android": "https://dc.lft.to/lastmile_qr_scan"}, "type": "electric_scooter", "name": "8ccf9ef349d11903d020506ed8de3f71", "is_reserved": 0, "lon": -77.01587633333334, "is_disabled": 0, "fusion_lat": 0.0, "lat": 38.8722125, "bike_id": "8ccf9ef349d11903d020506ed8de3f71", "fusion_lon": 0.0}, {"rental_uris": {"ios": "https://dc.lft.to/lastmile_qr_scan", "android": "https://dc.lft.to/lastmile_qr_scan"}, "type": "electric_scooter", "name": "d1d505ef1cba647042cf7ec5c0017837", "is_reserved": 0, "lon": -76.92948483333333, "is_disabled": 0, "fusion_lat": 0.0, "lat": 38.90332083333333, "bike_id": "d1d505ef1cba647042cf7ec5c0017837", "fusion_lon": 0.0}, {"rental_uris": {"ios": "https://dc.lft.to/lastmile_qr_scan", "android": "https://dc.lft.to/lastmile_qr_scan"}, "type": "electric_bike", "name": "ef75a379afe2ef0ba1c2763b0486548b", "is_reserved": 0, "lon": -76.96306933333334, "is_disabled": 0, "fusion_lat": 0.0, "lat": 38.89696683333333, "bike_id": "ef75a379afe2ef0ba1c2763b0486548b", "fusion_lon": 0.0}, {"rental_uris": {"ios": "https://dc.lft.to/lastmile_qr_scan", "android": "https://dc.lft.to/lastmile_qr_scan"}, "type": "electric_scooter", "name": "5ed211dc6f80c830c95582193da8c32c", "is_reserved": 0, "lon": -77.0716605, "is_disabled": 0, "fusion_lat": 0.0, "lat": 38.907605333333336, "bike_id": "5ed211dc6f80c830c95582193da8c32c", "fusion_lon": 0.0}, {"rental_uris": {"ios": "https://dc.lft.to/lastmile_qr_scan", "android": "https://dc.lft.to/lastmile_qr_scan"}, "type": "electric_scooter", "name": "5f2a0d85c71392a8bb3ac5d14c0f8d41", "is_reserved": 0, "lon": -77.02699016666666, "is_disabled": 0, "fusion_lat": 0.0, "lat": 38.9190745, "bike_id": "5f2a0d85c71392a8bb3ac5d14c0f8d41", "fusion_lon": 0.0}, {"rental_uris": {"ios": "https://dc.lft.to/lastmile_qr_scan", "android": "https://dc.lft.to/lastmile_qr_scan"}, "type": "electric_scooter", "name": "59bd84903ffb9814926401b6de08cfb7", "is_reserved": 0, "lon": -77.06351316666667, "is_disabled": 0, "fusion_lat": 0.0, "lat": 38.94362916666667, "bike_id": "59bd84903ffb9814926401b6de08cfb7", "fusion_lon": 0.0}, {"rental_uris": {"ios": "https://dc.lft.to/lastmile_qr_scan", "android": "https://dc.lft.to/lastmile_qr_scan"}, "type": "electric_scooter", "name": "17e539950f6e027db6eb3d90c6d13fc4", "is_reserved": 0, "lon": -77.04029433333334, "is_disabled": 0, "fusion_lat": 0.0, "lat": 38.92251133333333, "bike_id": "17e539950f6e027db6eb3d90c6d13fc4", "fusion_lon": 0.0}, {"rental_uris": {"ios": "https://dc.lft.to/lastmile_qr_scan", "android": "https://dc.lft.to/lastmile_qr_scan"}, "type": "electric_bike", "name": "20a773f1de5daa4bfeeadf8336c25754", "is_reserved": 0, "lon": -76.998631, "is_disabled": 0, "fusion_lat": 0.0, "lat": 38.9089525, "bike_id": "20a773f1de5daa4bfeeadf8336c25754", "fusion_lon": 0.0}, {"rental_uris": {"ios": "https://dc.lft.to/lastmile_qr_scan", "android": "https://dc.lft.to/lastmile_qr_scan"}, "type": "electric_scooter", "name": "ed1ffec2ff7d22d4a8e2cfabbc31fa99", "is_reserved": 0, "lon": -77.038555, "is_disabled": 0, "fusion_lat": 0.0, "lat": 38.908230833333334, "bike_id": "ed1ffec2ff7d22d4a8e2cfabbc31fa99", "fusion_lon": 0.0}, {"rental_uris": {"ios": "https://dc.lft.to/lastmile_qr_scan", "android": "https://dc.lft.to/lastmile_qr_scan"}, "type": "electric_scooter", "name": "621077178c3fa98c5050c3ad4bdb3c56", "is_reserved": 0, "lon": -77.02568533333333, "is_disabled": 0, "fusion_lat": 0.0, "lat": 38.925758, "bike_id": "621077178c3fa98c5050c3ad4bdb3c56", "fusion_lon": 0.0}, {"rental_uris": {"ios": "https://dc.lft.to/lastmile_qr_scan", "android": "https://dc.lft.to/lastmile_qr_scan"}, "type": "electric_scooter", "name": "71f9a950f67ed4993c8908a435b6fb72", "is_reserved": 0, "lon": -77.050813, "is_disabled": 0, "fusion_lat": 0.0, "lat": 38.90376933333334, "bike_id": "71f9a950f67ed4993c8908a435b6fb72", "fusion_lon": 0.0}, {"rental_uris": {"ios": "https://dc.lft.to/lastmile_qr_scan", "android": "https://dc.lft.to/lastmile_qr_scan"}, "type": "electric_scooter", "name": "115cf44b94b522b5c18d902bca860e1e", "is_reserved": 0, "lon": -77.02961966666666, "is_disabled": 0, "fusion_lat": 0.0, "lat": 38.916690833333334, "bike_id": "115cf44b94b522b5c18d902bca860e1e", "fusion_lon": 0.0}, {"rental_uris": {"ios": "https://dc.lft.to/lastmile_qr_scan", "android": "https://dc.lft.to/lastmile_qr_scan"}, "type": "electric_scooter", "name": "457ecddb4f09252d8545d88574f45436", "is_reserved": 0, "lon": -77.00611866666667, "is_disabled": 0, "fusion_lat": 0.0, "lat": 38.878427333333335, "bike_id": "457ecddb4f09252d8545d88574f45436", "fusion_lon": 0.0}, {"rental_uris": {"ios": "https://dc.lft.to/lastmile_qr_scan", "android": "https://dc.lft.to/lastmile_qr_scan"}, "type": "electric_scooter", "name": "3f5ff42e7976c63a17fb790adcc44542", "is_reserved": 0, "lon": -77.02813833333333, "is_disabled": 0, "fusion_lat": 0.0, "lat": 38.89235566666667, "bike_id": "3f5ff42e7976c63a17fb790adcc44542", "fusion_lon": 0.0}, {"rental_uris": {"ios": "https://dc.lft.to/lastmile_qr_scan", "android": "https://dc.lft.to/lastmile_qr_scan"}, "type": "electric_scooter", "name": "3cd6cc737916e1d47cd9f53a1523ad71", "is_reserved": 0, "lon": -77.0617175, "is_disabled": 0, "fusion_lat": 0.0, "lat": 38.902722833333335, "bike_id": "3cd6cc737916e1d47cd9f53a1523ad71", "fusion_lon": 0.0}, {"rental_uris": {"ios": "https://dc.lft.to/lastmile_qr_scan", "android": "https://dc.lft.to/lastmile_qr_scan"}, "type": "electric_scooter", "name": "c823b89321b232544daed14453e90231", "is_reserved": 0, "lon": -77.04525233333334, "is_disabled": 0, "fusion_lat": 0.0, "lat": 38.90775583333333, "bike_id": "c823b89321b232544daed14453e90231", "fusion_lon": 0.0}, {"rental_uris": {"ios": "https://dc.lft.to/lastmile_qr_scan", "android": "https://dc.lft.to/lastmile_qr_scan"}, "type": "electric_scooter", "name": "746ec1c7cbdd6ce76f5fae0248505950", "is_reserved": 0, "lon": -77.0281515, "is_disabled": 0, "fusion_lat": 0.0, "lat": 38.9091585, "bike_id": "746ec1c7cbdd6ce76f5fae0248505950", "fusion_lon": 0.0}, {"rental_uris": {"ios": "https://dc.lft.to/lastmile_qr_scan", "android": "https://dc.lft.to/lastmile_qr_scan"}, "type": "electric_bike", "name": "49175d5787014d16cb36d2cc0855a8ac", "is_reserved": 0, "lon": -76.96260833333334, "is_disabled": 0, "fusion_lat": 0.0, "lat": 38.882458, "bike_id": "49175d5787014d16cb36d2cc0855a8ac", "fusion_lon": 0.0}, {"rental_uris": {"ios": "https://dc.lft.to/lastmile_qr_scan", "android": "https://dc.lft.to/lastmile_qr_scan"}, "type": "electric_scooter", "name": "8ae76c84484ce947da5f366f989121c2", "is_reserved": 0, "lon": -76.99753266666667, "is_disabled": 0, "fusion_lat": 0.0, "lat": 38.885084666666664, "bike_id": "8ae76c84484ce947da5f366f989121c2", "fusion_lon": 0.0}, {"rental_uris": {"ios": "https://dc.lft.to/lastmile_qr_scan", "android": "https://dc.lft.to/lastmile_qr_scan"}, "type": "electric_scooter", "name": "729bbdc2286556f4029497ee0e16c580", "is_reserved": 0, "lon": -76.984162, "is_disabled": 0, "fusion_lat": 0.0, "lat": 38.879952333333335, "bike_id": "729bbdc2286556f4029497ee0e16c580", "fusion_lon": 0.0}, {"rental_uris": {"ios": "https://dc.lft.to/lastmile_qr_scan", "android": "https://dc.lft.to/lastmile_qr_scan"}, "type": "electric_scooter", "name": "cb0e322e3ac604acaccf03c374acb4a7", "is_reserved": 0, "lon": -77.0389175, "is_disabled": 0, "fusion_lat": 0.0, "lat": 38.923194333333335, "bike_id": "cb0e322e3ac604acaccf03c374acb4a7", "fusion_lon": 0.0}, {"rental_uris": {"ios": "https://dc.lft.to/lastmile_qr_scan", "android": "https://dc.lft.to/lastmile_qr_scan"}, "type": "electric_scooter", "name": "a6819148cd53e09de2e12eb72b80e891", "is_reserved": 0, "lon": -77.040996, "is_disabled": 0, "fusion_lat": 0.0, "lat": 38.925293833333335, "bike_id": "a6819148cd53e09de2e12eb72b80e891", "fusion_lon": 0.0}, {"rental_uris": {"ios": "https://dc.lft.to/lastmile_qr_scan", "android": "https://dc.lft.to/lastmile_qr_scan"}, "type": "electric_scooter", "name": "254e71669c001faf880d0fb18f51432c", "is_reserved": 0, "lon": -77.02714266666666, "is_disabled": 0, "fusion_lat": 0.0, "lat": 38.92283966666667, "bike_id": "254e71669c001faf880d0fb18f51432c", "fusion_lon": 0.0}, {"rental_uris": {"ios": "https://dc.lft.to/lastmile_qr_scan", "android": "https://dc.lft.to/lastmile_qr_scan"}, "type": "electric_scooter", "name": "cbc287dd3217a3f49ce27aecd95c3d3a", "is_reserved": 0, "lon": -77.040904, "is_disabled": 0, "fusion_lat": 0.0, "lat": 38.9171695, "bike_id": "cbc287dd3217a3f49ce27aecd95c3d3a", "fusion_lon": 0.0}, {"rental_uris": {"ios": "https://dc.lft.to/lastmile_qr_scan", "android": "https://dc.lft.to/lastmile_qr_scan"}, "type": "electric_bike", "name": "30401669df43a8362e9b9fdbc4dd7351", "is_reserved": 0, "lon": -76.96151116666667, "is_disabled": 0, "fusion_lat": 0.0, "lat": 38.85619666666667, "bike_id": "30401669df43a8362e9b9fdbc4dd7351", "fusion_lon": 0.0}, {"rental_uris": {"ios": "https://dc.lft.to/lastmile_qr_scan", "android": "https://dc.lft.to/lastmile_qr_scan"}, "type": "electric_scooter", "name": "572ee63051279188421465427dcc59c5", "is_reserved": 0, "lon": -77.04340383333333, "is_disabled": 0, "fusion_lat": 0.0, "lat": 38.907341833333334, "bike_id": "572ee63051279188421465427dcc59c5", "fusion_lon": 0.0}, {"rental_uris": {"ios": "https://dc.lft.to/lastmile_qr_scan", "android": "https://dc.lft.to/lastmile_qr_scan"}, "type": "electric_scooter", "name": "59abc98cfb0f4f035234ed716dfd91ae", "is_reserved": 0, "lon": -77.04064566666666, "is_disabled": 0, "fusion_lat": 0.0, "lat": 38.91764083333333, "bike_id": "59abc98cfb0f4f035234ed716dfd91ae", "fusion_lon": 0.0}, {"rental_uris": {"ios": "https://dc.lft.to/lastmile_qr_scan", "android": "https://dc.lft.to/lastmile_qr_scan"}, "type": "electric_scooter", "name": "5938e1294d2a353bc591d7aea47448ca", "is_reserved": 0, "lon": -77.02634683333333, "is_disabled": 0, "fusion_lat": 0.0, "lat": 38.9071955, "bike_id": "5938e1294d2a353bc591d7aea47448ca", "fusion_lon": 0.0}, {"rental_uris": {"ios": "https://dc.lft.to/lastmile_qr_scan", "android": "https://dc.lft.to/lastmile_qr_scan"}, "type": "electric_scooter", "name": "e6c39fda29b17a14475d80c87ea221ee", "is_reserved": 0, "lon": -77.036763, "is_disabled": 0, "fusion_lat": 0.0, "lat": 38.93926866666666, "bike_id": "e6c39fda29b17a14475d80c87ea221ee", "fusion_lon": 0.0}, {"rental_uris": {"ios": "https://dc.lft.to/lastmile_qr_scan", "android": "https://dc.lft.to/lastmile_qr_scan"}, "type": "electric_scooter", "name": "80d285f227b9a3be47d975851ddbdfe9", "is_reserved": 0, "lon": -77.03987683333334, "is_disabled": 0, "fusion_lat": 0.0, "lat": 38.933971166666666, "bike_id": "80d285f227b9a3be47d975851ddbdfe9", "fusion_lon": 0.0}, {"rental_uris": {"ios": "https://dc.lft.to/lastmile_qr_scan", "android": "https://dc.lft.to/lastmile_qr_scan"}, "type": "electric_bike", "name": "9bf1a12059e372e475a305934534c1b1", "is_reserved": 0, "lon": -77.00402066666666, "is_disabled": 0, "fusion_lat": 0.0, "lat": 38.921223499999996, "bike_id": "9bf1a12059e372e475a305934534c1b1", "fusion_lon": 0.0}, {"rental_uris": {"ios": "https://dc.lft.to/lastmile_qr_scan", "android": "https://dc.lft.to/lastmile_qr_scan"}, "type": "electric_scooter", "name": "4a601b289eff11002d4e00a26682946b", "is_reserved": 0, "lon": -77.00648466666667, "is_disabled": 0, "fusion_lat": 0.0, "lat": 38.912484666666664, "bike_id": "4a601b289eff11002d4e00a26682946b", "fusion_lon": 0.0}, {"rental_uris": {"ios": "https://dc.lft.to/lastmile_qr_scan", "android": "https://dc.lft.to/lastmile_qr_scan"}, "type": "electric_bike", "name": "bd499b140f67175f1cd54e34126a1506", "is_reserved": 0, "lon": -76.98056416666667, "is_disabled": 0, "fusion_lat": 0.0, "lat": 38.972494166666664, "bike_id": "bd499b140f67175f1cd54e34126a1506", "fusion_lon": 0.0}, {"rental_uris": {"ios": "https://dc.lft.to/lastmile_qr_scan", "android": "https://dc.lft.to/lastmile_qr_scan"}, "type": "electric_scooter", "name": "a16016a6571dd01b2b14b81fbd5a8ad6", "is_reserved": 0, "lon": -77.02405016666667, "is_disabled": 0, "fusion_lat": 0.0, "lat": 38.945061833333334, "bike_id": "a16016a6571dd01b2b14b81fbd5a8ad6", "fusion_lon": 0.0}, {"rental_uris": {"ios": "https://dc.lft.to/lastmile_qr_scan", "android": "https://dc.lft.to/lastmile_qr_scan"}, "type": "electric_bike", "name": "fa23efacb8ec41725321b785d5e8a936", "is_reserved": 0, "lon": -77.02432316666666, "is_disabled": 0, "fusion_lat": 0.0, "lat": 38.94905716666667, "bike_id": "fa23efacb8ec41725321b785d5e8a936", "fusion_lon": 0.0}, {"rental_uris": {"ios": "https://dc.lft.to/lastmile_qr_scan", "android": "https://dc.lft.to/lastmile_qr_scan"}, "type": "electric_scooter", "name": "7251d5f8d04aee65a28e0b2216cb1e00", "is_reserved": 0, "lon": -77.0048085, "is_disabled": 0, "fusion_lat": 0.0, "lat": 38.87458783333334, "bike_id": "7251d5f8d04aee65a28e0b2216cb1e00", "fusion_lon": 0.0}, {"rental_uris": {"ios": "https://dc.lft.to/lastmile_qr_scan", "android": "https://dc.lft.to/lastmile_qr_scan"}, "type": "electric_scooter", "name": "610d087ba9684eaea8a3937f8bd37192", "is_reserved": 0, "lon": -77.01897616666666, "is_disabled": 0, "fusion_lat": 0.0, "lat": 38.874591, "bike_id": "610d087ba9684eaea8a3937f8bd37192", "fusion_lon": 0.0}, {"rental_uris": {"ios": "https://dc.lft.to/lastmile_qr_scan", "android": "https://dc.lft.to/lastmile_qr_scan"}, "type": "electric_scooter", "name": "cf485cecb6ef7b1efeb9871693e9b8fb", "is_reserved": 0, "lon": -77.024956, "is_disabled": 0, "fusion_lat": 0.0, "lat": 38.919486666666664, "bike_id": "cf485cecb6ef7b1efeb9871693e9b8fb", "fusion_lon": 0.0}, {"rental_uris": {"ios": "https://dc.lft.to/lastmile_qr_scan", "android": "https://dc.lft.to/lastmile_qr_scan"}, "type": "electric_scooter", "name": "de2d1b4aa18388400969351d47d723c7", "is_reserved": 0, "lon": -77.01746083333333, "is_disabled": 0, "fusion_lat": 0.0, "lat": 38.88734783333334, "bike_id": "de2d1b4aa18388400969351d47d723c7", "fusion_lon": 0.0}, {"rental_uris": {"ios": "https://dc.lft.to/lastmile_qr_scan", "android": "https://dc.lft.to/lastmile_qr_scan"}, "type": "electric_scooter", "name": "3e211ae5beabd7f586ac06348e9bf9a3", "is_reserved": 0, "lon": -77.04172, "is_disabled": 0, "fusion_lat": 0.0, "lat": 38.90378883333333, "bike_id": "3e211ae5beabd7f586ac06348e9bf9a3", "fusion_lon": 0.0}, {"rental_uris": {"ios": "https://dc.lft.to/lastmile_qr_scan", "android": "https://dc.lft.to/lastmile_qr_scan"}, "type": "electric_scooter", "name": "4c5e39652ff548fae529d3e172248cfb", "is_reserved": 0, "lon": -77.0213245, "is_disabled": 0, "fusion_lat": 0.0, "lat": 38.9279235, "bike_id": "4c5e39652ff548fae529d3e172248cfb", "fusion_lon": 0.0}, {"rental_uris": {"ios": "https://dc.lft.to/lastmile_qr_scan", "android": "https://dc.lft.to/lastmile_qr_scan"}, "type": "electric_scooter", "name": "a17778d7f3c27f9d144593298b672b20", "is_reserved": 0, "lon": -77.01199516666667, "is_disabled": 0, "fusion_lat": 0.0, "lat": 38.900258666666666, "bike_id": "a17778d7f3c27f9d144593298b672b20", "fusion_lon": 0.0}, {"rental_uris": {"ios": "https://dc.lft.to/lastmile_qr_scan", "android": "https://dc.lft.to/lastmile_qr_scan"}, "type": "electric_scooter", "name": "462a6a3515848080e1c0a2d8079d3144", "is_reserved": 0, "lon": -77.068559, "is_disabled": 0, "fusion_lat": 0.0, "lat": 38.9041055, "bike_id": "462a6a3515848080e1c0a2d8079d3144", "fusion_lon": 0.0}, {"rental_uris": {"ios": "https://dc.lft.to/lastmile_qr_scan", "android": "https://dc.lft.to/lastmile_qr_scan"}, "type": "electric_scooter", "name": "99b342881cdc065fedc038b2b8c34ce6", "is_reserved": 0, "lon": -77.034665, "is_disabled": 0, "fusion_lat": 0.0, "lat": 38.92155966666667, "bike_id": "99b342881cdc065fedc038b2b8c34ce6", "fusion_lon": 0.0}, {"rental_uris": {"ios": "https://dc.lft.to/lastmile_qr_scan", "android": "https://dc.lft.to/lastmile_qr_scan"}, "type": "electric_scooter", "name": "a254329889d2daf380c5cb78e5cc3548", "is_reserved": 0, "lon": -77.01756416666667, "is_disabled": 0, "fusion_lat": 0.0, "lat": 38.8768575, "bike_id": "a254329889d2daf380c5cb78e5cc3548", "fusion_lon": 0.0}, {"rental_uris": {"ios": "https://dc.lft.to/lastmile_qr_scan", "android": "https://dc.lft.to/lastmile_qr_scan"}, "type": "electric_scooter", "name": "aa559bc45eb89409945ed4d0eb8bbb22", "is_reserved": 0, "lon": -77.033876, "is_disabled": 0, "fusion_lat": 0.0, "lat": 38.89919483333333, "bike_id": "aa559bc45eb89409945ed4d0eb8bbb22", "fusion_lon": 0.0}, {"rental_uris": {"ios": "https://dc.lft.to/lastmile_qr_scan", "android": "https://dc.lft.to/lastmile_qr_scan"}, "type": "electric_scooter", "name": "e11fa1976bbed2d376e76a284125e356", "is_reserved": 0, "lon": -77.02455816666667, "is_disabled": 0, "fusion_lat": 0.0, "lat": 38.9371365, "bike_id": "e11fa1976bbed2d376e76a284125e356", "fusion_lon": 0.0}, {"rental_uris": {"ios": "https://dc.lft.to/lastmile_qr_scan", "android": "https://dc.lft.to/lastmile_qr_scan"}, "type": "electric_scooter", "name": "fcf9af678a6ea056d8fd307fb427e8f6", "is_reserved": 0, "lon": -77.02842066666666, "is_disabled": 0, "fusion_lat": 0.0, "lat": 38.91022366666667, "bike_id": "fcf9af678a6ea056d8fd307fb427e8f6", "fusion_lon": 0.0}, {"rental_uris": {"ios": "https://dc.lft.to/lastmile_qr_scan", "android": "https://dc.lft.to/lastmile_qr_scan"}, "type": "electric_scooter", "name": "db4f8739aa3bc7824c595f1dc823b0cd", "is_reserved": 0, "lon": -77.03278566666667, "is_disabled": 0, "fusion_lat": 0.0, "lat": 38.907185166666665, "bike_id": "db4f8739aa3bc7824c595f1dc823b0cd", "fusion_lon": 0.0}, {"rental_uris": {"ios": "https://dc.lft.to/lastmile_qr_scan", "android": "https://dc.lft.to/lastmile_qr_scan"}, "type": "electric_bike", "name": "80e24f9e4051370e71bab710773322ec", "is_reserved": 0, "lon": -77.01232533333334, "is_disabled": 0, "fusion_lat": 0.0, "lat": 38.950788833333334, "bike_id": "80e24f9e4051370e71bab710773322ec", "fusion_lon": 0.0}, {"rental_uris": {"ios": "https://dc.lft.to/lastmile_qr_scan", "android": "https://dc.lft.to/lastmile_qr_scan"}, "type": "electric_scooter", "name": "123a5af06991887b2ba499eae9ac951e", "is_reserved": 0, "lon": -77.05200766666667, "is_disabled": 0, "fusion_lat": 0.0, "lat": 38.92464733333333, "bike_id": "123a5af06991887b2ba499eae9ac951e", "fusion_lon": 0.0}, {"rental_uris": {"ios": "https://dc.lft.to/lastmile_qr_scan", "android": "https://dc.lft.to/lastmile_qr_scan"}, "type": "electric_scooter", "name": "ee82113b69e6498cf986bddb35911aa7", "is_reserved": 0, "lon": -77.04257183333333, "is_disabled": 0, "fusion_lat": 0.0, "lat": 38.910675166666664, "bike_id": "ee82113b69e6498cf986bddb35911aa7", "fusion_lon": 0.0}, {"rental_uris": {"ios": "https://dc.lft.to/lastmile_qr_scan", "android": "https://dc.lft.to/lastmile_qr_scan"}, "type": "electric_scooter", "name": "55388c9792f436d4a70a270b43840102", "is_reserved": 0, "lon": -76.9900945, "is_disabled": 0, "fusion_lat": 0.0, "lat": 38.90393983333333, "bike_id": "55388c9792f436d4a70a270b43840102", "fusion_lon": 0.0}, {"rental_uris": {"ios": "https://dc.lft.to/lastmile_qr_scan", "android": "https://dc.lft.to/lastmile_qr_scan"}, "type": "electric_scooter", "name": "648fb2270922777f96567bfb7e386911", "is_reserved": 0, "lon": -77.03783016666667, "is_disabled": 0, "fusion_lat": 0.0, "lat": 38.9257005, "bike_id": "648fb2270922777f96567bfb7e386911", "fusion_lon": 0.0}, {"rental_uris": {"ios": "https://dc.lft.to/lastmile_qr_scan", "android": "https://dc.lft.to/lastmile_qr_scan"}, "type": "electric_scooter", "name": "d5fcaadb16dbfee79218fd7c88a272cf", "is_reserved": 0, "lon": -77.02602616666667, "is_disabled": 0, "fusion_lat": 0.0, "lat": 38.901598666666665, "bike_id": "d5fcaadb16dbfee79218fd7c88a272cf", "fusion_lon": 0.0}, {"rental_uris": {"ios": "https://dc.lft.to/lastmile_qr_scan", "android": "https://dc.lft.to/lastmile_qr_scan"}, "type": "electric_scooter", "name": "5c64db833d01ce62eb0bb3aaf275ab00", "is_reserved": 0, "lon": -76.999401, "is_disabled": 0, "fusion_lat": 0.0, "lat": 38.907731, "bike_id": "5c64db833d01ce62eb0bb3aaf275ab00", "fusion_lon": 0.0}, {"rental_uris": {"ios": "https://dc.lft.to/lastmile_qr_scan", "android": "https://dc.lft.to/lastmile_qr_scan"}, "type": "electric_scooter", "name": "8f5d44d6a3b2751949392316dccb75a1", "is_reserved": 0, "lon": -77.0372085, "is_disabled": 0, "fusion_lat": 0.0, "lat": 38.926470333333334, "bike_id": "8f5d44d6a3b2751949392316dccb75a1", "fusion_lon": 0.0}, {"rental_uris": {"ios": "https://dc.lft.to/lastmile_qr_scan", "android": "https://dc.lft.to/lastmile_qr_scan"}, "type": "electric_bike", "name": "7213ee570bfa698bc9925b11f340cad3", "is_reserved": 0, "lon": -77.07241916666666, "is_disabled": 0, "fusion_lat": 0.0, "lat": 38.813613833333335, "bike_id": "7213ee570bfa698bc9925b11f340cad3", "fusion_lon": 0.0}, {"rental_uris": {"ios": "https://dc.lft.to/lastmile_qr_scan", "android": "https://dc.lft.to/lastmile_qr_scan"}, "type": "electric_scooter", "name": "9c44cf88d9aadd913f7b53e12354e8be", "is_reserved": 0, "lon": -77.00057916666667, "is_disabled": 0, "fusion_lat": 0.0, "lat": 38.87696016666666, "bike_id": "9c44cf88d9aadd913f7b53e12354e8be", "fusion_lon": 0.0}, {"rental_uris": {"ios": "https://dc.lft.to/lastmile_qr_scan", "android": "https://dc.lft.to/lastmile_qr_scan"}, "type": "electric_scooter", "name": "5fd099efb2da795e5bbe6e34a4ba0d71", "is_reserved": 0, "lon": -77.04235666666666, "is_disabled": 0, "fusion_lat": 0.0, "lat": 38.92274066666667, "bike_id": "5fd099efb2da795e5bbe6e34a4ba0d71", "fusion_lon": 0.0}, {"rental_uris": {"ios": "https://dc.lft.to/lastmile_qr_scan", "android": "https://dc.lft.to/lastmile_qr_scan"}, "type": "electric_scooter", "name": "9ece5001028de0f0e420ac52edd6d747", "is_reserved": 0, "lon": -77.01510583333334, "is_disabled": 0, "fusion_lat": 0.0, "lat": 38.901444166666664, "bike_id": "9ece5001028de0f0e420ac52edd6d747", "fusion_lon": 0.0}, {"rental_uris": {"ios": "https://dc.lft.to/lastmile_qr_scan", "android": "https://dc.lft.to/lastmile_qr_scan"}, "type": "electric_scooter", "name": "371edd3cbf276d3c226cc05650b65cf8", "is_reserved": 0, "lon": -77.0321765, "is_disabled": 0, "fusion_lat": 0.0, "lat": 38.924881166666665, "bike_id": "371edd3cbf276d3c226cc05650b65cf8", "fusion_lon": 0.0}, {"rental_uris": {"ios": "https://dc.lft.to/lastmile_qr_scan", "android": "https://dc.lft.to/lastmile_qr_scan"}, "type": "electric_scooter", "name": "e2053aa4f78a87bb6f2ead32148509bf", "is_reserved": 0, "lon": -77.03724633333333, "is_disabled": 0, "fusion_lat": 0.0, "lat": 38.9264255, "bike_id": "e2053aa4f78a87bb6f2ead32148509bf", "fusion_lon": 0.0}, {"rental_uris": {"ios": "https://dc.lft.to/lastmile_qr_scan", "android": "https://dc.lft.to/lastmile_qr_scan"}, "type": "electric_scooter", "name": "cc9e662a51c08d4f4fc54a58cb6a0442", "is_reserved": 0, "lon": -77.0197715, "is_disabled": 0, "fusion_lat": 0.0, "lat": 38.88721483333333, "bike_id": "cc9e662a51c08d4f4fc54a58cb6a0442", "fusion_lon": 0.0}, {"rental_uris": {"ios": "https://dc.lft.to/lastmile_qr_scan", "android": "https://dc.lft.to/lastmile_qr_scan"}, "type": "electric_scooter", "name": "6fcbe58c476cd2396ebf53d73c09d660", "is_reserved": 0, "lon": -77.02231066666667, "is_disabled": 0, "fusion_lat": 0.0, "lat": 38.89222733333333, "bike_id": "6fcbe58c476cd2396ebf53d73c09d660", "fusion_lon": 0.0}, {"rental_uris": {"ios": "https://dc.lft.to/lastmile_qr_scan", "android": "https://dc.lft.to/lastmile_qr_scan"}, "type": "electric_scooter", "name": "90cb92ef02080768aab9c12dd90f31a6", "is_reserved": 0, "lon": -77.044638, "is_disabled": 0, "fusion_lat": 0.0, "lat": 38.92470983333333, "bike_id": "90cb92ef02080768aab9c12dd90f31a6", "fusion_lon": 0.0}, {"rental_uris": {"ios": "https://dc.lft.to/lastmile_qr_scan", "android": "https://dc.lft.to/lastmile_qr_scan"}, "type": "electric_scooter", "name": "4db96142c69b0926c5ec426040eeee86", "is_reserved": 0, "lon": -76.99758983333334, "is_disabled": 0, "fusion_lat": 0.0, "lat": 38.90128416666667, "bike_id": "4db96142c69b0926c5ec426040eeee86", "fusion_lon": 0.0}, {"rental_uris": {"ios": "https://dc.lft.to/lastmile_qr_scan", "android": "https://dc.lft.to/lastmile_qr_scan"}, "type": "electric_scooter", "name": "731c1b499b093ac7ee8526d5cabdcff6", "is_reserved": 0, "lon": -77.03193116666667, "is_disabled": 0, "fusion_lat": 0.0, "lat": 38.89455983333333, "bike_id": "731c1b499b093ac7ee8526d5cabdcff6", "fusion_lon": 0.0}, {"rental_uris": {"ios": "https://dc.lft.to/lastmile_qr_scan", "android": "https://dc.lft.to/lastmile_qr_scan"}, "type": "electric_bike", "name": "b554a65496e9a8a911931fcfd2e9e2b9", "is_reserved": 0, "lon": -77.02339633333334, "is_disabled": 0, "fusion_lat": 0.0, "lat": 38.887429166666664, "bike_id": "b554a65496e9a8a911931fcfd2e9e2b9", "fusion_lon": 0.0}, {"rental_uris": {"ios": "https://dc.lft.to/lastmile_qr_scan", "android": "https://dc.lft.to/lastmile_qr_scan"}, "type": "electric_scooter", "name": "19f5980a4fdb4b3dbc3b199cbf8e59d3", "is_reserved": 0, "lon": -77.02728166666667, "is_disabled": 0, "fusion_lat": 0.0, "lat": 38.895685, "bike_id": "19f5980a4fdb4b3dbc3b199cbf8e59d3", "fusion_lon": 0.0}, {"rental_uris": {"ios": "https://dc.lft.to/lastmile_qr_scan", "android": "https://dc.lft.to/lastmile_qr_scan"}, "type": "electric_scooter", "name": "d2d6adc5d48368c1d4d4368956f7e062", "is_reserved": 0, "lon": -77.022013, "is_disabled": 0, "fusion_lat": 0.0, "lat": 38.91097583333333, "bike_id": "d2d6adc5d48368c1d4d4368956f7e062", "fusion_lon": 0.0}, {"rental_uris": {"ios": "https://dc.lft.to/lastmile_qr_scan", "android": "https://dc.lft.to/lastmile_qr_scan"}, "type": "electric_scooter", "name": "d726b360ac98a25d449ba1bc99d64ca4", "is_reserved": 0, "lon": -77.048795, "is_disabled": 0, "fusion_lat": 0.0, "lat": 38.9066135, "bike_id": "d726b360ac98a25d449ba1bc99d64ca4", "fusion_lon": 0.0}, {"rental_uris": {"ios": "https://dc.lft.to/lastmile_qr_scan", "android": "https://dc.lft.to/lastmile_qr_scan"}, "type": "electric_scooter", "name": "dc4231096c361383712035174bdd83ba", "is_reserved": 0, "lon": -77.03464016666666, "is_disabled": 0, "fusion_lat": 0.0, "lat": 38.90855666666667, "bike_id": "dc4231096c361383712035174bdd83ba", "fusion_lon": 0.0}, {"rental_uris": {"ios": "https://dc.lft.to/lastmile_qr_scan", "android": "https://dc.lft.to/lastmile_qr_scan"}, "type": "electric_scooter", "name": "ffb560b8114a25d95a8aef7961c1ac75", "is_reserved": 0, "lon": -76.99855633333334, "is_disabled": 0, "fusion_lat": 0.0, "lat": 38.900217, "bike_id": "ffb560b8114a25d95a8aef7961c1ac75", "fusion_lon": 0.0}, {"rental_uris": {"ios": "https://dc.lft.to/lastmile_qr_scan", "android": "https://dc.lft.to/lastmile_qr_scan"}, "type": "electric_scooter", "name": "d92c313f029397ebde54d444e56bd24a", "is_reserved": 0, "lon": -77.034657, "is_disabled": 0, "fusion_lat": 0.0, "lat": 38.90828916666667, "bike_id": "d92c313f029397ebde54d444e56bd24a", "fusion_lon": 0.0}, {"rental_uris": {"ios": "https://dc.lft.to/lastmile_qr_scan", "android": "https://dc.lft.to/lastmile_qr_scan"}, "type": "electric_scooter", "name": "ec84ae9675846207071b7b597d6c81a1", "is_reserved": 0, "lon": -77.03708316666666, "is_disabled": 0, "fusion_lat": 0.0, "lat": 38.92627783333333, "bike_id": "ec84ae9675846207071b7b597d6c81a1", "fusion_lon": 0.0}, {"rental_uris": {"ios": "https://dc.lft.to/lastmile_qr_scan", "android": "https://dc.lft.to/lastmile_qr_scan"}, "type": "electric_scooter", "name": "d8985cb06f1279dc104a678c86fbc11f", "is_reserved": 0, "lon": -77.026039, "is_disabled": 0, "fusion_lat": 0.0, "lat": 38.908149, "bike_id": "d8985cb06f1279dc104a678c86fbc11f", "fusion_lon": 0.0}, {"rental_uris": {"ios": "https://dc.lft.to/lastmile_qr_scan", "android": "https://dc.lft.to/lastmile_qr_scan"}, "type": "electric_scooter", "name": "2a322f8bf07456f5a97eaa2399f6d0db", "is_reserved": 0, "lon": -77.07455, "is_disabled": 0, "fusion_lat": 0.0, "lat": 38.937787166666666, "bike_id": "2a322f8bf07456f5a97eaa2399f6d0db", "fusion_lon": 0.0}, {"rental_uris": {"ios": "https://dc.lft.to/lastmile_qr_scan", "android": "https://dc.lft.to/lastmile_qr_scan"}, "type": "electric_scooter", "name": "8c70933c42a5f0296aeb854291e131ba", "is_reserved": 0, "lon": -77.02092916666666, "is_disabled": 0, "fusion_lat": 0.0, "lat": 38.91410416666667, "bike_id": "8c70933c42a5f0296aeb854291e131ba", "fusion_lon": 0.0}, {"rental_uris": {"ios": "https://dc.lft.to/lastmile_qr_scan", "android": "https://dc.lft.to/lastmile_qr_scan"}, "type": "electric_scooter", "name": "bfbefc042a540623b32bb7ffecc5b3fe", "is_reserved": 0, "lon": -77.02908633333334, "is_disabled": 0, "fusion_lat": 0.0, "lat": 38.9529665, "bike_id": "bfbefc042a540623b32bb7ffecc5b3fe", "fusion_lon": 0.0}, {"rental_uris": {"ios": "https://dc.lft.to/lastmile_qr_scan", "android": "https://dc.lft.to/lastmile_qr_scan"}, "type": "electric_bike", "name": "c6e67b1bf8884d6fdd7662afe4813fbd", "is_reserved": 0, "lon": -77.01085266666666, "is_disabled": 0, "fusion_lat": 0.0, "lat": 38.87301516666667, "bike_id": "c6e67b1bf8884d6fdd7662afe4813fbd", "fusion_lon": 0.0}, {"rental_uris": {"ios": "https://dc.lft.to/lastmile_qr_scan", "android": "https://dc.lft.to/lastmile_qr_scan"}, "type": "electric_scooter", "name": "7be908754938c4a98c2f3d956afc6816", "is_reserved": 0, "lon": -76.99705766666666, "is_disabled": 0, "fusion_lat": 0.0, "lat": 38.887704, "bike_id": "7be908754938c4a98c2f3d956afc6816", "fusion_lon": 0.0}, {"rental_uris": {"ios": "https://dc.lft.to/lastmile_qr_scan", "android": "https://dc.lft.to/lastmile_qr_scan"}, "type": "electric_scooter", "name": "da3efa27115e387cb7542c40b442fc7d", "is_reserved": 0, "lon": -77.074821, "is_disabled": 0, "fusion_lat": 0.0, "lat": 38.96208433333334, "bike_id": "da3efa27115e387cb7542c40b442fc7d", "fusion_lon": 0.0}, {"rental_uris": {"ios": "https://dc.lft.to/lastmile_qr_scan", "android": "https://dc.lft.to/lastmile_qr_scan"}, "type": "electric_scooter", "name": "af151d3409b12c65643ae339b9a805bd", "is_reserved": 0, "lon": -77.03628716666667, "is_disabled": 0, "fusion_lat": 0.0, "lat": 38.9036875, "bike_id": "af151d3409b12c65643ae339b9a805bd", "fusion_lon": 0.0}, {"rental_uris": {"ios": "https://dc.lft.to/lastmile_qr_scan", "android": "https://dc.lft.to/lastmile_qr_scan"}, "type": "electric_scooter", "name": "950e0fa54486d9bb165eb15cd43efc77", "is_reserved": 0, "lon": -77.01998566666667, "is_disabled": 0, "fusion_lat": 0.0, "lat": 38.89968533333333, "bike_id": "950e0fa54486d9bb165eb15cd43efc77", "fusion_lon": 0.0}, {"rental_uris": {"ios": "https://dc.lft.to/lastmile_qr_scan", "android": "https://dc.lft.to/lastmile_qr_scan"}, "type": "electric_scooter", "name": "dd0d1b5758f37d948f8136e4d65117d6", "is_reserved": 0, "lon": -77.03905066666667, "is_disabled": 0, "fusion_lat": 0.0, "lat": 38.914188, "bike_id": "dd0d1b5758f37d948f8136e4d65117d6", "fusion_lon": 0.0}, {"rental_uris": {"ios": "https://dc.lft.to/lastmile_qr_scan", "android": "https://dc.lft.to/lastmile_qr_scan"}, "type": "electric_scooter", "name": "dad863cd946090b28554f36e24597554", "is_reserved": 0, "lon": -77.04672416666666, "is_disabled": 0, "fusion_lat": 0.0, "lat": 38.909427, "bike_id": "dad863cd946090b28554f36e24597554", "fusion_lon": 0.0}, {"rental_uris": {"ios": "https://dc.lft.to/lastmile_qr_scan", "android": "https://dc.lft.to/lastmile_qr_scan"}, "type": "electric_scooter", "name": "562a10ac083957021574d28a324b3048", "is_reserved": 0, "lon": -77.03432783333334, "is_disabled": 0, "fusion_lat": 0.0, "lat": 38.91917483333334, "bike_id": "562a10ac083957021574d28a324b3048", "fusion_lon": 0.0}, {"rental_uris": {"ios": "https://dc.lft.to/lastmile_qr_scan", "android": "https://dc.lft.to/lastmile_qr_scan"}, "type": "electric_scooter", "name": "3d6b5e3ad99ceadccf3c4afcc946d933", "is_reserved": 0, "lon": -77.03240566666666, "is_disabled": 0, "fusion_lat": 0.0, "lat": 38.904907666666666, "bike_id": "3d6b5e3ad99ceadccf3c4afcc946d933", "fusion_lon": 0.0}, {"rental_uris": {"ios": "https://dc.lft.to/lastmile_qr_scan", "android": "https://dc.lft.to/lastmile_qr_scan"}, "type": "electric_scooter", "name": "fd3e0193ddddf459b33f05fc908df9a0", "is_reserved": 0, "lon": -77.0215645, "is_disabled": 0, "fusion_lat": 0.0, "lat": 38.887452, "bike_id": "fd3e0193ddddf459b33f05fc908df9a0", "fusion_lon": 0.0}, {"rental_uris": {"ios": "https://dc.lft.to/lastmile_qr_scan", "android": "https://dc.lft.to/lastmile_qr_scan"}, "type": "electric_scooter", "name": "414ac5f190f016673ad4ce20df5f7a18", "is_reserved": 0, "lon": -77.02419116666667, "is_disabled": 0, "fusion_lat": 0.0, "lat": 38.93554866666667, "bike_id": "414ac5f190f016673ad4ce20df5f7a18", "fusion_lon": 0.0}, {"rental_uris": {"ios": "https://dc.lft.to/lastmile_qr_scan", "android": "https://dc.lft.to/lastmile_qr_scan"}, "type": "electric_scooter", "name": "49f423c7e6d6298c55d5cf6790b93c68", "is_reserved": 0, "lon": -77.0432135, "is_disabled": 0, "fusion_lat": 0.0, "lat": 38.90919266666667, "bike_id": "49f423c7e6d6298c55d5cf6790b93c68", "fusion_lon": 0.0}, {"rental_uris": {"ios": "https://dc.lft.to/lastmile_qr_scan", "android": "https://dc.lft.to/lastmile_qr_scan"}, "type": "electric_scooter", "name": "7a796b55576f38052ed448cc957f4fbb", "is_reserved": 0, "lon": -77.02412866666667, "is_disabled": 0, "fusion_lat": 0.0, "lat": 38.920626, "bike_id": "7a796b55576f38052ed448cc957f4fbb", "fusion_lon": 0.0}, {"rental_uris": {"ios": "https://dc.lft.to/lastmile_qr_scan", "android": "https://dc.lft.to/lastmile_qr_scan"}, "type": "electric_scooter", "name": "c9f7d950f572bb81dc02746830814812", "is_reserved": 0, "lon": -77.02199183333333, "is_disabled": 0, "fusion_lat": 0.0, "lat": 38.911284333333334, "bike_id": "c9f7d950f572bb81dc02746830814812", "fusion_lon": 0.0}, {"rental_uris": {"ios": "https://dc.lft.to/lastmile_qr_scan", "android": "https://dc.lft.to/lastmile_qr_scan"}, "type": "electric_scooter", "name": "25145ecec7fa21bc83643df3ffa0fd02", "is_reserved": 0, "lon": -77.02229566666666, "is_disabled": 0, "fusion_lat": 0.0, "lat": 38.8921995, "bike_id": "25145ecec7fa21bc83643df3ffa0fd02", "fusion_lon": 0.0}, {"rental_uris": {"ios": "https://dc.lft.to/lastmile_qr_scan", "android": "https://dc.lft.to/lastmile_qr_scan"}, "type": "electric_scooter", "name": "1da7699d0c7e1833de41417e5acdec81", "is_reserved": 0, "lon": -76.99477766666666, "is_disabled": 0, "fusion_lat": 0.0, "lat": 38.86212616666667, "bike_id": "1da7699d0c7e1833de41417e5acdec81", "fusion_lon": 0.0}, {"rental_uris": {"ios": "https://dc.lft.to/lastmile_qr_scan", "android": "https://dc.lft.to/lastmile_qr_scan"}, "type": "electric_scooter", "name": "780ac91c22410994ff23cd8cb53d2c53", "is_reserved": 0, "lon": -76.99035283333333, "is_disabled": 0, "fusion_lat": 0.0, "lat": 38.89852583333333, "bike_id": "780ac91c22410994ff23cd8cb53d2c53", "fusion_lon": 0.0}, {"rental_uris": {"ios": "https://dc.lft.to/lastmile_qr_scan", "android": "https://dc.lft.to/lastmile_qr_scan"}, "type": "electric_scooter", "name": "6950e475629ae14b2d459db2b96e5a91", "is_reserved": 0, "lon": -77.032224, "is_disabled": 0, "fusion_lat": 0.0, "lat": 38.89221033333333, "bike_id": "6950e475629ae14b2d459db2b96e5a91", "fusion_lon": 0.0}, {"rental_uris": {"ios": "https://dc.lft.to/lastmile_qr_scan", "android": "https://dc.lft.to/lastmile_qr_scan"}, "type": "electric_scooter", "name": "1905568f27d4c72cf53ccb982ac206b6", "is_reserved": 0, "lon": -76.98838433333333, "is_disabled": 0, "fusion_lat": 0.0, "lat": 38.842949833333336, "bike_id": "1905568f27d4c72cf53ccb982ac206b6", "fusion_lon": 0.0}, {"rental_uris": {"ios": "https://dc.lft.to/lastmile_qr_scan", "android": "https://dc.lft.to/lastmile_qr_scan"}, "type": "electric_scooter", "name": "364351881b2b2baaafb5b78f750f1cd6", "is_reserved": 0, "lon": -77.02383866666666, "is_disabled": 0, "fusion_lat": 0.0, "lat": 38.92076516666667, "bike_id": "364351881b2b2baaafb5b78f750f1cd6", "fusion_lon": 0.0}, {"rental_uris": {"ios": "https://dc.lft.to/lastmile_qr_scan", "android": "https://dc.lft.to/lastmile_qr_scan"}, "type": "electric_scooter", "name": "462993beca72787839fc9565948b8d1d", "is_reserved": 0, "lon": -77.02107366666667, "is_disabled": 0, "fusion_lat": 0.0, "lat": 38.90601316666667, "bike_id": "462993beca72787839fc9565948b8d1d", "fusion_lon": 0.0}, {"rental_uris": {"ios": "https://dc.lft.to/lastmile_qr_scan", "android": "https://dc.lft.to/lastmile_qr_scan"}, "type": "electric_scooter", "name": "9f60fe0e85cead3098531bc7598f7eff", "is_reserved": 0, "lon": -77.01232733333333, "is_disabled": 0, "fusion_lat": 0.0, "lat": 38.86974816666667, "bike_id": "9f60fe0e85cead3098531bc7598f7eff", "fusion_lon": 0.0}, {"rental_uris": {"ios": "https://dc.lft.to/lastmile_qr_scan", "android": "https://dc.lft.to/lastmile_qr_scan"}, "type": "electric_scooter", "name": "e0308ee2717f5942393d16208d671882", "is_reserved": 0, "lon": -77.044693, "is_disabled": 0, "fusion_lat": 0.0, "lat": 38.9036725, "bike_id": "e0308ee2717f5942393d16208d671882", "fusion_lon": 0.0}, {"rental_uris": {"ios": "https://dc.lft.to/lastmile_qr_scan", "android": "https://dc.lft.to/lastmile_qr_scan"}, "type": "electric_scooter", "name": "5ca2dfe66f2d9a8f1602b94816ed0e43", "is_reserved": 0, "lon": -77.027158, "is_disabled": 0, "fusion_lat": 0.0, "lat": 38.910151666666664, "bike_id": "5ca2dfe66f2d9a8f1602b94816ed0e43", "fusion_lon": 0.0}, {"rental_uris": {"ios": "https://dc.lft.to/lastmile_qr_scan", "android": "https://dc.lft.to/lastmile_qr_scan"}, "type": "electric_scooter", "name": "fff55365b6814b00c066cf78af7a1bf0", "is_reserved": 0, "lon": -77.08186266666667, "is_disabled": 0, "fusion_lat": 0.0, "lat": 38.933390833333334, "bike_id": "fff55365b6814b00c066cf78af7a1bf0", "fusion_lon": 0.0}, {"rental_uris": {"ios": "https://dc.lft.to/lastmile_qr_scan", "android": "https://dc.lft.to/lastmile_qr_scan"}, "type": "electric_scooter", "name": "fbf198ee574937136e5d01b4f7af610b", "is_reserved": 0, "lon": -76.97358916666667, "is_disabled": 0, "fusion_lat": 0.0, "lat": 38.850236333333335, "bike_id": "fbf198ee574937136e5d01b4f7af610b", "fusion_lon": 0.0}, {"rental_uris": {"ios": "https://dc.lft.to/lastmile_qr_scan", "android": "https://dc.lft.to/lastmile_qr_scan"}, "type": "electric_scooter", "name": "d107994f834347515979b88892c8fc5c", "is_reserved": 0, "lon": -76.985346, "is_disabled": 0, "fusion_lat": 0.0, "lat": 38.880802833333334, "bike_id": "d107994f834347515979b88892c8fc5c", "fusion_lon": 0.0}, {"rental_uris": {"ios": "https://dc.lft.to/lastmile_qr_scan", "android": "https://dc.lft.to/lastmile_qr_scan"}, "type": "electric_scooter", "name": "5849e5dbdde229f927b98633bec6d77d", "is_reserved": 0, "lon": -77.043523, "is_disabled": 0, "fusion_lat": 0.0, "lat": 38.91349183333333, "bike_id": "5849e5dbdde229f927b98633bec6d77d", "fusion_lon": 0.0}, {"rental_uris": {"ios": "https://dc.lft.to/lastmile_qr_scan", "android": "https://dc.lft.to/lastmile_qr_scan"}, "type": "electric_scooter", "name": "62d2e9804289463603166afbefc6a358", "is_reserved": 0, "lon": -77.03536733333334, "is_disabled": 0, "fusion_lat": 0.0, "lat": 38.923362, "bike_id": "62d2e9804289463603166afbefc6a358", "fusion_lon": 0.0}, {"rental_uris": {"ios": "https://dc.lft.to/lastmile_qr_scan", "android": "https://dc.lft.to/lastmile_qr_scan"}, "type": "electric_scooter", "name": "6da3d2b723de1787beb385c3c9de6167", "is_reserved": 0, "lon": -77.01232516666667, "is_disabled": 0, "fusion_lat": 0.0, "lat": 38.915748, "bike_id": "6da3d2b723de1787beb385c3c9de6167", "fusion_lon": 0.0}, {"rental_uris": {"ios": "https://dc.lft.to/lastmile_qr_scan", "android": "https://dc.lft.to/lastmile_qr_scan"}, "type": "electric_scooter", "name": "3fd2f4cf71f8e503b3b7b450da272b3f", "is_reserved": 0, "lon": -76.98704233333333, "is_disabled": 0, "fusion_lat": 0.0, "lat": 38.8596155, "bike_id": "3fd2f4cf71f8e503b3b7b450da272b3f", "fusion_lon": 0.0}, {"rental_uris": {"ios": "https://dc.lft.to/lastmile_qr_scan", "android": "https://dc.lft.to/lastmile_qr_scan"}, "type": "electric_scooter", "name": "724a7302e35bfb1e7a05554f4fe33c54", "is_reserved": 0, "lon": -76.99513583333334, "is_disabled": 0, "fusion_lat": 0.0, "lat": 38.8898905, "bike_id": "724a7302e35bfb1e7a05554f4fe33c54", "fusion_lon": 0.0}, {"rental_uris": {"ios": "https://dc.lft.to/lastmile_qr_scan", "android": "https://dc.lft.to/lastmile_qr_scan"}, "type": "electric_scooter", "name": "981177558969fe757e0e201ebed15ed6", "is_reserved": 0, "lon": -77.01214016666667, "is_disabled": 0, "fusion_lat": 0.0, "lat": 38.90167783333333, "bike_id": "981177558969fe757e0e201ebed15ed6", "fusion_lon": 0.0}, {"rental_uris": {"ios": "https://dc.lft.to/lastmile_qr_scan", "android": "https://dc.lft.to/lastmile_qr_scan"}, "type": "electric_scooter", "name": "5007543fede20da49122ebc39652593f", "is_reserved": 0, "lon": -77.00082716666667, "is_disabled": 0, "fusion_lat": 0.0, "lat": 38.873929333333336, "bike_id": "5007543fede20da49122ebc39652593f", "fusion_lon": 0.0}, {"rental_uris": {"ios": "https://dc.lft.to/lastmile_qr_scan", "android": "https://dc.lft.to/lastmile_qr_scan"}, "type": "electric_scooter", "name": "7ab8c1d82286830b1a8bf894d2720720", "is_reserved": 0, "lon": -77.037961, "is_disabled": 0, "fusion_lat": 0.0, "lat": 38.915444, "bike_id": "7ab8c1d82286830b1a8bf894d2720720", "fusion_lon": 0.0}, {"rental_uris": {"ios": "https://dc.lft.to/lastmile_qr_scan", "android": "https://dc.lft.to/lastmile_qr_scan"}, "type": "electric_scooter", "name": "1b5b2cd4cdaa0b0d5bbdb74c6cb82474", "is_reserved": 0, "lon": -77.0171375, "is_disabled": 0, "fusion_lat": 0.0, "lat": 38.91410583333333, "bike_id": "1b5b2cd4cdaa0b0d5bbdb74c6cb82474", "fusion_lon": 0.0}, {"rental_uris": {"ios": "https://dc.lft.to/lastmile_qr_scan", "android": "https://dc.lft.to/lastmile_qr_scan"}, "type": "electric_scooter", "name": "53968fa26089d2258f353b14fc7aba38", "is_reserved": 0, "lon": -77.01952466666667, "is_disabled": 0, "fusion_lat": 0.0, "lat": 38.93137016666667, "bike_id": "53968fa26089d2258f353b14fc7aba38", "fusion_lon": 0.0}, {"rental_uris": {"ios": "https://dc.lft.to/lastmile_qr_scan", "android": "https://dc.lft.to/lastmile_qr_scan"}, "type": "electric_scooter", "name": "804973dd204b9f881de631fcf3e40db5", "is_reserved": 0, "lon": -77.03847333333333, "is_disabled": 0, "fusion_lat": 0.0, "lat": 38.910418666666665, "bike_id": "804973dd204b9f881de631fcf3e40db5", "fusion_lon": 0.0}, {"rental_uris": {"ios": "https://dc.lft.to/lastmile_qr_scan", "android": "https://dc.lft.to/lastmile_qr_scan"}, "type": "electric_scooter", "name": "d0181ba5f7d5dd35d582948b092b9712", "is_reserved": 0, "lon": -76.99359883333334, "is_disabled": 0, "fusion_lat": 0.0, "lat": 38.90044533333333, "bike_id": "d0181ba5f7d5dd35d582948b092b9712", "fusion_lon": 0.0}, {"rental_uris": {"ios": "https://dc.lft.to/lastmile_qr_scan", "android": "https://dc.lft.to/lastmile_qr_scan"}, "type": "electric_scooter", "name": "6cdb6a73e0852fb8c56f23363ae00136", "is_reserved": 0, "lon": -77.02948433333333, "is_disabled": 0, "fusion_lat": 0.0, "lat": 38.92063566666667, "bike_id": "6cdb6a73e0852fb8c56f23363ae00136", "fusion_lon": 0.0}, {"rental_uris": {"ios": "https://dc.lft.to/lastmile_qr_scan", "android": "https://dc.lft.to/lastmile_qr_scan"}, "type": "electric_scooter", "name": "8873817fec85f34f85af3111d411b968", "is_reserved": 0, "lon": -77.03020783333334, "is_disabled": 0, "fusion_lat": 0.0, "lat": 38.931225, "bike_id": "8873817fec85f34f85af3111d411b968", "fusion_lon": 0.0}, {"rental_uris": {"ios": "https://dc.lft.to/lastmile_qr_scan", "android": "https://dc.lft.to/lastmile_qr_scan"}, "type": "electric_scooter", "name": "6d4c531a7863d1ac1edbad6ec925549a", "is_reserved": 0, "lon": -77.0569605, "is_disabled": 0, "fusion_lat": 0.0, "lat": 38.937133333333335, "bike_id": "6d4c531a7863d1ac1edbad6ec925549a", "fusion_lon": 0.0}, {"rental_uris": {"ios": "https://dc.lft.to/lastmile_qr_scan", "android": "https://dc.lft.to/lastmile_qr_scan"}, "type": "electric_scooter", "name": "ab55f5424bd9b2a32d808e0df556a493", "is_reserved": 0, "lon": -77.03046, "is_disabled": 0, "fusion_lat": 0.0, "lat": 38.990364666666665, "bike_id": "ab55f5424bd9b2a32d808e0df556a493", "fusion_lon": 0.0}, {"rental_uris": {"ios": "https://dc.lft.to/lastmile_qr_scan", "android": "https://dc.lft.to/lastmile_qr_scan"}, "type": "electric_scooter", "name": "5ff3a86002ef0fff399a5a3732107fe0", "is_reserved": 0, "lon": -77.0238795, "is_disabled": 0, "fusion_lat": 0.0, "lat": 38.9207555, "bike_id": "5ff3a86002ef0fff399a5a3732107fe0", "fusion_lon": 0.0}, {"rental_uris": {"ios": "https://dc.lft.to/lastmile_qr_scan", "android": "https://dc.lft.to/lastmile_qr_scan"}, "type": "electric_scooter", "name": "509ae7e24029acf11806ce35bb6ab137", "is_reserved": 0, "lon": -77.04223566666667, "is_disabled": 0, "fusion_lat": 0.0, "lat": 38.92167516666667, "bike_id": "509ae7e24029acf11806ce35bb6ab137", "fusion_lon": 0.0}, {"rental_uris": {"ios": "https://dc.lft.to/lastmile_qr_scan", "android": "https://dc.lft.to/lastmile_qr_scan"}, "type": "electric_scooter", "name": "f52a1d45c89b4b8c259f49f5a1bce23a", "is_reserved": 0, "lon": -77.04765783333333, "is_disabled": 0, "fusion_lat": 0.0, "lat": 38.912474833333334, "bike_id": "f52a1d45c89b4b8c259f49f5a1bce23a", "fusion_lon": 0.0}, {"rental_uris": {"ios": "https://dc.lft.to/lastmile_qr_scan", "android": "https://dc.lft.to/lastmile_qr_scan"}, "type": "electric_scooter", "name": "a7a0f95d37f605c5acdf86f27b2d4083", "is_reserved": 0, "lon": -77.04169183333333, "is_disabled": 0, "fusion_lat": 0.0, "lat": 38.90607133333334, "bike_id": "a7a0f95d37f605c5acdf86f27b2d4083", "fusion_lon": 0.0}, {"rental_uris": {"ios": "https://dc.lft.to/lastmile_qr_scan", "android": "https://dc.lft.to/lastmile_qr_scan"}, "type": "electric_scooter", "name": "a947e86a0418d9d1ae176e30c74e6671", "is_reserved": 0, "lon": -77.03459783333334, "is_disabled": 0, "fusion_lat": 0.0, "lat": 38.90829333333333, "bike_id": "a947e86a0418d9d1ae176e30c74e6671", "fusion_lon": 0.0}, {"rental_uris": {"ios": "https://dc.lft.to/lastmile_qr_scan", "android": "https://dc.lft.to/lastmile_qr_scan"}, "type": "electric_scooter", "name": "500005d03f8961303060744cc920a11a", "is_reserved": 0, "lon": -77.04074766666666, "is_disabled": 0, "fusion_lat": 0.0, "lat": 38.9104995, "bike_id": "500005d03f8961303060744cc920a11a", "fusion_lon": 0.0}, {"rental_uris": {"ios": "https://dc.lft.to/lastmile_qr_scan", "android": "https://dc.lft.to/lastmile_qr_scan"}, "type": "electric_scooter", "name": "f1bc4617121e3d6d98e28179006504fe", "is_reserved": 0, "lon": -77.018847, "is_disabled": 0, "fusion_lat": 0.0, "lat": 38.897483666666666, "bike_id": "f1bc4617121e3d6d98e28179006504fe", "fusion_lon": 0.0}, {"rental_uris": {"ios": "https://dc.lft.to/lastmile_qr_scan", "android": "https://dc.lft.to/lastmile_qr_scan"}, "type": "electric_scooter", "name": "8cc59da9f7d9084518d1eea34d014587", "is_reserved": 0, "lon": -77.03462583333334, "is_disabled": 0, "fusion_lat": 0.0, "lat": 38.908013833333335, "bike_id": "8cc59da9f7d9084518d1eea34d014587", "fusion_lon": 0.0}, {"rental_uris": {"ios": "https://dc.lft.to/lastmile_qr_scan", "android": "https://dc.lft.to/lastmile_qr_scan"}, "type": "electric_scooter", "name": "11cbffae34bd0a3eefc04e73ab2a8e55", "is_reserved": 0, "lon": -77.09372733333333, "is_disabled": 0, "fusion_lat": 0.0, "lat": 38.88402766666667, "bike_id": "11cbffae34bd0a3eefc04e73ab2a8e55", "fusion_lon": 0.0}, {"rental_uris": {"ios": "https://dc.lft.to/lastmile_qr_scan", "android": "https://dc.lft.to/lastmile_qr_scan"}, "type": "electric_scooter", "name": "90793dbb8d8e5639f161a5a7c6e382d4", "is_reserved": 0, "lon": -77.01880333333334, "is_disabled": 0, "fusion_lat": 0.0, "lat": 38.930495, "bike_id": "90793dbb8d8e5639f161a5a7c6e382d4", "fusion_lon": 0.0}, {"rental_uris": {"ios": "https://dc.lft.to/lastmile_qr_scan", "android": "https://dc.lft.to/lastmile_qr_scan"}, "type": "electric_scooter", "name": "cc1c33612f16d3dd48d524947cde663c", "is_reserved": 0, "lon": -77.0228085, "is_disabled": 0, "fusion_lat": 0.0, "lat": 38.91676366666667, "bike_id": "cc1c33612f16d3dd48d524947cde663c", "fusion_lon": 0.0}, {"rental_uris": {"ios": "https://dc.lft.to/lastmile_qr_scan", "android": "https://dc.lft.to/lastmile_qr_scan"}, "type": "electric_scooter", "name": "25a0e616331cfe7c2e225c9615d95eb7", "is_reserved": 0, "lon": -77.042679, "is_disabled": 0, "fusion_lat": 0.0, "lat": 38.92297883333333, "bike_id": "25a0e616331cfe7c2e225c9615d95eb7", "fusion_lon": 0.0}, {"rental_uris": {"ios": "https://dc.lft.to/lastmile_qr_scan", "android": "https://dc.lft.to/lastmile_qr_scan"}, "type": "electric_scooter", "name": "85953bf8d0541451bc3948876cb3f7c5", "is_reserved": 0, "lon": -77.01477283333334, "is_disabled": 0, "fusion_lat": 0.0, "lat": 38.926730166666665, "bike_id": "85953bf8d0541451bc3948876cb3f7c5", "fusion_lon": 0.0}, {"rental_uris": {"ios": "https://dc.lft.to/lastmile_qr_scan", "android": "https://dc.lft.to/lastmile_qr_scan"}, "type": "electric_bike", "name": "6061c1bf799fc137fb6c0e037a60a36f", "is_reserved": 0, "lon": -76.98774466666667, "is_disabled": 0, "fusion_lat": 0.0, "lat": 38.844748333333335, "bike_id": "6061c1bf799fc137fb6c0e037a60a36f", "fusion_lon": 0.0}, {"rental_uris": {"ios": "https://dc.lft.to/lastmile_qr_scan", "android": "https://dc.lft.to/lastmile_qr_scan"}, "type": "electric_scooter", "name": "1ee1bbe75be25d9f6641a0f480f2b3cb", "is_reserved": 0, "lon": -77.0285315, "is_disabled": 0, "fusion_lat": 0.0, "lat": 38.904389333333334, "bike_id": "1ee1bbe75be25d9f6641a0f480f2b3cb", "fusion_lon": 0.0}, {"rental_uris": {"ios": "https://dc.lft.to/lastmile_qr_scan", "android": "https://dc.lft.to/lastmile_qr_scan"}, "type": "electric_scooter", "name": "4036659d9adc2cae7d73358b46cd7c21", "is_reserved": 0, "lon": -77.01209766666666, "is_disabled": 0, "fusion_lat": 0.0, "lat": 38.92118583333333, "bike_id": "4036659d9adc2cae7d73358b46cd7c21", "fusion_lon": 0.0}, {"rental_uris": {"ios": "https://dc.lft.to/lastmile_qr_scan", "android": "https://dc.lft.to/lastmile_qr_scan"}, "type": "electric_scooter", "name": "09f0587add709a5f4207d38c52c01881", "is_reserved": 0, "lon": -77.00335666666666, "is_disabled": 0, "fusion_lat": 0.0, "lat": 38.913383, "bike_id": "09f0587add709a5f4207d38c52c01881", "fusion_lon": 0.0}, {"rental_uris": {"ios": "https://dc.lft.to/lastmile_qr_scan", "android": "https://dc.lft.to/lastmile_qr_scan"}, "type": "electric_scooter", "name": "9464b3be87eaf49d49bddde069849572", "is_reserved": 0, "lon": -77.00918783333333, "is_disabled": 0, "fusion_lat": 0.0, "lat": 38.88193166666667, "bike_id": "9464b3be87eaf49d49bddde069849572", "fusion_lon": 0.0}, {"rental_uris": {"ios": "https://dc.lft.to/lastmile_qr_scan", "android": "https://dc.lft.to/lastmile_qr_scan"}, "type": "electric_scooter", "name": "44b208f7a15a7ac672358875fead3140", "is_reserved": 0, "lon": -77.05790066666667, "is_disabled": 0, "fusion_lat": 0.0, "lat": 38.900987666666666, "bike_id": "44b208f7a15a7ac672358875fead3140", "fusion_lon": 0.0}, {"rental_uris": {"ios": "https://dc.lft.to/lastmile_qr_scan", "android": "https://dc.lft.to/lastmile_qr_scan"}, "type": "electric_scooter", "name": "cd9e5ec0214f9b30118f18ad49c8af63", "is_reserved": 0, "lon": -77.04162366666667, "is_disabled": 0, "fusion_lat": 0.0, "lat": 38.903636, "bike_id": "cd9e5ec0214f9b30118f18ad49c8af63", "fusion_lon": 0.0}, {"rental_uris": {"ios": "https://dc.lft.to/lastmile_qr_scan", "android": "https://dc.lft.to/lastmile_qr_scan"}, "type": "electric_scooter", "name": "0e3351c4f1070da179351ce2a71be632", "is_reserved": 0, "lon": -76.985421, "is_disabled": 0, "fusion_lat": 0.0, "lat": 38.85850633333333, "bike_id": "0e3351c4f1070da179351ce2a71be632", "fusion_lon": 0.0}, {"rental_uris": {"ios": "https://dc.lft.to/lastmile_qr_scan", "android": "https://dc.lft.to/lastmile_qr_scan"}, "type": "electric_scooter", "name": "edefd4b1a721875ce8eca971f1aaa000", "is_reserved": 0, "lon": -77.03728316666667, "is_disabled": 0, "fusion_lat": 0.0, "lat": 38.9202785, "bike_id": "edefd4b1a721875ce8eca971f1aaa000", "fusion_lon": 0.0}, {"rental_uris": {"ios": "https://dc.lft.to/lastmile_qr_scan", "android": "https://dc.lft.to/lastmile_qr_scan"}, "type": "electric_scooter", "name": "b079d3fab4ce89dbef9b976db7799a9f", "is_reserved": 0, "lon": -77.08593533333334, "is_disabled": 0, "fusion_lat": 0.0, "lat": 38.908652000000004, "bike_id": "b079d3fab4ce89dbef9b976db7799a9f", "fusion_lon": 0.0}, {"rental_uris": {"ios": "https://dc.lft.to/lastmile_qr_scan", "android": "https://dc.lft.to/lastmile_qr_scan"}, "type": "electric_scooter", "name": "5be0266c4dd73eceb556724680fa735c", "is_reserved": 0, "lon": -77.04822183333333, "is_disabled": 0, "fusion_lat": 0.0, "lat": 38.900609, "bike_id": "5be0266c4dd73eceb556724680fa735c", "fusion_lon": 0.0}, {"rental_uris": {"ios": "https://dc.lft.to/lastmile_qr_scan", "android": "https://dc.lft.to/lastmile_qr_scan"}, "type": "electric_bike", "name": "acd43bee893417a5e38c5b5a76937eae", "is_reserved": 0, "lon": -77.02825216666666, "is_disabled": 0, "fusion_lat": 0.0, "lat": 38.965584166666666, "bike_id": "acd43bee893417a5e38c5b5a76937eae", "fusion_lon": 0.0}, {"rental_uris": {"ios": "https://dc.lft.to/lastmile_qr_scan", "android": "https://dc.lft.to/lastmile_qr_scan"}, "type": "electric_scooter", "name": "6a1d4fc9b00befafdda01dd8cc844830", "is_reserved": 0, "lon": -77.03186816666667, "is_disabled": 0, "fusion_lat": 0.0, "lat": 38.91596883333333, "bike_id": "6a1d4fc9b00befafdda01dd8cc844830", "fusion_lon": 0.0}, {"rental_uris": {"ios": "https://dc.lft.to/lastmile_qr_scan", "android": "https://dc.lft.to/lastmile_qr_scan"}, "type": "electric_scooter", "name": "2facd6778c8e36a7e457884c6ad07568", "is_reserved": 0, "lon": -76.926619, "is_disabled": 0, "fusion_lat": 0.0, "lat": 38.882338833333336, "bike_id": "2facd6778c8e36a7e457884c6ad07568", "fusion_lon": 0.0}, {"rental_uris": {"ios": "https://dc.lft.to/lastmile_qr_scan", "android": "https://dc.lft.to/lastmile_qr_scan"}, "type": "electric_scooter", "name": "9a1e17f62babe4f2b576ecd440502ce6", "is_reserved": 0, "lon": -77.0231685, "is_disabled": 0, "fusion_lat": 0.0, "lat": 38.920765833333334, "bike_id": "9a1e17f62babe4f2b576ecd440502ce6", "fusion_lon": 0.0}, {"rental_uris": {"ios": "https://dc.lft.to/lastmile_qr_scan", "android": "https://dc.lft.to/lastmile_qr_scan"}, "type": "electric_bike", "name": "87240d73ce8ea1f7e76fc77f31bc54f6", "is_reserved": 0, "lon": -77.005157, "is_disabled": 0, "fusion_lat": 0.0, "lat": 38.87942233333333, "bike_id": "87240d73ce8ea1f7e76fc77f31bc54f6", "fusion_lon": 0.0}, {"rental_uris": {"ios": "https://dc.lft.to/lastmile_qr_scan", "android": "https://dc.lft.to/lastmile_qr_scan"}, "type": "electric_scooter", "name": "dfbd65bbdad4004b41da0e8c77c32037", "is_reserved": 0, "lon": -77.01195833333334, "is_disabled": 0, "fusion_lat": 0.0, "lat": 38.8971175, "bike_id": "dfbd65bbdad4004b41da0e8c77c32037", "fusion_lon": 0.0}, {"rental_uris": {"ios": "https://dc.lft.to/lastmile_qr_scan", "android": "https://dc.lft.to/lastmile_qr_scan"}, "type": "electric_scooter", "name": "426e6f5dd8609c5e569de658edf20df3", "is_reserved": 0, "lon": -77.02414666666667, "is_disabled": 0, "fusion_lat": 0.0, "lat": 38.928085333333335, "bike_id": "426e6f5dd8609c5e569de658edf20df3", "fusion_lon": 0.0}, {"rental_uris": {"ios": "https://dc.lft.to/lastmile_qr_scan", "android": "https://dc.lft.to/lastmile_qr_scan"}, "type": "electric_scooter", "name": "edcf5a8dd2d003bd4bbca3d9c4b644df", "is_reserved": 0, "lon": -77.00871866666667, "is_disabled": 0, "fusion_lat": 0.0, "lat": 38.911743666666666, "bike_id": "edcf5a8dd2d003bd4bbca3d9c4b644df", "fusion_lon": 0.0}, {"rental_uris": {"ios": "https://dc.lft.to/lastmile_qr_scan", "android": "https://dc.lft.to/lastmile_qr_scan"}, "type": "electric_scooter", "name": "dd81d2ecd7efdd1d9be2eed726b91736", "is_reserved": 0, "lon": -77.03023983333334, "is_disabled": 0, "fusion_lat": 0.0, "lat": 38.8784865, "bike_id": "dd81d2ecd7efdd1d9be2eed726b91736", "fusion_lon": 0.0}, {"rental_uris": {"ios": "https://dc.lft.to/lastmile_qr_scan", "android": "https://dc.lft.to/lastmile_qr_scan"}, "type": "electric_scooter", "name": "132af31ff587169a94abb59b48de2b6c", "is_reserved": 0, "lon": -77.04378, "is_disabled": 0, "fusion_lat": 0.0, "lat": 38.89743133333333, "bike_id": "132af31ff587169a94abb59b48de2b6c", "fusion_lon": 0.0}, {"rental_uris": {"ios": "https://dc.lft.to/lastmile_qr_scan", "android": "https://dc.lft.to/lastmile_qr_scan"}, "type": "electric_scooter", "name": "59d44a603ac3eb202e01d9c649726e98", "is_reserved": 0, "lon": -77.05412916666667, "is_disabled": 0, "fusion_lat": 0.0, "lat": 38.90074833333333, "bike_id": "59d44a603ac3eb202e01d9c649726e98", "fusion_lon": 0.0}, {"rental_uris": {"ios": "https://dc.lft.to/lastmile_qr_scan", "android": "https://dc.lft.to/lastmile_qr_scan"}, "type": "electric_scooter", "name": "cd57334dc4171930cb7b7e46430b246b", "is_reserved": 0, "lon": -77.02718416666667, "is_disabled": 0, "fusion_lat": 0.0, "lat": 38.905363, "bike_id": "cd57334dc4171930cb7b7e46430b246b", "fusion_lon": 0.0}, {"rental_uris": {"ios": "https://dc.lft.to/lastmile_qr_scan", "android": "https://dc.lft.to/lastmile_qr_scan"}, "type": "electric_scooter", "name": "8091dc59f27794e6efc3487ec6275428", "is_reserved": 0, "lon": -77.05309283333334, "is_disabled": 0, "fusion_lat": 0.0, "lat": 38.902454, "bike_id": "8091dc59f27794e6efc3487ec6275428", "fusion_lon": 0.0}, {"rental_uris": {"ios": "https://dc.lft.to/lastmile_qr_scan", "android": "https://dc.lft.to/lastmile_qr_scan"}, "type": "electric_scooter", "name": "1a93028bfa36a4b7304e944c4497e49d", "is_reserved": 0, "lon": -77.0287025, "is_disabled": 0, "fusion_lat": 0.0, "lat": 38.903138, "bike_id": "1a93028bfa36a4b7304e944c4497e49d", "fusion_lon": 0.0}, {"rental_uris": {"ios": "https://dc.lft.to/lastmile_qr_scan", "android": "https://dc.lft.to/lastmile_qr_scan"}, "type": "electric_bike", "name": "a6de32529bcec42be3226ce386d7c97f", "is_reserved": 0, "lon": -77.02029566666667, "is_disabled": 0, "fusion_lat": 0.0, "lat": 38.965607166666665, "bike_id": "a6de32529bcec42be3226ce386d7c97f", "fusion_lon": 0.0}, {"rental_uris": {"ios": "https://dc.lft.to/lastmile_qr_scan", "android": "https://dc.lft.to/lastmile_qr_scan"}, "type": "electric_scooter", "name": "a384bf237bfc478ea776de14f0518861", "is_reserved": 0, "lon": -77.01441316666667, "is_disabled": 0, "fusion_lat": 0.0, "lat": 38.9023355, "bike_id": "a384bf237bfc478ea776de14f0518861", "fusion_lon": 0.0}, {"rental_uris": {"ios": "https://dc.lft.to/lastmile_qr_scan", "android": "https://dc.lft.to/lastmile_qr_scan"}, "type": "electric_scooter", "name": "1257898fa34e0ca5153a42942c9c7e97", "is_reserved": 0, "lon": -76.99100733333333, "is_disabled": 0, "fusion_lat": 0.0, "lat": 38.857333833333335, "bike_id": "1257898fa34e0ca5153a42942c9c7e97", "fusion_lon": 0.0}, {"rental_uris": {"ios": "https://dc.lft.to/lastmile_qr_scan", "android": "https://dc.lft.to/lastmile_qr_scan"}, "type": "electric_scooter", "name": "ec7029e43bbfd6a47cf61ed74e513883", "is_reserved": 0, "lon": -77.03335866666667, "is_disabled": 0, "fusion_lat": 0.0, "lat": 38.91413433333334, "bike_id": "ec7029e43bbfd6a47cf61ed74e513883", "fusion_lon": 0.0}, {"rental_uris": {"ios": "https://dc.lft.to/lastmile_qr_scan", "android": "https://dc.lft.to/lastmile_qr_scan"}, "type": "electric_scooter", "name": "46aba3b92b2d9fdcd6b91255646787d8", "is_reserved": 0, "lon": -77.04361116666666, "is_disabled": 0, "fusion_lat": 0.0, "lat": 38.921710833333336, "bike_id": "46aba3b92b2d9fdcd6b91255646787d8", "fusion_lon": 0.0}, {"rental_uris": {"ios": "https://dc.lft.to/lastmile_qr_scan", "android": "https://dc.lft.to/lastmile_qr_scan"}, "type": "electric_scooter", "name": "53aae8b1b9a7427cc435467efc8fdf35", "is_reserved": 0, "lon": -77.043392, "is_disabled": 0, "fusion_lat": 0.0, "lat": 38.90878566666667, "bike_id": "53aae8b1b9a7427cc435467efc8fdf35", "fusion_lon": 0.0}, {"rental_uris": {"ios": "https://dc.lft.to/lastmile_qr_scan", "android": "https://dc.lft.to/lastmile_qr_scan"}, "type": "electric_scooter", "name": "7cb76e346e95fa8f710b60791ad58826", "is_reserved": 0, "lon": -77.04457083333334, "is_disabled": 0, "fusion_lat": 0.0, "lat": 38.92313133333333, "bike_id": "7cb76e346e95fa8f710b60791ad58826", "fusion_lon": 0.0}, {"rental_uris": {"ios": "https://dc.lft.to/lastmile_qr_scan", "android": "https://dc.lft.to/lastmile_qr_scan"}, "type": "electric_scooter", "name": "6f4bfad1d89e65f0e40439272d347cf9", "is_reserved": 0, "lon": -77.04965433333334, "is_disabled": 0, "fusion_lat": 0.0, "lat": 38.900687166666664, "bike_id": "6f4bfad1d89e65f0e40439272d347cf9", "fusion_lon": 0.0}, {"rental_uris": {"ios": "https://dc.lft.to/lastmile_qr_scan", "android": "https://dc.lft.to/lastmile_qr_scan"}, "type": "electric_scooter", "name": "85ac1c0cdfbdf0b8bc98f2227dc5f66d", "is_reserved": 0, "lon": -76.98102566666667, "is_disabled": 0, "fusion_lat": 0.0, "lat": 38.857142333333336, "bike_id": "85ac1c0cdfbdf0b8bc98f2227dc5f66d", "fusion_lon": 0.0}, {"rental_uris": {"ios": "https://dc.lft.to/lastmile_qr_scan", "android": "https://dc.lft.to/lastmile_qr_scan"}, "type": "electric_scooter", "name": "71631dcecda1d1bd8f0dff6ef55a52d3", "is_reserved": 0, "lon": -77.02192616666666, "is_disabled": 0, "fusion_lat": 0.0, "lat": 38.91125533333334, "bike_id": "71631dcecda1d1bd8f0dff6ef55a52d3", "fusion_lon": 0.0}, {"rental_uris": {"ios": "https://dc.lft.to/lastmile_qr_scan", "android": "https://dc.lft.to/lastmile_qr_scan"}, "type": "electric_scooter", "name": "5f498dd290ff56872fcf4fb2e03d9f3c", "is_reserved": 0, "lon": -77.0447985, "is_disabled": 0, "fusion_lat": 0.0, "lat": 38.892212666666666, "bike_id": "5f498dd290ff56872fcf4fb2e03d9f3c", "fusion_lon": 0.0}, {"rental_uris": {"ios": "https://dc.lft.to/lastmile_qr_scan", "android": "https://dc.lft.to/lastmile_qr_scan"}, "type": "electric_scooter", "name": "6a5cddef03ee854dc53cf1729868f4fa", "is_reserved": 0, "lon": -77.02200383333333, "is_disabled": 0, "fusion_lat": 0.0, "lat": 38.90548483333333, "bike_id": "6a5cddef03ee854dc53cf1729868f4fa", "fusion_lon": 0.0}, {"rental_uris": {"ios": "https://dc.lft.to/lastmile_qr_scan", "android": "https://dc.lft.to/lastmile_qr_scan"}, "type": "electric_scooter", "name": "0381822d0502a296e728f18d5c2fa2de", "is_reserved": 0, "lon": -77.071058, "is_disabled": 0, "fusion_lat": 0.0, "lat": 38.905885, "bike_id": "0381822d0502a296e728f18d5c2fa2de", "fusion_lon": 0.0}, {"rental_uris": {"ios": "https://dc.lft.to/lastmile_qr_scan", "android": "https://dc.lft.to/lastmile_qr_scan"}, "type": "electric_scooter", "name": "e7f6530a5a124c4a825a4b55a5002544", "is_reserved": 0, "lon": -77.0450305, "is_disabled": 0, "fusion_lat": 0.0, "lat": 38.8922325, "bike_id": "e7f6530a5a124c4a825a4b55a5002544", "fusion_lon": 0.0}, {"rental_uris": {"ios": "https://dc.lft.to/lastmile_qr_scan", "android": "https://dc.lft.to/lastmile_qr_scan"}, "type": "electric_scooter", "name": "8e4f5072b8012374710d9a92f9aa6ace", "is_reserved": 0, "lon": -76.931903, "is_disabled": 0, "fusion_lat": 0.0, "lat": 38.89874066666667, "bike_id": "8e4f5072b8012374710d9a92f9aa6ace", "fusion_lon": 0.0}, {"rental_uris": {"ios": "https://dc.lft.to/lastmile_qr_scan", "android": "https://dc.lft.to/lastmile_qr_scan"}, "type": "electric_scooter", "name": "c3ac4c0054847b63487e8f88147ce6ef", "is_reserved": 0, "lon": -77.055317, "is_disabled": 0, "fusion_lat": 0.0, "lat": 38.910034, "bike_id": "c3ac4c0054847b63487e8f88147ce6ef", "fusion_lon": 0.0}, {"rental_uris": {"ios": "https://dc.lft.to/lastmile_qr_scan", "android": "https://dc.lft.to/lastmile_qr_scan"}, "type": "electric_bike", "name": "29750ccdad8ebc4e17f09a4d307b95ac", "is_reserved": 0, "lon": -77.12934066666666, "is_disabled": 0, "fusion_lat": 0.0, "lat": 38.865779333333336, "bike_id": "29750ccdad8ebc4e17f09a4d307b95ac", "fusion_lon": 0.0}, {"rental_uris": {"ios": "https://dc.lft.to/lastmile_qr_scan", "android": "https://dc.lft.to/lastmile_qr_scan"}, "type": "electric_scooter", "name": "b6eb27e29c5b4e1acc493f1db3faecc0", "is_reserved": 0, "lon": -77.0382875, "is_disabled": 0, "fusion_lat": 0.0, "lat": 38.962644166666664, "bike_id": "b6eb27e29c5b4e1acc493f1db3faecc0", "fusion_lon": 0.0}, {"rental_uris": {"ios": "https://dc.lft.to/lastmile_qr_scan", "android": "https://dc.lft.to/lastmile_qr_scan"}, "type": "electric_scooter", "name": "4de1f1be30609060cb8e2d8688fa9b4f", "is_reserved": 0, "lon": -77.02848416666667, "is_disabled": 0, "fusion_lat": 0.0, "lat": 38.912682, "bike_id": "4de1f1be30609060cb8e2d8688fa9b4f", "fusion_lon": 0.0}, {"rental_uris": {"ios": "https://dc.lft.to/lastmile_qr_scan", "android": "https://dc.lft.to/lastmile_qr_scan"}, "type": "electric_scooter", "name": "0fbe79c48007e08fa0d95ae69f772b32", "is_reserved": 0, "lon": -77.046694, "is_disabled": 0, "fusion_lat": 0.0, "lat": 38.908441833333335, "bike_id": "0fbe79c48007e08fa0d95ae69f772b32", "fusion_lon": 0.0}, {"rental_uris": {"ios": "https://dc.lft.to/lastmile_qr_scan", "android": "https://dc.lft.to/lastmile_qr_scan"}, "type": "electric_scooter", "name": "c7f3a9317475b1eefb4c40cede27e1bf", "is_reserved": 0, "lon": -76.99014366666667, "is_disabled": 0, "fusion_lat": 0.0, "lat": 38.86423683333334, "bike_id": "c7f3a9317475b1eefb4c40cede27e1bf", "fusion_lon": 0.0}, {"rental_uris": {"ios": "https://dc.lft.to/lastmile_qr_scan", "android": "https://dc.lft.to/lastmile_qr_scan"}, "type": "electric_scooter", "name": "bb2f348e2d11f638a118e5d6fe2f3ace", "is_reserved": 0, "lon": -77.01501683333333, "is_disabled": 0, "fusion_lat": 0.0, "lat": 38.926642, "bike_id": "bb2f348e2d11f638a118e5d6fe2f3ace", "fusion_lon": 0.0}, {"rental_uris": {"ios": "https://dc.lft.to/lastmile_qr_scan", "android": "https://dc.lft.to/lastmile_qr_scan"}, "type": "electric_scooter", "name": "792889f7451442fe49884a73b35bb671", "is_reserved": 0, "lon": -77.04037816666667, "is_disabled": 0, "fusion_lat": 0.0, "lat": 38.92312066666667, "bike_id": "792889f7451442fe49884a73b35bb671", "fusion_lon": 0.0}, {"rental_uris": {"ios": "https://dc.lft.to/lastmile_qr_scan", "android": "https://dc.lft.to/lastmile_qr_scan"}, "type": "electric_scooter", "name": "7e9e96a9f901e7eeacd503bd8ee5b60d", "is_reserved": 0, "lon": -77.0436725, "is_disabled": 0, "fusion_lat": 0.0, "lat": 38.892237333333334, "bike_id": "7e9e96a9f901e7eeacd503bd8ee5b60d", "fusion_lon": 0.0}, {"rental_uris": {"ios": "https://dc.lft.to/lastmile_qr_scan", "android": "https://dc.lft.to/lastmile_qr_scan"}, "type": "electric_scooter", "name": "96c30f609af88e9e6d1a8387996ccde8", "is_reserved": 0, "lon": -77.07018933333333, "is_disabled": 0, "fusion_lat": 0.0, "lat": 38.893051666666665, "bike_id": "96c30f609af88e9e6d1a8387996ccde8", "fusion_lon": 0.0}, {"rental_uris": {"ios": "https://dc.lft.to/lastmile_qr_scan", "android": "https://dc.lft.to/lastmile_qr_scan"}, "type": "electric_scooter", "name": "4c91a93b2cc3401cfa6d2341e67a999a", "is_reserved": 0, "lon": -77.058158, "is_disabled": 0, "fusion_lat": 0.0, "lat": 38.93517683333334, "bike_id": "4c91a93b2cc3401cfa6d2341e67a999a", "fusion_lon": 0.0}, {"rental_uris": {"ios": "https://dc.lft.to/lastmile_qr_scan", "android": "https://dc.lft.to/lastmile_qr_scan"}, "type": "electric_bike", "name": "a1ca0fe9abd8651a9ce627568caaf1e8", "is_reserved": 0, "lon": -76.94150966666666, "is_disabled": 0, "fusion_lat": 0.0, "lat": 38.89020566666667, "bike_id": "a1ca0fe9abd8651a9ce627568caaf1e8", "fusion_lon": 0.0}, {"rental_uris": {"ios": "https://dc.lft.to/lastmile_qr_scan", "android": "https://dc.lft.to/lastmile_qr_scan"}, "type": "electric_scooter", "name": "5bc96b64315fcf0204f7979ffa7f4aba", "is_reserved": 0, "lon": -77.0004115, "is_disabled": 0, "fusion_lat": 0.0, "lat": 38.87435133333334, "bike_id": "5bc96b64315fcf0204f7979ffa7f4aba", "fusion_lon": 0.0}, {"rental_uris": {"ios": "https://dc.lft.to/lastmile_qr_scan", "android": "https://dc.lft.to/lastmile_qr_scan"}, "type": "electric_scooter", "name": "ebe9564a9209bbd40de185a5136dc2ef", "is_reserved": 0, "lon": -77.01757216666667, "is_disabled": 0, "fusion_lat": 0.0, "lat": 38.921102166666664, "bike_id": "ebe9564a9209bbd40de185a5136dc2ef", "fusion_lon": 0.0}, {"rental_uris": {"ios": "https://dc.lft.to/lastmile_qr_scan", "android": "https://dc.lft.to/lastmile_qr_scan"}, "type": "electric_scooter", "name": "a0ea86c2678e3833d9789190e11fa3e8", "is_reserved": 0, "lon": -77.00193066666667, "is_disabled": 0, "fusion_lat": 0.0, "lat": 38.91189883333333, "bike_id": "a0ea86c2678e3833d9789190e11fa3e8", "fusion_lon": 0.0}, {"rental_uris": {"ios": "https://dc.lft.to/lastmile_qr_scan", "android": "https://dc.lft.to/lastmile_qr_scan"}, "type": "electric_scooter", "name": "2315c19f7ffce2c5bbbaa6bb78df8133", "is_reserved": 0, "lon": -77.03276916666667, "is_disabled": 0, "fusion_lat": 0.0, "lat": 38.91995216666667, "bike_id": "2315c19f7ffce2c5bbbaa6bb78df8133", "fusion_lon": 0.0}, {"rental_uris": {"ios": "https://dc.lft.to/lastmile_qr_scan", "android": "https://dc.lft.to/lastmile_qr_scan"}, "type": "electric_scooter", "name": "9e46a656ca02dc492726fe2afa60b4c1", "is_reserved": 0, "lon": -77.039074, "is_disabled": 0, "fusion_lat": 0.0, "lat": 38.91418083333333, "bike_id": "9e46a656ca02dc492726fe2afa60b4c1", "fusion_lon": 0.0}, {"rental_uris": {"ios": "https://dc.lft.to/lastmile_qr_scan", "android": "https://dc.lft.to/lastmile_qr_scan"}, "type": "electric_scooter", "name": "96573333b29d31f3760f59e89920867e", "is_reserved": 0, "lon": -77.0453055, "is_disabled": 0, "fusion_lat": 0.0, "lat": 38.919186, "bike_id": "96573333b29d31f3760f59e89920867e", "fusion_lon": 0.0}, {"rental_uris": {"ios": "https://dc.lft.to/lastmile_qr_scan", "android": "https://dc.lft.to/lastmile_qr_scan"}, "type": "electric_scooter", "name": "fb5830e34ac5240a687627c5b3f91378", "is_reserved": 0, "lon": -77.07240333333333, "is_disabled": 0, "fusion_lat": 0.0, "lat": 38.934603, "bike_id": "fb5830e34ac5240a687627c5b3f91378", "fusion_lon": 0.0}, {"rental_uris": {"ios": "https://dc.lft.to/lastmile_qr_scan", "android": "https://dc.lft.to/lastmile_qr_scan"}, "type": "electric_scooter", "name": "d255fd6871dfb6ae1a9b6a5f2ec0a99f", "is_reserved": 0, "lon": -77.03635583333333, "is_disabled": 0, "fusion_lat": 0.0, "lat": 38.925955333333334, "bike_id": "d255fd6871dfb6ae1a9b6a5f2ec0a99f", "fusion_lon": 0.0}, {"rental_uris": {"ios": "https://dc.lft.to/lastmile_qr_scan", "android": "https://dc.lft.to/lastmile_qr_scan"}, "type": "electric_scooter", "name": "236fcffe436aac18e74d76f46ff61cb9", "is_reserved": 0, "lon": -77.04372766666667, "is_disabled": 0, "fusion_lat": 0.0, "lat": 38.9315415, "bike_id": "236fcffe436aac18e74d76f46ff61cb9", "fusion_lon": 0.0}, {"rental_uris": {"ios": "https://dc.lft.to/lastmile_qr_scan", "android": "https://dc.lft.to/lastmile_qr_scan"}, "type": "electric_scooter", "name": "27cace5047700fbf0d2e42336486c48a", "is_reserved": 0, "lon": -77.056364, "is_disabled": 0, "fusion_lat": 0.0, "lat": 38.93593, "bike_id": "27cace5047700fbf0d2e42336486c48a", "fusion_lon": 0.0}, {"rental_uris": {"ios": "https://dc.lft.to/lastmile_qr_scan", "android": "https://dc.lft.to/lastmile_qr_scan"}, "type": "electric_scooter", "name": "21086abef302d6f9b974581d7f5013fa", "is_reserved": 0, "lon": -77.04696983333334, "is_disabled": 0, "fusion_lat": 0.0, "lat": 38.897406333333336, "bike_id": "21086abef302d6f9b974581d7f5013fa", "fusion_lon": 0.0}, {"rental_uris": {"ios": "https://dc.lft.to/lastmile_qr_scan", "android": "https://dc.lft.to/lastmile_qr_scan"}, "type": "electric_scooter", "name": "9295aed2ae10dce4725319d5af1bece7", "is_reserved": 0, "lon": -77.032614, "is_disabled": 0, "fusion_lat": 0.0, "lat": 38.910495833333336, "bike_id": "9295aed2ae10dce4725319d5af1bece7", "fusion_lon": 0.0}, {"rental_uris": {"ios": "https://dc.lft.to/lastmile_qr_scan", "android": "https://dc.lft.to/lastmile_qr_scan"}, "type": "electric_scooter", "name": "a21e3d27a4bf07435b799d960b011235", "is_reserved": 0, "lon": -77.0120465, "is_disabled": 0, "fusion_lat": 0.0, "lat": 38.9000475, "bike_id": "a21e3d27a4bf07435b799d960b011235", "fusion_lon": 0.0}, {"rental_uris": {"ios": "https://dc.lft.to/lastmile_qr_scan", "android": "https://dc.lft.to/lastmile_qr_scan"}, "type": "electric_scooter", "name": "438cfb6e1f666592f2828af634a420cf", "is_reserved": 0, "lon": -77.04674166666666, "is_disabled": 0, "fusion_lat": 0.0, "lat": 38.892280666666665, "bike_id": "438cfb6e1f666592f2828af634a420cf", "fusion_lon": 0.0}, {"rental_uris": {"ios": "https://dc.lft.to/lastmile_qr_scan", "android": "https://dc.lft.to/lastmile_qr_scan"}, "type": "electric_scooter", "name": "2eaaac14390bebdbbfd8060e658031e2", "is_reserved": 0, "lon": -77.02442483333333, "is_disabled": 0, "fusion_lat": 0.0, "lat": 38.95639, "bike_id": "2eaaac14390bebdbbfd8060e658031e2", "fusion_lon": 0.0}, {"rental_uris": {"ios": "https://dc.lft.to/lastmile_qr_scan", "android": "https://dc.lft.to/lastmile_qr_scan"}, "type": "electric_scooter", "name": "900b6f8b4ad72c19139d31480f18c3f2", "is_reserved": 0, "lon": -76.99154416666667, "is_disabled": 0, "fusion_lat": 0.0, "lat": 38.9012225, "bike_id": "900b6f8b4ad72c19139d31480f18c3f2", "fusion_lon": 0.0}, {"rental_uris": {"ios": "https://dc.lft.to/lastmile_qr_scan", "android": "https://dc.lft.to/lastmile_qr_scan"}, "type": "electric_scooter", "name": "81e9ba1f4152be8cf5e127e1eac845e3", "is_reserved": 0, "lon": -77.07289716666666, "is_disabled": 0, "fusion_lat": 0.0, "lat": 38.914413833333334, "bike_id": "81e9ba1f4152be8cf5e127e1eac845e3", "fusion_lon": 0.0}, {"rental_uris": {"ios": "https://dc.lft.to/lastmile_qr_scan", "android": "https://dc.lft.to/lastmile_qr_scan"}, "type": "electric_scooter", "name": "8f42fd1bce53ed22a4c92a863030b8f6", "is_reserved": 0, "lon": -77.03370966666667, "is_disabled": 0, "fusion_lat": 0.0, "lat": 38.928624666666664, "bike_id": "8f42fd1bce53ed22a4c92a863030b8f6", "fusion_lon": 0.0}, {"rental_uris": {"ios": "https://dc.lft.to/lastmile_qr_scan", "android": "https://dc.lft.to/lastmile_qr_scan"}, "type": "electric_scooter", "name": "81868c57d38427484bcbfe123842e75f", "is_reserved": 0, "lon": -76.929176, "is_disabled": 0, "fusion_lat": 0.0, "lat": 38.88655083333333, "bike_id": "81868c57d38427484bcbfe123842e75f", "fusion_lon": 0.0}, {"rental_uris": {"ios": "https://dc.lft.to/lastmile_qr_scan", "android": "https://dc.lft.to/lastmile_qr_scan"}, "type": "electric_scooter", "name": "b6ea5b7367d078d4f5c440a0a8647bff", "is_reserved": 0, "lon": -77.0530935, "is_disabled": 0, "fusion_lat": 0.0, "lat": 38.902641833333334, "bike_id": "b6ea5b7367d078d4f5c440a0a8647bff", "fusion_lon": 0.0}, {"rental_uris": {"ios": "https://dc.lft.to/lastmile_qr_scan", "android": "https://dc.lft.to/lastmile_qr_scan"}, "type": "electric_scooter", "name": "75dec7d78f9f1d26dd7589f26da0849c", "is_reserved": 0, "lon": -77.055199, "is_disabled": 0, "fusion_lat": 0.0, "lat": 38.90765966666667, "bike_id": "75dec7d78f9f1d26dd7589f26da0849c", "fusion_lon": 0.0}, {"rental_uris": {"ios": "https://dc.lft.to/lastmile_qr_scan", "android": "https://dc.lft.to/lastmile_qr_scan"}, "type": "electric_scooter", "name": "0ec58a3652379c393b41d2ccfab3b9dd", "is_reserved": 0, "lon": -77.07083833333333, "is_disabled": 0, "fusion_lat": 0.0, "lat": 38.953211, "bike_id": "0ec58a3652379c393b41d2ccfab3b9dd", "fusion_lon": 0.0}, {"rental_uris": {"ios": "https://dc.lft.to/lastmile_qr_scan", "android": "https://dc.lft.to/lastmile_qr_scan"}, "type": "electric_scooter", "name": "7a37fd99e05bda7e5c52518914cbd2cf", "is_reserved": 0, "lon": -77.04335266666666, "is_disabled": 0, "fusion_lat": 0.0, "lat": 38.92238416666667, "bike_id": "7a37fd99e05bda7e5c52518914cbd2cf", "fusion_lon": 0.0}, {"rental_uris": {"ios": "https://dc.lft.to/lastmile_qr_scan", "android": "https://dc.lft.to/lastmile_qr_scan"}, "type": "electric_scooter", "name": "794e208c7774b3dbd953d4ea1aa1d0d6", "is_reserved": 0, "lon": -77.01982783333334, "is_disabled": 0, "fusion_lat": 0.0, "lat": 38.876139333333334, "bike_id": "794e208c7774b3dbd953d4ea1aa1d0d6", "fusion_lon": 0.0}, {"rental_uris": {"ios": "https://dc.lft.to/lastmile_qr_scan", "android": "https://dc.lft.to/lastmile_qr_scan"}, "type": "electric_scooter", "name": "8cb38cb66a647de42fc6e18c11aec861", "is_reserved": 0, "lon": -77.03653633333333, "is_disabled": 0, "fusion_lat": 0.0, "lat": 38.95461, "bike_id": "8cb38cb66a647de42fc6e18c11aec861", "fusion_lon": 0.0}, {"rental_uris": {"ios": "https://dc.lft.to/lastmile_qr_scan", "android": "https://dc.lft.to/lastmile_qr_scan"}, "type": "electric_scooter", "name": "37d50715fe08938b8728a823bea80d0f", "is_reserved": 0, "lon": -76.9873155, "is_disabled": 0, "fusion_lat": 0.0, "lat": 38.842204, "bike_id": "37d50715fe08938b8728a823bea80d0f", "fusion_lon": 0.0}, {"rental_uris": {"ios": "https://dc.lft.to/lastmile_qr_scan", "android": "https://dc.lft.to/lastmile_qr_scan"}, "type": "electric_scooter", "name": "0afd9f92abed1f464218b45c0908ffa4", "is_reserved": 0, "lon": -76.9713295, "is_disabled": 0, "fusion_lat": 0.0, "lat": 38.878621, "bike_id": "0afd9f92abed1f464218b45c0908ffa4", "fusion_lon": 0.0}, {"rental_uris": {"ios": "https://dc.lft.to/lastmile_qr_scan", "android": "https://dc.lft.to/lastmile_qr_scan"}, "type": "electric_scooter", "name": "10b37bef2f0be16fa79cdb7ad58e278c", "is_reserved": 0, "lon": -76.99559633333334, "is_disabled": 0, "fusion_lat": 0.0, "lat": 38.926815833333336, "bike_id": "10b37bef2f0be16fa79cdb7ad58e278c", "fusion_lon": 0.0}, {"rental_uris": {"ios": "https://dc.lft.to/lastmile_qr_scan", "android": "https://dc.lft.to/lastmile_qr_scan"}, "type": "electric_scooter", "name": "3efcd3418048db77abc224c7d4b21a37", "is_reserved": 0, "lon": -77.03952, "is_disabled": 0, "fusion_lat": 0.0, "lat": 38.89829016666667, "bike_id": "3efcd3418048db77abc224c7d4b21a37", "fusion_lon": 0.0}, {"rental_uris": {"ios": "https://dc.lft.to/lastmile_qr_scan", "android": "https://dc.lft.to/lastmile_qr_scan"}, "type": "electric_scooter", "name": "ed1633b496dafc9959935c054d112f76", "is_reserved": 0, "lon": -77.07340683333334, "is_disabled": 0, "fusion_lat": 0.0, "lat": 38.960936, "bike_id": "ed1633b496dafc9959935c054d112f76", "fusion_lon": 0.0}, {"rental_uris": {"ios": "https://dc.lft.to/lastmile_qr_scan", "android": "https://dc.lft.to/lastmile_qr_scan"}, "type": "electric_scooter", "name": "c8fec1c7c5ba9335035273d269951427", "is_reserved": 0, "lon": -77.04199566666666, "is_disabled": 0, "fusion_lat": 0.0, "lat": 38.92342383333333, "bike_id": "c8fec1c7c5ba9335035273d269951427", "fusion_lon": 0.0}, {"rental_uris": {"ios": "https://dc.lft.to/lastmile_qr_scan", "android": "https://dc.lft.to/lastmile_qr_scan"}, "type": "electric_scooter", "name": "ae03f42ca4aa8a22aa4d87926828178f", "is_reserved": 0, "lon": -76.96527183333333, "is_disabled": 0, "fusion_lat": 0.0, "lat": 38.87629483333333, "bike_id": "ae03f42ca4aa8a22aa4d87926828178f", "fusion_lon": 0.0}, {"rental_uris": {"ios": "https://dc.lft.to/lastmile_qr_scan", "android": "https://dc.lft.to/lastmile_qr_scan"}, "type": "electric_scooter", "name": "7a433048a9fa6aec5b7122f9818559c8", "is_reserved": 0, "lon": -76.97626966666667, "is_disabled": 0, "fusion_lat": 0.0, "lat": 38.905691833333336, "bike_id": "7a433048a9fa6aec5b7122f9818559c8", "fusion_lon": 0.0}, {"rental_uris": {"ios": "https://dc.lft.to/lastmile_qr_scan", "android": "https://dc.lft.to/lastmile_qr_scan"}, "type": "electric_scooter", "name": "d54cab6b4b7cdceca48a8817ccd12b97", "is_reserved": 0, "lon": -77.07343033333333, "is_disabled": 0, "fusion_lat": 0.0, "lat": 38.943241666666665, "bike_id": "d54cab6b4b7cdceca48a8817ccd12b97", "fusion_lon": 0.0}, {"rental_uris": {"ios": "https://dc.lft.to/lastmile_qr_scan", "android": "https://dc.lft.to/lastmile_qr_scan"}, "type": "electric_scooter", "name": "cb20eb5115b121606c21bd28cbdfe15b", "is_reserved": 0, "lon": -77.04946666666666, "is_disabled": 0, "fusion_lat": 0.0, "lat": 38.920205, "bike_id": "cb20eb5115b121606c21bd28cbdfe15b", "fusion_lon": 0.0}, {"rental_uris": {"ios": "https://dc.lft.to/lastmile_qr_scan", "android": "https://dc.lft.to/lastmile_qr_scan"}, "type": "electric_bike", "name": "c215ffe59381f147a462ea14ff90879a", "is_reserved": 0, "lon": -77.23411633333333, "is_disabled": 0, "fusion_lat": 0.0, "lat": 38.875792833333335, "bike_id": "c215ffe59381f147a462ea14ff90879a", "fusion_lon": 0.0}, {"rental_uris": {"ios": "https://dc.lft.to/lastmile_qr_scan", "android": "https://dc.lft.to/lastmile_qr_scan"}, "type": "electric_scooter", "name": "3146fad33352b0b0c153092d5db631cc", "is_reserved": 0, "lon": -77.06845116666666, "is_disabled": 0, "fusion_lat": 0.0, "lat": 38.917310666666665, "bike_id": "3146fad33352b0b0c153092d5db631cc", "fusion_lon": 0.0}, {"rental_uris": {"ios": "https://dc.lft.to/lastmile_qr_scan", "android": "https://dc.lft.to/lastmile_qr_scan"}, "type": "electric_scooter", "name": "01d1d0a5e35e661d90130c0841716e54", "is_reserved": 0, "lon": -76.98366033333333, "is_disabled": 0, "fusion_lat": 0.0, "lat": 38.914995833333336, "bike_id": "01d1d0a5e35e661d90130c0841716e54", "fusion_lon": 0.0}, {"rental_uris": {"ios": "https://dc.lft.to/lastmile_qr_scan", "android": "https://dc.lft.to/lastmile_qr_scan"}, "type": "electric_scooter", "name": "a1ffea7251b70bd911af2dd5bec89cca", "is_reserved": 0, "lon": -77.03101933333333, "is_disabled": 0, "fusion_lat": 0.0, "lat": 38.9247945, "bike_id": "a1ffea7251b70bd911af2dd5bec89cca", "fusion_lon": 0.0}, {"rental_uris": {"ios": "https://dc.lft.to/lastmile_qr_scan", "android": "https://dc.lft.to/lastmile_qr_scan"}, "type": "electric_bike", "name": "40a13455389ea4e24c1186d2dfd6caed", "is_reserved": 0, "lon": -77.05359, "is_disabled": 0, "fusion_lat": 0.0, "lat": 38.820404833333335, "bike_id": "40a13455389ea4e24c1186d2dfd6caed", "fusion_lon": 0.0}, {"rental_uris": {"ios": "https://dc.lft.to/lastmile_qr_scan", "android": "https://dc.lft.to/lastmile_qr_scan"}, "type": "electric_scooter", "name": "3956a041d58b882ddf08676100b40e5e", "is_reserved": 0, "lon": -77.030516, "is_disabled": 0, "fusion_lat": 0.0, "lat": 38.923787833333336, "bike_id": "3956a041d58b882ddf08676100b40e5e", "fusion_lon": 0.0}, {"rental_uris": {"ios": "https://dc.lft.to/lastmile_qr_scan", "android": "https://dc.lft.to/lastmile_qr_scan"},