{"data": {"bikes": [{"fusion_lat": 0.0, "name": "d708f0d7c832187c184f5934acdbd255", "is_disabled": 0, "rental_uris": {"android": "https://dc.lft.to/lastmile_qr_scan", "ios": "https://dc.lft.to/lastmile_qr_scan"}, "fusion_lon": 0.0, "lat": 38.92417283333333, "bike_id": "d708f0d7c832187c184f5934acdbd255", "type": "electric_scooter", "is_reserved": 0, "lon": -76.99625466666667}, {"fusion_lat": 0.0, "name": "789253ab5fd31d6e1ace9c27da0dffc5", "is_disabled": 0, "rental_uris": {"android": "https://dc.lft.to/lastmile_qr_scan", "ios": "https://dc.lft.to/lastmile_qr_scan"}, "fusion_lon": 0.0, "lat": 38.898421, "bike_id": "789253ab5fd31d6e1ace9c27da0dffc5", "type": "electric_scooter", "is_reserved": 0, "lon": -77.01340333333333}, {"fusion_lat": 0.0, "name": "fc5e7652f43b22306226a86ad75dc133", "is_disabled": 0, "rental_uris": {"android": "https://dc.lft.to/lastmile_qr_scan", "ios": "https://dc.lft.to/lastmile_qr_scan"}, "fusion_lon": 0.0, "lat": 38.88772633333333, "bike_id": "fc5e7652f43b22306226a86ad75dc133", "type": "electric_scooter", "is_reserved": 0, "lon": -77.03307733333334}, {"fusion_lat": 0.0, "name": "bc0f69726543923ec5f0f3f7ff5af367", "is_disabled": 0, "rental_uris": {"android": "https://dc.lft.to/lastmile_qr_scan", "ios": "https://dc.lft.to/lastmile_qr_scan"}, "fusion_lon": 0.0, "lat": 38.935803, "bike_id": "bc0f69726543923ec5f0f3f7ff5af367", "type": "electric_scooter", "is_reserved": 0, "lon": -77.02842966666667}, {"fusion_lat": 0.0, "name": "a72461699df54200de70ef0ba0f97133", "is_disabled": 0, "rental_uris": {"android": "https://dc.lft.to/lastmile_qr_scan", "ios": "https://dc.lft.to/lastmile_qr_scan"}, "fusion_lon": 0.0, "lat": 38.9250935, "bike_id": "a72461699df54200de70ef0ba0f97133", "type": "electric_scooter", "is_reserved": 0, "lon": -77.0228695}, {"fusion_lat": 0.0, "name": "faf5835e3696ea2669fe15d777068c1f", "is_disabled": 0, "rental_uris": {"android": "https://dc.lft.to/lastmile_qr_scan", "ios": "https://dc.lft.to/lastmile_qr_scan"}, "fusion_lon": 0.0, "lat": 38.907723, "bike_id": "faf5835e3696ea2669fe15d777068c1f", "type": "electric_scooter", "is_reserved": 0, "lon": -77.05598966666666}, {"fusion_lat": 0.0, "name": "09b0d983806fb4ceedd5ce89fe803619", "is_disabled": 0, "rental_uris": {"android": "https://dc.lft.to/lastmile_qr_scan", "ios": "https://dc.lft.to/lastmile_qr_scan"}, "fusion_lon": 0.0, "lat": 38.85421983333333, "bike_id": "09b0d983806fb4ceedd5ce89fe803619", "type": "electric_bike", "is_reserved": 0, "lon": -77.12076633333334}, {"fusion_lat": 0.0, "name": "fed1c17372f47c5211038063b27598a6", "is_disabled": 0, "rental_uris": {"android": "https://dc.lft.to/lastmile_qr_scan", "ios": "https://dc.lft.to/lastmile_qr_scan"}, "fusion_lon": 0.0, "lat": 38.95222016666666, "bike_id": "fed1c17372f47c5211038063b27598a6", "type": "electric_scooter", "is_reserved": 0, "lon": -77.082193}, {"fusion_lat": 0.0, "name": "fd95499859caebc1ce394f8ad675dba4", "is_disabled": 0, "rental_uris": {"android": "https://dc.lft.to/lastmile_qr_scan", "ios": "https://dc.lft.to/lastmile_qr_scan"}, "fusion_lon": 0.0, "lat": 38.91996833333333, "bike_id": "fd95499859caebc1ce394f8ad675dba4", "type": "electric_scooter", "is_reserved": 0, "lon": -77.071951}, {"fusion_lat": 0.0, "name": "bbfa4e73383b9eab6bda4cee1f3aa88f", "is_disabled": 0, "rental_uris": {"android": "https://dc.lft.to/lastmile_qr_scan", "ios": "https://dc.lft.to/lastmile_qr_scan"}, "fusion_lon": 0.0, "lat": 38.9087655, "bike_id": "bbfa4e73383b9eab6bda4cee1f3aa88f", "type": "electric_scooter", "is_reserved": 0, "lon": -77.04476}, {"fusion_lat": 0.0, "name": "1f3f51c8ca4fa39725f3135c20e2ba54", "is_disabled": 0, "rental_uris": {"android": "https://dc.lft.to/lastmile_qr_scan", "ios": "https://dc.lft.to/lastmile_qr_scan"}, "fusion_lon": 0.0, "lat": 38.90033116666667, "bike_id": "1f3f51c8ca4fa39725f3135c20e2ba54", "type": "electric_scooter", "is_reserved": 0, "lon": -77.03499866666667}, {"fusion_lat": 0.0, "name": "297695fb629d054a477583262e6c763e", "is_disabled": 0, "rental_uris": {"android": "https://dc.lft.to/lastmile_qr_scan", "ios": "https://dc.lft.to/lastmile_qr_scan"}, "fusion_lon": 0.0, "lat": 38.92103766666666, "bike_id": "297695fb629d054a477583262e6c763e", "type": "electric_scooter", "is_reserved": 0, "lon": -76.9946745}, {"fusion_lat": 0.0, "name": "ba432aef53995057f2b562d414cc58ab", "is_disabled": 0, "rental_uris": {"android": "https://dc.lft.to/lastmile_qr_scan", "ios": "https://dc.lft.to/lastmile_qr_scan"}, "fusion_lon": 0.0, "lat": 38.985476166666665, "bike_id": "ba432aef53995057f2b562d414cc58ab", "type": "electric_bike", "is_reserved": 0, "lon": -77.004048}, {"fusion_lat": 0.0, "name": "14915836f49c971e1e55f262801e7e7d", "is_disabled": 0, "rental_uris": {"android": "https://dc.lft.to/lastmile_qr_scan", "ios": "https://dc.lft.to/lastmile_qr_scan"}, "fusion_lon": 0.0, "lat": 38.878470666666665, "bike_id": "14915836f49c971e1e55f262801e7e7d", "type": "electric_bike", "is_reserved": 0, "lon": -77.03027283333333}, {"fusion_lat": 0.0, "name": "1c018c5d31a25d90907f71a3c04b0e93", "is_disabled": 0, "rental_uris": {"android": "https://dc.lft.to/lastmile_qr_scan", "ios": "https://dc.lft.to/lastmile_qr_scan"}, "fusion_lon": 0.0, "lat": 38.942954, "bike_id": "1c018c5d31a25d90907f71a3c04b0e93", "type": "electric_scooter", "is_reserved": 0, "lon": -77.02169866666667}, {"fusion_lat": 0.0, "name": "ad1ab32d8c5667b66708395a1c895be1", "is_disabled": 0, "rental_uris": {"android": "https://dc.lft.to/lastmile_qr_scan", "ios": "https://dc.lft.to/lastmile_qr_scan"}, "fusion_lon": 0.0, "lat": 38.883019, "bike_id": "ad1ab32d8c5667b66708395a1c895be1", "type": "electric_scooter", "is_reserved": 0, "lon": -76.94853516666667}, {"fusion_lat": 0.0, "name": "940cd9964a530af91c6cc54d5b2dc69e", "is_disabled": 0, "rental_uris": {"android": "https://dc.lft.to/lastmile_qr_scan", "ios": "https://dc.lft.to/lastmile_qr_scan"}, "fusion_lon": 0.0, "lat": 38.884230333333335, "bike_id": "940cd9964a530af91c6cc54d5b2dc69e", "type": "electric_scooter", "is_reserved": 0, "lon": -76.95758433333333}, {"fusion_lat": 0.0, "name": "08dd5c52f3a587b5cecc579e50d492cb", "is_disabled": 0, "rental_uris": {"android": "https://dc.lft.to/lastmile_qr_scan", "ios": "https://dc.lft.to/lastmile_qr_scan"}, "fusion_lon": 0.0, "lat": 38.9126905, "bike_id": "08dd5c52f3a587b5cecc579e50d492cb", "type": "electric_scooter", "is_reserved": 0, "lon": -77.0386965}, {"fusion_lat": 0.0, "name": "729085cb7252e3a7796419b29d0a1cde", "is_disabled": 0, "rental_uris": {"android": "https://dc.lft.to/lastmile_qr_scan", "ios": "https://dc.lft.to/lastmile_qr_scan"}, "fusion_lon": 0.0, "lat": 38.926746666666666, "bike_id": "729085cb7252e3a7796419b29d0a1cde", "type": "electric_scooter", "is_reserved": 0, "lon": -77.03637733333333}, {"fusion_lat": 0.0, "name": "dda605ffec03e431acd6d2504f21c796", "is_disabled": 0, "rental_uris": {"android": "https://dc.lft.to/lastmile_qr_scan", "ios": "https://dc.lft.to/lastmile_qr_scan"}, "fusion_lon": 0.0, "lat": 38.877505, "bike_id": "dda605ffec03e431acd6d2504f21c796", "type": "electric_scooter", "is_reserved": 0, "lon": -77.00262016666667}, {"fusion_lat": 0.0, "name": "9ca7311d5c1dbd4dbfeb25dbca678b56", "is_disabled": 0, "rental_uris": {"android": "https://dc.lft.to/lastmile_qr_scan", "ios": "https://dc.lft.to/lastmile_qr_scan"}, "fusion_lon": 0.0, "lat": 38.94616883333333, "bike_id": "9ca7311d5c1dbd4dbfeb25dbca678b56", "type": "electric_scooter", "is_reserved": 0, "lon": -77.08015433333334}, {"fusion_lat": 0.0, "name": "1ed1ec23957af228a04028885fb8a0ab", "is_disabled": 0, "rental_uris": {"android": "https://dc.lft.to/lastmile_qr_scan", "ios": "https://dc.lft.to/lastmile_qr_scan"}, "fusion_lon": 0.0, "lat": 38.896748333333335, "bike_id": "1ed1ec23957af228a04028885fb8a0ab", "type": "electric_scooter", "is_reserved": 0, "lon": -77.04324466666667}, {"fusion_lat": 0.0, "name": "c91ef3ef778ef739872aab5f6d5cbc8c", "is_disabled": 0, "rental_uris": {"android": "https://dc.lft.to/lastmile_qr_scan", "ios": "https://dc.lft.to/lastmile_qr_scan"}, "fusion_lon": 0.0, "lat": 38.922766833333334, "bike_id": "c91ef3ef778ef739872aab5f6d5cbc8c", "type": "electric_scooter", "is_reserved": 0, "lon": -77.02961533333334}, {"fusion_lat": 0.0, "name": "2b7f65e980484d57f3f98c43085e2b54", "is_disabled": 0, "rental_uris": {"android": "https://dc.lft.to/lastmile_qr_scan", "ios": "https://dc.lft.to/lastmile_qr_scan"}, "fusion_lon": 0.0, "lat": 38.95884733333333, "bike_id": "2b7f65e980484d57f3f98c43085e2b54", "type": "electric_bike", "is_reserved": 0, "lon": -76.92482416666667}, {"fusion_lat": 0.0, "name": "0fe54641ff83fefcd4500ed0d4d41179", "is_disabled": 0, "rental_uris": {"android": "https://dc.lft.to/lastmile_qr_scan", "ios": "https://dc.lft.to/lastmile_qr_scan"}, "fusion_lon": 0.0, "lat": 38.89621116666667, "bike_id": "0fe54641ff83fefcd4500ed0d4d41179", "type": "electric_bike", "is_reserved": 0, "lon": -76.9074245}, {"fusion_lat": 0.0, "name": "91d29fc582360507fe2001634c3b21c5", "is_disabled": 0, "rental_uris": {"android": "https://dc.lft.to/lastmile_qr_scan", "ios": "https://dc.lft.to/lastmile_qr_scan"}, "fusion_lon": 0.0, "lat": 38.84614466666667, "bike_id": "91d29fc582360507fe2001634c3b21c5", "type": "electric_bike", "is_reserved": 0, "lon": -76.96909433333333}, {"fusion_lat": 0.0, "name": "2eb3821c8a17d97008ac7229e57d5783", "is_disabled": 0, "rental_uris": {"android": "https://dc.lft.to/lastmile_qr_scan", "ios": "https://dc.lft.to/lastmile_qr_scan"}, "fusion_lon": 0.0, "lat": 38.8749375, "bike_id": "2eb3821c8a17d97008ac7229e57d5783", "type": "electric_bike", "is_reserved": 0, "lon": -77.21125666666667}, {"fusion_lat": 0.0, "name": "27b6277efe5d07e49f94f15867b32b4b", "is_disabled": 0, "rental_uris": {"android": "https://dc.lft.to/lastmile_qr_scan", "ios": "https://dc.lft.to/lastmile_qr_scan"}, "fusion_lon": 0.0, "lat": 38.9482465, "bike_id": "27b6277efe5d07e49f94f15867b32b4b", "type": "electric_scooter", "is_reserved": 0, "lon": -77.08003566666666}, {"fusion_lat": 0.0, "name": "9b6471b5d3d31c20c34b82c7cf4a3ecd", "is_disabled": 0, "rental_uris": {"android": "https://dc.lft.to/lastmile_qr_scan", "ios": "https://dc.lft.to/lastmile_qr_scan"}, "fusion_lon": 0.0, "lat": 38.89004083333333, "bike_id": "9b6471b5d3d31c20c34b82c7cf4a3ecd", "type": "electric_scooter", "is_reserved": 0, "lon": -76.93745716666666}, {"fusion_lat": 0.0, "name": "e7ca037112fee77ed13dc216b0fe3fb4", "is_disabled": 0, "rental_uris": {"android": "https://dc.lft.to/lastmile_qr_scan", "ios": "https://dc.lft.to/lastmile_qr_scan"}, "fusion_lon": 0.0, "lat": 38.9151945, "bike_id": "e7ca037112fee77ed13dc216b0fe3fb4", "type": "electric_scooter", "is_reserved": 0, "lon": -77.0756865}, {"fusion_lat": 0.0, "name": "0b591d51b8ee2b0703f875b84bd7801e", "is_disabled": 0, "rental_uris": {"android": "https://dc.lft.to/lastmile_qr_scan", "ios": "https://dc.lft.to/lastmile_qr_scan"}, "fusion_lon": 0.0, "lat": 38.92825833333333, "bike_id": "0b591d51b8ee2b0703f875b84bd7801e", "type": "electric_scooter", "is_reserved": 0, "lon": -77.0225745}, {"fusion_lat": 0.0, "name": "c16ba167e600107a3271bb2589a227be", "is_disabled": 0, "rental_uris": {"android": "https://dc.lft.to/lastmile_qr_scan", "ios": "https://dc.lft.to/lastmile_qr_scan"}, "fusion_lon": 0.0, "lat": 38.9176195, "bike_id": "c16ba167e600107a3271bb2589a227be", "type": "electric_scooter", "is_reserved": 0, "lon": -77.02316533333334}, {"fusion_lat": 0.0, "name": "0aa0af5ec97a3e40291cb5dee53613d3", "is_disabled": 0, "rental_uris": {"android": "https://dc.lft.to/lastmile_qr_scan", "ios": "https://dc.lft.to/lastmile_qr_scan"}, "fusion_lon": 0.0, "lat": 38.92329566666667, "bike_id": "0aa0af5ec97a3e40291cb5dee53613d3", "type": "electric_scooter", "is_reserved": 0, "lon": -77.02972266666667}, {"fusion_lat": 0.0, "name": "1422cd5922887d4d724fadfea0d117fe", "is_disabled": 0, "rental_uris": {"android": "https://dc.lft.to/lastmile_qr_scan", "ios": "https://dc.lft.to/lastmile_qr_scan"}, "fusion_lon": 0.0, "lat": 38.9045925, "bike_id": "1422cd5922887d4d724fadfea0d117fe", "type": "electric_scooter", "is_reserved": 0, "lon": -77.027204}, {"fusion_lat": 0.0, "name": "8576fbfa06e74c0f1854b6af384a03ec", "is_disabled": 0, "rental_uris": {"android": "https://dc.lft.to/lastmile_qr_scan", "ios": "https://dc.lft.to/lastmile_qr_scan"}, "fusion_lon": 0.0, "lat": 38.90640833333333, "bike_id": "8576fbfa06e74c0f1854b6af384a03ec", "type": "electric_scooter", "is_reserved": 0, "lon": -77.04879133333333}, {"fusion_lat": 0.0, "name": "ac35c988e94217556779522c4bd112ad", "is_disabled": 0, "rental_uris": {"android": "https://dc.lft.to/lastmile_qr_scan", "ios": "https://dc.lft.to/lastmile_qr_scan"}, "fusion_lon": 0.0, "lat": 38.8854075, "bike_id": "ac35c988e94217556779522c4bd112ad", "type": "electric_scooter", "is_reserved": 0, "lon": -77.00050866666666}, {"fusion_lat": 0.0, "name": "32b215c06d814406362e682c40f8add4", "is_disabled": 0, "rental_uris": {"android": "https://dc.lft.to/lastmile_qr_scan", "ios": "https://dc.lft.to/lastmile_qr_scan"}, "fusion_lon": 0.0, "lat": 38.93698066666666, "bike_id": "32b215c06d814406362e682c40f8add4", "type": "electric_scooter", "is_reserved": 0, "lon": -77.05600916666667}, {"fusion_lat": 0.0, "name": "e5ad8077965e92e695f2c62992a44c60", "is_disabled": 0, "rental_uris": {"android": "https://dc.lft.to/lastmile_qr_scan", "ios": "https://dc.lft.to/lastmile_qr_scan"}, "fusion_lon": 0.0, "lat": 38.91109333333333, "bike_id": "e5ad8077965e92e695f2c62992a44c60", "type": "electric_scooter", "is_reserved": 0, "lon": -77.08135833333333}, {"fusion_lat": 0.0, "name": "4525a823ece2a0f6392ea6dbf3983e12", "is_disabled": 0, "rental_uris": {"android": "https://dc.lft.to/lastmile_qr_scan", "ios": "https://dc.lft.to/lastmile_qr_scan"}, "fusion_lon": 0.0, "lat": 38.93166433333333, "bike_id": "4525a823ece2a0f6392ea6dbf3983e12", "type": "electric_scooter", "is_reserved": 0, "lon": -77.0285235}, {"fusion_lat": 0.0, "name": "a404c8bbf5630588542dc60e38d96761", "is_disabled": 0, "rental_uris": {"android": "https://dc.lft.to/lastmile_qr_scan", "ios": "https://dc.lft.to/lastmile_qr_scan"}, "fusion_lon": 0.0, "lat": 38.8278785, "bike_id": "a404c8bbf5630588542dc60e38d96761", "type": "electric_bike", "is_reserved": 0, "lon": -77.124881}, {"fusion_lat": 0.0, "name": "5fb2eff98830a3c87b097d92146fb236", "is_disabled": 0, "rental_uris": {"android": "https://dc.lft.to/lastmile_qr_scan", "ios": "https://dc.lft.to/lastmile_qr_scan"}, "fusion_lon": 0.0, "lat": 38.88736933333333, "bike_id": "5fb2eff98830a3c87b097d92146fb236", "type": "electric_scooter", "is_reserved": 0, "lon": -77.00337083333334}, {"fusion_lat": 0.0, "name": "24438dae9b4c4ddfbd8c6bdd9cf33f82", "is_disabled": 0, "rental_uris": {"android": "https://dc.lft.to/lastmile_qr_scan", "ios": "https://dc.lft.to/lastmile_qr_scan"}, "fusion_lon": 0.0, "lat": 38.8974525, "bike_id": "24438dae9b4c4ddfbd8c6bdd9cf33f82", "type": "electric_scooter", "is_reserved": 0, "lon": -77.02331583333333}, {"fusion_lat": 0.0, "name": "b459b855fe3259a132a5b27d726c2b61", "is_disabled": 0, "rental_uris": {"android": "https://dc.lft.to/lastmile_qr_scan", "ios": "https://dc.lft.to/lastmile_qr_scan"}, "fusion_lon": 0.0, "lat": 38.917568833333334, "bike_id": "b459b855fe3259a132a5b27d726c2b61", "type": "electric_scooter", "is_reserved": 0, "lon": -77.03070533333333}, {"fusion_lat": 0.0, "name": "b0096c4fd0ed445c92503b7ead573f6a", "is_disabled": 0, "rental_uris": {"android": "https://dc.lft.to/lastmile_qr_scan", "ios": "https://dc.lft.to/lastmile_qr_scan"}, "fusion_lon": 0.0, "lat": 38.909543666666664, "bike_id": "b0096c4fd0ed445c92503b7ead573f6a", "type": "electric_bike", "is_reserved": 0, "lon": -76.98440716666667}, {"fusion_lat": 0.0, "name": "1637c6999d4e7913fdcaf80cdaa53b25", "is_disabled": 0, "rental_uris": {"android": "https://dc.lft.to/lastmile_qr_scan", "ios": "https://dc.lft.to/lastmile_qr_scan"}, "fusion_lon": 0.0, "lat": 38.917713666666664, "bike_id": "1637c6999d4e7913fdcaf80cdaa53b25", "type": "electric_scooter", "is_reserved": 0, "lon": -77.01457116666667}, {"fusion_lat": 0.0, "name": "6eadd440fc342e21968a3f52b083ecdf", "is_disabled": 0, "rental_uris": {"android": "https://dc.lft.to/lastmile_qr_scan", "ios": "https://dc.lft.to/lastmile_qr_scan"}, "fusion_lon": 0.0, "lat": 38.86630783333333, "bike_id": "6eadd440fc342e21968a3f52b083ecdf", "type": "electric_scooter", "is_reserved": 0, "lon": -76.9871135}, {"fusion_lat": 0.0, "name": "1ccaaf1c3a8b8d0c4e7a2fca5f2603b5", "is_disabled": 0, "rental_uris": {"android": "https://dc.lft.to/lastmile_qr_scan", "ios": "https://dc.lft.to/lastmile_qr_scan"}, "fusion_lon": 0.0, "lat": 38.89733566666666, "bike_id": "1ccaaf1c3a8b8d0c4e7a2fca5f2603b5", "type": "electric_scooter", "is_reserved": 0, "lon": -77.02343033333334}, {"fusion_lat": 0.0, "name": "7bdbf4e2ed56eea37d9ce56ffd6c6b0f", "is_disabled": 0, "rental_uris": {"android": "https://dc.lft.to/lastmile_qr_scan", "ios": "https://dc.lft.to/lastmile_qr_scan"}, "fusion_lon": 0.0, "lat": 38.922463666666665, "bike_id": "7bdbf4e2ed56eea37d9ce56ffd6c6b0f", "type": "electric_scooter", "is_reserved": 0, "lon": -77.0299155}, {"fusion_lat": 0.0, "name": "eb9d7a3754872d748e59b8b206a42d8e", "is_disabled": 0, "rental_uris": {"android": "https://dc.lft.to/lastmile_qr_scan", "ios": "https://dc.lft.to/lastmile_qr_scan"}, "fusion_lon": 0.0, "lat": 38.902727166666665, "bike_id": "eb9d7a3754872d748e59b8b206a42d8e", "type": "electric_scooter", "is_reserved": 0, "lon": -77.0531865}, {"fusion_lat": 0.0, "name": "12d3f5d91878e1b1ecb9185a21dbbde7", "is_disabled": 0, "rental_uris": {"android": "https://dc.lft.to/lastmile_qr_scan", "ios": "https://dc.lft.to/lastmile_qr_scan"}, "fusion_lon": 0.0, "lat": 38.92688583333333, "bike_id": "12d3f5d91878e1b1ecb9185a21dbbde7", "type": "electric_scooter", "is_reserved": 0, "lon": -77.0218615}, {"fusion_lat": 0.0, "name": "5150581a17773ae41dc56090a59a8e8e", "is_disabled": 0, "rental_uris": {"android": "https://dc.lft.to/lastmile_qr_scan", "ios": "https://dc.lft.to/lastmile_qr_scan"}, "fusion_lon": 0.0, "lat": 38.920479666666665, "bike_id": "5150581a17773ae41dc56090a59a8e8e", "type": "electric_scooter", "is_reserved": 0, "lon": -77.02191266666667}, {"fusion_lat": 0.0, "name": "bea3c7bbc463dadb2a2b08ae68043a01", "is_disabled": 0, "rental_uris": {"android": "https://dc.lft.to/lastmile_qr_scan", "ios": "https://dc.lft.to/lastmile_qr_scan"}, "fusion_lon": 0.0, "lat": 38.9199085, "bike_id": "bea3c7bbc463dadb2a2b08ae68043a01", "type": "electric_scooter", "is_reserved": 0, "lon": -77.023721}, {"fusion_lat": 0.0, "name": "40ee941749e4e553b148a02cbf266fef", "is_disabled": 0, "rental_uris": {"android": "https://dc.lft.to/lastmile_qr_scan", "ios": "https://dc.lft.to/lastmile_qr_scan"}, "fusion_lon": 0.0, "lat": 38.92594066666667, "bike_id": "40ee941749e4e553b148a02cbf266fef", "type": "electric_scooter", "is_reserved": 0, "lon": -77.04397083333333}, {"fusion_lat": 0.0, "name": "0d4c82e6de12a5c390812d2b2bc3094e", "is_disabled": 0, "rental_uris": {"android": "https://dc.lft.to/lastmile_qr_scan", "ios": "https://dc.lft.to/lastmile_qr_scan"}, "fusion_lon": 0.0, "lat": 38.91766783333333, "bike_id": "0d4c82e6de12a5c390812d2b2bc3094e", "type": "electric_scooter", "is_reserved": 0, "lon": -77.02282133333334}, {"fusion_lat": 0.0, "name": "f38570e3ed7ea25c3eb338b12bd3f84a", "is_disabled": 0, "rental_uris": {"android": "https://dc.lft.to/lastmile_qr_scan", "ios": "https://dc.lft.to/lastmile_qr_scan"}, "fusion_lon": 0.0, "lat": 38.931160166666665, "bike_id": "f38570e3ed7ea25c3eb338b12bd3f84a", "type": "electric_scooter", "is_reserved": 0, "lon": -77.02130633333333}, {"fusion_lat": 0.0, "name": "677db07b483fc10df89baca3aa2b8dea", "is_disabled": 0, "rental_uris": {"android": "https://dc.lft.to/lastmile_qr_scan", "ios": "https://dc.lft.to/lastmile_qr_scan"}, "fusion_lon": 0.0, "lat": 38.93299316666667, "bike_id": "677db07b483fc10df89baca3aa2b8dea", "type": "electric_scooter", "is_reserved": 0, "lon": -77.0399675}, {"fusion_lat": 0.0, "name": "08f79159bdb61becee1044ff91e97004", "is_disabled": 0, "rental_uris": {"android": "https://dc.lft.to/lastmile_qr_scan", "ios": "https://dc.lft.to/lastmile_qr_scan"}, "fusion_lon": 0.0, "lat": 38.92793066666667, "bike_id": "08f79159bdb61becee1044ff91e97004", "type": "electric_scooter", "is_reserved": 0, "lon": -77.03151883333334}, {"fusion_lat": 0.0, "name": "61b1569ef1cfeee865b961daed01a845", "is_disabled": 0, "rental_uris": {"android": "https://dc.lft.to/lastmile_qr_scan", "ios": "https://dc.lft.to/lastmile_qr_scan"}, "fusion_lon": 0.0, "lat": 38.88944466666667, "bike_id": "61b1569ef1cfeee865b961daed01a845", "type": "electric_scooter", "is_reserved": 0, "lon": -76.99163366666667}, {"fusion_lat": 0.0, "name": "c0c5621ef687ed70af29056469854724", "is_disabled": 0, "rental_uris": {"android": "https://dc.lft.to/lastmile_qr_scan", "ios": "https://dc.lft.to/lastmile_qr_scan"}, "fusion_lon": 0.0, "lat": 38.924770333333335, "bike_id": "c0c5621ef687ed70af29056469854724", "type": "electric_scooter", "is_reserved": 0, "lon": -77.02554433333333}, {"fusion_lat": 0.0, "name": "435cb302189fff50d14df37ba7c130f4", "is_disabled": 0, "rental_uris": {"android": "https://dc.lft.to/lastmile_qr_scan", "ios": "https://dc.lft.to/lastmile_qr_scan"}, "fusion_lon": 0.0, "lat": 38.92786533333334, "bike_id": "435cb302189fff50d14df37ba7c130f4", "type": "electric_scooter", "is_reserved": 0, "lon": -77.0258375}, {"fusion_lat": 0.0, "name": "69c88f48c0459aa3865f03fe7f16d29e", "is_disabled": 0, "rental_uris": {"android": "https://dc.lft.to/lastmile_qr_scan", "ios": "https://dc.lft.to/lastmile_qr_scan"}, "fusion_lon": 0.0, "lat": 38.928777833333335, "bike_id": "69c88f48c0459aa3865f03fe7f16d29e", "type": "electric_scooter", "is_reserved": 0, "lon": -77.05443966666667}, {"fusion_lat": 0.0, "name": "e0a26352a9328ad59444afc1078be597", "is_disabled": 0, "rental_uris": {"android": "https://dc.lft.to/lastmile_qr_scan", "ios": "https://dc.lft.to/lastmile_qr_scan"}, "fusion_lon": 0.0, "lat": 38.863662166666664, "bike_id": "e0a26352a9328ad59444afc1078be597", "type": "electric_bike", "is_reserved": 0, "lon": -76.9700995}, {"fusion_lat": 0.0, "name": "8eaf11122fd965cf7558f6cea36f0343", "is_disabled": 0, "rental_uris": {"android": "https://dc.lft.to/lastmile_qr_scan", "ios": "https://dc.lft.to/lastmile_qr_scan"}, "fusion_lon": 0.0, "lat": 38.9284705, "bike_id": "8eaf11122fd965cf7558f6cea36f0343", "type": "electric_scooter", "is_reserved": 0, "lon": -77.03255866666667}, {"fusion_lat": 0.0, "name": "39d40283761350e6ea84fc26f1f72177", "is_disabled": 0, "rental_uris": {"android": "https://dc.lft.to/lastmile_qr_scan", "ios": "https://dc.lft.to/lastmile_qr_scan"}, "fusion_lon": 0.0, "lat": 38.90572, "bike_id": "39d40283761350e6ea84fc26f1f72177", "type": "electric_scooter", "is_reserved": 0, "lon": -77.026513}, {"fusion_lat": 0.0, "name": "6f26232b9e3036406f80dd3a4e50907f", "is_disabled": 0, "rental_uris": {"android": "https://dc.lft.to/lastmile_qr_scan", "ios": "https://dc.lft.to/lastmile_qr_scan"}, "fusion_lon": 0.0, "lat": 38.905048666666666, "bike_id": "6f26232b9e3036406f80dd3a4e50907f", "type": "electric_scooter", "is_reserved": 0, "lon": -77.06117816666666}, {"fusion_lat": 0.0, "name": "36b146f0f30b910448a043e51586a36b", "is_disabled": 0, "rental_uris": {"android": "https://dc.lft.to/lastmile_qr_scan", "ios": "https://dc.lft.to/lastmile_qr_scan"}, "fusion_lon": 0.0, "lat": 38.941604, "bike_id": "36b146f0f30b910448a043e51586a36b", "type": "electric_scooter", "is_reserved": 0, "lon": -77.02502283333334}, {"fusion_lat": 0.0, "name": "00d6bb2320a70207cd4ee46d105b5b24", "is_disabled": 0, "rental_uris": {"android": "https://dc.lft.to/lastmile_qr_scan", "ios": "https://dc.lft.to/lastmile_qr_scan"}, "fusion_lon": 0.0, "lat": 38.9206145, "bike_id": "00d6bb2320a70207cd4ee46d105b5b24", "type": "electric_scooter", "is_reserved": 0, "lon": -77.02386066666666}, {"fusion_lat": 0.0, "name": "e67edd2b8461568cc2438bbe01e913ad", "is_disabled": 0, "rental_uris": {"android": "https://dc.lft.to/lastmile_qr_scan", "ios": "https://dc.lft.to/lastmile_qr_scan"}, "fusion_lon": 0.0, "lat": 38.916669166666665, "bike_id": "e67edd2b8461568cc2438bbe01e913ad", "type": "electric_scooter", "is_reserved": 0, "lon": -77.02976316666667}, {"fusion_lat": 0.0, "name": "3afc02ccd9c19ef99bd44e6ab4110665", "is_disabled": 0, "rental_uris": {"android": "https://dc.lft.to/lastmile_qr_scan", "ios": "https://dc.lft.to/lastmile_qr_scan"}, "fusion_lon": 0.0, "lat": 38.9306665, "bike_id": "3afc02ccd9c19ef99bd44e6ab4110665", "type": "electric_scooter", "is_reserved": 0, "lon": -77.029826}, {"fusion_lat": 0.0, "name": "e43a3fa4f9a126710d250b3a828b490f", "is_disabled": 0, "rental_uris": {"android": "https://dc.lft.to/lastmile_qr_scan", "ios": "https://dc.lft.to/lastmile_qr_scan"}, "fusion_lon": 0.0, "lat": 38.905632833333335, "bike_id": "e43a3fa4f9a126710d250b3a828b490f", "type": "electric_scooter", "is_reserved": 0, "lon": -77.013127}, {"fusion_lat": 0.0, "name": "9fc78ee1e87cbd26629de08579dc0b88", "is_disabled": 0, "rental_uris": {"android": "https://dc.lft.to/lastmile_qr_scan", "ios": "https://dc.lft.to/lastmile_qr_scan"}, "fusion_lon": 0.0, "lat": 38.871783666666666, "bike_id": "9fc78ee1e87cbd26629de08579dc0b88", "type": "electric_scooter", "is_reserved": 0, "lon": -77.00616166666667}, {"fusion_lat": 0.0, "name": "2b9d097ac1b3d075d2d419432e64d0c6", "is_disabled": 0, "rental_uris": {"android": "https://dc.lft.to/lastmile_qr_scan", "ios": "https://dc.lft.to/lastmile_qr_scan"}, "fusion_lon": 0.0, "lat": 38.9179745, "bike_id": "2b9d097ac1b3d075d2d419432e64d0c6", "type": "electric_scooter", "is_reserved": 0, "lon": -77.03430216666666}, {"fusion_lat": 0.0, "name": "d253e5cddb49862ddb683f24139f12e6", "is_disabled": 0, "rental_uris": {"android": "https://dc.lft.to/lastmile_qr_scan", "ios": "https://dc.lft.to/lastmile_qr_scan"}, "fusion_lon": 0.0, "lat": 38.931866166666666, "bike_id": "d253e5cddb49862ddb683f24139f12e6", "type": "electric_scooter", "is_reserved": 0, "lon": -77.04302883333334}, {"fusion_lat": 0.0, "name": "cf238cf1c9891b7cc106f64618ed5c43", "is_disabled": 0, "rental_uris": {"android": "https://dc.lft.to/lastmile_qr_scan", "ios": "https://dc.lft.to/lastmile_qr_scan"}, "fusion_lon": 0.0, "lat": 38.91708033333333, "bike_id": "cf238cf1c9891b7cc106f64618ed5c43", "type": "electric_scooter", "is_reserved": 0, "lon": -77.0412335}, {"fusion_lat": 0.0, "name": "532413b9f565efae0e33e3d87383b527", "is_disabled": 0, "rental_uris": {"android": "https://dc.lft.to/lastmile_qr_scan", "ios": "https://dc.lft.to/lastmile_qr_scan"}, "fusion_lon": 0.0, "lat": 38.9110955, "bike_id": "532413b9f565efae0e33e3d87383b527", "type": "electric_scooter", "is_reserved": 0, "lon": -77.02174016666666}, {"fusion_lat": 0.0, "name": "2423ab8200b801aa217fb021c5b619a1", "is_disabled": 0, "rental_uris": {"android": "https://dc.lft.to/lastmile_qr_scan", "ios": "https://dc.lft.to/lastmile_qr_scan"}, "fusion_lon": 0.0, "lat": 38.85798533333333, "bike_id": "2423ab8200b801aa217fb021c5b619a1", "type": "electric_bike", "is_reserved": 0, "lon": -77.12015666666667}, {"fusion_lat": 0.0, "name": "c0364ceda6ade2979f1581f21358a5f9", "is_disabled": 0, "rental_uris": {"android": "https://dc.lft.to/lastmile_qr_scan", "ios": "https://dc.lft.to/lastmile_qr_scan"}, "fusion_lon": 0.0, "lat": 38.918153333333336, "bike_id": "c0364ceda6ade2979f1581f21358a5f9", "type": "electric_scooter", "is_reserved": 0, "lon": -77.037955}, {"fusion_lat": 0.0, "name": "f2464194f3079bcd638da4ce0c74c54d", "is_disabled": 0, "rental_uris": {"android": "https://dc.lft.to/lastmile_qr_scan", "ios": "https://dc.lft.to/lastmile_qr_scan"}, "fusion_lon": 0.0, "lat": 38.9032315, "bike_id": "f2464194f3079bcd638da4ce0c74c54d", "type": "electric_scooter", "is_reserved": 0, "lon": -77.06531566666666}, {"fusion_lat": 0.0, "name": "f498d41818c94c091501ef6370043206", "is_disabled": 0, "rental_uris": {"android": "https://dc.lft.to/lastmile_qr_scan", "ios": "https://dc.lft.to/lastmile_qr_scan"}, "fusion_lon": 0.0, "lat": 38.91664316666667, "bike_id": "f498d41818c94c091501ef6370043206", "type": "electric_scooter", "is_reserved": 0, "lon": -77.02274383333334}, {"fusion_lat": 0.0, "name": "27b31e3c689da706b296e4a5384ce4c8", "is_disabled": 0, "rental_uris": {"android": "https://dc.lft.to/lastmile_qr_scan", "ios": "https://dc.lft.to/lastmile_qr_scan"}, "fusion_lon": 0.0, "lat": 38.900346666666664, "bike_id": "27b31e3c689da706b296e4a5384ce4c8", "type": "electric_scooter", "is_reserved": 0, "lon": -77.03200766666667}, {"fusion_lat": 0.0, "name": "4fc0cc217a5256bc1662f968d384a922", "is_disabled": 0, "rental_uris": {"android": "https://dc.lft.to/lastmile_qr_scan", "ios": "https://dc.lft.to/lastmile_qr_scan"}, "fusion_lon": 0.0, "lat": 38.92960516666667, "bike_id": "4fc0cc217a5256bc1662f968d384a922", "type": "electric_scooter", "is_reserved": 0, "lon": -77.0297655}, {"fusion_lat": 0.0, "name": "6177f26b810cb9c76615ec3d962c589d", "is_disabled": 0, "rental_uris": {"android": "https://dc.lft.to/lastmile_qr_scan", "ios": "https://dc.lft.to/lastmile_qr_scan"}, "fusion_lon": 0.0, "lat": 38.92316566666667, "bike_id": "6177f26b810cb9c76615ec3d962c589d", "type": "electric_scooter", "is_reserved": 0, "lon": -77.02905}, {"fusion_lat": 0.0, "name": "d8a753619942c8a61d73845cf25480e7", "is_disabled": 0, "rental_uris": {"android": "https://dc.lft.to/lastmile_qr_scan", "ios": "https://dc.lft.to/lastmile_qr_scan"}, "fusion_lon": 0.0, "lat": 38.932128, "bike_id": "d8a753619942c8a61d73845cf25480e7", "type": "electric_scooter", "is_reserved": 0, "lon": -77.03519716666666}, {"fusion_lat": 0.0, "name": "0d2e90c232ebd0756febaf82fc02a17f", "is_disabled": 0, "rental_uris": {"android": "https://dc.lft.to/lastmile_qr_scan", "ios": "https://dc.lft.to/lastmile_qr_scan"}, "fusion_lon": 0.0, "lat": 38.88561633333333, "bike_id": "0d2e90c232ebd0756febaf82fc02a17f", "type": "electric_scooter", "is_reserved": 0, "lon": -76.97718733333333}, {"fusion_lat": 0.0, "name": "c8d213646d796802225aaf3bcbebb695", "is_disabled": 0, "rental_uris": {"android": "https://dc.lft.to/lastmile_qr_scan", "ios": "https://dc.lft.to/lastmile_qr_scan"}, "fusion_lon": 0.0, "lat": 38.91664016666667, "bike_id": "c8d213646d796802225aaf3bcbebb695", "type": "electric_scooter", "is_reserved": 0, "lon": -77.02818066666667}, {"fusion_lat": 0.0, "name": "fd6627bb0e1aa3d298de4725ec53751a", "is_disabled": 0, "rental_uris": {"android": "https://dc.lft.to/lastmile_qr_scan", "ios": "https://dc.lft.to/lastmile_qr_scan"}, "fusion_lon": 0.0, "lat": 38.919203833333334, "bike_id": "fd6627bb0e1aa3d298de4725ec53751a", "type": "electric_scooter", "is_reserved": 0, "lon": -77.00965883333333}, {"fusion_lat": 0.0, "name": "1e9017183242acdaa750559554e13280", "is_disabled": 0, "rental_uris": {"android": "https://dc.lft.to/lastmile_qr_scan", "ios": "https://dc.lft.to/lastmile_qr_scan"}, "fusion_lon": 0.0, "lat": 38.9006185, "bike_id": "1e9017183242acdaa750559554e13280", "type": "electric_scooter", "is_reserved": 0, "lon": -77.05426366666667}, {"fusion_lat": 0.0, "name": "d290ea3065b0230c9927b3ed8ffedc14", "is_disabled": 0, "rental_uris": {"android": "https://dc.lft.to/lastmile_qr_scan", "ios": "https://dc.lft.to/lastmile_qr_scan"}, "fusion_lon": 0.0, "lat": 38.9211215, "bike_id": "d290ea3065b0230c9927b3ed8ffedc14", "type": "electric_scooter", "is_reserved": 0, "lon": -77.04174033333334}, {"fusion_lat": 0.0, "name": "f07c2226d38aa7ac6ac1b31fd08484cc", "is_disabled": 0, "rental_uris": {"android": "https://dc.lft.to/lastmile_qr_scan", "ios": "https://dc.lft.to/lastmile_qr_scan"}, "fusion_lon": 0.0, "lat": 38.90896466666667, "bike_id": "f07c2226d38aa7ac6ac1b31fd08484cc", "type": "electric_scooter", "is_reserved": 0, "lon": -76.99857433333334}, {"fusion_lat": 0.0, "name": "5ba8092dc49c2e32abeaf446c11db42f", "is_disabled": 0, "rental_uris": {"android": "https://dc.lft.to/lastmile_qr_scan", "ios": "https://dc.lft.to/lastmile_qr_scan"}, "fusion_lon": 0.0, "lat": 38.90516916666667, "bike_id": "5ba8092dc49c2e32abeaf446c11db42f", "type": "electric_scooter", "is_reserved": 0, "lon": -77.06884916666667}, {"fusion_lat": 0.0, "name": "147a5ec9c6ffca5770717211b1939a9f", "is_disabled": 0, "rental_uris": {"android": "https://dc.lft.to/lastmile_qr_scan", "ios": "https://dc.lft.to/lastmile_qr_scan"}, "fusion_lon": 0.0, "lat": 38.95922483333333, "bike_id": "147a5ec9c6ffca5770717211b1939a9f", "type": "electric_bike", "is_reserved": 0, "lon": -77.03120233333334}, {"fusion_lat": 0.0, "name": "8db688d05e71c106e679af1f6aa6b2ef", "is_disabled": 0, "rental_uris": {"android": "https://dc.lft.to/lastmile_qr_scan", "ios": "https://dc.lft.to/lastmile_qr_scan"}, "fusion_lon": 0.0, "lat": 38.8862985, "bike_id": "8db688d05e71c106e679af1f6aa6b2ef", "type": "electric_scooter", "is_reserved": 0, "lon": -77.01955116666667}, {"fusion_lat": 0.0, "name": "1359bcb4b06f96761b16fd868a3d1976", "is_disabled": 0, "rental_uris": {"android": "https://dc.lft.to/lastmile_qr_scan", "ios": "https://dc.lft.to/lastmile_qr_scan"}, "fusion_lon": 0.0, "lat": 38.911174833333334, "bike_id": "1359bcb4b06f96761b16fd868a3d1976", "type": "electric_scooter", "is_reserved": 0, "lon": -76.99764516666667}, {"fusion_lat": 0.0, "name": "eb9f1503fde457957db132a828e0b0d3", "is_disabled": 0, "rental_uris": {"android": "https://dc.lft.to/lastmile_qr_scan", "ios": "https://dc.lft.to/lastmile_qr_scan"}, "fusion_lon": 0.0, "lat": 38.89942116666667, "bike_id": "eb9f1503fde457957db132a828e0b0d3", "type": "electric_scooter", "is_reserved": 0, "lon": -77.007022}, {"fusion_lat": 0.0, "name": "81a30c4def391ddd1c94a069021da3ed", "is_disabled": 0, "rental_uris": {"android": "https://dc.lft.to/lastmile_qr_scan", "ios": "https://dc.lft.to/lastmile_qr_scan"}, "fusion_lon": 0.0, "lat": 38.88612033333333, "bike_id": "81a30c4def391ddd1c94a069021da3ed", "type": "electric_scooter", "is_reserved": 0, "lon": -77.01247966666666}, {"fusion_lat": 0.0, "name": "1f518f76faf0fd8a7e535cbb05999acb", "is_disabled": 0, "rental_uris": {"android": "https://dc.lft.to/lastmile_qr_scan", "ios": "https://dc.lft.to/lastmile_qr_scan"}, "fusion_lon": 0.0, "lat": 38.89918816666667, "bike_id": "1f518f76faf0fd8a7e535cbb05999acb", "type": "electric_scooter", "is_reserved": 0, "lon": -76.98537266666666}, {"fusion_lat": 0.0, "name": "b287b0997ab480fc93cb284e088bd7ec", "is_disabled": 0, "rental_uris": {"android": "https://dc.lft.to/lastmile_qr_scan", "ios": "https://dc.lft.to/lastmile_qr_scan"}, "fusion_lon": 0.0, "lat": 38.913417, "bike_id": "b287b0997ab480fc93cb284e088bd7ec", "type": "electric_scooter", "is_reserved": 0, "lon": -77.0427025}, {"fusion_lat": 0.0, "name": "8e1de7b8211fb11ae697b87c347043ae", "is_disabled": 0, "rental_uris": {"android": "https://dc.lft.to/lastmile_qr_scan", "ios": "https://dc.lft.to/lastmile_qr_scan"}, "fusion_lon": 0.0, "lat": 38.95297766666667, "bike_id": "8e1de7b8211fb11ae697b87c347043ae", "type": "electric_scooter", "is_reserved": 0, "lon": -77.06850016666667}, {"fusion_lat": 0.0, "name": "52aead06a75f3fc6cf7574e3c450e0a1", "is_disabled": 0, "rental_uris": {"android": "https://dc.lft.to/lastmile_qr_scan", "ios": "https://dc.lft.to/lastmile_qr_scan"}, "fusion_lon": 0.0, "lat": 38.92894733333333, "bike_id": "52aead06a75f3fc6cf7574e3c450e0a1", "type": "electric_bike", "is_reserved": 0, "lon": -77.231795}, {"fusion_lat": 0.0, "name": "9fa613e00082e3f80f2d200ff58c9fdf", "is_disabled": 0, "rental_uris": {"android": "https://dc.lft.to/lastmile_qr_scan", "ios": "https://dc.lft.to/lastmile_qr_scan"}, "fusion_lon": 0.0, "lat": 38.9128855, "bike_id": "9fa613e00082e3f80f2d200ff58c9fdf", "type": "electric_scooter", "is_reserved": 0, "lon": -77.023021}, {"fusion_lat": 0.0, "name": "16839e0f798cad950b215bf2755ca488", "is_disabled": 0, "rental_uris": {"android": "https://dc.lft.to/lastmile_qr_scan", "ios": "https://dc.lft.to/lastmile_qr_scan"}, "fusion_lon": 0.0, "lat": 38.897434833333335, "bike_id": "16839e0f798cad950b215bf2755ca488", "type": "electric_scooter", "is_reserved": 0, "lon": -77.04922916666666}, {"fusion_lat": 0.0, "name": "052aeef3de141466fcc7936465da85ae", "is_disabled": 0, "rental_uris": {"android": "https://dc.lft.to/lastmile_qr_scan", "ios": "https://dc.lft.to/lastmile_qr_scan"}, "fusion_lon": 0.0, "lat": 38.897930833333334, "bike_id": "052aeef3de141466fcc7936465da85ae", "type": "electric_scooter", "is_reserved": 0, "lon": -77.01192516666667}, {"fusion_lat": 0.0, "name": "c1e2a232872446d69f6d152751c2a9a4", "is_disabled": 0, "rental_uris": {"android": "https://dc.lft.to/lastmile_qr_scan", "ios": "https://dc.lft.to/lastmile_qr_scan"}, "fusion_lon": 0.0, "lat": 38.89234033333334, "bike_id": "c1e2a232872446d69f6d152751c2a9a4", "type": "electric_scooter", "is_reserved": 0, "lon": -77.02113933333334}, {"fusion_lat": 0.0, "name": "e3f5ea7076c4c2688aa47d7273f937b0", "is_disabled": 0, "rental_uris": {"android": "https://dc.lft.to/lastmile_qr_scan", "ios": "https://dc.lft.to/lastmile_qr_scan"}, "fusion_lon": 0.0, "lat": 38.903385666666665, "bike_id": "e3f5ea7076c4c2688aa47d7273f937b0", "type": "electric_scooter", "is_reserved": 0, "lon": -77.044876}, {"fusion_lat": 0.0, "name": "a13b6b6b236e7eeb38d2a48b36d7c301", "is_disabled": 0, "rental_uris": {"android": "https://dc.lft.to/lastmile_qr_scan", "ios": "https://dc.lft.to/lastmile_qr_scan"}, "fusion_lon": 0.0, "lat": 38.86057366666667, "bike_id": "a13b6b6b236e7eeb38d2a48b36d7c301", "type": "electric_scooter", "is_reserved": 0, "lon": -76.97130333333334}, {"fusion_lat": 0.0, "name": "7da98a501ec8126c69b521f097a703d3", "is_disabled": 0, "rental_uris": {"android": "https://dc.lft.to/lastmile_qr_scan", "ios": "https://dc.lft.to/lastmile_qr_scan"}, "fusion_lon": 0.0, "lat": 38.91416383333333, "bike_id": "7da98a501ec8126c69b521f097a703d3", "type": "electric_scooter", "is_reserved": 0, "lon": -77.02213233333333}, {"fusion_lat": 0.0, "name": "325b932b7de2189371fe5728d5835eb3", "is_disabled": 0, "rental_uris": {"android": "https://dc.lft.to/lastmile_qr_scan", "ios": "https://dc.lft.to/lastmile_qr_scan"}, "fusion_lon": 0.0, "lat": 38.92416, "bike_id": "325b932b7de2189371fe5728d5835eb3", "type": "electric_scooter", "is_reserved": 0, "lon": -77.04456416666666}, {"fusion_lat": 0.0, "name": "f8b22b74d6f0e23e389f85ebc968bc8c", "is_disabled": 0, "rental_uris": {"android": "https://dc.lft.to/lastmile_qr_scan", "ios": "https://dc.lft.to/lastmile_qr_scan"}, "fusion_lon": 0.0, "lat": 38.89616016666667, "bike_id": "f8b22b74d6f0e23e389f85ebc968bc8c", "type": "electric_bike", "is_reserved": 0, "lon": -76.9074505}, {"fusion_lat": 0.0, "name": "7de28226323e7224aebd136aafcf318b", "is_disabled": 0, "rental_uris": {"android": "https://dc.lft.to/lastmile_qr_scan", "ios": "https://dc.lft.to/lastmile_qr_scan"}, "fusion_lon": 0.0, "lat": 38.92339, "bike_id": "7de28226323e7224aebd136aafcf318b", "type": "electric_scooter", "is_reserved": 0, "lon": -77.0529735}, {"fusion_lat": 0.0, "name": "f3498525a12b5810b5156d11c94f27af", "is_disabled": 0, "rental_uris": {"android": "https://dc.lft.to/lastmile_qr_scan", "ios": "https://dc.lft.to/lastmile_qr_scan"}, "fusion_lon": 0.0, "lat": 38.92690483333333, "bike_id": "f3498525a12b5810b5156d11c94f27af", "type": "electric_scooter", "is_reserved": 0, "lon": -77.014744}, {"fusion_lat": 0.0, "name": "095cb209995a4df3a0cab9c74eabd8f2", "is_disabled": 0, "rental_uris": {"android": "https://dc.lft.to/lastmile_qr_scan", "ios": "https://dc.lft.to/lastmile_qr_scan"}, "fusion_lon": 0.0, "lat": 38.931423, "bike_id": "095cb209995a4df3a0cab9c74eabd8f2", "type": "electric_scooter", "is_reserved": 0, "lon": -77.02985516666666}, {"fusion_lat": 0.0, "name": "77cb6e26805fd531e48eb7c5a5b3f966", "is_disabled": 0, "rental_uris": {"android": "https://dc.lft.to/lastmile_qr_scan", "ios": "https://dc.lft.to/lastmile_qr_scan"}, "fusion_lon": 0.0, "lat": 38.898322666666665, "bike_id": "77cb6e26805fd531e48eb7c5a5b3f966", "type": "electric_scooter", "is_reserved": 0, "lon": -77.04173233333333}, {"fusion_lat": 0.0, "name": "a909c756aacb3b93d3c41d257dd57f6b", "is_disabled": 0, "rental_uris": {"android": "https://dc.lft.to/lastmile_qr_scan", "ios": "https://dc.lft.to/lastmile_qr_scan"}, "fusion_lon": 0.0, "lat": 38.927468833333336, "bike_id": "a909c756aacb3b93d3c41d257dd57f6b", "type": "electric_scooter", "is_reserved": 0, "lon": -77.02537583333333}, {"fusion_lat": 0.0, "name": "7116a0908011ff5eac93d37c298248f5", "is_disabled": 0, "rental_uris": {"android": "https://dc.lft.to/lastmile_qr_scan", "ios": "https://dc.lft.to/lastmile_qr_scan"}, "fusion_lon": 0.0, "lat": 38.93114583333333, "bike_id": "7116a0908011ff5eac93d37c298248f5", "type": "electric_scooter", "is_reserved": 0, "lon": -77.03028066666667}, {"fusion_lat": 0.0, "name": "74eb1ebab0abcee4ffb7832ddc578830", "is_disabled": 0, "rental_uris": {"android": "https://dc.lft.to/lastmile_qr_scan", "ios": "https://dc.lft.to/lastmile_qr_scan"}, "fusion_lon": 0.0, "lat": 38.901757, "bike_id": "74eb1ebab0abcee4ffb7832ddc578830", "type": "electric_scooter", "is_reserved": 0, "lon": -77.01619333333333}, {"fusion_lat": 0.0, "name": "544f317b5ff578fb27d9672de7cabc7d", "is_disabled": 0, "rental_uris": {"android": "https://dc.lft.to/lastmile_qr_scan", "ios": "https://dc.lft.to/lastmile_qr_scan"}, "fusion_lon": 0.0, "lat": 38.91660566666667, "bike_id": "544f317b5ff578fb27d9672de7cabc7d", "type": "electric_scooter", "is_reserved": 0, "lon": -77.028146}, {"fusion_lat": 0.0, "name": "2f25868ec036942af96cf2a40883deb0", "is_disabled": 0, "rental_uris": {"android": "https://dc.lft.to/lastmile_qr_scan", "ios": "https://dc.lft.to/lastmile_qr_scan"}, "fusion_lon": 0.0, "lat": 38.878801833333334, "bike_id": "2f25868ec036942af96cf2a40883deb0", "type": "electric_scooter", "is_reserved": 0, "lon": -77.02227683333334}, {"fusion_lat": 0.0, "name": "9c5b33a9fea4581a2bca4ed247f4cd52", "is_disabled": 0, "rental_uris": {"android": "https://dc.lft.to/lastmile_qr_scan", "ios": "https://dc.lft.to/lastmile_qr_scan"}, "fusion_lon": 0.0, "lat": 38.94116133333333, "bike_id": "9c5b33a9fea4581a2bca4ed247f4cd52", "type": "electric_scooter", "is_reserved": 0, "lon": -77.02543966666667}, {"fusion_lat": 0.0, "name": "64a8e3c4c1389dd10f4c7d20f7c08ec4", "is_disabled": 0, "rental_uris": {"android": "https://dc.lft.to/lastmile_qr_scan", "ios": "https://dc.lft.to/lastmile_qr_scan"}, "fusion_lon": 0.0, "lat": 38.9029005, "bike_id": "64a8e3c4c1389dd10f4c7d20f7c08ec4", "type": "electric_scooter", "is_reserved": 0, "lon": -76.97635716666667}, {"fusion_lat": 0.0, "name": "c53d114cd317e0149ae2c1e8ffa75301", "is_disabled": 0, "rental_uris": {"android": "https://dc.lft.to/lastmile_qr_scan", "ios": "https://dc.lft.to/lastmile_qr_scan"}, "fusion_lon": 0.0, "lat": 38.938609166666666, "bike_id": "c53d114cd317e0149ae2c1e8ffa75301", "type": "electric_scooter", "is_reserved": 0, "lon": -77.02329166666667}, {"fusion_lat": 0.0, "name": "ccd5a91b1bd441f96157ab5b401d8738", "is_disabled": 0, "rental_uris": {"android": "https://dc.lft.to/lastmile_qr_scan", "ios": "https://dc.lft.to/lastmile_qr_scan"}, "fusion_lon": 0.0, "lat": 38.896265666666665, "bike_id": "ccd5a91b1bd441f96157ab5b401d8738", "type": "electric_scooter", "is_reserved": 0, "lon": -77.03170383333334}, {"fusion_lat": 0.0, "name": "897d92041c65ef4347347ed895d544d3", "is_disabled": 0, "rental_uris": {"android": "https://dc.lft.to/lastmile_qr_scan", "ios": "https://dc.lft.to/lastmile_qr_scan"}, "fusion_lon": 0.0, "lat": 38.9977825, "bike_id": "897d92041c65ef4347347ed895d544d3", "type": "electric_bike", "is_reserved": 0, "lon": -77.04717866666667}, {"fusion_lat": 0.0, "name": "c7d3c8eb136d71ae9b7eb8f1f9fcdd51", "is_disabled": 0, "rental_uris": {"android": "https://dc.lft.to/lastmile_qr_scan", "ios": "https://dc.lft.to/lastmile_qr_scan"}, "fusion_lon": 0.0, "lat": 38.903037, "bike_id": "c7d3c8eb136d71ae9b7eb8f1f9fcdd51", "type": "electric_bike", "is_reserved": 0, "lon": -76.97653766666667}, {"fusion_lat": 0.0, "name": "f94f7e64d028b79924085f5f70c81dbc", "is_disabled": 0, "rental_uris": {"android": "https://dc.lft.to/lastmile_qr_scan", "ios": "https://dc.lft.to/lastmile_qr_scan"}, "fusion_lon": 0.0, "lat": 38.918284, "bike_id": "f94f7e64d028b79924085f5f70c81dbc", "type": "electric_scooter", "is_reserved": 0, "lon": -77.03639966666667}, {"fusion_lat": 0.0, "name": "e39c4a60d08ce376619c2b59f3cb1809", "is_disabled": 0, "rental_uris": {"android": "https://dc.lft.to/lastmile_qr_scan", "ios": "https://dc.lft.to/lastmile_qr_scan"}, "fusion_lon": 0.0, "lat": 38.9415825, "bike_id": "e39c4a60d08ce376619c2b59f3cb1809", "type": "electric_scooter", "is_reserved": 0, "lon": -77.02627566666666}, {"fusion_lat": 0.0, "name": "787ecec8f1929cd3eb96b59a26a8b2b3", "is_disabled": 0, "rental_uris": {"android": "https://dc.lft.to/lastmile_qr_scan", "ios": "https://dc.lft.to/lastmile_qr_scan"}, "fusion_lon": 0.0, "lat": 38.92288633333333, "bike_id": "787ecec8f1929cd3eb96b59a26a8b2b3", "type": "electric_scooter", "is_reserved": 0, "lon": -77.0199495}, {"fusion_lat": 0.0, "name": "9a505ddc9a446f5df6ecc75a8be25982", "is_disabled": 0, "rental_uris": {"android": "https://dc.lft.to/lastmile_qr_scan", "ios": "https://dc.lft.to/lastmile_qr_scan"}, "fusion_lon": 0.0, "lat": 38.884149666666666, "bike_id": "9a505ddc9a446f5df6ecc75a8be25982", "type": "electric_scooter", "is_reserved": 0, "lon": -77.02179333333333}, {"fusion_lat": 0.0, "name": "918dc242d10c29bacde3992d8213a0cc", "is_disabled": 0, "rental_uris": {"android": "https://dc.lft.to/lastmile_qr_scan", "ios": "https://dc.lft.to/lastmile_qr_scan"}, "fusion_lon": 0.0, "lat": 38.935322166666666, "bike_id": "918dc242d10c29bacde3992d8213a0cc", "type": "electric_scooter", "is_reserved": 0, "lon": -77.02353266666667}, {"fusion_lat": 0.0, "name": "85155e8047e135ff2d155a2c6ad2616d", "is_disabled": 0, "rental_uris": {"android": "https://dc.lft.to/lastmile_qr_scan", "ios": "https://dc.lft.to/lastmile_qr_scan"}, "fusion_lon": 0.0, "lat": 38.933976, "bike_id": "85155e8047e135ff2d155a2c6ad2616d", "type": "electric_scooter", "is_reserved": 0, "lon": -77.05744633333333}, {"fusion_lat": 0.0, "name": "e7d9bddfb148306d89a37df8d45f668d", "is_disabled": 0, "rental_uris": {"android": "https://dc.lft.to/lastmile_qr_scan", "ios": "https://dc.lft.to/lastmile_qr_scan"}, "fusion_lon": 0.0, "lat": 38.96208133333333, "bike_id": "e7d9bddfb148306d89a37df8d45f668d", "type": "electric_scooter", "is_reserved": 0, "lon": -77.02233033333333}, {"fusion_lat": 0.0, "name": "e063a450d8aa5641ea4290273d633d98", "is_disabled": 0, "rental_uris": {"android": "https://dc.lft.to/lastmile_qr_scan", "ios": "https://dc.lft.to/lastmile_qr_scan"}, "fusion_lon": 0.0, "lat": 38.88716066666667, "bike_id": "e063a450d8aa5641ea4290273d633d98", "type": "electric_scooter", "is_reserved": 0, "lon": -77.0132775}, {"fusion_lat": 0.0, "name": "e2a0e61b6ae0a81a6393a6abd8e39f3b", "is_disabled": 0, "rental_uris": {"android": "https://dc.lft.to/lastmile_qr_scan", "ios": "https://dc.lft.to/lastmile_qr_scan"}, "fusion_lon": 0.0, "lat": 38.90502083333333, "bike_id": "e2a0e61b6ae0a81a6393a6abd8e39f3b", "type": "electric_scooter", "is_reserved": 0, "lon": -77.0179045}, {"fusion_lat": 0.0, "name": "4b1597c537bd539e8e2c3ba2fb5e881e", "is_disabled": 0, "rental_uris": {"android": "https://dc.lft.to/lastmile_qr_scan", "ios": "https://dc.lft.to/lastmile_qr_scan"}, "fusion_lon": 0.0, "lat": 38.9181775, "bike_id": "4b1597c537bd539e8e2c3ba2fb5e881e", "type": "electric_scooter", "is_reserved": 0, "lon": -77.00259983333333}, {"fusion_lat": 0.0, "name": "cee33a212094107ee4bc3bf708c69ffe", "is_disabled": 0, "rental_uris": {"android": "https://dc.lft.to/lastmile_qr_scan", "ios": "https://dc.lft.to/lastmile_qr_scan"}, "fusion_lon": 0.0, "lat": 38.9364935, "bike_id": "cee33a212094107ee4bc3bf708c69ffe", "type": "electric_scooter", "is_reserved": 0, "lon": -77.03696766666667}, {"fusion_lat": 0.0, "name": "a90fabbbda803622188ecfd3bf87d270", "is_disabled": 0, "rental_uris": {"android": "https://dc.lft.to/lastmile_qr_scan", "ios": "https://dc.lft.to/lastmile_qr_scan"}, "fusion_lon": 0.0, "lat": 38.92599083333333, "bike_id": "a90fabbbda803622188ecfd3bf87d270", "type": "electric_scooter", "is_reserved": 0, "lon": -77.02593616666667}, {"fusion_lat": 0.0, "name": "b940bc0e5db08169cf63409fda5b7a95", "is_disabled": 0, "rental_uris": {"android": "https://dc.lft.to/lastmile_qr_scan", "ios": "https://dc.lft.to/lastmile_qr_scan"}, "fusion_lon": 0.0, "lat": 38.958307166666664, "bike_id": "b940bc0e5db08169cf63409fda5b7a95", "type": "electric_bike", "is_reserved": 0, "lon": -77.01514166666666}, {"fusion_lat": 0.0, "name": "066aad13a14562bb693b7118ee0c39bc", "is_disabled": 0, "rental_uris": {"android": "https://dc.lft.to/lastmile_qr_scan", "ios": "https://dc.lft.to/lastmile_qr_scan"}, "fusion_lon": 0.0, "lat": 38.887639, "bike_id": "066aad13a14562bb693b7118ee0c39bc", "type": "electric_scooter", "is_reserved": 0, "lon": -76.994668}, {"fusion_lat": 0.0, "name": "0bb80d693fa6cd2a17db3ba44dc5a1d7", "is_disabled": 0, "rental_uris": {"android": "https://dc.lft.to/lastmile_qr_scan", "ios": "https://dc.lft.to/lastmile_qr_scan"}, "fusion_lon": 0.0, "lat": 38.92168566666667, "bike_id": "0bb80d693fa6cd2a17db3ba44dc5a1d7", "type": "electric_scooter", "is_reserved": 0, "lon": -77.0364695}, {"fusion_lat": 0.0, "name": "02df509ba5857335634680827028ab37", "is_disabled": 0, "rental_uris": {"android": "https://dc.lft.to/lastmile_qr_scan", "ios": "https://dc.lft.to/lastmile_qr_scan"}, "fusion_lon": 0.0, "lat": 38.9529755, "bike_id": "02df509ba5857335634680827028ab37", "type": "electric_scooter", "is_reserved": 0, "lon": -76.99897083333333}, {"fusion_lat": 0.0, "name": "d0ab0dcc54ee1a0f78169f2e6d3aaa35", "is_disabled": 0, "rental_uris": {"android": "https://dc.lft.to/lastmile_qr_scan", "ios": "https://dc.lft.to/lastmile_qr_scan"}, "fusion_lon": 0.0, "lat": 38.92449666666667, "bike_id": "d0ab0dcc54ee1a0f78169f2e6d3aaa35", "type": "electric_scooter", "is_reserved": 0, "lon": -77.08036516666667}, {"fusion_lat": 0.0, "name": "afe014acb8315f81ede7b713add3375d", "is_disabled": 0, "rental_uris": {"android": "https://dc.lft.to/lastmile_qr_scan", "ios": "https://dc.lft.to/lastmile_qr_scan"}, "fusion_lon": 0.0, "lat": 38.9067125, "bike_id": "afe014acb8315f81ede7b713add3375d", "type": "electric_scooter", "is_reserved": 0, "lon": -77.048978}, {"fusion_lat": 0.0, "name": "15801127c569db87c1e84cf037c3829b", "is_disabled": 0, "rental_uris": {"android": "https://dc.lft.to/lastmile_qr_scan", "ios": "https://dc.lft.to/lastmile_qr_scan"}, "fusion_lon": 0.0, "lat": 38.92321916666667, "bike_id": "15801127c569db87c1e84cf037c3829b", "type": "electric_scooter", "is_reserved": 0, "lon": -77.02968416666667}, {"fusion_lat": 0.0, "name": "35e3bc3a8d2d26576d0b2ffb65da9b17", "is_disabled": 0, "rental_uris": {"android": "https://dc.lft.to/lastmile_qr_scan", "ios": "https://dc.lft.to/lastmile_qr_scan"}, "fusion_lon": 0.0, "lat": 38.984730666666664, "bike_id": "35e3bc3a8d2d26576d0b2ffb65da9b17", "type": "electric_scooter", "is_reserved": 0, "lon": -77.02645016666666}, {"fusion_lat": 0.0, "name": "d418745b96ba9061c7dc48d61d2bd89a", "is_disabled": 0, "rental_uris": {"android": "https://dc.lft.to/lastmile_qr_scan", "ios": "https://dc.lft.to/lastmile_qr_scan"}, "fusion_lon": 0.0, "lat": 38.9155065, "bike_id": "d418745b96ba9061c7dc48d61d2bd89a", "type": "electric_scooter", "is_reserved": 0, "lon": -77.032296}, {"fusion_lat": 0.0, "name": "9f1e034f033658644d7540012f85089d", "is_disabled": 0, "rental_uris": {"android": "https://dc.lft.to/lastmile_qr_scan", "ios": "https://dc.lft.to/lastmile_qr_scan"}, "fusion_lon": 0.0, "lat": 38.916681, "bike_id": "9f1e034f033658644d7540012f85089d", "type": "electric_scooter", "is_reserved": 0, "lon": -77.02818016666667}, {"fusion_lat": 0.0, "name": "f0677b190ad03ca3177c3f679eae5806", "is_disabled": 0, "rental_uris": {"android": "https://dc.lft.to/lastmile_qr_scan", "ios": "https://dc.lft.to/lastmile_qr_scan"}, "fusion_lon": 0.0, "lat": 38.958886666666665, "bike_id": "f0677b190ad03ca3177c3f679eae5806", "type": "electric_scooter", "is_reserved": 0, "lon": -77.02763116666667}, {"fusion_lat": 0.0, "name": "f76d75ee7fa8449007f4d415ff6db81f", "is_disabled": 0, "rental_uris": {"android": "https://dc.lft.to/lastmile_qr_scan", "ios": "https://dc.lft.to/lastmile_qr_scan"}, "fusion_lon": 0.0, "lat": 38.90893466666667, "bike_id": "f76d75ee7fa8449007f4d415ff6db81f", "type": "electric_scooter", "is_reserved": 0, "lon": -77.04482116666667}, {"fusion_lat": 0.0, "name": "5ea497e39a7055c657ad05ed1362869c", "is_disabled": 0, "rental_uris": {"android": "https://dc.lft.to/lastmile_qr_scan", "ios": "https://dc.lft.to/lastmile_qr_scan"}, "fusion_lon": 0.0, "lat": 38.905217, "bike_id": "5ea497e39a7055c657ad05ed1362869c", "type": "electric_scooter", "is_reserved": 0, "lon": -77.03486416666667}, {"fusion_lat": 0.0, "name": "468d4cf08b8bd45b2c1188245cd0a97c", "is_disabled": 0, "rental_uris": {"android": "https://dc.lft.to/lastmile_qr_scan", "ios": "https://dc.lft.to/lastmile_qr_scan"}, "fusion_lon": 0.0, "lat": 38.88412066666667, "bike_id": "468d4cf08b8bd45b2c1188245cd0a97c", "type": "electric_scooter", "is_reserved": 0, "lon": -76.93040616666667}, {"fusion_lat": 0.0, "name": "f522c7e2951b14d59cb4ff6f2a8a3e84", "is_disabled": 0, "rental_uris": {"android": "https://dc.lft.to/lastmile_qr_scan", "ios": "https://dc.lft.to/lastmile_qr_scan"}, "fusion_lon": 0.0, "lat": 38.90386083333333, "bike_id": "f522c7e2951b14d59cb4ff6f2a8a3e84", "type": "electric_scooter", "is_reserved": 0, "lon": -77.067146}, {"fusion_lat": 0.0, "name": "f08959c2c9805153f568da319d1233cb", "is_disabled": 0, "rental_uris": {"android": "https://dc.lft.to/lastmile_qr_scan", "ios": "https://dc.lft.to/lastmile_qr_scan"}, "fusion_lon": 0.0, "lat": 38.9225075, "bike_id": "f08959c2c9805153f568da319d1233cb", "type": "electric_scooter", "is_reserved": 0, "lon": -77.08079816666667}, {"fusion_lat": 0.0, "name": "87f1690d8212d32c9ea9b5bd71941370", "is_disabled": 0, "rental_uris": {"android": "https://dc.lft.to/lastmile_qr_scan", "ios": "https://dc.lft.to/lastmile_qr_scan"}, "fusion_lon": 0.0, "lat": 38.91552516666667, "bike_id": "87f1690d8212d32c9ea9b5bd71941370", "type": "electric_scooter", "is_reserved": 0, "lon": -77.04113733333334}, {"fusion_lat": 0.0, "name": "ecd26fac73870ea519d63c6a7f9bd36d", "is_disabled": 0, "rental_uris": {"android": "https://dc.lft.to/lastmile_qr_scan", "ios": "https://dc.lft.to/lastmile_qr_scan"}, "fusion_lon": 0.0, "lat": 38.896527, "bike_id": "ecd26fac73870ea519d63c6a7f9bd36d", "type": "electric_scooter", "is_reserved": 0, "lon": -77.04997966666667}, {"fusion_lat": 0.0, "name": "223b492fb5fcea0bf89ace9bb29a1165", "is_disabled": 0, "rental_uris": {"android": "https://dc.lft.to/lastmile_qr_scan", "ios": "https://dc.lft.to/lastmile_qr_scan"}, "fusion_lon": 0.0, "lat": 38.89672516666667, "bike_id": "223b492fb5fcea0bf89ace9bb29a1165", "type": "electric_scooter", "is_reserved": 0, "lon": -77.00518683333334}, {"fusion_lat": 0.0, "name": "d9dbf4200e9ba5eb93c260f97b7caef4", "is_disabled": 0, "rental_uris": {"android": "https://dc.lft.to/lastmile_qr_scan", "ios": "https://dc.lft.to/lastmile_qr_scan"}, "fusion_lon": 0.0, "lat": 38.813332833333334, "bike_id": "d9dbf4200e9ba5eb93c260f97b7caef4", "type": "electric_bike", "is_reserved": 0, "lon": -77.05090433333334}, {"fusion_lat": 0.0, "name": "76efc20b9938da26702110ce2af2d415", "is_disabled": 0, "rental_uris": {"android": "https://dc.lft.to/lastmile_qr_scan", "ios": "https://dc.lft.to/lastmile_qr_scan"}, "fusion_lon": 0.0, "lat": 38.8850365, "bike_id": "76efc20b9938da26702110ce2af2d415", "type": "electric_scooter", "is_reserved": 0, "lon": -77.00699916666666}, {"fusion_lat": 0.0, "name": "cb96d94276f6658e526b13c8b85c6f9b", "is_disabled": 0, "rental_uris": {"android": "https://dc.lft.to/lastmile_qr_scan", "ios": "https://dc.lft.to/lastmile_qr_scan"}, "fusion_lon": 0.0, "lat": 38.9258545, "bike_id": "cb96d94276f6658e526b13c8b85c6f9b", "type": "electric_scooter", "is_reserved": 0, "lon": -77.032438}, {"fusion_lat": 0.0, "name": "71134f1b03dd5dc5e68bad53fc0331cf", "is_disabled": 0, "rental_uris": {"android": "https://dc.lft.to/lastmile_qr_scan", "ios": "https://dc.lft.to/lastmile_qr_scan"}, "fusion_lon": 0.0, "lat": 38.92349816666667, "bike_id": "71134f1b03dd5dc5e68bad53fc0331cf", "type": "electric_scooter", "is_reserved": 0, "lon": -77.0244135}, {"fusion_lat": 0.0, "name": "6869eaf43bf914cebcfacf3401567d3e", "is_disabled": 0, "rental_uris": {"android": "https://dc.lft.to/lastmile_qr_scan", "ios": "https://dc.lft.to/lastmile_qr_scan"}, "fusion_lon": 0.0, "lat": 38.86559416666667, "bike_id": "6869eaf43bf914cebcfacf3401567d3e", "type": "electric_scooter", "is_reserved": 0, "lon": -76.98352433333334}, {"fusion_lat": 0.0, "name": "eb5ba26b0c4173412c977503493cfa59", "is_disabled": 0, "rental_uris": {"android": "https://dc.lft.to/lastmile_qr_scan", "ios": "https://dc.lft.to/lastmile_qr_scan"}, "fusion_lon": 0.0, "lat": 38.897271, "bike_id": "eb5ba26b0c4173412c977503493cfa59", "type": "electric_scooter", "is_reserved": 0, "lon": -76.94703233333334}, {"fusion_lat": 0.0, "name": "8ca60b63e903330d0775d8c443fbc7d5", "is_disabled": 0, "rental_uris": {"android": "https://dc.lft.to/lastmile_qr_scan", "ios": "https://dc.lft.to/lastmile_qr_scan"}, "fusion_lon": 0.0, "lat": 38.89569733333333, "bike_id": "8ca60b63e903330d0775d8c443fbc7d5", "type": "electric_scooter", "is_reserved": 0, "lon": -77.02736666666667}, {"fusion_lat": 0.0, "name": "e3c064cb16c2818299a1cf30bcce9bbd", "is_disabled": 0, "rental_uris": {"android": "https://dc.lft.to/lastmile_qr_scan", "ios": "https://dc.lft.to/lastmile_qr_scan"}, "fusion_lon": 0.0, "lat": 38.907787166666665, "bike_id": "e3c064cb16c2818299a1cf30bcce9bbd", "type": "electric_scooter", "is_reserved": 0, "lon": -77.01110166666666}, {"fusion_lat": 0.0, "name": "428283bd6b75acf332e0c7dcf05510f7", "is_disabled": 0, "rental_uris": {"android": "https://dc.lft.to/lastmile_qr_scan", "ios": "https://dc.lft.to/lastmile_qr_scan"}, "fusion_lon": 0.0, "lat": 38.898054333333334, "bike_id": "428283bd6b75acf332e0c7dcf05510f7", "type": "electric_scooter", "is_reserved": 0, "lon": -77.01039483333334}, {"fusion_lat": 0.0, "name": "51ef9842a515a8351b75d65e2773a40a", "is_disabled": 0, "rental_uris": {"android": "https://dc.lft.to/lastmile_qr_scan", "ios": "https://dc.lft.to/lastmile_qr_scan"}, "fusion_lon": 0.0, "lat": 38.8840225, "bike_id": "51ef9842a515a8351b75d65e2773a40a", "type": "electric_bike", "is_reserved": 0, "lon": -76.96063166666667}, {"fusion_lat": 0.0, "name": "827f8c9debc158f024e4b79e75dc6cac", "is_disabled": 0, "rental_uris": {"android": "https://dc.lft.to/lastmile_qr_scan", "ios": "https://dc.lft.to/lastmile_qr_scan"}, "fusion_lon": 0.0, "lat": 38.9452215, "bike_id": "827f8c9debc158f024e4b79e75dc6cac", "type": "electric_scooter", "is_reserved": 0, "lon": -77.022726}, {"fusion_lat": 0.0, "name": "81281d4dba40e89eb4a13d4b476bee90", "is_disabled": 0, "rental_uris": {"android": "https://dc.lft.to/lastmile_qr_scan", "ios": "https://dc.lft.to/lastmile_qr_scan"}, "fusion_lon": 0.0, "lat": 38.915547833333335, "bike_id": "81281d4dba40e89eb4a13d4b476bee90", "type": "electric_scooter", "is_reserved": 0, "lon": -77.032279}, {"fusion_lat": 0.0, "name": "f2cda990b465c16e5d6735625ac32c4f", "is_disabled": 0, "rental_uris": {"android": "https://dc.lft.to/lastmile_qr_scan", "ios": "https://dc.lft.to/lastmile_qr_scan"}, "fusion_lon": 0.0, "lat": 38.913299, "bike_id": "f2cda990b465c16e5d6735625ac32c4f", "type": "electric_scooter", "is_reserved": 0, "lon": -77.04864283333333}, {"fusion_lat": 0.0, "name": "80ea5dd3f69f28fe66963591b9164ac1", "is_disabled": 0, "rental_uris": {"android": "https://dc.lft.to/lastmile_qr_scan", "ios": "https://dc.lft.to/lastmile_qr_scan"}, "fusion_lon": 0.0, "lat": 38.9111145, "bike_id": "80ea5dd3f69f28fe66963591b9164ac1", "type": "electric_scooter", "is_reserved": 0, "lon": -77.038287}, {"fusion_lat": 0.0, "name": "207c2d5b58e08255a6877de577685f75", "is_disabled": 0, "rental_uris": {"android": "https://dc.lft.to/lastmile_qr_scan", "ios": "https://dc.lft.to/lastmile_qr_scan"}, "fusion_lon": 0.0, "lat": 38.905242666666666, "bike_id": "207c2d5b58e08255a6877de577685f75", "type": "electric_scooter", "is_reserved": 0, "lon": -77.0220635}, {"fusion_lat": 0.0, "name": "6a4814ebf92d21d30d547eb2a5d74ea5", "is_disabled": 0, "rental_uris": {"android": "https://dc.lft.to/lastmile_qr_scan", "ios": "https://dc.lft.to/lastmile_qr_scan"}, "fusion_lon": 0.0, "lat": 38.90247566666667, "bike_id": "6a4814ebf92d21d30d547eb2a5d74ea5", "type": "electric_scooter", "is_reserved": 0, "lon": -77.060447}, {"fusion_lat": 0.0, "name": "a5bf1dcaddb929bfec63c44cd2995fb4", "is_disabled": 0, "rental_uris": {"android": "https://dc.lft.to/lastmile_qr_scan", "ios": "https://dc.lft.to/lastmile_qr_scan"}, "fusion_lon": 0.0, "lat": 38.928239833333336, "bike_id": "a5bf1dcaddb929bfec63c44cd2995fb4", "type": "electric_scooter", "is_reserved": 0, "lon": -77.02258383333333}, {"fusion_lat": 0.0, "name": "0d553a11e57de2a7a1ae74d627bb8275", "is_disabled": 0, "rental_uris": {"android": "https://dc.lft.to/lastmile_qr_scan", "ios": "https://dc.lft.to/lastmile_qr_scan"}, "fusion_lon": 0.0, "lat": 38.9074795, "bike_id": "0d553a11e57de2a7a1ae74d627bb8275", "type": "electric_scooter", "is_reserved": 0, "lon": -77.00698466666667}, {"fusion_lat": 0.0, "name": "6fe7af39bd1fb7d9a28200f27a577192", "is_disabled": 0, "rental_uris": {"android": "https://dc.lft.to/lastmile_qr_scan", "ios": "https://dc.lft.to/lastmile_qr_scan"}, "fusion_lon": 0.0, "lat": 38.926198166666666, "bike_id": "6fe7af39bd1fb7d9a28200f27a577192", "type": "electric_scooter", "is_reserved": 0, "lon": -77.03933466666666}, {"fusion_lat": 0.0, "name": "69558a45d452b1ab2c36e26a40fdef8f", "is_disabled": 0, "rental_uris": {"android": "https://dc.lft.to/lastmile_qr_scan", "ios": "https://dc.lft.to/lastmile_qr_scan"}, "fusion_lon": 0.0, "lat": 38.922914166666665, "bike_id": "69558a45d452b1ab2c36e26a40fdef8f", "type": "electric_scooter", "is_reserved": 0, "lon": -76.99773816666666}, {"fusion_lat": 0.0, "name": "51ac98f3f4596a28e17dd1922423b15a", "is_disabled": 0, "rental_uris": {"android": "https://dc.lft.to/lastmile_qr_scan", "ios": "https://dc.lft.to/lastmile_qr_scan"}, "fusion_lon": 0.0, "lat": 38.92561883333333, "bike_id": "51ac98f3f4596a28e17dd1922423b15a", "type": "electric_scooter", "is_reserved": 0, "lon": -77.03768533333333}, {"fusion_lat": 0.0, "name": "d029096b07eeaddb7b3994b7372bda97", "is_disabled": 0, "rental_uris": {"android": "https://dc.lft.to/lastmile_qr_scan", "ios": "https://dc.lft.to/lastmile_qr_scan"}, "fusion_lon": 0.0, "lat": 38.9015485, "bike_id": "d029096b07eeaddb7b3994b7372bda97", "type": "electric_scooter", "is_reserved": 0, "lon": -76.97405283333333}, {"fusion_lat": 0.0, "name": "e41fff544dad2cad0194988ef717aadb", "is_disabled": 0, "rental_uris": {"android": "https://dc.lft.to/lastmile_qr_scan", "ios": "https://dc.lft.to/lastmile_qr_scan"}, "fusion_lon": 0.0, "lat": 38.9238905, "bike_id": "e41fff544dad2cad0194988ef717aadb", "type": "electric_scooter", "is_reserved": 0, "lon": -77.0259835}, {"fusion_lat": 0.0, "name": "aafcbee235be67399e3855d0d730276d", "is_disabled": 0, "rental_uris": {"android": "https://dc.lft.to/lastmile_qr_scan", "ios": "https://dc.lft.to/lastmile_qr_scan"}, "fusion_lon": 0.0, "lat": 38.980594833333335, "bike_id": "aafcbee235be67399e3855d0d730276d", "type": "electric_bike", "is_reserved": 0, "lon": -77.09567216666667}, {"fusion_lat": 0.0, "name": "6935cbed0d6e0f75388c9e1b7b4a68cc", "is_disabled": 0, "rental_uris": {"android": "https://dc.lft.to/lastmile_qr_scan", "ios": "https://dc.lft.to/lastmile_qr_scan"}, "fusion_lon": 0.0, "lat": 38.926868166666665, "bike_id": "6935cbed0d6e0f75388c9e1b7b4a68cc", "type": "electric_scooter", "is_reserved": 0, "lon": -77.0230415}, {"fusion_lat": 0.0, "name": "4f18a909e6136bb88fb65c91653c24f9", "is_disabled": 0, "rental_uris": {"android": "https://dc.lft.to/lastmile_qr_scan", "ios": "https://dc.lft.to/lastmile_qr_scan"}, "fusion_lon": 0.0, "lat": 38.915392, "bike_id": "4f18a909e6136bb88fb65c91653c24f9", "type": "electric_scooter", "is_reserved": 0, "lon": -77.0055335}, {"fusion_lat": 0.0, "name": "872428cf57eb43e5987436088423b06c", "is_disabled": 0, "rental_uris": {"android": "https://dc.lft.to/lastmile_qr_scan", "ios": "https://dc.lft.to/lastmile_qr_scan"}, "fusion_lon": 0.0, "lat": 38.92090316666667, "bike_id": "872428cf57eb43e5987436088423b06c", "type": "electric_scooter", "is_reserved": 0, "lon": -76.99459083333333}, {"fusion_lat": 0.0, "name": "100287bf826f65ddc4f5e3d59d0bd3c4", "is_disabled": 0, "rental_uris": {"android": "https://dc.lft.to/lastmile_qr_scan", "ios": "https://dc.lft.to/lastmile_qr_scan"}, "fusion_lon": 0.0, "lat": 38.9211925, "bike_id": "100287bf826f65ddc4f5e3d59d0bd3c4", "type": "electric_scooter", "is_reserved": 0, "lon": -77.012115}, {"fusion_lat": 0.0, "name": "00bab4756f603e3ef8772b6a2ee2b051", "is_disabled": 0, "rental_uris": {"android": "https://dc.lft.to/lastmile_qr_scan", "ios": "https://dc.lft.to/lastmile_qr_scan"}, "fusion_lon": 0.0, "lat": 38.88734816666667, "bike_id": "00bab4756f603e3ef8772b6a2ee2b051", "type": "electric_scooter", "is_reserved": 0, "lon": -77.02585133333334}, {"fusion_lat": 0.0, "name": "1b627932430ec3e5064697415633c272", "is_disabled": 0, "rental_uris": {"android": "https://dc.lft.to/lastmile_qr_scan", "ios": "https://dc.lft.to/lastmile_qr_scan"}, "fusion_lon": 0.0, "lat": 38.89546833333333, "bike_id": "1b627932430ec3e5064697415633c272", "type": "electric_scooter", "is_reserved": 0, "lon": -76.9820715}, {"fusion_lat": 0.0, "name": "d8720b0a72b99afb2aacd7faaf5149f6", "is_disabled": 0, "rental_uris": {"android": "https://dc.lft.to/lastmile_qr_scan", "ios": "https://dc.lft.to/lastmile_qr_scan"}, "fusion_lon": 0.0, "lat": 38.916247, "bike_id": "d8720b0a72b99afb2aacd7faaf5149f6", "type": "electric_scooter", "is_reserved": 0, "lon": -77.01123733333333}, {"fusion_lat": 0.0, "name": "fc42aaf95af6cfb84ff08b97ff1b8e78", "is_disabled": 0, "rental_uris": {"android": "https://dc.lft.to/lastmile_qr_scan", "ios": "https://dc.lft.to/lastmile_qr_scan"}, "fusion_lon": 0.0, "lat": 38.9052165, "bike_id": "fc42aaf95af6cfb84ff08b97ff1b8e78", "type": "electric_scooter", "is_reserved": 0, "lon": -77.02977433333334}, {"fusion_lat": 0.0, "name": "d128d56dddaaf4da9b5033ac4c892f53", "is_disabled": 0, "rental_uris": {"android": "https://dc.lft.to/lastmile_qr_scan", "ios": "https://dc.lft.to/lastmile_qr_scan"}, "fusion_lon": 0.0, "lat": 38.90410166666667, "bike_id": "d128d56dddaaf4da9b5033ac4c892f53", "type": "electric_scooter", "is_reserved": 0, "lon": -77.067647}, {"fusion_lat": 0.0, "name": "d4d96b8f9a14c1f5b4e67f91e8e2dc08", "is_disabled": 0, "rental_uris": {"android": "https://dc.lft.to/lastmile_qr_scan", "ios": "https://dc.lft.to/lastmile_qr_scan"}, "fusion_lon": 0.0, "lat": 38.90846366666667, "bike_id": "d4d96b8f9a14c1f5b4e67f91e8e2dc08", "type": "electric_scooter", "is_reserved": 0, "lon": -77.02698283333334}, {"fusion_lat": 0.0, "name": "373b5449ddb6cf339c3d2586d2e909a9", "is_disabled": 0, "rental_uris": {"android": "https://dc.lft.to/lastmile_qr_scan", "ios": "https://dc.lft.to/lastmile_qr_scan"}, "fusion_lon": 0.0, "lat": 38.9092595, "bike_id": "373b5449ddb6cf339c3d2586d2e909a9", "type": "electric_scooter", "is_reserved": 0, "lon": -77.04576583333333}, {"fusion_lat": 0.0, "name": "379f6b354517ed2c8a5577aacacb041d", "is_disabled": 0, "rental_uris": {"android": "https://dc.lft.to/lastmile_qr_scan", "ios": "https://dc.lft.to/lastmile_qr_scan"}, "fusion_lon": 0.0, "lat": 38.815955833333334, "bike_id": "379f6b354517ed2c8a5577aacacb041d", "type": "electric_bike", "is_reserved": 0, "lon": -77.05057766666667}, {"fusion_lat": 0.0, "name": "ccd4fac8a96458aaa29b8b0d4d8de373", "is_disabled": 0, "rental_uris": {"android": "https://dc.lft.to/lastmile_qr_scan", "ios": "https://dc.lft.to/lastmile_qr_scan"}, "fusion_lon": 0.0, "lat": 38.966171833333334, "bike_id": "ccd4fac8a96458aaa29b8b0d4d8de373", "type": "electric_bike", "is_reserved": 0, "lon": -77.03429}, {"fusion_lat": 0.0, "name": "f870525d0446804b88da2e0f3c37bb48", "is_disabled": 0, "rental_uris": {"android": "https://dc.lft.to/lastmile_qr_scan", "ios": "https://dc.lft.to/lastmile_qr_scan"}, "fusion_lon": 0.0, "lat": 38.90497933333333, "bike_id": "f870525d0446804b88da2e0f3c37bb48", "type": "electric_scooter", "is_reserved": 0, "lon": -77.02700683333333}, {"fusion_lat": 0.0, "name": "26c20d51550a485fbab7593c3a6684d1", "is_disabled": 0, "rental_uris": {"android": "https://dc.lft.to/lastmile_qr_scan", "ios": "https://dc.lft.to/lastmile_qr_scan"}, "fusion_lon": 0.0, "lat": 38.92250633333333, "bike_id": "26c20d51550a485fbab7593c3a6684d1", "type": "electric_scooter", "is_reserved": 0, "lon": -77.03001816666666}, {"fusion_lat": 0.0, "name": "c27774efdd77dbfa0a071c8bc3d87cfd", "is_disabled": 0, "rental_uris": {"android": "https://dc.lft.to/lastmile_qr_scan", "ios": "https://dc.lft.to/lastmile_qr_scan"}, "fusion_lon": 0.0, "lat": 38.89724866666667, "bike_id": "c27774efdd77dbfa0a071c8bc3d87cfd", "type": "electric_scooter", "is_reserved": 0, "lon": -77.00854}, {"fusion_lat": 0.0, "name": "1e973d2bd8f9052a75abd5b493980736", "is_disabled": 0, "rental_uris": {"android": "https://dc.lft.to/lastmile_qr_scan", "ios": "https://dc.lft.to/lastmile_qr_scan"}, "fusion_lon": 0.0, "lat": 38.946619, "bike_id": "1e973d2bd8f9052a75abd5b493980736", "type": "electric_bike", "is_reserved": 0, "lon": -77.00698733333333}, {"fusion_lat": 0.0, "name": "5f3cddfcbe9553db0fcdded1c57f0c68", "is_disabled": 0, "rental_uris": {"android": "https://dc.lft.to/lastmile_qr_scan", "ios": "https://dc.lft.to/lastmile_qr_scan"}, "fusion_lon": 0.0, "lat": 38.91780833333333, "bike_id": "5f3cddfcbe9553db0fcdded1c57f0c68", "type": "electric_scooter", "is_reserved": 0, "lon": -77.02314816666667}, {"fusion_lat": 0.0, "name": "02dcebcead107fe798646c300a01bee0", "is_disabled": 0, "rental_uris": {"android": "https://dc.lft.to/lastmile_qr_scan", "ios": "https://dc.lft.to/lastmile_qr_scan"}, "fusion_lon": 0.0, "lat": 38.886170166666666, "bike_id": "02dcebcead107fe798646c300a01bee0", "type": "electric_scooter", "is_reserved": 0, "lon": -77.019847}, {"fusion_lat": 0.0, "name": "7bf4eac193c4d60eaf722d87dcdf5d19", "is_disabled": 0, "rental_uris": {"android": "https://dc.lft.to/lastmile_qr_scan", "ios": "https://dc.lft.to/lastmile_qr_scan"}, "fusion_lon": 0.0, "lat": 38.8793055, "bike_id": "7bf4eac193c4d60eaf722d87dcdf5d19", "type": "electric_bike", "is_reserved": 0, "lon": -77.0077445}, {"fusion_lat": 0.0, "name": "27688a2b2e34760d203c33986e1149aa", "is_disabled": 0, "rental_uris": {"android": "https://dc.lft.to/lastmile_qr_scan", "ios": "https://dc.lft.to/lastmile_qr_scan"}, "fusion_lon": 0.0, "lat": 38.88114183333333, "bike_id": "27688a2b2e34760d203c33986e1149aa", "type": "electric_scooter", "is_reserved": 0, "lon": -76.99857583333333}, {"fusion_lat": 0.0, "name": "ceb79ada228c9704db3a5b64068ee0f4", "is_disabled": 0, "rental_uris": {"android": "https://dc.lft.to/lastmile_qr_scan", "ios": "https://dc.lft.to/lastmile_qr_scan"}, "fusion_lon": 0.0, "lat": 38.936772, "bike_id": "ceb79ada228c9704db3a5b64068ee0f4", "type": "electric_scooter", "is_reserved": 0, "lon": -77.03588033333334}, {"fusion_lat": 0.0, "name": "5f8c19f7b59cec50f15ee3aee576b6f4", "is_disabled": 0, "rental_uris": {"android": "https://dc.lft.to/lastmile_qr_scan", "ios": "https://dc.lft.to/lastmile_qr_scan"}, "fusion_lon": 0.0, "lat": 38.921439166666666, "bike_id": "5f8c19f7b59cec50f15ee3aee576b6f4", "type": "electric_scooter", "is_reserved": 0, "lon": -77.0319275}, {"fusion_lat": 0.0, "name": "0c1f1d2f3d2ffda1e3763277302586f4", "is_disabled": 0, "rental_uris": {"android": "https://dc.lft.to/lastmile_qr_scan", "ios": "https://dc.lft.to/lastmile_qr_scan"}, "fusion_lon": 0.0, "lat": 38.887227333333335, "bike_id": "0c1f1d2f3d2ffda1e3763277302586f4", "type": "electric_scooter", "is_reserved": 0, "lon": -77.0133155}, {"fusion_lat": 0.0, "name": "d4ab20392dcda63eba65093339c1e93e", "is_disabled": 0, "rental_uris": {"android": "https://dc.lft.to/lastmile_qr_scan", "ios": "https://dc.lft.to/lastmile_qr_scan"}, "fusion_lon": 0.0, "lat": 38.862655833333335, "bike_id": "d4ab20392dcda63eba65093339c1e93e", "type": "electric_bike", "is_reserved": 0, "lon": -76.98351233333334}, {"fusion_lat": 0.0, "name": "a9d3815c96d8ba78dfef0dc90308f19f", "is_disabled": 0, "rental_uris": {"android": "https://dc.lft.to/lastmile_qr_scan", "ios": "https://dc.lft.to/lastmile_qr_scan"}, "fusion_lon": 0.0, "lat": 38.91656616666667, "bike_id": "a9d3815c96d8ba78dfef0dc90308f19f", "type": "electric_scooter", "is_reserved": 0, "lon": -77.02815166666667}, {"fusion_lat": 0.0, "name": "c1761ba6da7529e83086a546c8a67948", "is_disabled": 0, "rental_uris": {"android": "https://dc.lft.to/lastmile_qr_scan", "ios": "https://dc.lft.to/lastmile_qr_scan"}, "fusion_lon": 0.0, "lat": 38.953763333333335, "bike_id": "c1761ba6da7529e83086a546c8a67948", "type": "electric_scooter", "is_reserved": 0, "lon": -77.02556983333334}, {"fusion_lat": 0.0, "name": "b9af092cdba1f7eeabdcce07d287acc8", "is_disabled": 0, "rental_uris": {"android": "https://dc.lft.to/lastmile_qr_scan", "ios": "https://dc.lft.to/lastmile_qr_scan"}, "fusion_lon": 0.0, "lat": 38.92288033333333, "bike_id": "b9af092cdba1f7eeabdcce07d287acc8", "type": "electric_scooter", "is_reserved": 0, "lon": -76.99778033333334}, {"fusion_lat": 0.0, "name": "11516ea4b2baae87bc51ff192ac0a650", "is_disabled": 0, "rental_uris": {"android": "https://dc.lft.to/lastmile_qr_scan", "ios": "https://dc.lft.to/lastmile_qr_scan"}, "fusion_lon": 0.0, "lat": 38.929692, "bike_id": "11516ea4b2baae87bc51ff192ac0a650", "type": "electric_scooter", "is_reserved": 0, "lon": -77.02795516666667}, {"fusion_lat": 0.0, "name": "097eabfdd1f318fd1780a285b293305f", "is_disabled": 0, "rental_uris": {"android": "https://dc.lft.to/lastmile_qr_scan", "ios": "https://dc.lft.to/lastmile_qr_scan"}, "fusion_lon": 0.0, "lat": 38.92719566666667, "bike_id": "097eabfdd1f318fd1780a285b293305f", "type": "electric_scooter", "is_reserved": 0, "lon": -77.020978}, {"fusion_lat": 0.0, "name": "c3a7f33355121254c44acf21ffbedbc0", "is_disabled": 0, "rental_uris": {"android": "https://dc.lft.to/lastmile_qr_scan", "ios": "https://dc.lft.to/lastmile_qr_scan"}, "fusion_lon": 0.0, "lat": 38.885095666666665, "bike_id": "c3a7f33355121254c44acf21ffbedbc0", "type": "electric_scooter", "is_reserved": 0, "lon": -77.02101833333333}, {"fusion_lat": 0.0, "name": "3342c7cd92454b5457499e2634c37f53", "is_disabled": 0, "rental_uris": {"android": "https://dc.lft.to/lastmile_qr_scan", "ios": "https://dc.lft.to/lastmile_qr_scan"}, "fusion_lon": 0.0, "lat": 38.90260516666667, "bike_id": "3342c7cd92454b5457499e2634c37f53", "type": "electric_scooter", "is_reserved": 0, "lon": -77.02935266666667}, {"fusion_lat": 0.0, "name": "f3f7f8bb9b06aef0566b1598297e9854", "is_disabled": 0, "rental_uris": {"android": "https://dc.lft.to/lastmile_qr_scan", "ios": "https://dc.lft.to/lastmile_qr_scan"}, "fusion_lon": 0.0, "lat": 38.909281666666665, "bike_id": "f3f7f8bb9b06aef0566b1598297e9854", "type": "electric_scooter", "is_reserved": 0, "lon": -77.02131616666667}, {"fusion_lat": 0.0, "name": "57b52165a1dbcc4b53e2ebc211953196", "is_disabled": 0, "rental_uris": {"android": "https://dc.lft.to/lastmile_qr_scan", "ios": "https://dc.lft.to/lastmile_qr_scan"}, "fusion_lon": 0.0, "lat": 38.9039165, "bike_id": "57b52165a1dbcc4b53e2ebc211953196", "type": "electric_scooter", "is_reserved": 0, "lon": -76.99004433333333}, {"fusion_lat": 0.0, "name": "54f787404bb916f3e99e0bbadb9905a6", "is_disabled": 0, "rental_uris": {"android": "https://dc.lft.to/lastmile_qr_scan", "ios": "https://dc.lft.to/lastmile_qr_scan"}, "fusion_lon": 0.0, "lat": 38.889850333333335, "bike_id": "54f787404bb916f3e99e0bbadb9905a6", "type": "electric_scooter", "is_reserved": 0, "lon": -76.98737633333333}, {"fusion_lat": 0.0, "name": "20bb3fd9bbea45de9fbeae0cd570ec21", "is_disabled": 0, "rental_uris": {"android": "https://dc.lft.to/lastmile_qr_scan", "ios": "https://dc.lft.to/lastmile_qr_scan"}, "fusion_lon": 0.0, "lat": 38.939373333333336, "bike_id": "20bb3fd9bbea45de9fbeae0cd570ec21", "type": "electric_scooter", "is_reserved": 0, "lon": -77.03329233333334}, {"fusion_lat": 0.0, "name": "b65a6f844208754067b3266dcd47d95c", "is_disabled": 0, "rental_uris": {"android": "https://dc.lft.to/lastmile_qr_scan", "ios": "https://dc.lft.to/lastmile_qr_scan"}, "fusion_lon": 0.0, "lat": 38.898311666666665, "bike_id": "b65a6f844208754067b3266dcd47d95c", "type": "electric_scooter", "is_reserved": 0, "lon": -77.031669}, {"fusion_lat": 0.0, "name": "0ace475728b327cc9bd5e9b1686f0467", "is_disabled": 0, "rental_uris": {"android": "https://dc.lft.to/lastmile_qr_scan", "ios": "https://dc.lft.to/lastmile_qr_scan"}, "fusion_lon": 0.0, "lat": 38.882990166666666, "bike_id": "0ace475728b327cc9bd5e9b1686f0467", "type": "electric_scooter", "is_reserved": 0, "lon": -77.01780216666667}, {"fusion_lat": 0.0, "name": "5c609f8ed9ee606479b9b0445d830f2d", "is_disabled": 0, "rental_uris": {"android": "https://dc.lft.to/lastmile_qr_scan", "ios": "https://dc.lft.to/lastmile_qr_scan"}, "fusion_lon": 0.0, "lat": 38.87291733333333, "bike_id": "5c609f8ed9ee606479b9b0445d830f2d", "type": "electric_scooter", "is_reserved": 0, "lon": -77.00987233333333}, {"fusion_lat": 0.0, "name": "fd15ea1441056814a25e551cec2eb3d6", "is_disabled": 0, "rental_uris": {"android": "https://dc.lft.to/lastmile_qr_scan", "ios": "https://dc.lft.to/lastmile_qr_scan"}, "fusion_lon": 0.0, "lat": 38.9057535, "bike_id": "fd15ea1441056814a25e551cec2eb3d6", "type": "electric_scooter", "is_reserved": 0, "lon": -77.022087}, {"fusion_lat": 0.0, "name": "04aec122a2a8fb5dc4f2cfda4537fa24", "is_disabled": 0, "rental_uris": {"android": "https://dc.lft.to/lastmile_qr_scan", "ios": "https://dc.lft.to/lastmile_qr_scan"}, "fusion_lon": 0.0, "lat": 38.917879166666665, "bike_id": "04aec122a2a8fb5dc4f2cfda4537fa24", "type": "electric_scooter", "is_reserved": 0, "lon": -77.02312733333333}, {"fusion_lat": 0.0, "name": "9af402641018703772aee17cc92cb34c", "is_disabled": 0, "rental_uris": {"android": "https://dc.lft.to/lastmile_qr_scan", "ios": "https://dc.lft.to/lastmile_qr_scan"}, "fusion_lon": 0.0, "lat": 38.90723066666666, "bike_id": "9af402641018703772aee17cc92cb34c", "type": "electric_scooter", "is_reserved": 0, "lon": -77.0111915}, {"fusion_lat": 0.0, "name": "5e5fb3e9f7ac130323e1859ce09979d3", "is_disabled": 0, "rental_uris": {"android": "https://dc.lft.to/lastmile_qr_scan", "ios": "https://dc.lft.to/lastmile_qr_scan"}, "fusion_lon": 0.0, "lat": 38.901537, "bike_id": "5e5fb3e9f7ac130323e1859ce09979d3", "type": "electric_scooter", "is_reserved": 0, "lon": -76.9306365}, {"fusion_lat": 0.0, "name": "7a667470a25b89c02e3752d10206e568", "is_disabled": 0, "rental_uris": {"android": "https://dc.lft.to/lastmile_qr_scan", "ios": "https://dc.lft.to/lastmile_qr_scan"}, "fusion_lon": 0.0, "lat": 38.88768016666667, "bike_id": "7a667470a25b89c02e3752d10206e568", "type": "electric_scooter", "is_reserved": 0, "lon": -76.977496}, {"fusion_lat": 0.0, "name": "84d7bf5f565496c5bbdb5ff82811d39e", "is_disabled": 0, "rental_uris": {"android": "https://dc.lft.to/lastmile_qr_scan", "ios": "https://dc.lft.to/lastmile_qr_scan"}, "fusion_lon": 0.0, "lat": 38.984605, "bike_id": "84d7bf5f565496c5bbdb5ff82811d39e", "type": "electric_bike", "is_reserved": 0, "lon": -76.97058383333334}, {"fusion_lat": 0.0, "name": "95e1eeb3e8e064d8053522cf62c62283", "is_disabled": 0, "rental_uris": {"android": "https://dc.lft.to/lastmile_qr_scan", "ios": "https://dc.lft.to/lastmile_qr_scan"}, "fusion_lon": 0.0, "lat": 38.905764, "bike_id": "95e1eeb3e8e064d8053522cf62c62283", "type": "electric_scooter", "is_reserved": 0, "lon": -77.044307}, {"fusion_lat": 0.0, "name": "3dc67b1539aaaf0a8c1b78846ce0ae63", "is_disabled": 0, "rental_uris": {"android": "https://dc.lft.to/lastmile_qr_scan", "ios": "https://dc.lft.to/lastmile_qr_scan"}, "fusion_lon": 0.0, "lat": 38.906844166666666, "bike_id": "3dc67b1539aaaf0a8c1b78846ce0ae63", "type": "electric_bike", "is_reserved": 0, "lon": -76.9449535}, {"fusion_lat": 0.0, "name": "02de11b3cb6083a67cc745e2831cf327", "is_disabled": 0, "rental_uris": {"android": "https://dc.lft.to/lastmile_qr_scan", "ios": "https://dc.lft.to/lastmile_qr_scan"}, "fusion_lon": 0.0, "lat": 38.8981735, "bike_id": "02de11b3cb6083a67cc745e2831cf327", "type": "electric_scooter", "is_reserved": 0, "lon": -77.00755516666666}, {"fusion_lat": 0.0, "name": "cad893fab119b3c98c94806ac2144d87", "is_disabled": 0, "rental_uris": {"android": "https://dc.lft.to/lastmile_qr_scan", "ios": "https://dc.lft.to/lastmile_qr_scan"}, "fusion_lon": 0.0, "lat": 38.878522333333336, "bike_id": "cad893fab119b3c98c94806ac2144d87", "type": "electric_bike", "is_reserved": 0, "lon": -77.030198}, {"fusion_lat": 0.0, "name": "37b297daff0e182353d787f13ff23d79", "is_disabled": 0, "rental_uris": {"android": "https://dc.lft.to/lastmile_qr_scan", "ios": "https://dc.lft.to/lastmile_qr_scan"}, "fusion_lon": 0.0, "lat": 38.920617666666665, "bike_id": "37b297daff0e182353d787f13ff23d79", "type": "electric_scooter", "is_reserved": 0, "lon": -77.02419816666666}, {"fusion_lat": 0.0, "name": "01ef0f6d2a7f7f6038f26637039b0d17", "is_disabled": 0, "rental_uris": {"android": "https://dc.lft.to/lastmile_qr_scan", "ios": "https://dc.lft.to/lastmile_qr_scan"}, "fusion_lon": 0.0, "lat": 38.92254883333333, "bike_id": "01ef0f6d2a7f7f6038f26637039b0d17", "type": "electric_bike", "is_reserved": 0, "lon": -77.02219266666667}, {"fusion_lat": 0.0, "name": "a11b17c884fddc9cd1f95d2abcf1045f", "is_disabled": 0, "rental_uris": {"android": "https://dc.lft.to/lastmile_qr_scan", "ios": "https://dc.lft.to/lastmile_qr_scan"}, "fusion_lon": 0.0, "lat": 38.988261, "bike_id": "a11b17c884fddc9cd1f95d2abcf1045f", "type": "electric_bike", "is_reserved": 0, "lon": -76.9964675}, {"fusion_lat": 0.0, "name": "1cfc7105a9a830f62e564074bc910d08", "is_disabled": 0, "rental_uris": {"android": "https://dc.lft.to/lastmile_qr_scan", "ios": "https://dc.lft.to/lastmile_qr_scan"}, "fusion_lon": 0.0, "lat": 38.910525666666665, "bike_id": "1cfc7105a9a830f62e564074bc910d08", "type": "electric_scooter", "is_reserved": 0, "lon": -76.985201}, {"fusion_lat": 0.0, "name": "dac0fa20da07c20d4eb8784762ca04b6", "is_disabled": 0, "rental_uris": {"android": "https://dc.lft.to/lastmile_qr_scan", "ios": "https://dc.lft.to/lastmile_qr_scan"}, "fusion_lon": 0.0, "lat": 38.928377833333336, "bike_id": "dac0fa20da07c20d4eb8784762ca04b6", "type": "electric_scooter", "is_reserved": 0, "lon": -77.03290833333334}, {"fusion_lat": 0.0, "name": "be08b03f755754d41840fa810d198e46", "is_disabled": 0, "rental_uris": {"android": "https://dc.lft.to/lastmile_qr_scan", "ios": "https://dc.lft.to/lastmile_qr_scan"}, "fusion_lon": 0.0, "lat": 38.90020766666667, "bike_id": "be08b03f755754d41840fa810d198e46", "type": "electric_scooter", "is_reserved": 0, "lon": -77.0067535}, {"fusion_lat": 0.0, "name": "bfebe3f8bc0d2af0bfbb3429ad007d10", "is_disabled": 0, "rental_uris": {"android": "https://dc.lft.to/lastmile_qr_scan", "ios": "https://dc.lft.to/lastmile_qr_scan"}, "fusion_lon": 0.0, "lat": 38.934612333333334, "bike_id": "bfebe3f8bc0d2af0bfbb3429ad007d10", "type": "electric_scooter", "is_reserved": 0, "lon": -77.04121483333333}, {"fusion_lat": 0.0, "name": "ec2245ed6c164b154bd6da35efdacd94", "is_disabled": 0, "rental_uris": {"android": "https://dc.lft.to/lastmile_qr_scan", "ios": "https://dc.lft.to/lastmile_qr_scan"}, "fusion_lon": 0.0, "lat": 38.86682116666667, "bike_id": "ec2245ed6c164b154bd6da35efdacd94", "type": "electric_scooter", "is_reserved": 0, "lon": -76.98563833333333}, {"fusion_lat": 0.0, "name": "7344b3dca14deb806ab24e1190f9e654", "is_disabled": 0, "rental_uris": {"android": "https://dc.lft.to/lastmile_qr_scan", "ios": "https://dc.lft.to/lastmile_qr_scan"}, "fusion_lon": 0.0, "lat": 38.910427166666665, "bike_id": "7344b3dca14deb806ab24e1190f9e654", "type": "electric_scooter", "is_reserved": 0, "lon": -77.03441}, {"fusion_lat": 0.0, "name": "0687cf79be0c07d661fdce21d50346ea", "is_disabled": 0, "rental_uris": {"android": "https://dc.lft.to/lastmile_qr_scan", "ios": "https://dc.lft.to/lastmile_qr_scan"}, "fusion_lon": 0.0, "lat": 38.88490683333333, "bike_id": "0687cf79be0c07d661fdce21d50346ea", "type": "electric_scooter", "is_reserved": 0, "lon": -77.00712333333334}, {"fusion_lat": 0.0, "name": "e4650c5815ddc61083a600dfbecadb5e", "is_disabled": 0, "rental_uris": {"android": "https://dc.lft.to/lastmile_qr_scan", "ios": "https://dc.lft.to/lastmile_qr_scan"}, "fusion_lon": 0.0, "lat": 38.842815333333334, "bike_id": "e4650c5815ddc61083a600dfbecadb5e", "type": "electric_bike", "is_reserved": 0, "lon": -77.044896}, {"fusion_lat": 0.0, "name": "07dc0000e13aac718f92803b0acbf707", "is_disabled": 0, "rental_uris": {"android": "https://dc.lft.to/lastmile_qr_scan", "ios": "https://dc.lft.to/lastmile_qr_scan"}, "fusion_lon": 0.0, "lat": 38.922436, "bike_id": "07dc0000e13aac718f92803b0acbf707", "type": "electric_scooter", "is_reserved": 0, "lon": -77.04209766666666}, {"fusion_lat": 0.0, "name": "16259b4f096ab37b107273cf9feb9c92", "is_disabled": 0, "rental_uris": {"android": "https://dc.lft.to/lastmile_qr_scan", "ios": "https://dc.lft.to/lastmile_qr_scan"}, "fusion_lon": 0.0, "lat": 38.900034166666664, "bike_id": "16259b4f096ab37b107273cf9feb9c92", "type": "electric_scooter", "is_reserved": 0, "lon": -76.93154566666666}, {"fusion_lat": 0.0, "name": "0af2a61c5e13266fa5b888018d86a903", "is_disabled": 0, "rental_uris": {"android": "https://dc.lft.to/lastmile_qr_scan", "ios": "https://dc.lft.to/lastmile_qr_scan"}, "fusion_lon": 0.0, "lat": 38.897418, "bike_id": "0af2a61c5e13266fa5b888018d86a903", "type": "electric_scooter", "is_reserved": 0, "lon": -77.04345183333334}, {"fusion_lat": 0.0, "name": "7c19343ad640c6662d9c79ec953ed556", "is_disabled": 0, "rental_uris": {"android": "https://dc.lft.to/lastmile_qr_scan", "ios": "https://dc.lft.to/lastmile_qr_scan"}, "fusion_lon": 0.0, "lat": 38.93528216666667, "bike_id": "7c19343ad640c6662d9c79ec953ed556", "type": "electric_scooter", "is_reserved": 0, "lon": -77.03652966666667}, {"fusion_lat": 0.0, "name": "296eeaaec768f5fb0bd95356134a418e", "is_disabled": 0, "rental_uris": {"android": "https://dc.lft.to/lastmile_qr_scan", "ios": "https://dc.lft.to/lastmile_qr_scan"}, "fusion_lon": 0.0, "lat": 38.917691833333336, "bike_id": "296eeaaec768f5fb0bd95356134a418e", "type": "electric_scooter", "is_reserved": 0, "lon": -77.03642083333334}, {"fusion_lat": 0.0, "name": "ce8122b60d68001abe0b52feaef10f47", "is_disabled": 0, "rental_uris": {"android": "https://dc.lft.to/lastmile_qr_scan", "ios": "https://dc.lft.to/lastmile_qr_scan"}, "fusion_lon": 0.0, "lat": 38.91270183333334, "bike_id": "ce8122b60d68001abe0b52feaef10f47", "type": "electric_scooter", "is_reserved": 0, "lon": -77.0375045}, {"fusion_lat": 0.0, "name": "6a6fc675faa47990b1c70aff7842793a", "is_disabled": 0, "rental_uris": {"android": "https://dc.lft.to/lastmile_qr_scan", "ios": "https://dc.lft.to/lastmile_qr_scan"}, "fusion_lon": 0.0, "lat": 38.913067166666664, "bike_id": "6a6fc675faa47990b1c70aff7842793a", "type": "electric_scooter", "is_reserved": 0, "lon": -77.0486765}, {"fusion_lat": 0.0, "name": "4a01ca115280e9f7f88d984ebf045915", "is_disabled": 0, "rental_uris": {"android": "https://dc.lft.to/lastmile_qr_scan", "ios": "https://dc.lft.to/lastmile_qr_scan"}, "fusion_lon": 0.0, "lat": 38.91960316666667, "bike_id": "4a01ca115280e9f7f88d984ebf045915", "type": "electric_scooter", "is_reserved": 0, "lon": -77.07089883333333}, {"fusion_lat": 0.0, "name": "7d7386f29ff0692bb48edede3bfdd70b", "is_disabled": 0, "rental_uris": {"android": "https://dc.lft.to/lastmile_qr_scan", "ios": "https://dc.lft.to/lastmile_qr_scan"}, "fusion_lon": 0.0, "lat": 38.936005, "bike_id": "7d7386f29ff0692bb48edede3bfdd70b", "type": "electric_scooter", "is_reserved": 0, "lon": -77.0228635}, {"fusion_lat": 0.0, "name": "d9d5c45983718815d473df77a580c851", "is_disabled": 0, "rental_uris": {"android": "https://dc.lft.to/lastmile_qr_scan", "ios": "https://dc.lft.to/lastmile_qr_scan"}, "fusion_lon": 0.0, "lat": 38.86164216666667, "bike_id": "d9d5c45983718815d473df77a580c851", "type": "electric_scooter", "is_reserved": 0, "lon": -76.98361983333334}, {"fusion_lat": 0.0, "name": "9f6d56d22b1a9f57fbca8af7b59d50c6", "is_disabled": 0, "rental_uris": {"android": "https://dc.lft.to/lastmile_qr_scan", "ios": "https://dc.lft.to/lastmile_qr_scan"}, "fusion_lon": 0.0, "lat": 38.9422945, "bike_id": "9f6d56d22b1a9f57fbca8af7b59d50c6", "type": "electric_bike", "is_reserved": 0, "lon": -77.01386366666667}, {"fusion_lat": 0.0, "name": "6241a82f4dc599776c5ed5ce98fdd8ce", "is_disabled": 0, "rental_uris": {"android": "https://dc.lft.to/lastmile_qr_scan", "ios": "https://dc.lft.to/lastmile_qr_scan"}, "fusion_lon": 0.0, "lat": 38.92027933333333, "bike_id": "6241a82f4dc599776c5ed5ce98fdd8ce", "type": "electric_scooter", "is_reserved": 0, "lon": -77.03124933333334}, {"fusion_lat": 0.0, "name": "191d938de6d23b2a16a814fa3041bd4b", "is_disabled": 0, "rental_uris": {"android": "https://dc.lft.to/lastmile_qr_scan", "ios": "https://dc.lft.to/lastmile_qr_scan"}, "fusion_lon": 0.0, "lat": 38.8928635, "bike_id": "191d938de6d23b2a16a814fa3041bd4b", "type": "electric_scooter", "is_reserved": 0, "lon": -76.98307183333333}, {"fusion_lat": 0.0, "name": "e9b086b63fc6f3239994f6eb437bad45", "is_disabled": 0, "rental_uris": {"android": "https://dc.lft.to/lastmile_qr_scan", "ios": "https://dc.lft.to/lastmile_qr_scan"}, "fusion_lon": 0.0, "lat": 38.925033, "bike_id": "e9b086b63fc6f3239994f6eb437bad45", "type": "electric_scooter", "is_reserved": 0, "lon": -77.021444}, {"fusion_lat": 0.0, "name": "0e04e1c4e332e1605c70cea1e4586554", "is_disabled": 0, "rental_uris": {"android": "https://dc.lft.to/lastmile_qr_scan", "ios": "https://dc.lft.to/lastmile_qr_scan"}, "fusion_lon": 0.0, "lat": 38.927870166666665, "bike_id": "0e04e1c4e332e1605c70cea1e4586554", "type": "electric_scooter", "is_reserved": 0, "lon": -77.03214}, {"fusion_lat": 0.0, "name": "e70783c5b27a164183d516e126e5c2d2", "is_disabled": 0, "rental_uris": {"android": "https://dc.lft.to/lastmile_qr_scan", "ios": "https://dc.lft.to/lastmile_qr_scan"}, "fusion_lon": 0.0, "lat": 38.908259, "bike_id": "e70783c5b27a164183d516e126e5c2d2", "type": "electric_scooter", "is_reserved": 0, "lon": -76.982647}, {"fusion_lat": 0.0, "name": "367d6c79635c64d538577e0b19b7119e", "is_disabled": 0, "rental_uris": {"android": "https://dc.lft.to/lastmile_qr_scan", "ios": "https://dc.lft.to/lastmile_qr_scan"}, "fusion_lon": 0.0, "lat": 38.91833583333333, "bike_id": "367d6c79635c64d538577e0b19b7119e", "type": "electric_scooter", "is_reserved": 0, "lon": -77.03518983333333}, {"fusion_lat": 0.0, "name": "e05aba80b789bef157b378e9fe3af7b5", "is_disabled": 0, "rental_uris": {"android": "https://dc.lft.to/lastmile_qr_scan", "ios": "https://dc.lft.to/lastmile_qr_scan"}, "fusion_lon": 0.0, "lat": 38.91418383333333, "bike_id": "e05aba80b789bef157b378e9fe3af7b5", "type": "electric_scooter", "is_reserved": 0, "lon": -77.02214466666666}, {"fusion_lat": 0.0, "name": "78f5d234b128de36cb0e4577caa89c65", "is_disabled": 0, "rental_uris": {"android": "https://dc.lft.to/lastmile_qr_scan", "ios": "https://dc.lft.to/lastmile_qr_scan"}, "fusion_lon": 0.0, "lat": 38.915428166666665, "bike_id": "78f5d234b128de36cb0e4577caa89c65", "type": "electric_scooter", "is_reserved": 0, "lon": -77.03219283333334}, {"fusion_lat": 0.0, "name": "88848a3fb61b484a9320c5beb02aed9f", "is_disabled": 0, "rental_uris": {"android": "https://dc.lft.to/lastmile_qr_scan", "ios": "https://dc.lft.to/lastmile_qr_scan"}, "fusion_lon": 0.0, "lat": 38.940888666666666, "bike_id": "88848a3fb61b484a9320c5beb02aed9f", "type": "electric_scooter", "is_reserved": 0, "lon": -77.061865}, {"fusion_lat": 0.0, "name": "148b7aecf3b7b547938c943a2bfe8773", "is_disabled": 0, "rental_uris": {"android": "https://dc.lft.to/lastmile_qr_scan", "ios": "https://dc.lft.to/lastmile_qr_scan"}, "fusion_lon": 0.0, "lat": 38.93776166666667, "bike_id": "148b7aecf3b7b547938c943a2bfe8773", "type": "electric_bike", "is_reserved": 0, "lon": -77.01913133333333}, {"fusion_lat": 0.0, "name": "24ee6ef27d2c7047fa86755f20fcfe32", "is_disabled": 0, "rental_uris": {"android": "https://dc.lft.to/lastmile_qr_scan", "ios": "https://dc.lft.to/lastmile_qr_scan"}, "fusion_lon": 0.0, "lat": 38.93394266666667, "bike_id": "24ee6ef27d2c7047fa86755f20fcfe32", "type": "electric_scooter", "is_reserved": 0, "lon": -77.02842133333333}, {"fusion_lat": 0.0, "name": "08be0410061f6bad054310a113fa8c09", "is_disabled": 0, "rental_uris": {"android": "https://dc.lft.to/lastmile_qr_scan", "ios": "https://dc.lft.to/lastmile_qr_scan"}, "fusion_lon": 0.0, "lat": 38.857677833333334, "bike_id": "08be0410061f6bad054310a113fa8c09", "type": "electric_bike", "is_reserved": 0, "lon": -76.9876465}, {"fusion_lat": 0.0, "name": "a309ca400aa4d681baae948a979ec1d3", "is_disabled": 0, "rental_uris": {"android": "https://dc.lft.to/lastmile_qr_scan", "ios": "https://dc.lft.to/lastmile_qr_scan"}, "fusion_lon": 0.0, "lat": 38.92913333333333, "bike_id": "a309ca400aa4d681baae948a979ec1d3", "type": "electric_scooter", "is_reserved": 0, "lon": -77.03741633333334}, {"fusion_lat": 0.0, "name": "f598635af01880b96ac9e91895485df2", "is_disabled": 0, "rental_uris": {"android": "https://dc.lft.to/lastmile_qr_scan", "ios": "https://dc.lft.to/lastmile_qr_scan"}, "fusion_lon": 0.0, "lat": 38.8839425, "bike_id": "f598635af01880b96ac9e91895485df2", "type": "electric_scooter", "is_reserved": 0, "lon": -76.93046216666667}, {"fusion_lat": 0.0, "name": "373ce159b8eb146dedb550d7d7fe3996", "is_disabled": 0, "rental_uris": {"android": "https://dc.lft.to/lastmile_qr_scan", "ios": "https://dc.lft.to/lastmile_qr_scan"}, "fusion_lon": 0.0, "lat": 38.914035, "bike_id": "373ce159b8eb146dedb550d7d7fe3996", "type": "electric_scooter", "is_reserved": 0, "lon": -77.03317816666667}, {"fusion_lat": 0.0, "name": "7808045501be36f0153804be1d8a610a", "is_disabled": 0, "rental_uris": {"android": "https://dc.lft.to/lastmile_qr_scan", "ios": "https://dc.lft.to/lastmile_qr_scan"}, "fusion_lon": 0.0, "lat": 38.91652716666667, "bike_id": "7808045501be36f0153804be1d8a610a", "type": "electric_scooter", "is_reserved": 0, "lon": -77.02816383333334}, {"fusion_lat": 0.0, "name": "8c4e5fc1dd3642c6c05677be035bae70", "is_disabled": 0, "rental_uris": {"android": "https://dc.lft.to/lastmile_qr_scan", "ios": "https://dc.lft.to/lastmile_qr_scan"}, "fusion_lon": 0.0, "lat": 38.9302895, "bike_id": "8c4e5fc1dd3642c6c05677be035bae70", "type": "electric_bike", "is_reserved": 0, "lon": -77.02018366666667}, {"fusion_lat": 0.0, "name": "b6b5cba762bf1f47a799c4c0c9e7cb6b", "is_disabled": 0, "rental_uris": {"android": "https://dc.lft.to/lastmile_qr_scan", "ios": "https://dc.lft.to/lastmile_qr_scan"}, "fusion_lon": 0.0, "lat": 38.8945005, "bike_id": "b6b5cba762bf1f47a799c4c0c9e7cb6b", "type": "electric_scooter", "is_reserved": 0, "lon": -77.0269165}, {"fusion_lat": 0.0, "name": "3c123db35b71b4ccbe6b193f37cc9e04", "is_disabled": 0, "rental_uris": {"android": "https://dc.lft.to/lastmile_qr_scan", "ios": "https://dc.lft.to/lastmile_qr_scan"}, "fusion_lon": 0.0, "lat": 38.896654166666664, "bike_id": "3c123db35b71b4ccbe6b193f37cc9e04", "type": "electric_scooter", "is_reserved": 0, "lon": -77.0510065}, {"fusion_lat": 0.0, "name": "f8a43229af798f16d268e10fabce3240", "is_disabled": 0, "rental_uris": {"android": "https://dc.lft.to/lastmile_qr_scan", "ios": "https://dc.lft.to/lastmile_qr_scan"}, "fusion_lon": 0.0, "lat": 39.034234833333336, "bike_id": "f8a43229af798f16d268e10fabce3240", "type": "electric_bike", "is_reserved": 0, "lon": -77.04314}, {"fusion_lat": 0.0, "name": "e52dee112f83725e4cceb2d2960c0f39", "is_disabled": 0, "rental_uris": {"android": "https://dc.lft.to/lastmile_qr_scan", "ios": "https://dc.lft.to/lastmile_qr_scan"}, "fusion_lon": 0.0, "lat": 38.923239833333334, "bike_id": "e52dee112f83725e4cceb2d2960c0f39", "type": "electric_scooter", "is_reserved": 0, "lon": -77.0296875}, {"fusion_lat": 0.0, "name": "8dc361f8072463ba2022e4bd4564fb92", "is_disabled": 0, "rental_uris": {"android": "https://dc.lft.to/lastmile_qr_scan", "ios": "https://dc.lft.to/lastmile_qr_scan"}, "fusion_lon": 0.0, "lat": 38.972565333333336, "bike_id": "8dc361f8072463ba2022e4bd4564fb92", "type": "electric_bike", "is_reserved": 0, "lon": -76.99276733333333}, {"fusion_lat": 0.0, "name": "4f70c9f0413da7e8dcef2d89d38e41b7", "is_disabled": 0, "rental_uris": {"android": "https://dc.lft.to/lastmile_qr_scan", "ios": "https://dc.lft.to/lastmile_qr_scan"}, "fusion_lon": 0.0, "lat": 38.90698316666667, "bike_id": "4f70c9f0413da7e8dcef2d89d38e41b7", "type": "electric_scooter", "is_reserved": 0, "lon": -77.065326}, {"fusion_lat": 0.0, "name": "e8066ede0ee5c4c53ccf2a4a6e959920", "is_disabled": 0, "rental_uris": {"android": "https://dc.lft.to/lastmile_qr_scan", "ios": "https://dc.lft.to/lastmile_qr_scan"}, "fusion_lon": 0.0, "lat": 38.924502, "bike_id": "e8066ede0ee5c4c53ccf2a4a6e959920", "type": "electric_scooter", "is_reserved": 0, "lon": -77.00877666666666}, {"fusion_lat": 0.0, "name": "c64d33f82edb1e3c84028a4e29a2426e", "is_disabled": 0, "rental_uris": {"android": "https://dc.lft.to/lastmile_qr_scan", "ios": "https://dc.lft.to/lastmile_qr_scan"}, "fusion_lon": 0.0, "lat": 38.883166333333335, "bike_id": "c64d33f82edb1e3c84028a4e29a2426e", "type": "electric_scooter", "is_reserved": 0, "lon": -77.0137905}, {"fusion_lat": 0.0, "name": "148b8ea88d5da698ff79700fd61c8c8a", "is_disabled": 0, "rental_uris": {"android": "https://dc.lft.to/lastmile_qr_scan", "ios": "https://dc.lft.to/lastmile_qr_scan"}, "fusion_lon": 0.0, "lat": 38.925915833333335, "bike_id": "148b8ea88d5da698ff79700fd61c8c8a", "type": "electric_scooter", "is_reserved": 0, "lon": -77.03776516666667}, {"fusion_lat": 0.0, "name": "5d3326b31ed9a4578e6e449d0b439239", "is_disabled": 0, "rental_uris": {"android": "https://dc.lft.to/lastmile_qr_scan", "ios": "https://dc.lft.to/lastmile_qr_scan"}, "fusion_lon": 0.0, "lat": 38.86516833333334, "bike_id": "5d3326b31ed9a4578e6e449d0b439239", "type": "electric_bike", "is_reserved": 0, "lon": -76.97335766666667}, {"fusion_lat": 0.0, "name": "3bc69c04d4e0902c0406fc51b85abf6a", "is_disabled": 0, "rental_uris": {"android": "https://dc.lft.to/lastmile_qr_scan", "ios": "https://dc.lft.to/lastmile_qr_scan"}, "fusion_lon": 0.0, "lat": 38.93650566666667, "bike_id": "3bc69c04d4e0902c0406fc51b85abf6a", "type": "electric_scooter", "is_reserved": 0, "lon": -77.036951}, {"fusion_lat": 0.0, "name": "934db5fff4bfa5ceaa78d20be362a1f7", "is_disabled": 0, "rental_uris": {"android": "https://dc.lft.to/lastmile_qr_scan", "ios": "https://dc.lft.to/lastmile_qr_scan"}, "fusion_lon": 0.0, "lat": 38.920608, "bike_id": "934db5fff4bfa5ceaa78d20be362a1f7", "type": "electric_scooter", "is_reserved": 0, "lon": -77.03462516666667}, {"fusion_lat": 0.0, "name": "4196cd2184ab411fb48eb0cd92f2add3", "is_disabled": 0, "rental_uris": {"android": "https://dc.lft.to/lastmile_qr_scan", "ios": "https://dc.lft.to/lastmile_qr_scan"}, "fusion_lon": 0.0, "lat": 38.900222, "bike_id": "4196cd2184ab411fb48eb0cd92f2add3", "type": "electric_scooter", "is_reserved": 0, "lon": -77.04108066666667}, {"fusion_lat": 0.0, "name": "96e4dad41c81565352488a7bb36b8734", "is_disabled": 0, "rental_uris": {"android": "https://dc.lft.to/lastmile_qr_scan", "ios": "https://dc.lft.to/lastmile_qr_scan"}, "fusion_lon": 0.0, "lat": 38.91546816666666, "bike_id": "96e4dad41c81565352488a7bb36b8734", "type": "electric_scooter", "is_reserved": 0, "lon": -77.03841466666667}, {"fusion_lat": 0.0, "name": "f1b47f083b3d18f392456cef83385ffa", "is_disabled": 0, "rental_uris": {"android": "https://dc.lft.to/lastmile_qr_scan", "ios": "https://dc.lft.to/lastmile_qr_scan"}, "fusion_lon": 0.0, "lat": 38.921030333333334, "bike_id": "f1b47f083b3d18f392456cef83385ffa", "type": "electric_scooter", "is_reserved": 0, "lon": -77.07468166666666}, {"fusion_lat": 0.0, "name": "f745cc0d434eee413cae562cc6830e42", "is_disabled": 0, "rental_uris": {"android": "https://dc.lft.to/lastmile_qr_scan", "ios": "https://dc.lft.to/lastmile_qr_scan"}, "fusion_lon": 0.0, "lat": 38.926079, "bike_id": "f745cc0d434eee413cae562cc6830e42", "type": "electric_scooter", "is_reserved": 0, "lon": -77.039595},