{"data": {"bikes": [{"bike_id": "9e90fcc78f92d6c3cb75913ff26fb80f", "is_reserved": 0, "fusion_lon": 0.0, "lat": 38.90203, "is_disabled": 0, "name": "9e90fcc78f92d6c3cb75913ff26fb80f", "fusion_lat": 0.0, "rental_uris": {"ios": "https://dc.lft.to/lastmile_qr_scan", "android": "https://dc.lft.to/lastmile_qr_scan"}, "lon": -77.0218355, "type": "electric_scooter"}, {"bike_id": "283436bc49c92fec1830d0643ddd650e", "is_reserved": 0, "fusion_lon": 0.0, "lat": 38.86374566666667, "is_disabled": 0, "name": "283436bc49c92fec1830d0643ddd650e", "fusion_lat": 0.0, "rental_uris": {"ios": "https://dc.lft.to/lastmile_qr_scan", "android": "https://dc.lft.to/lastmile_qr_scan"}, "lon": -76.99060083333333, "type": "electric_scooter"}, {"bike_id": "034d3e291df9f1340cfde470fb41bdb8", "is_reserved": 0, "fusion_lon": 0.0, "lat": 38.887213, "is_disabled": 0, "name": "034d3e291df9f1340cfde470fb41bdb8", "fusion_lat": 0.0, "rental_uris": {"ios": "https://dc.lft.to/lastmile_qr_scan", "android": "https://dc.lft.to/lastmile_qr_scan"}, "lon": -77.02580816666666, "type": "electric_scooter"}, {"bike_id": "40d7580feb37641853e85a5e6ffb9d96", "is_reserved": 0, "fusion_lon": 0.0, "lat": 38.911241, "is_disabled": 0, "name": "40d7580feb37641853e85a5e6ffb9d96", "fusion_lat": 0.0, "rental_uris": {"ios": "https://dc.lft.to/lastmile_qr_scan", "android": "https://dc.lft.to/lastmile_qr_scan"}, "lon": -77.0218155, "type": "electric_scooter"}, {"bike_id": "1f9ca94e6d1a96ee7c3f3901babf4d69", "is_reserved": 0, "fusion_lon": 0.0, "lat": 38.925543833333336, "is_disabled": 0, "name": "1f9ca94e6d1a96ee7c3f3901babf4d69", "fusion_lat": 0.0, "rental_uris": {"ios": "https://dc.lft.to/lastmile_qr_scan", "android": "https://dc.lft.to/lastmile_qr_scan"}, "lon": -77.07330833333333, "type": "electric_bike"}, {"bike_id": "6564fb8fc309860a30becd2ce5a916de", "is_reserved": 0, "fusion_lon": 0.0, "lat": 38.871424166666664, "is_disabled": 0, "name": "6564fb8fc309860a30becd2ce5a916de", "fusion_lat": 0.0, "rental_uris": {"ios": "https://dc.lft.to/lastmile_qr_scan", "android": "https://dc.lft.to/lastmile_qr_scan"}, "lon": -76.97741566666667, "type": "electric_scooter"}, {"bike_id": "4316f9ef70253b5bdd6eec0e4277b5c2", "is_reserved": 0, "fusion_lon": 0.0, "lat": 38.924808166666665, "is_disabled": 0, "name": "4316f9ef70253b5bdd6eec0e4277b5c2", "fusion_lat": 0.0, "rental_uris": {"ios": "https://dc.lft.to/lastmile_qr_scan", "android": "https://dc.lft.to/lastmile_qr_scan"}, "lon": -77.05204683333334, "type": "electric_scooter"}, {"bike_id": "1ec2de5e6cc8b45d2f88f9c5e1e88db2", "is_reserved": 0, "fusion_lon": 0.0, "lat": 38.91993733333334, "is_disabled": 0, "name": "1ec2de5e6cc8b45d2f88f9c5e1e88db2", "fusion_lat": 0.0, "rental_uris": {"ios": "https://dc.lft.to/lastmile_qr_scan", "android": "https://dc.lft.to/lastmile_qr_scan"}, "lon": -77.038746, "type": "electric_scooter"}, {"bike_id": "52659ff797055707a9e181f3de9f963e", "is_reserved": 0, "fusion_lon": 0.0, "lat": 38.925118833333336, "is_disabled": 0, "name": "52659ff797055707a9e181f3de9f963e", "fusion_lat": 0.0, "rental_uris": {"ios": "https://dc.lft.to/lastmile_qr_scan", "android": "https://dc.lft.to/lastmile_qr_scan"}, "lon": -77.01937216666667, "type": "electric_scooter"}, {"bike_id": "c414b5d24ed98809d3d7ba2b70ce20a7", "is_reserved": 0, "fusion_lon": 0.0, "lat": 38.85882433333333, "is_disabled": 0, "name": "c414b5d24ed98809d3d7ba2b70ce20a7", "fusion_lat": 0.0, "rental_uris": {"ios": "https://dc.lft.to/lastmile_qr_scan", "android": "https://dc.lft.to/lastmile_qr_scan"}, "lon": -77.0955595, "type": "electric_bike"}, {"bike_id": "2ac4f4bdcc3c80bd2bb40f703e9959c0", "is_reserved": 0, "fusion_lon": 0.0, "lat": 38.920917, "is_disabled": 0, "name": "2ac4f4bdcc3c80bd2bb40f703e9959c0", "fusion_lat": 0.0, "rental_uris": {"ios": "https://dc.lft.to/lastmile_qr_scan", "android": "https://dc.lft.to/lastmile_qr_scan"}, "lon": -77.02420166666667, "type": "electric_scooter"}, {"bike_id": "0867976319fa495cc1fe37a47027ee4d", "is_reserved": 0, "fusion_lon": 0.0, "lat": 38.86520333333333, "is_disabled": 0, "name": "0867976319fa495cc1fe37a47027ee4d", "fusion_lat": 0.0, "rental_uris": {"ios": "https://dc.lft.to/lastmile_qr_scan", "android": "https://dc.lft.to/lastmile_qr_scan"}, "lon": -76.9903155, "type": "electric_scooter"}, {"bike_id": "356584752ccb88afbc7560a092546ca5", "is_reserved": 0, "fusion_lon": 0.0, "lat": 38.90563616666667, "is_disabled": 0, "name": "356584752ccb88afbc7560a092546ca5", "fusion_lat": 0.0, "rental_uris": {"ios": "https://dc.lft.to/lastmile_qr_scan", "android": "https://dc.lft.to/lastmile_qr_scan"}, "lon": -77.03068933333333, "type": "electric_scooter"}, {"bike_id": "d9add2e42f164bc6aefff9917c318e7a", "is_reserved": 0, "fusion_lon": 0.0, "lat": 38.911207, "is_disabled": 0, "name": "d9add2e42f164bc6aefff9917c318e7a", "fusion_lat": 0.0, "rental_uris": {"ios": "https://dc.lft.to/lastmile_qr_scan", "android": "https://dc.lft.to/lastmile_qr_scan"}, "lon": -77.0383775, "type": "electric_scooter"}, {"bike_id": "c4d4b0291135a5797f9abc4248845c54", "is_reserved": 0, "fusion_lon": 0.0, "lat": 38.9010495, "is_disabled": 0, "name": "c4d4b0291135a5797f9abc4248845c54", "fusion_lat": 0.0, "rental_uris": {"ios": "https://dc.lft.to/lastmile_qr_scan", "android": "https://dc.lft.to/lastmile_qr_scan"}, "lon": -77.03179266666666, "type": "electric_scooter"}, {"bike_id": "ca7864983eeb3178aa01d9a1e000e030", "is_reserved": 0, "fusion_lon": 0.0, "lat": 38.852912333333336, "is_disabled": 0, "name": "ca7864983eeb3178aa01d9a1e000e030", "fusion_lat": 0.0, "rental_uris": {"ios": "https://dc.lft.to/lastmile_qr_scan", "android": "https://dc.lft.to/lastmile_qr_scan"}, "lon": -77.052759, "type": "electric_bike"}, {"bike_id": "5c97b4ae88c15c9e8a9683b89facf623", "is_reserved": 0, "fusion_lon": 0.0, "lat": 38.8638945, "is_disabled": 0, "name": "5c97b4ae88c15c9e8a9683b89facf623", "fusion_lat": 0.0, "rental_uris": {"ios": "https://dc.lft.to/lastmile_qr_scan", "android": "https://dc.lft.to/lastmile_qr_scan"}, "lon": -76.9898925, "type": "electric_bike"}, {"bike_id": "24e0d744b5c3db29e2e626717a77c04d", "is_reserved": 0, "fusion_lon": 0.0, "lat": 38.95735233333333, "is_disabled": 0, "name": "24e0d744b5c3db29e2e626717a77c04d", "fusion_lat": 0.0, "rental_uris": {"ios": "https://dc.lft.to/lastmile_qr_scan", "android": "https://dc.lft.to/lastmile_qr_scan"}, "lon": -76.98016583333333, "type": "electric_bike"}, {"bike_id": "d0bdff1a959277e566791e399457d4ed", "is_reserved": 0, "fusion_lon": 0.0, "lat": 38.941702166666666, "is_disabled": 0, "name": "d0bdff1a959277e566791e399457d4ed", "fusion_lat": 0.0, "rental_uris": {"ios": "https://dc.lft.to/lastmile_qr_scan", "android": "https://dc.lft.to/lastmile_qr_scan"}, "lon": -77.041239, "type": "electric_scooter"}, {"bike_id": "87767d40f3aa3340965adc12d5bd727f", "is_reserved": 0, "fusion_lon": 0.0, "lat": 38.916816, "is_disabled": 0, "name": "87767d40f3aa3340965adc12d5bd727f", "fusion_lat": 0.0, "rental_uris": {"ios": "https://dc.lft.to/lastmile_qr_scan", "android": "https://dc.lft.to/lastmile_qr_scan"}, "lon": -77.0122345, "type": "electric_scooter"}, {"bike_id": "52ca41c195b96371d78dfab6acc8dba2", "is_reserved": 0, "fusion_lon": 0.0, "lat": 38.89876966666667, "is_disabled": 0, "name": "52ca41c195b96371d78dfab6acc8dba2", "fusion_lat": 0.0, "rental_uris": {"ios": "https://dc.lft.to/lastmile_qr_scan", "android": "https://dc.lft.to/lastmile_qr_scan"}, "lon": -76.93160316666666, "type": "electric_scooter"}, {"bike_id": "44fe0f730883bfd52393d24e60ab3c5f", "is_reserved": 0, "fusion_lon": 0.0, "lat": 38.99816283333333, "is_disabled": 0, "name": "44fe0f730883bfd52393d24e60ab3c5f", "fusion_lat": 0.0, "rental_uris": {"ios": "https://dc.lft.to/lastmile_qr_scan", "android": "https://dc.lft.to/lastmile_qr_scan"}, "lon": -76.88366133333334, "type": "electric_bike"}, {"bike_id": "a199b050dc4e3905c9f0b587736b8146", "is_reserved": 0, "fusion_lon": 0.0, "lat": 38.903839, "is_disabled": 0, "name": "a199b050dc4e3905c9f0b587736b8146", "fusion_lat": 0.0, "rental_uris": {"ios": "https://dc.lft.to/lastmile_qr_scan", "android": "https://dc.lft.to/lastmile_qr_scan"}, "lon": -77.011039, "type": "electric_scooter"}, {"bike_id": "80122cd6e01c191f149df9eb2c624892", "is_reserved": 0, "fusion_lon": 0.0, "lat": 38.928997833333334, "is_disabled": 0, "name": "80122cd6e01c191f149df9eb2c624892", "fusion_lat": 0.0, "rental_uris": {"ios": "https://dc.lft.to/lastmile_qr_scan", "android": "https://dc.lft.to/lastmile_qr_scan"}, "lon": -77.05454816666666, "type": "electric_scooter"}, {"bike_id": "809abf1468b59264da1e1d04b671f590", "is_reserved": 0, "fusion_lon": 0.0, "lat": 38.92154016666667, "is_disabled": 0, "name": "809abf1468b59264da1e1d04b671f590", "fusion_lat": 0.0, "rental_uris": {"ios": "https://dc.lft.to/lastmile_qr_scan", "android": "https://dc.lft.to/lastmile_qr_scan"}, "lon": -77.0348295, "type": "electric_scooter"}, {"bike_id": "104271a40c758c7a83fce0f897926bdf", "is_reserved": 0, "fusion_lon": 0.0, "lat": 38.905630333333335, "is_disabled": 0, "name": "104271a40c758c7a83fce0f897926bdf", "fusion_lat": 0.0, "rental_uris": {"ios": "https://dc.lft.to/lastmile_qr_scan", "android": "https://dc.lft.to/lastmile_qr_scan"}, "lon": -77.00577533333333, "type": "electric_scooter"}, {"bike_id": "75652709c8b8c6200d5ef5af8d01fad4", "is_reserved": 0, "fusion_lon": 0.0, "lat": 38.90344833333333, "is_disabled": 0, "name": "75652709c8b8c6200d5ef5af8d01fad4", "fusion_lat": 0.0, "rental_uris": {"ios": "https://dc.lft.to/lastmile_qr_scan", "android": "https://dc.lft.to/lastmile_qr_scan"}, "lon": -77.066384, "type": "electric_scooter"}, {"bike_id": "6f2978a129ad453c080992439a2a7a21", "is_reserved": 0, "fusion_lon": 0.0, "lat": 38.80751633333333, "is_disabled": 0, "name": "6f2978a129ad453c080992439a2a7a21", "fusion_lat": 0.0, "rental_uris": {"ios": "https://dc.lft.to/lastmile_qr_scan", "android": "https://dc.lft.to/lastmile_qr_scan"}, "lon": -77.09432466666667, "type": "electric_bike"}, {"bike_id": "892e8be77e297b4b118f544db0d357b4", "is_reserved": 0, "fusion_lon": 0.0, "lat": 38.9031815, "is_disabled": 0, "name": "892e8be77e297b4b118f544db0d357b4", "fusion_lat": 0.0, "rental_uris": {"ios": "https://dc.lft.to/lastmile_qr_scan", "android": "https://dc.lft.to/lastmile_qr_scan"}, "lon": -77.0375725, "type": "electric_scooter"}, {"bike_id": "5e383f04fe12f9ea0dd7fc231df4c6ec", "is_reserved": 0, "fusion_lon": 0.0, "lat": 38.92885016666666, "is_disabled": 0, "name": "5e383f04fe12f9ea0dd7fc231df4c6ec", "fusion_lat": 0.0, "rental_uris": {"ios": "https://dc.lft.to/lastmile_qr_scan", "android": "https://dc.lft.to/lastmile_qr_scan"}, "lon": -77.03766283333333, "type": "electric_scooter"}, {"bike_id": "e387262702d91317342d3bf496c181a7", "is_reserved": 0, "fusion_lon": 0.0, "lat": 38.93888666666667, "is_disabled": 0, "name": "e387262702d91317342d3bf496c181a7", "fusion_lat": 0.0, "rental_uris": {"ios": "https://dc.lft.to/lastmile_qr_scan", "android": "https://dc.lft.to/lastmile_qr_scan"}, "lon": -77.03318966666667, "type": "electric_scooter"}, {"bike_id": "2139506ec7b78aefa94517aef17180d3", "is_reserved": 0, "fusion_lon": 0.0, "lat": 38.921501166666665, "is_disabled": 0, "name": "2139506ec7b78aefa94517aef17180d3", "fusion_lat": 0.0, "rental_uris": {"ios": "https://dc.lft.to/lastmile_qr_scan", "android": "https://dc.lft.to/lastmile_qr_scan"}, "lon": -77.03524316666666, "type": "electric_scooter"}, {"bike_id": "067aaeb64b86d90d4c80b21471d1a2f6", "is_reserved": 0, "fusion_lon": 0.0, "lat": 38.9591225, "is_disabled": 0, "name": "067aaeb64b86d90d4c80b21471d1a2f6", "fusion_lat": 0.0, "rental_uris": {"ios": "https://dc.lft.to/lastmile_qr_scan", "android": "https://dc.lft.to/lastmile_qr_scan"}, "lon": -77.0015355, "type": "electric_bike"}, {"bike_id": "f2c85350df50303d4125624fd1458f9e", "is_reserved": 0, "fusion_lon": 0.0, "lat": 38.90970033333333, "is_disabled": 0, "name": "f2c85350df50303d4125624fd1458f9e", "fusion_lat": 0.0, "rental_uris": {"ios": "https://dc.lft.to/lastmile_qr_scan", "android": "https://dc.lft.to/lastmile_qr_scan"}, "lon": -77.02720066666667, "type": "electric_scooter"}, {"bike_id": "0462062b9897e71e1054f2f5b9383505", "is_reserved": 0, "fusion_lon": 0.0, "lat": 38.885056166666665, "is_disabled": 0, "name": "0462062b9897e71e1054f2f5b9383505", "fusion_lat": 0.0, "rental_uris": {"ios": "https://dc.lft.to/lastmile_qr_scan", "android": "https://dc.lft.to/lastmile_qr_scan"}, "lon": -77.00566383333333, "type": "electric_scooter"}, {"bike_id": "4d7f4544dab6675143bf285635170930", "is_reserved": 0, "fusion_lon": 0.0, "lat": 38.92043533333333, "is_disabled": 0, "name": "4d7f4544dab6675143bf285635170930", "fusion_lat": 0.0, "rental_uris": {"ios": "https://dc.lft.to/lastmile_qr_scan", "android": "https://dc.lft.to/lastmile_qr_scan"}, "lon": -76.97910683333333, "type": "electric_scooter"}, {"bike_id": "31de7909a378d63db49e007ba62fb641", "is_reserved": 0, "fusion_lon": 0.0, "lat": 38.9186585, "is_disabled": 0, "name": "31de7909a378d63db49e007ba62fb641", "fusion_lat": 0.0, "rental_uris": {"ios": "https://dc.lft.to/lastmile_qr_scan", "android": "https://dc.lft.to/lastmile_qr_scan"}, "lon": -77.02333533333334, "type": "electric_scooter"}, {"bike_id": "9bc50594d27ce2df7e9029a04b2dd307", "is_reserved": 0, "fusion_lon": 0.0, "lat": 38.920928, "is_disabled": 0, "name": "9bc50594d27ce2df7e9029a04b2dd307", "fusion_lat": 0.0, "rental_uris": {"ios": "https://dc.lft.to/lastmile_qr_scan", "android": "https://dc.lft.to/lastmile_qr_scan"}, "lon": -77.02422266666666, "type": "electric_scooter"}, {"bike_id": "f9d3e53fc394cded88acdf12431e96a0", "is_reserved": 0, "fusion_lon": 0.0, "lat": 38.90382133333333, "is_disabled": 0, "name": "f9d3e53fc394cded88acdf12431e96a0", "fusion_lat": 0.0, "rental_uris": {"ios": "https://dc.lft.to/lastmile_qr_scan", "android": "https://dc.lft.to/lastmile_qr_scan"}, "lon": -77.039877, "type": "electric_scooter"}, {"bike_id": "d36aadb32229fa09a2cef57c29de0e3b", "is_reserved": 0, "fusion_lon": 0.0, "lat": 38.93665016666667, "is_disabled": 0, "name": "d36aadb32229fa09a2cef57c29de0e3b", "fusion_lat": 0.0, "rental_uris": {"ios": "https://dc.lft.to/lastmile_qr_scan", "android": "https://dc.lft.to/lastmile_qr_scan"}, "lon": -77.03630966666667, "type": "electric_scooter"}, {"bike_id": "a8f60e4627a9f6a35d165dc30f2a33af", "is_reserved": 0, "fusion_lon": 0.0, "lat": 38.887403666666664, "is_disabled": 0, "name": "a8f60e4627a9f6a35d165dc30f2a33af", "fusion_lat": 0.0, "rental_uris": {"ios": "https://dc.lft.to/lastmile_qr_scan", "android": "https://dc.lft.to/lastmile_qr_scan"}, "lon": -77.01531, "type": "electric_scooter"}, {"bike_id": "5ecf110b07869f7fcfe38e40b721ac46", "is_reserved": 0, "fusion_lon": 0.0, "lat": 38.897808, "is_disabled": 0, "name": "5ecf110b07869f7fcfe38e40b721ac46", "fusion_lat": 0.0, "rental_uris": {"ios": "https://dc.lft.to/lastmile_qr_scan", "android": "https://dc.lft.to/lastmile_qr_scan"}, "lon": -77.00723083333334, "type": "electric_scooter"}, {"bike_id": "6972cb5ff1d9e0f5e037cf9e552fe164", "is_reserved": 0, "fusion_lon": 0.0, "lat": 38.8745765, "is_disabled": 0, "name": "6972cb5ff1d9e0f5e037cf9e552fe164", "fusion_lat": 0.0, "rental_uris": {"ios": "https://dc.lft.to/lastmile_qr_scan", "android": "https://dc.lft.to/lastmile_qr_scan"}, "lon": -77.005405, "type": "electric_scooter"}, {"bike_id": "9c87b00961b0152d1883ba6f0ce82d14", "is_reserved": 0, "fusion_lon": 0.0, "lat": 38.906086, "is_disabled": 0, "name": "9c87b00961b0152d1883ba6f0ce82d14", "fusion_lat": 0.0, "rental_uris": {"ios": "https://dc.lft.to/lastmile_qr_scan", "android": "https://dc.lft.to/lastmile_qr_scan"}, "lon": -77.03954366666666, "type": "electric_scooter"}, {"bike_id": "53bdf29ac01103feff27f1ab1d490d9c", "is_reserved": 0, "fusion_lon": 0.0, "lat": 38.91872883333333, "is_disabled": 0, "name": "53bdf29ac01103feff27f1ab1d490d9c", "fusion_lat": 0.0, "rental_uris": {"ios": "https://dc.lft.to/lastmile_qr_scan", "android": "https://dc.lft.to/lastmile_qr_scan"}, "lon": -77.04348716666667, "type": "electric_scooter"}, {"bike_id": "c104b32a2c9ad3d274d54f9fa5ee6ffa", "is_reserved": 0, "fusion_lon": 0.0, "lat": 38.922462, "is_disabled": 0, "name": "c104b32a2c9ad3d274d54f9fa5ee6ffa", "fusion_lat": 0.0, "rental_uris": {"ios": "https://dc.lft.to/lastmile_qr_scan", "android": "https://dc.lft.to/lastmile_qr_scan"}, "lon": -77.03665733333334, "type": "electric_scooter"}, {"bike_id": "99d23d5c4b32fe224aff845436479e57", "is_reserved": 0, "fusion_lon": 0.0, "lat": 38.906079166666665, "is_disabled": 0, "name": "99d23d5c4b32fe224aff845436479e57", "fusion_lat": 0.0, "rental_uris": {"ios": "https://dc.lft.to/lastmile_qr_scan", "android": "https://dc.lft.to/lastmile_qr_scan"}, "lon": -77.05125983333333, "type": "electric_scooter"}, {"bike_id": "f2b8c2680cb90f757833b203ad86cc2b", "is_reserved": 0, "fusion_lon": 0.0, "lat": 38.877295833333335, "is_disabled": 0, "name": "f2b8c2680cb90f757833b203ad86cc2b", "fusion_lat": 0.0, "rental_uris": {"ios": "https://dc.lft.to/lastmile_qr_scan", "android": "https://dc.lft.to/lastmile_qr_scan"}, "lon": -77.118451, "type": "electric_bike"}, {"bike_id": "f12c6b8bf137e34890ba63a60c87f202", "is_reserved": 0, "fusion_lon": 0.0, "lat": 38.87919216666667, "is_disabled": 0, "name": "f12c6b8bf137e34890ba63a60c87f202", "fusion_lat": 0.0, "rental_uris": {"ios": "https://dc.lft.to/lastmile_qr_scan", "android": "https://dc.lft.to/lastmile_qr_scan"}, "lon": -77.013442, "type": "electric_scooter"}, {"bike_id": "c1478e0c95a7f2c043017918e8776870", "is_reserved": 0, "fusion_lon": 0.0, "lat": 38.9396425, "is_disabled": 0, "name": "c1478e0c95a7f2c043017918e8776870", "fusion_lat": 0.0, "rental_uris": {"ios": "https://dc.lft.to/lastmile_qr_scan", "android": "https://dc.lft.to/lastmile_qr_scan"}, "lon": -77.05319183333333, "type": "electric_scooter"}, {"bike_id": "31e7340cc01f6397309714e5e34083dc", "is_reserved": 0, "fusion_lon": 0.0, "lat": 38.912537666666665, "is_disabled": 0, "name": "31e7340cc01f6397309714e5e34083dc", "fusion_lat": 0.0, "rental_uris": {"ios": "https://dc.lft.to/lastmile_qr_scan", "android": "https://dc.lft.to/lastmile_qr_scan"}, "lon": -77.0364555, "type": "electric_scooter"}, {"bike_id": "32c97d6a8d904c2f5049f721349fe274", "is_reserved": 0, "fusion_lon": 0.0, "lat": 38.885041666666666, "is_disabled": 0, "name": "32c97d6a8d904c2f5049f721349fe274", "fusion_lat": 0.0, "rental_uris": {"ios": "https://dc.lft.to/lastmile_qr_scan", "android": "https://dc.lft.to/lastmile_qr_scan"}, "lon": -77.00568066666666, "type": "electric_scooter"}, {"bike_id": "edca1996309dfb408b1c05c607d30c84", "is_reserved": 0, "fusion_lon": 0.0, "lat": 38.93701133333333, "is_disabled": 0, "name": "edca1996309dfb408b1c05c607d30c84", "fusion_lat": 0.0, "rental_uris": {"ios": "https://dc.lft.to/lastmile_qr_scan", "android": "https://dc.lft.to/lastmile_qr_scan"}, "lon": -77.032601, "type": "electric_scooter"}, {"bike_id": "23ab0f9bf074fd27e5a4995edc2dcb6b", "is_reserved": 0, "fusion_lon": 0.0, "lat": 38.92127283333333, "is_disabled": 0, "name": "23ab0f9bf074fd27e5a4995edc2dcb6b", "fusion_lat": 0.0, "rental_uris": {"ios": "https://dc.lft.to/lastmile_qr_scan", "android": "https://dc.lft.to/lastmile_qr_scan"}, "lon": -77.04133033333333, "type": "electric_scooter"}, {"bike_id": "d448c64530d110a9c4af9f3001e153f4", "is_reserved": 0, "fusion_lon": 0.0, "lat": 38.935781, "is_disabled": 0, "name": "d448c64530d110a9c4af9f3001e153f4", "fusion_lat": 0.0, "rental_uris": {"ios": "https://dc.lft.to/lastmile_qr_scan", "android": "https://dc.lft.to/lastmile_qr_scan"}, "lon": -77.03282133333333, "type": "electric_scooter"}, {"bike_id": "87276169a2602c37fabe5ab4cfe94ac3", "is_reserved": 0, "fusion_lon": 0.0, "lat": 38.9237075, "is_disabled": 0, "name": "87276169a2602c37fabe5ab4cfe94ac3", "fusion_lat": 0.0, "rental_uris": {"ios": "https://dc.lft.to/lastmile_qr_scan", "android": "https://dc.lft.to/lastmile_qr_scan"}, "lon": -77.05178083333334, "type": "electric_scooter"}, {"bike_id": "d1bde621503fc4a16c2cbc530d642ee2", "is_reserved": 0, "fusion_lon": 0.0, "lat": 38.908086833333336, "is_disabled": 0, "name": "d1bde621503fc4a16c2cbc530d642ee2", "fusion_lat": 0.0, "rental_uris": {"ios": "https://dc.lft.to/lastmile_qr_scan", "android": "https://dc.lft.to/lastmile_qr_scan"}, "lon": -77.03429683333333, "type": "electric_scooter"}, {"bike_id": "e6a8644fd4bb291f6d168891264e00dd", "is_reserved": 0, "fusion_lon": 0.0, "lat": 38.883509833333335, "is_disabled": 0, "name": "e6a8644fd4bb291f6d168891264e00dd", "fusion_lat": 0.0, "rental_uris": {"ios": "https://dc.lft.to/lastmile_qr_scan", "android": "https://dc.lft.to/lastmile_qr_scan"}, "lon": -76.98549016666666, "type": "electric_scooter"}, {"bike_id": "9bb4a4ac22724618e02e6cab7206de6f", "is_reserved": 0, "fusion_lon": 0.0, "lat": 38.902916, "is_disabled": 0, "name": "9bb4a4ac22724618e02e6cab7206de6f", "fusion_lat": 0.0, "rental_uris": {"ios": "https://dc.lft.to/lastmile_qr_scan", "android": "https://dc.lft.to/lastmile_qr_scan"}, "lon": -77.03427366666666, "type": "electric_scooter"}, {"bike_id": "69ac2c90f4d2955c6ca8215ddd54f302", "is_reserved": 0, "fusion_lon": 0.0, "lat": 38.928455, "is_disabled": 0, "name": "69ac2c90f4d2955c6ca8215ddd54f302", "fusion_lat": 0.0, "rental_uris": {"ios": "https://dc.lft.to/lastmile_qr_scan", "android": "https://dc.lft.to/lastmile_qr_scan"}, "lon": -77.032949, "type": "electric_scooter"}, {"bike_id": "0e2c149d39dcaa6db7cd229f63d8cb3f", "is_reserved": 0, "fusion_lon": 0.0, "lat": 38.909757666666664, "is_disabled": 0, "name": "0e2c149d39dcaa6db7cd229f63d8cb3f", "fusion_lat": 0.0, "rental_uris": {"ios": "https://dc.lft.to/lastmile_qr_scan", "android": "https://dc.lft.to/lastmile_qr_scan"}, "lon": -77.03867433333333, "type": "electric_scooter"}, {"bike_id": "7752002123de8858caa22b5ab921b4fa", "is_reserved": 0, "fusion_lon": 0.0, "lat": 38.90040716666667, "is_disabled": 0, "name": "7752002123de8858caa22b5ab921b4fa", "fusion_lat": 0.0, "rental_uris": {"ios": "https://dc.lft.to/lastmile_qr_scan", "android": "https://dc.lft.to/lastmile_qr_scan"}, "lon": -77.00207566666667, "type": "electric_scooter"}, {"bike_id": "fdee2b29fc97b56609a79ed7addc7c86", "is_reserved": 0, "fusion_lon": 0.0, "lat": 38.911756, "is_disabled": 0, "name": "fdee2b29fc97b56609a79ed7addc7c86", "fusion_lat": 0.0, "rental_uris": {"ios": "https://dc.lft.to/lastmile_qr_scan", "android": "https://dc.lft.to/lastmile_qr_scan"}, "lon": -77.002877, "type": "electric_bike"}, {"bike_id": "74e2c314a76d72c28f080488aefeac81", "is_reserved": 0, "fusion_lon": 0.0, "lat": 38.884907166666665, "is_disabled": 0, "name": "74e2c314a76d72c28f080488aefeac81", "fusion_lat": 0.0, "rental_uris": {"ios": "https://dc.lft.to/lastmile_qr_scan", "android": "https://dc.lft.to/lastmile_qr_scan"}, "lon": -77.007264, "type": "electric_scooter"}, {"bike_id": "d784eddd15202d880148b3dbc96a04f9", "is_reserved": 0, "fusion_lon": 0.0, "lat": 38.9031855, "is_disabled": 0, "name": "d784eddd15202d880148b3dbc96a04f9", "fusion_lat": 0.0, "rental_uris": {"ios": "https://dc.lft.to/lastmile_qr_scan", "android": "https://dc.lft.to/lastmile_qr_scan"}, "lon": -77.03331633333333, "type": "electric_scooter"}, {"bike_id": "809518e958a0c1011473fa029d688939", "is_reserved": 0, "fusion_lon": 0.0, "lat": 38.898235, "is_disabled": 0, "name": "809518e958a0c1011473fa029d688939", "fusion_lat": 0.0, "rental_uris": {"ios": "https://dc.lft.to/lastmile_qr_scan", "android": "https://dc.lft.to/lastmile_qr_scan"}, "lon": -77.03314266666666, "type": "electric_scooter"}, {"bike_id": "be68d0643abb681fd105a05f6ffe68c3", "is_reserved": 0, "fusion_lon": 0.0, "lat": 38.842739, "is_disabled": 0, "name": "be68d0643abb681fd105a05f6ffe68c3", "fusion_lat": 0.0, "rental_uris": {"ios": "https://dc.lft.to/lastmile_qr_scan", "android": "https://dc.lft.to/lastmile_qr_scan"}, "lon": -76.988355, "type": "electric_bike"}, {"bike_id": "2df23b08b1709f801dce2b105ec86e46", "is_reserved": 0, "fusion_lon": 0.0, "lat": 38.915815333333335, "is_disabled": 0, "name": "2df23b08b1709f801dce2b105ec86e46", "fusion_lat": 0.0, "rental_uris": {"ios": "https://dc.lft.to/lastmile_qr_scan", "android": "https://dc.lft.to/lastmile_qr_scan"}, "lon": -77.03178766666667, "type": "electric_scooter"}, {"bike_id": "b9192f98f43c87e7eef55407bedb50ab", "is_reserved": 0, "fusion_lon": 0.0, "lat": 38.9124805, "is_disabled": 0, "name": "b9192f98f43c87e7eef55407bedb50ab", "fusion_lat": 0.0, "rental_uris": {"ios": "https://dc.lft.to/lastmile_qr_scan", "android": "https://dc.lft.to/lastmile_qr_scan"}, "lon": -77.01623516666666, "type": "electric_scooter"}, {"bike_id": "c9ebc61666dd0870f3ed508af75640ed", "is_reserved": 0, "fusion_lon": 0.0, "lat": 38.89826566666667, "is_disabled": 0, "name": "c9ebc61666dd0870f3ed508af75640ed", "fusion_lat": 0.0, "rental_uris": {"ios": "https://dc.lft.to/lastmile_qr_scan", "android": "https://dc.lft.to/lastmile_qr_scan"}, "lon": -77.033465, "type": "electric_scooter"}, {"bike_id": "069ea349607edd14675c8c5823f65a5e", "is_reserved": 0, "fusion_lon": 0.0, "lat": 38.90036883333333, "is_disabled": 0, "name": "069ea349607edd14675c8c5823f65a5e", "fusion_lat": 0.0, "rental_uris": {"ios": "https://dc.lft.to/lastmile_qr_scan", "android": "https://dc.lft.to/lastmile_qr_scan"}, "lon": -77.0115645, "type": "electric_scooter"}, {"bike_id": "7e2270e1fbada36443fec6c61a7c87ef", "is_reserved": 0, "fusion_lon": 0.0, "lat": 38.8922575, "is_disabled": 0, "name": "7e2270e1fbada36443fec6c61a7c87ef", "fusion_lat": 0.0, "rental_uris": {"ios": "https://dc.lft.to/lastmile_qr_scan", "android": "https://dc.lft.to/lastmile_qr_scan"}, "lon": -77.02203716666666, "type": "electric_scooter"}, {"bike_id": "eecdbb6c225638428f454834b9f54dee", "is_reserved": 0, "fusion_lon": 0.0, "lat": 38.9142705, "is_disabled": 0, "name": "eecdbb6c225638428f454834b9f54dee", "fusion_lat": 0.0, "rental_uris": {"ios": "https://dc.lft.to/lastmile_qr_scan", "android": "https://dc.lft.to/lastmile_qr_scan"}, "lon": -77.04156033333334, "type": "electric_scooter"}, {"bike_id": "2f0c1f6aac1dd9fd2be14d0cfa139961", "is_reserved": 0, "fusion_lon": 0.0, "lat": 38.88043716666667, "is_disabled": 0, "name": "2f0c1f6aac1dd9fd2be14d0cfa139961", "fusion_lat": 0.0, "rental_uris": {"ios": "https://dc.lft.to/lastmile_qr_scan", "android": "https://dc.lft.to/lastmile_qr_scan"}, "lon": -77.01324783333334, "type": "electric_bike"}, {"bike_id": "066141f94c661bd58dbaf7b3345a9e58", "is_reserved": 0, "fusion_lon": 0.0, "lat": 38.839383833333336, "is_disabled": 0, "name": "066141f94c661bd58dbaf7b3345a9e58", "fusion_lat": 0.0, "rental_uris": {"ios": "https://dc.lft.to/lastmile_qr_scan", "android": "https://dc.lft.to/lastmile_qr_scan"}, "lon": -77.07898183333333, "type": "electric_bike"}, {"bike_id": "ba33104339bc98bf05c441baeebed8a1", "is_reserved": 0, "fusion_lon": 0.0, "lat": 38.900554666666665, "is_disabled": 0, "name": "ba33104339bc98bf05c441baeebed8a1", "fusion_lat": 0.0, "rental_uris": {"ios": "https://dc.lft.to/lastmile_qr_scan", "android": "https://dc.lft.to/lastmile_qr_scan"}, "lon": -77.05146016666667, "type": "electric_scooter"}, {"bike_id": "7c3827acaed0cb463ddc3e305172816f", "is_reserved": 0, "fusion_lon": 0.0, "lat": 38.88137066666667, "is_disabled": 0, "name": "7c3827acaed0cb463ddc3e305172816f", "fusion_lat": 0.0, "rental_uris": {"ios": "https://dc.lft.to/lastmile_qr_scan", "android": "https://dc.lft.to/lastmile_qr_scan"}, "lon": -76.98089933333333, "type": "electric_bike"}, {"bike_id": "d1cb3b63a20946f36df89e0f6a910a85", "is_reserved": 0, "fusion_lon": 0.0, "lat": 38.91412, "is_disabled": 0, "name": "d1cb3b63a20946f36df89e0f6a910a85", "fusion_lat": 0.0, "rental_uris": {"ios": "https://dc.lft.to/lastmile_qr_scan", "android": "https://dc.lft.to/lastmile_qr_scan"}, "lon": -77.03812616666667, "type": "electric_scooter"}, {"bike_id": "d82df7a3a097af925ecdbfa2aaf9cd00", "is_reserved": 0, "fusion_lon": 0.0, "lat": 38.894850166666664, "is_disabled": 0, "name": "d82df7a3a097af925ecdbfa2aaf9cd00", "fusion_lat": 0.0, "rental_uris": {"ios": "https://dc.lft.to/lastmile_qr_scan", "android": "https://dc.lft.to/lastmile_qr_scan"}, "lon": -77.02288316666667, "type": "electric_scooter"}, {"bike_id": "3e198693c55f587744cfa27fa690cfd2", "is_reserved": 0, "fusion_lon": 0.0, "lat": 38.8398275, "is_disabled": 0, "name": "3e198693c55f587744cfa27fa690cfd2", "fusion_lat": 0.0, "rental_uris": {"ios": "https://dc.lft.to/lastmile_qr_scan", "android": "https://dc.lft.to/lastmile_qr_scan"}, "lon": -77.005628, "type": "electric_bike"}, {"bike_id": "c0da42b0cb236386d287d9621aa003f3", "is_reserved": 0, "fusion_lon": 0.0, "lat": 38.930808666666664, "is_disabled": 0, "name": "c0da42b0cb236386d287d9621aa003f3", "fusion_lat": 0.0, "rental_uris": {"ios": "https://dc.lft.to/lastmile_qr_scan", "android": "https://dc.lft.to/lastmile_qr_scan"}, "lon": -77.02792466666666, "type": "electric_scooter"}, {"bike_id": "6bc8308662fd789c28ca2acb0ede81b2", "is_reserved": 0, "fusion_lon": 0.0, "lat": 38.86658083333333, "is_disabled": 0, "name": "6bc8308662fd789c28ca2acb0ede81b2", "fusion_lat": 0.0, "rental_uris": {"ios": "https://dc.lft.to/lastmile_qr_scan", "android": "https://dc.lft.to/lastmile_qr_scan"}, "lon": -76.9901305, "type": "electric_scooter"}, {"bike_id": "40f7e0081755724baf382784b9f29dda", "is_reserved": 0, "fusion_lon": 0.0, "lat": 38.9015115, "is_disabled": 0, "name": "40f7e0081755724baf382784b9f29dda", "fusion_lat": 0.0, "rental_uris": {"ios": "https://dc.lft.to/lastmile_qr_scan", "android": "https://dc.lft.to/lastmile_qr_scan"}, "lon": -77.02857433333334, "type": "electric_scooter"}, {"bike_id": "2e44a9247993a855fd50358ed2b33623", "is_reserved": 0, "fusion_lon": 0.0, "lat": 38.898235, "is_disabled": 0, "name": "2e44a9247993a855fd50358ed2b33623", "fusion_lat": 0.0, "rental_uris": {"ios": "https://dc.lft.to/lastmile_qr_scan", "android": "https://dc.lft.to/lastmile_qr_scan"}, "lon": -76.94649133333333, "type": "electric_scooter"}, {"bike_id": "feee8313a4ef96ec8f22d65d49c743b4", "is_reserved": 0, "fusion_lon": 0.0, "lat": 38.9049805, "is_disabled": 0, "name": "feee8313a4ef96ec8f22d65d49c743b4", "fusion_lat": 0.0, "rental_uris": {"ios": "https://dc.lft.to/lastmile_qr_scan", "android": "https://dc.lft.to/lastmile_qr_scan"}, "lon": -77.0574705, "type": "electric_scooter"}, {"bike_id": "4d05ad6891a2df52c628e863f645c23a", "is_reserved": 0, "fusion_lon": 0.0, "lat": 38.90065933333333, "is_disabled": 0, "name": "4d05ad6891a2df52c628e863f645c23a", "fusion_lat": 0.0, "rental_uris": {"ios": "https://dc.lft.to/lastmile_qr_scan", "android": "https://dc.lft.to/lastmile_qr_scan"}, "lon": -77.0510595, "type": "electric_scooter"}, {"bike_id": "de91525fce241de97525e10a8afd9351", "is_reserved": 0, "fusion_lon": 0.0, "lat": 38.914281833333334, "is_disabled": 0, "name": "de91525fce241de97525e10a8afd9351", "fusion_lat": 0.0, "rental_uris": {"ios": "https://dc.lft.to/lastmile_qr_scan", "android": "https://dc.lft.to/lastmile_qr_scan"}, "lon": -77.04163, "type": "electric_scooter"}, {"bike_id": "ee7e1e56c1560732a68d80e7200c7ddd", "is_reserved": 0, "fusion_lon": 0.0, "lat": 38.91985183333333, "is_disabled": 0, "name": "ee7e1e56c1560732a68d80e7200c7ddd", "fusion_lat": 0.0, "rental_uris": {"ios": "https://dc.lft.to/lastmile_qr_scan", "android": "https://dc.lft.to/lastmile_qr_scan"}, "lon": -77.03467083333334, "type": "electric_scooter"}, {"bike_id": "f9fb09e8fb2629f350d3de761bd03f22", "is_reserved": 0, "fusion_lon": 0.0, "lat": 38.919203833333334, "is_disabled": 0, "name": "f9fb09e8fb2629f350d3de761bd03f22", "fusion_lat": 0.0, "rental_uris": {"ios": "https://dc.lft.to/lastmile_qr_scan", "android": "https://dc.lft.to/lastmile_qr_scan"}, "lon": -77.03205366666667, "type": "electric_scooter"}, {"bike_id": "130f6e99922fcbc4d2b023447996f3f2", "is_reserved": 0, "fusion_lon": 0.0, "lat": 38.875514833333334, "is_disabled": 0, "name": "130f6e99922fcbc4d2b023447996f3f2", "fusion_lat": 0.0, "rental_uris": {"ios": "https://dc.lft.to/lastmile_qr_scan", "android": "https://dc.lft.to/lastmile_qr_scan"}, "lon": -76.96489183333334, "type": "electric_scooter"}, {"bike_id": "f5d45c2461b107c6fa2726781f11e44d", "is_reserved": 0, "fusion_lon": 0.0, "lat": 38.895231833333334, "is_disabled": 0, "name": "f5d45c2461b107c6fa2726781f11e44d", "fusion_lat": 0.0, "rental_uris": {"ios": "https://dc.lft.to/lastmile_qr_scan", "android": "https://dc.lft.to/lastmile_qr_scan"}, "lon": -77.04850116666667, "type": "electric_scooter"}, {"bike_id": "b6763aae856f2bb0fbd66893b1808613", "is_reserved": 0, "fusion_lon": 0.0, "lat": 38.911127666666665, "is_disabled": 0, "name": "b6763aae856f2bb0fbd66893b1808613", "fusion_lat": 0.0, "rental_uris": {"ios": "https://dc.lft.to/lastmile_qr_scan", "android": "https://dc.lft.to/lastmile_qr_scan"}, "lon": -77.04823883333333, "type": "electric_scooter"}, {"bike_id": "65d5669147fd3725b43319b55ffe6630", "is_reserved": 0, "fusion_lon": 0.0, "lat": 38.899555166666666, "is_disabled": 0, "name": "65d5669147fd3725b43319b55ffe6630", "fusion_lat": 0.0, "rental_uris": {"ios": "https://dc.lft.to/lastmile_qr_scan", "android": "https://dc.lft.to/lastmile_qr_scan"}, "lon": -76.97549816666667, "type": "electric_scooter"}, {"bike_id": "571bf48e785f8502aa3f098c636b8643", "is_reserved": 0, "fusion_lon": 0.0, "lat": 38.89999233333333, "is_disabled": 0, "name": "571bf48e785f8502aa3f098c636b8643", "fusion_lat": 0.0, "rental_uris": {"ios": "https://dc.lft.to/lastmile_qr_scan", "android": "https://dc.lft.to/lastmile_qr_scan"}, "lon": -77.05227633333334, "type": "electric_scooter"}, {"bike_id": "af89c790a10afac9a530123e6e72e0c3", "is_reserved": 0, "fusion_lon": 0.0, "lat": 38.89484083333333, "is_disabled": 0, "name": "af89c790a10afac9a530123e6e72e0c3", "fusion_lat": 0.0, "rental_uris": {"ios": "https://dc.lft.to/lastmile_qr_scan", "android": "https://dc.lft.to/lastmile_qr_scan"}, "lon": -76.9486965, "type": "electric_scooter"}, {"bike_id": "e83c3d666ee94ba7b8f99ef77d0c97f2", "is_reserved": 0, "fusion_lon": 0.0, "lat": 38.906127833333336, "is_disabled": 0, "name": "e83c3d666ee94ba7b8f99ef77d0c97f2", "fusion_lat": 0.0, "rental_uris": {"ios": "https://dc.lft.to/lastmile_qr_scan", "android": "https://dc.lft.to/lastmile_qr_scan"}, "lon": -77.02963416666667, "type": "electric_scooter"}, {"bike_id": "056be12cd649ae6934055f681fafb3e7", "is_reserved": 0, "fusion_lon": 0.0, "lat": 38.892185833333336, "is_disabled": 0, "name": "056be12cd649ae6934055f681fafb3e7", "fusion_lat": 0.0, "rental_uris": {"ios": "https://dc.lft.to/lastmile_qr_scan", "android": "https://dc.lft.to/lastmile_qr_scan"}, "lon": -77.04365866666667, "type": "electric_scooter"}, {"bike_id": "96bd69773ba05ac12888a75e1d1e6ead", "is_reserved": 0, "fusion_lon": 0.0, "lat": 38.958911666666665, "is_disabled": 0, "name": "96bd69773ba05ac12888a75e1d1e6ead", "fusion_lat": 0.0, "rental_uris": {"ios": "https://dc.lft.to/lastmile_qr_scan", "android": "https://dc.lft.to/lastmile_qr_scan"}, "lon": -76.9247975, "type": "electric_bike"}, {"bike_id": "1ce13090b80600f9a97d4c5584cb51ef", "is_reserved": 0, "fusion_lon": 0.0, "lat": 38.92573633333333, "is_disabled": 0, "name": "1ce13090b80600f9a97d4c5584cb51ef", "fusion_lat": 0.0, "rental_uris": {"ios": "https://dc.lft.to/lastmile_qr_scan", "android": "https://dc.lft.to/lastmile_qr_scan"}, "lon": -77.03101433333333, "type": "electric_scooter"}, {"bike_id": "ae14d6b8b4c3c0e56a13486d4afcf327", "is_reserved": 0, "fusion_lon": 0.0, "lat": 38.8983085, "is_disabled": 0, "name": "ae14d6b8b4c3c0e56a13486d4afcf327", "fusion_lat": 0.0, "rental_uris": {"ios": "https://dc.lft.to/lastmile_qr_scan", "android": "https://dc.lft.to/lastmile_qr_scan"}, "lon": -76.98039866666667, "type": "electric_scooter"}, {"bike_id": "16bed450760c0e556804b628e7037ed3", "is_reserved": 0, "fusion_lon": 0.0, "lat": 38.911334833333335, "is_disabled": 0, "name": "16bed450760c0e556804b628e7037ed3", "fusion_lat": 0.0, "rental_uris": {"ios": "https://dc.lft.to/lastmile_qr_scan", "android": "https://dc.lft.to/lastmile_qr_scan"}, "lon": -77.06568633333333, "type": "electric_bike"}, {"bike_id": "0bf53336969951f667883731f8003b0d", "is_reserved": 0, "fusion_lon": 0.0, "lat": 38.906724, "is_disabled": 0, "name": "0bf53336969951f667883731f8003b0d", "fusion_lat": 0.0, "rental_uris": {"ios": "https://dc.lft.to/lastmile_qr_scan", "android": "https://dc.lft.to/lastmile_qr_scan"}, "lon": -76.987852, "type": "electric_scooter"}, {"bike_id": "9edc0ec32ae83b99b6dcd73b413edd77", "is_reserved": 0, "fusion_lon": 0.0, "lat": 38.91841633333333, "is_disabled": 0, "name": "9edc0ec32ae83b99b6dcd73b413edd77", "fusion_lat": 0.0, "rental_uris": {"ios": "https://dc.lft.to/lastmile_qr_scan", "android": "https://dc.lft.to/lastmile_qr_scan"}, "lon": -77.02304066666666, "type": "electric_scooter"}, {"bike_id": "40ffd3a931c3a739b65857e0dc5970cd", "is_reserved": 0, "fusion_lon": 0.0, "lat": 38.91036183333333, "is_disabled": 0, "name": "40ffd3a931c3a739b65857e0dc5970cd", "fusion_lat": 0.0, "rental_uris": {"ios": "https://dc.lft.to/lastmile_qr_scan", "android": "https://dc.lft.to/lastmile_qr_scan"}, "lon": -77.04386033333333, "type": "electric_scooter"}, {"bike_id": "d80ca293b13604ac79ad3cad41b75bf8", "is_reserved": 0, "fusion_lon": 0.0, "lat": 38.888669, "is_disabled": 0, "name": "d80ca293b13604ac79ad3cad41b75bf8", "fusion_lat": 0.0, "rental_uris": {"ios": "https://dc.lft.to/lastmile_qr_scan", "android": "https://dc.lft.to/lastmile_qr_scan"}, "lon": -76.99478933333333, "type": "electric_bike"}, {"bike_id": "9aefb74ad4f30b4c244eef07ff534ca5", "is_reserved": 0, "fusion_lon": 0.0, "lat": 38.90604066666667, "is_disabled": 0, "name": "9aefb74ad4f30b4c244eef07ff534ca5", "fusion_lat": 0.0, "rental_uris": {"ios": "https://dc.lft.to/lastmile_qr_scan", "android": "https://dc.lft.to/lastmile_qr_scan"}, "lon": -77.013177, "type": "electric_scooter"}, {"bike_id": "b3cd744a133debc8a3c50f2f32c7be59", "is_reserved": 0, "fusion_lon": 0.0, "lat": 38.93429183333333, "is_disabled": 0, "name": "b3cd744a133debc8a3c50f2f32c7be59", "fusion_lat": 0.0, "rental_uris": {"ios": "https://dc.lft.to/lastmile_qr_scan", "android": "https://dc.lft.to/lastmile_qr_scan"}, "lon": -77.04317916666666, "type": "electric_scooter"}, {"bike_id": "28c7d626e9b3ede5fa0b65419a3c60a6", "is_reserved": 0, "fusion_lon": 0.0, "lat": 38.911976333333335, "is_disabled": 0, "name": "28c7d626e9b3ede5fa0b65419a3c60a6", "fusion_lat": 0.0, "rental_uris": {"ios": "https://dc.lft.to/lastmile_qr_scan", "android": "https://dc.lft.to/lastmile_qr_scan"}, "lon": -77.002211, "type": "electric_scooter"}, {"bike_id": "76f3a5f97fc4638ab3ae312687977ef2", "is_reserved": 0, "fusion_lon": 0.0, "lat": 38.89194283333333, "is_disabled": 0, "name": "76f3a5f97fc4638ab3ae312687977ef2", "fusion_lat": 0.0, "rental_uris": {"ios": "https://dc.lft.to/lastmile_qr_scan", "android": "https://dc.lft.to/lastmile_qr_scan"}, "lon": -77.02982, "type": "electric_scooter"}, {"bike_id": "346aa411aa1703f7d321d4f2aa13dcf5", "is_reserved": 0, "fusion_lon": 0.0, "lat": 38.898300166666665, "is_disabled": 0, "name": "346aa411aa1703f7d321d4f2aa13dcf5", "fusion_lat": 0.0, "rental_uris": {"ios": "https://dc.lft.to/lastmile_qr_scan", "android": "https://dc.lft.to/lastmile_qr_scan"}, "lon": -77.03320633333334, "type": "electric_scooter"}, {"bike_id": "9bc11107af893c676408d6e046f8e079", "is_reserved": 0, "fusion_lon": 0.0, "lat": 38.922406333333335, "is_disabled": 0, "name": "9bc11107af893c676408d6e046f8e079", "fusion_lat": 0.0, "rental_uris": {"ios": "https://dc.lft.to/lastmile_qr_scan", "android": "https://dc.lft.to/lastmile_qr_scan"}, "lon": -77.0100885, "type": "electric_scooter"}, {"bike_id": "9037ad50a9ecdaf06108468838c82d9c", "is_reserved": 0, "fusion_lon": 0.0, "lat": 38.928443666666666, "is_disabled": 0, "name": "9037ad50a9ecdaf06108468838c82d9c", "fusion_lat": 0.0, "rental_uris": {"ios": "https://dc.lft.to/lastmile_qr_scan", "android": "https://dc.lft.to/lastmile_qr_scan"}, "lon": -77.05424783333333, "type": "electric_scooter"}, {"bike_id": "f2ca3f7b73a094b7a506a27b3890b968", "is_reserved": 0, "fusion_lon": 0.0, "lat": 38.894867833333336, "is_disabled": 0, "name": "f2ca3f7b73a094b7a506a27b3890b968", "fusion_lat": 0.0, "rental_uris": {"ios": "https://dc.lft.to/lastmile_qr_scan", "android": "https://dc.lft.to/lastmile_qr_scan"}, "lon": -77.02285133333334, "type": "electric_scooter"}, {"bike_id": "af8416841244fea18f8ca6c13c83ac02", "is_reserved": 0, "fusion_lon": 0.0, "lat": 38.89628883333334, "is_disabled": 0, "name": "af8416841244fea18f8ca6c13c83ac02", "fusion_lat": 0.0, "rental_uris": {"ios": "https://dc.lft.to/lastmile_qr_scan", "android": "https://dc.lft.to/lastmile_qr_scan"}, "lon": -76.99852466666667, "type": "electric_scooter"}, {"bike_id": "a6789a2f3c85dcc93ddee59a589a098d", "is_reserved": 0, "fusion_lon": 0.0, "lat": 38.90278033333333, "is_disabled": 0, "name": "a6789a2f3c85dcc93ddee59a589a098d", "fusion_lat": 0.0, "rental_uris": {"ios": "https://dc.lft.to/lastmile_qr_scan", "android": "https://dc.lft.to/lastmile_qr_scan"}, "lon": -77.059189, "type": "electric_scooter"}, {"bike_id": "2e152cf9695b61a7c9b6f28a761efb74", "is_reserved": 0, "fusion_lon": 0.0, "lat": 38.8938645, "is_disabled": 0, "name": "2e152cf9695b61a7c9b6f28a761efb74", "fusion_lat": 0.0, "rental_uris": {"ios": "https://dc.lft.to/lastmile_qr_scan", "android": "https://dc.lft.to/lastmile_qr_scan"}, "lon": -77.0225295, "type": "electric_bike"}, {"bike_id": "c220857e95e7ea451238ca00da3462b1", "is_reserved": 0, "fusion_lon": 0.0, "lat": 38.90730283333333, "is_disabled": 0, "name": "c220857e95e7ea451238ca00da3462b1", "fusion_lat": 0.0, "rental_uris": {"ios": "https://dc.lft.to/lastmile_qr_scan", "android": "https://dc.lft.to/lastmile_qr_scan"}, "lon": -77.04355833333334, "type": "electric_scooter"}, {"bike_id": "a4a1c2bc95b93ed61b24add7e13c8e52", "is_reserved": 0, "fusion_lon": 0.0, "lat": 38.92912616666667, "is_disabled": 0, "name": "a4a1c2bc95b93ed61b24add7e13c8e52", "fusion_lat": 0.0, "rental_uris": {"ios": "https://dc.lft.to/lastmile_qr_scan", "android": "https://dc.lft.to/lastmile_qr_scan"}, "lon": -77.03191766666667, "type": "electric_scooter"}, {"bike_id": "fb276f25df4e20c2f2a61a2f774094af", "is_reserved": 0, "fusion_lon": 0.0, "lat": 38.896299666666664, "is_disabled": 0, "name": "fb276f25df4e20c2f2a61a2f774094af", "fusion_lat": 0.0, "rental_uris": {"ios": "https://dc.lft.to/lastmile_qr_scan", "android": "https://dc.lft.to/lastmile_qr_scan"}, "lon": -77.02840216666667, "type": "electric_scooter"}, {"bike_id": "bcafe1ad2a21aac51ca1285f26e0007d", "is_reserved": 0, "fusion_lon": 0.0, "lat": 38.9278825, "is_disabled": 0, "name": "bcafe1ad2a21aac51ca1285f26e0007d", "fusion_lat": 0.0, "rental_uris": {"ios": "https://dc.lft.to/lastmile_qr_scan", "android": "https://dc.lft.to/lastmile_qr_scan"}, "lon": -77.03198516666667, "type": "electric_scooter"}, {"bike_id": "903e60dbb5deb25f651f2af347b7953b", "is_reserved": 0, "fusion_lon": 0.0, "lat": 38.90785316666667, "is_disabled": 0, "name": "903e60dbb5deb25f651f2af347b7953b", "fusion_lat": 0.0, "rental_uris": {"ios": "https://dc.lft.to/lastmile_qr_scan", "android": "https://dc.lft.to/lastmile_qr_scan"}, "lon": -77.00966316666667, "type": "electric_scooter"}, {"bike_id": "0848fbef8ec99084ab7fea3081ef694e", "is_reserved": 0, "fusion_lon": 0.0, "lat": 38.86908866666667, "is_disabled": 0, "name": "0848fbef8ec99084ab7fea3081ef694e", "fusion_lat": 0.0, "rental_uris": {"ios": "https://dc.lft.to/lastmile_qr_scan", "android": "https://dc.lft.to/lastmile_qr_scan"}, "lon": -77.1317685, "type": "electric_bike"}, {"bike_id": "103ae40beb9897f68cf7048b2f7b2bbe", "is_reserved": 0, "fusion_lon": 0.0, "lat": 38.91546816666666, "is_disabled": 0, "name": "103ae40beb9897f68cf7048b2f7b2bbe", "fusion_lat": 0.0, "rental_uris": {"ios": "https://dc.lft.to/lastmile_qr_scan", "android": "https://dc.lft.to/lastmile_qr_scan"}, "lon": -77.038492, "type": "electric_scooter"}, {"bike_id": "708649489abd67b95d9a17d9a9cf57ea", "is_reserved": 0, "fusion_lon": 0.0, "lat": 38.90688333333333, "is_disabled": 0, "name": "708649489abd67b95d9a17d9a9cf57ea", "fusion_lat": 0.0, "rental_uris": {"ios": "https://dc.lft.to/lastmile_qr_scan", "android": "https://dc.lft.to/lastmile_qr_scan"}, "lon": -77.01346633333333, "type": "electric_scooter"}, {"bike_id": "9e9bce70c5ef09f55e15ca431d13609d", "is_reserved": 0, "fusion_lon": 0.0, "lat": 38.89197516666667, "is_disabled": 0, "name": "9e9bce70c5ef09f55e15ca431d13609d", "fusion_lat": 0.0, "rental_uris": {"ios": "https://dc.lft.to/lastmile_qr_scan", "android": "https://dc.lft.to/lastmile_qr_scan"}, "lon": -77.00241016666666, "type": "electric_bike"}, {"bike_id": "e07578241dbc870904f8b4b44355c3ce", "is_reserved": 0, "fusion_lon": 0.0, "lat": 38.890023, "is_disabled": 0, "name": "e07578241dbc870904f8b4b44355c3ce", "fusion_lat": 0.0, "rental_uris": {"ios": "https://dc.lft.to/lastmile_qr_scan", "android": "https://dc.lft.to/lastmile_qr_scan"}, "lon": -77.04888583333333, "type": "electric_scooter"}, {"bike_id": "afb160f046a701447e263f6255115462", "is_reserved": 0, "fusion_lon": 0.0, "lat": 38.905742333333336, "is_disabled": 0, "name": "afb160f046a701447e263f6255115462", "fusion_lat": 0.0, "rental_uris": {"ios": "https://dc.lft.to/lastmile_qr_scan", "android": "https://dc.lft.to/lastmile_qr_scan"}, "lon": -77.02173583333334, "type": "electric_scooter"}, {"bike_id": "50ffda85ed553b1e707ef2cff423b7f9", "is_reserved": 0, "fusion_lon": 0.0, "lat": 38.91557933333333, "is_disabled": 0, "name": "50ffda85ed553b1e707ef2cff423b7f9", "fusion_lat": 0.0, "rental_uris": {"ios": "https://dc.lft.to/lastmile_qr_scan", "android": "https://dc.lft.to/lastmile_qr_scan"}, "lon": -77.03864116666666, "type": "electric_scooter"}, {"bike_id": "62100423f9994e792bdde8f379d05b2c", "is_reserved": 0, "fusion_lon": 0.0, "lat": 38.95337883333333, "is_disabled": 0, "name": "62100423f9994e792bdde8f379d05b2c", "fusion_lat": 0.0, "rental_uris": {"ios": "https://dc.lft.to/lastmile_qr_scan", "android": "https://dc.lft.to/lastmile_qr_scan"}, "lon": -77.00956516666666, "type": "electric_bike"}, {"bike_id": "355dada27685e18a6e1b01031c3d1411", "is_reserved": 0, "fusion_lon": 0.0, "lat": 38.9565015, "is_disabled": 0, "name": "355dada27685e18a6e1b01031c3d1411", "fusion_lat": 0.0, "rental_uris": {"ios": "https://dc.lft.to/lastmile_qr_scan", "android": "https://dc.lft.to/lastmile_qr_scan"}, "lon": -77.03288133333334, "type": "electric_scooter"}, {"bike_id": "f2e57a58466782c8d5cf615cf218498e", "is_reserved": 0, "fusion_lon": 0.0, "lat": 38.928511666666665, "is_disabled": 0, "name": "f2e57a58466782c8d5cf615cf218498e", "fusion_lat": 0.0, "rental_uris": {"ios": "https://dc.lft.to/lastmile_qr_scan", "android": "https://dc.lft.to/lastmile_qr_scan"}, "lon": -77.22227233333334, "type": "electric_bike"}, {"bike_id": "c0cc8a96ef529935315eb712d6169d27", "is_reserved": 0, "fusion_lon": 0.0, "lat": 38.86537116666667, "is_disabled": 0, "name": "c0cc8a96ef529935315eb712d6169d27", "fusion_lat": 0.0, "rental_uris": {"ios": "https://dc.lft.to/lastmile_qr_scan", "android": "https://dc.lft.to/lastmile_qr_scan"}, "lon": -76.98704566666666, "type": "electric_scooter"}, {"bike_id": "c6d0c4614600f2bc720d54df685c780a", "is_reserved": 0, "fusion_lon": 0.0, "lat": 38.9170275, "is_disabled": 0, "name": "c6d0c4614600f2bc720d54df685c780a", "fusion_lat": 0.0, "rental_uris": {"ios": "https://dc.lft.to/lastmile_qr_scan", "android": "https://dc.lft.to/lastmile_qr_scan"}, "lon": -77.02301866666667, "type": "electric_scooter"}, {"bike_id": "41c4787337e42a13076d210ab596f328", "is_reserved": 0, "fusion_lon": 0.0, "lat": 38.95747266666667, "is_disabled": 0, "name": "41c4787337e42a13076d210ab596f328", "fusion_lat": 0.0, "rental_uris": {"ios": "https://dc.lft.to/lastmile_qr_scan", "android": "https://dc.lft.to/lastmile_qr_scan"}, "lon": -77.0241405, "type": "electric_scooter"}, {"bike_id": "20db4832f7b91b32126fe8f0c1cda19d", "is_reserved": 0, "fusion_lon": 0.0, "lat": 38.88741366666667, "is_disabled": 0, "name": "20db4832f7b91b32126fe8f0c1cda19d", "fusion_lat": 0.0, "rental_uris": {"ios": "https://dc.lft.to/lastmile_qr_scan", "android": "https://dc.lft.to/lastmile_qr_scan"}, "lon": -77.0226575, "type": "electric_bike"}, {"bike_id": "3d4f2d034105d6a196b5e5b870a54623", "is_reserved": 0, "fusion_lon": 0.0, "lat": 38.9094345, "is_disabled": 0, "name": "3d4f2d034105d6a196b5e5b870a54623", "fusion_lat": 0.0, "rental_uris": {"ios": "https://dc.lft.to/lastmile_qr_scan", "android": "https://dc.lft.to/lastmile_qr_scan"}, "lon": -77.0487335, "type": "electric_scooter"}, {"bike_id": "0412b91a9213558bfcaab5825d805e7a", "is_reserved": 0, "fusion_lon": 0.0, "lat": 39.0885915, "is_disabled": 0, "name": "0412b91a9213558bfcaab5825d805e7a", "fusion_lat": 0.0, "rental_uris": {"ios": "https://dc.lft.to/lastmile_qr_scan", "android": "https://dc.lft.to/lastmile_qr_scan"}, "lon": -77.178433, "type": "electric_bike"}, {"bike_id": "2ee96aa0148c45938c569c3bfca4e450", "is_reserved": 0, "fusion_lon": 0.0, "lat": 38.923544666666665, "is_disabled": 0, "name": "2ee96aa0148c45938c569c3bfca4e450", "fusion_lat": 0.0, "rental_uris": {"ios": "https://dc.lft.to/lastmile_qr_scan", "android": "https://dc.lft.to/lastmile_qr_scan"}, "lon": -77.043938, "type": "electric_scooter"}, {"bike_id": "53d1f46bf839e4709882c299adf4487c", "is_reserved": 0, "fusion_lon": 0.0, "lat": 38.91050033333333, "is_disabled": 0, "name": "53d1f46bf839e4709882c299adf4487c", "fusion_lat": 0.0, "rental_uris": {"ios": "https://dc.lft.to/lastmile_qr_scan", "android": "https://dc.lft.to/lastmile_qr_scan"}, "lon": -77.01504683333333, "type": "electric_scooter"}, {"bike_id": "3da92ef53fbb1cc4237a56b4352eb088", "is_reserved": 0, "fusion_lon": 0.0, "lat": 38.92449883333333, "is_disabled": 0, "name": "3da92ef53fbb1cc4237a56b4352eb088", "fusion_lat": 0.0, "rental_uris": {"ios": "https://dc.lft.to/lastmile_qr_scan", "android": "https://dc.lft.to/lastmile_qr_scan"}, "lon": -77.03371816666667, "type": "electric_scooter"}, {"bike_id": "5c08b4a3bcd61cdf89c5d538a8c6fada", "is_reserved": 0, "fusion_lon": 0.0, "lat": 38.94091066666667, "is_disabled": 0, "name": "5c08b4a3bcd61cdf89c5d538a8c6fada", "fusion_lat": 0.0, "rental_uris": {"ios": "https://dc.lft.to/lastmile_qr_scan", "android": "https://dc.lft.to/lastmile_qr_scan"}, "lon": -77.032805, "type": "electric_scooter"}, {"bike_id": "322ff21048d46a419e0ba5e7c82a7e6c", "is_reserved": 0, "fusion_lon": 0.0, "lat": 38.972379333333336, "is_disabled": 0, "name": "322ff21048d46a419e0ba5e7c82a7e6c", "fusion_lat": 0.0, "rental_uris": {"ios": "https://dc.lft.to/lastmile_qr_scan", "android": "https://dc.lft.to/lastmile_qr_scan"}, "lon": -77.0271405, "type": "electric_scooter"}, {"bike_id": "21f70f5c9552dd2479b6f05c11b316d3", "is_reserved": 0, "fusion_lon": 0.0, "lat": 38.86423766666667, "is_disabled": 0, "name": "21f70f5c9552dd2479b6f05c11b316d3", "fusion_lat": 0.0, "rental_uris": {"ios": "https://dc.lft.to/lastmile_qr_scan", "android": "https://dc.lft.to/lastmile_qr_scan"}, "lon": -76.97448966666667, "type": "electric_scooter"}, {"bike_id": "abbcf0b0c10bdafef143e8b6e6a96499", "is_reserved": 0, "fusion_lon": 0.0, "lat": 38.932048333333334, "is_disabled": 0, "name": "abbcf0b0c10bdafef143e8b6e6a96499", "fusion_lat": 0.0, "rental_uris": {"ios": "https://dc.lft.to/lastmile_qr_scan", "android": "https://dc.lft.to/lastmile_qr_scan"}, "lon": -77.038515, "type": "electric_scooter"}, {"bike_id": "679041454cf12538fa9c9a9113f70e7f", "is_reserved": 0, "fusion_lon": 0.0, "lat": 38.90828966666667, "is_disabled": 0, "name": "679041454cf12538fa9c9a9113f70e7f", "fusion_lat": 0.0, "rental_uris": {"ios": "https://dc.lft.to/lastmile_qr_scan", "android": "https://dc.lft.to/lastmile_qr_scan"}, "lon": -77.044643, "type": "electric_scooter"}, {"bike_id": "0a4f27b4f7061b5240ca555493c50ae5", "is_reserved": 0, "fusion_lon": 0.0, "lat": 38.9079945, "is_disabled": 0, "name": "0a4f27b4f7061b5240ca555493c50ae5", "fusion_lat": 0.0, "rental_uris": {"ios": "https://dc.lft.to/lastmile_qr_scan", "android": "https://dc.lft.to/lastmile_qr_scan"}, "lon": -77.04874166666667, "type": "electric_scooter"}, {"bike_id": "e65673f050921470c2a4171a4ddc3f2c", "is_reserved": 0, "fusion_lon": 0.0, "lat": 38.94508066666667, "is_disabled": 0, "name": "e65673f050921470c2a4171a4ddc3f2c", "fusion_lat": 0.0, "rental_uris": {"ios": "https://dc.lft.to/lastmile_qr_scan", "android": "https://dc.lft.to/lastmile_qr_scan"}, "lon": -77.00668166666667, "type": "electric_bike"}, {"bike_id": "6b99db6aa3fe703787b88570c0023bd7", "is_reserved": 0, "fusion_lon": 0.0, "lat": 38.919543833333336, "is_disabled": 0, "name": "6b99db6aa3fe703787b88570c0023bd7", "fusion_lat": 0.0, "rental_uris": {"ios": "https://dc.lft.to/lastmile_qr_scan", "android": "https://dc.lft.to/lastmile_qr_scan"}, "lon": -77.03210083333333, "type": "electric_scooter"}, {"bike_id": "33fbd8d9dd660be85511bd2eaa0695f9", "is_reserved": 0, "fusion_lon": 0.0, "lat": 38.8859605, "is_disabled": 0, "name": "33fbd8d9dd660be85511bd2eaa0695f9", "fusion_lat": 0.0, "rental_uris": {"ios": "https://dc.lft.to/lastmile_qr_scan", "android": "https://dc.lft.to/lastmile_qr_scan"}, "lon": -76.95262983333333, "type": "electric_scooter"}, {"bike_id": "fb462751e47b8912cfc2542d9c0e2ee0", "is_reserved": 0, "fusion_lon": 0.0, "lat": 38.86409666666667, "is_disabled": 0, "name": "fb462751e47b8912cfc2542d9c0e2ee0", "fusion_lat": 0.0, "rental_uris": {"ios": "https://dc.lft.to/lastmile_qr_scan", "android": "https://dc.lft.to/lastmile_qr_scan"}, "lon": -76.98047083333333, "type": "electric_scooter"}, {"bike_id": "728b08d29bca6d9ee89b2dc77a7b502d", "is_reserved": 0, "fusion_lon": 0.0, "lat": 38.8324115, "is_disabled": 0, "name": "728b08d29bca6d9ee89b2dc77a7b502d", "fusion_lat": 0.0, "rental_uris": {"ios": "https://dc.lft.to/lastmile_qr_scan", "android": "https://dc.lft.to/lastmile_qr_scan"}, "lon": -76.946225, "type": "electric_bike"}, {"bike_id": "eeda2b79200efb0c5b1a11bc763bf278", "is_reserved": 0, "fusion_lon": 0.0, "lat": 38.89986783333333, "is_disabled": 0, "name": "eeda2b79200efb0c5b1a11bc763bf278", "fusion_lat": 0.0, "rental_uris": {"ios": "https://dc.lft.to/lastmile_qr_scan", "android": "https://dc.lft.to/lastmile_qr_scan"}, "lon": -76.99483183333334, "type": "electric_scooter"}, {"bike_id": "745248d9dfa223e139462a6b132975f1", "is_reserved": 0, "fusion_lon": 0.0, "lat": 38.8952915, "is_disabled": 0, "name": "745248d9dfa223e139462a6b132975f1", "fusion_lat": 0.0, "rental_uris": {"ios": "https://dc.lft.to/lastmile_qr_scan", "android": "https://dc.lft.to/lastmile_qr_scan"}, "lon": -77.03346283333333, "type": "electric_scooter"}, {"bike_id": "33cc70e8435fafb263e2458361fe01dd", "is_reserved": 0, "fusion_lon": 0.0, "lat": 38.92446783333333, "is_disabled": 0, "name": "33cc70e8435fafb263e2458361fe01dd", "fusion_lat": 0.0, "rental_uris": {"ios": "https://dc.lft.to/lastmile_qr_scan", "android": "https://dc.lft.to/lastmile_qr_scan"}, "lon": -77.0203475, "type": "electric_scooter"}, {"bike_id": "5e06221b0162fa802aa619c66ed4428d", "is_reserved": 0, "fusion_lon": 0.0, "lat": 38.91405366666667, "is_disabled": 0, "name": "5e06221b0162fa802aa619c66ed4428d", "fusion_lat": 0.0, "rental_uris": {"ios": "https://dc.lft.to/lastmile_qr_scan", "android": "https://dc.lft.to/lastmile_qr_scan"}, "lon": -77.04566433333333, "type": "electric_scooter"}, {"bike_id": "508376ba3681573b1cdea8a997cb851f", "is_reserved": 0, "fusion_lon": 0.0, "lat": 38.921692, "is_disabled": 0, "name": "508376ba3681573b1cdea8a997cb851f", "fusion_lat": 0.0, "rental_uris": {"ios": "https://dc.lft.to/lastmile_qr_scan", "android": "https://dc.lft.to/lastmile_qr_scan"}, "lon": -77.04016966666667, "type": "electric_scooter"}, {"bike_id": "2bf7f6ee1202accd3dc0ea64e67d9c2d", "is_reserved": 0, "fusion_lon": 0.0, "lat": 38.831361, "is_disabled": 0, "name": "2bf7f6ee1202accd3dc0ea64e67d9c2d", "fusion_lat": 0.0, "rental_uris": {"ios": "https://dc.lft.to/lastmile_qr_scan", "android": "https://dc.lft.to/lastmile_qr_scan"}, "lon": -77.1131745, "type": "electric_bike"}, {"bike_id": "c0f81ab3d7145341d4006528e5b898fb", "is_reserved": 0, "fusion_lon": 0.0, "lat": 38.950700833333336, "is_disabled": 0, "name": "c0f81ab3d7145341d4006528e5b898fb", "fusion_lat": 0.0, "rental_uris": {"ios": "https://dc.lft.to/lastmile_qr_scan", "android": "https://dc.lft.to/lastmile_qr_scan"}, "lon": -77.01198266666667, "type": "electric_bike"}, {"bike_id": "4826f6fc00658cc948980fef692e6b2d", "is_reserved": 0, "fusion_lon": 0.0, "lat": 38.905824333333335, "is_disabled": 0, "name": "4826f6fc00658cc948980fef692e6b2d", "fusion_lat": 0.0, "rental_uris": {"ios": "https://dc.lft.to/lastmile_qr_scan", "android": "https://dc.lft.to/lastmile_qr_scan"}, "lon": -77.05092733333333, "type": "electric_scooter"}, {"bike_id": "5f8be15bf2010dcaf73e1766a9aa0bca", "is_reserved": 0, "fusion_lon": 0.0, "lat": 38.90152666666667, "is_disabled": 0, "name": "5f8be15bf2010dcaf73e1766a9aa0bca", "fusion_lat": 0.0, "rental_uris": {"ios": "https://dc.lft.to/lastmile_qr_scan", "android": "https://dc.lft.to/lastmile_qr_scan"}, "lon": -77.02472183333333, "type": "electric_scooter"}, {"bike_id": "21f02e25384ff5295e6d152e54bc6ce9", "is_reserved": 0, "fusion_lon": 0.0, "lat": 38.939711333333335, "is_disabled": 0, "name": "21f02e25384ff5295e6d152e54bc6ce9", "fusion_lat": 0.0, "rental_uris": {"ios": "https://dc.lft.to/lastmile_qr_scan", "android": "https://dc.lft.to/lastmile_qr_scan"}, "lon": -77.03260683333333, "type": "electric_scooter"}, {"bike_id": "79e16273172c34e40597640c5a53cd78", "is_reserved": 0, "fusion_lon": 0.0, "lat": 38.93430716666667, "is_disabled": 0, "name": "79e16273172c34e40597640c5a53cd78", "fusion_lat": 0.0, "rental_uris": {"ios": "https://dc.lft.to/lastmile_qr_scan", "android": "https://dc.lft.to/lastmile_qr_scan"}, "lon": -77.03990233333333, "type": "electric_scooter"}, {"bike_id": "bf723b2a32a52736d1fbe1c1df2b2c69", "is_reserved": 0, "fusion_lon": 0.0, "lat": 38.88606933333333, "is_disabled": 0, "name": "bf723b2a32a52736d1fbe1c1df2b2c69", "fusion_lat": 0.0, "rental_uris": {"ios": "https://dc.lft.to/lastmile_qr_scan", "android": "https://dc.lft.to/lastmile_qr_scan"}, "lon": -76.93602233333333, "type": "electric_scooter"}, {"bike_id": "1e4fd3840ece634488654fd43b2d51db", "is_reserved": 0, "fusion_lon": 0.0, "lat": 38.904639333333336, "is_disabled": 0, "name": "1e4fd3840ece634488654fd43b2d51db", "fusion_lat": 0.0, "rental_uris": {"ios": "https://dc.lft.to/lastmile_qr_scan", "android": "https://dc.lft.to/lastmile_qr_scan"}, "lon": -77.04017716666667, "type": "electric_scooter"}, {"bike_id": "12a935dc3b4cac2222a5c8c8a973bf6b", "is_reserved": 0, "fusion_lon": 0.0, "lat": 38.88511416666667, "is_disabled": 0, "name": "12a935dc3b4cac2222a5c8c8a973bf6b", "fusion_lat": 0.0, "rental_uris": {"ios": "https://dc.lft.to/lastmile_qr_scan", "android": "https://dc.lft.to/lastmile_qr_scan"}, "lon": -77.0057185, "type": "electric_scooter"}, {"bike_id": "8929d07165673288bfa89a40332f4bd6", "is_reserved": 0, "fusion_lon": 0.0, "lat": 38.90029966666667, "is_disabled": 0, "name": "8929d07165673288bfa89a40332f4bd6", "fusion_lat": 0.0, "rental_uris": {"ios": "https://dc.lft.to/lastmile_qr_scan", "android": "https://dc.lft.to/lastmile_qr_scan"}, "lon": -77.00204316666667, "type": "electric_scooter"}, {"bike_id": "a2b7645359acabb932bedc14d61aa872", "is_reserved": 0, "fusion_lon": 0.0, "lat": 38.92476516666667, "is_disabled": 0, "name": "a2b7645359acabb932bedc14d61aa872", "fusion_lat": 0.0, "rental_uris": {"ios": "https://dc.lft.to/lastmile_qr_scan", "android": "https://dc.lft.to/lastmile_qr_scan"}, "lon": -77.0264565, "type": "electric_scooter"}, {"bike_id": "665500210fedafaa29c2c426a6312c97", "is_reserved": 0, "fusion_lon": 0.0, "lat": 38.90124816666667, "is_disabled": 0, "name": "665500210fedafaa29c2c426a6312c97", "fusion_lat": 0.0, "rental_uris": {"ios": "https://dc.lft.to/lastmile_qr_scan", "android": "https://dc.lft.to/lastmile_qr_scan"}, "lon": -77.03327433333334, "type": "electric_scooter"}, {"bike_id": "e4a6c46b88e829da834f6cbbaafa4631", "is_reserved": 0, "fusion_lon": 0.0, "lat": 38.91386966666666, "is_disabled": 0, "name": "e4a6c46b88e829da834f6cbbaafa4631", "fusion_lat": 0.0, "rental_uris": {"ios": "https://dc.lft.to/lastmile_qr_scan", "android": "https://dc.lft.to/lastmile_qr_scan"}, "lon": -77.01700866666667, "type": "electric_scooter"}, {"bike_id": "69de7900850b9a2a97b8b93228a99979", "is_reserved": 0, "fusion_lon": 0.0, "lat": 38.92849116666667, "is_disabled": 0, "name": "69de7900850b9a2a97b8b93228a99979", "fusion_lat": 0.0, "rental_uris": {"ios": "https://dc.lft.to/lastmile_qr_scan", "android": "https://dc.lft.to/lastmile_qr_scan"}, "lon": -77.013927, "type": "electric_scooter"}, {"bike_id": "e64c773e9c027f2aad7dca091b759fb6", "is_reserved": 0, "fusion_lon": 0.0, "lat": 38.937060833333334, "is_disabled": 0, "name": "e64c773e9c027f2aad7dca091b759fb6", "fusion_lat": 0.0, "rental_uris": {"ios": "https://dc.lft.to/lastmile_qr_scan", "android": "https://dc.lft.to/lastmile_qr_scan"}, "lon": -77.02931866666667, "type": "electric_scooter"}, {"bike_id": "0d40d1145a2b27703ecf84d9fbb1e2bc", "is_reserved": 0, "fusion_lon": 0.0, "lat": 38.91702883333333, "is_disabled": 0, "name": "0d40d1145a2b27703ecf84d9fbb1e2bc", "fusion_lat": 0.0, "rental_uris": {"ios": "https://dc.lft.to/lastmile_qr_scan", "android": "https://dc.lft.to/lastmile_qr_scan"}, "lon": -77.0312995, "type": "electric_scooter"}, {"bike_id": "489c0221fd4e025d0cbe8a59592ede37", "is_reserved": 0, "fusion_lon": 0.0, "lat": 38.89825183333333, "is_disabled": 0, "name": "489c0221fd4e025d0cbe8a59592ede37", "fusion_lat": 0.0, "rental_uris": {"ios": "https://dc.lft.to/lastmile_qr_scan", "android": "https://dc.lft.to/lastmile_qr_scan"}, "lon": -77.00731216666667, "type": "electric_scooter"}, {"bike_id": "4ddc4349ec0bf313769b8d102db3f867", "is_reserved": 0, "fusion_lon": 0.0, "lat": 38.837245333333335, "is_disabled": 0, "name": "4ddc4349ec0bf313769b8d102db3f867", "fusion_lat": 0.0, "rental_uris": {"ios": "https://dc.lft.to/lastmile_qr_scan", "android": "https://dc.lft.to/lastmile_qr_scan"}, "lon": -76.99754283333333, "type": "electric_bike"}, {"bike_id": "b84c768306b9eb6f5d79c3dcaff7ccd5", "is_reserved": 0, "fusion_lon": 0.0, "lat": 38.904588, "is_disabled": 0, "name": "b84c768306b9eb6f5d79c3dcaff7ccd5", "fusion_lat": 0.0, "rental_uris": {"ios": "https://dc.lft.to/lastmile_qr_scan", "android": "https://dc.lft.to/lastmile_qr_scan"}, "lon": -76.99505716666667, "type": "electric_scooter"}, {"bike_id": "06449eb068605f4a38b9375e648b9936", "is_reserved": 0, "fusion_lon": 0.0, "lat": 38.896005, "is_disabled": 0, "name": "06449eb068605f4a38b9375e648b9936", "fusion_lat": 0.0, "rental_uris": {"ios": "https://dc.lft.to/lastmile_qr_scan", "android": "https://dc.lft.to/lastmile_qr_scan"}, "lon": -77.0449705, "type": "electric_scooter"}, {"bike_id": "60521ffd49cf54b73efb1205025f4a24", "is_reserved": 0, "fusion_lon": 0.0, "lat": 38.86962166666667, "is_disabled": 0, "name": "60521ffd49cf54b73efb1205025f4a24", "fusion_lat": 0.0, "rental_uris": {"ios": "https://dc.lft.to/lastmile_qr_scan", "android": "https://dc.lft.to/lastmile_qr_scan"}, "lon": -77.0137525, "type": "electric_scooter"}, {"bike_id": "82399edd076a9f46cc3ec2a030c182e8", "is_reserved": 0, "fusion_lon": 0.0, "lat": 38.89302633333333, "is_disabled": 0, "name": "82399edd076a9f46cc3ec2a030c182e8", "fusion_lat": 0.0, "rental_uris": {"ios": "https://dc.lft.to/lastmile_qr_scan", "android": "https://dc.lft.to/lastmile_qr_scan"}, "lon": -77.01240466666667, "type": "electric_scooter"}, {"bike_id": "c7de4ba5c7d58b71fada972c8cc1c6a7", "is_reserved": 0, "fusion_lon": 0.0, "lat": 38.96819433333334, "is_disabled": 0, "name": "c7de4ba5c7d58b71fada972c8cc1c6a7", "fusion_lat": 0.0, "rental_uris": {"ios": "https://dc.lft.to/lastmile_qr_scan", "android": "https://dc.lft.to/lastmile_qr_scan"}, "lon": -77.0178385, "type": "electric_scooter"}, {"bike_id": "8fb4ff7900a213890e096a21df0b7c00", "is_reserved": 0, "fusion_lon": 0.0, "lat": 38.922372833333334, "is_disabled": 0, "name": "8fb4ff7900a213890e096a21df0b7c00", "fusion_lat": 0.0, "rental_uris": {"ios": "https://dc.lft.to/lastmile_qr_scan", "android": "https://dc.lft.to/lastmile_qr_scan"}, "lon": -77.0351675, "type": "electric_scooter"}, {"bike_id": "0287ef392d24f62e0e10374e7c6df451", "is_reserved": 0, "fusion_lon": 0.0, "lat": 38.90536516666667, "is_disabled": 0, "name": "0287ef392d24f62e0e10374e7c6df451", "fusion_lat": 0.0, "rental_uris": {"ios": "https://dc.lft.to/lastmile_qr_scan", "android": "https://dc.lft.to/lastmile_qr_scan"}, "lon": -77.04872433333334, "type": "electric_scooter"}, {"bike_id": "356965ece56584f65ecd645ac2ddcfb6", "is_reserved": 0, "fusion_lon": 0.0, "lat": 38.96625683333333, "is_disabled": 0, "name": "356965ece56584f65ecd645ac2ddcfb6", "fusion_lat": 0.0, "rental_uris": {"ios": "https://dc.lft.to/lastmile_qr_scan", "android": "https://dc.lft.to/lastmile_qr_scan"}, "lon": -76.976677, "type": "electric_bike"}, {"bike_id": "86600f984f8cc6145ccfd8530d6456e8", "is_reserved": 0, "fusion_lon": 0.0, "lat": 38.9526615, "is_disabled": 0, "name": "86600f984f8cc6145ccfd8530d6456e8", "fusion_lat": 0.0, "rental_uris": {"ios": "https://dc.lft.to/lastmile_qr_scan", "android": "https://dc.lft.to/lastmile_qr_scan"}, "lon": -77.02567966666666, "type": "electric_scooter"}, {"bike_id": "f6199cc51279791b1abebd12e7c7c157", "is_reserved": 0, "fusion_lon": 0.0, "lat": 38.899601, "is_disabled": 0, "name": "f6199cc51279791b1abebd12e7c7c157", "fusion_lat": 0.0, "rental_uris": {"ios": "https://dc.lft.to/lastmile_qr_scan", "android": "https://dc.lft.to/lastmile_qr_scan"}, "lon": -77.03190716666667, "type": "electric_scooter"}, {"bike_id": "24528a965ac4cdb3c073ec25ff4c0270", "is_reserved": 0, "fusion_lon": 0.0, "lat": 38.86700583333333, "is_disabled": 0, "name": "24528a965ac4cdb3c073ec25ff4c0270", "fusion_lat": 0.0, "rental_uris": {"ios": "https://dc.lft.to/lastmile_qr_scan", "android": "https://dc.lft.to/lastmile_qr_scan"}, "lon": -76.98710516666667, "type": "electric_scooter"}, {"bike_id": "2cc394643e54fdba433345fd2e9b5cc3", "is_reserved": 0, "fusion_lon": 0.0, "lat": 38.89226516666667, "is_disabled": 0, "name": "2cc394643e54fdba433345fd2e9b5cc3", "fusion_lat": 0.0, "rental_uris": {"ios": "https://dc.lft.to/lastmile_qr_scan", "android": "https://dc.lft.to/lastmile_qr_scan"}, "lon": -77.0321705, "type": "electric_scooter"}, {"bike_id": "6eb7cb6bf6264b99f692ab0a9904ab50", "is_reserved": 0, "fusion_lon": 0.0, "lat": 38.909722, "is_disabled": 0, "name": "6eb7cb6bf6264b99f692ab0a9904ab50", "fusion_lat": 0.0, "rental_uris": {"ios": "https://dc.lft.to/lastmile_qr_scan", "android": "https://dc.lft.to/lastmile_qr_scan"}, "lon": -77.03867783333334, "type": "electric_scooter"}, {"bike_id": "4f02077e2ee95fe9fba81d6251946198", "is_reserved": 0, "fusion_lon": 0.0, "lat": 38.90766333333333, "is_disabled": 0, "name": "4f02077e2ee95fe9fba81d6251946198", "fusion_lat": 0.0, "rental_uris": {"ios": "https://dc.lft.to/lastmile_qr_scan", "android": "https://dc.lft.to/lastmile_qr_scan"}, "lon": -77.06916616666666, "type": "electric_scooter"}, {"bike_id": "c9726e448328aae4dd557606dc688049", "is_reserved": 0, "fusion_lon": 0.0, "lat": 38.933627, "is_disabled": 0, "name": "c9726e448328aae4dd557606dc688049", "fusion_lat": 0.0, "rental_uris": {"ios": "https://dc.lft.to/lastmile_qr_scan", "android": "https://dc.lft.to/lastmile_qr_scan"}, "lon": -77.02644933333333, "type": "electric_scooter"}, {"bike_id": "447406b99eeda18429de25cd51212478", "is_reserved": 0, "fusion_lon": 0.0, "lat": 38.939818, "is_disabled": 0, "name": "447406b99eeda18429de25cd51212478", "fusion_lat": 0.0, "rental_uris": {"ios": "https://dc.lft.to/lastmile_qr_scan", "android": "https://dc.lft.to/lastmile_qr_scan"}, "lon": -77.028908, "type": "electric_scooter"}, {"bike_id": "f6fe7addf32c747343f0aeeb3f1821a0", "is_reserved": 0, "fusion_lon": 0.0, "lat": 38.91665716666667, "is_disabled": 0, "name": "f6fe7addf32c747343f0aeeb3f1821a0", "fusion_lat": 0.0, "rental_uris": {"ios": "https://dc.lft.to/lastmile_qr_scan", "android": "https://dc.lft.to/lastmile_qr_scan"}, "lon": -77.023071, "type": "electric_scooter"}, {"bike_id": "92ee5f3e3acd7980dd8149e37ea6142a", "is_reserved": 0, "fusion_lon": 0.0, "lat": 38.999412666666665, "is_disabled": 0, "name": "92ee5f3e3acd7980dd8149e37ea6142a", "fusion_lat": 0.0, "rental_uris": {"ios": "https://dc.lft.to/lastmile_qr_scan", "android": "https://dc.lft.to/lastmile_qr_scan"}, "lon": -77.0176845, "type": "electric_bike"}, {"bike_id": "22e006547a128b22759563b2dee96941", "is_reserved": 0, "fusion_lon": 0.0, "lat": 38.920534, "is_disabled": 0, "name": "22e006547a128b22759563b2dee96941", "fusion_lat": 0.0, "rental_uris": {"ios": "https://dc.lft.to/lastmile_qr_scan", "android": "https://dc.lft.to/lastmile_qr_scan"}, "lon": -77.03391983333333, "type": "electric_scooter"}, {"bike_id": "1c5ec3e50e8a2d887bdf4720a099f5b2", "is_reserved": 0, "fusion_lon": 0.0, "lat": 38.918738833333336, "is_disabled": 0, "name": "1c5ec3e50e8a2d887bdf4720a099f5b2", "fusion_lat": 0.0, "rental_uris": {"ios": "https://dc.lft.to/lastmile_qr_scan", "android": "https://dc.lft.to/lastmile_qr_scan"}, "lon": -77.04461066666667, "type": "electric_scooter"}, {"bike_id": "c2b776ec5566d2a7333921e48ec59c7c", "is_reserved": 0, "fusion_lon": 0.0, "lat": 38.914438, "is_disabled": 0, "name": "c2b776ec5566d2a7333921e48ec59c7c", "fusion_lat": 0.0, "rental_uris": {"ios": "https://dc.lft.to/lastmile_qr_scan", "android": "https://dc.lft.to/lastmile_qr_scan"}, "lon": -77.0346065, "type": "electric_scooter"}, {"bike_id": "c52c5e27c49d69b21c5826901e7c87f7", "is_reserved": 0, "fusion_lon": 0.0, "lat": 38.844317, "is_disabled": 0, "name": "c52c5e27c49d69b21c5826901e7c87f7", "fusion_lat": 0.0, "rental_uris": {"ios": "https://dc.lft.to/lastmile_qr_scan", "android": "https://dc.lft.to/lastmile_qr_scan"}, "lon": -76.99779766666667, "type": "electric_scooter"}, {"bike_id": "15a29051fa3fdad113595e4279bc8c67", "is_reserved": 0, "fusion_lon": 0.0, "lat": 38.897999666666664, "is_disabled": 0, "name": "15a29051fa3fdad113595e4279bc8c67", "fusion_lat": 0.0, "rental_uris": {"ios": "https://dc.lft.to/lastmile_qr_scan", "android": "https://dc.lft.to/lastmile_qr_scan"}, "lon": -76.99157016666666, "type": "electric_scooter"}, {"bike_id": "c9c0ad0f1cc1afbf628f716b56e64452", "is_reserved": 0, "fusion_lon": 0.0, "lat": 38.931533, "is_disabled": 0, "name": "c9c0ad0f1cc1afbf628f716b56e64452", "fusion_lat": 0.0, "rental_uris": {"ios": "https://dc.lft.to/lastmile_qr_scan", "android": "https://dc.lft.to/lastmile_qr_scan"}, "lon": -77.0436075, "type": "electric_scooter"}, {"bike_id": "43feb41a20615c9ee6e9a34b97b7cc34", "is_reserved": 0, "fusion_lon": 0.0, "lat": 38.911950833333336, "is_disabled": 0, "name": "43feb41a20615c9ee6e9a34b97b7cc34", "fusion_lat": 0.0, "rental_uris": {"ios": "https://dc.lft.to/lastmile_qr_scan", "android": "https://dc.lft.to/lastmile_qr_scan"}, "lon": -77.060942, "type": "electric_scooter"}, {"bike_id": "1377cd22561435cc698f1b325daee3ae", "is_reserved": 0, "fusion_lon": 0.0, "lat": 38.9118965, "is_disabled": 0, "name": "1377cd22561435cc698f1b325daee3ae", "fusion_lat": 0.0, "rental_uris": {"ios": "https://dc.lft.to/lastmile_qr_scan", "android": "https://dc.lft.to/lastmile_qr_scan"}, "lon": -77.04546, "type": "electric_scooter"}, {"bike_id": "3e24b37180b05b63b21ab33cbebfbb8f", "is_reserved": 0, "fusion_lon": 0.0, "lat": 38.9349415, "is_disabled": 0, "name": "3e24b37180b05b63b21ab33cbebfbb8f", "fusion_lat": 0.0, "rental_uris": {"ios": "https://dc.lft.to/lastmile_qr_scan", "android": "https://dc.lft.to/lastmile_qr_scan"}, "lon": -77.02838983333334, "type": "electric_scooter"}, {"bike_id": "c21337653cc480176ce9a7928037f33c", "is_reserved": 0, "fusion_lon": 0.0, "lat": 38.810516666666665, "is_disabled": 0, "name": "c21337653cc480176ce9a7928037f33c", "fusion_lat": 0.0, "rental_uris": {"ios": "https://dc.lft.to/lastmile_qr_scan", "android": "https://dc.lft.to/lastmile_qr_scan"}, "lon": -77.085067, "type": "electric_bike"}, {"bike_id": "32e0dd7c1468309e26b1104d172902e9", "is_reserved": 0, "fusion_lon": 0.0, "lat": 38.90318583333333, "is_disabled": 0, "name": "32e0dd7c1468309e26b1104d172902e9", "fusion_lat": 0.0, "rental_uris": {"ios": "https://dc.lft.to/lastmile_qr_scan", "android": "https://dc.lft.to/lastmile_qr_scan"}, "lon": -77.03309683333333, "type": "electric_scooter"}, {"bike_id": "007ae9bdd9da7711b47812cd1374e6e3", "is_reserved": 0, "fusion_lon": 0.0, "lat": 38.90000783333333, "is_disabled": 0, "name": "007ae9bdd9da7711b47812cd1374e6e3", "fusion_lat": 0.0, "rental_uris": {"ios": "https://dc.lft.to/lastmile_qr_scan", "android": "https://dc.lft.to/lastmile_qr_scan"}, "lon": -76.99515383333333, "type": "electric_scooter"}, {"bike_id": "2d63ed69376980569fdfaeb610d74e30", "is_reserved": 0, "fusion_lon": 0.0, "lat": 38.85434566666667, "is_disabled": 0, "name": "2d63ed69376980569fdfaeb610d74e30", "fusion_lat": 0.0, "rental_uris": {"ios": "https://dc.lft.to/lastmile_qr_scan", "android": "https://dc.lft.to/lastmile_qr_scan"}, "lon": -76.909664, "type": "electric_bike"}, {"bike_id": "9536616420c0070a3c5f387310e1de95", "is_reserved": 0, "fusion_lon": 0.0, "lat": 38.94605933333333, "is_disabled": 0, "name": "9536616420c0070a3c5f387310e1de95", "fusion_lat": 0.0, "rental_uris": {"ios": "https://dc.lft.to/lastmile_qr_scan", "android": "https://dc.lft.to/lastmile_qr_scan"}, "lon": -77.029778, "type": "electric_scooter"}, {"bike_id": "f3601b302272838a01db18fe86836ca2", "is_reserved": 0, "fusion_lon": 0.0, "lat": 38.8922385, "is_disabled": 0, "name": "f3601b302272838a01db18fe86836ca2", "fusion_lat": 0.0, "rental_uris": {"ios": "https://dc.lft.to/lastmile_qr_scan", "android": "https://dc.lft.to/lastmile_qr_scan"}, "lon": -77.0485795, "type": "electric_scooter"}, {"bike_id": "796bab3781686d81b4c6bc3a1c06dd88", "is_reserved": 0, "fusion_lon": 0.0, "lat": 38.886023333333334, "is_disabled": 0, "name": "796bab3781686d81b4c6bc3a1c06dd88", "fusion_lat": 0.0, "rental_uris": {"ios": "https://dc.lft.to/lastmile_qr_scan", "android": "https://dc.lft.to/lastmile_qr_scan"}, "lon": -77.0056755, "type": "electric_scooter"}, {"bike_id": "4b48a31ccd0bdd96d11e534553b85314", "is_reserved": 0, "fusion_lon": 0.0, "lat": 38.91483916666667, "is_disabled": 0, "name": "4b48a31ccd0bdd96d11e534553b85314", "fusion_lat": 0.0, "rental_uris": {"ios": "https://dc.lft.to/lastmile_qr_scan", "android": "https://dc.lft.to/lastmile_qr_scan"}, "lon": -77.02182416666666, "type": "electric_scooter"}, {"bike_id": "ba0b1d89f8c8c1fc02999538fc64f976", "is_reserved": 0, "fusion_lon": 0.0, "lat": 38.9216655, "is_disabled": 0, "name": "ba0b1d89f8c8c1fc02999538fc64f976", "fusion_lat": 0.0, "rental_uris": {"ios": "https://dc.lft.to/lastmile_qr_scan", "android": "https://dc.lft.to/lastmile_qr_scan"}, "lon": -77.0422415, "type": "electric_scooter"}, {"bike_id": "1a091f4b188bb7a36f0e4d621b203ace", "is_reserved": 0, "fusion_lon": 0.0, "lat": 38.9016695, "is_disabled": 0, "name": "1a091f4b188bb7a36f0e4d621b203ace", "fusion_lat": 0.0, "rental_uris": {"ios": "https://dc.lft.to/lastmile_qr_scan", "android": "https://dc.lft.to/lastmile_qr_scan"}, "lon": -76.98067066666667, "type": "electric_scooter"}, {"bike_id": "0695b3fc248f69dc1848594d04406c53", "is_reserved": 0, "fusion_lon": 0.0, "lat": 38.963832, "is_disabled": 0, "name": "0695b3fc248f69dc1848594d04406c53", "fusion_lat": 0.0, "rental_uris": {"ios": "https://dc.lft.to/lastmile_qr_scan", "android": "https://dc.lft.to/lastmile_qr_scan"}, "lon": -77.03501533333333, "type": "electric_scooter"}, {"bike_id": "e112e07273074ff7b4e2c3e692f8fdb5", "is_reserved": 0, "fusion_lon": 0.0, "lat": 38.923320333333336, "is_disabled": 0, "name": "e112e07273074ff7b4e2c3e692f8fdb5", "fusion_lat": 0.0, "rental_uris": {"ios": "https://dc.lft.to/lastmile_qr_scan", "android": "https://dc.lft.to/lastmile_qr_scan"}, "lon": -77.03782616666666, "type": "electric_scooter"}, {"bike_id": "9a0cc39bcb013867ecc42ee70698d940", "is_reserved": 0, "fusion_lon": 0.0, "lat": 38.91887033333333, "is_disabled": 0, "name": "9a0cc39bcb013867ecc42ee70698d940", "fusion_lat": 0.0, "rental_uris": {"ios": "https://dc.lft.to/lastmile_qr_scan", "android": "https://dc.lft.to/lastmile_qr_scan"}, "lon": -77.0390285, "type": "electric_scooter"}, {"bike_id": "4022d7d69f3f3d5acb750c358f522dcd", "is_reserved": 0, "fusion_lon": 0.0, "lat": 38.902677, "is_disabled": 0, "name": "4022d7d69f3f3d5acb750c358f522dcd", "fusion_lat": 0.0, "rental_uris": {"ios": "https://dc.lft.to/lastmile_qr_scan", "android": "https://dc.lft.to/lastmile_qr_scan"}, "lon": -77.01733016666667, "type": "electric_scooter"}, {"bike_id": "824bbd0e35bf91518e343b3e138ffb0f", "is_reserved": 0, "fusion_lon": 0.0, "lat": 38.918818333333334, "is_disabled": 0, "name": "824bbd0e35bf91518e343b3e138ffb0f", "fusion_lat": 0.0, "rental_uris": {"ios": "https://dc.lft.to/lastmile_qr_scan", "android": "https://dc.lft.to/lastmile_qr_scan"}, "lon": -77.02947066666667, "type": "electric_scooter"}, {"bike_id": "2413e4a89e3cdb35b94ebacfdcfd06b3", "is_reserved": 0, "fusion_lon": 0.0, "lat": 38.9039065, "is_disabled": 0, "name": "2413e4a89e3cdb35b94ebacfdcfd06b3", "fusion_lat": 0.0, "rental_uris": {"ios": "https://dc.lft.to/lastmile_qr_scan", "android": "https://dc.lft.to/lastmile_qr_scan"}, "lon": -77.04468333333334, "type": "electric_scooter"}, {"bike_id": "d55f75fcadc80a51b34a097bff70a281", "is_reserved": 0, "fusion_lon": 0.0, "lat": 38.89612183333333, "is_disabled": 0, "name": "d55f75fcadc80a51b34a097bff70a281", "fusion_lat": 0.0, "rental_uris": {"ios": "https://dc.lft.to/lastmile_qr_scan", "android": "https://dc.lft.to/lastmile_qr_scan"}, "lon": -76.95574133333334, "type": "electric_scooter"}, {"bike_id": "bb26b2eece4d1aa115f4d02265bc8a1b", "is_reserved": 0, "fusion_lon": 0.0, "lat": 38.949767333333334, "is_disabled": 0, "name": "bb26b2eece4d1aa115f4d02265bc8a1b", "fusion_lat": 0.0, "rental_uris": {"ios": "https://dc.lft.to/lastmile_qr_scan", "android": "https://dc.lft.to/lastmile_qr_scan"}, "lon": -77.07903483333334, "type": "electric_scooter"}, {"bike_id": "dab488ceaa0cb806da44393bcc34629a", "is_reserved": 0, "fusion_lon": 0.0, "lat": 38.91774766666666, "is_disabled": 0, "name": "dab488ceaa0cb806da44393bcc34629a", "fusion_lat": 0.0, "rental_uris": {"ios": "https://dc.lft.to/lastmile_qr_scan", "android": "https://dc.lft.to/lastmile_qr_scan"}, "lon": -77.040556, "type": "electric_scooter"}, {"bike_id": "41ea70bf88cb16774c93a4e7ec0820e8", "is_reserved": 0, "fusion_lon": 0.0, "lat": 38.920337333333336, "is_disabled": 0, "name": "41ea70bf88cb16774c93a4e7ec0820e8", "fusion_lat": 0.0, "rental_uris": {"ios": "https://dc.lft.to/lastmile_qr_scan", "android": "https://dc.lft.to/lastmile_qr_scan"}, "lon": -77.02399466666667, "type": "electric_scooter"}, {"bike_id": "707642fdbb1f4278c38b2a83469a3554", "is_reserved": 0, "fusion_lon": 0.0, "lat": 38.91809633333333, "is_disabled": 0, "name": "707642fdbb1f4278c38b2a83469a3554", "fusion_lat": 0.0, "rental_uris": {"ios": "https://dc.lft.to/lastmile_qr_scan", "android": "https://dc.lft.to/lastmile_qr_scan"}, "lon": -77.03304333333334, "type": "electric_scooter"}, {"bike_id": "3a71366f149f7ef0b21734da9addf89b", "is_reserved": 0, "fusion_lon": 0.0, "lat": 38.913213666666664, "is_disabled": 0, "name": "3a71366f149f7ef0b21734da9addf89b", "fusion_lat": 0.0, "rental_uris": {"ios": "https://dc.lft.to/lastmile_qr_scan", "android": "https://dc.lft.to/lastmile_qr_scan"}, "lon": -77.0325415, "type": "electric_scooter"}, {"bike_id": "a13840395244fd6fd3bbde857dac9397", "is_reserved": 0, "fusion_lon": 0.0, "lat": 38.93666283333334, "is_disabled": 0, "name": "a13840395244fd6fd3bbde857dac9397", "fusion_lat": 0.0, "rental_uris": {"ios": "https://dc.lft.to/lastmile_qr_scan", "android": "https://dc.lft.to/lastmile_qr_scan"}, "lon": -77.05929966666666, "type": "electric_scooter"}, {"bike_id": "e2a6783dcbb8662f53db8b6c4e4fa903", "is_reserved": 0, "fusion_lon": 0.0, "lat": 38.894332, "is_disabled": 0, "name": "e2a6783dcbb8662f53db8b6c4e4fa903", "fusion_lat": 0.0, "rental_uris": {"ios": "https://dc.lft.to/lastmile_qr_scan", "android": "https://dc.lft.to/lastmile_qr_scan"}, "lon": -77.0262325, "type": "electric_scooter"}, {"bike_id": "35478b9ebb356469c2ff4e21a643631f", "is_reserved": 0, "fusion_lon": 0.0, "lat": 38.895577, "is_disabled": 0, "name": "35478b9ebb356469c2ff4e21a643631f", "fusion_lat": 0.0, "rental_uris": {"ios": "https://dc.lft.to/lastmile_qr_scan", "android": "https://dc.lft.to/lastmile_qr_scan"}, "lon": -76.95025766666667, "type": "electric_scooter"}, {"bike_id": "c12f52a57f9ff976af55e53d5f653fd4", "is_reserved": 0, "fusion_lon": 0.0, "lat": 38.8596545, "is_disabled": 0, "name": "c12f52a57f9ff976af55e53d5f653fd4", "fusion_lat": 0.0, "rental_uris": {"ios": "https://dc.lft.to/lastmile_qr_scan", "android": "https://dc.lft.to/lastmile_qr_scan"}, "lon": -76.99113283333334, "type": "electric_scooter"}, {"bike_id": "978a4df557e60b2b938dd696b80dce8a", "is_reserved": 0, "fusion_lon": 0.0, "lat": 38.9398645, "is_disabled": 0, "name": "978a4df557e60b2b938dd696b80dce8a", "fusion_lat": 0.0, "rental_uris": {"ios": "https://dc.lft.to/lastmile_qr_scan", "android": "https://dc.lft.to/lastmile_qr_scan"}, "lon": -77.02897316666666, "type": "electric_scooter"}, {"bike_id": "f35617566b9a33cc490a4313fbdb17f2", "is_reserved": 0, "fusion_lon": 0.0, "lat": 38.908055166666664, "is_disabled": 0, "name": "f35617566b9a33cc490a4313fbdb17f2", "fusion_lat": 0.0, "rental_uris": {"ios": "https://dc.lft.to/lastmile_qr_scan", "android": "https://dc.lft.to/lastmile_qr_scan"}, "lon": -77.0341915, "type": "electric_scooter"}, {"bike_id": "072d8e3e1e7c7d5603bb47bb6f65e518", "is_reserved": 0, "fusion_lon": 0.0, "lat": 38.813066666666664, "is_disabled": 0, "name": "072d8e3e1e7c7d5603bb47bb6f65e518", "fusion_lat": 0.0, "rental_uris": {"ios": "https://dc.lft.to/lastmile_qr_scan", "android": "https://dc.lft.to/lastmile_qr_scan"}, "lon": -77.05094483333333, "type": "electric_bike"}, {"bike_id": "0549e63549a339c81e258ae80f5ae12b", "is_reserved": 0, "fusion_lon": 0.0, "lat": 38.921831166666664, "is_disabled": 0, "name": "0549e63549a339c81e258ae80f5ae12b", "fusion_lat": 0.0, "rental_uris": {"ios": "https://dc.lft.to/lastmile_qr_scan", "android": "https://dc.lft.to/lastmile_qr_scan"}, "lon": -77.02530133333333, "type": "electric_scooter"}, {"bike_id": "60e51de545856dc14260a9275f937064", "is_reserved": 0, "fusion_lon": 0.0, "lat": 38.907955666666666, "is_disabled": 0, "name": "60e51de545856dc14260a9275f937064", "fusion_lat": 0.0, "rental_uris": {"ios": "https://dc.lft.to/lastmile_qr_scan", "android": "https://dc.lft.to/lastmile_qr_scan"}, "lon": -77.0422365, "type": "electric_scooter"}, {"bike_id": "cd77c5aa1531e9dc6a4e13c534b6de17", "is_reserved": 0, "fusion_lon": 0.0, "lat": 38.88745316666667, "is_disabled": 0, "name": "cd77c5aa1531e9dc6a4e13c534b6de17", "fusion_lat": 0.0, "rental_uris": {"ios": "https://dc.lft.to/lastmile_qr_scan", "android": "https://dc.lft.to/lastmile_qr_scan"}, "lon": -77.0285885, "type": "electric_scooter"}, {"bike_id": "1874a4bb52824362b367a81f7bb3fab6", "is_reserved": 0, "fusion_lon": 0.0, "lat": 38.90371066666667, "is_disabled": 0, "name": "1874a4bb52824362b367a81f7bb3fab6", "fusion_lat": 0.0, "rental_uris": {"ios": "https://dc.lft.to/lastmile_qr_scan", "android": "https://dc.lft.to/lastmile_qr_scan"}, "lon": -76.98504316666667, "type": "electric_scooter"}, {"bike_id": "6169e010b1a4dbc84075af41853c34bf", "is_reserved": 0, "fusion_lon": 0.0, "lat": 38.939008, "is_disabled": 0, "name": "6169e010b1a4dbc84075af41853c34bf", "fusion_lat": 0.0, "rental_uris": {"ios": "https://dc.lft.to/lastmile_qr_scan", "android": "https://dc.lft.to/lastmile_qr_scan"}, "lon": -77.0280955, "type": "electric_bike"}, {"bike_id": "d3129739fa52cde8cc97bac88cf7af2d", "is_reserved": 0, "fusion_lon": 0.0, "lat": 38.905640166666664, "is_disabled": 0, "name": "d3129739fa52cde8cc97bac88cf7af2d", "fusion_lat": 0.0, "rental_uris": {"ios": "https://dc.lft.to/lastmile_qr_scan", "android": "https://dc.lft.to/lastmile_qr_scan"}, "lon": -76.981405, "type": "electric_scooter"}, {"bike_id": "07f398ba074579634af619dd121e2e08", "is_reserved": 0, "fusion_lon": 0.0, "lat": 38.94012433333333, "is_disabled": 0, "name": "07f398ba074579634af619dd121e2e08", "fusion_lat": 0.0, "rental_uris": {"ios": "https://dc.lft.to/lastmile_qr_scan", "android": "https://dc.lft.to/lastmile_qr_scan"}, "lon": -77.071691, "type": "electric_scooter"}, {"bike_id": "2f437a0d07436d6db99a51c7603ac0e7", "is_reserved": 0, "fusion_lon": 0.0, "lat": 38.90409866666667, "is_disabled": 0, "name": "2f437a0d07436d6db99a51c7603ac0e7", "fusion_lat": 0.0, "rental_uris": {"ios": "https://dc.lft.to/lastmile_qr_scan", "android": "https://dc.lft.to/lastmile_qr_scan"}, "lon": -76.97322733333333, "type": "electric_scooter"}, {"bike_id": "1852a0bc0ad7522105335e161be7b934", "is_reserved": 0, "fusion_lon": 0.0, "lat": 38.919239833333336, "is_disabled": 0, "name": "1852a0bc0ad7522105335e161be7b934", "fusion_lat": 0.0, "rental_uris": {"ios": "https://dc.lft.to/lastmile_qr_scan", "android": "https://dc.lft.to/lastmile_qr_scan"}, "lon": -77.00974783333334, "type": "electric_scooter"}, {"bike_id": "3c767c69cc2e2c30c2048dc5b9ca1af0", "is_reserved": 0, "fusion_lon": 0.0, "lat": 38.904059, "is_disabled": 0, "name": "3c767c69cc2e2c30c2048dc5b9ca1af0", "fusion_lat": 0.0, "rental_uris": {"ios": "https://dc.lft.to/lastmile_qr_scan", "android": "https://dc.lft.to/lastmile_qr_scan"}, "lon": -77.02492166666667, "type": "electric_scooter"}, {"bike_id": "6e61de8ba18c550c2853f0c2192904bc", "is_reserved": 0, "fusion_lon": 0.0, "lat": 38.903892666666664, "is_disabled": 0, "name": "6e61de8ba18c550c2853f0c2192904bc", "fusion_lat": 0.0, "rental_uris": {"ios": "https://dc.lft.to/lastmile_qr_scan", "android": "https://dc.lft.to/lastmile_qr_scan"}, "lon": -77.04206116666667, "type": "electric_scooter"}, {"bike_id": "0b1e03e7912a49749446829250af2ecc", "is_reserved": 0, "fusion_lon": 0.0, "lat": 38.90380183333333, "is_disabled": 0, "name": "0b1e03e7912a49749446829250af2ecc", "fusion_lat": 0.0, "rental_uris": {"ios": "https://dc.lft.to/lastmile_qr_scan", "android": "https://dc.lft.to/lastmile_qr_scan"}, "lon": -77.01777816666667, "type": "electric_scooter"}, {"bike_id": "f79dec4d768d1fd516658f3676e0adc0", "is_reserved": 0, "fusion_lon": 0.0, "lat": 38.92018, "is_disabled": 0, "name": "f79dec4d768d1fd516658f3676e0adc0", "fusion_lat": 0.0, "rental_uris": {"ios": "https://dc.lft.to/lastmile_qr_scan", "android": "https://dc.lft.to/lastmile_qr_scan"}, "lon": -77.03863716666666, "type": "electric_scooter"}, {"bike_id": "4a80c891da8a3b8a231728927522cfe9", "is_reserved": 0, "fusion_lon": 0.0, "lat": 38.89825233333333, "is_disabled": 0, "name": "4a80c891da8a3b8a231728927522cfe9", "fusion_lat": 0.0, "rental_uris": {"ios": "https://dc.lft.to/lastmile_qr_scan", "android": "https://dc.lft.to/lastmile_qr_scan"}, "lon": -77.00592683333333, "type": "electric_bike"}, {"bike_id": "7e19bcb68fe70ed702259aafa375847b", "is_reserved": 0, "fusion_lon": 0.0, "lat": 38.906099166666664, "is_disabled": 0, "name": "7e19bcb68fe70ed702259aafa375847b", "fusion_lat": 0.0, "rental_uris": {"ios": "https://dc.lft.to/lastmile_qr_scan", "android": "https://dc.lft.to/lastmile_qr_scan"}, "lon": -77.04172, "type": "electric_scooter"}, {"bike_id": "550ce48b524bb54bd9cb24c7498940d4", "is_reserved": 0, "fusion_lon": 0.0, "lat": 38.90356033333333, "is_disabled": 0, "name": "550ce48b524bb54bd9cb24c7498940d4", "fusion_lat": 0.0, "rental_uris": {"ios": "https://dc.lft.to/lastmile_qr_scan", "android": "https://dc.lft.to/lastmile_qr_scan"}, "lon": -77.04056116666666, "type": "electric_scooter"}, {"bike_id": "40ee839f33c6ea8859da04e8e0e02990", "is_reserved": 0, "fusion_lon": 0.0, "lat": 38.915597166666664, "is_disabled": 0, "name": "40ee839f33c6ea8859da04e8e0e02990", "fusion_lat": 0.0, "rental_uris": {"ios": "https://dc.lft.to/lastmile_qr_scan", "android": "https://dc.lft.to/lastmile_qr_scan"}, "lon": -77.037648, "type": "electric_scooter"}, {"bike_id": "3f4f8eb61cd1bfb8b4470d5c401fd7a5", "is_reserved": 0, "fusion_lon": 0.0, "lat": 38.940151166666666, "is_disabled": 0, "name": "3f4f8eb61cd1bfb8b4470d5c401fd7a5", "fusion_lat": 0.0, "rental_uris": {"ios": "https://dc.lft.to/lastmile_qr_scan", "android": "https://dc.lft.to/lastmile_qr_scan"}, "lon": -77.07172133333333, "type": "electric_scooter"}, {"bike_id": "fc1d3401f203895eb9ead59b4bee4f23", "is_reserved": 0, "fusion_lon": 0.0, "lat": 38.924799666666665, "is_disabled": 0, "name": "fc1d3401f203895eb9ead59b4bee4f23", "fusion_lat": 0.0, "rental_uris": {"ios": "https://dc.lft.to/lastmile_qr_scan", "android": "https://dc.lft.to/lastmile_qr_scan"}, "lon": -77.03763433333333, "type": "electric_scooter"}, {"bike_id": "9b3fc922ed3286424a0ac6749cd36aaf", "is_reserved": 0, "fusion_lon": 0.0, "lat": 38.85069283333333, "is_disabled": 0, "name": "9b3fc922ed3286424a0ac6749cd36aaf", "fusion_lat": 0.0, "rental_uris": {"ios": "https://dc.lft.to/lastmile_qr_scan", "android": "https://dc.lft.to/lastmile_qr_scan"}, "lon": -76.97336033333333, "type": "electric_bike"}, {"bike_id": "abe249b433c1222d415d4c7b46282ac3", "is_reserved": 0, "fusion_lon": 0.0, "lat": 38.930932166666665, "is_disabled": 0, "name": "abe249b433c1222d415d4c7b46282ac3", "fusion_lat": 0.0, "rental_uris": {"ios": "https://dc.lft.to/lastmile_qr_scan", "android": "https://dc.lft.to/lastmile_qr_scan"}, "lon": -77.02507966666667, "type": "electric_scooter"}, {"bike_id": "be0815a7d62ee85f81baa0a1cc0741ae", "is_reserved": 0, "fusion_lon": 0.0, "lat": 38.866298, "is_disabled": 0, "name": "be0815a7d62ee85f81baa0a1cc0741ae", "fusion_lat": 0.0, "rental_uris": {"ios": "https://dc.lft.to/lastmile_qr_scan", "android": "https://dc.lft.to/lastmile_qr_scan"}, "lon": -76.98718866666667, "type": "electric_scooter"}, {"bike_id": "352543ec1a3b6f4a1bde58d88565c7d1", "is_reserved": 0, "fusion_lon": 0.0, "lat": 38.88039283333333, "is_disabled": 0, "name": "352543ec1a3b6f4a1bde58d88565c7d1", "fusion_lat": 0.0, "rental_uris": {"ios": "https://dc.lft.to/lastmile_qr_scan", "android": "https://dc.lft.to/lastmile_qr_scan"}, "lon": -77.02513766666667, "type": "electric_scooter"}, {"bike_id": "7ba133e8a51438e5fed9ab45807e6b7e", "is_reserved": 0, "fusion_lon": 0.0, "lat": 38.897901166666664, "is_disabled": 0, "name": "7ba133e8a51438e5fed9ab45807e6b7e", "fusion_lat": 0.0, "rental_uris": {"ios": "https://dc.lft.to/lastmile_qr_scan", "android": "https://dc.lft.to/lastmile_qr_scan"}, "lon": -76.90444683333334, "type": "electric_bike"}, {"bike_id": "60fff67a302a8a86e0c0bee7d1f6f585", "is_reserved": 0, "fusion_lon": 0.0, "lat": 38.90020583333333, "is_disabled": 0, "name": "60fff67a302a8a86e0c0bee7d1f6f585", "fusion_lat": 0.0, "rental_uris": {"ios": "https://dc.lft.to/lastmile_qr_scan", "android": "https://dc.lft.to/lastmile_qr_scan"}, "lon": -76.995435, "type": "electric_scooter"}, {"bike_id": "7d98e47c156bb4eb6dc42fa6c9ea8baf", "is_reserved": 0, "fusion_lon": 0.0, "lat": 38.90670516666667, "is_disabled": 0, "name": "7d98e47c156bb4eb6dc42fa6c9ea8baf", "fusion_lat": 0.0, "rental_uris": {"ios": "https://dc.lft.to/lastmile_qr_scan", "android": "https://dc.lft.to/lastmile_qr_scan"}, "lon": -77.02709383333334, "type": "electric_scooter"}, {"bike_id": "49be4fcb8ddc14024c05acb4cd8270fc", "is_reserved": 0, "fusion_lon": 0.0, "lat": 38.867251333333336, "is_disabled": 0, "name": "49be4fcb8ddc14024c05acb4cd8270fc", "fusion_lat": 0.0, "rental_uris": {"ios": "https://dc.lft.to/lastmile_qr_scan", "android": "https://dc.lft.to/lastmile_qr_scan"}, "lon": -76.98774516666667, "type": "electric_scooter"}, {"bike_id": "ecd9f4e061f5382db6ea966e93057671", "is_reserved": 0, "fusion_lon": 0.0, "lat": 38.89935066666666, "is_disabled": 0, "name": "ecd9f4e061f5382db6ea966e93057671", "fusion_lat": 0.0, "rental_uris": {"ios": "https://dc.lft.to/lastmile_qr_scan", "android": "https://dc.lft.to/lastmile_qr_scan"}, "lon": -77.03162783333333, "type": "electric_scooter"}, {"bike_id": "182c1820968d3413c808d0cda05ba287", "is_reserved": 0, "fusion_lon": 0.0, "lat": 38.928557166666664, "is_disabled": 0, "name": "182c1820968d3413c808d0cda05ba287", "fusion_lat": 0.0, "rental_uris": {"ios": "https://dc.lft.to/lastmile_qr_scan", "android": "https://dc.lft.to/lastmile_qr_scan"}, "lon": -77.03594733333334, "type": "electric_scooter"}, {"bike_id": "0938d337676f68a7d335ceba70e2b23b", "is_reserved": 0, "fusion_lon": 0.0, "lat": 38.91596916666667, "is_disabled": 0, "name": "0938d337676f68a7d335ceba70e2b23b", "fusion_lat": 0.0, "rental_uris": {"ios": "https://dc.lft.to/lastmile_qr_scan", "android": "https://dc.lft.to/lastmile_qr_scan"}, "lon": -77.043512, "type": "electric_scooter"}, {"bike_id": "8b46915b120aff4007cc1475c5619e4c", "is_reserved": 0, "fusion_lon": 0.0, "lat": 38.898012333333334, "is_disabled": 0, "name": "8b46915b120aff4007cc1475c5619e4c", "fusion_lat": 0.0, "rental_uris": {"ios": "https://dc.lft.to/lastmile_qr_scan", "android": "https://dc.lft.to/lastmile_qr_scan"}, "lon": -76.9916245, "type": "electric_scooter"}, {"bike_id": "1707da868e4b6865560948325762d4aa", "is_reserved": 0, "fusion_lon": 0.0, "lat": 38.91843, "is_disabled": 0, "name": "1707da868e4b6865560948325762d4aa", "fusion_lat": 0.0, "rental_uris": {"ios": "https://dc.lft.to/lastmile_qr_scan", "android": "https://dc.lft.to/lastmile_qr_scan"}, "lon": -77.03901933333333, "type": "electric_scooter"}, {"bike_id": "5c8fb3aa62c362246f9cd2829668b237", "is_reserved": 0, "fusion_lon": 0.0, "lat": 38.90550066666667, "is_disabled": 0, "name": "5c8fb3aa62c362246f9cd2829668b237", "fusion_lat": 0.0, "rental_uris": {"ios": "https://dc.lft.to/lastmile_qr_scan", "android": "https://dc.lft.to/lastmile_qr_scan"}, "lon": -77.00577966666667, "type": "electric_scooter"}, {"bike_id": "41f787bed53f0ea9d581689e1eeb9c8b", "is_reserved": 0, "fusion_lon": 0.0, "lat": 38.883294166666666, "is_disabled": 0, "name": "41f787bed53f0ea9d581689e1eeb9c8b", "fusion_lat": 0.0, "rental_uris": {"ios": "https://dc.lft.to/lastmile_qr_scan", "android": "https://dc.lft.to/lastmile_qr_scan"}, "lon": -77.01728533333333, "type": "electric_scooter"}, {"bike_id": "25185498882c494d02420bd91e08f608", "is_reserved": 0, "fusion_lon": 0.0, "lat": 38.897687166666664, "is_disabled": 0, "name": "25185498882c494d02420bd91e08f608", "fusion_lat": 0.0, "rental_uris": {"ios": "https://dc.lft.to/lastmile_qr_scan", "android": "https://dc.lft.to/lastmile_qr_scan"}, "lon": -77.02696783333333, "type": "electric_scooter"}, {"bike_id": "6b929481de1a72842ba886ab928085ab", "is_reserved": 0, "fusion_lon": 0.0, "lat": 38.95627066666667, "is_disabled": 0, "name": "6b929481de1a72842ba886ab928085ab", "fusion_lat": 0.0, "rental_uris": {"ios": "https://dc.lft.to/lastmile_qr_scan", "android": "https://dc.lft.to/lastmile_qr_scan"}, "lon": -76.93885566666667, "type": "electric_bike"}, {"bike_id": "18d4392b8df349eb521859034fd49844", "is_reserved": 0, "fusion_lon": 0.0, "lat": 38.934464, "is_disabled": 0, "name": "18d4392b8df349eb521859034fd49844", "fusion_lat": 0.0, "rental_uris": {"ios": "https://dc.lft.to/lastmile_qr_scan", "android": "https://dc.lft.to/lastmile_qr_scan"}, "lon": -77.02843416666667, "type": "electric_scooter"}, {"bike_id": "85ce1f2df2102b848a757709a0ca4f08", "is_reserved": 0, "fusion_lon": 0.0, "lat": 38.92471366666667, "is_disabled": 0, "name": "85ce1f2df2102b848a757709a0ca4f08", "fusion_lat": 0.0, "rental_uris": {"ios": "https://dc.lft.to/lastmile_qr_scan", "android": "https://dc.lft.to/lastmile_qr_scan"}, "lon": -77.037673, "type": "electric_scooter"}, {"bike_id": "04a4cbd053f3286e36521068920f7ac0", "is_reserved": 0, "fusion_lon": 0.0, "lat": 38.8850465, "is_disabled": 0, "name": "04a4cbd053f3286e36521068920f7ac0", "fusion_lat": 0.0, "rental_uris": {"ios": "https://dc.lft.to/lastmile_qr_scan", "android": "https://dc.lft.to/lastmile_qr_scan"}, "lon": -77.005667, "type": "electric_scooter"}, {"bike_id": "d48f6f15b63c63520f2e860a53769153", "is_reserved": 0, "fusion_lon": 0.0, "lat": 38.9283215, "is_disabled": 0, "name": "d48f6f15b63c63520f2e860a53769153", "fusion_lat": 0.0, "rental_uris": {"ios": "https://dc.lft.to/lastmile_qr_scan", "android": "https://dc.lft.to/lastmile_qr_scan"}, "lon": -77.05502333333334, "type": "electric_scooter"}, {"bike_id": "0502d08ee9c6b706eb276ee56d3f478d", "is_reserved": 0, "fusion_lon": 0.0, "lat": 38.9171025, "is_disabled": 0, "name": "0502d08ee9c6b706eb276ee56d3f478d", "fusion_lat": 0.0, "rental_uris": {"ios": "https://dc.lft.to/lastmile_qr_scan", "android": "https://dc.lft.to/lastmile_qr_scan"}, "lon": -77.02274516666667, "type": "electric_scooter"}, {"bike_id": "b7b0108be4d0675428bed681a1e7ab9e", "is_reserved": 0, "fusion_lon": 0.0, "lat": 38.90956033333333, "is_disabled": 0, "name": "b7b0108be4d0675428bed681a1e7ab9e", "fusion_lat": 0.0, "rental_uris": {"ios": "https://dc.lft.to/lastmile_qr_scan", "android": "https://dc.lft.to/lastmile_qr_scan"}, "lon": -77.01998666666667, "type": "electric_scooter"}, {"bike_id": "d3d257d33149e41fb23ad486b3852fe1", "is_reserved": 0, "fusion_lon": 0.0, "lat": 38.90910483333333, "is_disabled": 0, "name": "d3d257d33149e41fb23ad486b3852fe1", "fusion_lat": 0.0, "rental_uris": {"ios": "https://dc.lft.to/lastmile_qr_scan", "android": "https://dc.lft.to/lastmile_qr_scan"}, "lon": -77.03129783333333, "type": "electric_scooter"}, {"bike_id": "551834d84ea62633044efe740eac82ab", "is_reserved": 0, "fusion_lon": 0.0, "lat": 38.92183933333333, "is_disabled": 0, "name": "551834d84ea62633044efe740eac82ab", "fusion_lat": 0.0, "rental_uris": {"ios": "https://dc.lft.to/lastmile_qr_scan", "android": "https://dc.lft.to/lastmile_qr_scan"}, "lon": -77.04297033333333, "type": "electric_scooter"}, {"bike_id": "d7a574dc51e0c3322f27b0551c22d613", "is_reserved": 0, "fusion_lon": 0.0, "lat": 38.89230883333333, "is_disabled": 0, "name": "d7a574dc51e0c3322f27b0551c22d613", "fusion_lat": 0.0, "rental_uris": {"ios": "https://dc.lft.to/lastmile_qr_scan", "android": "https://dc.lft.to/lastmile_qr_scan"}, "lon": -77.02172166666666, "type": "electric_scooter"}, {"bike_id": "c1c0a2e2eb6f8e0de663fb6f46687481", "is_reserved": 0, "fusion_lon": 0.0, "lat": 38.898895333333336, "is_disabled": 0, "name": "c1c0a2e2eb6f8e0de663fb6f46687481", "fusion_lat": 0.0, "rental_uris": {"ios": "https://dc.lft.to/lastmile_qr_scan", "android": "https://dc.lft.to/lastmile_qr_scan"}, "lon": -77.04453283333334, "type": "electric_scooter"}, {"bike_id": "4d0a2a9381ce46c3a9830571830f925b", "is_reserved": 0, "fusion_lon": 0.0, "lat": 38.92574183333333, "is_disabled": 0, "name": "4d0a2a9381ce46c3a9830571830f925b", "fusion_lat": 0.0, "rental_uris": {"ios": "https://dc.lft.to/lastmile_qr_scan", "android": "https://dc.lft.to/lastmile_qr_scan"}, "lon": -77.073063, "type": "electric_scooter"}, {"bike_id": "5d5b92450783351bf44baac94e2efaa1", "is_reserved": 0, "fusion_lon": 0.0, "lat": 38.91044216666667, "is_disabled": 0, "name": "5d5b92450783351bf44baac94e2efaa1", "fusion_lat": 0.0, "rental_uris": {"ios": "https://dc.lft.to/lastmile_qr_scan", "android": "https://dc.lft.to/lastmile_qr_scan"}, "lon": -77.02806833333334, "type": "electric_scooter"}, {"bike_id": "3e227dcd367bcafe2a63d51b91dfb8e1", "is_reserved": 0, "fusion_lon": 0.0, "lat": 38.934876, "is_disabled": 0, "name": "3e227dcd367bcafe2a63d51b91dfb8e1", "fusion_lat": 0.0, "rental_uris": {"ios": "https://dc.lft.to/lastmile_qr_scan", "android": "https://dc.lft.to/lastmile_qr_scan"}, "lon": -77.035114, "type": "electric_scooter"}, {"bike_id": "0bb0a050fe2877af737a621eed81b78d", "is_reserved": 0, "fusion_lon": 0.0, "lat": 38.90256466666666, "is_disabled": 0, "name": "0bb0a050fe2877af737a621eed81b78d", "fusion_lat": 0.0, "rental_uris": {"ios": "https://dc.lft.to/lastmile_qr_scan", "android": "https://dc.lft.to/lastmile_qr_scan"}, "lon": -77.01733883333333, "type": "electric_scooter"}, {"bike_id": "536edfbf388f62b5baf7f6d1504dfd73", "is_reserved": 0, "fusion_lon": 0.0, "lat": 38.950844333333336, "is_disabled": 0, "name": "536edfbf388f62b5baf7f6d1504dfd73", "fusion_lat": 0.0, "rental_uris": {"ios": "https://dc.lft.to/lastmile_qr_scan", "android": "https://dc.lft.to/lastmile_qr_scan"}, "lon": -77.02831433333333, "type": "electric_scooter"}, {"bike_id": "e98eac208b16a2bb420f836461a9cca6", "is_reserved": 0, "fusion_lon": 0.0, "lat": 38.93109333333334, "is_disabled": 0, "name": "e98eac208b16a2bb420f836461a9cca6", "fusion_lat": 0.0, "rental_uris": {"ios": "https://dc.lft.to/lastmile_qr_scan", "android": "https://dc.lft.to/lastmile_qr_scan"}, "lon": -77.0240665, "type": "electric_scooter"},