{"data": {"bikes": [{"lon": -77.041761, "lat": 38.9190365, "name": "d80ab9d362b73752870f34419dc1d5be", "fusion_lat": 0.0, "fusion_lon": 0.0, "rental_uris": {"android": "https://dc.lft.to/lastmile_qr_scan", "ios": "https://dc.lft.to/lastmile_qr_scan"}, "is_reserved": 0, "is_disabled": 0, "type": "electric_scooter", "bike_id": "d80ab9d362b73752870f34419dc1d5be"}, {"lon": -77.03349133333333, "lat": 38.89978333333333, "name": "606644ed90f046f58264b6320bf3787a", "fusion_lat": 0.0, "fusion_lon": 0.0, "rental_uris": {"android": "https://dc.lft.to/lastmile_qr_scan", "ios": "https://dc.lft.to/lastmile_qr_scan"}, "is_reserved": 0, "is_disabled": 0, "type": "electric_scooter", "bike_id": "606644ed90f046f58264b6320bf3787a"}, {"lon": -77.04716983333333, "lat": 38.9187345, "name": "e0ce8997141d94565bedd53a459cd8c1", "fusion_lat": 0.0, "fusion_lon": 0.0, "rental_uris": {"android": "https://dc.lft.to/lastmile_qr_scan", "ios": "https://dc.lft.to/lastmile_qr_scan"}, "is_reserved": 0, "is_disabled": 0, "type": "electric_scooter", "bike_id": "e0ce8997141d94565bedd53a459cd8c1"}, {"lon": -77.02791966666666, "lat": 38.9307975, "name": "b88ac1d65d18356e19f8c74676786234", "fusion_lat": 0.0, "fusion_lon": 0.0, "rental_uris": {"android": "https://dc.lft.to/lastmile_qr_scan", "ios": "https://dc.lft.to/lastmile_qr_scan"}, "is_reserved": 0, "is_disabled": 0, "type": "electric_scooter", "bike_id": "b88ac1d65d18356e19f8c74676786234"}, {"lon": -77.01026683333333, "lat": 38.91799666666667, "name": "6682b8a24866bd6ade0ee6d566e5f99e", "fusion_lat": 0.0, "fusion_lon": 0.0, "rental_uris": {"android": "https://dc.lft.to/lastmile_qr_scan", "ios": "https://dc.lft.to/lastmile_qr_scan"}, "is_reserved": 0, "is_disabled": 0, "type": "electric_scooter", "bike_id": "6682b8a24866bd6ade0ee6d566e5f99e"}, {"lon": -76.9844845, "lat": 38.89957416666667, "name": "d1f7ec91110be596ae96fdcd27a0cdf8", "fusion_lat": 0.0, "fusion_lon": 0.0, "rental_uris": {"android": "https://dc.lft.to/lastmile_qr_scan", "ios": "https://dc.lft.to/lastmile_qr_scan"}, "is_reserved": 0, "is_disabled": 0, "type": "electric_scooter", "bike_id": "d1f7ec91110be596ae96fdcd27a0cdf8"}, {"lon": -76.989964, "lat": 38.90384383333333, "name": "67271732040b7de75df249616ad75351", "fusion_lat": 0.0, "fusion_lon": 0.0, "rental_uris": {"android": "https://dc.lft.to/lastmile_qr_scan", "ios": "https://dc.lft.to/lastmile_qr_scan"}, "is_reserved": 0, "is_disabled": 0, "type": "electric_scooter", "bike_id": "67271732040b7de75df249616ad75351"}, {"lon": -77.02907433333333, "lat": 38.90065883333333, "name": "ae4aafdb08454a327bb789c9d68c53bb", "fusion_lat": 0.0, "fusion_lon": 0.0, "rental_uris": {"android": "https://dc.lft.to/lastmile_qr_scan", "ios": "https://dc.lft.to/lastmile_qr_scan"}, "is_reserved": 0, "is_disabled": 0, "type": "electric_scooter", "bike_id": "ae4aafdb08454a327bb789c9d68c53bb"}, {"lon": -77.03560083333333, "lat": 38.92334566666667, "name": "0b0c66ef15f03d5025fa1c59c16320c7", "fusion_lat": 0.0, "fusion_lon": 0.0, "rental_uris": {"android": "https://dc.lft.to/lastmile_qr_scan", "ios": "https://dc.lft.to/lastmile_qr_scan"}, "is_reserved": 0, "is_disabled": 0, "type": "electric_scooter", "bike_id": "0b0c66ef15f03d5025fa1c59c16320c7"}, {"lon": -77.0292735, "lat": 38.910297666666665, "name": "91fb977bfe4124e5653e4faded55bc40", "fusion_lat": 0.0, "fusion_lon": 0.0, "rental_uris": {"android": "https://dc.lft.to/lastmile_qr_scan", "ios": "https://dc.lft.to/lastmile_qr_scan"}, "is_reserved": 0, "is_disabled": 0, "type": "electric_scooter", "bike_id": "91fb977bfe4124e5653e4faded55bc40"}, {"lon": -76.99864566666666, "lat": 38.900272, "name": "bc92e4b14c2f0bbdf104391795308e0a", "fusion_lat": 0.0, "fusion_lon": 0.0, "rental_uris": {"android": "https://dc.lft.to/lastmile_qr_scan", "ios": "https://dc.lft.to/lastmile_qr_scan"}, "is_reserved": 0, "is_disabled": 0, "type": "electric_scooter", "bike_id": "bc92e4b14c2f0bbdf104391795308e0a"}, {"lon": -77.03490416666666, "lat": 38.90463666666667, "name": "df31df278e80f88b2e83d846c9826555", "fusion_lat": 0.0, "fusion_lon": 0.0, "rental_uris": {"android": "https://dc.lft.to/lastmile_qr_scan", "ios": "https://dc.lft.to/lastmile_qr_scan"}, "is_reserved": 0, "is_disabled": 0, "type": "electric_scooter", "bike_id": "df31df278e80f88b2e83d846c9826555"}, {"lon": -76.965644, "lat": 38.9185055, "name": "7b86a90b18200bc5118244c34900eb0a", "fusion_lat": 0.0, "fusion_lon": 0.0, "rental_uris": {"android": "https://dc.lft.to/lastmile_qr_scan", "ios": "https://dc.lft.to/lastmile_qr_scan"}, "is_reserved": 0, "is_disabled": 0, "type": "electric_scooter", "bike_id": "7b86a90b18200bc5118244c34900eb0a"}, {"lon": -77.031644, "lat": 38.91415933333333, "name": "baa97d2071b2dc7a7613cd290e44ea36", "fusion_lat": 0.0, "fusion_lon": 0.0, "rental_uris": {"android": "https://dc.lft.to/lastmile_qr_scan", "ios": "https://dc.lft.to/lastmile_qr_scan"}, "is_reserved": 0, "is_disabled": 0, "type": "electric_scooter", "bike_id": "baa97d2071b2dc7a7613cd290e44ea36"}, {"lon": -77.03381266666666, "lat": 38.92146116666667, "name": "ae2914a73b9e0934d6f9ce345c516f90", "fusion_lat": 0.0, "fusion_lon": 0.0, "rental_uris": {"android": "https://dc.lft.to/lastmile_qr_scan", "ios": "https://dc.lft.to/lastmile_qr_scan"}, "is_reserved": 0, "is_disabled": 0, "type": "electric_scooter", "bike_id": "ae2914a73b9e0934d6f9ce345c516f90"}, {"lon": -77.01511533333333, "lat": 38.913428333333336, "name": "0b654bd1d67c599a61f6657c6634c1c8", "fusion_lat": 0.0, "fusion_lon": 0.0, "rental_uris": {"android": "https://dc.lft.to/lastmile_qr_scan", "ios": "https://dc.lft.to/lastmile_qr_scan"}, "is_reserved": 0, "is_disabled": 0, "type": "electric_scooter", "bike_id": "0b654bd1d67c599a61f6657c6634c1c8"}, {"lon": -77.04308283333333, "lat": 38.90940783333333, "name": "82876070f53dd01000f084aab510d10f", "fusion_lat": 0.0, "fusion_lon": 0.0, "rental_uris": {"android": "https://dc.lft.to/lastmile_qr_scan", "ios": "https://dc.lft.to/lastmile_qr_scan"}, "is_reserved": 0, "is_disabled": 0, "type": "electric_scooter", "bike_id": "82876070f53dd01000f084aab510d10f"}, {"lon": -77.0283385, "lat": 38.892525, "name": "27a141410f7a374b1385dbc4a0cc06b5", "fusion_lat": 0.0, "fusion_lon": 0.0, "rental_uris": {"android": "https://dc.lft.to/lastmile_qr_scan", "ios": "https://dc.lft.to/lastmile_qr_scan"}, "is_reserved": 0, "is_disabled": 0, "type": "electric_scooter", "bike_id": "27a141410f7a374b1385dbc4a0cc06b5"}, {"lon": -77.02649983333333, "lat": 38.90259316666667, "name": "172eb3a640d0af97eb9489e51c8b42a0", "fusion_lat": 0.0, "fusion_lon": 0.0, "rental_uris": {"android": "https://dc.lft.to/lastmile_qr_scan", "ios": "https://dc.lft.to/lastmile_qr_scan"}, "is_reserved": 0, "is_disabled": 0, "type": "electric_scooter", "bike_id": "172eb3a640d0af97eb9489e51c8b42a0"}, {"lon": -77.06475516666667, "lat": 38.973837833333334, "name": "bb847067381a74588a95df7e95937048", "fusion_lat": 0.0, "fusion_lon": 0.0, "rental_uris": {"android": "https://dc.lft.to/lastmile_qr_scan", "ios": "https://dc.lft.to/lastmile_qr_scan"}, "is_reserved": 0, "is_disabled": 0, "type": "electric_bike", "bike_id": "bb847067381a74588a95df7e95937048"}, {"lon": -76.99171583333333, "lat": 38.87921733333334, "name": "f538c9820901e09a32e164f0630d4166", "fusion_lat": 0.0, "fusion_lon": 0.0, "rental_uris": {"android": "https://dc.lft.to/lastmile_qr_scan", "ios": "https://dc.lft.to/lastmile_qr_scan"}, "is_reserved": 0, "is_disabled": 0, "type": "electric_scooter", "bike_id": "f538c9820901e09a32e164f0630d4166"}, {"lon": -76.99887783333334, "lat": 38.90753866666667, "name": "39d2a9de1a04a879115732dd775c476a", "fusion_lat": 0.0, "fusion_lon": 0.0, "rental_uris": {"android": "https://dc.lft.to/lastmile_qr_scan", "ios": "https://dc.lft.to/lastmile_qr_scan"}, "is_reserved": 0, "is_disabled": 0, "type": "electric_scooter", "bike_id": "39d2a9de1a04a879115732dd775c476a"}, {"lon": -77.02104183333333, "lat": 38.93008016666667, "name": "041029305227d8a9d3d5f6be2255d827", "fusion_lat": 0.0, "fusion_lon": 0.0, "rental_uris": {"android": "https://dc.lft.to/lastmile_qr_scan", "ios": "https://dc.lft.to/lastmile_qr_scan"}, "is_reserved": 0, "is_disabled": 0, "type": "electric_scooter", "bike_id": "041029305227d8a9d3d5f6be2255d827"}, {"lon": -77.03363383333334, "lat": 38.93588066666667, "name": "ffca3597d2c7717bdba66370f0b3c00d", "fusion_lat": 0.0, "fusion_lon": 0.0, "rental_uris": {"android": "https://dc.lft.to/lastmile_qr_scan", "ios": "https://dc.lft.to/lastmile_qr_scan"}, "is_reserved": 0, "is_disabled": 0, "type": "electric_scooter", "bike_id": "ffca3597d2c7717bdba66370f0b3c00d"}, {"lon": -76.99787666666667, "lat": 38.890843333333336, "name": "023c0cb58c8bbcbd54d477e9e9b89bdc", "fusion_lat": 0.0, "fusion_lon": 0.0, "rental_uris": {"android": "https://dc.lft.to/lastmile_qr_scan", "ios": "https://dc.lft.to/lastmile_qr_scan"}, "is_reserved": 0, "is_disabled": 0, "type": "electric_scooter", "bike_id": "023c0cb58c8bbcbd54d477e9e9b89bdc"}, {"lon": -76.98556533333333, "lat": 38.894009833333335, "name": "a0479cae0b316e0fb35450866332523e", "fusion_lat": 0.0, "fusion_lon": 0.0, "rental_uris": {"android": "https://dc.lft.to/lastmile_qr_scan", "ios": "https://dc.lft.to/lastmile_qr_scan"}, "is_reserved": 0, "is_disabled": 0, "type": "electric_scooter", "bike_id": "a0479cae0b316e0fb35450866332523e"}, {"lon": -77.025775, "lat": 38.925025833333336, "name": "374a70ad8f538e512a09084c3c188ba4", "fusion_lat": 0.0, "fusion_lon": 0.0, "rental_uris": {"android": "https://dc.lft.to/lastmile_qr_scan", "ios": "https://dc.lft.to/lastmile_qr_scan"}, "is_reserved": 0, "is_disabled": 0, "type": "electric_scooter", "bike_id": "374a70ad8f538e512a09084c3c188ba4"}, {"lon": -77.059377, "lat": 38.936632833333334, "name": "2a756f5e16f3bf1afccab0d4cba0636a", "fusion_lat": 0.0, "fusion_lon": 0.0, "rental_uris": {"android": "https://dc.lft.to/lastmile_qr_scan", "ios": "https://dc.lft.to/lastmile_qr_scan"}, "is_reserved": 0, "is_disabled": 0, "type": "electric_scooter", "bike_id": "2a756f5e16f3bf1afccab0d4cba0636a"}, {"lon": -77.0277955, "lat": 38.927791166666665, "name": "1011d7ee1773227a476d6fe3c1b128e8", "fusion_lat": 0.0, "fusion_lon": 0.0, "rental_uris": {"android": "https://dc.lft.to/lastmile_qr_scan", "ios": "https://dc.lft.to/lastmile_qr_scan"}, "is_reserved": 0, "is_disabled": 0, "type": "electric_scooter", "bike_id": "1011d7ee1773227a476d6fe3c1b128e8"}, {"lon": -77.02897966666667, "lat": 38.904469166666665, "name": "d6fe024533cf0c42e2bb2b24c63e969c", "fusion_lat": 0.0, "fusion_lon": 0.0, "rental_uris": {"android": "https://dc.lft.to/lastmile_qr_scan", "ios": "https://dc.lft.to/lastmile_qr_scan"}, "is_reserved": 0, "is_disabled": 0, "type": "electric_scooter", "bike_id": "d6fe024533cf0c42e2bb2b24c63e969c"}, {"lon": -77.01372366666666, "lat": 38.8922705, "name": "eadd98a6e5f6abf81917ff8efcf0caf9", "fusion_lat": 0.0, "fusion_lon": 0.0, "rental_uris": {"android": "https://dc.lft.to/lastmile_qr_scan", "ios": "https://dc.lft.to/lastmile_qr_scan"}, "is_reserved": 0, "is_disabled": 0, "type": "electric_scooter", "bike_id": "eadd98a6e5f6abf81917ff8efcf0caf9"}, {"lon": -77.027232, "lat": 38.951276666666665, "name": "6fc2ae55e35be5e6cf67a29c21f1c6d2", "fusion_lat": 0.0, "fusion_lon": 0.0, "rental_uris": {"android": "https://dc.lft.to/lastmile_qr_scan", "ios": "https://dc.lft.to/lastmile_qr_scan"}, "is_reserved": 0, "is_disabled": 0, "type": "electric_scooter", "bike_id": "6fc2ae55e35be5e6cf67a29c21f1c6d2"}, {"lon": -77.00796366666667, "lat": 38.949159, "name": "10d4052de85d47cb6e82ccca00cbbd3c", "fusion_lat": 0.0, "fusion_lon": 0.0, "rental_uris": {"android": "https://dc.lft.to/lastmile_qr_scan", "ios": "https://dc.lft.to/lastmile_qr_scan"}, "is_reserved": 0, "is_disabled": 0, "type": "electric_bike", "bike_id": "10d4052de85d47cb6e82ccca00cbbd3c"}, {"lon": -77.02589533333334, "lat": 38.90427866666667, "name": "c3fe15c9a38aabeffe8487e8a601fba4", "fusion_lat": 0.0, "fusion_lon": 0.0, "rental_uris": {"android": "https://dc.lft.to/lastmile_qr_scan", "ios": "https://dc.lft.to/lastmile_qr_scan"}, "is_reserved": 0, "is_disabled": 0, "type": "electric_scooter", "bike_id": "c3fe15c9a38aabeffe8487e8a601fba4"}, {"lon": -77.03162933333333, "lat": 38.905296, "name": "b18af55d587cdf22011f30406c49a0b6", "fusion_lat": 0.0, "fusion_lon": 0.0, "rental_uris": {"android": "https://dc.lft.to/lastmile_qr_scan", "ios": "https://dc.lft.to/lastmile_qr_scan"}, "is_reserved": 0, "is_disabled": 0, "type": "electric_scooter", "bike_id": "b18af55d587cdf22011f30406c49a0b6"}, {"lon": -77.04842816666667, "lat": 38.91970583333333, "name": "83727f76f723c2b5f1d0bbed1633beec", "fusion_lat": 0.0, "fusion_lon": 0.0, "rental_uris": {"android": "https://dc.lft.to/lastmile_qr_scan", "ios": "https://dc.lft.to/lastmile_qr_scan"}, "is_reserved": 0, "is_disabled": 0, "type": "electric_scooter", "bike_id": "83727f76f723c2b5f1d0bbed1633beec"}, {"lon": -77.0028775, "lat": 38.91480966666666, "name": "048358bea0767a9fa9cab9bb7aa6a6e2", "fusion_lat": 0.0, "fusion_lon": 0.0, "rental_uris": {"android": "https://dc.lft.to/lastmile_qr_scan", "ios": "https://dc.lft.to/lastmile_qr_scan"}, "is_reserved": 0, "is_disabled": 0, "type": "electric_scooter", "bike_id": "048358bea0767a9fa9cab9bb7aa6a6e2"}, {"lon": -77.02549583333334, "lat": 38.892194833333335, "name": "8478b96773febb66d87c117f4550d5ab", "fusion_lat": 0.0, "fusion_lon": 0.0, "rental_uris": {"android": "https://dc.lft.to/lastmile_qr_scan", "ios": "https://dc.lft.to/lastmile_qr_scan"}, "is_reserved": 0, "is_disabled": 0, "type": "electric_scooter", "bike_id": "8478b96773febb66d87c117f4550d5ab"}, {"lon": -76.93344033333334, "lat": 38.89907266666667, "name": "14ef816ec2d1913ac243e282a940c6bd", "fusion_lat": 0.0, "fusion_lon": 0.0, "rental_uris": {"android": "https://dc.lft.to/lastmile_qr_scan", "ios": "https://dc.lft.to/lastmile_qr_scan"}, "is_reserved": 0, "is_disabled": 0, "type": "electric_scooter", "bike_id": "14ef816ec2d1913ac243e282a940c6bd"}, {"lon": -76.9953865, "lat": 38.900274, "name": "d44a11ce37e5368045abb7bee571d412", "fusion_lat": 0.0, "fusion_lon": 0.0, "rental_uris": {"android": "https://dc.lft.to/lastmile_qr_scan", "ios": "https://dc.lft.to/lastmile_qr_scan"}, "is_reserved": 0, "is_disabled": 0, "type": "electric_scooter", "bike_id": "d44a11ce37e5368045abb7bee571d412"}, {"lon": -77.18290433333334, "lat": 38.883453333333335, "name": "b87109a5ebbc53adc4b391b625402254", "fusion_lat": 0.0, "fusion_lon": 0.0, "rental_uris": {"android": "https://dc.lft.to/lastmile_qr_scan", "ios": "https://dc.lft.to/lastmile_qr_scan"}, "is_reserved": 0, "is_disabled": 0, "type": "electric_bike", "bike_id": "b87109a5ebbc53adc4b391b625402254"}, {"lon": -77.031982, "lat": 38.90785366666667, "name": "1eefac9a4a41823f39334e5c2dc2c376", "fusion_lat": 0.0, "fusion_lon": 0.0, "rental_uris": {"android": "https://dc.lft.to/lastmile_qr_scan", "ios": "https://dc.lft.to/lastmile_qr_scan"}, "is_reserved": 0, "is_disabled": 0, "type": "electric_scooter", "bike_id": "1eefac9a4a41823f39334e5c2dc2c376"}, {"lon": -76.99182616666667, "lat": 38.9050715, "name": "acc3c149930aeb2862ae5b4d065a4400", "fusion_lat": 0.0, "fusion_lon": 0.0, "rental_uris": {"android": "https://dc.lft.to/lastmile_qr_scan", "ios": "https://dc.lft.to/lastmile_qr_scan"}, "is_reserved": 0, "is_disabled": 0, "type": "electric_scooter", "bike_id": "acc3c149930aeb2862ae5b4d065a4400"}, {"lon": -76.99019166666666, "lat": 38.85868216666667, "name": "a867c5b5b790005eee0b0ebdb6ea896a", "fusion_lat": 0.0, "fusion_lon": 0.0, "rental_uris": {"android": "https://dc.lft.to/lastmile_qr_scan", "ios": "https://dc.lft.to/lastmile_qr_scan"}, "is_reserved": 0, "is_disabled": 0, "type": "electric_scooter", "bike_id": "a867c5b5b790005eee0b0ebdb6ea896a"}, {"lon": -77.02778416666666, "lat": 38.894761833333334, "name": "d5aadbb6c715a2c356ccb29a6a89dcc0", "fusion_lat": 0.0, "fusion_lon": 0.0, "rental_uris": {"android": "https://dc.lft.to/lastmile_qr_scan", "ios": "https://dc.lft.to/lastmile_qr_scan"}, "is_reserved": 0, "is_disabled": 0, "type": "electric_scooter", "bike_id": "d5aadbb6c715a2c356ccb29a6a89dcc0"}, {"lon": -77.043351, "lat": 38.903472, "name": "6da0077e194cc201acc7f37ebe17e9f5", "fusion_lat": 0.0, "fusion_lon": 0.0, "rental_uris": {"android": "https://dc.lft.to/lastmile_qr_scan", "ios": "https://dc.lft.to/lastmile_qr_scan"}, "is_reserved": 0, "is_disabled": 0, "type": "electric_scooter", "bike_id": "6da0077e194cc201acc7f37ebe17e9f5"}, {"lon": -77.02632716666666, "lat": 38.962140166666664, "name": "c87284e4b88c39c45466673490b8b90f", "fusion_lat": 0.0, "fusion_lon": 0.0, "rental_uris": {"android": "https://dc.lft.to/lastmile_qr_scan", "ios": "https://dc.lft.to/lastmile_qr_scan"}, "is_reserved": 0, "is_disabled": 0, "type": "electric_bike", "bike_id": "c87284e4b88c39c45466673490b8b90f"}, {"lon": -77.03453466666667, "lat": 38.945734333333334, "name": "fc146020bbb1af5d672a6425da63b379", "fusion_lat": 0.0, "fusion_lon": 0.0, "rental_uris": {"android": "https://dc.lft.to/lastmile_qr_scan", "ios": "https://dc.lft.to/lastmile_qr_scan"}, "is_reserved": 0, "is_disabled": 0, "type": "electric_scooter", "bike_id": "fc146020bbb1af5d672a6425da63b379"}, {"lon": -77.0296595, "lat": 38.916797333333335, "name": "71b8d84fdcde9ad8d41b428130e9a639", "fusion_lat": 0.0, "fusion_lon": 0.0, "rental_uris": {"android": "https://dc.lft.to/lastmile_qr_scan", "ios": "https://dc.lft.to/lastmile_qr_scan"}, "is_reserved": 0, "is_disabled": 0, "type": "electric_scooter", "bike_id": "71b8d84fdcde9ad8d41b428130e9a639"}, {"lon": -77.17846016666667, "lat": 39.08891083333334, "name": "4cfec9487efcfc1d8fa615fba8536b3a", "fusion_lat": 0.0, "fusion_lon": 0.0, "rental_uris": {"android": "https://dc.lft.to/lastmile_qr_scan", "ios": "https://dc.lft.to/lastmile_qr_scan"}, "is_reserved": 0, "is_disabled": 0, "type": "electric_bike", "bike_id": "4cfec9487efcfc1d8fa615fba8536b3a"}, {"lon": -77.02544733333333, "lat": 38.9409565, "name": "40b9d2eef7cc8526417ca656a6693bb2", "fusion_lat": 0.0, "fusion_lon": 0.0, "rental_uris": {"android": "https://dc.lft.to/lastmile_qr_scan", "ios": "https://dc.lft.to/lastmile_qr_scan"}, "is_reserved": 0, "is_disabled": 0, "type": "electric_scooter", "bike_id": "40b9d2eef7cc8526417ca656a6693bb2"}, {"lon": -76.98901716666667, "lat": 38.86676383333333, "name": "47b39f0511e0c172cbfb182237dd3776", "fusion_lat": 0.0, "fusion_lon": 0.0, "rental_uris": {"android": "https://dc.lft.to/lastmile_qr_scan", "ios": "https://dc.lft.to/lastmile_qr_scan"}, "is_reserved": 0, "is_disabled": 0, "type": "electric_scooter", "bike_id": "47b39f0511e0c172cbfb182237dd3776"}, {"lon": -77.02331766666667, "lat": 38.91552933333333, "name": "6aeea9596eaf158195df78f5b2088f5a", "fusion_lat": 0.0, "fusion_lon": 0.0, "rental_uris": {"android": "https://dc.lft.to/lastmile_qr_scan", "ios": "https://dc.lft.to/lastmile_qr_scan"}, "is_reserved": 0, "is_disabled": 0, "type": "electric_scooter", "bike_id": "6aeea9596eaf158195df78f5b2088f5a"}, {"lon": -77.03348716666666, "lat": 38.885063833333334, "name": "4c1b1b04a698f84a6f38d2bc373c6352", "fusion_lat": 0.0, "fusion_lon": 0.0, "rental_uris": {"android": "https://dc.lft.to/lastmile_qr_scan", "ios": "https://dc.lft.to/lastmile_qr_scan"}, "is_reserved": 0, "is_disabled": 0, "type": "electric_scooter", "bike_id": "4c1b1b04a698f84a6f38d2bc373c6352"}, {"lon": -77.05001016666667, "lat": 38.892290833333334, "name": "b375e886928ba8c8da0266c058ca6447", "fusion_lat": 0.0, "fusion_lon": 0.0, "rental_uris": {"android": "https://dc.lft.to/lastmile_qr_scan", "ios": "https://dc.lft.to/lastmile_qr_scan"}, "is_reserved": 0, "is_disabled": 0, "type": "electric_scooter", "bike_id": "b375e886928ba8c8da0266c058ca6447"}, {"lon": -77.0853865, "lat": 38.85623316666667, "name": "82c86dd061849c69a386f771a23fcbce", "fusion_lat": 0.0, "fusion_lon": 0.0, "rental_uris": {"android": "https://dc.lft.to/lastmile_qr_scan", "ios": "https://dc.lft.to/lastmile_qr_scan"}, "is_reserved": 0, "is_disabled": 0, "type": "electric_bike", "bike_id": "82c86dd061849c69a386f771a23fcbce"}, {"lon": -76.99460433333333, "lat": 38.88598483333333, "name": "68c225dc79d2a3d84e8c9bb9b2288f68", "fusion_lat": 0.0, "fusion_lon": 0.0, "rental_uris": {"android": "https://dc.lft.to/lastmile_qr_scan", "ios": "https://dc.lft.to/lastmile_qr_scan"}, "is_reserved": 0, "is_disabled": 0, "type": "electric_scooter", "bike_id": "68c225dc79d2a3d84e8c9bb9b2288f68"}, {"lon": -77.02701483333334, "lat": 38.949981666666666, "name": "2d2224aebba22d7559d2660a02a0248f", "fusion_lat": 0.0, "fusion_lon": 0.0, "rental_uris": {"android": "https://dc.lft.to/lastmile_qr_scan", "ios": "https://dc.lft.to/lastmile_qr_scan"}, "is_reserved": 0, "is_disabled": 0, "type": "electric_scooter", "bike_id": "2d2224aebba22d7559d2660a02a0248f"}, {"lon": -77.08210383333333, "lat": 38.935551833333335, "name": "08cc21c32dd76bc719354a6956393982", "fusion_lat": 0.0, "fusion_lon": 0.0, "rental_uris": {"android": "https://dc.lft.to/lastmile_qr_scan", "ios": "https://dc.lft.to/lastmile_qr_scan"}, "is_reserved": 0, "is_disabled": 0, "type": "electric_scooter", "bike_id": "08cc21c32dd76bc719354a6956393982"}, {"lon": -77.00345666666666, "lat": 38.89460533333333, "name": "9be4b22a7f71279f3f360c9f6a49533c", "fusion_lat": 0.0, "fusion_lon": 0.0, "rental_uris": {"android": "https://dc.lft.to/lastmile_qr_scan", "ios": "https://dc.lft.to/lastmile_qr_scan"}, "is_reserved": 0, "is_disabled": 0, "type": "electric_scooter", "bike_id": "9be4b22a7f71279f3f360c9f6a49533c"}, {"lon": -77.178428, "lat": 39.088529333333334, "name": "08d9bb8660543ca0c449f6368ff88ad9", "fusion_lat": 0.0, "fusion_lon": 0.0, "rental_uris": {"android": "https://dc.lft.to/lastmile_qr_scan", "ios": "https://dc.lft.to/lastmile_qr_scan"}, "is_reserved": 0, "is_disabled": 0, "type": "electric_bike", "bike_id": "08d9bb8660543ca0c449f6368ff88ad9"}, {"lon": -77.04306666666666, "lat": 39.054485166666666, "name": "979d2a36d02db36ccaab23f5a2800d89", "fusion_lat": 0.0, "fusion_lon": 0.0, "rental_uris": {"android": "https://dc.lft.to/lastmile_qr_scan", "ios": "https://dc.lft.to/lastmile_qr_scan"}, "is_reserved": 0, "is_disabled": 0, "type": "electric_bike", "bike_id": "979d2a36d02db36ccaab23f5a2800d89"}, {"lon": -77.04205166666667, "lat": 38.914156, "name": "3c7ef3e91bc8b753cf00753eb229f440", "fusion_lat": 0.0, "fusion_lon": 0.0, "rental_uris": {"android": "https://dc.lft.to/lastmile_qr_scan", "ios": "https://dc.lft.to/lastmile_qr_scan"}, "is_reserved": 0, "is_disabled": 0, "type": "electric_scooter", "bike_id": "3c7ef3e91bc8b753cf00753eb229f440"}, {"lon": -77.00547216666666, "lat": 38.905614666666665, "name": "25603734f789c45daf206211db989bfe", "fusion_lat": 0.0, "fusion_lon": 0.0, "rental_uris": {"android": "https://dc.lft.to/lastmile_qr_scan", "ios": "https://dc.lft.to/lastmile_qr_scan"}, "is_reserved": 0, "is_disabled": 0, "type": "electric_scooter", "bike_id": "25603734f789c45daf206211db989bfe"}, {"lon": -76.99037216666666, "lat": 38.85869266666667, "name": "61c6b71a76c5c0b6bbd210cc4a323ff9", "fusion_lat": 0.0, "fusion_lon": 0.0, "rental_uris": {"android": "https://dc.lft.to/lastmile_qr_scan", "ios": "https://dc.lft.to/lastmile_qr_scan"}, "is_reserved": 0, "is_disabled": 0, "type": "electric_scooter", "bike_id": "61c6b71a76c5c0b6bbd210cc4a323ff9"}, {"lon": -77.02401616666667, "lat": 38.887393333333335, "name": "ed9bfe0deeca22d2f7a34e0ce004e7ad", "fusion_lat": 0.0, "fusion_lon": 0.0, "rental_uris": {"android": "https://dc.lft.to/lastmile_qr_scan", "ios": "https://dc.lft.to/lastmile_qr_scan"}, "is_reserved": 0, "is_disabled": 0, "type": "electric_scooter", "bike_id": "ed9bfe0deeca22d2f7a34e0ce004e7ad"}, {"lon": -77.043903, "lat": 38.9227405, "name": "34e3a37eacc362812a0771279e4b5c8b", "fusion_lat": 0.0, "fusion_lon": 0.0, "rental_uris": {"android": "https://dc.lft.to/lastmile_qr_scan", "ios": "https://dc.lft.to/lastmile_qr_scan"}, "is_reserved": 0, "is_disabled": 0, "type": "electric_scooter", "bike_id": "34e3a37eacc362812a0771279e4b5c8b"}, {"lon": -77.0181865, "lat": 38.90816483333333, "name": "7bef873fa49351c9819496307f849c39", "fusion_lat": 0.0, "fusion_lon": 0.0, "rental_uris": {"android": "https://dc.lft.to/lastmile_qr_scan", "ios": "https://dc.lft.to/lastmile_qr_scan"}, "is_reserved": 0, "is_disabled": 0, "type": "electric_scooter", "bike_id": "7bef873fa49351c9819496307f849c39"}, {"lon": -77.02980783333334, "lat": 38.9369905, "name": "9abc0dc02a4c512fd667ae33714a06a4", "fusion_lat": 0.0, "fusion_lon": 0.0, "rental_uris": {"android": "https://dc.lft.to/lastmile_qr_scan", "ios": "https://dc.lft.to/lastmile_qr_scan"}, "is_reserved": 0, "is_disabled": 0, "type": "electric_bike", "bike_id": "9abc0dc02a4c512fd667ae33714a06a4"}, {"lon": -77.03217533333333, "lat": 38.91482766666667, "name": "301bfee0684617fe8dfefeb2f77cdcb1", "fusion_lat": 0.0, "fusion_lon": 0.0, "rental_uris": {"android": "https://dc.lft.to/lastmile_qr_scan", "ios": "https://dc.lft.to/lastmile_qr_scan"}, "is_reserved": 0, "is_disabled": 0, "type": "electric_scooter", "bike_id": "301bfee0684617fe8dfefeb2f77cdcb1"}, {"lon": -76.9650745, "lat": 38.876463333333334, "name": "231879a40de4dfa54e6ae880dd8f458d", "fusion_lat": 0.0, "fusion_lon": 0.0, "rental_uris": {"android": "https://dc.lft.to/lastmile_qr_scan", "ios": "https://dc.lft.to/lastmile_qr_scan"}, "is_reserved": 0, "is_disabled": 0, "type": "electric_scooter", "bike_id": "231879a40de4dfa54e6ae880dd8f458d"}, {"lon": -77.01072216666667, "lat": 38.87101583333333, "name": "c30e13a716b3b98bc495a3deb2b78855", "fusion_lat": 0.0, "fusion_lon": 0.0, "rental_uris": {"android": "https://dc.lft.to/lastmile_qr_scan", "ios": "https://dc.lft.to/lastmile_qr_scan"}, "is_reserved": 0, "is_disabled": 0, "type": "electric_scooter", "bike_id": "c30e13a716b3b98bc495a3deb2b78855"}, {"lon": -77.10922116666667, "lat": 39.051959, "name": "3353b63b04915528f0ddc14fc0d2e942", "fusion_lat": 0.0, "fusion_lon": 0.0, "rental_uris": {"android": "https://dc.lft.to/lastmile_qr_scan", "ios": "https://dc.lft.to/lastmile_qr_scan"}, "is_reserved": 0, "is_disabled": 0, "type": "electric_bike", "bike_id": "3353b63b04915528f0ddc14fc0d2e942"}, {"lon": -76.96559566666667, "lat": 38.918474833333335, "name": "d7c2b4f398d4ee08082272c558398a89", "fusion_lat": 0.0, "fusion_lon": 0.0, "rental_uris": {"android": "https://dc.lft.to/lastmile_qr_scan", "ios": "https://dc.lft.to/lastmile_qr_scan"}, "is_reserved": 0, "is_disabled": 0, "type": "electric_scooter", "bike_id": "d7c2b4f398d4ee08082272c558398a89"}, {"lon": -77.02350066666666, "lat": 38.908679166666666, "name": "dc54ffd230f64831d1eb80a8c29200ed", "fusion_lat": 0.0, "fusion_lon": 0.0, "rental_uris": {"android": "https://dc.lft.to/lastmile_qr_scan", "ios": "https://dc.lft.to/lastmile_qr_scan"}, "is_reserved": 0, "is_disabled": 0, "type": "electric_scooter", "bike_id": "dc54ffd230f64831d1eb80a8c29200ed"}, {"lon": -77.03194633333334, "lat": 38.9002395, "name": "7e749140b1684df6e66ba65bfac61637", "fusion_lat": 0.0, "fusion_lon": 0.0, "rental_uris": {"android": "https://dc.lft.to/lastmile_qr_scan", "ios": "https://dc.lft.to/lastmile_qr_scan"}, "is_reserved": 0, "is_disabled": 0, "type": "electric_scooter", "bike_id": "7e749140b1684df6e66ba65bfac61637"}, {"lon": -76.94856183333333, "lat": 38.88301833333333, "name": "e64bfc1a8061fb79c8ff5807971c5587", "fusion_lat": 0.0, "fusion_lon": 0.0, "rental_uris": {"android": "https://dc.lft.to/lastmile_qr_scan", "ios": "https://dc.lft.to/lastmile_qr_scan"}, "is_reserved": 0, "is_disabled": 0, "type": "electric_scooter", "bike_id": "e64bfc1a8061fb79c8ff5807971c5587"}, {"lon": -76.98759616666666, "lat": 38.8450145, "name": "372735ebcf17d714f2309721a4a184ac", "fusion_lat": 0.0, "fusion_lon": 0.0, "rental_uris": {"android": "https://dc.lft.to/lastmile_qr_scan", "ios": "https://dc.lft.to/lastmile_qr_scan"}, "is_reserved": 0, "is_disabled": 0, "type": "electric_scooter", "bike_id": "372735ebcf17d714f2309721a4a184ac"}, {"lon": -77.03615133333334, "lat": 38.929184666666664, "name": "d0b41370d1b22b270cb5e9d52b560351", "fusion_lat": 0.0, "fusion_lon": 0.0, "rental_uris": {"android": "https://dc.lft.to/lastmile_qr_scan", "ios": "https://dc.lft.to/lastmile_qr_scan"}, "is_reserved": 0, "is_disabled": 0, "type": "electric_scooter", "bike_id": "d0b41370d1b22b270cb5e9d52b560351"}, {"lon": -77.03659816666666, "lat": 38.911758, "name": "e21c620f3bf314b45b9974ed04cabd04", "fusion_lat": 0.0, "fusion_lon": 0.0, "rental_uris": {"android": "https://dc.lft.to/lastmile_qr_scan", "ios": "https://dc.lft.to/lastmile_qr_scan"}, "is_reserved": 0, "is_disabled": 0, "type": "electric_scooter", "bike_id": "e21c620f3bf314b45b9974ed04cabd04"}, {"lon": -77.0263015, "lat": 38.8921755, "name": "dfe2d1198c5637cf217796adf4137b6d", "fusion_lat": 0.0, "fusion_lon": 0.0, "rental_uris": {"android": "https://dc.lft.to/lastmile_qr_scan", "ios": "https://dc.lft.to/lastmile_qr_scan"}, "is_reserved": 0, "is_disabled": 0, "type": "electric_scooter", "bike_id": "dfe2d1198c5637cf217796adf4137b6d"}, {"lon": -77.13597616666667, "lat": 39.05344683333333, "name": "414969d00f10bd25b5a80c5db75f757f", "fusion_lat": 0.0, "fusion_lon": 0.0, "rental_uris": {"android": "https://dc.lft.to/lastmile_qr_scan", "ios": "https://dc.lft.to/lastmile_qr_scan"}, "is_reserved": 0, "is_disabled": 0, "type": "electric_bike", "bike_id": "414969d00f10bd25b5a80c5db75f757f"}, {"lon": -77.03474833333334, "lat": 38.92876016666666, "name": "a4f2a58f8fe4f0261d50b28d618a840b", "fusion_lat": 0.0, "fusion_lon": 0.0, "rental_uris": {"android": "https://dc.lft.to/lastmile_qr_scan", "ios": "https://dc.lft.to/lastmile_qr_scan"}, "is_reserved": 0, "is_disabled": 0, "type": "electric_scooter", "bike_id": "a4f2a58f8fe4f0261d50b28d618a840b"}, {"lon": -77.06426266666666, "lat": 38.8433495, "name": "c8a6efa8dc362324453662590d9998d7", "fusion_lat": 0.0, "fusion_lon": 0.0, "rental_uris": {"android": "https://dc.lft.to/lastmile_qr_scan", "ios": "https://dc.lft.to/lastmile_qr_scan"}, "is_reserved": 0, "is_disabled": 0, "type": "electric_bike", "bike_id": "c8a6efa8dc362324453662590d9998d7"}, {"lon": -77.02375166666667, "lat": 38.90199333333333, "name": "a4a0486d93f1e8e5b08e7f8173438e2e", "fusion_lat": 0.0, "fusion_lon": 0.0, "rental_uris": {"android": "https://dc.lft.to/lastmile_qr_scan", "ios": "https://dc.lft.to/lastmile_qr_scan"}, "is_reserved": 0, "is_disabled": 0, "type": "electric_scooter", "bike_id": "a4a0486d93f1e8e5b08e7f8173438e2e"}, {"lon": -77.01443116666667, "lat": 38.8778035, "name": "b1b22b4386f304d67e7f3b70da8dbbcd", "fusion_lat": 0.0, "fusion_lon": 0.0, "rental_uris": {"android": "https://dc.lft.to/lastmile_qr_scan", "ios": "https://dc.lft.to/lastmile_qr_scan"}, "is_reserved": 0, "is_disabled": 0, "type": "electric_scooter", "bike_id": "b1b22b4386f304d67e7f3b70da8dbbcd"}, {"lon": -76.95407516666667, "lat": 38.89156333333333, "name": "a07f31474f3ef3833bc5548e4ff8fa34", "fusion_lat": 0.0, "fusion_lon": 0.0, "rental_uris": {"android": "https://dc.lft.to/lastmile_qr_scan", "ios": "https://dc.lft.to/lastmile_qr_scan"}, "is_reserved": 0, "is_disabled": 0, "type": "electric_scooter", "bike_id": "a07f31474f3ef3833bc5548e4ff8fa34"}, {"lon": -77.04379033333333, "lat": 38.90382433333333, "name": "007d04cd949cb489e1cb638edf6c6633", "fusion_lat": 0.0, "fusion_lon": 0.0, "rental_uris": {"android": "https://dc.lft.to/lastmile_qr_scan", "ios": "https://dc.lft.to/lastmile_qr_scan"}, "is_reserved": 0, "is_disabled": 0, "type": "electric_scooter", "bike_id": "007d04cd949cb489e1cb638edf6c6633"}, {"lon": -77.031784, "lat": 38.91916066666667, "name": "982cf8655337c1ffcfbd85fc37d7284a", "fusion_lat": 0.0, "fusion_lon": 0.0, "rental_uris": {"android": "https://dc.lft.to/lastmile_qr_scan", "ios": "https://dc.lft.to/lastmile_qr_scan"}, "is_reserved": 0, "is_disabled": 0, "type": "electric_scooter", "bike_id": "982cf8655337c1ffcfbd85fc37d7284a"}, {"lon": -77.0343895, "lat": 38.90740483333333, "name": "a3c45908cd7204e375af98122f0d7b75", "fusion_lat": 0.0, "fusion_lon": 0.0, "rental_uris": {"android": "https://dc.lft.to/lastmile_qr_scan", "ios": "https://dc.lft.to/lastmile_qr_scan"}, "is_reserved": 0, "is_disabled": 0, "type": "electric_scooter", "bike_id": "a3c45908cd7204e375af98122f0d7b75"}, {"lon": -77.0728065, "lat": 38.90916283333333, "name": "a35d135a7199f9c463a9c215fcdf2365", "fusion_lat": 0.0, "fusion_lon": 0.0, "rental_uris": {"android": "https://dc.lft.to/lastmile_qr_scan", "ios": "https://dc.lft.to/lastmile_qr_scan"}, "is_reserved": 0, "is_disabled": 0, "type": "electric_scooter", "bike_id": "a35d135a7199f9c463a9c215fcdf2365"}, {"lon": -77.032133, "lat": 38.9089315, "name": "5f7f9279628bd4fe04dbf0b23f1a3093", "fusion_lat": 0.0, "fusion_lon": 0.0, "rental_uris": {"android": "https://dc.lft.to/lastmile_qr_scan", "ios": "https://dc.lft.to/lastmile_qr_scan"}, "is_reserved": 0, "is_disabled": 0, "type": "electric_bike", "bike_id": "5f7f9279628bd4fe04dbf0b23f1a3093"}, {"lon": -77.00208916666666, "lat": 38.90218383333333, "name": "2bb5b17f223c394cb6064c13e85ea18a", "fusion_lat": 0.0, "fusion_lon": 0.0, "rental_uris": {"android": "https://dc.lft.to/lastmile_qr_scan", "ios": "https://dc.lft.to/lastmile_qr_scan"}, "is_reserved": 0, "is_disabled": 0, "type": "electric_scooter", "bike_id": "2bb5b17f223c394cb6064c13e85ea18a"}, {"lon": -77.0574445, "lat": 38.925037833333334, "name": "908e560883c48e29edf185bdc391c96a", "fusion_lat": 0.0, "fusion_lon": 0.0, "rental_uris": {"android": "https://dc.lft.to/lastmile_qr_scan", "ios": "https://dc.lft.to/lastmile_qr_scan"}, "is_reserved": 0, "is_disabled": 0, "type": "electric_bike", "bike_id": "908e560883c48e29edf185bdc391c96a"}, {"lon": -76.916516, "lat": 38.868547, "name": "61db7de95c0c763c943873f12ca8d794", "fusion_lat": 0.0, "fusion_lon": 0.0, "rental_uris": {"android": "https://dc.lft.to/lastmile_qr_scan", "ios": "https://dc.lft.to/lastmile_qr_scan"}, "is_reserved": 0, "is_disabled": 0, "type": "electric_bike", "bike_id": "61db7de95c0c763c943873f12ca8d794"}, {"lon": -77.10766683333334, "lat": 38.89227233333333, "name": "c37108db7d72aac34548cd4692bec054", "fusion_lat": 0.0, "fusion_lon": 0.0, "rental_uris": {"android": "https://dc.lft.to/lastmile_qr_scan", "ios": "https://dc.lft.to/lastmile_qr_scan"}, "is_reserved": 0, "is_disabled": 0, "type": "electric_bike", "bike_id": "c37108db7d72aac34548cd4692bec054"}, {"lon": -77.01749683333334, "lat": 38.90250316666667, "name": "b5de6a6eecc59d5fe17c9bbfb581d37a", "fusion_lat": 0.0, "fusion_lon": 0.0, "rental_uris": {"android": "https://dc.lft.to/lastmile_qr_scan", "ios": "https://dc.lft.to/lastmile_qr_scan"}, "is_reserved": 0, "is_disabled": 0, "type": "electric_scooter", "bike_id": "b5de6a6eecc59d5fe17c9bbfb581d37a"}, {"lon": -77.02704, "lat": 38.915224, "name": "3f6a20e50d342019b876f4113ff9908d", "fusion_lat": 0.0, "fusion_lon": 0.0, "rental_uris": {"android": "https://dc.lft.to/lastmile_qr_scan", "ios": "https://dc.lft.to/lastmile_qr_scan"}, "is_reserved": 0, "is_disabled": 0, "type": "electric_scooter", "bike_id": "3f6a20e50d342019b876f4113ff9908d"}, {"lon": -77.04730633333334, "lat": 38.91120766666667, "name": "cecb94d6375850c7bdcc453a9c1180a0", "fusion_lat": 0.0, "fusion_lon": 0.0, "rental_uris": {"android": "https://dc.lft.to/lastmile_qr_scan", "ios": "https://dc.lft.to/lastmile_qr_scan"}, "is_reserved": 0, "is_disabled": 0, "type": "electric_scooter", "bike_id": "cecb94d6375850c7bdcc453a9c1180a0"}, {"lon": -77.0304235, "lat": 38.9077665, "name": "d487a6a9f6c7f5f47860060cca7117a4", "fusion_lat": 0.0, "fusion_lon": 0.0, "rental_uris": {"android": "https://dc.lft.to/lastmile_qr_scan", "ios": "https://dc.lft.to/lastmile_qr_scan"}, "is_reserved": 0, "is_disabled": 0, "type": "electric_scooter", "bike_id": "d487a6a9f6c7f5f47860060cca7117a4"}, {"lon": -77.02947233333333, "lat": 38.90505016666667, "name": "6bc57fe892a7d56953d0b148be6d1cdd", "fusion_lat": 0.0, "fusion_lon": 0.0, "rental_uris": {"android": "https://dc.lft.to/lastmile_qr_scan", "ios": "https://dc.lft.to/lastmile_qr_scan"}, "is_reserved": 0, "is_disabled": 0, "type": "electric_scooter", "bike_id": "6bc57fe892a7d56953d0b148be6d1cdd"}, {"lon": -77.025895, "lat": 38.90422233333334, "name": "1a9e0102ab43a68dbbda5301cc48f3be", "fusion_lat": 0.0, "fusion_lon": 0.0, "rental_uris": {"android": "https://dc.lft.to/lastmile_qr_scan", "ios": "https://dc.lft.to/lastmile_qr_scan"}, "is_reserved": 0, "is_disabled": 0, "type": "electric_scooter", "bike_id": "1a9e0102ab43a68dbbda5301cc48f3be"}, {"lon": -77.06946266666667, "lat": 38.990427, "name": "2f282700bf60bb8514621fe4f75eaaa1", "fusion_lat": 0.0, "fusion_lon": 0.0, "rental_uris": {"android": "https://dc.lft.to/lastmile_qr_scan", "ios": "https://dc.lft.to/lastmile_qr_scan"}, "is_reserved": 0, "is_disabled": 0, "type": "electric_bike", "bike_id": "2f282700bf60bb8514621fe4f75eaaa1"}, {"lon": -77.038283, "lat": 38.912657, "name": "b2f0589f7c857a1ef25aa2784ae31d90", "fusion_lat": 0.0, "fusion_lon": 0.0, "rental_uris": {"android": "https://dc.lft.to/lastmile_qr_scan", "ios": "https://dc.lft.to/lastmile_qr_scan"}, "is_reserved": 0, "is_disabled": 0, "type": "electric_scooter", "bike_id": "b2f0589f7c857a1ef25aa2784ae31d90"}, {"lon": -77.00531233333334, "lat": 38.87472666666667, "name": "a79d87bf2fd2796ddf6f5a06d34c2966", "fusion_lat": 0.0, "fusion_lon": 0.0, "rental_uris": {"android": "https://dc.lft.to/lastmile_qr_scan", "ios": "https://dc.lft.to/lastmile_qr_scan"}, "is_reserved": 0, "is_disabled": 0, "type": "electric_scooter", "bike_id": "a79d87bf2fd2796ddf6f5a06d34c2966"}, {"lon": -76.98606766666667, "lat": 38.906229833333335, "name": "90f6b6251c7ff1a854dea01bf97e6283", "fusion_lat": 0.0, "fusion_lon": 0.0, "rental_uris": {"android": "https://dc.lft.to/lastmile_qr_scan", "ios": "https://dc.lft.to/lastmile_qr_scan"}, "is_reserved": 0, "is_disabled": 0, "type": "electric_bike", "bike_id": "90f6b6251c7ff1a854dea01bf97e6283"}, {"lon": -76.974564, "lat": 38.90356216666667, "name": "85a21bfcbcfda1f52e9192f2a1de3506", "fusion_lat": 0.0, "fusion_lon": 0.0, "rental_uris": {"android": "https://dc.lft.to/lastmile_qr_scan", "ios": "https://dc.lft.to/lastmile_qr_scan"}, "is_reserved": 0, "is_disabled": 0, "type": "electric_scooter", "bike_id": "85a21bfcbcfda1f52e9192f2a1de3506"}, {"lon": -77.02516516666667, "lat": 38.926344666666665, "name": "b9d0dd4a32fe32bff145dd731bd7cdb8", "fusion_lat": 0.0, "fusion_lon": 0.0, "rental_uris": {"android": "https://dc.lft.to/lastmile_qr_scan", "ios": "https://dc.lft.to/lastmile_qr_scan"}, "is_reserved": 0, "is_disabled": 0, "type": "electric_scooter", "bike_id": "b9d0dd4a32fe32bff145dd731bd7cdb8"}, {"lon": -77.0329435, "lat": 38.91816033333333, "name": "3a4e0f6279d5b5568879c653cede1374", "fusion_lat": 0.0, "fusion_lon": 0.0, "rental_uris": {"android": "https://dc.lft.to/lastmile_qr_scan", "ios": "https://dc.lft.to/lastmile_qr_scan"}, "is_reserved": 0, "is_disabled": 0, "type": "electric_scooter", "bike_id": "3a4e0f6279d5b5568879c653cede1374"}, {"lon": -76.9901745, "lat": 38.902165333333336, "name": "8bae8884d5fcee4816160ec1d63f1d62", "fusion_lat": 0.0, "fusion_lon": 0.0, "rental_uris": {"android": "https://dc.lft.to/lastmile_qr_scan", "ios": "https://dc.lft.to/lastmile_qr_scan"}, "is_reserved": 0, "is_disabled": 0, "type": "electric_scooter", "bike_id": "8bae8884d5fcee4816160ec1d63f1d62"}, {"lon": -76.93765616666667, "lat": 38.899742833333335, "name": "5472dfea9649cfab9e5ffcc23fa22d0b", "fusion_lat": 0.0, "fusion_lon": 0.0, "rental_uris": {"android": "https://dc.lft.to/lastmile_qr_scan", "ios": "https://dc.lft.to/lastmile_qr_scan"}, "is_reserved": 0, "is_disabled": 0, "type": "electric_scooter", "bike_id": "5472dfea9649cfab9e5ffcc23fa22d0b"}, {"lon": -76.97335116666666, "lat": 38.9178695, "name": "77d26442e384935539620a61af0988b4", "fusion_lat": 0.0, "fusion_lon": 0.0, "rental_uris": {"android": "https://dc.lft.to/lastmile_qr_scan", "ios": "https://dc.lft.to/lastmile_qr_scan"}, "is_reserved": 0, "is_disabled": 0, "type": "electric_scooter", "bike_id": "77d26442e384935539620a61af0988b4"}, {"lon": -77.0248645, "lat": 38.9181905, "name": "744710534622c59d97c11c75c7fe054a", "fusion_lat": 0.0, "fusion_lon": 0.0, "rental_uris": {"android": "https://dc.lft.to/lastmile_qr_scan", "ios": "https://dc.lft.to/lastmile_qr_scan"}, "is_reserved": 0, "is_disabled": 0, "type": "electric_scooter", "bike_id": "744710534622c59d97c11c75c7fe054a"}, {"lon": -77.0512255, "lat": 38.99965666666667, "name": "f8857191abbefadc11a753075a9fce6b", "fusion_lat": 0.0, "fusion_lon": 0.0, "rental_uris": {"android": "https://dc.lft.to/lastmile_qr_scan", "ios": "https://dc.lft.to/lastmile_qr_scan"}, "is_reserved": 0, "is_disabled": 0, "type": "electric_bike", "bike_id": "f8857191abbefadc11a753075a9fce6b"}, {"lon": -77.00292, "lat": 38.8770705, "name": "a26ed71ba49ca4c7ccf120f1b9dc5449", "fusion_lat": 0.0, "fusion_lon": 0.0, "rental_uris": {"android": "https://dc.lft.to/lastmile_qr_scan", "ios": "https://dc.lft.to/lastmile_qr_scan"}, "is_reserved": 0, "is_disabled": 0, "type": "electric_scooter", "bike_id": "a26ed71ba49ca4c7ccf120f1b9dc5449"}, {"lon": -77.18796366666666, "lat": 39.09940866666667, "name": "55bfe1099691127a0eba610435dd4f09", "fusion_lat": 0.0, "fusion_lon": 0.0, "rental_uris": {"android": "https://dc.lft.to/lastmile_qr_scan", "ios": "https://dc.lft.to/lastmile_qr_scan"}, "is_reserved": 0, "is_disabled": 0, "type": "electric_bike", "bike_id": "55bfe1099691127a0eba610435dd4f09"}, {"lon": -77.0321045, "lat": 38.917073, "name": "6ba50053f2b64b319e0e7b581cb4d9cf", "fusion_lat": 0.0, "fusion_lon": 0.0, "rental_uris": {"android": "https://dc.lft.to/lastmile_qr_scan", "ios": "https://dc.lft.to/lastmile_qr_scan"}, "is_reserved": 0, "is_disabled": 0, "type": "electric_scooter", "bike_id": "6ba50053f2b64b319e0e7b581cb4d9cf"}, {"lon": -77.00237866666667, "lat": 38.8999835, "name": "c0f98450f1273eabe1a2c59036fd93aa", "fusion_lat": 0.0, "fusion_lon": 0.0, "rental_uris": {"android": "https://dc.lft.to/lastmile_qr_scan", "ios": "https://dc.lft.to/lastmile_qr_scan"}, "is_reserved": 0, "is_disabled": 0, "type": "electric_scooter", "bike_id": "c0f98450f1273eabe1a2c59036fd93aa"}, {"lon": -76.93203083333333, "lat": 38.87232183333333, "name": "a2378f7ca38b0e8ed57670a499d115fe", "fusion_lat": 0.0, "fusion_lon": 0.0, "rental_uris": {"android": "https://dc.lft.to/lastmile_qr_scan", "ios": "https://dc.lft.to/lastmile_qr_scan"}, "is_reserved": 0, "is_disabled": 0, "type": "electric_bike", "bike_id": "a2378f7ca38b0e8ed57670a499d115fe"}, {"lon": -77.03270883333333, "lat": 38.91981466666667, "name": "5dab2d65c189c40139665ab137200a61", "fusion_lat": 0.0, "fusion_lon": 0.0, "rental_uris": {"android": "https://dc.lft.to/lastmile_qr_scan", "ios": "https://dc.lft.to/lastmile_qr_scan"}, "is_reserved": 0, "is_disabled": 0, "type": "electric_scooter", "bike_id": "5dab2d65c189c40139665ab137200a61"}, {"lon": -77.00204116666667, "lat": 38.9024135, "name": "e2cf085d31b60c55fb43df00cbbb9dfb", "fusion_lat": 0.0, "fusion_lon": 0.0, "rental_uris": {"android": "https://dc.lft.to/lastmile_qr_scan", "ios": "https://dc.lft.to/lastmile_qr_scan"}, "is_reserved": 0, "is_disabled": 0, "type": "electric_scooter", "bike_id": "e2cf085d31b60c55fb43df00cbbb9dfb"}, {"lon": -77.03828433333334, "lat": 38.904824166666664, "name": "8dc652ae8071bcb1e087af0de5b695f1", "fusion_lat": 0.0, "fusion_lon": 0.0, "rental_uris": {"android": "https://dc.lft.to/lastmile_qr_scan", "ios": "https://dc.lft.to/lastmile_qr_scan"}, "is_reserved": 0, "is_disabled": 0, "type": "electric_scooter", "bike_id": "8dc652ae8071bcb1e087af0de5b695f1"}, {"lon": -76.95241233333333, "lat": 38.88672416666667, "name": "035029eec2664775ce7bc974132ab888", "fusion_lat": 0.0, "fusion_lon": 0.0, "rental_uris": {"android": "https://dc.lft.to/lastmile_qr_scan", "ios": "https://dc.lft.to/lastmile_qr_scan"}, "is_reserved": 0, "is_disabled": 0, "type": "electric_scooter", "bike_id": "035029eec2664775ce7bc974132ab888"}, {"lon": -77.02251716666666, "lat": 38.924981333333335, "name": "461471dab848d00a8deedeaebb07ab98", "fusion_lat": 0.0, "fusion_lon": 0.0, "rental_uris": {"android": "https://dc.lft.to/lastmile_qr_scan", "ios": "https://dc.lft.to/lastmile_qr_scan"}, "is_reserved": 0, "is_disabled": 0, "type": "electric_scooter", "bike_id": "461471dab848d00a8deedeaebb07ab98"}, {"lon": -77.08940133333333, "lat": 38.841017666666666, "name": "5af136cca213b9dc4d237bbd6a1beb80", "fusion_lat": 0.0, "fusion_lon": 0.0, "rental_uris": {"android": "https://dc.lft.to/lastmile_qr_scan", "ios": "https://dc.lft.to/lastmile_qr_scan"}, "is_reserved": 0, "is_disabled": 0, "type": "electric_bike", "bike_id": "5af136cca213b9dc4d237bbd6a1beb80"}, {"lon": -77.02985283333334, "lat": 38.95627916666667, "name": "d00eaa55721f100a975b6c24ffbd0090", "fusion_lat": 0.0, "fusion_lon": 0.0, "rental_uris": {"android": "https://dc.lft.to/lastmile_qr_scan", "ios": "https://dc.lft.to/lastmile_qr_scan"}, "is_reserved": 0, "is_disabled": 0, "type": "electric_scooter", "bike_id": "d00eaa55721f100a975b6c24ffbd0090"}, {"lon": -77.04072183333334, "lat": 38.81242066666667, "name": "d90f4dd2ea2db1d6514f06d7203cd5dc", "fusion_lat": 0.0, "fusion_lon": 0.0, "rental_uris": {"android": "https://dc.lft.to/lastmile_qr_scan", "ios": "https://dc.lft.to/lastmile_qr_scan"}, "is_reserved": 0, "is_disabled": 0, "type": "electric_bike", "bike_id": "d90f4dd2ea2db1d6514f06d7203cd5dc"}, {"lon": -77.01981533333333, "lat": 38.90242416666667, "name": "25b997ec010e7aaa5fa25e4170ac5550", "fusion_lat": 0.0, "fusion_lon": 0.0, "rental_uris": {"android": "https://dc.lft.to/lastmile_qr_scan", "ios": "https://dc.lft.to/lastmile_qr_scan"}, "is_reserved": 0, "is_disabled": 0, "type": "electric_scooter", "bike_id": "25b997ec010e7aaa5fa25e4170ac5550"}, {"lon": -77.05052833333333, "lat": 38.92426616666667, "name": "f64dc04bc141bee068e55932d342fc07", "fusion_lat": 0.0, "fusion_lon": 0.0, "rental_uris": {"android": "https://dc.lft.to/lastmile_qr_scan", "ios": "https://dc.lft.to/lastmile_qr_scan"}, "is_reserved": 0, "is_disabled": 0, "type": "electric_bike", "bike_id": "f64dc04bc141bee068e55932d342fc07"}, {"lon": -77.02709266666666, "lat": 38.949992, "name": "6dd41a1c9232cbe02df3ab5e07229807", "fusion_lat": 0.0, "fusion_lon": 0.0, "rental_uris": {"android": "https://dc.lft.to/lastmile_qr_scan", "ios": "https://dc.lft.to/lastmile_qr_scan"}, "is_reserved": 0, "is_disabled": 0, "type": "electric_scooter", "bike_id": "6dd41a1c9232cbe02df3ab5e07229807"}, {"lon": -77.03294216666667, "lat": 38.956567666666665, "name": "c7472b878f9f223623406dca32f351a8", "fusion_lat": 0.0, "fusion_lon": 0.0, "rental_uris": {"android": "https://dc.lft.to/lastmile_qr_scan", "ios": "https://dc.lft.to/lastmile_qr_scan"}, "is_reserved": 0, "is_disabled": 0, "type": "electric_scooter", "bike_id": "c7472b878f9f223623406dca32f351a8"}, {"lon": -77.02795083333334, "lat": 38.905587833333335, "name": "72d6e7635d74d47dbe2d7e32284ab5aa", "fusion_lat": 0.0, "fusion_lon": 0.0, "rental_uris": {"android": "https://dc.lft.to/lastmile_qr_scan", "ios": "https://dc.lft.to/lastmile_qr_scan"}, "is_reserved": 0, "is_disabled": 0, "type": "electric_scooter", "bike_id": "72d6e7635d74d47dbe2d7e32284ab5aa"}, {"lon": -77.0192865, "lat": 38.917251, "name": "e7d60fc71434c25d3840faabbd1fa853", "fusion_lat": 0.0, "fusion_lon": 0.0, "rental_uris": {"android": "https://dc.lft.to/lastmile_qr_scan", "ios": "https://dc.lft.to/lastmile_qr_scan"}, "is_reserved": 0, "is_disabled": 0, "type": "electric_scooter", "bike_id": "e7d60fc71434c25d3840faabbd1fa853"}, {"lon": -76.99959816666667, "lat": 38.90865183333333, "name": "17ef6aeab0c76aba4e2a7abda3add47f", "fusion_lat": 0.0, "fusion_lon": 0.0, "rental_uris": {"android": "https://dc.lft.to/lastmile_qr_scan", "ios": "https://dc.lft.to/lastmile_qr_scan"}, "is_reserved": 0, "is_disabled": 0, "type": "electric_scooter", "bike_id": "17ef6aeab0c76aba4e2a7abda3add47f"}, {"lon": -77.071539, "lat": 38.9584055, "name": "fe0c6b8b8b4927d346d75b22106e75ec", "fusion_lat": 0.0, "fusion_lon": 0.0, "rental_uris": {"android": "https://dc.lft.to/lastmile_qr_scan", "ios": "https://dc.lft.to/lastmile_qr_scan"}, "is_reserved": 0, "is_disabled": 0, "type": "electric_scooter", "bike_id": "fe0c6b8b8b4927d346d75b22106e75ec"}, {"lon": -77.00199166666667, "lat": 38.902368833333334, "name": "40dd05449f15f1238226b64cb939c891", "fusion_lat": 0.0, "fusion_lon": 0.0, "rental_uris": {"android": "https://dc.lft.to/lastmile_qr_scan", "ios": "https://dc.lft.to/lastmile_qr_scan"}, "is_reserved": 0, "is_disabled": 0, "type": "electric_scooter", "bike_id": "40dd05449f15f1238226b64cb939c891"}, {"lon": -76.9654865, "lat": 38.918482, "name": "3293637b25d81c492d709611b11eb771", "fusion_lat": 0.0, "fusion_lon": 0.0, "rental_uris": {"android": "https://dc.lft.to/lastmile_qr_scan", "ios": "https://dc.lft.to/lastmile_qr_scan"}, "is_reserved": 0, "is_disabled": 0, "type": "electric_scooter", "bike_id": "3293637b25d81c492d709611b11eb771"}, {"lon": -77.001627, "lat": 38.905158, "name": "005b39324ceaa2f370e8992c1bf7464e", "fusion_lat": 0.0, "fusion_lon": 0.0, "rental_uris": {"android": "https://dc.lft.to/lastmile_qr_scan", "ios": "https://dc.lft.to/lastmile_qr_scan"}, "is_reserved": 0, "is_disabled": 0, "type": "electric_scooter", "bike_id": "005b39324ceaa2f370e8992c1bf7464e"}, {"lon": -77.1250625, "lat": 39.02420166666667, "name": "6d6963152f059b995863c68d9bdecbec", "fusion_lat": 0.0, "fusion_lon": 0.0, "rental_uris": {"android": "https://dc.lft.to/lastmile_qr_scan", "ios": "https://dc.lft.to/lastmile_qr_scan"}, "is_reserved": 0, "is_disabled": 0, "type": "electric_bike", "bike_id": "6d6963152f059b995863c68d9bdecbec"}, {"lon": -77.02167333333334, "lat": 38.92611766666667, "name": "ded1e0a2a92b195250684796f0dd7e38", "fusion_lat": 0.0, "fusion_lon": 0.0, "rental_uris": {"android": "https://dc.lft.to/lastmile_qr_scan", "ios": "https://dc.lft.to/lastmile_qr_scan"}, "is_reserved": 0, "is_disabled": 0, "type": "electric_scooter", "bike_id": "ded1e0a2a92b195250684796f0dd7e38"}, {"lon": -77.01315033333333, "lat": 38.89739183333333, "name": "0d22b1c19fde4b9961cc38504cd4b3bf", "fusion_lat": 0.0, "fusion_lon": 0.0, "rental_uris": {"android": "https://dc.lft.to/lastmile_qr_scan", "ios": "https://dc.lft.to/lastmile_qr_scan"}, "is_reserved": 0, "is_disabled": 0, "type": "electric_scooter", "bike_id": "0d22b1c19fde4b9961cc38504cd4b3bf"}, {"lon": -77.067572, "lat": 38.94785266666667, "name": "28f0d1f13762a8c3f4f816a1ffd7ee26", "fusion_lat": 0.0, "fusion_lon": 0.0, "rental_uris": {"android": "https://dc.lft.to/lastmile_qr_scan", "ios": "https://dc.lft.to/lastmile_qr_scan"}, "is_reserved": 0, "is_disabled": 0, "type": "electric_scooter", "bike_id": "28f0d1f13762a8c3f4f816a1ffd7ee26"}, {"lon": -77.00137516666666, "lat": 38.925499, "name": "dfbda8c67f382cce50fee624416d4c01", "fusion_lat": 0.0, "fusion_lon": 0.0, "rental_uris": {"android": "https://dc.lft.to/lastmile_qr_scan", "ios": "https://dc.lft.to/lastmile_qr_scan"}, "is_reserved": 0, "is_disabled": 0, "type": "electric_bike", "bike_id": "dfbda8c67f382cce50fee624416d4c01"}, {"lon": -77.02510216666667, "lat": 38.919272666666664, "name": "56bdbe8bf9f27487e1f244907a382f69", "fusion_lat": 0.0, "fusion_lon": 0.0, "rental_uris": {"android": "https://dc.lft.to/lastmile_qr_scan", "ios": "https://dc.lft.to/lastmile_qr_scan"}, "is_reserved": 0, "is_disabled": 0, "type": "electric_scooter", "bike_id": "56bdbe8bf9f27487e1f244907a382f69"}, {"lon": -76.99485283333334, "lat": 38.900962666666665, "name": "56c3ca0845dc406a15eabacf6b4bc4f9", "fusion_lat": 0.0, "fusion_lon": 0.0, "rental_uris": {"android": "https://dc.lft.to/lastmile_qr_scan", "ios": "https://dc.lft.to/lastmile_qr_scan"}, "is_reserved": 0, "is_disabled": 0, "type": "electric_scooter", "bike_id": "56c3ca0845dc406a15eabacf6b4bc4f9"}, {"lon": -77.13232516666666, "lat": 38.869719833333335, "name": "e980a5bb5b49530dd58d7d13eeed8557", "fusion_lat": 0.0, "fusion_lon": 0.0, "rental_uris": {"android": "https://dc.lft.to/lastmile_qr_scan", "ios": "https://dc.lft.to/lastmile_qr_scan"}, "is_reserved": 0, "is_disabled": 0, "type": "electric_bike", "bike_id": "e980a5bb5b49530dd58d7d13eeed8557"}, {"lon": -76.985483, "lat": 38.8838215, "name": "921a896d5065035d97cb61eed442ac03", "fusion_lat": 0.0, "fusion_lon": 0.0, "rental_uris": {"android": "https://dc.lft.to/lastmile_qr_scan", "ios": "https://dc.lft.to/lastmile_qr_scan"}, "is_reserved": 0, "is_disabled": 0, "type": "electric_scooter", "bike_id": "921a896d5065035d97cb61eed442ac03"}, {"lon": -77.02948183333334, "lat": 38.903923166666665, "name": "4568a36d34284e6e3a64af45a323a2b7", "fusion_lat": 0.0, "fusion_lon": 0.0, "rental_uris": {"android": "https://dc.lft.to/lastmile_qr_scan", "ios": "https://dc.lft.to/lastmile_qr_scan"}, "is_reserved": 0, "is_disabled": 0, "type": "electric_scooter", "bike_id": "4568a36d34284e6e3a64af45a323a2b7"}, {"lon": -77.01893, "lat": 38.911843, "name": "73125d693cdb0300fd8b52c22697ba79", "fusion_lat": 0.0, "fusion_lon": 0.0, "rental_uris": {"android": "https://dc.lft.to/lastmile_qr_scan", "ios": "https://dc.lft.to/lastmile_qr_scan"}, "is_reserved": 0, "is_disabled": 0, "type": "electric_scooter", "bike_id": "73125d693cdb0300fd8b52c22697ba79"}, {"lon": -76.999547, "lat": 38.90864783333333, "name": "27a6e0068b94418c011b4acec936eebd", "fusion_lat": 0.0, "fusion_lon": 0.0, "rental_uris": {"android": "https://dc.lft.to/lastmile_qr_scan", "ios": "https://dc.lft.to/lastmile_qr_scan"}, "is_reserved": 0, "is_disabled": 0, "type": "electric_scooter", "bike_id": "27a6e0068b94418c011b4acec936eebd"}, {"lon": -77.048887, "lat": 38.90954633333333, "name": "a4eceee4881fce4891c233784018433a", "fusion_lat": 0.0, "fusion_lon": 0.0, "rental_uris": {"android": "https://dc.lft.to/lastmile_qr_scan", "ios": "https://dc.lft.to/lastmile_qr_scan"}, "is_reserved": 0, "is_disabled": 0, "type": "electric_scooter", "bike_id": "a4eceee4881fce4891c233784018433a"}, {"lon": -77.0073775, "lat": 38.89788033333333, "name": "55aaf2dce0a7a0094f7f1ad4d78589b3", "fusion_lat": 0.0, "fusion_lon": 0.0, "rental_uris": {"android": "https://dc.lft.to/lastmile_qr_scan", "ios": "https://dc.lft.to/lastmile_qr_scan"}, "is_reserved": 0, "is_disabled": 0, "type": "electric_scooter", "bike_id": "55aaf2dce0a7a0094f7f1ad4d78589b3"}, {"lon": -77.03261933333333, "lat": 38.928514666666665, "name": "5a869d508e81c011f0fb8d62c16d329f", "fusion_lat": 0.0, "fusion_lon": 0.0, "rental_uris": {"android": "https://dc.lft.to/lastmile_qr_scan", "ios": "https://dc.lft.to/lastmile_qr_scan"}, "is_reserved": 0, "is_disabled": 0, "type": "electric_scooter", "bike_id": "5a869d508e81c011f0fb8d62c16d329f"}, {"lon": -77.02589566666667, "lat": 38.9042755, "name": "f9db63b756b9f07b0eae4538c48d17a3", "fusion_lat": 0.0, "fusion_lon": 0.0, "rental_uris": {"android": "https://dc.lft.to/lastmile_qr_scan", "ios": "https://dc.lft.to/lastmile_qr_scan"}, "is_reserved": 0, "is_disabled": 0, "type": "electric_scooter", "bike_id": "f9db63b756b9f07b0eae4538c48d17a3"}, {"lon": -76.93163366666667, "lat": 38.8988465, "name": "da8af8510e21cda3693e2517a70c16eb", "fusion_lat": 0.0, "fusion_lon": 0.0, "rental_uris": {"android": "https://dc.lft.to/lastmile_qr_scan", "ios": "https://dc.lft.to/lastmile_qr_scan"}, "is_reserved": 0, "is_disabled": 0, "type": "electric_scooter", "bike_id": "da8af8510e21cda3693e2517a70c16eb"}, {"lon": -76.941205, "lat": 38.9079505, "name": "9d4595962d8e4aed88bc4891e8a40c2f", "fusion_lat": 0.0, "fusion_lon": 0.0, "rental_uris": {"android": "https://dc.lft.to/lastmile_qr_scan", "ios": "https://dc.lft.to/lastmile_qr_scan"}, "is_reserved": 0, "is_disabled": 0, "type": "electric_scooter", "bike_id": "9d4595962d8e4aed88bc4891e8a40c2f"}, {"lon": -77.12739633333334, "lat": 38.888232333333335, "name": "5f9139e622bf63902f8a288cab312652", "fusion_lat": 0.0, "fusion_lon": 0.0, "rental_uris": {"android": "https://dc.lft.to/lastmile_qr_scan", "ios": "https://dc.lft.to/lastmile_qr_scan"}, "is_reserved": 0, "is_disabled": 0, "type": "electric_bike", "bike_id": "5f9139e622bf63902f8a288cab312652"}, {"lon": -77.03833316666666, "lat": 38.9111005, "name": "455e587109f4756d15b5f05d6ac9a739", "fusion_lat": 0.0, "fusion_lon": 0.0, "rental_uris": {"android": "https://dc.lft.to/lastmile_qr_scan", "ios": "https://dc.lft.to/lastmile_qr_scan"}, "is_reserved": 0, "is_disabled": 0, "type": "electric_scooter", "bike_id": "455e587109f4756d15b5f05d6ac9a739"}, {"lon": -77.02885283333333, "lat": 38.90382316666667, "name": "813f189f3ff96bd7cbee8ce9a5b3a888", "fusion_lat": 0.0, "fusion_lon": 0.0, "rental_uris": {"android": "https://dc.lft.to/lastmile_qr_scan", "ios": "https://dc.lft.to/lastmile_qr_scan"}, "is_reserved": 0, "is_disabled": 0, "type": "electric_scooter", "bike_id": "813f189f3ff96bd7cbee8ce9a5b3a888"}, {"lon": -77.04658616666667, "lat": 38.904439333333336, "name": "855fefd78b38ea04c2c2de0698f6f9fe", "fusion_lat": 0.0, "fusion_lon": 0.0, "rental_uris": {"android": "https://dc.lft.to/lastmile_qr_scan", "ios": "https://dc.lft.to/lastmile_qr_scan"}, "is_reserved": 0, "is_disabled": 0, "type": "electric_scooter", "bike_id": "855fefd78b38ea04c2c2de0698f6f9fe"}, {"lon": -77.01782983333334, "lat": 38.898461166666664, "name": "0fe97489e9b5b0ec7a9c479442115806", "fusion_lat": 0.0, "fusion_lon": 0.0, "rental_uris": {"android": "https://dc.lft.to/lastmile_qr_scan", "ios": "https://dc.lft.to/lastmile_qr_scan"}, "is_reserved": 0, "is_disabled": 0, "type": "electric_scooter", "bike_id": "0fe97489e9b5b0ec7a9c479442115806"}, {"lon": -76.99954783333334, "lat": 38.908675, "name": "95b0bac1b71036cd87003d50b1bd2b58", "fusion_lat": 0.0, "fusion_lon": 0.0, "rental_uris": {"android": "https://dc.lft.to/lastmile_qr_scan", "ios": "https://dc.lft.to/lastmile_qr_scan"}, "is_reserved": 0, "is_disabled": 0, "type": "electric_scooter", "bike_id": "95b0bac1b71036cd87003d50b1bd2b58"}, {"lon": -77.04437333333334, "lat": 38.92336133333333, "name": "4fc0bef8dcc7e208ea6bca337ccba1c7", "fusion_lat": 0.0, "fusion_lon": 0.0, "rental_uris": {"android": "https://dc.lft.to/lastmile_qr_scan", "ios": "https://dc.lft.to/lastmile_qr_scan"}, "is_reserved": 0, "is_disabled": 0, "type": "electric_scooter", "bike_id": "4fc0bef8dcc7e208ea6bca337ccba1c7"}, {"lon": -76.9366065, "lat": 38.90285983333333, "name": "1292fc279970c1b2e2b26049ebd0524a", "fusion_lat": 0.0, "fusion_lon": 0.0, "rental_uris": {"android": "https://dc.lft.to/lastmile_qr_scan", "ios": "https://dc.lft.to/lastmile_qr_scan"}, "is_reserved": 0, "is_disabled": 0, "type": "electric_scooter", "bike_id": "1292fc279970c1b2e2b26049ebd0524a"}, {"lon": -77.0254675, "lat": 38.92406233333333, "name": "e556b04f4a3d5b126c0fdb7137cdf9f2", "fusion_lat": 0.0, "fusion_lon": 0.0, "rental_uris": {"android": "https://dc.lft.to/lastmile_qr_scan", "ios": "https://dc.lft.to/lastmile_qr_scan"}, "is_reserved": 0, "is_disabled": 0, "type": "electric_scooter", "bike_id": "e556b04f4a3d5b126c0fdb7137cdf9f2"}, {"lon": -77.02394783333334, "lat": 38.887364, "name": "9c836bb816d880cdd8d32403148d7c29", "fusion_lat": 0.0, "fusion_lon": 0.0, "rental_uris": {"android": "https://dc.lft.to/lastmile_qr_scan", "ios": "https://dc.lft.to/lastmile_qr_scan"}, "is_reserved": 0, "is_disabled": 0, "type": "electric_scooter", "bike_id": "9c836bb816d880cdd8d32403148d7c29"}, {"lon": -77.03464866666667, "lat": 38.91468866666666, "name": "5f89b72427d0c14a3b04785a2b202ed2", "fusion_lat": 0.0, "fusion_lon": 0.0, "rental_uris": {"android": "https://dc.lft.to/lastmile_qr_scan", "ios": "https://dc.lft.to/lastmile_qr_scan"}, "is_reserved": 0, "is_disabled": 0, "type": "electric_scooter", "bike_id": "5f89b72427d0c14a3b04785a2b202ed2"}, {"lon": -77.0418625, "lat": 38.918467666666665, "name": "3c0ad937ac47c9c5f34ef0487de186df", "fusion_lat": 0.0, "fusion_lon": 0.0, "rental_uris": {"android": "https://dc.lft.to/lastmile_qr_scan", "ios": "https://dc.lft.to/lastmile_qr_scan"}, "is_reserved": 0, "is_disabled": 0, "type": "electric_scooter", "bike_id": "3c0ad937ac47c9c5f34ef0487de186df"}, {"lon": -77.061613, "lat": 38.94227716666666, "name": "6be9da6f4f7be508ddad32c97eb03a23", "fusion_lat": 0.0, "fusion_lon": 0.0, "rental_uris": {"android": "https://dc.lft.to/lastmile_qr_scan", "ios": "https://dc.lft.to/lastmile_qr_scan"}, "is_reserved": 0, "is_disabled": 0, "type": "electric_scooter", "bike_id": "6be9da6f4f7be508ddad32c97eb03a23"}, {"lon": -77.01729716666667, "lat": 38.90715083333333, "name": "d57e361c59c440cd4b198918fb6ba5b5", "fusion_lat": 0.0, "fusion_lon": 0.0, "rental_uris": {"android": "https://dc.lft.to/lastmile_qr_scan", "ios": "https://dc.lft.to/lastmile_qr_scan"}, "is_reserved": 0, "is_disabled": 0, "type": "electric_scooter", "bike_id": "d57e361c59c440cd4b198918fb6ba5b5"}, {"lon": -76.98770783333333, "lat": 38.91174933333333, "name": "ba1e0fa80074baf953df040eae6bcf26", "fusion_lat": 0.0, "fusion_lon": 0.0, "rental_uris": {"android": "https://dc.lft.to/lastmile_qr_scan", "ios": "https://dc.lft.to/lastmile_qr_scan"}, "is_reserved": 0, "is_disabled": 0, "type": "electric_scooter", "bike_id": "ba1e0fa80074baf953df040eae6bcf26"}, {"lon": -77.01136316666667, "lat": 38.90330816666667, "name": "246f8c7dc1b32a13cb6c38b53aaba227", "fusion_lat": 0.0, "fusion_lon": 0.0, "rental_uris": {"android": "https://dc.lft.to/lastmile_qr_scan", "ios": "https://dc.lft.to/lastmile_qr_scan"}, "is_reserved": 0, "is_disabled": 0, "type": "electric_scooter", "bike_id": "246f8c7dc1b32a13cb6c38b53aaba227"}, {"lon": -77.02550533333333, "lat": 38.892244, "name": "92b2e878de7bbca3fa3d2f6d155b0c2c", "fusion_lat": 0.0, "fusion_lon": 0.0, "rental_uris": {"android": "https://dc.lft.to/lastmile_qr_scan", "ios": "https://dc.lft.to/lastmile_qr_scan"}, "is_reserved": 0, "is_disabled": 0, "type": "electric_scooter", "bike_id": "92b2e878de7bbca3fa3d2f6d155b0c2c"}, {"lon": -77.0484425, "lat": 38.913262333333336, "name": "9da73c8602d9be4ccf8e7a54b76493ed", "fusion_lat": 0.0, "fusion_lon": 0.0, "rental_uris": {"android": "https://dc.lft.to/lastmile_qr_scan", "ios": "https://dc.lft.to/lastmile_qr_scan"}, "is_reserved": 0, "is_disabled": 0, "type": "electric_scooter", "bike_id": "9da73c8602d9be4ccf8e7a54b76493ed"}, {"lon": -77.0128235, "lat": 39.003732666666664, "name": "1819b5a411e4781faed2468e5996c6f3", "fusion_lat": 0.0, "fusion_lon": 0.0, "rental_uris": {"android": "https://dc.lft.to/lastmile_qr_scan", "ios": "https://dc.lft.to/lastmile_qr_scan"}, "is_reserved": 0, "is_disabled": 0, "type": "electric_bike", "bike_id": "1819b5a411e4781faed2468e5996c6f3"}, {"lon": -77.097575, "lat": 38.8585385, "name": "79226a232d031b6b17f139e79d402c2a", "fusion_lat": 0.0, "fusion_lon": 0.0, "rental_uris": {"android": "https://dc.lft.to/lastmile_qr_scan", "ios": "https://dc.lft.to/lastmile_qr_scan"}, "is_reserved": 0, "is_disabled": 0, "type": "electric_bike", "bike_id": "79226a232d031b6b17f139e79d402c2a"}, {"lon": -77.032054, "lat": 38.915211, "name": "c9043271c63751ce5e220a16752f9c5f", "fusion_lat": 0.0, "fusion_lon": 0.0, "rental_uris": {"android": "https://dc.lft.to/lastmile_qr_scan", "ios": "https://dc.lft.to/lastmile_qr_scan"}, "is_reserved": 0, "is_disabled": 0, "type": "electric_scooter", "bike_id": "c9043271c63751ce5e220a16752f9c5f"}, {"lon": -76.94847766666666, "lat": 38.89489916666667, "name": "2dd3a2a4a1487076217ff990dca799fd", "fusion_lat": 0.0, "fusion_lon": 0.0, "rental_uris": {"android": "https://dc.lft.to/lastmile_qr_scan", "ios": "https://dc.lft.to/lastmile_qr_scan"}, "is_reserved": 0, "is_disabled": 0, "type": "electric_scooter", "bike_id": "2dd3a2a4a1487076217ff990dca799fd"}, {"lon": -76.99622166666667, "lat": 38.90029933333334, "name": "3fdc2db663722594b028ebdf53bb283d", "fusion_lat": 0.0, "fusion_lon": 0.0, "rental_uris": {"android": "https://dc.lft.to/lastmile_qr_scan", "ios": "https://dc.lft.to/lastmile_qr_scan"}, "is_reserved": 0, "is_disabled": 0, "type": "electric_scooter", "bike_id": "3fdc2db663722594b028ebdf53bb283d"}, {"lon": -77.02701666666667, "lat": 38.906723166666666, "name": "75db6d7c5aa1f78fd33cdecbb2a3f91f", "fusion_lat": 0.0, "fusion_lon": 0.0, "rental_uris": {"android": "https://dc.lft.to/lastmile_qr_scan", "ios": "https://dc.lft.to/lastmile_qr_scan"}, "is_reserved": 0, "is_disabled": 0, "type": "electric_scooter", "bike_id": "75db6d7c5aa1f78fd33cdecbb2a3f91f"}, {"lon": -77.01720416666667, "lat": 38.885945, "name": "6ab0f8f7df5b5416f8cf56fe3c8c7a00", "fusion_lat": 0.0, "fusion_lon": 0.0, "rental_uris": {"android": "https://dc.lft.to/lastmile_qr_scan", "ios": "https://dc.lft.to/lastmile_qr_scan"}, "is_reserved": 0, "is_disabled": 0, "type": "electric_scooter", "bike_id": "6ab0f8f7df5b5416f8cf56fe3c8c7a00"}, {"lon": -77.02307066666667, "lat": 38.917749, "name": "f4994bd54f76723486879f7760340408", "fusion_lat": 0.0, "fusion_lon": 0.0, "rental_uris": {"android": "https://dc.lft.to/lastmile_qr_scan", "ios": "https://dc.lft.to/lastmile_qr_scan"}, "is_reserved": 0, "is_disabled": 0, "type": "electric_scooter", "bike_id": "f4994bd54f76723486879f7760340408"}, {"lon": -77.00611533333333, "lat": 38.877259333333335, "name": "54376a2e89eba99f66c4035a5734e89d", "fusion_lat": 0.0, "fusion_lon": 0.0, "rental_uris": {"android": "https://dc.lft.to/lastmile_qr_scan", "ios": "https://dc.lft.to/lastmile_qr_scan"}, "is_reserved": 0, "is_disabled": 0, "type": "electric_scooter", "bike_id": "54376a2e89eba99f66c4035a5734e89d"}, {"lon": -77.03344333333334, "lat": 38.908385833333334, "name": "fcdf1361a7e2904666143c38a9834279", "fusion_lat": 0.0, "fusion_lon": 0.0, "rental_uris": {"android": "https://dc.lft.to/lastmile_qr_scan", "ios": "https://dc.lft.to/lastmile_qr_scan"}, "is_reserved": 0, "is_disabled": 0, "type": "electric_scooter", "bike_id": "fcdf1361a7e2904666143c38a9834279"}, {"lon": -77.02167766666666, "lat": 38.88633166666666, "name": "753e1c15f9abfded0a3d0a0e051acb1e", "fusion_lat": 0.0, "fusion_lon": 0.0, "rental_uris": {"android": "https://dc.lft.to/lastmile_qr_scan", "ios": "https://dc.lft.to/lastmile_qr_scan"}, "is_reserved": 0, "is_disabled": 0, "type": "electric_scooter", "bike_id": "753e1c15f9abfded0a3d0a0e051acb1e"}, {"lon": -77.0716715, "lat": 38.91448583333333, "name": "39df443f4b0613fdab983f2f2581eee5", "fusion_lat": 0.0, "fusion_lon": 0.0, "rental_uris": {"android": "https://dc.lft.to/lastmile_qr_scan", "ios": "https://dc.lft.to/lastmile_qr_scan"}, "is_reserved": 0, "is_disabled": 0, "type": "electric_scooter", "bike_id": "39df443f4b0613fdab983f2f2581eee5"}, {"lon": -76.99633816666666, "lat": 38.846192333333335, "name": "e03ec62ebc518c235e76ba17fed8c581", "fusion_lat": 0.0, "fusion_lon": 0.0, "rental_uris": {"android": "https://dc.lft.to/lastmile_qr_scan", "ios": "https://dc.lft.to/lastmile_qr_scan"}, "is_reserved": 0, "is_disabled": 0, "type": "electric_scooter", "bike_id": "e03ec62ebc518c235e76ba17fed8c581"}, {"lon": -77.02880516666667, "lat": 38.89754216666667, "name": "a4f06edf46e536fa012fa5644210d748", "fusion_lat": 0.0, "fusion_lon": 0.0, "rental_uris": {"android": "https://dc.lft.to/lastmile_qr_scan", "ios": "https://dc.lft.to/lastmile_qr_scan"}, "is_reserved": 0, "is_disabled": 0, "type": "electric_scooter", "bike_id": "a4f06edf46e536fa012fa5644210d748"}, {"lon": -76.94290316666667, "lat": 38.954096, "name": "632bf7cc8345655c6915f42fe2409c89", "fusion_lat": 0.0, "fusion_lon": 0.0, "rental_uris": {"android": "https://dc.lft.to/lastmile_qr_scan", "ios": "https://dc.lft.to/lastmile_qr_scan"}, "is_reserved": 0, "is_disabled": 0, "type": "electric_bike", "bike_id": "632bf7cc8345655c6915f42fe2409c89"}, {"lon": -77.04244166666666, "lat": 38.922322333333334, "name": "7ac104bf7e80634bb40d6ee43e2b9436", "fusion_lat": 0.0, "fusion_lon": 0.0, "rental_uris": {"android": "https://dc.lft.to/lastmile_qr_scan", "ios": "https://dc.lft.to/lastmile_qr_scan"}, "is_reserved": 0, "is_disabled": 0, "type": "electric_scooter", "bike_id": "7ac104bf7e80634bb40d6ee43e2b9436"}, {"lon": -77.04170033333334, "lat": 38.914561166666665, "name": "8c910bf719807c1bd82477ec77a9061f", "fusion_lat": 0.0, "fusion_lon": 0.0, "rental_uris": {"android": "https://dc.lft.to/lastmile_qr_scan", "ios": "https://dc.lft.to/lastmile_qr_scan"}, "is_reserved": 0, "is_disabled": 0, "type": "electric_scooter", "bike_id": "8c910bf719807c1bd82477ec77a9061f"}, {"lon": -77.040612, "lat": 38.917658833333334, "name": "258b1c6fa16cbd12a14e7d114edfd676", "fusion_lat": 0.0, "fusion_lon": 0.0, "rental_uris": {"android": "https://dc.lft.to/lastmile_qr_scan", "ios": "https://dc.lft.to/lastmile_qr_scan"}, "is_reserved": 0, "is_disabled": 0, "type": "electric_scooter", "bike_id": "258b1c6fa16cbd12a14e7d114edfd676"}, {"lon": -77.02816383333334, "lat": 38.9650905, "name": "21699405a3cf5296325162506e3ba1e5", "fusion_lat": 0.0, "fusion_lon": 0.0, "rental_uris": {"android": "https://dc.lft.to/lastmile_qr_scan", "ios": "https://dc.lft.to/lastmile_qr_scan"}, "is_reserved": 0, "is_disabled": 0, "type": "electric_bike", "bike_id": "21699405a3cf5296325162506e3ba1e5"}, {"lon": -76.997801, "lat": 38.84421366666667, "name": "7b154955fc8026ec298d933d753f19f7", "fusion_lat": 0.0, "fusion_lon": 0.0, "rental_uris": {"android": "https://dc.lft.to/lastmile_qr_scan", "ios": "https://dc.lft.to/lastmile_qr_scan"}, "is_reserved": 0, "is_disabled": 0, "type": "electric_scooter", "bike_id": "7b154955fc8026ec298d933d753f19f7"}, {"lon": -77.0521255, "lat": 38.9353395, "name": "056d5278c10f11c2c0231c1c630daef3", "fusion_lat": 0.0, "fusion_lon": 0.0, "rental_uris": {"android": "https://dc.lft.to/lastmile_qr_scan", "ios": "https://dc.lft.to/lastmile_qr_scan"}, "is_reserved": 0, "is_disabled": 0, "type": "electric_bike", "bike_id": "056d5278c10f11c2c0231c1c630daef3"}, {"lon": -77.02827216666667, "lat": 38.88743816666667, "name": "45b0cf97e56c09b14bd97edd637c4dab", "fusion_lat": 0.0, "fusion_lon": 0.0, "rental_uris": {"android": "https://dc.lft.to/lastmile_qr_scan", "ios": "https://dc.lft.to/lastmile_qr_scan"}, "is_reserved": 0, "is_disabled": 0, "type": "electric_scooter", "bike_id": "45b0cf97e56c09b14bd97edd637c4dab"}, {"lon": -77.07192666666667, "lat": 38.91995283333333, "name": "fdc72ac310ad209bec9db126e5c07043", "fusion_lat": 0.0, "fusion_lon": 0.0, "rental_uris": {"android": "https://dc.lft.to/lastmile_qr_scan", "ios": "https://dc.lft.to/lastmile_qr_scan"}, "is_reserved": 0, "is_disabled": 0, "type": "electric_scooter", "bike_id": "fdc72ac310ad209bec9db126e5c07043"}, {"lon": -77.020624, "lat": 38.90235166666667, "name": "5ae7951b929916d588695ef9f20f54c6", "fusion_lat": 0.0, "fusion_lon": 0.0, "rental_uris": {"android": "https://dc.lft.to/lastmile_qr_scan", "ios": "https://dc.lft.to/lastmile_qr_scan"}, "is_reserved": 0, "is_disabled": 0, "type": "electric_scooter", "bike_id": "5ae7951b929916d588695ef9f20f54c6"}, {"lon": -77.00216616666667, "lat": 38.900217166666664, "name": "75bce7c122399cf9f59683f29e50936e", "fusion_lat": 0.0, "fusion_lon": 0.0, "rental_uris": {"android": "https://dc.lft.to/lastmile_qr_scan", "ios": "https://dc.lft.to/lastmile_qr_scan"}, "is_reserved": 0, "is_disabled": 0, "type": "electric_scooter", "bike_id": "75bce7c122399cf9f59683f29e50936e"}, {"lon": -77.03520916666666, "lat": 38.935877166666664, "name": "c1c195b064a3672567f3677f38a19fa2", "fusion_lat": 0.0, "fusion_lon": 0.0, "rental_uris": {"android": "https://dc.lft.to/lastmile_qr_scan", "ios": "https://dc.lft.to/lastmile_qr_scan"}, "is_reserved": 0, "is_disabled": 0, "type": "electric_scooter", "bike_id": "c1c195b064a3672567f3677f38a19fa2"}, {"lon": -76.9936375, "lat": 38.90041566666667, "name": "690026d0919204bd7b1b31798882bb13", "fusion_lat": 0.0, "fusion_lon": 0.0, "rental_uris": {"android": "https://dc.lft.to/lastmile_qr_scan", "ios": "https://dc.lft.to/lastmile_qr_scan"}, "is_reserved": 0, "is_disabled": 0, "type": "electric_scooter", "bike_id": "690026d0919204bd7b1b31798882bb13"}, {"lon": -76.98007716666666, "lat": 38.85322083333333, "name": "f836c8d4e047d2afbed6a93136d6c491", "fusion_lat": 0.0, "fusion_lon": 0.0, "rental_uris": {"android": "https://dc.lft.to/lastmile_qr_scan", "ios": "https://dc.lft.to/lastmile_qr_scan"}, "is_reserved": 0, "is_disabled": 0, "type": "electric_scooter", "bike_id": "f836c8d4e047d2afbed6a93136d6c491"}, {"lon": -77.03246866666667, "lat": 38.92973716666667, "name": "defbaf4aec6e20a69233b5ac12022b9d", "fusion_lat": 0.0, "fusion_lon": 0.0, "rental_uris": {"android": "https://dc.lft.to/lastmile_qr_scan", "ios": "https://dc.lft.to/lastmile_qr_scan"}, "is_reserved": 0, "is_disabled": 0, "type": "electric_scooter", "bike_id": "defbaf4aec6e20a69233b5ac12022b9d"}, {"lon": -77.02397916666666, "lat": 38.957046, "name": "b7024aab2fbd35607755e20491e0b4ee", "fusion_lat": 0.0, "fusion_lon": 0.0, "rental_uris": {"android": "https://dc.lft.to/lastmile_qr_scan", "ios": "https://dc.lft.to/lastmile_qr_scan"}, "is_reserved": 0, "is_disabled": 0, "type": "electric_scooter", "bike_id": "b7024aab2fbd35607755e20491e0b4ee"}, {"lon": -76.99092266666666, "lat": 38.863596666666666, "name": "9bc951a9c9d2086d09ff86a11459e6cd", "fusion_lat": 0.0, "fusion_lon": 0.0, "rental_uris": {"android": "https://dc.lft.to/lastmile_qr_scan", "ios": "https://dc.lft.to/lastmile_qr_scan"}, "is_reserved": 0, "is_disabled": 0, "type": "electric_scooter", "bike_id": "9bc951a9c9d2086d09ff86a11459e6cd"}, {"lon": -77.00756516666667, "lat": 38.87122016666667, "name": "3d3bf7e3eab5bc222f571a5f4c31bda4", "fusion_lat": 0.0, "fusion_lon": 0.0, "rental_uris": {"android": "https://dc.lft.to/lastmile_qr_scan", "ios": "https://dc.lft.to/lastmile_qr_scan"}, "is_reserved": 0, "is_disabled": 0, "type": "electric_scooter", "bike_id": "3d3bf7e3eab5bc222f571a5f4c31bda4"}, {"lon": -77.353146, "lat": 38.94999116666666, "name": "e9a8a1ec711cb1830a76c67abd6553e6", "fusion_lat": 0.0, "fusion_lon": 0.0, "rental_uris": {"android": "https://dc.lft.to/lastmile_qr_scan", "ios": "https://dc.lft.to/lastmile_qr_scan"}, "is_reserved": 0, "is_disabled": 0, "type": "electric_bike", "bike_id": "e9a8a1ec711cb1830a76c67abd6553e6"}, {"lon": -77.027263, "lat": 38.9512985, "name": "6f470c45f33ed37fae4c9897b7ec908a", "fusion_lat": 0.0, "fusion_lon": 0.0, "rental_uris": {"android": "https://dc.lft.to/lastmile_qr_scan", "ios": "https://dc.lft.to/lastmile_qr_scan"}, "is_reserved": 0, "is_disabled": 0, "type": "electric_scooter", "bike_id": "6f470c45f33ed37fae4c9897b7ec908a"}, {"lon": -77.00923183333333, "lat": 38.896128166666664, "name": "9b6e68ffe777936dc3c5662893a18061", "fusion_lat": 0.0, "fusion_lon": 0.0, "rental_uris": {"android": "https://dc.lft.to/lastmile_qr_scan", "ios": "https://dc.lft.to/lastmile_qr_scan"}, "is_reserved": 0, "is_disabled": 0, "type": "electric_scooter", "bike_id": "9b6e68ffe777936dc3c5662893a18061"}, {"lon": -77.008248, "lat": 38.913735333333335, "name": "e8b310983dbb0f679d10f9d1d2d9187a", "fusion_lat": 0.0, "fusion_lon": 0.0, "rental_uris": {"android": "https://dc.lft.to/lastmile_qr_scan", "ios": "https://dc.lft.to/lastmile_qr_scan"}, "is_reserved": 0, "is_disabled": 0, "type": "electric_scooter", "bike_id": "e8b310983dbb0f679d10f9d1d2d9187a"}, {"lon": -77.03445333333333, "lat": 38.9028555, "name": "c4d6accabe3a200c3b5c61b0dacd6958", "fusion_lat": 0.0, "fusion_lon": 0.0, "rental_uris": {"android": "https://dc.lft.to/lastmile_qr_scan", "ios": "https://dc.lft.to/lastmile_qr_scan"}, "is_reserved": 0, "is_disabled": 0, "type": "electric_scooter", "bike_id": "c4d6accabe3a200c3b5c61b0dacd6958"}, {"lon": -77.01999066666667, "lat": 38.96022833333333, "name": "0d43c55d1b3e380bcd81eefb12a15d60", "fusion_lat": 0.0, "fusion_lon": 0.0, "rental_uris": {"android": "https://dc.lft.to/lastmile_qr_scan", "ios": "https://dc.lft.to/lastmile_qr_scan"}, "is_reserved": 0, "is_disabled": 0, "type": "electric_bike", "bike_id": "0d43c55d1b3e380bcd81eefb12a15d60"}, {"lon": -77.02634833333333, "lat": 38.915529666666664, "name": "7fed70b00f231783aa236b952a16302b", "fusion_lat": 0.0, "fusion_lon": 0.0, "rental_uris": {"android": "https://dc.lft.to/lastmile_qr_scan", "ios": "https://dc.lft.to/lastmile_qr_scan"}, "is_reserved": 0, "is_disabled": 0, "type": "electric_scooter", "bike_id": "7fed70b00f231783aa236b952a16302b"}, {"lon": -76.99027266666667, "lat": 38.864059, "name": "e32eef504e2e808ffbab87fb6f313dca", "fusion_lat": 0.0, "fusion_lon": 0.0, "rental_uris": {"android": "https://dc.lft.to/lastmile_qr_scan", "ios": "https://dc.lft.to/lastmile_qr_scan"}, "is_reserved": 0, "is_disabled": 0, "type": "electric_scooter", "bike_id": "e32eef504e2e808ffbab87fb6f313dca"}, {"lon": -77.079364, "lat": 38.9487265, "name": "afe10a5480aa8157481bbd8c7d43d44d", "fusion_lat": 0.0, "fusion_lon": 0.0, "rental_uris": {"android": "https://dc.lft.to/lastmile_qr_scan", "ios": "https://dc.lft.to/lastmile_qr_scan"}, "is_reserved": 0, "is_disabled": 0, "type": "electric_scooter", "bike_id": "afe10a5480aa8157481bbd8c7d43d44d"}, {"lon": -77.00346, "lat": 38.90358333333333, "name": "50fd68d06bede2dc5f2b738d644ab266", "fusion_lat": 0.0, "fusion_lon": 0.0, "rental_uris": {"android": "https://dc.lft.to/lastmile_qr_scan", "ios": "https://dc.lft.to/lastmile_qr_scan"}, "is_reserved": 0, "is_disabled": 0, "type": "electric_scooter", "bike_id": "50fd68d06bede2dc5f2b738d644ab266"}, {"lon": -76.929976, "lat": 38.88798633333333, "name": "06425af5c6f89cef009d4df8f3ac7a79", "fusion_lat": 0.0, "fusion_lon": 0.0, "rental_uris": {"android": "https://dc.lft.to/lastmile_qr_scan", "ios": "https://dc.lft.to/lastmile_qr_scan"}, "is_reserved": 0, "is_disabled": 0, "type": "electric_bike", "bike_id": "06425af5c6f89cef009d4df8f3ac7a79"}, {"lon": -77.01389333333333, "lat": 38.87597433333333, "name": "902191629de2328e752f35675b16b5e2", "fusion_lat": 0.0, "fusion_lon": 0.0, "rental_uris": {"android": "https://dc.lft.to/lastmile_qr_scan", "ios": "https://dc.lft.to/lastmile_qr_scan"}, "is_reserved": 0, "is_disabled": 0, "type": "electric_scooter", "bike_id": "902191629de2328e752f35675b16b5e2"}, {"lon": -77.06927516666667, "lat": 38.94288383333333, "name": "2653da25bb40e949c3e236e7766a4d22", "fusion_lat": 0.0, "fusion_lon": 0.0, "rental_uris": {"android": "https://dc.lft.to/lastmile_qr_scan", "ios": "https://dc.lft.to/lastmile_qr_scan"}, "is_reserved": 0, "is_disabled": 0, "type": "electric_bike", "bike_id": "2653da25bb40e949c3e236e7766a4d22"}, {"lon": -77.03966983333333, "lat": 38.9198265, "name": "d9787d2793712c6cd0cc35522f6c31ea", "fusion_lat": 0.0, "fusion_lon": 0.0, "rental_uris": {"android": "https://dc.lft.to/lastmile_qr_scan", "ios": "https://dc.lft.to/lastmile_qr_scan"}, "is_reserved": 0, "is_disabled": 0, "type": "electric_scooter", "bike_id": "d9787d2793712c6cd0cc35522f6c31ea"}, {"lon": -77.00277033333333, "lat": 38.911751, "name": "43deb090b8e8f3cdd658d5887bc68714", "fusion_lat": 0.0, "fusion_lon": 0.0, "rental_uris": {"android": "https://dc.lft.to/lastmile_qr_scan", "ios": "https://dc.lft.to/lastmile_qr_scan"}, "is_reserved": 0, "is_disabled": 0, "type": "electric_bike", "bike_id": "43deb090b8e8f3cdd658d5887bc68714"}, {"lon": -76.987775, "lat": 38.900275666666666, "name": "0e029d6cc8c81860d5a586b99d442d9d", "fusion_lat": 0.0, "fusion_lon": 0.0, "rental_uris": {"android": "https://dc.lft.to/lastmile_qr_scan", "ios": "https://dc.lft.to/lastmile_qr_scan"}, "is_reserved": 0, "is_disabled": 0, "type": "electric_scooter", "bike_id": "0e029d6cc8c81860d5a586b99d442d9d"}, {"lon": -77.04964416666667, "lat": 38.9125505, "name": "20cccb48c2f9689825e226699bc229c6", "fusion_lat": 0.0, "fusion_lon": 0.0, "rental_uris": {"android": "https://dc.lft.to/lastmile_qr_scan", "ios": "https://dc.lft.to/lastmile_qr_scan"}, "is_reserved": 0, "is_disabled": 0, "type": "electric_scooter", "bike_id": "20cccb48c2f9689825e226699bc229c6"}, {"lon": -76.97624266666666, "lat": 38.89578566666667, "name": "50d436bf291a09c3c0ee0390ca9d5588", "fusion_lat": 0.0, "fusion_lon": 0.0, "rental_uris": {"android": "https://dc.lft.to/lastmile_qr_scan", "ios": "https://dc.lft.to/lastmile_qr_scan"}, "is_reserved": 0, "is_disabled": 0, "type": "electric_bike", "bike_id": "50d436bf291a09c3c0ee0390ca9d5588"}, {"lon": -77.07899116666667, "lat": 38.919175833333334, "name": "ead38b8daf38bb402096f2fdbdb62dd0", "fusion_lat": 0.0, "fusion_lon": 0.0, "rental_uris": {"android": "https://dc.lft.to/lastmile_qr_scan", "ios": "https://dc.lft.to/lastmile_qr_scan"}, "is_reserved": 0, "is_disabled": 0, "type": "electric_scooter", "bike_id": "ead38b8daf38bb402096f2fdbdb62dd0"}, {"lon": -77.0054685, "lat": 38.905579833333334, "name": "11f0b6c8378b88c01d4cce2bd49eeb55", "fusion_lat": 0.0, "fusion_lon": 0.0, "rental_uris": {"android": "https://dc.lft.to/lastmile_qr_scan", "ios": "https://dc.lft.to/lastmile_qr_scan"}, "is_reserved": 0, "is_disabled": 0, "type": "electric_scooter", "bike_id": "11f0b6c8378b88c01d4cce2bd49eeb55"}, {"lon": -77.03704916666666, "lat": 38.92641733333333, "name": "c584936ec4093d1d9bbdc31df3acda51", "fusion_lat": 0.0, "fusion_lon": 0.0, "rental_uris": {"android": "https://dc.lft.to/lastmile_qr_scan", "ios": "https://dc.lft.to/lastmile_qr_scan"}, "is_reserved": 0, "is_disabled": 0, "type": "electric_scooter", "bike_id": "c584936ec4093d1d9bbdc31df3acda51"}, {"lon": -77.00796183333334, "lat": 38.91697683333334, "name": "821f47d9d81082a937a152f429140bf3", "fusion_lat": 0.0, "fusion_lon": 0.0, "rental_uris": {"android": "https://dc.lft.to/lastmile_qr_scan", "ios": "https://dc.lft.to/lastmile_qr_scan"}, "is_reserved": 0, "is_disabled": 0, "type": "electric_scooter", "bike_id": "821f47d9d81082a937a152f429140bf3"}, {"lon": -77.01059116666667, "lat": 38.872472, "name": "844f079fb6d4323019cb2ed28f43b524", "fusion_lat": 0.0, "fusion_lon": 0.0, "rental_uris": {"android": "https://dc.lft.to/lastmile_qr_scan", "ios": "https://dc.lft.to/lastmile_qr_scan"}, "is_reserved": 0, "is_disabled": 0, "type": "electric_scooter", "bike_id": "844f079fb6d4323019cb2ed28f43b524"}, {"lon": -77.02981183333333, "lat": 38.91680983333333, "name": "8baafcf86849425b9533ea65adcbf405", "fusion_lat": 0.0, "fusion_lon": 0.0, "rental_uris": {"android": "https://dc.lft.to/lastmile_qr_scan", "ios": "https://dc.lft.to/lastmile_qr_scan"}, "is_reserved": 0, "is_disabled": 0, "type": "electric_scooter", "bike_id": "8baafcf86849425b9533ea65adcbf405"}, {"lon": -77.01587233333333, "lat": 38.928445833333335, "name": "b1d403a7b1eb9ae4c5ed1b41679c86a7", "fusion_lat": 0.0, "fusion_lon": 0.0, "rental_uris": {"android": "https://dc.lft.to/lastmile_qr_scan", "ios": "https://dc.lft.to/lastmile_qr_scan"}, "is_reserved": 0, "is_disabled": 0, "type": "electric_scooter", "bike_id": "b1d403a7b1eb9ae4c5ed1b41679c86a7"}, {"lon": -77.00525483333334, "lat": 38.916954833333335, "name": "69a9c759b3367c7b3122b01526667a59", "fusion_lat": 0.0, "fusion_lon": 0.0, "rental_uris": {"android": "https://dc.lft.to/lastmile_qr_scan", "ios": "https://dc.lft.to/lastmile_qr_scan"}, "is_reserved": 0, "is_disabled": 0, "type": "electric_scooter", "bike_id": "69a9c759b3367c7b3122b01526667a59"}, {"lon": -77.02478783333333, "lat": 38.938835, "name": "a0cc99ecd0570750ff73cf76b27e174b", "fusion_lat": 0.0, "fusion_lon": 0.0, "rental_uris": {"android": "https://dc.lft.to/lastmile_qr_scan", "ios": "https://dc.lft.to/lastmile_qr_scan"}, "is_reserved": 0, "is_disabled": 0, "type": "electric_scooter", "bike_id": "a0cc99ecd0570750ff73cf76b27e174b"}, {"lon": -77.03435166666667, "lat": 38.9180545, "name": "276fe7c440b6c6208ae07036e1b3246b", "fusion_lat": 0.0, "fusion_lon": 0.0, "rental_uris": {"android": "https://dc.lft.to/lastmile_qr_scan", "ios": "https://dc.lft.to/lastmile_qr_scan"}, "is_reserved": 0, "is_disabled": 0, "type": "electric_scooter", "bike_id": "276fe7c440b6c6208ae07036e1b3246b"}, {"lon": -77.038516, "lat": 38.91719166666667, "name": "f0f177fd51b0343e4ef6feae28995bf3", "fusion_lat": 0.0, "fusion_lon": 0.0, "rental_uris": {"android": "https://dc.lft.to/lastmile_qr_scan", "ios": "https://dc.lft.to/lastmile_qr_scan"}, "is_reserved": 0, "is_disabled": 0, "type": "electric_scooter", "bike_id": "f0f177fd51b0343e4ef6feae28995bf3"}, {"lon": -77.0221055, "lat": 38.918733333333336, "name": "ae751772d9a09185d965c2a8f10f6c96", "fusion_lat": 0.0, "fusion_lon": 0.0, "rental_uris": {"android": "https://dc.lft.to/lastmile_qr_scan", "ios": "https://dc.lft.to/lastmile_qr_scan"}, "is_reserved": 0, "is_disabled": 0, "type": "electric_scooter", "bike_id": "ae751772d9a09185d965c2a8f10f6c96"}, {"lon": -77.02924783333333, "lat": 38.91025366666667, "name": "13eebe1e960564ee1a4a6d528a82e8e8", "fusion_lat": 0.0, "fusion_lon": 0.0, "rental_uris": {"android": "https://dc.lft.to/lastmile_qr_scan", "ios": "https://dc.lft.to/lastmile_qr_scan"}, "is_reserved": 0, "is_disabled": 0, "type": "electric_scooter", "bike_id": "13eebe1e960564ee1a4a6d528a82e8e8"}, {"lon": -77.0268605, "lat": 38.892199166666664, "name": "275a1993370a8cf0b4edee62315e79de", "fusion_lat": 0.0, "fusion_lon": 0.0, "rental_uris": {"android": "https://dc.lft.to/lastmile_qr_scan", "ios": "https://dc.lft.to/lastmile_qr_scan"}, "is_reserved": 0, "is_disabled": 0, "type": "electric_scooter", "bike_id": "275a1993370a8cf0b4edee62315e79de"}, {"lon": -76.938656, "lat": 38.90081266666667, "name": "020c7b49caf97d8774b0288fed879997", "fusion_lat": 0.0, "fusion_lon": 0.0, "rental_uris": {"android": "https://dc.lft.to/lastmile_qr_scan", "ios": "https://dc.lft.to/lastmile_qr_scan"}, "is_reserved": 0, "is_disabled": 0, "type": "electric_scooter", "bike_id": "020c7b49caf97d8774b0288fed879997"}, {"lon": -77.05234733333333, "lat": 38.92513783333333, "name": "e72f2bf474a43e684d1be330a9fe24c4", "fusion_lat": 0.0, "fusion_lon": 0.0, "rental_uris": {"android": "https://dc.lft.to/lastmile_qr_scan", "ios": "https://dc.lft.to/lastmile_qr_scan"}, "is_reserved": 0, "is_disabled": 0, "type": "electric_scooter", "bike_id": "e72f2bf474a43e684d1be330a9fe24c4"}, {"lon": -76.949064, "lat": 38.8951775, "name": "f20a806fcbc42f4f630e63fc55f50ddf", "fusion_lat": 0.0, "fusion_lon": 0.0, "rental_uris": {"android": "https://dc.lft.to/lastmile_qr_scan", "ios": "https://dc.lft.to/lastmile_qr_scan"}, "is_reserved": 0, "is_disabled": 0, "type": "electric_scooter", "bike_id": "f20a806fcbc42f4f630e63fc55f50ddf"}, {"lon": -77.039618, "lat": 38.919866666666664, "name": "d1aaf5a0a0a9f4f5425b104fdb042ff2", "fusion_lat": 0.0, "fusion_lon": 0.0, "rental_uris": {"android": "https://dc.lft.to/lastmile_qr_scan", "ios": "https://dc.lft.to/lastmile_qr_scan"}, "is_reserved": 0, "is_disabled": 0, "type": "electric_scooter", "bike_id": "d1aaf5a0a0a9f4f5425b104fdb042ff2"}, {"lon": -77.00587, "lat": 38.905627333333335, "name": "3be839da80854786acdc4bc19b5b933f", "fusion_lat": 0.0, "fusion_lon": 0.0, "rental_uris": {"android": "https://dc.lft.to/lastmile_qr_scan", "ios": "https://dc.lft.to/lastmile_qr_scan"}, "is_reserved": 0, "is_disabled": 0, "type": "electric_scooter", "bike_id": "3be839da80854786acdc4bc19b5b933f"}, {"lon": -77.04819283333333, "lat": 38.91332516666667, "name": "6f7ae402f4b4b1846782b798629bbe7c", "fusion_lat": 0.0, "fusion_lon": 0.0, "rental_uris": {"android": "https://dc.lft.to/lastmile_qr_scan", "ios": "https://dc.lft.to/lastmile_qr_scan"}, "is_reserved": 0, "is_disabled": 0, "type": "electric_scooter", "bike_id": "6f7ae402f4b4b1846782b798629bbe7c"}, {"lon": -77.04182116666667, "lat": 38.914043166666666, "name": "a44c0d06adc94a7b91fc21e281e11e71", "fusion_lat": 0.0, "fusion_lon": 0.0, "rental_uris": {"android": "https://dc.lft.to/lastmile_qr_scan", "ios": "https://dc.lft.to/lastmile_qr_scan"}, "is_reserved": 0, "is_disabled": 0, "type": "electric_scooter", "bike_id": "a44c0d06adc94a7b91fc21e281e11e71"}, {"lon": -77.05725183333334, "lat": 38.93369533333333, "name": "cd21b2088564d84baefdbd928a6ba4b5", "fusion_lat": 0.0, "fusion_lon": 0.0, "rental_uris": {"android": "https://dc.lft.to/lastmile_qr_scan", "ios": "https://dc.lft.to/lastmile_qr_scan"}, "is_reserved": 0, "is_disabled": 0, "type": "electric_scooter", "bike_id": "cd21b2088564d84baefdbd928a6ba4b5"}, {"lon": -76.90815333333333, "lat": 38.99453583333333, "name": "46bf4ee5e2f0f7d96c0c0f067286e810", "fusion_lat": 0.0, "fusion_lon": 0.0, "rental_uris": {"android": "https://dc.lft.to/lastmile_qr_scan", "ios": "https://dc.lft.to/lastmile_qr_scan"}, "is_reserved": 0, "is_disabled": 0, "type": "electric_bike", "bike_id": "46bf4ee5e2f0f7d96c0c0f067286e810"}, {"lon": -77.02133733333334, "lat": 38.9029885, "name": "79e3e3068e1a0b16521676d971c812c5", "fusion_lat": 0.0, "fusion_lon": 0.0, "rental_uris": {"android": "https://dc.lft.to/lastmile_qr_scan", "ios": "https://dc.lft.to/lastmile_qr_scan"}, "is_reserved": 0, "is_disabled": 0, "type": "electric_scooter", "bike_id": "79e3e3068e1a0b16521676d971c812c5"}, {"lon": -77.0237795, "lat": 38.9266, "name": "76ca66641f3a8235be6fc002a353f83c", "fusion_lat": 0.0, "fusion_lon": 0.0, "rental_uris": {"android": "https://dc.lft.to/lastmile_qr_scan", "ios": "https://dc.lft.to/lastmile_qr_scan"}, "is_reserved": 0, "is_disabled": 0, "type": "electric_bike", "bike_id": "76ca66641f3a8235be6fc002a353f83c"}, {"lon": -76.9159315, "lat": 38.880106833333336, "name": "fdbdc863093efa4af29a2c44f7b563fd", "fusion_lat": 0.0, "fusion_lon": 0.0, "rental_uris": {"android": "https://dc.lft.to/lastmile_qr_scan", "ios": "https://dc.lft.to/lastmile_qr_scan"}, "is_reserved": 0, "is_disabled": 0, "type": "electric_bike", "bike_id": "fdbdc863093efa4af29a2c44f7b563fd"}, {"lon": -77.065352, "lat": 38.934776, "name": "a5feba4131478e5288c3a526b0c927ff", "fusion_lat": 0.0, "fusion_lon": 0.0, "rental_uris": {"android": "https://dc.lft.to/lastmile_qr_scan", "ios": "https://dc.lft.to/lastmile_qr_scan"}, "is_reserved": 0, "is_disabled": 0, "type": "electric_scooter", "bike_id": "a5feba4131478e5288c3a526b0c927ff"}, {"lon": -77.03260283333333, "lat": 38.91402166666666, "name": "9e913c00287b60109b86e21c85fe2503", "fusion_lat": 0.0, "fusion_lon": 0.0, "rental_uris": {"android": "https://dc.lft.to/lastmile_qr_scan", "ios": "https://dc.lft.to/lastmile_qr_scan"}, "is_reserved": 0, "is_disabled": 0, "type": "electric_scooter", "bike_id": "9e913c00287b60109b86e21c85fe2503"}, {"lon": -77.0321425, "lat": 38.92964666666666, "name": "23f375c4898e5ac19bfdd3f1deb69562", "fusion_lat": 0.0, "fusion_lon": 0.0, "rental_uris": {"android": "https://dc.lft.to/lastmile_qr_scan", "ios": "https://dc.lft.to/lastmile_qr_scan"}, "is_reserved": 0, "is_disabled": 0, "type": "electric_scooter", "bike_id": "23f375c4898e5ac19bfdd3f1deb69562"}, {"lon": -77.03453633333334, "lat": 38.90718316666667, "name": "8c32bc5e057a25ae637aff8cda1ce99f", "fusion_lat": 0.0, "fusion_lon": 0.0, "rental_uris": {"android": "https://dc.lft.to/lastmile_qr_scan", "ios": "https://dc.lft.to/lastmile_qr_scan"}, "is_reserved": 0, "is_disabled": 0, "type": "electric_scooter", "bike_id": "8c32bc5e057a25ae637aff8cda1ce99f"}, {"lon": -76.987884, "lat": 38.845379, "name": "10978704453a4349905e3957471d8d00", "fusion_lat": 0.0, "fusion_lon": 0.0, "rental_uris": {"android": "https://dc.lft.to/lastmile_qr_scan", "ios": "https://dc.lft.to/lastmile_qr_scan"}, "is_reserved": 0, "is_disabled": 0, "type": "electric_bike", "bike_id": "10978704453a4349905e3957471d8d00"}, {"lon": -77.02183233333334, "lat": 38.8924835, "name": "0301870a20f2d396271ca40e635a8e9c", "fusion_lat": 0.0, "fusion_lon": 0.0, "rental_uris": {"android": "https://dc.lft.to/lastmile_qr_scan", "ios": "https://dc.lft.to/lastmile_qr_scan"}, "is_reserved": 0, "is_disabled": 0, "type": "electric_scooter", "bike_id": "0301870a20f2d396271ca40e635a8e9c"}, {"lon": -77.0092155, "lat": 38.91017633333333, "name": "ba18d8c1de728ec61e9e25f8bfffa2e9", "fusion_lat": 0.0, "fusion_lon": 0.0, "rental_uris": {"android": "https://dc.lft.to/lastmile_qr_scan", "ios": "https://dc.lft.to/lastmile_qr_scan"}, "is_reserved": 0, "is_disabled": 0, "type": "electric_scooter", "bike_id": "ba18d8c1de728ec61e9e25f8bfffa2e9"}, {"lon": -76.99161533333333, "lat": 38.879168, "name": "6ad1e1f7dd0230bd98cbe9e42a1c207d", "fusion_lat": 0.0, "fusion_lon": 0.0, "rental_uris": {"android": "https://dc.lft.to/lastmile_qr_scan", "ios": "https://dc.lft.to/lastmile_qr_scan"}, "is_reserved": 0, "is_disabled": 0, "type": "electric_scooter", "bike_id": "6ad1e1f7dd0230bd98cbe9e42a1c207d"}, {"lon": -76.97350916666667, "lat": 38.8650725, "name": "f1115cd2b52563aae7f6f3965cc12431", "fusion_lat": 0.0, "fusion_lon": 0.0, "rental_uris": {"android": "https://dc.lft.to/lastmile_qr_scan", "ios": "https://dc.lft.to/lastmile_qr_scan"}, "is_reserved": 0, "is_disabled": 0, "type": "electric_scooter", "bike_id": "f1115cd2b52563aae7f6f3965cc12431"}, {"lon": -76.92408766666667, "lat": 38.889876, "name": "5d39b951729eeacfae5e97d892702d4e", "fusion_lat": 0.0, "fusion_lon": 0.0, "rental_uris": {"android": "https://dc.lft.to/lastmile_qr_scan", "ios": "https://dc.lft.to/lastmile_qr_scan"}, "is_reserved": 0, "is_disabled": 0, "type": "electric_scooter", "bike_id": "5d39b951729eeacfae5e97d892702d4e"}, {"lon": -77.04510583333334, "lat": 38.9078075, "name": "5dfdc6531e71a3fc885b088c0d896dfb", "fusion_lat": 0.0, "fusion_lon": 0.0, "rental_uris": {"android": "https://dc.lft.to/lastmile_qr_scan", "ios": "https://dc.lft.to/lastmile_qr_scan"}, "is_reserved": 0, "is_disabled": 0, "type": "electric_scooter", "bike_id": "5dfdc6531e71a3fc885b088c0d896dfb"}, {"lon": -77.06281216666666, "lat": 38.90683416666667, "name": "9bd99fbad549bd193f75230d378772fa", "fusion_lat": 0.0, "fusion_lon": 0.0, "rental_uris": {"android": "https://dc.lft.to/lastmile_qr_scan", "ios": "https://dc.lft.to/lastmile_qr_scan"}, "is_reserved": 0, "is_disabled": 0, "type": "electric_scooter", "bike_id": "9bd99fbad549bd193f75230d378772fa"}, {"lon": -77.02973583333333, "lat": 38.893248666666665, "name": "e29e9ff4b6dca95a606e277f9538ec24", "fusion_lat": 0.0, "fusion_lon": 0.0, "rental_uris": {"android": "https://dc.lft.to/lastmile_qr_scan", "ios": "https://dc.lft.to/lastmile_qr_scan"}, "is_reserved": 0, "is_disabled": 0, "type": "electric_scooter", "bike_id": "e29e9ff4b6dca95a606e277f9538ec24"}, {"lon": -77.02206266666667, "lat": 38.91012383333333, "name": "6be683ec38515e5a1643057f7474de43", "fusion_lat": 0.0, "fusion_lon": 0.0, "rental_uris": {"android": "https://dc.lft.to/lastmile_qr_scan", "ios": "https://dc.lft.to/lastmile_qr_scan"}, "is_reserved": 0, "is_disabled": 0, "type": "electric_scooter", "bike_id": "6be683ec38515e5a1643057f7474de43"}, {"lon": -77.03480433333333, "lat": 38.90274616666667, "name": "a8e5d23a830c7342e66cb55f095b1b16", "fusion_lat": 0.0, "fusion_lon": 0.0, "rental_uris": {"android": "https://dc.lft.to/lastmile_qr_scan", "ios": "https://dc.lft.to/lastmile_qr_scan"}, "is_reserved": 0, "is_disabled": 0, "type": "electric_scooter", "bike_id": "a8e5d23a830c7342e66cb55f095b1b16"}, {"lon": -76.973267, "lat": 38.904807, "name": "982d3b234d78a92e96f9169a92299646", "fusion_lat": 0.0, "fusion_lon": 0.0, "rental_uris": {"android": "https://dc.lft.to/lastmile_qr_scan", "ios": "https://dc.lft.to/lastmile_qr_scan"}, "is_reserved": 0, "is_disabled": 0, "type": "electric_scooter", "bike_id": "982d3b234d78a92e96f9169a92299646"}, {"lon": -77.0109425, "lat": 38.963097833333336, "name": "f7e4b63ee28dac89417b0d6119391392", "fusion_lat": 0.0, "fusion_lon": 0.0, "rental_uris": {"android": "https://dc.lft.to/lastmile_qr_scan", "ios": "https://dc.lft.to/lastmile_qr_scan"}, "is_reserved": 0, "is_disabled": 0, "type": "electric_bike", "bike_id": "f7e4b63ee28dac89417b0d6119391392"}, {"lon": -77.02432483333334, "lat": 38.925964666666665, "name": "f8ae80f73e2d5d9035ceee633e4ae665", "fusion_lat": 0.0, "fusion_lon": 0.0, "rental_uris": {"android": "https://dc.lft.to/lastmile_qr_scan", "ios": "https://dc.lft.to/lastmile_qr_scan"}, "is_reserved": 0, "is_disabled": 0, "type": "electric_bike", "bike_id": "f8ae80f73e2d5d9035ceee633e4ae665"}, {"lon": -77.03848283333333, "lat": 38.91544716666667, "name": "ac516568f7f9b5b4bbb22054e1b8074d", "fusion_lat": 0.0, "fusion_lon": 0.0, "rental_uris": {"android": "https://dc.lft.to/lastmile_qr_scan", "ios": "https://dc.lft.to/lastmile_qr_scan"}, "is_reserved": 0, "is_disabled": 0, "type": "electric_scooter", "bike_id": "ac516568f7f9b5b4bbb22054e1b8074d"}, {"lon": -77.001368, "lat": 38.90406266666667, "name": "dd5a0ad95b075ac3222f4c59acd69057", "fusion_lat": 0.0, "fusion_lon": 0.0, "rental_uris": {"android": "https://dc.lft.to/lastmile_qr_scan", "ios": "https://dc.lft.to/lastmile_qr_scan"}, "is_reserved": 0, "is_disabled": 0, "type": "electric_scooter", "bike_id": "dd5a0ad95b075ac3222f4c59acd69057"}, {"lon": -77.1089965, "lat": 38.830437, "name": "8a08752ea14946a7bf5375b30fc7cb88", "fusion_lat": 0.0, "fusion_lon": 0.0, "rental_uris": {"android": "https://dc.lft.to/lastmile_qr_scan", "ios": "https://dc.lft.to/lastmile_qr_scan"}, "is_reserved": 0, "is_disabled": 0, "type": "electric_bike", "bike_id": "8a08752ea14946a7bf5375b30fc7cb88"}, {"lon": -77.022138, "lat": 38.905735166666666, "name": "dff47300a1d856a0ec25f8517fefcf62", "fusion_lat": 0.0, "fusion_lon": 0.0, "rental_uris": {"android": "https://dc.lft.to/lastmile_qr_scan", "ios": "https://dc.lft.to/lastmile_qr_scan"}, "is_reserved": 0, "is_disabled": 0, "type": "electric_scooter", "bike_id": "dff47300a1d856a0ec25f8517fefcf62"}, {"lon": -77.02960783333333, "lat": 38.90654766666667, "name": "8eae6dbf0c2919175cd18a0f6e012d23", "fusion_lat": 0.0, "fusion_lon": 0.0, "rental_uris": {"android": "https://dc.lft.to/lastmile_qr_scan", "ios": "https://dc.lft.to/lastmile_qr_scan"}, "is_reserved": 0, "is_disabled": 0, "type": "electric_scooter", "bike_id": "8eae6dbf0c2919175cd18a0f6e012d23"}, {"lon": -76.95031416666667, "lat": 38.891859833333335, "name": "9a3eb107edb83a94a18cbdf59227dce4", "fusion_lat": 0.0, "fusion_lon": 0.0, "rental_uris": {"android": "https://dc.lft.to/lastmile_qr_scan", "ios": "https://dc.lft.to/lastmile_qr_scan"}, "is_reserved": 0, "is_disabled": 0, "type": "electric_bike", "bike_id": "9a3eb107edb83a94a18cbdf59227dce4"}, {"lon": -77.0366495, "lat": 38.921213, "name": "b75bafa9482f617681a32f7e286f4bf2", "fusion_lat": 0.0, "fusion_lon": 0.0, "rental_uris": {"android": "https://dc.lft.to/lastmile_qr_scan", "ios": "https://dc.lft.to/lastmile_qr_scan"}, "is_reserved": 0, "is_disabled": 0, "type": "electric_scooter", "bike_id": "b75bafa9482f617681a32f7e286f4bf2"}, {"lon": -77.0464395, "lat": 38.922275, "name": "c920433029bdb503cc0d2a69898f4aa0", "fusion_lat": 0.0, "fusion_lon": 0.0, "rental_uris": {"android": "https://dc.lft.to/lastmile_qr_scan", "ios": "https://dc.lft.to/lastmile_qr_scan"}, "is_reserved": 0, "is_disabled": 0, "type": "electric_scooter", "bike_id": "c920433029bdb503cc0d2a69898f4aa0"}, {"lon": -77.0160415, "lat": 38.887463333333336, "name": "01f36ff5e3b08321ede4ebf5dbb37e48", "fusion_lat": 0.0, "fusion_lon": 0.0, "rental_uris": {"android": "https://dc.lft.to/lastmile_qr_scan", "ios": "https://dc.lft.to/lastmile_qr_scan"}, "is_reserved": 0, "is_disabled": 0, "type": "electric_scooter", "bike_id": "01f36ff5e3b08321ede4ebf5dbb37e48"}, {"lon": -77.02234333333334, "lat": 38.91267283333333, "name": "d0973eb3c48e50463892d2054db79278", "fusion_lat": 0.0, "fusion_lon": 0.0, "rental_uris": {"android": "https://dc.lft.to/lastmile_qr_scan", "ios": "https://dc.lft.to/lastmile_qr_scan"}, "is_reserved": 0, "is_disabled": 0, "type": "electric_scooter", "bike_id": "d0973eb3c48e50463892d2054db79278"}, {"lon": -77.0782995, "lat": 38.9266775, "name": "b0b807cde6f28725b1ad3fd294307044", "fusion_lat": 0.0, "fusion_lon": 0.0, "rental_uris": {"android": "https://dc.lft.to/lastmile_qr_scan", "ios": "https://dc.lft.to/lastmile_qr_scan"}, "is_reserved": 0, "is_disabled": 0, "type": "electric_scooter", "bike_id": "b0b807cde6f28725b1ad3fd294307044"}, {"lon": -77.02214133333334, "lat": 38.886118, "name": "df8d1f49554e42788571095f411e7938", "fusion_lat": 0.0, "fusion_lon": 0.0, "rental_uris": {"android": "https://dc.lft.to/lastmile_qr_scan", "ios": "https://dc.lft.to/lastmile_qr_scan"}, "is_reserved": 0, "is_disabled": 0, "type": "electric_scooter", "bike_id": "df8d1f49554e42788571095f411e7938"}, {"lon": -76.9870235, "lat": 38.9001205, "name": "d59f6a78ec2f115ba7760031d6f98e16", "fusion_lat": 0.0, "fusion_lon": 0.0, "rental_uris": {"android": "https://dc.lft.to/lastmile_qr_scan", "ios": "https://dc.lft.to/lastmile_qr_scan"}, "is_reserved": 0, "is_disabled": 0, "type": "electric_scooter", "bike_id": "d59f6a78ec2f115ba7760031d6f98e16"}, {"lon": -77.0265375, "lat": 38.938620666666665, "name": "db56f46871bb55662183e3c543c73435", "fusion_lat": 0.0, "fusion_lon": 0.0, "rental_uris": {"android": "https://dc.lft.to/lastmile_qr_scan", "ios": "https://dc.lft.to/lastmile_qr_scan"}, "is_reserved": 0, "is_disabled": 0, "type": "electric_scooter", "bike_id": "db56f46871bb55662183e3c543c73435"},