{"data": {"bikes": [{"is_disabled": 0, "fusion_lon": 0.0, "fusion_lat": 0.0, "lat": 38.93492233333333, "type": "electric_scooter", "lon": -77.02709633333333, "bike_id": "b6b47e35dcd9d88cbdbbba3f6335ac66", "rental_uris": {"android": "https://dc.lft.to/lastmile_qr_scan", "ios": "https://dc.lft.to/lastmile_qr_scan"}, "name": "b6b47e35dcd9d88cbdbbba3f6335ac66", "is_reserved": 0}, {"is_disabled": 0, "fusion_lon": 0.0, "fusion_lat": 0.0, "lat": 38.90061266666667, "type": "electric_scooter", "lon": -77.0488185, "bike_id": "e9b97be54605b18039d13b4c4e656be4", "rental_uris": {"android": "https://dc.lft.to/lastmile_qr_scan", "ios": "https://dc.lft.to/lastmile_qr_scan"}, "name": "e9b97be54605b18039d13b4c4e656be4", "is_reserved": 0}, {"is_disabled": 0, "fusion_lon": 0.0, "fusion_lat": 0.0, "lat": 38.928008, "type": "electric_scooter", "lon": -77.05422666666666, "bike_id": "0c85e2ac3374ea245ecee31c6b904273", "rental_uris": {"android": "https://dc.lft.to/lastmile_qr_scan", "ios": "https://dc.lft.to/lastmile_qr_scan"}, "name": "0c85e2ac3374ea245ecee31c6b904273", "is_reserved": 0}, {"is_disabled": 0, "fusion_lon": 0.0, "fusion_lat": 0.0, "lat": 38.885824166666666, "type": "electric_scooter", "lon": -77.012244, "bike_id": "3b8ce48dec115164e22561c80f5ce1cb", "rental_uris": {"android": "https://dc.lft.to/lastmile_qr_scan", "ios": "https://dc.lft.to/lastmile_qr_scan"}, "name": "3b8ce48dec115164e22561c80f5ce1cb", "is_reserved": 0}, {"is_disabled": 0, "fusion_lon": 0.0, "fusion_lat": 0.0, "lat": 38.915942, "type": "electric_scooter", "lon": -77.02346983333334, "bike_id": "2dfe9ba347cac2319830922f2815e781", "rental_uris": {"android": "https://dc.lft.to/lastmile_qr_scan", "ios": "https://dc.lft.to/lastmile_qr_scan"}, "name": "2dfe9ba347cac2319830922f2815e781", "is_reserved": 0}, {"is_disabled": 0, "fusion_lon": 0.0, "fusion_lat": 0.0, "lat": 38.93245366666667, "type": "electric_scooter", "lon": -77.02972683333333, "bike_id": "3f816f87e2c46bb0f2f7ade159963b52", "rental_uris": {"android": "https://dc.lft.to/lastmile_qr_scan", "ios": "https://dc.lft.to/lastmile_qr_scan"}, "name": "3f816f87e2c46bb0f2f7ade159963b52", "is_reserved": 0}, {"is_disabled": 0, "fusion_lon": 0.0, "fusion_lat": 0.0, "lat": 38.89528466666667, "type": "electric_scooter", "lon": -76.94895316666667, "bike_id": "2e49fd41afe3866ba4707fe1c4267461", "rental_uris": {"android": "https://dc.lft.to/lastmile_qr_scan", "ios": "https://dc.lft.to/lastmile_qr_scan"}, "name": "2e49fd41afe3866ba4707fe1c4267461", "is_reserved": 0}, {"is_disabled": 0, "fusion_lon": 0.0, "fusion_lat": 0.0, "lat": 38.92050583333334, "type": "electric_scooter", "lon": -76.9988865, "bike_id": "c6e8cd6004855e60c2d396adc728946c", "rental_uris": {"android": "https://dc.lft.to/lastmile_qr_scan", "ios": "https://dc.lft.to/lastmile_qr_scan"}, "name": "c6e8cd6004855e60c2d396adc728946c", "is_reserved": 0}, {"is_disabled": 0, "fusion_lon": 0.0, "fusion_lat": 0.0, "lat": 38.91560916666667, "type": "electric_scooter", "lon": -77.04109216666667, "bike_id": "17445143e781c333a0ae49efe5b49e66", "rental_uris": {"android": "https://dc.lft.to/lastmile_qr_scan", "ios": "https://dc.lft.to/lastmile_qr_scan"}, "name": "17445143e781c333a0ae49efe5b49e66", "is_reserved": 0}, {"is_disabled": 0, "fusion_lon": 0.0, "fusion_lat": 0.0, "lat": 38.91579633333333, "type": "electric_scooter", "lon": -77.020043, "bike_id": "bc02fd07d25d445d1048bb546bd4464a", "rental_uris": {"android": "https://dc.lft.to/lastmile_qr_scan", "ios": "https://dc.lft.to/lastmile_qr_scan"}, "name": "bc02fd07d25d445d1048bb546bd4464a", "is_reserved": 0}, {"is_disabled": 0, "fusion_lon": 0.0, "fusion_lat": 0.0, "lat": 38.90332433333333, "type": "electric_bike", "lon": -76.97532333333334, "bike_id": "b552580bf66be0c3e0b7d891007ce845", "rental_uris": {"android": "https://dc.lft.to/lastmile_qr_scan", "ios": "https://dc.lft.to/lastmile_qr_scan"}, "name": "b552580bf66be0c3e0b7d891007ce845", "is_reserved": 0}, {"is_disabled": 0, "fusion_lon": 0.0, "fusion_lat": 0.0, "lat": 38.901868, "type": "electric_scooter", "lon": -77.04788833333333, "bike_id": "ffd4842b2e33049a09713f92e64d1fab", "rental_uris": {"android": "https://dc.lft.to/lastmile_qr_scan", "ios": "https://dc.lft.to/lastmile_qr_scan"}, "name": "ffd4842b2e33049a09713f92e64d1fab", "is_reserved": 0}, {"is_disabled": 0, "fusion_lon": 0.0, "fusion_lat": 0.0, "lat": 38.9002865, "type": "electric_scooter", "lon": -77.002061, "bike_id": "8f771742a3e7a62e726de2a61e9ff972", "rental_uris": {"android": "https://dc.lft.to/lastmile_qr_scan", "ios": "https://dc.lft.to/lastmile_qr_scan"}, "name": "8f771742a3e7a62e726de2a61e9ff972", "is_reserved": 0}, {"is_disabled": 0, "fusion_lon": 0.0, "fusion_lat": 0.0, "lat": 38.956498, "type": "electric_scooter", "lon": -77.01495283333334, "bike_id": "c7d487f90371ea7d2db2b20a6741450e", "rental_uris": {"android": "https://dc.lft.to/lastmile_qr_scan", "ios": "https://dc.lft.to/lastmile_qr_scan"}, "name": "c7d487f90371ea7d2db2b20a6741450e", "is_reserved": 0}, {"is_disabled": 0, "fusion_lon": 0.0, "fusion_lat": 0.0, "lat": 38.8949285, "type": "electric_scooter", "lon": -77.002139, "bike_id": "5078512999a88a79409af4e90e39cbfd", "rental_uris": {"android": "https://dc.lft.to/lastmile_qr_scan", "ios": "https://dc.lft.to/lastmile_qr_scan"}, "name": "5078512999a88a79409af4e90e39cbfd", "is_reserved": 0}, {"is_disabled": 0, "fusion_lon": 0.0, "fusion_lat": 0.0, "lat": 38.9180295, "type": "electric_scooter", "lon": -77.02688566666667, "bike_id": "e08f345bc36069dace0c3f94df805d73", "rental_uris": {"android": "https://dc.lft.to/lastmile_qr_scan", "ios": "https://dc.lft.to/lastmile_qr_scan"}, "name": "e08f345bc36069dace0c3f94df805d73", "is_reserved": 0}, {"is_disabled": 0, "fusion_lon": 0.0, "fusion_lat": 0.0, "lat": 38.9134465, "type": "electric_scooter", "lon": -77.03207633333334, "bike_id": "22d3f7e3ac5839e7492cb54728182396", "rental_uris": {"android": "https://dc.lft.to/lastmile_qr_scan", "ios": "https://dc.lft.to/lastmile_qr_scan"}, "name": "22d3f7e3ac5839e7492cb54728182396", "is_reserved": 0}, {"is_disabled": 0, "fusion_lon": 0.0, "fusion_lat": 0.0, "lat": 38.9215435, "type": "electric_scooter", "lon": -77.03384233333334, "bike_id": "d38c5e8e0dc9491470068947b328b66e", "rental_uris": {"android": "https://dc.lft.to/lastmile_qr_scan", "ios": "https://dc.lft.to/lastmile_qr_scan"}, "name": "d38c5e8e0dc9491470068947b328b66e", "is_reserved": 0}, {"is_disabled": 0, "fusion_lon": 0.0, "fusion_lat": 0.0, "lat": 38.89768883333333, "type": "electric_scooter", "lon": -77.0249175, "bike_id": "e43a6e8862222c04b41d8f34fd9b2f04", "rental_uris": {"android": "https://dc.lft.to/lastmile_qr_scan", "ios": "https://dc.lft.to/lastmile_qr_scan"}, "name": "e43a6e8862222c04b41d8f34fd9b2f04", "is_reserved": 0}, {"is_disabled": 0, "fusion_lon": 0.0, "fusion_lat": 0.0, "lat": 38.91811333333333, "type": "electric_scooter", "lon": -77.040016, "bike_id": "e089d4c7e637f1a7353129e635e082e5", "rental_uris": {"android": "https://dc.lft.to/lastmile_qr_scan", "ios": "https://dc.lft.to/lastmile_qr_scan"}, "name": "e089d4c7e637f1a7353129e635e082e5", "is_reserved": 0}, {"is_disabled": 0, "fusion_lon": 0.0, "fusion_lat": 0.0, "lat": 38.94178983333333, "type": "electric_scooter", "lon": -77.036554, "bike_id": "46ba743b5b653c0ea2875b0b96effc53", "rental_uris": {"android": "https://dc.lft.to/lastmile_qr_scan", "ios": "https://dc.lft.to/lastmile_qr_scan"}, "name": "46ba743b5b653c0ea2875b0b96effc53", "is_reserved": 0}, {"is_disabled": 0, "fusion_lon": 0.0, "fusion_lat": 0.0, "lat": 38.91810616666667, "type": "electric_scooter", "lon": -77.0271625, "bike_id": "803237dabb4622a8a6f7d220b9fa539a", "rental_uris": {"android": "https://dc.lft.to/lastmile_qr_scan", "ios": "https://dc.lft.to/lastmile_qr_scan"}, "name": "803237dabb4622a8a6f7d220b9fa539a", "is_reserved": 0}, {"is_disabled": 0, "fusion_lon": 0.0, "fusion_lat": 0.0, "lat": 38.932774, "type": "electric_scooter", "lon": -77.036381, "bike_id": "5c72b37059aeaacdd8b6bf2913e523ae", "rental_uris": {"android": "https://dc.lft.to/lastmile_qr_scan", "ios": "https://dc.lft.to/lastmile_qr_scan"}, "name": "5c72b37059aeaacdd8b6bf2913e523ae", "is_reserved": 0}, {"is_disabled": 0, "fusion_lon": 0.0, "fusion_lat": 0.0, "lat": 38.907655166666665, "type": "electric_scooter", "lon": -77.03861133333334, "bike_id": "23013d6c4f724ec705eb1e3ebfc0c016", "rental_uris": {"android": "https://dc.lft.to/lastmile_qr_scan", "ios": "https://dc.lft.to/lastmile_qr_scan"}, "name": "23013d6c4f724ec705eb1e3ebfc0c016", "is_reserved": 0}, {"is_disabled": 0, "fusion_lon": 0.0, "fusion_lat": 0.0, "lat": 38.9101925, "type": "electric_scooter", "lon": -77.0364295, "bike_id": "c0d13d514e69e848a1beb999a4aca172", "rental_uris": {"android": "https://dc.lft.to/lastmile_qr_scan", "ios": "https://dc.lft.to/lastmile_qr_scan"}, "name": "c0d13d514e69e848a1beb999a4aca172", "is_reserved": 0}, {"is_disabled": 0, "fusion_lon": 0.0, "fusion_lat": 0.0, "lat": 38.88377066666666, "type": "electric_scooter", "lon": -76.9237775, "bike_id": "fa94994ac33a3a333cbcc8c5e9a1ad59", "rental_uris": {"android": "https://dc.lft.to/lastmile_qr_scan", "ios": "https://dc.lft.to/lastmile_qr_scan"}, "name": "fa94994ac33a3a333cbcc8c5e9a1ad59", "is_reserved": 0}, {"is_disabled": 0, "fusion_lon": 0.0, "fusion_lat": 0.0, "lat": 38.92406966666667, "type": "electric_scooter", "lon": -76.99731283333334, "bike_id": "a12f35d0414b5e8ec9f4cacaa8ac0c1e", "rental_uris": {"android": "https://dc.lft.to/lastmile_qr_scan", "ios": "https://dc.lft.to/lastmile_qr_scan"}, "name": "a12f35d0414b5e8ec9f4cacaa8ac0c1e", "is_reserved": 0}, {"is_disabled": 0, "fusion_lon": 0.0, "fusion_lat": 0.0, "lat": 38.9028945, "type": "electric_scooter", "lon": -77.03673183333333, "bike_id": "e4f9c25693dea2b1c1c54de67ecad391", "rental_uris": {"android": "https://dc.lft.to/lastmile_qr_scan", "ios": "https://dc.lft.to/lastmile_qr_scan"}, "name": "e4f9c25693dea2b1c1c54de67ecad391", "is_reserved": 0}, {"is_disabled": 0, "fusion_lon": 0.0, "fusion_lat": 0.0, "lat": 38.90681683333333, "type": "electric_scooter", "lon": -77.03109166666667, "bike_id": "61ba3fd01429a8d8792d39ffa4af0791", "rental_uris": {"android": "https://dc.lft.to/lastmile_qr_scan", "ios": "https://dc.lft.to/lastmile_qr_scan"}, "name": "61ba3fd01429a8d8792d39ffa4af0791", "is_reserved": 0}, {"is_disabled": 0, "fusion_lon": 0.0, "fusion_lat": 0.0, "lat": 38.902079, "type": "electric_scooter", "lon": -76.9818765, "bike_id": "b15e48b87cc83cc8dff7eec26dede51a", "rental_uris": {"android": "https://dc.lft.to/lastmile_qr_scan", "ios": "https://dc.lft.to/lastmile_qr_scan"}, "name": "b15e48b87cc83cc8dff7eec26dede51a", "is_reserved": 0}, {"is_disabled": 0, "fusion_lon": 0.0, "fusion_lat": 0.0, "lat": 38.92666083333334, "type": "electric_bike", "lon": -77.00814966666667, "bike_id": "3a42d35944bc1cb5759c0a74ead3d01a", "rental_uris": {"android": "https://dc.lft.to/lastmile_qr_scan", "ios": "https://dc.lft.to/lastmile_qr_scan"}, "name": "3a42d35944bc1cb5759c0a74ead3d01a", "is_reserved": 0}, {"is_disabled": 0, "fusion_lon": 0.0, "fusion_lat": 0.0, "lat": 38.90596516666667, "type": "electric_scooter", "lon": -77.06371766666666, "bike_id": "2dcfe03605c6175c92fb6d34474f1026", "rental_uris": {"android": "https://dc.lft.to/lastmile_qr_scan", "ios": "https://dc.lft.to/lastmile_qr_scan"}, "name": "2dcfe03605c6175c92fb6d34474f1026", "is_reserved": 0}, {"is_disabled": 0, "fusion_lon": 0.0, "fusion_lat": 0.0, "lat": 38.918119, "type": "electric_scooter", "lon": -77.0343805, "bike_id": "7c1d2be48385bea6077995d87bd0c753", "rental_uris": {"android": "https://dc.lft.to/lastmile_qr_scan", "ios": "https://dc.lft.to/lastmile_qr_scan"}, "name": "7c1d2be48385bea6077995d87bd0c753", "is_reserved": 0}, {"is_disabled": 0, "fusion_lon": 0.0, "fusion_lat": 0.0, "lat": 38.900568666666665, "type": "electric_scooter", "lon": -77.048789, "bike_id": "924221cf437a178882f862934d87a909", "rental_uris": {"android": "https://dc.lft.to/lastmile_qr_scan", "ios": "https://dc.lft.to/lastmile_qr_scan"}, "name": "924221cf437a178882f862934d87a909", "is_reserved": 0}, {"is_disabled": 0, "fusion_lon": 0.0, "fusion_lat": 0.0, "lat": 38.89845233333333, "type": "electric_scooter", "lon": -77.03121633333333, "bike_id": "1f161cef38321bc627dfee6988c1bc30", "rental_uris": {"android": "https://dc.lft.to/lastmile_qr_scan", "ios": "https://dc.lft.to/lastmile_qr_scan"}, "name": "1f161cef38321bc627dfee6988c1bc30", "is_reserved": 0}, {"is_disabled": 0, "fusion_lon": 0.0, "fusion_lat": 0.0, "lat": 38.945214666666665, "type": "electric_scooter", "lon": -77.02981333333334, "bike_id": "3ca34288306f37a50beeed3f88af314a", "rental_uris": {"android": "https://dc.lft.to/lastmile_qr_scan", "ios": "https://dc.lft.to/lastmile_qr_scan"}, "name": "3ca34288306f37a50beeed3f88af314a", "is_reserved": 0}, {"is_disabled": 0, "fusion_lon": 0.0, "fusion_lat": 0.0, "lat": 38.914061333333336, "type": "electric_scooter", "lon": -77.0375305, "bike_id": "692c6b4332219f979736932f896a8a38", "rental_uris": {"android": "https://dc.lft.to/lastmile_qr_scan", "ios": "https://dc.lft.to/lastmile_qr_scan"}, "name": "692c6b4332219f979736932f896a8a38", "is_reserved": 0}, {"is_disabled": 0, "fusion_lon": 0.0, "fusion_lat": 0.0, "lat": 38.896882166666664, "type": "electric_scooter", "lon": -77.004917, "bike_id": "5807c8cf577fb46ac1586e371f546ec2", "rental_uris": {"android": "https://dc.lft.to/lastmile_qr_scan", "ios": "https://dc.lft.to/lastmile_qr_scan"}, "name": "5807c8cf577fb46ac1586e371f546ec2", "is_reserved": 0}, {"is_disabled": 0, "fusion_lon": 0.0, "fusion_lat": 0.0, "lat": 38.91220333333333, "type": "electric_scooter", "lon": -77.03838216666666, "bike_id": "8446da065c931bdea4c0be5590ab8213", "rental_uris": {"android": "https://dc.lft.to/lastmile_qr_scan", "ios": "https://dc.lft.to/lastmile_qr_scan"}, "name": "8446da065c931bdea4c0be5590ab8213", "is_reserved": 0}, {"is_disabled": 0, "fusion_lon": 0.0, "fusion_lat": 0.0, "lat": 38.928127833333335, "type": "electric_scooter", "lon": -77.02348733333334, "bike_id": "58100510cebf90f245f59579a9e55579", "rental_uris": {"android": "https://dc.lft.to/lastmile_qr_scan", "ios": "https://dc.lft.to/lastmile_qr_scan"}, "name": "58100510cebf90f245f59579a9e55579", "is_reserved": 0}, {"is_disabled": 0, "fusion_lon": 0.0, "fusion_lat": 0.0, "lat": 38.929660166666665, "type": "electric_scooter", "lon": -77.00533116666666, "bike_id": "1ae2ef2fbe5cd74aa9d149790def372b", "rental_uris": {"android": "https://dc.lft.to/lastmile_qr_scan", "ios": "https://dc.lft.to/lastmile_qr_scan"}, "name": "1ae2ef2fbe5cd74aa9d149790def372b", "is_reserved": 0}, {"is_disabled": 0, "fusion_lon": 0.0, "fusion_lat": 0.0, "lat": 38.89229516666666, "type": "electric_scooter", "lon": -77.031866, "bike_id": "af14a00b7745432c9eeb41699e5bb150", "rental_uris": {"android": "https://dc.lft.to/lastmile_qr_scan", "ios": "https://dc.lft.to/lastmile_qr_scan"}, "name": "af14a00b7745432c9eeb41699e5bb150", "is_reserved": 0}, {"is_disabled": 0, "fusion_lon": 0.0, "fusion_lat": 0.0, "lat": 38.9021175, "type": "electric_scooter", "lon": -76.98217516666666, "bike_id": "3628ff8839b989f518165fd61547f61d", "rental_uris": {"android": "https://dc.lft.to/lastmile_qr_scan", "ios": "https://dc.lft.to/lastmile_qr_scan"}, "name": "3628ff8839b989f518165fd61547f61d", "is_reserved": 0}, {"is_disabled": 0, "fusion_lon": 0.0, "fusion_lat": 0.0, "lat": 38.941548, "type": "electric_bike", "lon": -77.00195283333333, "bike_id": "f179f4c1f44a30fe5f03ecb650c351a6", "rental_uris": {"android": "https://dc.lft.to/lastmile_qr_scan", "ios": "https://dc.lft.to/lastmile_qr_scan"}, "name": "f179f4c1f44a30fe5f03ecb650c351a6", "is_reserved": 0}, {"is_disabled": 0, "fusion_lon": 0.0, "fusion_lat": 0.0, "lat": 38.89837966666666, "type": "electric_scooter", "lon": -77.02926933333333, "bike_id": "42b45f08623464005503c14ec3a080f8", "rental_uris": {"android": "https://dc.lft.to/lastmile_qr_scan", "ios": "https://dc.lft.to/lastmile_qr_scan"}, "name": "42b45f08623464005503c14ec3a080f8", "is_reserved": 0}, {"is_disabled": 0, "fusion_lon": 0.0, "fusion_lat": 0.0, "lat": 38.91747183333333, "type": "electric_scooter", "lon": -77.017111, "bike_id": "98e1c3db02a543ce6daccff780112be4", "rental_uris": {"android": "https://dc.lft.to/lastmile_qr_scan", "ios": "https://dc.lft.to/lastmile_qr_scan"}, "name": "98e1c3db02a543ce6daccff780112be4", "is_reserved": 0}, {"is_disabled": 0, "fusion_lon": 0.0, "fusion_lat": 0.0, "lat": 38.9068945, "type": "electric_bike", "lon": -77.03588116666667, "bike_id": "7debeb1d36208e0d92680a3ac9dad640", "rental_uris": {"android": "https://dc.lft.to/lastmile_qr_scan", "ios": "https://dc.lft.to/lastmile_qr_scan"}, "name": "7debeb1d36208e0d92680a3ac9dad640", "is_reserved": 0}, {"is_disabled": 0, "fusion_lon": 0.0, "fusion_lat": 0.0, "lat": 39.05811416666667, "type": "electric_bike", "lon": -77.12625766666666, "bike_id": "5090641187845c0e0a15afa323d07f7a", "rental_uris": {"android": "https://dc.lft.to/lastmile_qr_scan", "ios": "https://dc.lft.to/lastmile_qr_scan"}, "name": "5090641187845c0e0a15afa323d07f7a", "is_reserved": 0}, {"is_disabled": 0, "fusion_lon": 0.0, "fusion_lat": 0.0, "lat": 38.90585433333333, "type": "electric_scooter", "lon": -77.00266566666667, "bike_id": "0b37da0436c23a1e4b22654447302f1d", "rental_uris": {"android": "https://dc.lft.to/lastmile_qr_scan", "ios": "https://dc.lft.to/lastmile_qr_scan"}, "name": "0b37da0436c23a1e4b22654447302f1d", "is_reserved": 0}, {"is_disabled": 0, "fusion_lon": 0.0, "fusion_lat": 0.0, "lat": 38.894975, "type": "electric_scooter", "lon": -76.94880716666667, "bike_id": "43db93352514f388036a0fe381fabf6e", "rental_uris": {"android": "https://dc.lft.to/lastmile_qr_scan", "ios": "https://dc.lft.to/lastmile_qr_scan"}, "name": "43db93352514f388036a0fe381fabf6e", "is_reserved": 0}, {"is_disabled": 0, "fusion_lon": 0.0, "fusion_lat": 0.0, "lat": 38.906767333333335, "type": "electric_scooter", "lon": -77.00924516666667, "bike_id": "e7e4df101d31e6932b30adb393d2b2b0", "rental_uris": {"android": "https://dc.lft.to/lastmile_qr_scan", "ios": "https://dc.lft.to/lastmile_qr_scan"}, "name": "e7e4df101d31e6932b30adb393d2b2b0", "is_reserved": 0}, {"is_disabled": 0, "fusion_lon": 0.0, "fusion_lat": 0.0, "lat": 38.908644833333334, "type": "electric_scooter", "lon": -77.02692716666667, "bike_id": "af916caab69e75441ff61a4756028024", "rental_uris": {"android": "https://dc.lft.to/lastmile_qr_scan", "ios": "https://dc.lft.to/lastmile_qr_scan"}, "name": "af916caab69e75441ff61a4756028024", "is_reserved": 0}, {"is_disabled": 0, "fusion_lon": 0.0, "fusion_lat": 0.0, "lat": 38.90360116666667, "type": "electric_scooter", "lon": -77.003447, "bike_id": "57f0b35c3af419f7175074f0b20efead", "rental_uris": {"android": "https://dc.lft.to/lastmile_qr_scan", "ios": "https://dc.lft.to/lastmile_qr_scan"}, "name": "57f0b35c3af419f7175074f0b20efead", "is_reserved": 0}, {"is_disabled": 0, "fusion_lon": 0.0, "fusion_lat": 0.0, "lat": 38.91470116666667, "type": "electric_scooter", "lon": -77.01986583333333, "bike_id": "2fb5a8de826fd6416eea0b1c0dbf868f", "rental_uris": {"android": "https://dc.lft.to/lastmile_qr_scan", "ios": "https://dc.lft.to/lastmile_qr_scan"}, "name": "2fb5a8de826fd6416eea0b1c0dbf868f", "is_reserved": 0}, {"is_disabled": 0, "fusion_lon": 0.0, "fusion_lat": 0.0, "lat": 38.917098333333335, "type": "electric_scooter", "lon": -77.03344816666667, "bike_id": "72c2d237924de0c80c17cfdbbcd0d031", "rental_uris": {"android": "https://dc.lft.to/lastmile_qr_scan", "ios": "https://dc.lft.to/lastmile_qr_scan"}, "name": "72c2d237924de0c80c17cfdbbcd0d031", "is_reserved": 0}, {"is_disabled": 0, "fusion_lon": 0.0, "fusion_lat": 0.0, "lat": 38.93065083333333, "type": "electric_scooter", "lon": -77.02985866666667, "bike_id": "68e8490d73bd60665526edb57c5762e7", "rental_uris": {"android": "https://dc.lft.to/lastmile_qr_scan", "ios": "https://dc.lft.to/lastmile_qr_scan"}, "name": "68e8490d73bd60665526edb57c5762e7", "is_reserved": 0}, {"is_disabled": 0, "fusion_lon": 0.0, "fusion_lat": 0.0, "lat": 38.92307433333333, "type": "electric_scooter", "lon": -77.039209, "bike_id": "343af659e4be0ee320c61f622e9ab3c6", "rental_uris": {"android": "https://dc.lft.to/lastmile_qr_scan", "ios": "https://dc.lft.to/lastmile_qr_scan"}, "name": "343af659e4be0ee320c61f622e9ab3c6", "is_reserved": 0}, {"is_disabled": 0, "fusion_lon": 0.0, "fusion_lat": 0.0, "lat": 38.91168183333333, "type": "electric_scooter", "lon": -77.02694433333333, "bike_id": "5dc137bbb7efaa88721232591ab59409", "rental_uris": {"android": "https://dc.lft.to/lastmile_qr_scan", "ios": "https://dc.lft.to/lastmile_qr_scan"}, "name": "5dc137bbb7efaa88721232591ab59409", "is_reserved": 0}, {"is_disabled": 0, "fusion_lon": 0.0, "fusion_lat": 0.0, "lat": 38.923641833333335, "type": "electric_bike", "lon": -77.0513135, "bike_id": "f12cc7dfa244d3f0105b1f7554af24d2", "rental_uris": {"android": "https://dc.lft.to/lastmile_qr_scan", "ios": "https://dc.lft.to/lastmile_qr_scan"}, "name": "f12cc7dfa244d3f0105b1f7554af24d2", "is_reserved": 0}, {"is_disabled": 0, "fusion_lon": 0.0, "fusion_lat": 0.0, "lat": 38.94200216666667, "type": "electric_scooter", "lon": -77.018295, "bike_id": "e00c8c5d0817ff05701076274f5223c0", "rental_uris": {"android": "https://dc.lft.to/lastmile_qr_scan", "ios": "https://dc.lft.to/lastmile_qr_scan"}, "name": "e00c8c5d0817ff05701076274f5223c0", "is_reserved": 0}, {"is_disabled": 0, "fusion_lon": 0.0, "fusion_lat": 0.0, "lat": 38.932315333333335, "type": "electric_scooter", "lon": -76.99936816666667, "bike_id": "26fc4db90c7535629123143cca7471a4", "rental_uris": {"android": "https://dc.lft.to/lastmile_qr_scan", "ios": "https://dc.lft.to/lastmile_qr_scan"}, "name": "26fc4db90c7535629123143cca7471a4", "is_reserved": 0}, {"is_disabled": 0, "fusion_lon": 0.0, "fusion_lat": 0.0, "lat": 38.920803, "type": "electric_scooter", "lon": -77.000551, "bike_id": "3748dccea51762ca9c11dd23a30d33f0", "rental_uris": {"android": "https://dc.lft.to/lastmile_qr_scan", "ios": "https://dc.lft.to/lastmile_qr_scan"}, "name": "3748dccea51762ca9c11dd23a30d33f0", "is_reserved": 0}, {"is_disabled": 0, "fusion_lon": 0.0, "fusion_lat": 0.0, "lat": 38.90959183333333, "type": "electric_scooter", "lon": -77.0237805, "bike_id": "0041b6021e293d1afa8e5bc35b0e0954", "rental_uris": {"android": "https://dc.lft.to/lastmile_qr_scan", "ios": "https://dc.lft.to/lastmile_qr_scan"}, "name": "0041b6021e293d1afa8e5bc35b0e0954", "is_reserved": 0}, {"is_disabled": 0, "fusion_lon": 0.0, "fusion_lat": 0.0, "lat": 38.89438416666667, "type": "electric_scooter", "lon": -77.02648783333333, "bike_id": "f935eecc17768129ade675fdc3b9eeee", "rental_uris": {"android": "https://dc.lft.to/lastmile_qr_scan", "ios": "https://dc.lft.to/lastmile_qr_scan"}, "name": "f935eecc17768129ade675fdc3b9eeee", "is_reserved": 0}, {"is_disabled": 0, "fusion_lon": 0.0, "fusion_lat": 0.0, "lat": 38.916986, "type": "electric_scooter", "lon": -77.02986183333333, "bike_id": "c360e080dd68f131324c1bdacd651171", "rental_uris": {"android": "https://dc.lft.to/lastmile_qr_scan", "ios": "https://dc.lft.to/lastmile_qr_scan"}, "name": "c360e080dd68f131324c1bdacd651171", "is_reserved": 0}, {"is_disabled": 0, "fusion_lon": 0.0, "fusion_lat": 0.0, "lat": 38.89965433333333, "type": "electric_scooter", "lon": -77.030797, "bike_id": "0228fba4289c1ff36ba44e1dbd8d4a54", "rental_uris": {"android": "https://dc.lft.to/lastmile_qr_scan", "ios": "https://dc.lft.to/lastmile_qr_scan"}, "name": "0228fba4289c1ff36ba44e1dbd8d4a54", "is_reserved": 0}, {"is_disabled": 0, "fusion_lon": 0.0, "fusion_lat": 0.0, "lat": 38.908511, "type": "electric_scooter", "lon": -76.99800233333333, "bike_id": "bfead7a12e9de847f6868cb1675772b4", "rental_uris": {"android": "https://dc.lft.to/lastmile_qr_scan", "ios": "https://dc.lft.to/lastmile_qr_scan"}, "name": "bfead7a12e9de847f6868cb1675772b4", "is_reserved": 0}, {"is_disabled": 0, "fusion_lon": 0.0, "fusion_lat": 0.0, "lat": 38.931372833333334, "type": "electric_scooter", "lon": -77.04248466666667, "bike_id": "9e994d5e5ca16dce59a6acd93a7b1727", "rental_uris": {"android": "https://dc.lft.to/lastmile_qr_scan", "ios": "https://dc.lft.to/lastmile_qr_scan"}, "name": "9e994d5e5ca16dce59a6acd93a7b1727", "is_reserved": 0}, {"is_disabled": 0, "fusion_lon": 0.0, "fusion_lat": 0.0, "lat": 38.874118833333334, "type": "electric_bike", "lon": -77.085728, "bike_id": "7b5ba83a6e739555e173082a33170eff", "rental_uris": {"android": "https://dc.lft.to/lastmile_qr_scan", "ios": "https://dc.lft.to/lastmile_qr_scan"}, "name": "7b5ba83a6e739555e173082a33170eff", "is_reserved": 0}, {"is_disabled": 0, "fusion_lon": 0.0, "fusion_lat": 0.0, "lat": 38.88490866666667, "type": "electric_scooter", "lon": -77.02494816666666, "bike_id": "f855472d9e66ad2820de9137bc11f1b2", "rental_uris": {"android": "https://dc.lft.to/lastmile_qr_scan", "ios": "https://dc.lft.to/lastmile_qr_scan"}, "name": "f855472d9e66ad2820de9137bc11f1b2", "is_reserved": 0}, {"is_disabled": 0, "fusion_lon": 0.0, "fusion_lat": 0.0, "lat": 38.908753, "type": "electric_scooter", "lon": -77.02340083333333, "bike_id": "da94517aa4ba671e384fbf3c0c439115", "rental_uris": {"android": "https://dc.lft.to/lastmile_qr_scan", "ios": "https://dc.lft.to/lastmile_qr_scan"}, "name": "da94517aa4ba671e384fbf3c0c439115", "is_reserved": 0}, {"is_disabled": 0, "fusion_lon": 0.0, "fusion_lat": 0.0, "lat": 38.900267, "type": "electric_scooter", "lon": -76.99831966666666, "bike_id": "b94fc0ad8361b50f3bea4397a2fac584", "rental_uris": {"android": "https://dc.lft.to/lastmile_qr_scan", "ios": "https://dc.lft.to/lastmile_qr_scan"}, "name": "b94fc0ad8361b50f3bea4397a2fac584", "is_reserved": 0}, {"is_disabled": 0, "fusion_lon": 0.0, "fusion_lat": 0.0, "lat": 38.916304833333335, "type": "electric_scooter", "lon": -77.0330865, "bike_id": "428846879b76f8c5222ab1f4eae0e4f1", "rental_uris": {"android": "https://dc.lft.to/lastmile_qr_scan", "ios": "https://dc.lft.to/lastmile_qr_scan"}, "name": "428846879b76f8c5222ab1f4eae0e4f1", "is_reserved": 0}, {"is_disabled": 0, "fusion_lon": 0.0, "fusion_lat": 0.0, "lat": 38.909349166666665, "type": "electric_scooter", "lon": -77.02305733333333, "bike_id": "bff0311634b53df0112028a2498e1d1e", "rental_uris": {"android": "https://dc.lft.to/lastmile_qr_scan", "ios": "https://dc.lft.to/lastmile_qr_scan"}, "name": "bff0311634b53df0112028a2498e1d1e", "is_reserved": 0}, {"is_disabled": 0, "fusion_lon": 0.0, "fusion_lat": 0.0, "lat": 38.899860833333335, "type": "electric_scooter", "lon": -77.02960683333333, "bike_id": "6c79b010930f050e3f39efb74e6c1800", "rental_uris": {"android": "https://dc.lft.to/lastmile_qr_scan", "ios": "https://dc.lft.to/lastmile_qr_scan"}, "name": "6c79b010930f050e3f39efb74e6c1800", "is_reserved": 0}, {"is_disabled": 0, "fusion_lon": 0.0, "fusion_lat": 0.0, "lat": 38.907304833333335, "type": "electric_scooter", "lon": -77.02364916666667, "bike_id": "6c3936d5d6574b518bbb22fab04038cd", "rental_uris": {"android": "https://dc.lft.to/lastmile_qr_scan", "ios": "https://dc.lft.to/lastmile_qr_scan"}, "name": "6c3936d5d6574b518bbb22fab04038cd", "is_reserved": 0}, {"is_disabled": 0, "fusion_lon": 0.0, "fusion_lat": 0.0, "lat": 38.9052135, "type": "electric_scooter", "lon": -77.02525533333333, "bike_id": "411c4a3859694adc0ad72ff2df5e85e3", "rental_uris": {"android": "https://dc.lft.to/lastmile_qr_scan", "ios": "https://dc.lft.to/lastmile_qr_scan"}, "name": "411c4a3859694adc0ad72ff2df5e85e3", "is_reserved": 0}, {"is_disabled": 0, "fusion_lon": 0.0, "fusion_lat": 0.0, "lat": 38.932022833333335, "type": "electric_scooter", "lon": -77.03658433333334, "bike_id": "7bfe0ba48c6c06bedfd6976cd6315cfc", "rental_uris": {"android": "https://dc.lft.to/lastmile_qr_scan", "ios": "https://dc.lft.to/lastmile_qr_scan"}, "name": "7bfe0ba48c6c06bedfd6976cd6315cfc", "is_reserved": 0}, {"is_disabled": 0, "fusion_lon": 0.0, "fusion_lat": 0.0, "lat": 38.984917, "type": "electric_bike", "lon": -76.98186966666667, "bike_id": "b8a647cb01b211135698db8a503cfa54", "rental_uris": {"android": "https://dc.lft.to/lastmile_qr_scan", "ios": "https://dc.lft.to/lastmile_qr_scan"}, "name": "b8a647cb01b211135698db8a503cfa54", "is_reserved": 0}, {"is_disabled": 0, "fusion_lon": 0.0, "fusion_lat": 0.0, "lat": 38.905209166666666, "type": "electric_scooter", "lon": -77.0539835, "bike_id": "880146e2466e5e4ca2bdc6e62ab0c70d", "rental_uris": {"android": "https://dc.lft.to/lastmile_qr_scan", "ios": "https://dc.lft.to/lastmile_qr_scan"}, "name": "880146e2466e5e4ca2bdc6e62ab0c70d", "is_reserved": 0}, {"is_disabled": 0, "fusion_lon": 0.0, "fusion_lat": 0.0, "lat": 38.911812833333336, "type": "electric_scooter", "lon": -77.03922466666667, "bike_id": "e096f2d4ce37b88053d65b188186a03e", "rental_uris": {"android": "https://dc.lft.to/lastmile_qr_scan", "ios": "https://dc.lft.to/lastmile_qr_scan"}, "name": "e096f2d4ce37b88053d65b188186a03e", "is_reserved": 0}, {"is_disabled": 0, "fusion_lon": 0.0, "fusion_lat": 0.0, "lat": 38.91061783333333, "type": "electric_scooter", "lon": -77.04160366666666, "bike_id": "65888b0c256e864f79949c27f7526e36", "rental_uris": {"android": "https://dc.lft.to/lastmile_qr_scan", "ios": "https://dc.lft.to/lastmile_qr_scan"}, "name": "65888b0c256e864f79949c27f7526e36", "is_reserved": 0}, {"is_disabled": 0, "fusion_lon": 0.0, "fusion_lat": 0.0, "lat": 38.88123366666667, "type": "electric_scooter", "lon": -76.99595783333334, "bike_id": "2531565ea890782e4849cdf37601d390", "rental_uris": {"android": "https://dc.lft.to/lastmile_qr_scan", "ios": "https://dc.lft.to/lastmile_qr_scan"}, "name": "2531565ea890782e4849cdf37601d390", "is_reserved": 0}, {"is_disabled": 0, "fusion_lon": 0.0, "fusion_lat": 0.0, "lat": 38.911856666666665, "type": "electric_scooter", "lon": -77.04172, "bike_id": "078961403e769bdc5eb85f3c9e5797ff", "rental_uris": {"android": "https://dc.lft.to/lastmile_qr_scan", "ios": "https://dc.lft.to/lastmile_qr_scan"}, "name": "078961403e769bdc5eb85f3c9e5797ff", "is_reserved": 0}, {"is_disabled": 0, "fusion_lon": 0.0, "fusion_lat": 0.0, "lat": 38.931245833333335, "type": "electric_scooter", "lon": -77.040554, "bike_id": "c9dbb747ffd4c97a07b780aaacd5ce54", "rental_uris": {"android": "https://dc.lft.to/lastmile_qr_scan", "ios": "https://dc.lft.to/lastmile_qr_scan"}, "name": "c9dbb747ffd4c97a07b780aaacd5ce54", "is_reserved": 0}, {"is_disabled": 0, "fusion_lon": 0.0, "fusion_lat": 0.0, "lat": 38.865051333333334, "type": "electric_scooter", "lon": -76.99011516666667, "bike_id": "def1322308ce21ffc10f243402da5b39", "rental_uris": {"android": "https://dc.lft.to/lastmile_qr_scan", "ios": "https://dc.lft.to/lastmile_qr_scan"}, "name": "def1322308ce21ffc10f243402da5b39", "is_reserved": 0}, {"is_disabled": 0, "fusion_lon": 0.0, "fusion_lat": 0.0, "lat": 38.8939545, "type": "electric_scooter", "lon": -76.94993016666666, "bike_id": "2b007e055377e46ed4a9904fe3575f0d", "rental_uris": {"android": "https://dc.lft.to/lastmile_qr_scan", "ios": "https://dc.lft.to/lastmile_qr_scan"}, "name": "2b007e055377e46ed4a9904fe3575f0d", "is_reserved": 0}, {"is_disabled": 0, "fusion_lon": 0.0, "fusion_lat": 0.0, "lat": 38.865350166666666, "type": "electric_scooter", "lon": -76.98707116666667, "bike_id": "0e68a33b6cfc41c492bb6264dfe3a0aa", "rental_uris": {"android": "https://dc.lft.to/lastmile_qr_scan", "ios": "https://dc.lft.to/lastmile_qr_scan"}, "name": "0e68a33b6cfc41c492bb6264dfe3a0aa", "is_reserved": 0}, {"is_disabled": 0, "fusion_lon": 0.0, "fusion_lat": 0.0, "lat": 38.9206375, "type": "electric_scooter", "lon": -77.0470155, "bike_id": "ac699ca1b2a23ee4f25b04b71c167be9", "rental_uris": {"android": "https://dc.lft.to/lastmile_qr_scan", "ios": "https://dc.lft.to/lastmile_qr_scan"}, "name": "ac699ca1b2a23ee4f25b04b71c167be9", "is_reserved": 0}, {"is_disabled": 0, "fusion_lon": 0.0, "fusion_lat": 0.0, "lat": 38.855150333333334, "type": "electric_bike", "lon": -76.9843805, "bike_id": "5a14dd185dc208316462b4256eb838e4", "rental_uris": {"android": "https://dc.lft.to/lastmile_qr_scan", "ios": "https://dc.lft.to/lastmile_qr_scan"}, "name": "5a14dd185dc208316462b4256eb838e4", "is_reserved": 0}, {"is_disabled": 0, "fusion_lon": 0.0, "fusion_lat": 0.0, "lat": 38.93090083333333, "type": "electric_scooter", "lon": -77.036234, "bike_id": "a18153047257e5e69a50fa959a6d33eb", "rental_uris": {"android": "https://dc.lft.to/lastmile_qr_scan", "ios": "https://dc.lft.to/lastmile_qr_scan"}, "name": "a18153047257e5e69a50fa959a6d33eb", "is_reserved": 0}, {"is_disabled": 0, "fusion_lon": 0.0, "fusion_lat": 0.0, "lat": 38.89653283333333, "type": "electric_scooter", "lon": -77.02727316666666, "bike_id": "14aaa3355e4b2364de94b5d62d8dd41a", "rental_uris": {"android": "https://dc.lft.to/lastmile_qr_scan", "ios": "https://dc.lft.to/lastmile_qr_scan"}, "name": "14aaa3355e4b2364de94b5d62d8dd41a", "is_reserved": 0}, {"is_disabled": 0, "fusion_lon": 0.0, "fusion_lat": 0.0, "lat": 38.93636566666667, "type": "electric_scooter", "lon": -77.026947, "bike_id": "6bc211cd6f56931b5dd22841b78fa35f", "rental_uris": {"android": "https://dc.lft.to/lastmile_qr_scan", "ios": "https://dc.lft.to/lastmile_qr_scan"}, "name": "6bc211cd6f56931b5dd22841b78fa35f", "is_reserved": 0}, {"is_disabled": 0, "fusion_lon": 0.0, "fusion_lat": 0.0, "lat": 38.8984, "type": "electric_scooter", "lon": -76.9463535, "bike_id": "eaf3268fb480333580393cd79aa838a3", "rental_uris": {"android": "https://dc.lft.to/lastmile_qr_scan", "ios": "https://dc.lft.to/lastmile_qr_scan"}, "name": "eaf3268fb480333580393cd79aa838a3", "is_reserved": 0}, {"is_disabled": 0, "fusion_lon": 0.0, "fusion_lat": 0.0, "lat": 38.917059, "type": "electric_scooter", "lon": -77.03292316666666, "bike_id": "d2c2116dc05ae009e4aa866bb3a666f7", "rental_uris": {"android": "https://dc.lft.to/lastmile_qr_scan", "ios": "https://dc.lft.to/lastmile_qr_scan"}, "name": "d2c2116dc05ae009e4aa866bb3a666f7", "is_reserved": 0}, {"is_disabled": 0, "fusion_lon": 0.0, "fusion_lat": 0.0, "lat": 38.904792666666665, "type": "electric_scooter", "lon": -77.0621905, "bike_id": "51826df633ecbf0458ad8a53876d14d5", "rental_uris": {"android": "https://dc.lft.to/lastmile_qr_scan", "ios": "https://dc.lft.to/lastmile_qr_scan"}, "name": "51826df633ecbf0458ad8a53876d14d5", "is_reserved": 0}, {"is_disabled": 0, "fusion_lon": 0.0, "fusion_lat": 0.0, "lat": 38.918041833333334, "type": "electric_scooter", "lon": -77.02687933333333, "bike_id": "ef9130bd99bb6dc18a847fb305ddde54", "rental_uris": {"android": "https://dc.lft.to/lastmile_qr_scan", "ios": "https://dc.lft.to/lastmile_qr_scan"}, "name": "ef9130bd99bb6dc18a847fb305ddde54", "is_reserved": 0}, {"is_disabled": 0, "fusion_lon": 0.0, "fusion_lat": 0.0, "lat": 38.92435716666667, "type": "electric_scooter", "lon": -77.03560333333333, "bike_id": "8020c3ae7d3900afa61196c3d1ecca06", "rental_uris": {"android": "https://dc.lft.to/lastmile_qr_scan", "ios": "https://dc.lft.to/lastmile_qr_scan"}, "name": "8020c3ae7d3900afa61196c3d1ecca06", "is_reserved": 0}, {"is_disabled": 0, "fusion_lon": 0.0, "fusion_lat": 0.0, "lat": 38.9938795, "type": "electric_bike", "lon": -77.024026, "bike_id": "5be910ef976b1ad769abcf35000593aa", "rental_uris": {"android": "https://dc.lft.to/lastmile_qr_scan", "ios": "https://dc.lft.to/lastmile_qr_scan"}, "name": "5be910ef976b1ad769abcf35000593aa", "is_reserved": 0}, {"is_disabled": 0, "fusion_lon": 0.0, "fusion_lat": 0.0, "lat": 38.90957866666667, "type": "electric_scooter", "lon": -77.04864733333334, "bike_id": "2fd7bada10fd9475b7cc871ac3d92318", "rental_uris": {"android": "https://dc.lft.to/lastmile_qr_scan", "ios": "https://dc.lft.to/lastmile_qr_scan"}, "name": "2fd7bada10fd9475b7cc871ac3d92318", "is_reserved": 0}, {"is_disabled": 0, "fusion_lon": 0.0, "fusion_lat": 0.0, "lat": 38.89215566666667, "type": "electric_scooter", "lon": -77.0318545, "bike_id": "aa8f6e32bb87ae3bd0b136ce364ba023", "rental_uris": {"android": "https://dc.lft.to/lastmile_qr_scan", "ios": "https://dc.lft.to/lastmile_qr_scan"}, "name": "aa8f6e32bb87ae3bd0b136ce364ba023", "is_reserved": 0}, {"is_disabled": 0, "fusion_lon": 0.0, "fusion_lat": 0.0, "lat": 38.919282, "type": "electric_scooter", "lon": -77.03430116666667, "bike_id": "415efdf17e3124241d0967652fc2054d", "rental_uris": {"android": "https://dc.lft.to/lastmile_qr_scan", "ios": "https://dc.lft.to/lastmile_qr_scan"}, "name": "415efdf17e3124241d0967652fc2054d", "is_reserved": 0}, {"is_disabled": 0, "fusion_lon": 0.0, "fusion_lat": 0.0, "lat": 38.908496, "type": "electric_scooter", "lon": -77.060862, "bike_id": "945e5bc57bbf6b0d0d9dfb9abe77ca37", "rental_uris": {"android": "https://dc.lft.to/lastmile_qr_scan", "ios": "https://dc.lft.to/lastmile_qr_scan"}, "name": "945e5bc57bbf6b0d0d9dfb9abe77ca37", "is_reserved": 0}, {"is_disabled": 0, "fusion_lon": 0.0, "fusion_lat": 0.0, "lat": 38.91734433333333, "type": "electric_scooter", "lon": -77.03645566666667, "bike_id": "f56c840b5b53fc1ad86a8f61af8edb6b", "rental_uris": {"android": "https://dc.lft.to/lastmile_qr_scan", "ios": "https://dc.lft.to/lastmile_qr_scan"}, "name": "f56c840b5b53fc1ad86a8f61af8edb6b", "is_reserved": 0}, {"is_disabled": 0, "fusion_lon": 0.0, "fusion_lat": 0.0, "lat": 38.89862983333333, "type": "electric_scooter", "lon": -77.02169516666666, "bike_id": "0e94699dfe96ec8f7933a45796b5f6e4", "rental_uris": {"android": "https://dc.lft.to/lastmile_qr_scan", "ios": "https://dc.lft.to/lastmile_qr_scan"}, "name": "0e94699dfe96ec8f7933a45796b5f6e4", "is_reserved": 0}, {"is_disabled": 0, "fusion_lon": 0.0, "fusion_lat": 0.0, "lat": 38.908529333333334, "type": "electric_scooter", "lon": -77.04771333333333, "bike_id": "b5f25b15d9d07717700bd1599dba2e76", "rental_uris": {"android": "https://dc.lft.to/lastmile_qr_scan", "ios": "https://dc.lft.to/lastmile_qr_scan"}, "name": "b5f25b15d9d07717700bd1599dba2e76", "is_reserved": 0}, {"is_disabled": 0, "fusion_lon": 0.0, "fusion_lat": 0.0, "lat": 38.93523616666667, "type": "electric_scooter", "lon": -77.0663845, "bike_id": "0f705c7f40f10c92d358cc2e58bbe53b", "rental_uris": {"android": "https://dc.lft.to/lastmile_qr_scan", "ios": "https://dc.lft.to/lastmile_qr_scan"}, "name": "0f705c7f40f10c92d358cc2e58bbe53b", "is_reserved": 0}, {"is_disabled": 0, "fusion_lon": 0.0, "fusion_lat": 0.0, "lat": 38.86588366666667, "type": "electric_scooter", "lon": -77.01074633333333, "bike_id": "816dec29e620dd06bebf1d72be728f32", "rental_uris": {"android": "https://dc.lft.to/lastmile_qr_scan", "ios": "https://dc.lft.to/lastmile_qr_scan"}, "name": "816dec29e620dd06bebf1d72be728f32", "is_reserved": 0}, {"is_disabled": 0, "fusion_lon": 0.0, "fusion_lat": 0.0, "lat": 38.928887, "type": "electric_scooter", "lon": -77.03259016666667, "bike_id": "cf269239ad6646307ecd3f8ea543abe0", "rental_uris": {"android": "https://dc.lft.to/lastmile_qr_scan", "ios": "https://dc.lft.to/lastmile_qr_scan"}, "name": "cf269239ad6646307ecd3f8ea543abe0", "is_reserved": 0}, {"is_disabled": 0, "fusion_lon": 0.0, "fusion_lat": 0.0, "lat": 38.946200833333336, "type": "electric_scooter", "lon": -77.03626933333334, "bike_id": "c51121a0e90d4b9bb0e9c93216d5ee07", "rental_uris": {"android": "https://dc.lft.to/lastmile_qr_scan", "ios": "https://dc.lft.to/lastmile_qr_scan"}, "name": "c51121a0e90d4b9bb0e9c93216d5ee07", "is_reserved": 0}, {"is_disabled": 0, "fusion_lon": 0.0, "fusion_lat": 0.0, "lat": 38.86699616666667, "type": "electric_scooter", "lon": -76.98714783333334, "bike_id": "bb34506d3120ca756a609237487fa6cb", "rental_uris": {"android": "https://dc.lft.to/lastmile_qr_scan", "ios": "https://dc.lft.to/lastmile_qr_scan"}, "name": "bb34506d3120ca756a609237487fa6cb", "is_reserved": 0}, {"is_disabled": 0, "fusion_lon": 0.0, "fusion_lat": 0.0, "lat": 38.93101216666667, "type": "electric_scooter", "lon": -77.02669983333334, "bike_id": "23abc5b8622e514473cea4c5a453d92b", "rental_uris": {"android": "https://dc.lft.to/lastmile_qr_scan", "ios": "https://dc.lft.to/lastmile_qr_scan"}, "name": "23abc5b8622e514473cea4c5a453d92b", "is_reserved": 0}, {"is_disabled": 0, "fusion_lon": 0.0, "fusion_lat": 0.0, "lat": 38.903761833333334, "type": "electric_scooter", "lon": -77.0300365, "bike_id": "88871c782aabc070deda1d88c06d0dea", "rental_uris": {"android": "https://dc.lft.to/lastmile_qr_scan", "ios": "https://dc.lft.to/lastmile_qr_scan"}, "name": "88871c782aabc070deda1d88c06d0dea", "is_reserved": 0}, {"is_disabled": 0, "fusion_lon": 0.0, "fusion_lat": 0.0, "lat": 38.92018316666667, "type": "electric_scooter", "lon": -77.03143816666666, "bike_id": "ad317f5ec11dbde0986a89cce1ec655f", "rental_uris": {"android": "https://dc.lft.to/lastmile_qr_scan", "ios": "https://dc.lft.to/lastmile_qr_scan"}, "name": "ad317f5ec11dbde0986a89cce1ec655f", "is_reserved": 0}, {"is_disabled": 0, "fusion_lon": 0.0, "fusion_lat": 0.0, "lat": 38.869106, "type": "electric_scooter", "lon": -77.013742, "bike_id": "9045fe125a3c01c4c6d064ccb8f9721f", "rental_uris": {"android": "https://dc.lft.to/lastmile_qr_scan", "ios": "https://dc.lft.to/lastmile_qr_scan"}, "name": "9045fe125a3c01c4c6d064ccb8f9721f", "is_reserved": 0}, {"is_disabled": 0, "fusion_lon": 0.0, "fusion_lat": 0.0, "lat": 38.931882, "type": "electric_scooter", "lon": -77.02838366666667, "bike_id": "a5b6a18347520246f4bc0289e0093ecb", "rental_uris": {"android": "https://dc.lft.to/lastmile_qr_scan", "ios": "https://dc.lft.to/lastmile_qr_scan"}, "name": "a5b6a18347520246f4bc0289e0093ecb", "is_reserved": 0}, {"is_disabled": 0, "fusion_lon": 0.0, "fusion_lat": 0.0, "lat": 38.9295835, "type": "electric_scooter", "lon": -77.04212433333333, "bike_id": "d94008fea8edf07a843c0b61c671c9d6", "rental_uris": {"android": "https://dc.lft.to/lastmile_qr_scan", "ios": "https://dc.lft.to/lastmile_qr_scan"}, "name": "d94008fea8edf07a843c0b61c671c9d6", "is_reserved": 0}, {"is_disabled": 0, "fusion_lon": 0.0, "fusion_lat": 0.0, "lat": 38.91621716666667, "type": "electric_scooter", "lon": -77.0314365, "bike_id": "2f428bd55513307ed34c1a1ddfceb2b8", "rental_uris": {"android": "https://dc.lft.to/lastmile_qr_scan", "ios": "https://dc.lft.to/lastmile_qr_scan"}, "name": "2f428bd55513307ed34c1a1ddfceb2b8", "is_reserved": 0}, {"is_disabled": 0, "fusion_lon": 0.0, "fusion_lat": 0.0, "lat": 38.933345, "type": "electric_bike", "lon": -77.042077, "bike_id": "74372582c2eb1e4503dc536018640da0", "rental_uris": {"android": "https://dc.lft.to/lastmile_qr_scan", "ios": "https://dc.lft.to/lastmile_qr_scan"}, "name": "74372582c2eb1e4503dc536018640da0", "is_reserved": 0}, {"is_disabled": 0, "fusion_lon": 0.0, "fusion_lat": 0.0, "lat": 38.904318333333336, "type": "electric_scooter", "lon": -77.02607516666667, "bike_id": "14ca0f1d921cfe30f791170f6291eeed", "rental_uris": {"android": "https://dc.lft.to/lastmile_qr_scan", "ios": "https://dc.lft.to/lastmile_qr_scan"}, "name": "14ca0f1d921cfe30f791170f6291eeed", "is_reserved": 0}, {"is_disabled": 0, "fusion_lon": 0.0, "fusion_lat": 0.0, "lat": 38.900043833333335, "type": "electric_scooter", "lon": -77.006603, "bike_id": "6c308e87bed29dbf949756941ba2d83c", "rental_uris": {"android": "https://dc.lft.to/lastmile_qr_scan", "ios": "https://dc.lft.to/lastmile_qr_scan"}, "name": "6c308e87bed29dbf949756941ba2d83c", "is_reserved": 0}, {"is_disabled": 0, "fusion_lon": 0.0, "fusion_lat": 0.0, "lat": 38.84290516666667, "type": "electric_scooter", "lon": -76.99947383333334, "bike_id": "5640419c092008e408e43a7298b01f43", "rental_uris": {"android": "https://dc.lft.to/lastmile_qr_scan", "ios": "https://dc.lft.to/lastmile_qr_scan"}, "name": "5640419c092008e408e43a7298b01f43", "is_reserved": 0}, {"is_disabled": 0, "fusion_lon": 0.0, "fusion_lat": 0.0, "lat": 38.895273333333336, "type": "electric_scooter", "lon": -76.9489205, "bike_id": "337eebcb939b5aca28e95f6f414eb18e", "rental_uris": {"android": "https://dc.lft.to/lastmile_qr_scan", "ios": "https://dc.lft.to/lastmile_qr_scan"}, "name": "337eebcb939b5aca28e95f6f414eb18e", "is_reserved": 0}, {"is_disabled": 0, "fusion_lon": 0.0, "fusion_lat": 0.0, "lat": 38.88691983333333, "type": "electric_scooter", "lon": -76.95362, "bike_id": "58730cb1086b02ab83a41d8ae06c0c33", "rental_uris": {"android": "https://dc.lft.to/lastmile_qr_scan", "ios": "https://dc.lft.to/lastmile_qr_scan"}, "name": "58730cb1086b02ab83a41d8ae06c0c33", "is_reserved": 0}, {"is_disabled": 0, "fusion_lon": 0.0, "fusion_lat": 0.0, "lat": 38.917431666666666, "type": "electric_scooter", "lon": -77.03661683333333, "bike_id": "0d5a9f1618ffaaec0e21ce8c631c697f", "rental_uris": {"android": "https://dc.lft.to/lastmile_qr_scan", "ios": "https://dc.lft.to/lastmile_qr_scan"}, "name": "0d5a9f1618ffaaec0e21ce8c631c697f", "is_reserved": 0}, {"is_disabled": 0, "fusion_lon": 0.0, "fusion_lat": 0.0, "lat": 38.9167995, "type": "electric_scooter", "lon": -77.02686033333333, "bike_id": "f1ba6eea5591961079f327ca1bada4cf", "rental_uris": {"android": "https://dc.lft.to/lastmile_qr_scan", "ios": "https://dc.lft.to/lastmile_qr_scan"}, "name": "f1ba6eea5591961079f327ca1bada4cf", "is_reserved": 0}, {"is_disabled": 0, "fusion_lon": 0.0, "fusion_lat": 0.0, "lat": 38.86244533333333, "type": "electric_scooter", "lon": -76.995341, "bike_id": "38a8de3cdb9220a3256517105f82fd04", "rental_uris": {"android": "https://dc.lft.to/lastmile_qr_scan", "ios": "https://dc.lft.to/lastmile_qr_scan"}, "name": "38a8de3cdb9220a3256517105f82fd04", "is_reserved": 0}, {"is_disabled": 0, "fusion_lon": 0.0, "fusion_lat": 0.0, "lat": 38.8790035, "type": "electric_scooter", "lon": -77.02192683333334, "bike_id": "041bf27530dd89707ca9b01124775ea9", "rental_uris": {"android": "https://dc.lft.to/lastmile_qr_scan", "ios": "https://dc.lft.to/lastmile_qr_scan"}, "name": "041bf27530dd89707ca9b01124775ea9", "is_reserved": 0}, {"is_disabled": 0, "fusion_lon": 0.0, "fusion_lat": 0.0, "lat": 38.895269166666665, "type": "electric_scooter", "lon": -76.94893916666666, "bike_id": "f792e51594242eb1b1cd84f9b71f4599", "rental_uris": {"android": "https://dc.lft.to/lastmile_qr_scan", "ios": "https://dc.lft.to/lastmile_qr_scan"}, "name": "f792e51594242eb1b1cd84f9b71f4599", "is_reserved": 0}, {"is_disabled": 0, "fusion_lon": 0.0, "fusion_lat": 0.0, "lat": 38.9174155, "type": "electric_scooter", "lon": -77.041776, "bike_id": "79f05360c3ae1d9c34670a9a4e448908", "rental_uris": {"android": "https://dc.lft.to/lastmile_qr_scan", "ios": "https://dc.lft.to/lastmile_qr_scan"}, "name": "79f05360c3ae1d9c34670a9a4e448908", "is_reserved": 0}, {"is_disabled": 0, "fusion_lon": 0.0, "fusion_lat": 0.0, "lat": 38.88317, "type": "electric_scooter", "lon": -77.01651433333333, "bike_id": "343bc4085846b771ca490e9ae412f86c", "rental_uris": {"android": "https://dc.lft.to/lastmile_qr_scan", "ios": "https://dc.lft.to/lastmile_qr_scan"}, "name": "343bc4085846b771ca490e9ae412f86c", "is_reserved": 0}, {"is_disabled": 0, "fusion_lon": 0.0, "fusion_lat": 0.0, "lat": 38.91931733333333, "type": "electric_bike", "lon": -76.975039, "bike_id": "776803c3b2ae6f3d1dadaea80b0cb81a", "rental_uris": {"android": "https://dc.lft.to/lastmile_qr_scan", "ios": "https://dc.lft.to/lastmile_qr_scan"}, "name": "776803c3b2ae6f3d1dadaea80b0cb81a", "is_reserved": 0}, {"is_disabled": 0, "fusion_lon": 0.0, "fusion_lat": 0.0, "lat": 38.90473183333334, "type": "electric_scooter", "lon": -77.0513895, "bike_id": "ef6532385c6c75d6843486300ac8da06", "rental_uris": {"android": "https://dc.lft.to/lastmile_qr_scan", "ios": "https://dc.lft.to/lastmile_qr_scan"}, "name": "ef6532385c6c75d6843486300ac8da06", "is_reserved": 0}, {"is_disabled": 0, "fusion_lon": 0.0, "fusion_lat": 0.0, "lat": 38.94303416666666, "type": "electric_scooter", "lon": -77.02762766666666, "bike_id": "3b8fad267ba583b6256912ffc6cc998c", "rental_uris": {"android": "https://dc.lft.to/lastmile_qr_scan", "ios": "https://dc.lft.to/lastmile_qr_scan"}, "name": "3b8fad267ba583b6256912ffc6cc998c", "is_reserved": 0}, {"is_disabled": 0, "fusion_lon": 0.0, "fusion_lat": 0.0, "lat": 38.91561733333333, "type": "electric_scooter", "lon": -77.03148133333333, "bike_id": "60ddd708e381f5e38066deae3e912ad3", "rental_uris": {"android": "https://dc.lft.to/lastmile_qr_scan", "ios": "https://dc.lft.to/lastmile_qr_scan"}, "name": "60ddd708e381f5e38066deae3e912ad3", "is_reserved": 0}, {"is_disabled": 0, "fusion_lon": 0.0, "fusion_lat": 0.0, "lat": 38.90109483333333, "type": "electric_scooter", "lon": -77.05984, "bike_id": "03f1ab02404fe8a739299799966e8cf9", "rental_uris": {"android": "https://dc.lft.to/lastmile_qr_scan", "ios": "https://dc.lft.to/lastmile_qr_scan"}, "name": "03f1ab02404fe8a739299799966e8cf9", "is_reserved": 0}, {"is_disabled": 0, "fusion_lon": 0.0, "fusion_lat": 0.0, "lat": 38.92079566666666, "type": "electric_scooter", "lon": -77.03486666666667, "bike_id": "efb2e40356ee4ae82b41e40e67beeafb", "rental_uris": {"android": "https://dc.lft.to/lastmile_qr_scan", "ios": "https://dc.lft.to/lastmile_qr_scan"}, "name": "efb2e40356ee4ae82b41e40e67beeafb", "is_reserved": 0}, {"is_disabled": 0, "fusion_lon": 0.0, "fusion_lat": 0.0, "lat": 38.8974635, "type": "electric_scooter", "lon": -77.0480585, "bike_id": "13b9ad6837c52c5b43202a14d7c905a0", "rental_uris": {"android": "https://dc.lft.to/lastmile_qr_scan", "ios": "https://dc.lft.to/lastmile_qr_scan"}, "name": "13b9ad6837c52c5b43202a14d7c905a0", "is_reserved": 0}, {"is_disabled": 0, "fusion_lon": 0.0, "fusion_lat": 0.0, "lat": 38.90674466666667, "type": "electric_scooter", "lon": -77.009002, "bike_id": "c1bd025b66779d7f611e63705ab2c243", "rental_uris": {"android": "https://dc.lft.to/lastmile_qr_scan", "ios": "https://dc.lft.to/lastmile_qr_scan"}, "name": "c1bd025b66779d7f611e63705ab2c243", "is_reserved": 0}, {"is_disabled": 0, "fusion_lon": 0.0, "fusion_lat": 0.0, "lat": 38.924412333333336, "type": "electric_scooter", "lon": -77.02610733333333, "bike_id": "3244a2e8e7f004d410e9482396d294f6", "rental_uris": {"android": "https://dc.lft.to/lastmile_qr_scan", "ios": "https://dc.lft.to/lastmile_qr_scan"}, "name": "3244a2e8e7f004d410e9482396d294f6", "is_reserved": 0}, {"is_disabled": 0, "fusion_lon": 0.0, "fusion_lat": 0.0, "lat": 38.96730783333334, "type": "electric_scooter", "lon": -77.02765183333334, "bike_id": "f7d4f5980d220128e6145d864f5780bb", "rental_uris": {"android": "https://dc.lft.to/lastmile_qr_scan", "ios": "https://dc.lft.to/lastmile_qr_scan"}, "name": "f7d4f5980d220128e6145d864f5780bb", "is_reserved": 0}, {"is_disabled": 0, "fusion_lon": 0.0, "fusion_lat": 0.0, "lat": 38.923798, "type": "electric_scooter", "lon": -77.02899616666667, "bike_id": "de1e47d1a55f1115a4e08388efd64d83", "rental_uris": {"android": "https://dc.lft.to/lastmile_qr_scan", "ios": "https://dc.lft.to/lastmile_qr_scan"}, "name": "de1e47d1a55f1115a4e08388efd64d83", "is_reserved": 0}, {"is_disabled": 0, "fusion_lon": 0.0, "fusion_lat": 0.0, "lat": 38.912183666666664, "type": "electric_scooter", "lon": -77.027179, "bike_id": "68b3ac9e2a3456f8de2123072c2124c4", "rental_uris": {"android": "https://dc.lft.to/lastmile_qr_scan", "ios": "https://dc.lft.to/lastmile_qr_scan"}, "name": "68b3ac9e2a3456f8de2123072c2124c4", "is_reserved": 0}, {"is_disabled": 0, "fusion_lon": 0.0, "fusion_lat": 0.0, "lat": 38.895303, "type": "electric_scooter", "lon": -77.03207333333333, "bike_id": "9ef65dcd36fe81c3efde5f47e4a1fe13", "rental_uris": {"android": "https://dc.lft.to/lastmile_qr_scan", "ios": "https://dc.lft.to/lastmile_qr_scan"}, "name": "9ef65dcd36fe81c3efde5f47e4a1fe13", "is_reserved": 0}, {"is_disabled": 0, "fusion_lon": 0.0, "fusion_lat": 0.0, "lat": 38.90866033333333, "type": "electric_scooter", "lon": -77.0301275, "bike_id": "b050ef389a1f8b8974bf6cb89b409f1f", "rental_uris": {"android": "https://dc.lft.to/lastmile_qr_scan", "ios": "https://dc.lft.to/lastmile_qr_scan"}, "name": "b050ef389a1f8b8974bf6cb89b409f1f", "is_reserved": 0}, {"is_disabled": 0, "fusion_lon": 0.0, "fusion_lat": 0.0, "lat": 38.92105333333333, "type": "electric_scooter", "lon": -77.04374783333333, "bike_id": "8bd186d07af65eed9564c580daf454ec", "rental_uris": {"android": "https://dc.lft.to/lastmile_qr_scan", "ios": "https://dc.lft.to/lastmile_qr_scan"}, "name": "8bd186d07af65eed9564c580daf454ec", "is_reserved": 0}, {"is_disabled": 0, "fusion_lon": 0.0, "fusion_lat": 0.0, "lat": 38.91683883333334, "type": "electric_scooter", "lon": -77.02902, "bike_id": "b58583e4a696dca162d34f5e9d7dd216", "rental_uris": {"android": "https://dc.lft.to/lastmile_qr_scan", "ios": "https://dc.lft.to/lastmile_qr_scan"}, "name": "b58583e4a696dca162d34f5e9d7dd216", "is_reserved": 0}, {"is_disabled": 0, "fusion_lon": 0.0, "fusion_lat": 0.0, "lat": 38.912493833333336, "type": "electric_scooter", "lon": -77.02224816666667, "bike_id": "db260b5382d7e7a1f9d31c16fd0abdd4", "rental_uris": {"android": "https://dc.lft.to/lastmile_qr_scan", "ios": "https://dc.lft.to/lastmile_qr_scan"}, "name": "db260b5382d7e7a1f9d31c16fd0abdd4", "is_reserved": 0}, {"is_disabled": 0, "fusion_lon": 0.0, "fusion_lat": 0.0, "lat": 38.91673633333333, "type": "electric_scooter", "lon": -77.015769, "bike_id": "dc49dbef250546560e959be3904274e0", "rental_uris": {"android": "https://dc.lft.to/lastmile_qr_scan", "ios": "https://dc.lft.to/lastmile_qr_scan"}, "name": "dc49dbef250546560e959be3904274e0", "is_reserved": 0}, {"is_disabled": 0, "fusion_lon": 0.0, "fusion_lat": 0.0, "lat": 38.8757595, "type": "electric_scooter", "lon": -77.02081933333334, "bike_id": "047bc94d2ce8313d5731eb561892da32", "rental_uris": {"android": "https://dc.lft.to/lastmile_qr_scan", "ios": "https://dc.lft.to/lastmile_qr_scan"}, "name": "047bc94d2ce8313d5731eb561892da32", "is_reserved": 0}, {"is_disabled": 0, "fusion_lon": 0.0, "fusion_lat": 0.0, "lat": 38.90357266666667, "type": "electric_scooter", "lon": -77.01119283333334, "bike_id": "a2914d8131116db12d91f19ae0e256b8", "rental_uris": {"android": "https://dc.lft.to/lastmile_qr_scan", "ios": "https://dc.lft.to/lastmile_qr_scan"}, "name": "a2914d8131116db12d91f19ae0e256b8", "is_reserved": 0}, {"is_disabled": 0, "fusion_lon": 0.0, "fusion_lat": 0.0, "lat": 38.9058705, "type": "electric_scooter", "lon": -77.02391683333333, "bike_id": "19a427bd2f291b87bef4fc56dd10352a", "rental_uris": {"android": "https://dc.lft.to/lastmile_qr_scan", "ios": "https://dc.lft.to/lastmile_qr_scan"}, "name": "19a427bd2f291b87bef4fc56dd10352a", "is_reserved": 0}, {"is_disabled": 0, "fusion_lon": 0.0, "fusion_lat": 0.0, "lat": 38.89843833333333, "type": "electric_scooter", "lon": -77.02200516666667, "bike_id": "76bfdba047d15cebe110ebd0c602bb12", "rental_uris": {"android": "https://dc.lft.to/lastmile_qr_scan", "ios": "https://dc.lft.to/lastmile_qr_scan"}, "name": "76bfdba047d15cebe110ebd0c602bb12", "is_reserved": 0}, {"is_disabled": 0, "fusion_lon": 0.0, "fusion_lat": 0.0, "lat": 38.909521166666664, "type": "electric_scooter", "lon": -77.02716416666667, "bike_id": "4336a9463a8255dbb333ca94643a4a27", "rental_uris": {"android": "https://dc.lft.to/lastmile_qr_scan", "ios": "https://dc.lft.to/lastmile_qr_scan"}, "name": "4336a9463a8255dbb333ca94643a4a27", "is_reserved": 0}, {"is_disabled": 0, "fusion_lon": 0.0, "fusion_lat": 0.0, "lat": 38.9966815, "type": "electric_bike", "lon": -76.99143033333333, "bike_id": "7f7e9bdf46ff88d9f713a357b48d4bc9", "rental_uris": {"android": "https://dc.lft.to/lastmile_qr_scan", "ios": "https://dc.lft.to/lastmile_qr_scan"}, "name": "7f7e9bdf46ff88d9f713a357b48d4bc9", "is_reserved": 0}, {"is_disabled": 0, "fusion_lon": 0.0, "fusion_lat": 0.0, "lat": 38.90193166666667, "type": "electric_scooter", "lon": -77.04802666666667, "bike_id": "8560fd4aa0dd1bf5914c097db27e44b1", "rental_uris": {"android": "https://dc.lft.to/lastmile_qr_scan", "ios": "https://dc.lft.to/lastmile_qr_scan"}, "name": "8560fd4aa0dd1bf5914c097db27e44b1", "is_reserved": 0}, {"is_disabled": 0, "fusion_lon": 0.0, "fusion_lat": 0.0, "lat": 38.96761766666667, "type": "electric_bike", "lon": -77.09160883333334, "bike_id": "fd1a944a9ae7d392ad55ea48acbd16ff", "rental_uris": {"android": "https://dc.lft.to/lastmile_qr_scan", "ios": "https://dc.lft.to/lastmile_qr_scan"}, "name": "fd1a944a9ae7d392ad55ea48acbd16ff", "is_reserved": 0}, {"is_disabled": 0, "fusion_lon": 0.0, "fusion_lat": 0.0, "lat": 38.91265583333333, "type": "electric_scooter", "lon": -77.0477945, "bike_id": "a523a99f12e4981be4aa7e1f7276aba3", "rental_uris": {"android": "https://dc.lft.to/lastmile_qr_scan", "ios": "https://dc.lft.to/lastmile_qr_scan"}, "name": "a523a99f12e4981be4aa7e1f7276aba3", "is_reserved": 0}, {"is_disabled": 0, "fusion_lon": 0.0, "fusion_lat": 0.0, "lat": 38.92822916666667, "type": "electric_scooter", "lon": -77.02256116666666, "bike_id": "00eec2c188d69bb9e8e7b159ac7e09dd", "rental_uris": {"android": "https://dc.lft.to/lastmile_qr_scan", "ios": "https://dc.lft.to/lastmile_qr_scan"}, "name": "00eec2c188d69bb9e8e7b159ac7e09dd", "is_reserved": 0}, {"is_disabled": 0, "fusion_lon": 0.0, "fusion_lat": 0.0, "lat": 38.91264316666667, "type": "electric_scooter", "lon": -77.0169905, "bike_id": "ea9da8c266fc3d2169e0db97469dc107", "rental_uris": {"android": "https://dc.lft.to/lastmile_qr_scan", "ios": "https://dc.lft.to/lastmile_qr_scan"}, "name": "ea9da8c266fc3d2169e0db97469dc107", "is_reserved": 0}, {"is_disabled": 0, "fusion_lon": 0.0, "fusion_lat": 0.0, "lat": 38.90126383333333, "type": "electric_scooter", "lon": -77.01198933333333, "bike_id": "985a99176be2af17f9cf71c504c2c795", "rental_uris": {"android": "https://dc.lft.to/lastmile_qr_scan", "ios": "https://dc.lft.to/lastmile_qr_scan"}, "name": "985a99176be2af17f9cf71c504c2c795", "is_reserved": 0}, {"is_disabled": 0, "fusion_lon": 0.0, "fusion_lat": 0.0, "lat": 38.8953525, "type": "electric_scooter", "lon": -77.02952866666666, "bike_id": "4387c36cfb769c170aa1a19bcb9134a3", "rental_uris": {"android": "https://dc.lft.to/lastmile_qr_scan", "ios": "https://dc.lft.to/lastmile_qr_scan"}, "name": "4387c36cfb769c170aa1a19bcb9134a3", "is_reserved": 0}, {"is_disabled": 0, "fusion_lon": 0.0, "fusion_lat": 0.0, "lat": 38.90721466666667, "type": "electric_scooter", "lon": -77.04678266666667, "bike_id": "53eadbfedfefe7c641b1774f3315e558", "rental_uris": {"android": "https://dc.lft.to/lastmile_qr_scan", "ios": "https://dc.lft.to/lastmile_qr_scan"}, "name": "53eadbfedfefe7c641b1774f3315e558", "is_reserved": 0}, {"is_disabled": 0, "fusion_lon": 0.0, "fusion_lat": 0.0, "lat": 38.8888885, "type": "electric_scooter", "lon": -77.01550516666667, "bike_id": "1a7e56cd85b1208b5af9d55c438b392e", "rental_uris": {"android": "https://dc.lft.to/lastmile_qr_scan", "ios": "https://dc.lft.to/lastmile_qr_scan"}, "name": "1a7e56cd85b1208b5af9d55c438b392e", "is_reserved": 0}, {"is_disabled": 0, "fusion_lon": 0.0, "fusion_lat": 0.0, "lat": 38.89224133333333, "type": "electric_scooter", "lon": -77.0466295, "bike_id": "fd192a54fe46e71951c702723a8f5ca4", "rental_uris": {"android": "https://dc.lft.to/lastmile_qr_scan", "ios": "https://dc.lft.to/lastmile_qr_scan"}, "name": "fd192a54fe46e71951c702723a8f5ca4", "is_reserved": 0}, {"is_disabled": 0, "fusion_lon": 0.0, "fusion_lat": 0.0, "lat": 38.9313, "type": "electric_scooter", "lon": -77.0280755, "bike_id": "5b18cc78045d0e157ee02002361a89d5", "rental_uris": {"android": "https://dc.lft.to/lastmile_qr_scan", "ios": "https://dc.lft.to/lastmile_qr_scan"}, "name": "5b18cc78045d0e157ee02002361a89d5", "is_reserved": 0}, {"is_disabled": 0, "fusion_lon": 0.0, "fusion_lat": 0.0, "lat": 38.85805966666667, "type": "electric_scooter", "lon": -76.98654233333333, "bike_id": "2c0bf6aafc769343c9eaa1860cd4869c", "rental_uris": {"android": "https://dc.lft.to/lastmile_qr_scan", "ios": "https://dc.lft.to/lastmile_qr_scan"}, "name": "2c0bf6aafc769343c9eaa1860cd4869c", "is_reserved": 0}, {"is_disabled": 0, "fusion_lon": 0.0, "fusion_lat": 0.0, "lat": 38.99886216666667, "type": "electric_bike", "lon": -77.02884383333334, "bike_id": "46454bb1f79e5243c943774628a571e2", "rental_uris": {"android": "https://dc.lft.to/lastmile_qr_scan", "ios": "https://dc.lft.to/lastmile_qr_scan"}, "name": "46454bb1f79e5243c943774628a571e2", "is_reserved": 0}, {"is_disabled": 0, "fusion_lon": 0.0, "fusion_lat": 0.0, "lat": 38.91302616666667, "type": "electric_bike", "lon": -77.02174466666666, "bike_id": "7f34ba8c2caca46aed4e3f507f140c9a", "rental_uris": {"android": "https://dc.lft.to/lastmile_qr_scan", "ios": "https://dc.lft.to/lastmile_qr_scan"}, "name": "7f34ba8c2caca46aed4e3f507f140c9a", "is_reserved": 0}, {"is_disabled": 0, "fusion_lon": 0.0, "fusion_lat": 0.0, "lat": 38.877142666666664, "type": "electric_scooter", "lon": -77.01753833333333, "bike_id": "b1c0867bd118e9e11f4a5d97c5e13e15", "rental_uris": {"android": "https://dc.lft.to/lastmile_qr_scan", "ios": "https://dc.lft.to/lastmile_qr_scan"}, "name": "b1c0867bd118e9e11f4a5d97c5e13e15", "is_reserved": 0}, {"is_disabled": 0, "fusion_lon": 0.0, "fusion_lat": 0.0, "lat": 38.93700283333333, "type": "electric_bike", "lon": -77.02982733333333, "bike_id": "00a93a2f82a49babaf535053f5a8e53d", "rental_uris": {"android": "https://dc.lft.to/lastmile_qr_scan", "ios": "https://dc.lft.to/lastmile_qr_scan"}, "name": "00a93a2f82a49babaf535053f5a8e53d", "is_reserved": 0}, {"is_disabled": 0, "fusion_lon": 0.0, "fusion_lat": 0.0, "lat": 38.89722733333333, "type": "electric_scooter", "lon": -77.0333525, "bike_id": "b1c7ea950793479b05818a439061dc27", "rental_uris": {"android": "https://dc.lft.to/lastmile_qr_scan", "ios": "https://dc.lft.to/lastmile_qr_scan"}, "name": "b1c7ea950793479b05818a439061dc27", "is_reserved": 0}, {"is_disabled": 0, "fusion_lon": 0.0, "fusion_lat": 0.0, "lat": 38.88438683333333, "type": "electric_scooter", "lon": -76.95188, "bike_id": "bc6be6437c99e8671afa8a650cf81f7b", "rental_uris": {"android": "https://dc.lft.to/lastmile_qr_scan", "ios": "https://dc.lft.to/lastmile_qr_scan"}, "name": "bc6be6437c99e8671afa8a650cf81f7b", "is_reserved": 0}, {"is_disabled": 0, "fusion_lon": 0.0, "fusion_lat": 0.0, "lat": 38.911997, "type": "electric_scooter", "lon": -77.000867, "bike_id": "32a3f3402cce137585cb09c36f310ac8", "rental_uris": {"android": "https://dc.lft.to/lastmile_qr_scan", "ios": "https://dc.lft.to/lastmile_qr_scan"}, "name": "32a3f3402cce137585cb09c36f310ac8", "is_reserved": 0}, {"is_disabled": 0, "fusion_lon": 0.0, "fusion_lat": 0.0, "lat": 38.9181855, "type": "electric_scooter", "lon": -77.03454216666667, "bike_id": "6c96fb94c1e54b26940bca1e24d56840", "rental_uris": {"android": "https://dc.lft.to/lastmile_qr_scan", "ios": "https://dc.lft.to/lastmile_qr_scan"}, "name": "6c96fb94c1e54b26940bca1e24d56840", "is_reserved": 0}, {"is_disabled": 0, "fusion_lon": 0.0, "fusion_lat": 0.0, "lat": 38.9103015, "type": "electric_scooter", "lon": -77.01493616666667, "bike_id": "e9e44e3412538cd589db1f42d90b0c7f", "rental_uris": {"android": "https://dc.lft.to/lastmile_qr_scan", "ios": "https://dc.lft.to/lastmile_qr_scan"}, "name": "e9e44e3412538cd589db1f42d90b0c7f", "is_reserved": 0}, {"is_disabled": 0, "fusion_lon": 0.0, "fusion_lat": 0.0, "lat": 38.91338583333334, "type": "electric_scooter", "lon": -77.032027, "bike_id": "686d1545897001f4f77da2bd92039b58", "rental_uris": {"android": "https://dc.lft.to/lastmile_qr_scan", "ios": "https://dc.lft.to/lastmile_qr_scan"}, "name": "686d1545897001f4f77da2bd92039b58", "is_reserved": 0}, {"is_disabled": 0, "fusion_lon": 0.0, "fusion_lat": 0.0, "lat": 38.90954466666667, "type": "electric_scooter", "lon": -77.0238865, "bike_id": "c05c4b256fce494c123572b81ee6b495", "rental_uris": {"android": "https://dc.lft.to/lastmile_qr_scan", "ios": "https://dc.lft.to/lastmile_qr_scan"}, "name": "c05c4b256fce494c123572b81ee6b495", "is_reserved": 0}, {"is_disabled": 0, "fusion_lon": 0.0, "fusion_lat": 0.0, "lat": 38.9222795, "type": "electric_scooter", "lon": -76.9752885, "bike_id": "c08a9a2a5f4d197d1690dce5d13f3616", "rental_uris": {"android": "https://dc.lft.to/lastmile_qr_scan", "ios": "https://dc.lft.to/lastmile_qr_scan"}, "name": "c08a9a2a5f4d197d1690dce5d13f3616", "is_reserved": 0}, {"is_disabled": 0, "fusion_lon": 0.0, "fusion_lat": 0.0, "lat": 38.91698183333333, "type": "electric_scooter", "lon": -77.03177, "bike_id": "f228f2524a2693110f7ee7d90597bae2", "rental_uris": {"android": "https://dc.lft.to/lastmile_qr_scan", "ios": "https://dc.lft.to/lastmile_qr_scan"}, "name": "f228f2524a2693110f7ee7d90597bae2", "is_reserved": 0}, {"is_disabled": 0, "fusion_lon": 0.0, "fusion_lat": 0.0, "lat": 38.911906333333334, "type": "electric_scooter", "lon": -77.03977533333334, "bike_id": "8a77d9740e4888469eafe7bed07fad1b", "rental_uris": {"android": "https://dc.lft.to/lastmile_qr_scan", "ios": "https://dc.lft.to/lastmile_qr_scan"}, "name": "8a77d9740e4888469eafe7bed07fad1b", "is_reserved": 0}, {"is_disabled": 0, "fusion_lon": 0.0, "fusion_lat": 0.0, "lat": 38.8971595, "type": "electric_scooter", "lon": -77.02147916666667, "bike_id": "7da492c3cef991f33d5845431f18b5fc", "rental_uris": {"android": "https://dc.lft.to/lastmile_qr_scan", "ios": "https://dc.lft.to/lastmile_qr_scan"}, "name": "7da492c3cef991f33d5845431f18b5fc", "is_reserved": 0}, {"is_disabled": 0, "fusion_lon": 0.0, "fusion_lat": 0.0, "lat": 38.9142285, "type": "electric_scooter", "lon": -77.03903466666667, "bike_id": "7d8f8e4323405a824deb26f423f65a92", "rental_uris": {"android": "https://dc.lft.to/lastmile_qr_scan", "ios": "https://dc.lft.to/lastmile_qr_scan"}, "name": "7d8f8e4323405a824deb26f423f65a92", "is_reserved": 0}, {"is_disabled": 0, "fusion_lon": 0.0, "fusion_lat": 0.0, "lat": 38.923068666666666, "type": "electric_scooter", "lon": -77.0403695, "bike_id": "2d2add014aaa9bd1ccc4c10d2a3a25c4", "rental_uris": {"android": "https://dc.lft.to/lastmile_qr_scan", "ios": "https://dc.lft.to/lastmile_qr_scan"}, "name": "2d2add014aaa9bd1ccc4c10d2a3a25c4", "is_reserved": 0}, {"is_disabled": 0, "fusion_lon": 0.0, "fusion_lat": 0.0, "lat": 38.9309915, "type": "electric_scooter", "lon": -77.02474816666667, "bike_id": "55bf78b3e6f38d98b7450bfec53fa052", "rental_uris": {"android": "https://dc.lft.to/lastmile_qr_scan", "ios": "https://dc.lft.to/lastmile_qr_scan"}, "name": "55bf78b3e6f38d98b7450bfec53fa052", "is_reserved": 0}, {"is_disabled": 0, "fusion_lon": 0.0, "fusion_lat": 0.0, "lat": 38.87626316666667, "type": "electric_scooter", "lon": -77.0126065, "bike_id": "a40bb487a0bb5f91eef1ab09dc0e7028", "rental_uris": {"android": "https://dc.lft.to/lastmile_qr_scan", "ios": "https://dc.lft.to/lastmile_qr_scan"}, "name": "a40bb487a0bb5f91eef1ab09dc0e7028", "is_reserved": 0}, {"is_disabled": 0, "fusion_lon": 0.0, "fusion_lat": 0.0, "lat": 38.93246233333333, "type": "electric_scooter", "lon": -77.03414966666666, "bike_id": "135e7e918f3fcfdfa8ce7e09c852e915", "rental_uris": {"android": "https://dc.lft.to/lastmile_qr_scan", "ios": "https://dc.lft.to/lastmile_qr_scan"}, "name": "135e7e918f3fcfdfa8ce7e09c852e915", "is_reserved": 0}, {"is_disabled": 0, "fusion_lon": 0.0, "fusion_lat": 0.0, "lat": 38.91883766666667, "type": "electric_scooter", "lon": -77.04172916666667, "bike_id": "c01661ddb629971f0365bb5ff05d9185", "rental_uris": {"android": "https://dc.lft.to/lastmile_qr_scan", "ios": "https://dc.lft.to/lastmile_qr_scan"}, "name": "c01661ddb629971f0365bb5ff05d9185", "is_reserved": 0}, {"is_disabled": 0, "fusion_lon": 0.0, "fusion_lat": 0.0, "lat": 38.918169666666664, "type": "electric_scooter", "lon": -77.02478683333334, "bike_id": "4db3e33a519aee5c61146450599f6246", "rental_uris": {"android": "https://dc.lft.to/lastmile_qr_scan", "ios": "https://dc.lft.to/lastmile_qr_scan"}, "name": "4db3e33a519aee5c61146450599f6246", "is_reserved": 0}, {"is_disabled": 0, "fusion_lon": 0.0, "fusion_lat": 0.0, "lat": 38.91270166666666, "type": "electric_scooter", "lon": -77.022307, "bike_id": "25e5f09122d707474a4140d0938f0cb3", "rental_uris": {"android": "https://dc.lft.to/lastmile_qr_scan", "ios": "https://dc.lft.to/lastmile_qr_scan"}, "name": "25e5f09122d707474a4140d0938f0cb3", "is_reserved": 0}, {"is_disabled": 0, "fusion_lon": 0.0, "fusion_lat": 0.0, "lat": 38.903090666666664, "type": "electric_scooter", "lon": -77.02368733333333, "bike_id": "6832da1a484738628773d64171cfe46f", "rental_uris": {"android": "https://dc.lft.to/lastmile_qr_scan", "ios": "https://dc.lft.to/lastmile_qr_scan"}, "name": "6832da1a484738628773d64171cfe46f", "is_reserved": 0}, {"is_disabled": 0, "fusion_lon": 0.0, "fusion_lat": 0.0, "lat": 38.946229, "type": "electric_bike", "lon": -76.93413833333334, "bike_id": "ec1c0834d6ab316f6c33841b433da956", "rental_uris": {"android": "https://dc.lft.to/lastmile_qr_scan", "ios": "https://dc.lft.to/lastmile_qr_scan"}, "name": "ec1c0834d6ab316f6c33841b433da956", "is_reserved": 0}, {"is_disabled": 0, "fusion_lon": 0.0, "fusion_lat": 0.0, "lat": 38.917, "type": "electric_scooter", "lon": -77.0401405, "bike_id": "9a772ce8267ca38259b3b2082f3b0fc2", "rental_uris": {"android": "https://dc.lft.to/lastmile_qr_scan", "ios": "https://dc.lft.to/lastmile_qr_scan"}, "name": "9a772ce8267ca38259b3b2082f3b0fc2", "is_reserved": 0}, {"is_disabled": 0, "fusion_lon": 0.0, "fusion_lat": 0.0, "lat": 38.931526166666664, "type": "electric_scooter", "lon": -77.043747, "bike_id": "64e5e85bbb3f1edb755d923df1b3e859", "rental_uris": {"android": "https://dc.lft.to/lastmile_qr_scan", "ios": "https://dc.lft.to/lastmile_qr_scan"}, "name": "64e5e85bbb3f1edb755d923df1b3e859", "is_reserved": 0}, {"is_disabled": 0, "fusion_lon": 0.0, "fusion_lat": 0.0, "lat": 38.90855583333333, "type": "electric_scooter", "lon": -76.99798433333333, "bike_id": "31e5b6f8a81076f599bd95d8a9e612ac", "rental_uris": {"android": "https://dc.lft.to/lastmile_qr_scan", "ios": "https://dc.lft.to/lastmile_qr_scan"}, "name": "31e5b6f8a81076f599bd95d8a9e612ac", "is_reserved": 0}, {"is_disabled": 0, "fusion_lon": 0.0, "fusion_lat": 0.0, "lat": 38.881239666666666, "type": "electric_scooter", "lon": -77.01666083333333, "bike_id": "d02bac7278da0ebc74276248e2ff8b13", "rental_uris": {"android": "https://dc.lft.to/lastmile_qr_scan", "ios": "https://dc.lft.to/lastmile_qr_scan"}, "name": "d02bac7278da0ebc74276248e2ff8b13", "is_reserved": 0}, {"is_disabled": 0, "fusion_lon": 0.0, "fusion_lat": 0.0, "lat": 38.918828, "type": "electric_scooter", "lon": -77.04175333333333, "bike_id": "3d67e0a18619d9fd2020a9b775cf04ff", "rental_uris": {"android": "https://dc.lft.to/lastmile_qr_scan", "ios": "https://dc.lft.to/lastmile_qr_scan"}, "name": "3d67e0a18619d9fd2020a9b775cf04ff", "is_reserved": 0}, {"is_disabled": 0, "fusion_lon": 0.0, "fusion_lat": 0.0, "lat": 38.8874185, "type": "electric_scooter", "lon": -77.02571416666666, "bike_id": "0e7ce8c0130a6b72b010b0ff653e49fc", "rental_uris": {"android": "https://dc.lft.to/lastmile_qr_scan", "ios": "https://dc.lft.to/lastmile_qr_scan"}, "name": "0e7ce8c0130a6b72b010b0ff653e49fc", "is_reserved": 0}, {"is_disabled": 0, "fusion_lon": 0.0, "fusion_lat": 0.0, "lat": 38.8965665, "type": "electric_scooter", "lon": -77.0504195, "bike_id": "a463a4ef95b683a5b2dcfa2b625cfc66", "rental_uris": {"android": "https://dc.lft.to/lastmile_qr_scan", "ios": "https://dc.lft.to/lastmile_qr_scan"}, "name": "a463a4ef95b683a5b2dcfa2b625cfc66", "is_reserved": 0}, {"is_disabled": 0, "fusion_lon": 0.0, "fusion_lat": 0.0, "lat": 38.95612466666667, "type": "electric_scooter", "lon": -77.03278933333333, "bike_id": "6f7a8f17b9b8faffa6646dcb630beb52", "rental_uris": {"android": "https://dc.lft.to/lastmile_qr_scan", "ios": "https://dc.lft.to/lastmile_qr_scan"}, "name": "6f7a8f17b9b8faffa6646dcb630beb52", "is_reserved": 0}, {"is_disabled": 0, "fusion_lon": 0.0, "fusion_lat": 0.0, "lat": 38.91785316666667, "type": "electric_scooter", "lon": -77.03454416666666, "bike_id": "a8ccd4a171ee325ad56fb967d8e2946d", "rental_uris": {"android": "https://dc.lft.to/lastmile_qr_scan", "ios": "https://dc.lft.to/lastmile_qr_scan"}, "name": "a8ccd4a171ee325ad56fb967d8e2946d", "is_reserved": 0}, {"is_disabled": 0, "fusion_lon": 0.0, "fusion_lat": 0.0, "lat": 38.8578165, "type": "electric_bike", "lon": -76.98757166666667, "bike_id": "8508887f8b679fac667f62edfe804ac9", "rental_uris": {"android": "https://dc.lft.to/lastmile_qr_scan", "ios": "https://dc.lft.to/lastmile_qr_scan"}, "name": "8508887f8b679fac667f62edfe804ac9", "is_reserved": 0}, {"is_disabled": 0, "fusion_lon": 0.0, "fusion_lat": 0.0, "lat": 38.9068075, "type": "electric_scooter", "lon": -77.036385, "bike_id": "f69fc60afe6a624dd3d74027ea5767cf", "rental_uris": {"android": "https://dc.lft.to/lastmile_qr_scan", "ios": "https://dc.lft.to/lastmile_qr_scan"}, "name": "f69fc60afe6a624dd3d74027ea5767cf", "is_reserved": 0}, {"is_disabled": 0, "fusion_lon": 0.0, "fusion_lat": 0.0, "lat": 38.91785483333334, "type": "electric_scooter", "lon": -77.02316, "bike_id": "7bedfc8c6d065b610895a17eea4fbc50", "rental_uris": {"android": "https://dc.lft.to/lastmile_qr_scan", "ios": "https://dc.lft.to/lastmile_qr_scan"}, "name": "7bedfc8c6d065b610895a17eea4fbc50", "is_reserved": 0}, {"is_disabled": 0, "fusion_lon": 0.0, "fusion_lat": 0.0, "lat": 38.9042415, "type": "electric_scooter", "lon": -77.02607416666666, "bike_id": "bc282a5082455a006f125403fc4c5a52", "rental_uris": {"android": "https://dc.lft.to/lastmile_qr_scan", "ios": "https://dc.lft.to/lastmile_qr_scan"}, "name": "bc282a5082455a006f125403fc4c5a52", "is_reserved": 0}, {"is_disabled": 0, "fusion_lon": 0.0, "fusion_lat": 0.0, "lat": 38.88002066666667, "type": "electric_bike", "lon": -76.916017, "bike_id": "437e16c95ce30655c6d77e199ed9aab9", "rental_uris": {"android": "https://dc.lft.to/lastmile_qr_scan", "ios": "https://dc.lft.to/lastmile_qr_scan"}, "name": "437e16c95ce30655c6d77e199ed9aab9", "is_reserved": 0}, {"is_disabled": 0, "fusion_lon": 0.0, "fusion_lat": 0.0, "lat": 38.95398983333333, "type": "electric_scooter", "lon": -77.02754833333333, "bike_id": "b2896c5e19911691f086a41aa7146288", "rental_uris": {"android": "https://dc.lft.to/lastmile_qr_scan", "ios": "https://dc.lft.to/lastmile_qr_scan"}, "name": "b2896c5e19911691f086a41aa7146288", "is_reserved": 0}, {"is_disabled": 0, "fusion_lon": 0.0, "fusion_lat": 0.0, "lat": 38.966467333333334, "type": "electric_bike", "lon": -76.93020866666667, "bike_id": "e824f04115b179e877b5858684da6bb6", "rental_uris": {"android": "https://dc.lft.to/lastmile_qr_scan", "ios": "https://dc.lft.to/lastmile_qr_scan"}, "name": "e824f04115b179e877b5858684da6bb6", "is_reserved": 0}, {"is_disabled": 0, "fusion_lon": 0.0, "fusion_lat": 0.0, "lat": 38.92788183333333, "type": "electric_scooter", "lon": -77.03114233333334, "bike_id": "b840b32f95450ab73a6556f85f62aa8f", "rental_uris": {"android": "https://dc.lft.to/lastmile_qr_scan", "ios": "https://dc.lft.to/lastmile_qr_scan"}, "name": "b840b32f95450ab73a6556f85f62aa8f", "is_reserved": 0}, {"is_disabled": 0, "fusion_lon": 0.0, "fusion_lat": 0.0, "lat": 38.90271283333333, "type": "electric_scooter", "lon": -77.0182765, "bike_id": "f81086e3192a6a2a8452611ffa630d3f", "rental_uris": {"android": "https://dc.lft.to/lastmile_qr_scan", "ios": "https://dc.lft.to/lastmile_qr_scan"}, "name": "f81086e3192a6a2a8452611ffa630d3f", "is_reserved": 0}, {"is_disabled": 0, "fusion_lon": 0.0, "fusion_lat": 0.0, "lat": 38.9353805, "type": "electric_scooter", "lon": -77.03405166666667, "bike_id": "c265d0adde17a7f0a16dfcc228608dd8", "rental_uris": {"android": "https://dc.lft.to/lastmile_qr_scan", "ios": "https://dc.lft.to/lastmile_qr_scan"}, "name": "c265d0adde17a7f0a16dfcc228608dd8", "is_reserved": 0}, {"is_disabled": 0, "fusion_lon": 0.0, "fusion_lat": 0.0, "lat": 38.94194066666667, "type": "electric_scooter", "lon": -77.0333245, "bike_id": "85b795ea290276650608bd3c9dd6187e", "rental_uris": {"android": "https://dc.lft.to/lastmile_qr_scan", "ios": "https://dc.lft.to/lastmile_qr_scan"}, "name": "85b795ea290276650608bd3c9dd6187e", "is_reserved": 0}, {"is_disabled": 0, "fusion_lon": 0.0, "fusion_lat": 0.0, "lat": 38.9083915, "type": "electric_scooter", "lon": -77.048929, "bike_id": "c6fb8f4f351bbdee9e2540d875cfdfe8", "rental_uris": {"android": "https://dc.lft.to/lastmile_qr_scan", "ios": "https://dc.lft.to/lastmile_qr_scan"}, "name": "c6fb8f4f351bbdee9e2540d875cfdfe8", "is_reserved": 0}, {"is_disabled": 0, "fusion_lon": 0.0, "fusion_lat": 0.0, "lat": 38.927046, "type": "electric_scooter", "lon": -77.05356933333333, "bike_id": "5d943abd185d4e5446d47fbc427ac714", "rental_uris": {"android": "https://dc.lft.to/lastmile_qr_scan", "ios": "https://dc.lft.to/lastmile_qr_scan"}, "name": "5d943abd185d4e5446d47fbc427ac714", "is_reserved": 0}, {"is_disabled": 0, "fusion_lon": 0.0, "fusion_lat": 0.0, "lat": 38.912174, "type": "electric_scooter", "lon": -77.02715133333334, "bike_id": "46ea557627640c1ef5471f9376ccd8d7", "rental_uris": {"android": "https://dc.lft.to/lastmile_qr_scan", "ios": "https://dc.lft.to/lastmile_qr_scan"}, "name": "46ea557627640c1ef5471f9376ccd8d7", "is_reserved": 0}, {"is_disabled": 0, "fusion_lon": 0.0, "fusion_lat": 0.0, "lat": 38.922165666666665, "type": "electric_scooter", "lon": -77.03294583333333, "bike_id": "7efe27bf518cf109d52ae68158a7a4ae", "rental_uris": {"android": "https://dc.lft.to/lastmile_qr_scan", "ios": "https://dc.lft.to/lastmile_qr_scan"}, "name": "7efe27bf518cf109d52ae68158a7a4ae", "is_reserved": 0}, {"is_disabled": 0, "fusion_lon": 0.0, "fusion_lat": 0.0, "lat": 38.92258533333333, "type": "electric_scooter", "lon": -77.04131833333334, "bike_id": "51457f28db57c801175ebe9866d3ef68", "rental_uris": {"android": "https://dc.lft.to/lastmile_qr_scan", "ios": "https://dc.lft.to/lastmile_qr_scan"}, "name": "51457f28db57c801175ebe9866d3ef68", "is_reserved": 0}, {"is_disabled": 0, "fusion_lon": 0.0, "fusion_lat": 0.0, "lat": 38.92577083333333, "type": "electric_scooter", "lon": -76.99492066666667, "bike_id": "be532c15ba24b9fa95b5e1d34098da08", "rental_uris": {"android": "https://dc.lft.to/lastmile_qr_scan", "ios": "https://dc.lft.to/lastmile_qr_scan"}, "name": "be532c15ba24b9fa95b5e1d34098da08", "is_reserved": 0}, {"is_disabled": 0, "fusion_lon": 0.0, "fusion_lat": 0.0, "lat": 38.91991933333333, "type": "electric_scooter", "lon": -77.02550216666667, "bike_id": "84033348d81acbcc54cb307784e58d51", "rental_uris": {"android": "https://dc.lft.to/lastmile_qr_scan", "ios": "https://dc.lft.to/lastmile_qr_scan"}, "name": "84033348d81acbcc54cb307784e58d51", "is_reserved": 0}, {"is_disabled": 0, "fusion_lon": 0.0, "fusion_lat": 0.0, "lat": 38.90794133333333, "type": "electric_scooter", "lon": -77.049884, "bike_id": "d00ef773efc6f0ebffde7bb648fd3616", "rental_uris": {"android": "https://dc.lft.to/lastmile_qr_scan", "ios": "https://dc.lft.to/lastmile_qr_scan"}, "name": "d00ef773efc6f0ebffde7bb648fd3616", "is_reserved": 0}, {"is_disabled": 0, "fusion_lon": 0.0, "fusion_lat": 0.0, "lat": 38.9076705, "type": "electric_scooter", "lon": -77.0281495, "bike_id": "52450907d2f5152700234d2e2641711b", "rental_uris": {"android": "https://dc.lft.to/lastmile_qr_scan", "ios": "https://dc.lft.to/lastmile_qr_scan"}, "name": "52450907d2f5152700234d2e2641711b", "is_reserved": 0}, {"is_disabled": 0, "fusion_lon": 0.0, "fusion_lat": 0.0, "lat": 38.92132316666667, "type": "electric_bike", "lon": -76.97530716666667, "bike_id": "f1df1b75fad791dc8789801d86f470be", "rental_uris": {"android": "https://dc.lft.to/lastmile_qr_scan", "ios": "https://dc.lft.to/lastmile_qr_scan"}, "name": "f1df1b75fad791dc8789801d86f470be", "is_reserved": 0}, {"is_disabled": 0, "fusion_lon": 0.0, "fusion_lat": 0.0, "lat": 38.87628083333333, "type": "electric_scooter", "lon": -76.96530683333333, "bike_id": "efa8b1d7e719394ee76f7e781273ece6", "rental_uris": {"android": "https://dc.lft.to/lastmile_qr_scan", "ios": "https://dc.lft.to/lastmile_qr_scan"}, "name": "efa8b1d7e719394ee76f7e781273ece6", "is_reserved": 0}, {"is_disabled": 0, "fusion_lon": 0.0, "fusion_lat": 0.0, "lat": 38.9004075, "type": "electric_scooter", "lon": -76.9883675, "bike_id": "ed8b494f82b14101181c7da3fe3722ab", "rental_uris": {"android": "https://dc.lft.to/lastmile_qr_scan", "ios": "https://dc.lft.to/lastmile_qr_scan"}, "name": "ed8b494f82b14101181c7da3fe3722ab", "is_reserved": 0}, {"is_disabled": 0, "fusion_lon": 0.0, "fusion_lat": 0.0, "lat": 38.892278833333336, "type": "electric_scooter", "lon": -77.02590216666667, "bike_id": "88973597cd3c0ac90da4c06a98f65719", "rental_uris": {"android": "https://dc.lft.to/lastmile_qr_scan", "ios": "https://dc.lft.to/lastmile_qr_scan"}, "name": "88973597cd3c0ac90da4c06a98f65719", "is_reserved": 0}, {"is_disabled": 0, "fusion_lon": 0.0, "fusion_lat": 0.0, "lat": 38.920011, "type": "electric_scooter", "lon": -77.03277466666667, "bike_id": "6818514a91c29d35327bc8a05f915029", "rental_uris": {"android": "https://dc.lft.to/lastmile_qr_scan", "ios": "https://dc.lft.to/lastmile_qr_scan"}, "name": "6818514a91c29d35327bc8a05f915029", "is_reserved": 0}, {"is_disabled": 0, "fusion_lon": 0.0, "fusion_lat": 0.0, "lat": 38.905615166666664, "type": "electric_scooter", "lon": -77.03642983333333, "bike_id": "4a61f70cffd9d51e89a4b7b271cb81ee", "rental_uris": {"android": "https://dc.lft.to/lastmile_qr_scan", "ios": "https://dc.lft.to/lastmile_qr_scan"}, "name": "4a61f70cffd9d51e89a4b7b271cb81ee", "is_reserved": 0}, {"is_disabled": 0, "fusion_lon": 0.0, "fusion_lat": 0.0, "lat": 38.842929166666664, "type": "electric_scooter", "lon": -76.99948766666667, "bike_id": "1d37b231a829f931267b2bf54683b840", "rental_uris": {"android": "https://dc.lft.to/lastmile_qr_scan", "ios": "https://dc.lft.to/lastmile_qr_scan"}, "name": "1d37b231a829f931267b2bf54683b840", "is_reserved": 0}, {"is_disabled": 0, "fusion_lon": 0.0, "fusion_lat": 0.0, "lat": 38.908324, "type": "electric_scooter", "lon": -76.997022, "bike_id": "9ca30673f0ff227b5da01c67d8d3a687", "rental_uris": {"android": "https://dc.lft.to/lastmile_qr_scan", "ios": "https://dc.lft.to/lastmile_qr_scan"}, "name": "9ca30673f0ff227b5da01c67d8d3a687", "is_reserved": 0}, {"is_disabled": 0, "fusion_lon": 0.0, "fusion_lat": 0.0, "lat": 38.89729833333333, "type": "electric_scooter", "lon": -77.04680916666666, "bike_id": "417ab1b0ca7421b71a8e5c083851e557", "rental_uris": {"android": "https://dc.lft.to/lastmile_qr_scan", "ios": "https://dc.lft.to/lastmile_qr_scan"}, "name": "417ab1b0ca7421b71a8e5c083851e557", "is_reserved": 0}, {"is_disabled": 0, "fusion_lon": 0.0, "fusion_lat": 0.0, "lat": 39.029992, "type": "electric_bike", "lon": -77.10650966666667, "bike_id": "21f5f69f9a2c0e73e8bb30df28876ec8", "rental_uris": {"android": "https://dc.lft.to/lastmile_qr_scan", "ios": "https://dc.lft.to/lastmile_qr_scan"}, "name": "21f5f69f9a2c0e73e8bb30df28876ec8", "is_reserved": 0}, {"is_disabled": 0, "fusion_lon": 0.0, "fusion_lat": 0.0, "lat": 38.914163333333335, "type": "electric_scooter", "lon": -77.02232733333334, "bike_id": "c50aeb6de4629665deedb2be0d254336", "rental_uris": {"android": "https://dc.lft.to/lastmile_qr_scan", "ios": "https://dc.lft.to/lastmile_qr_scan"}, "name": "c50aeb6de4629665deedb2be0d254336", "is_reserved": 0}, {"is_disabled": 0, "fusion_lon": 0.0, "fusion_lat": 0.0, "lat": 38.93715433333333, "type": "electric_scooter", "lon": -77.03355133333334, "bike_id": "8cbd54c40e2da4e773013a3e9db8b78e", "rental_uris": {"android": "https://dc.lft.to/lastmile_qr_scan", "ios": "https://dc.lft.to/lastmile_qr_scan"}, "name": "8cbd54c40e2da4e773013a3e9db8b78e", "is_reserved": 0}, {"is_disabled": 0, "fusion_lon": 0.0, "fusion_lat": 0.0, "lat": 38.911852833333334, "type": "electric_scooter", "lon": -77.01880183333333, "bike_id": "380121b53db7cb646a3568ecdce9c95e", "rental_uris": {"android": "https://dc.lft.to/lastmile_qr_scan", "ios": "https://dc.lft.to/lastmile_qr_scan"}, "name": "380121b53db7cb646a3568ecdce9c95e", "is_reserved": 0}, {"is_disabled": 0, "fusion_lon": 0.0, "fusion_lat": 0.0, "lat": 38.9205505, "type": "electric_scooter", "lon": -77.02365633333334, "bike_id": "f22f18d54db4c0356e9140b90cc590b3", "rental_uris": {"android": "https://dc.lft.to/lastmile_qr_scan", "ios": "https://dc.lft.to/lastmile_qr_scan"}, "name": "f22f18d54db4c0356e9140b90cc590b3", "is_reserved": 0}, {"is_disabled": 0, "fusion_lon": 0.0, "fusion_lat": 0.0, "lat": 38.94034883333333, "type": "electric_scooter", "lon": -77.02515516666666, "bike_id": "84d6441cceda12946581104e1e95a948", "rental_uris": {"android": "https://dc.lft.to/lastmile_qr_scan", "ios": "https://dc.lft.to/lastmile_qr_scan"}, "name": "84d6441cceda12946581104e1e95a948", "is_reserved": 0}, {"is_disabled": 0, "fusion_lon": 0.0, "fusion_lat": 0.0, "lat": 38.92884333333333, "type": "electric_scooter", "lon": -77.03235616666667, "bike_id": "b0cf21928c39e49fc7e56ae52d3f2073", "rental_uris": {"android": "https://dc.lft.to/lastmile_qr_scan", "ios": "https://dc.lft.to/lastmile_qr_scan"}, "name": "b0cf21928c39e49fc7e56ae52d3f2073", "is_reserved": 0}, {"is_disabled": 0, "fusion_lon": 0.0, "fusion_lat": 0.0, "lat": 38.9053275, "type": "electric_scooter", "lon": -77.05095033333333, "bike_id": "5c4d81fa5c73796f1ba5553c5f541a4d", "rental_uris": {"android": "https://dc.lft.to/lastmile_qr_scan", "ios": "https://dc.lft.to/lastmile_qr_scan"}, "name": "5c4d81fa5c73796f1ba5553c5f541a4d", "is_reserved": 0}, {"is_disabled": 0, "fusion_lon": 0.0, "fusion_lat": 0.0, "lat": 38.91055983333333, "type": "electric_scooter", "lon": -77.04271283333334, "bike_id": "b91732b78a5ed4f814442bb7a953941f", "rental_uris": {"android": "https://dc.lft.to/lastmile_qr_scan", "ios": "https://dc.lft.to/lastmile_qr_scan"}, "name": "b91732b78a5ed4f814442bb7a953941f", "is_reserved": 0}, {"is_disabled": 0, "fusion_lon": 0.0, "fusion_lat": 0.0, "lat": 38.985608666666664, "type": "electric_bike", "lon": -76.9882955, "bike_id": "1f94e0ad7e5cc67dda1461af2f08b759", "rental_uris": {"android": "https://dc.lft.to/lastmile_qr_scan", "ios": "https://dc.lft.to/lastmile_qr_scan"}, "name": "1f94e0ad7e5cc67dda1461af2f08b759", "is_reserved": 0}, {"is_disabled": 0, "fusion_lon": 0.0, "fusion_lat": 0.0, "lat": 38.899493666666665, "type": "electric_scooter", "lon": -77.05218616666667, "bike_id": "8fe54f9795ad0e602a7e59167723ce21", "rental_uris": {"android": "https://dc.lft.to/lastmile_qr_scan", "ios": "https://dc.lft.to/lastmile_qr_scan"}, "name": "8fe54f9795ad0e602a7e59167723ce21", "is_reserved": 0}, {"is_disabled": 0, "fusion_lon": 0.0, "fusion_lat": 0.0, "lat": 38.91687816666666, "type": "electric_scooter", "lon": -76.980905, "bike_id": "3858fe5d5291b7868660da89dd7c2a74", "rental_uris": {"android": "https://dc.lft.to/lastmile_qr_scan", "ios": "https://dc.lft.to/lastmile_qr_scan"}, "name": "3858fe5d5291b7868660da89dd7c2a74", "is_reserved": 0}, {"is_disabled": 0, "fusion_lon": 0.0, "fusion_lat": 0.0, "lat": 38.918576, "type": "electric_scooter", "lon": -77.04164583333333, "bike_id": "0a4da66d841e4b2e53927e4a42df070f", "rental_uris": {"android": "https://dc.lft.to/lastmile_qr_scan", "ios": "https://dc.lft.to/lastmile_qr_scan"}, "name": "0a4da66d841e4b2e53927e4a42df070f", "is_reserved": 0}, {"is_disabled": 0, "fusion_lon": 0.0, "fusion_lat": 0.0, "lat": 38.9073535, "type": "electric_scooter", "lon": -77.0236665, "bike_id": "1346b80a6eadb142c60a6bcc555db480", "rental_uris": {"android": "https://dc.lft.to/lastmile_qr_scan", "ios": "https://dc.lft.to/lastmile_qr_scan"}, "name": "1346b80a6eadb142c60a6bcc555db480", "is_reserved": 0}, {"is_disabled": 0, "fusion_lon": 0.0, "fusion_lat": 0.0, "lat": 38.9181945, "type": "electric_scooter", "lon": -77.01213366666667, "bike_id": "c1422c28079b2e1d348b25b5666a9c5d", "rental_uris": {"android": "https://dc.lft.to/lastmile_qr_scan", "ios": "https://dc.lft.to/lastmile_qr_scan"}, "name": "c1422c28079b2e1d348b25b5666a9c5d", "is_reserved": 0}, {"is_disabled": 0, "fusion_lon": 0.0, "fusion_lat": 0.0, "lat": 38.901391833333335, "type": "electric_scooter", "lon": -77.0178645, "bike_id": "95d3a4e290ad8398587226e888d61a3a", "rental_uris": {"android": "https://dc.lft.to/lastmile_qr_scan", "ios": "https://dc.lft.to/lastmile_qr_scan"}, "name": "95d3a4e290ad8398587226e888d61a3a", "is_reserved": 0}, {"is_disabled": 0, "fusion_lon": 0.0, "fusion_lat": 0.0, "lat": 38.8451125, "type": "electric_bike", "lon": -77.07795683333333, "bike_id": "f65d25874472c6e66e23d2e86efd2c50", "rental_uris": {"android": "https://dc.lft.to/lastmile_qr_scan", "ios": "https://dc.lft.to/lastmile_qr_scan"}, "name": "f65d25874472c6e66e23d2e86efd2c50", "is_reserved": 0}, {"is_disabled": 0, "fusion_lon": 0.0, "fusion_lat": 0.0, "lat": 38.924676833333336, "type": "electric_scooter", "lon": -77.02987883333333, "bike_id": "e91efcf3347276105c8b9fb324469e81", "rental_uris": {"android": "https://dc.lft.to/lastmile_qr_scan", "ios": "https://dc.lft.to/lastmile_qr_scan"}, "name": "e91efcf3347276105c8b9fb324469e81", "is_reserved": 0}, {"is_disabled": 0, "fusion_lon": 0.0, "fusion_lat": 0.0, "lat": 38.920511, "type": "electric_scooter", "lon": -77.026121, "bike_id": "22fe6595c5bbfc3662608fbb2676c641", "rental_uris": {"android": "https://dc.lft.to/lastmile_qr_scan", "ios": "https://dc.lft.to/lastmile_qr_scan"}, "name": "22fe6595c5bbfc3662608fbb2676c641", "is_reserved": 0}, {"is_disabled": 0, "fusion_lon": 0.0, "fusion_lat": 0.0, "lat": 38.90834516666666, "type": "electric_scooter", "lon": -76.99702583333334, "bike_id": "18a7838c979ef46e518a17882e58e653", "rental_uris": {"android": "https://dc.lft.to/lastmile_qr_scan", "ios": "https://dc.lft.to/lastmile_qr_scan"}, "name": "18a7838c979ef46e518a17882e58e653", "is_reserved": 0}, {"is_disabled": 0, "fusion_lon": 0.0, "fusion_lat": 0.0, "lat": 38.9021695, "type": "electric_scooter", "lon": -77.02366816666667, "bike_id": "34d589a6b3f07fef6e9042b86c636b3e", "rental_uris": {"android": "https://dc.lft.to/lastmile_qr_scan", "ios": "https://dc.lft.to/lastmile_qr_scan"}, "name": "34d589a6b3f07fef6e9042b86c636b3e", "is_reserved": 0}, {"is_disabled": 0, "fusion_lon": 0.0, "fusion_lat": 0.0, "lat": 38.90582533333333, "type": "electric_scooter", "lon": -77.03361083333333, "bike_id": "e449609b5466600873afab3e4e264d26", "rental_uris": {"android": "https://dc.lft.to/lastmile_qr_scan", "ios": "https://dc.lft.to/lastmile_qr_scan"}, "name": "e449609b5466600873afab3e4e264d26", "is_reserved": 0}, {"is_disabled": 0, "fusion_lon": 0.0, "fusion_lat": 0.0, "lat": 38.90733766666666, "type": "electric_scooter", "lon": -77.0295385, "bike_id": "1e16a51cf9126b756d16f215bbefa906", "rental_uris": {"android": "https://dc.lft.to/lastmile_qr_scan", "ios": "https://dc.lft.to/lastmile_qr_scan"}, "name": "1e16a51cf9126b756d16f215bbefa906", "is_reserved": 0}, {"is_disabled": 0, "fusion_lon": 0.0, "fusion_lat": 0.0, "lat": 38.90355066666667, "type": "electric_scooter", "lon": -77.06268716666666, "bike_id": "76b9f4e7bae83ec28a14528f1afd97b1", "rental_uris": {"android": "https://dc.lft.to/lastmile_qr_scan", "ios": "https://dc.lft.to/lastmile_qr_scan"}, "name": "76b9f4e7bae83ec28a14528f1afd97b1", "is_reserved": 0}, {"is_disabled": 0, "fusion_lon": 0.0, "fusion_lat": 0.0, "lat": 38.89957716666667, "type": "electric_scooter", "lon": -77.0461185, "bike_id": "86bcbed91b19c561e5d1dd06d7ed2f08", "rental_uris": {"android": "https://dc.lft.to/lastmile_qr_scan", "ios": "https://dc.lft.to/lastmile_qr_scan"}, "name": "86bcbed91b19c561e5d1dd06d7ed2f08", "is_reserved": 0}, {"is_disabled": 0, "fusion_lon": 0.0, "fusion_lat": 0.0, "lat": 38.900483, "type": "electric_scooter", "lon": -77.0007605, "bike_id": "28010b4537aa9dd4055f1ab84c808f52", "rental_uris": {"android": "https://dc.lft.to/lastmile_qr_scan", "ios": "https://dc.lft.to/lastmile_qr_scan"}, "name": "28010b4537aa9dd4055f1ab84c808f52", "is_reserved": 0}, {"is_disabled": 0, "fusion_lon": 0.0, "fusion_lat": 0.0, "lat": 38.898428333333335, "type": "electric_scooter", "lon": -76.946367, "bike_id": "b9464dc7200aa0b1d5dd47e6544ca401", "rental_uris": {"android": "https://dc.lft.to/lastmile_qr_scan", "ios": "https://dc.lft.to/lastmile_qr_scan"}, "name": "b9464dc7200aa0b1d5dd47e6544ca401", "is_reserved": 0}, {"is_disabled": 0, "fusion_lon": 0.0, "fusion_lat": 0.0, "lat": 38.901615666666665, "type": "electric_scooter", "lon": -77.02210433333333, "bike_id": "2b97afcfed44c4cc8f1823635244ff22", "rental_uris": {"android": "https://dc.lft.to/lastmile_qr_scan", "ios": "https://dc.lft.to/lastmile_qr_scan"}, "name": "2b97afcfed44c4cc8f1823635244ff22", "is_reserved": 0}, {"is_disabled": 0, "fusion_lon": 0.0, "fusion_lat": 0.0, "lat": 38.912258333333334, "type": "electric_scooter", "lon": -77.032079, "bike_id": "04dd2735afa40f51e271d7d2257d9522", "rental_uris": {"android": "https://dc.lft.to/lastmile_qr_scan", "ios": "https://dc.lft.to/lastmile_qr_scan"}, "name": "04dd2735afa40f51e271d7d2257d9522", "is_reserved": 0}, {"is_disabled": 0, "fusion_lon": 0.0, "fusion_lat": 0.0, "lat": 38.919980333333335, "type": "electric_scooter", "lon": -77.02413383333334, "bike_id": "48d06b0c54e940449a5211adeb7b0ca4", "rental_uris": {"android": "https://dc.lft.to/lastmile_qr_scan", "ios": "https://dc.lft.to/lastmile_qr_scan"}, "name": "48d06b0c54e940449a5211adeb7b0ca4", "is_reserved": 0}, {"is_disabled": 0, "fusion_lon": 0.0, "fusion_lat": 0.0, "lat": 38.8930625, "type": "electric_scooter", "lon": -77.0123425, "bike_id": "992a2fdfe7532e1df2ee2871da3fbe9b", "rental_uris": {"android": "https://dc.lft.to/lastmile_qr_scan", "ios": "https://dc.lft.to/lastmile_qr_scan"}, "name": "992a2fdfe7532e1df2ee2871da3fbe9b", "is_reserved": 0}, {"is_disabled": 0, "fusion_lon": 0.0, "fusion_lat": 0.0, "lat": 38.921071166666664, "type": "electric_scooter", "lon": -77.030534, "bike_id": "acf335907edda397eae946b6b1de658a", "rental_uris": {"android": "https://dc.lft.to/lastmile_qr_scan", "ios": "https://dc.lft.to/lastmile_qr_scan"}, "name": "acf335907edda397eae946b6b1de658a", "is_reserved": 0}, {"is_disabled": 0, "fusion_lon": 0.0, "fusion_lat": 0.0, "lat": 38.91344766666667, "type": "electric_scooter", "lon": -77.03210916666667, "bike_id": "8cf9663c11bf78fe441ded1c1eb6aca5", "rental_uris": {"android": "https://dc.lft.to/lastmile_qr_scan", "ios": "https://dc.lft.to/lastmile_qr_scan"}, "name": "8cf9663c11bf78fe441ded1c1eb6aca5", "is_reserved": 0}, {"is_disabled": 0, "fusion_lon": 0.0, "fusion_lat": 0.0, "lat": 38.902421333333336, "type": "electric_scooter", "lon": -77.00209516666666, "bike_id": "4ffbd256cc574f33f4e267c8818aec5e", "rental_uris": {"android": "https://dc.lft.to/lastmile_qr_scan", "ios": "https://dc.lft.to/lastmile_qr_scan"}, "name": "4ffbd256cc574f33f4e267c8818aec5e", "is_reserved": 0}, {"is_disabled": 0, "fusion_lon": 0.0, "fusion_lat": 0.0, "lat": 38.91088466666667, "type": "electric_scooter", "lon": -77.03855533333333, "bike_id": "521ab7f67e66cb042c4024448ac0784d", "rental_uris": {"android": "https://dc.lft.to/lastmile_qr_scan", "ios": "https://dc.lft.to/lastmile_qr_scan"}, "name": "521ab7f67e66cb042c4024448ac0784d", "is_reserved": 0}, {"is_disabled": 0, "fusion_lon": 0.0, "fusion_lat": 0.0, "lat": 38.908244833333335, "type": "electric_scooter", "lon": -77.04172233333334, "bike_id": "0b750e5e1d586ccf00f856e70c2861f1", "rental_uris": {"android": "https://dc.lft.to/lastmile_qr_scan", "ios": "https://dc.lft.to/lastmile_qr_scan"}, "name": "0b750e5e1d586ccf00f856e70c2861f1", "is_reserved": 0}, {"is_disabled": 0, "fusion_lon": 0.0, "fusion_lat": 0.0, "lat": 38.876332, "type": "electric_scooter", "lon": -77.01569016666667, "bike_id": "11fae1ced36ec370c071f73d360e0d48", "rental_uris": {"android": "https://dc.lft.to/lastmile_qr_scan", "ios": "https://dc.lft.to/lastmile_qr_scan"}, "name": "11fae1ced36ec370c071f73d360e0d48", "is_reserved": 0}, {"is_disabled": 0, "fusion_lon": 0.0, "fusion_lat": 0.0, "lat": 38.9315315, "type": "electric_scooter", "lon": -77.03450066666667, "bike_id": "8706e3c4992689df1348ea51a6e4e16f", "rental_uris": {"android": "https://dc.lft.to/lastmile_qr_scan", "ios": "https://dc.lft.to/lastmile_qr_scan"}, "name": "8706e3c4992689df1348ea51a6e4e16f", "is_reserved": 0}, {"is_disabled": 0, "fusion_lon": 0.0, "fusion_lat": 0.0, "lat": 38.95309433333333, "type": "electric_scooter", "lon": -77.03601383333333, "bike_id": "833ceebaebc2cec5665d22d778bffde0", "rental_uris": {"android": "https://dc.lft.to/lastmile_qr_scan", "ios": "https://dc.lft.to/lastmile_qr_scan"}, "name": "833ceebaebc2cec5665d22d778bffde0", "is_reserved": 0}, {"is_disabled": 0, "fusion_lon": 0.0, "fusion_lat": 0.0, "lat": 38.93094966666666, "type": "electric_scooter", "lon": -77.025079, "bike_id": "6354ba96a920eab84f163b173bc49d37", "rental_uris": {"android": "https://dc.lft.to/lastmile_qr_scan", "ios": "https://dc.lft.to/lastmile_qr_scan"}, "name": "6354ba96a920eab84f163b173bc49d37", "is_reserved": 0}, {"is_disabled": 0, "fusion_lon": 0.0, "fusion_lat": 0.0, "lat": 38.90392133333334, "type": "electric_scooter", "lon": -77.02807283333334, "bike_id": "fe7803b4b9665de565444eadc6e36ae9", "rental_uris": {"android": "https://dc.lft.to/lastmile_qr_scan", "ios": "https://dc.lft.to/lastmile_qr_scan"}, "name": "fe7803b4b9665de565444eadc6e36ae9", "is_reserved": 0}, {"is_disabled": 0, "fusion_lon": 0.0, "fusion_lat": 0.0, "lat": 38.901491666666665, "type": "electric_scooter", "lon": -77.0398975, "bike_id": "3e955c5a930ab2b5e435509d7f107463", "rental_uris": {"android": "https://dc.lft.to/lastmile_qr_scan", "ios": "https://dc.lft.to/lastmile_qr_scan"}, "name": "3e955c5a930ab2b5e435509d7f107463", "is_reserved": 0}, {"is_disabled": 0, "fusion_lon": 0.0, "fusion_lat": 0.0, "lat": 38.89356333333333, "type": "electric_scooter", "lon": -76.9847215, "bike_id": "c0cfb14a2756b287d07f99e300b8e48e", "rental_uris": {"android": "https://dc.lft.to/lastmile_qr_scan", "ios": "https://dc.lft.to/lastmile_qr_scan"}, "name": "c0cfb14a2756b287d07f99e300b8e48e", "is_reserved": 0}, {"is_disabled": 0, "fusion_lon": 0.0, "fusion_lat": 0.0, "lat": 38.887402, "type": "electric_scooter", "lon": -77.0153435, "bike_id": "7c5e78888a20672b453b0aa026f8d33e", "rental_uris": {"android": "https://dc.lft.to/lastmile_qr_scan", "ios": "https://dc.lft.to/lastmile_qr_scan"}, "name": "7c5e78888a20672b453b0aa026f8d33e", "is_reserved": 0}, {"is_disabled": 0, "fusion_lon": 0.0, "fusion_lat": 0.0, "lat": 38.9002395, "type": "electric_scooter", "lon": -77.0020315, "bike_id": "b9dae14708b266e36bbfd9c41e4a6531", "rental_uris": {"android": "https://dc.lft.to/lastmile_qr_scan", "ios": "https://dc.lft.to/lastmile_qr_scan"}, "name": "b9dae14708b266e36bbfd9c41e4a6531", "is_reserved": 0}, {"is_disabled": 0, "fusion_lon": 0.0, "fusion_lat": 0.0, "lat": 38.9154425, "type": "electric_scooter", "lon": -77.03856116666667, "bike_id": "7ce4331222bafc9216e5c4cdbc995e6e", "rental_uris": {"android": "https://dc.lft.to/lastmile_qr_scan", "ios": "https://dc.lft.to/lastmile_qr_scan"}, "name": "7ce4331222bafc9216e5c4cdbc995e6e", "is_reserved": 0}, {"is_disabled": 0, "fusion_lon": 0.0, "fusion_lat": 0.0, "lat": 38.914102, "type": "electric_scooter", "lon": -77.03997583333333, "bike_id": "640616edb423c6bce3d3507725994507", "rental_uris": {"android": "https://dc.lft.to/lastmile_qr_scan", "ios": "https://dc.lft.to/lastmile_qr_scan"}, "name": "640616edb423c6bce3d3507725994507", "is_reserved": 0}, {"is_disabled": 0, "fusion_lon": 0.0, "fusion_lat": 0.0, "lat": 38.90140316666667, "type": "electric_scooter", "lon": -77.02564716666667, "bike_id": "5c295b1f8d864789cfc2e19345291f44", "rental_uris": {"android": "https://dc.lft.to/lastmile_qr_scan", "ios": "https://dc.lft.to/lastmile_qr_scan"}, "name": "5c295b1f8d864789cfc2e19345291f44", "is_reserved": 0}, {"is_disabled": 0, "fusion_lon": 0.0, "fusion_lat": 0.0, "lat": 38.9073585, "type": "electric_scooter", "lon": -77.03448516666667, "bike_id": "ec11f1f2347baa4c7b26c1179d638451", "rental_uris": {"android": "https://dc.lft.to/lastmile_qr_scan", "ios": "https://dc.lft.to/lastmile_qr_scan"}, "name": "ec11f1f2347baa4c7b26c1179d638451", "is_reserved": 0}, {"is_disabled": 0, "fusion_lon": 0.0, "fusion_lat": 0.0, "lat": 38.904972, "type": "electric_scooter", "lon": -77.0343825, "bike_id": "b8b4ced13e92fa9ec0832f3aa881d13a", "rental_uris": {"android": "https://dc.lft.to/lastmile_qr_scan", "ios": "https://dc.lft.to/lastmile_qr_scan"}, "name": "b8b4ced13e92fa9ec0832f3aa881d13a", "is_reserved": 0}, {"is_disabled": 0, "fusion_lon": 0.0, "fusion_lat": 0.0, "lat": 38.918128, "type": "electric_scooter", "lon": -77.02479766666667, "bike_id": "679abf48fc6d32d5d2e6308113dc2c45", "rental_uris": {"android": "https://dc.lft.to/lastmile_qr_scan", "ios": "https://dc.lft.to/lastmile_qr_scan"}, "name": "679abf48fc6d32d5d2e6308113dc2c45", "is_reserved": 0}, {"is_disabled": 0, "fusion_lon": 0.0, "fusion_lat": 0.0, "lat": 38.9247445, "type": "electric_scooter", "lon": -77.02817583333334, "bike_id": "9317592ba48e42c9a4914f3af804e32f", "rental_uris": {"android": "https://dc.lft.to/lastmile_qr_scan", "ios": "https://dc.lft.to/lastmile_qr_scan"}, "name": "9317592ba48e42c9a4914f3af804e32f", "is_reserved": 0},