{"data": {"bikes": [{"bike_id": "63aa35f03482865d32c3e2c332169b1a", "fusion_lon": 0.0, "lon": -77.02374783333333, "name": "63aa35f03482865d32c3e2c332169b1a", "is_disabled": 0, "rental_uris": {"android": "https://dc.lft.to/lastmile_qr_scan", "ios": "https://dc.lft.to/lastmile_qr_scan"}, "type": "electric_scooter", "lat": 38.9019995, "is_reserved": 0, "fusion_lat": 0.0}, {"bike_id": "64c04b93773313b7a123702a8f6a3d80", "fusion_lon": 0.0, "lon": -76.9950245, "name": "64c04b93773313b7a123702a8f6a3d80", "is_disabled": 0, "rental_uris": {"android": "https://dc.lft.to/lastmile_qr_scan", "ios": "https://dc.lft.to/lastmile_qr_scan"}, "type": "electric_scooter", "lat": 38.898994, "is_reserved": 0, "fusion_lat": 0.0}, {"bike_id": "bf728e371843076696267fae566b5479", "fusion_lon": 0.0, "lon": -76.98833366666666, "name": "bf728e371843076696267fae566b5479", "is_disabled": 0, "rental_uris": {"android": "https://dc.lft.to/lastmile_qr_scan", "ios": "https://dc.lft.to/lastmile_qr_scan"}, "type": "electric_scooter", "lat": 38.90025416666667, "is_reserved": 0, "fusion_lat": 0.0}, {"bike_id": "3f0ca8784c831754346c0a7167505d95", "fusion_lon": 0.0, "lon": -77.04484516666666, "name": "3f0ca8784c831754346c0a7167505d95", "is_disabled": 0, "rental_uris": {"android": "https://dc.lft.to/lastmile_qr_scan", "ios": "https://dc.lft.to/lastmile_qr_scan"}, "type": "electric_bike", "lat": 38.90425883333333, "is_reserved": 0, "fusion_lat": 0.0}, {"bike_id": "43025cb1a7a2f5be64199cacd398808c", "fusion_lon": 0.0, "lon": -77.02591133333334, "name": "43025cb1a7a2f5be64199cacd398808c", "is_disabled": 0, "rental_uris": {"android": "https://dc.lft.to/lastmile_qr_scan", "ios": "https://dc.lft.to/lastmile_qr_scan"}, "type": "electric_scooter", "lat": 38.96393183333333, "is_reserved": 0, "fusion_lat": 0.0}, {"bike_id": "532f2c9da60f110a37ec899fcafd5c18", "fusion_lon": 0.0, "lon": -77.03474883333334, "name": "532f2c9da60f110a37ec899fcafd5c18", "is_disabled": 0, "rental_uris": {"android": "https://dc.lft.to/lastmile_qr_scan", "ios": "https://dc.lft.to/lastmile_qr_scan"}, "type": "electric_scooter", "lat": 38.902783666666664, "is_reserved": 0, "fusion_lat": 0.0}, {"bike_id": "69e3af6ada6bd77da609e7b60948108b", "fusion_lon": 0.0, "lon": -77.02086966666667, "name": "69e3af6ada6bd77da609e7b60948108b", "is_disabled": 0, "rental_uris": {"android": "https://dc.lft.to/lastmile_qr_scan", "ios": "https://dc.lft.to/lastmile_qr_scan"}, "type": "electric_scooter", "lat": 38.927086333333335, "is_reserved": 0, "fusion_lat": 0.0}, {"bike_id": "e0551636d16b781d4d94211ba5c6c708", "fusion_lon": 0.0, "lon": -76.9463725, "name": "e0551636d16b781d4d94211ba5c6c708", "is_disabled": 0, "rental_uris": {"android": "https://dc.lft.to/lastmile_qr_scan", "ios": "https://dc.lft.to/lastmile_qr_scan"}, "type": "electric_scooter", "lat": 38.898425, "is_reserved": 0, "fusion_lat": 0.0}, {"bike_id": "28a727f46b26281c9888a644ca01c195", "fusion_lon": 0.0, "lon": -76.98603133333333, "name": "28a727f46b26281c9888a644ca01c195", "is_disabled": 0, "rental_uris": {"android": "https://dc.lft.to/lastmile_qr_scan", "ios": "https://dc.lft.to/lastmile_qr_scan"}, "type": "electric_scooter", "lat": 38.86518733333333, "is_reserved": 0, "fusion_lat": 0.0}, {"bike_id": "8ce205c492c57b81e94963918a49f925", "fusion_lon": 0.0, "lon": -77.12527783333333, "name": "8ce205c492c57b81e94963918a49f925", "is_disabled": 0, "rental_uris": {"android": "https://dc.lft.to/lastmile_qr_scan", "ios": "https://dc.lft.to/lastmile_qr_scan"}, "type": "electric_bike", "lat": 39.056298166666664, "is_reserved": 0, "fusion_lat": 0.0}, {"bike_id": "56907f4e580ef45c513c22bf5aa8cedb", "fusion_lon": 0.0, "lon": -77.03866433333333, "name": "56907f4e580ef45c513c22bf5aa8cedb", "is_disabled": 0, "rental_uris": {"android": "https://dc.lft.to/lastmile_qr_scan", "ios": "https://dc.lft.to/lastmile_qr_scan"}, "type": "electric_scooter", "lat": 38.921469333333334, "is_reserved": 0, "fusion_lat": 0.0}, {"bike_id": "4a8fe5712c1b37d8a6ef472e24a57dd7", "fusion_lon": 0.0, "lon": -77.015313, "name": "4a8fe5712c1b37d8a6ef472e24a57dd7", "is_disabled": 0, "rental_uris": {"android": "https://dc.lft.to/lastmile_qr_scan", "ios": "https://dc.lft.to/lastmile_qr_scan"}, "type": "electric_scooter", "lat": 38.8840235, "is_reserved": 0, "fusion_lat": 0.0}, {"bike_id": "2b2bc628679e35eb103501df6f066bdc", "fusion_lon": 0.0, "lon": -77.02962466666666, "name": "2b2bc628679e35eb103501df6f066bdc", "is_disabled": 0, "rental_uris": {"android": "https://dc.lft.to/lastmile_qr_scan", "ios": "https://dc.lft.to/lastmile_qr_scan"}, "type": "electric_scooter", "lat": 38.923363333333334, "is_reserved": 0, "fusion_lat": 0.0}, {"bike_id": "0ad8b35a98e5b58a48495adf3fd69f0f", "fusion_lon": 0.0, "lon": -77.00793583333333, "name": "0ad8b35a98e5b58a48495adf3fd69f0f", "is_disabled": 0, "rental_uris": {"android": "https://dc.lft.to/lastmile_qr_scan", "ios": "https://dc.lft.to/lastmile_qr_scan"}, "type": "electric_bike", "lat": 38.94915733333333, "is_reserved": 0, "fusion_lat": 0.0}, {"bike_id": "1d0ee157341604b16e51d16157ceaa36", "fusion_lon": 0.0, "lon": -77.02516933333334, "name": "1d0ee157341604b16e51d16157ceaa36", "is_disabled": 0, "rental_uris": {"android": "https://dc.lft.to/lastmile_qr_scan", "ios": "https://dc.lft.to/lastmile_qr_scan"}, "type": "electric_scooter", "lat": 38.8982585, "is_reserved": 0, "fusion_lat": 0.0}, {"bike_id": "1f43c1a42d4c31702ec0d272f76aa0b1", "fusion_lon": 0.0, "lon": -77.07686066666666, "name": "1f43c1a42d4c31702ec0d272f76aa0b1", "is_disabled": 0, "rental_uris": {"android": "https://dc.lft.to/lastmile_qr_scan", "ios": "https://dc.lft.to/lastmile_qr_scan"}, "type": "electric_bike", "lat": 38.8407675, "is_reserved": 0, "fusion_lat": 0.0}, {"bike_id": "9f88ae16b224bcd246ef2c2a39426641", "fusion_lon": 0.0, "lon": -77.046031, "name": "9f88ae16b224bcd246ef2c2a39426641", "is_disabled": 0, "rental_uris": {"android": "https://dc.lft.to/lastmile_qr_scan", "ios": "https://dc.lft.to/lastmile_qr_scan"}, "type": "electric_scooter", "lat": 38.91720083333333, "is_reserved": 0, "fusion_lat": 0.0}, {"bike_id": "7ab79624247bb4d0c39243ed27add2c8", "fusion_lon": 0.0, "lon": -77.036439, "name": "7ab79624247bb4d0c39243ed27add2c8", "is_disabled": 0, "rental_uris": {"android": "https://dc.lft.to/lastmile_qr_scan", "ios": "https://dc.lft.to/lastmile_qr_scan"}, "type": "electric_scooter", "lat": 38.923463166666664, "is_reserved": 0, "fusion_lat": 0.0}, {"bike_id": "c8454ee8dcc0b6e1c6befb8a467fc534", "fusion_lon": 0.0, "lon": -76.99031366666667, "name": "c8454ee8dcc0b6e1c6befb8a467fc534", "is_disabled": 0, "rental_uris": {"android": "https://dc.lft.to/lastmile_qr_scan", "ios": "https://dc.lft.to/lastmile_qr_scan"}, "type": "electric_scooter", "lat": 38.901832666666664, "is_reserved": 0, "fusion_lat": 0.0}, {"bike_id": "6550a222ad057b2c2442512aefaa1d33", "fusion_lon": 0.0, "lon": -77.02958283333334, "name": "6550a222ad057b2c2442512aefaa1d33", "is_disabled": 0, "rental_uris": {"android": "https://dc.lft.to/lastmile_qr_scan", "ios": "https://dc.lft.to/lastmile_qr_scan"}, "type": "electric_scooter", "lat": 38.904940333333336, "is_reserved": 0, "fusion_lat": 0.0}, {"bike_id": "27a4fdb284886ecf3261fda75a5f7c57", "fusion_lon": 0.0, "lon": -77.005665, "name": "27a4fdb284886ecf3261fda75a5f7c57", "is_disabled": 0, "rental_uris": {"android": "https://dc.lft.to/lastmile_qr_scan", "ios": "https://dc.lft.to/lastmile_qr_scan"}, "type": "electric_scooter", "lat": 38.905344166666666, "is_reserved": 0, "fusion_lat": 0.0}, {"bike_id": "6fad84e718cab96804ecf320f39ddf51", "fusion_lon": 0.0, "lon": -77.02198516666667, "name": "6fad84e718cab96804ecf320f39ddf51", "is_disabled": 0, "rental_uris": {"android": "https://dc.lft.to/lastmile_qr_scan", "ios": "https://dc.lft.to/lastmile_qr_scan"}, "type": "electric_scooter", "lat": 38.911062333333334, "is_reserved": 0, "fusion_lat": 0.0}, {"bike_id": "cf27a4ad17a858b762845a9e68d92199", "fusion_lon": 0.0, "lon": -77.02532683333334, "name": "cf27a4ad17a858b762845a9e68d92199", "is_disabled": 0, "rental_uris": {"android": "https://dc.lft.to/lastmile_qr_scan", "ios": "https://dc.lft.to/lastmile_qr_scan"}, "type": "electric_scooter", "lat": 38.90960416666667, "is_reserved": 0, "fusion_lat": 0.0}, {"bike_id": "351a2c572dd445f7c977dc2caef3596d", "fusion_lon": 0.0, "lon": -77.048712, "name": "351a2c572dd445f7c977dc2caef3596d", "is_disabled": 0, "rental_uris": {"android": "https://dc.lft.to/lastmile_qr_scan", "ios": "https://dc.lft.to/lastmile_qr_scan"}, "type": "electric_bike", "lat": 38.90113766666666, "is_reserved": 0, "fusion_lat": 0.0}, {"bike_id": "1067f8223286cdd74d6108e7d30dff93", "fusion_lon": 0.0, "lon": -77.051348, "name": "1067f8223286cdd74d6108e7d30dff93", "is_disabled": 0, "rental_uris": {"android": "https://dc.lft.to/lastmile_qr_scan", "ios": "https://dc.lft.to/lastmile_qr_scan"}, "type": "electric_scooter", "lat": 38.92359483333333, "is_reserved": 0, "fusion_lat": 0.0}, {"bike_id": "712d9cddd441639257d77a63c2261fb9", "fusion_lon": 0.0, "lon": -77.02163766666666, "name": "712d9cddd441639257d77a63c2261fb9", "is_disabled": 0, "rental_uris": {"android": "https://dc.lft.to/lastmile_qr_scan", "ios": "https://dc.lft.to/lastmile_qr_scan"}, "type": "electric_scooter", "lat": 38.92607783333333, "is_reserved": 0, "fusion_lat": 0.0}, {"bike_id": "c1574ca41f101b7af096594fa481241b", "fusion_lon": 0.0, "lon": -77.03250833333334, "name": "c1574ca41f101b7af096594fa481241b", "is_disabled": 0, "rental_uris": {"android": "https://dc.lft.to/lastmile_qr_scan", "ios": "https://dc.lft.to/lastmile_qr_scan"}, "type": "electric_scooter", "lat": 38.928572333333335, "is_reserved": 0, "fusion_lat": 0.0}, {"bike_id": "9153cd452f48a08584440cb1591e1506", "fusion_lon": 0.0, "lon": -77.03310783333333, "name": "9153cd452f48a08584440cb1591e1506", "is_disabled": 0, "rental_uris": {"android": "https://dc.lft.to/lastmile_qr_scan", "ios": "https://dc.lft.to/lastmile_qr_scan"}, "type": "electric_scooter", "lat": 38.93192916666667, "is_reserved": 0, "fusion_lat": 0.0}, {"bike_id": "132b5aefd2a31f5d2a929beaf1c98c49", "fusion_lon": 0.0, "lon": -77.02693566666666, "name": "132b5aefd2a31f5d2a929beaf1c98c49", "is_disabled": 0, "rental_uris": {"android": "https://dc.lft.to/lastmile_qr_scan", "ios": "https://dc.lft.to/lastmile_qr_scan"}, "type": "electric_scooter", "lat": 38.906851833333334, "is_reserved": 0, "fusion_lat": 0.0}, {"bike_id": "5edc9a288832a54dc73b7ab4790cf284", "fusion_lon": 0.0, "lon": -77.04622366666666, "name": "5edc9a288832a54dc73b7ab4790cf284", "is_disabled": 0, "rental_uris": {"android": "https://dc.lft.to/lastmile_qr_scan", "ios": "https://dc.lft.to/lastmile_qr_scan"}, "type": "electric_scooter", "lat": 38.90269033333333, "is_reserved": 0, "fusion_lat": 0.0}, {"bike_id": "aa5b5d0fa6a01fd6de4b3e345698c892", "fusion_lon": 0.0, "lon": -77.05527316666667, "name": "aa5b5d0fa6a01fd6de4b3e345698c892", "is_disabled": 0, "rental_uris": {"android": "https://dc.lft.to/lastmile_qr_scan", "ios": "https://dc.lft.to/lastmile_qr_scan"}, "type": "electric_scooter", "lat": 38.93015233333333, "is_reserved": 0, "fusion_lat": 0.0}, {"bike_id": "afef9054b3bf61b2fd758f56e409d921", "fusion_lon": 0.0, "lon": -77.058572, "name": "afef9054b3bf61b2fd758f56e409d921", "is_disabled": 0, "rental_uris": {"android": "https://dc.lft.to/lastmile_qr_scan", "ios": "https://dc.lft.to/lastmile_qr_scan"}, "type": "electric_scooter", "lat": 38.936045, "is_reserved": 0, "fusion_lat": 0.0}, {"bike_id": "fa8991b904d98bee927c9903fce7b51c", "fusion_lon": 0.0, "lon": -77.0231065, "name": "fa8991b904d98bee927c9903fce7b51c", "is_disabled": 0, "rental_uris": {"android": "https://dc.lft.to/lastmile_qr_scan", "ios": "https://dc.lft.to/lastmile_qr_scan"}, "type": "electric_scooter", "lat": 38.895597, "is_reserved": 0, "fusion_lat": 0.0}, {"bike_id": "64da5b23b023c715f39d93b3a2367ad0", "fusion_lon": 0.0, "lon": -77.028185, "name": "64da5b23b023c715f39d93b3a2367ad0", "is_disabled": 0, "rental_uris": {"android": "https://dc.lft.to/lastmile_qr_scan", "ios": "https://dc.lft.to/lastmile_qr_scan"}, "type": "electric_scooter", "lat": 38.88734983333333, "is_reserved": 0, "fusion_lat": 0.0}, {"bike_id": "305e0d8eb067cb47feae6d841a737426", "fusion_lon": 0.0, "lon": -77.027619, "name": "305e0d8eb067cb47feae6d841a737426", "is_disabled": 0, "rental_uris": {"android": "https://dc.lft.to/lastmile_qr_scan", "ios": "https://dc.lft.to/lastmile_qr_scan"}, "type": "electric_scooter", "lat": 38.95426966666667, "is_reserved": 0, "fusion_lat": 0.0}, {"bike_id": "8012f4ddceca0dd570cbf7e9d869fed0", "fusion_lon": 0.0, "lon": -77.03477966666667, "name": "8012f4ddceca0dd570cbf7e9d869fed0", "is_disabled": 0, "rental_uris": {"android": "https://dc.lft.to/lastmile_qr_scan", "ios": "https://dc.lft.to/lastmile_qr_scan"}, "type": "electric_scooter", "lat": 38.9247365, "is_reserved": 0, "fusion_lat": 0.0}, {"bike_id": "a6154de599e49ade918a0b27274fee03", "fusion_lon": 0.0, "lon": -76.93738483333334, "name": "a6154de599e49ade918a0b27274fee03", "is_disabled": 0, "rental_uris": {"android": "https://dc.lft.to/lastmile_qr_scan", "ios": "https://dc.lft.to/lastmile_qr_scan"}, "type": "electric_scooter", "lat": 38.890133, "is_reserved": 0, "fusion_lat": 0.0}, {"bike_id": "7caa94fe8032d0b6bd3fbc060894a2ac", "fusion_lon": 0.0, "lon": -77.06287916666666, "name": "7caa94fe8032d0b6bd3fbc060894a2ac", "is_disabled": 0, "rental_uris": {"android": "https://dc.lft.to/lastmile_qr_scan", "ios": "https://dc.lft.to/lastmile_qr_scan"}, "type": "electric_scooter", "lat": 38.94424083333333, "is_reserved": 0, "fusion_lat": 0.0}, {"bike_id": "2fcfa2df1677ebfee65cf6644cc34b5a", "fusion_lon": 0.0, "lon": -77.04552833333334, "name": "2fcfa2df1677ebfee65cf6644cc34b5a", "is_disabled": 0, "rental_uris": {"android": "https://dc.lft.to/lastmile_qr_scan", "ios": "https://dc.lft.to/lastmile_qr_scan"}, "type": "electric_scooter", "lat": 38.924209833333336, "is_reserved": 0, "fusion_lat": 0.0}, {"bike_id": "94589a8d5cffb6bbc8eb934293947afb", "fusion_lon": 0.0, "lon": -77.03366716666666, "name": "94589a8d5cffb6bbc8eb934293947afb", "is_disabled": 0, "rental_uris": {"android": "https://dc.lft.to/lastmile_qr_scan", "ios": "https://dc.lft.to/lastmile_qr_scan"}, "type": "electric_scooter", "lat": 38.9222755, "is_reserved": 0, "fusion_lat": 0.0}, {"bike_id": "aa06d9ac5e5b0169a7b62ed4891a70d5", "fusion_lon": 0.0, "lon": -76.9994735, "name": "aa06d9ac5e5b0169a7b62ed4891a70d5", "is_disabled": 0, "rental_uris": {"android": "https://dc.lft.to/lastmile_qr_scan", "ios": "https://dc.lft.to/lastmile_qr_scan"}, "type": "electric_scooter", "lat": 38.842907, "is_reserved": 0, "fusion_lat": 0.0}, {"bike_id": "d72deb80b178429506a545d721074121", "fusion_lon": 0.0, "lon": -77.03912716666666, "name": "d72deb80b178429506a545d721074121", "is_disabled": 0, "rental_uris": {"android": "https://dc.lft.to/lastmile_qr_scan", "ios": "https://dc.lft.to/lastmile_qr_scan"}, "type": "electric_scooter", "lat": 38.91551416666667, "is_reserved": 0, "fusion_lat": 0.0}, {"bike_id": "dbbf0dab710430ea7e83c1652712f0ce", "fusion_lon": 0.0, "lon": -76.94632133333333, "name": "dbbf0dab710430ea7e83c1652712f0ce", "is_disabled": 0, "rental_uris": {"android": "https://dc.lft.to/lastmile_qr_scan", "ios": "https://dc.lft.to/lastmile_qr_scan"}, "type": "electric_scooter", "lat": 38.89840316666667, "is_reserved": 0, "fusion_lat": 0.0}, {"bike_id": "a57d5292a042e78d957b99fd1dde5aec", "fusion_lon": 0.0, "lon": -77.021931, "name": "a57d5292a042e78d957b99fd1dde5aec", "is_disabled": 0, "rental_uris": {"android": "https://dc.lft.to/lastmile_qr_scan", "ios": "https://dc.lft.to/lastmile_qr_scan"}, "type": "electric_scooter", "lat": 38.918902833333334, "is_reserved": 0, "fusion_lat": 0.0}, {"bike_id": "2f1142ce2af2043e8c0e9b6eea580095", "fusion_lon": 0.0, "lon": -76.98400783333334, "name": "2f1142ce2af2043e8c0e9b6eea580095", "is_disabled": 0, "rental_uris": {"android": "https://dc.lft.to/lastmile_qr_scan", "ios": "https://dc.lft.to/lastmile_qr_scan"}, "type": "electric_scooter", "lat": 38.86693133333333, "is_reserved": 0, "fusion_lat": 0.0}, {"bike_id": "ea5f455c2d408f6b179ff2a5fa08deac", "fusion_lon": 0.0, "lon": -77.046784, "name": "ea5f455c2d408f6b179ff2a5fa08deac", "is_disabled": 0, "rental_uris": {"android": "https://dc.lft.to/lastmile_qr_scan", "ios": "https://dc.lft.to/lastmile_qr_scan"}, "type": "electric_scooter", "lat": 38.895059833333335, "is_reserved": 0, "fusion_lat": 0.0}, {"bike_id": "c59937d5b156c2daf4c149b4fd954c44", "fusion_lon": 0.0, "lon": -77.027226, "name": "c59937d5b156c2daf4c149b4fd954c44", "is_disabled": 0, "rental_uris": {"android": "https://dc.lft.to/lastmile_qr_scan", "ios": "https://dc.lft.to/lastmile_qr_scan"}, "type": "electric_scooter", "lat": 38.94953233333333, "is_reserved": 0, "fusion_lat": 0.0}, {"bike_id": "f18880d10c9a4688fe949a275fd7767d", "fusion_lon": 0.0, "lon": -77.038509, "name": "f18880d10c9a4688fe949a275fd7767d", "is_disabled": 0, "rental_uris": {"android": "https://dc.lft.to/lastmile_qr_scan", "ios": "https://dc.lft.to/lastmile_qr_scan"}, "type": "electric_scooter", "lat": 38.915526666666665, "is_reserved": 0, "fusion_lat": 0.0}, {"bike_id": "def24b5b638fb1783bcf7c8e2573ebe4", "fusion_lon": 0.0, "lon": -77.117086, "name": "def24b5b638fb1783bcf7c8e2573ebe4", "is_disabled": 0, "rental_uris": {"android": "https://dc.lft.to/lastmile_qr_scan", "ios": "https://dc.lft.to/lastmile_qr_scan"}, "type": "electric_bike", "lat": 38.867427166666666, "is_reserved": 0, "fusion_lat": 0.0}, {"bike_id": "2bcb200d6afdac52cb9479db9da0dd99", "fusion_lon": 0.0, "lon": -77.05001633333333, "name": "2bcb200d6afdac52cb9479db9da0dd99", "is_disabled": 0, "rental_uris": {"android": "https://dc.lft.to/lastmile_qr_scan", "ios": "https://dc.lft.to/lastmile_qr_scan"}, "type": "electric_scooter", "lat": 38.906119333333336, "is_reserved": 0, "fusion_lat": 0.0}, {"bike_id": "e63fc00d81f57f11672057de4d8b6658", "fusion_lon": 0.0, "lon": -77.023213, "name": "e63fc00d81f57f11672057de4d8b6658", "is_disabled": 0, "rental_uris": {"android": "https://dc.lft.to/lastmile_qr_scan", "ios": "https://dc.lft.to/lastmile_qr_scan"}, "type": "electric_scooter", "lat": 38.929400666666666, "is_reserved": 0, "fusion_lat": 0.0}, {"bike_id": "ad367afb34e4088d15138c443937b7e3", "fusion_lon": 0.0, "lon": -77.02619083333333, "name": "ad367afb34e4088d15138c443937b7e3", "is_disabled": 0, "rental_uris": {"android": "https://dc.lft.to/lastmile_qr_scan", "ios": "https://dc.lft.to/lastmile_qr_scan"}, "type": "electric_scooter", "lat": 38.92807116666667, "is_reserved": 0, "fusion_lat": 0.0}, {"bike_id": "2e834c49daf001e675f36b6f583fa1d8", "fusion_lon": 0.0, "lon": -77.0514225, "name": "2e834c49daf001e675f36b6f583fa1d8", "is_disabled": 0, "rental_uris": {"android": "https://dc.lft.to/lastmile_qr_scan", "ios": "https://dc.lft.to/lastmile_qr_scan"}, "type": "electric_scooter", "lat": 38.90529466666667, "is_reserved": 0, "fusion_lat": 0.0}, {"bike_id": "e38e6f5a71461ae121d0c02b9427a2d4", "fusion_lon": 0.0, "lon": -77.0372205, "name": "e38e6f5a71461ae121d0c02b9427a2d4", "is_disabled": 0, "rental_uris": {"android": "https://dc.lft.to/lastmile_qr_scan", "ios": "https://dc.lft.to/lastmile_qr_scan"}, "type": "electric_scooter", "lat": 38.9035695, "is_reserved": 0, "fusion_lat": 0.0}, {"bike_id": "0ffa03f254092e868d7dffca23f2117f", "fusion_lon": 0.0, "lon": -77.03108833333333, "name": "0ffa03f254092e868d7dffca23f2117f", "is_disabled": 0, "rental_uris": {"android": "https://dc.lft.to/lastmile_qr_scan", "ios": "https://dc.lft.to/lastmile_qr_scan"}, "type": "electric_scooter", "lat": 38.94646783333334, "is_reserved": 0, "fusion_lat": 0.0}, {"bike_id": "baff4cb5eecc4956de373b4386a058ca", "fusion_lon": 0.0, "lon": -76.99516383333334, "name": "baff4cb5eecc4956de373b4386a058ca", "is_disabled": 0, "rental_uris": {"android": "https://dc.lft.to/lastmile_qr_scan", "ios": "https://dc.lft.to/lastmile_qr_scan"}, "type": "electric_scooter", "lat": 38.9098135, "is_reserved": 0, "fusion_lat": 0.0}, {"bike_id": "773a0071bc47e1f200e1614d4635369b", "fusion_lon": 0.0, "lon": -77.03171383333333, "name": "773a0071bc47e1f200e1614d4635369b", "is_disabled": 0, "rental_uris": {"android": "https://dc.lft.to/lastmile_qr_scan", "ios": "https://dc.lft.to/lastmile_qr_scan"}, "type": "electric_scooter", "lat": 38.892003833333334, "is_reserved": 0, "fusion_lat": 0.0}, {"bike_id": "bcb1820b29c00a65316f4ef8e5e9f21d", "fusion_lon": 0.0, "lon": -77.03859233333333, "name": "bcb1820b29c00a65316f4ef8e5e9f21d", "is_disabled": 0, "rental_uris": {"android": "https://dc.lft.to/lastmile_qr_scan", "ios": "https://dc.lft.to/lastmile_qr_scan"}, "type": "electric_scooter", "lat": 38.90784383333333, "is_reserved": 0, "fusion_lat": 0.0}, {"bike_id": "b1398e3d71a09cf69fd5095fffcd1baa", "fusion_lon": 0.0, "lon": -77.00366183333334, "name": "b1398e3d71a09cf69fd5095fffcd1baa", "is_disabled": 0, "rental_uris": {"android": "https://dc.lft.to/lastmile_qr_scan", "ios": "https://dc.lft.to/lastmile_qr_scan"}, "type": "electric_scooter", "lat": 38.882585, "is_reserved": 0, "fusion_lat": 0.0}, {"bike_id": "83b137f2806955ea4fee9a4ef31f31f5", "fusion_lon": 0.0, "lon": -77.00659866666666, "name": "83b137f2806955ea4fee9a4ef31f31f5", "is_disabled": 0, "rental_uris": {"android": "https://dc.lft.to/lastmile_qr_scan", "ios": "https://dc.lft.to/lastmile_qr_scan"}, "type": "electric_scooter", "lat": 38.944591833333334, "is_reserved": 0, "fusion_lat": 0.0}, {"bike_id": "eb68532ecfddfcb7aadd1dd0ff89cd9d", "fusion_lon": 0.0, "lon": -76.98839333333333, "name": "eb68532ecfddfcb7aadd1dd0ff89cd9d", "is_disabled": 0, "rental_uris": {"android": "https://dc.lft.to/lastmile_qr_scan", "ios": "https://dc.lft.to/lastmile_qr_scan"}, "type": "electric_bike", "lat": 38.84276633333333, "is_reserved": 0, "fusion_lat": 0.0}, {"bike_id": "0fa8f9d8b79293f054e02e3a8cf57983", "fusion_lon": 0.0, "lon": -77.04086733333334, "name": "0fa8f9d8b79293f054e02e3a8cf57983", "is_disabled": 0, "rental_uris": {"android": "https://dc.lft.to/lastmile_qr_scan", "ios": "https://dc.lft.to/lastmile_qr_scan"}, "type": "electric_scooter", "lat": 38.90558866666667, "is_reserved": 0, "fusion_lat": 0.0}, {"bike_id": "35257aa9ff3a0ca4e376d48b9e43cd01", "fusion_lon": 0.0, "lon": -77.01322433333333, "name": "35257aa9ff3a0ca4e376d48b9e43cd01", "is_disabled": 0, "rental_uris": {"android": "https://dc.lft.to/lastmile_qr_scan", "ios": "https://dc.lft.to/lastmile_qr_scan"}, "type": "electric_scooter", "lat": 38.900401333333335, "is_reserved": 0, "fusion_lat": 0.0}, {"bike_id": "b9985f4d73a9ddd842c1a16536d5e9fa", "fusion_lon": 0.0, "lon": -77.0607585, "name": "b9985f4d73a9ddd842c1a16536d5e9fa", "is_disabled": 0, "rental_uris": {"android": "https://dc.lft.to/lastmile_qr_scan", "ios": "https://dc.lft.to/lastmile_qr_scan"}, "type": "electric_bike", "lat": 38.885772833333334, "is_reserved": 0, "fusion_lat": 0.0}, {"bike_id": "09ba1b4d124579e76f1c57ce19bcdca8", "fusion_lon": 0.0, "lon": -77.02294216666667, "name": "09ba1b4d124579e76f1c57ce19bcdca8", "is_disabled": 0, "rental_uris": {"android": "https://dc.lft.to/lastmile_qr_scan", "ios": "https://dc.lft.to/lastmile_qr_scan"}, "type": "electric_scooter", "lat": 38.93668133333333, "is_reserved": 0, "fusion_lat": 0.0}, {"bike_id": "f8eb8635ac26448ac27fe869ea9cfd35", "fusion_lon": 0.0, "lon": -77.0947365, "name": "f8eb8635ac26448ac27fe869ea9cfd35", "is_disabled": 0, "rental_uris": {"android": "https://dc.lft.to/lastmile_qr_scan", "ios": "https://dc.lft.to/lastmile_qr_scan"}, "type": "electric_bike", "lat": 39.0303675, "is_reserved": 0, "fusion_lat": 0.0}, {"bike_id": "f7f89719cf162019fbbe55975062f13c", "fusion_lon": 0.0, "lon": -77.01947116666666, "name": "f7f89719cf162019fbbe55975062f13c", "is_disabled": 0, "rental_uris": {"android": "https://dc.lft.to/lastmile_qr_scan", "ios": "https://dc.lft.to/lastmile_qr_scan"}, "type": "electric_scooter", "lat": 38.92410866666667, "is_reserved": 0, "fusion_lat": 0.0}, {"bike_id": "c3adb6bbe11435021d1ccc6d13381d4d", "fusion_lon": 0.0, "lon": -77.05109666666667, "name": "c3adb6bbe11435021d1ccc6d13381d4d", "is_disabled": 0, "rental_uris": {"android": "https://dc.lft.to/lastmile_qr_scan", "ios": "https://dc.lft.to/lastmile_qr_scan"}, "type": "electric_scooter", "lat": 38.905256666666666, "is_reserved": 0, "fusion_lat": 0.0}, {"bike_id": "83858024bc506c2fd8b566eac941fc4b", "fusion_lon": 0.0, "lon": -77.02696433333334, "name": "83858024bc506c2fd8b566eac941fc4b", "is_disabled": 0, "rental_uris": {"android": "https://dc.lft.to/lastmile_qr_scan", "ios": "https://dc.lft.to/lastmile_qr_scan"}, "type": "electric_scooter", "lat": 38.9066965, "is_reserved": 0, "fusion_lat": 0.0}, {"bike_id": "cc724dd005c85ca7c9984a159d2a9874", "fusion_lon": 0.0, "lon": -77.02750066666667, "name": "cc724dd005c85ca7c9984a159d2a9874", "is_disabled": 0, "rental_uris": {"android": "https://dc.lft.to/lastmile_qr_scan", "ios": "https://dc.lft.to/lastmile_qr_scan"}, "type": "electric_scooter", "lat": 38.95163933333333, "is_reserved": 0, "fusion_lat": 0.0}, {"bike_id": "9f9d5064fff5feb2e0beb24570bd2ea7", "fusion_lon": 0.0, "lon": -76.99000133333334, "name": "9f9d5064fff5feb2e0beb24570bd2ea7", "is_disabled": 0, "rental_uris": {"android": "https://dc.lft.to/lastmile_qr_scan", "ios": "https://dc.lft.to/lastmile_qr_scan"}, "type": "electric_scooter", "lat": 38.92456683333333, "is_reserved": 0, "fusion_lat": 0.0}, {"bike_id": "c75a1c36831bb326e220c7c1476c1efe", "fusion_lon": 0.0, "lon": -76.94748883333334, "name": "c75a1c36831bb326e220c7c1476c1efe", "is_disabled": 0, "rental_uris": {"android": "https://dc.lft.to/lastmile_qr_scan", "ios": "https://dc.lft.to/lastmile_qr_scan"}, "type": "electric_scooter", "lat": 38.89675183333333, "is_reserved": 0, "fusion_lat": 0.0}, {"bike_id": "a0a3f8d66a6b659d293becc8ac030173", "fusion_lon": 0.0, "lon": -77.03361166666667, "name": "a0a3f8d66a6b659d293becc8ac030173", "is_disabled": 0, "rental_uris": {"android": "https://dc.lft.to/lastmile_qr_scan", "ios": "https://dc.lft.to/lastmile_qr_scan"}, "type": "electric_scooter", "lat": 38.9322055, "is_reserved": 0, "fusion_lat": 0.0}, {"bike_id": "0d3ac6cd90feeaa1572a30220d70bcf8", "fusion_lon": 0.0, "lon": -77.034408, "name": "0d3ac6cd90feeaa1572a30220d70bcf8", "is_disabled": 0, "rental_uris": {"android": "https://dc.lft.to/lastmile_qr_scan", "ios": "https://dc.lft.to/lastmile_qr_scan"}, "type": "electric_scooter", "lat": 38.90271716666667, "is_reserved": 0, "fusion_lat": 0.0}, {"bike_id": "1e64d60abfe0be99c26caa1c2a88bd43", "fusion_lon": 0.0, "lon": -77.043347, "name": "1e64d60abfe0be99c26caa1c2a88bd43", "is_disabled": 0, "rental_uris": {"android": "https://dc.lft.to/lastmile_qr_scan", "ios": "https://dc.lft.to/lastmile_qr_scan"}, "type": "electric_scooter", "lat": 38.90720366666667, "is_reserved": 0, "fusion_lat": 0.0}, {"bike_id": "db9610049f95318a74dec73359fa6006", "fusion_lon": 0.0, "lon": -77.02784266666667, "name": "db9610049f95318a74dec73359fa6006", "is_disabled": 0, "rental_uris": {"android": "https://dc.lft.to/lastmile_qr_scan", "ios": "https://dc.lft.to/lastmile_qr_scan"}, "type": "electric_scooter", "lat": 38.93062466666667, "is_reserved": 0, "fusion_lat": 0.0}, {"bike_id": "3e0805d922cb493d54b755e9d831a973", "fusion_lon": 0.0, "lon": -77.13109283333333, "name": "3e0805d922cb493d54b755e9d831a973", "is_disabled": 0, "rental_uris": {"android": "https://dc.lft.to/lastmile_qr_scan", "ios": "https://dc.lft.to/lastmile_qr_scan"}, "type": "electric_bike", "lat": 39.02426716666667, "is_reserved": 0, "fusion_lat": 0.0}, {"bike_id": "ebfe88e3852b5e72e947be8c4a4ef631", "fusion_lon": 0.0, "lon": -77.01227016666667, "name": "ebfe88e3852b5e72e947be8c4a4ef631", "is_disabled": 0, "rental_uris": {"android": "https://dc.lft.to/lastmile_qr_scan", "ios": "https://dc.lft.to/lastmile_qr_scan"}, "type": "electric_scooter", "lat": 38.915277333333336, "is_reserved": 0, "fusion_lat": 0.0}, {"bike_id": "089c2106a5d2799f9ba4b8078e6934c4", "fusion_lon": 0.0, "lon": -77.026858, "name": "089c2106a5d2799f9ba4b8078e6934c4", "is_disabled": 0, "rental_uris": {"android": "https://dc.lft.to/lastmile_qr_scan", "ios": "https://dc.lft.to/lastmile_qr_scan"}, "type": "electric_scooter", "lat": 38.91265966666667, "is_reserved": 0, "fusion_lat": 0.0}, {"bike_id": "cf4473742b8b3c942da0443dc502c320", "fusion_lon": 0.0, "lon": -77.049681, "name": "cf4473742b8b3c942da0443dc502c320", "is_disabled": 0, "rental_uris": {"android": "https://dc.lft.to/lastmile_qr_scan", "ios": "https://dc.lft.to/lastmile_qr_scan"}, "type": "electric_bike", "lat": 38.83223683333333, "is_reserved": 0, "fusion_lat": 0.0}, {"bike_id": "3b893fcc4ca3df63f4b5bd584fe62811", "fusion_lon": 0.0, "lon": -76.98990233333333, "name": "3b893fcc4ca3df63f4b5bd584fe62811", "is_disabled": 0, "rental_uris": {"android": "https://dc.lft.to/lastmile_qr_scan", "ios": "https://dc.lft.to/lastmile_qr_scan"}, "type": "electric_scooter", "lat": 38.865015, "is_reserved": 0, "fusion_lat": 0.0}, {"bike_id": "39844f1156670dda9ebc2f92d7c9160a", "fusion_lon": 0.0, "lon": -77.024764, "name": "39844f1156670dda9ebc2f92d7c9160a", "is_disabled": 0, "rental_uris": {"android": "https://dc.lft.to/lastmile_qr_scan", "ios": "https://dc.lft.to/lastmile_qr_scan"}, "type": "electric_scooter", "lat": 38.91814933333333, "is_reserved": 0, "fusion_lat": 0.0}, {"bike_id": "39f74bc4e30ec0d7a27558773b259020", "fusion_lon": 0.0, "lon": -77.02209966666666, "name": "39f74bc4e30ec0d7a27558773b259020", "is_disabled": 0, "rental_uris": {"android": "https://dc.lft.to/lastmile_qr_scan", "ios": "https://dc.lft.to/lastmile_qr_scan"}, "type": "electric_scooter", "lat": 38.9019445, "is_reserved": 0, "fusion_lat": 0.0}, {"bike_id": "1c93be084c02e4fc4d397778befeca4d", "fusion_lon": 0.0, "lon": -77.01300566666667, "name": "1c93be084c02e4fc4d397778befeca4d", "is_disabled": 0, "rental_uris": {"android": "https://dc.lft.to/lastmile_qr_scan", "ios": "https://dc.lft.to/lastmile_qr_scan"}, "type": "electric_scooter", "lat": 38.930171666666666, "is_reserved": 0, "fusion_lat": 0.0}, {"bike_id": "7a149e5913c1a5374a10781c41ee256e", "fusion_lon": 0.0, "lon": -77.0415465, "name": "7a149e5913c1a5374a10781c41ee256e", "is_disabled": 0, "rental_uris": {"android": "https://dc.lft.to/lastmile_qr_scan", "ios": "https://dc.lft.to/lastmile_qr_scan"}, "type": "electric_scooter", "lat": 38.9230195, "is_reserved": 0, "fusion_lat": 0.0}, {"bike_id": "4f177f052f91463bf8fe4af88df551fd", "fusion_lon": 0.0, "lon": -77.021775, "name": "4f177f052f91463bf8fe4af88df551fd", "is_disabled": 0, "rental_uris": {"android": "https://dc.lft.to/lastmile_qr_scan", "ios": "https://dc.lft.to/lastmile_qr_scan"}, "type": "electric_scooter", "lat": 38.89906, "is_reserved": 0, "fusion_lat": 0.0}, {"bike_id": "bea6553e2f99f77d7dbde213b76ab851", "fusion_lon": 0.0, "lon": -77.02362816666667, "name": "bea6553e2f99f77d7dbde213b76ab851", "is_disabled": 0, "rental_uris": {"android": "https://dc.lft.to/lastmile_qr_scan", "ios": "https://dc.lft.to/lastmile_qr_scan"}, "type": "electric_scooter", "lat": 38.9030955, "is_reserved": 0, "fusion_lat": 0.0}, {"bike_id": "dc6b7f1c7a5b4de115c30ae07c8b0e44", "fusion_lon": 0.0, "lon": -77.03875483333333, "name": "dc6b7f1c7a5b4de115c30ae07c8b0e44", "is_disabled": 0, "rental_uris": {"android": "https://dc.lft.to/lastmile_qr_scan", "ios": "https://dc.lft.to/lastmile_qr_scan"}, "type": "electric_scooter", "lat": 38.932466, "is_reserved": 0, "fusion_lat": 0.0}, {"bike_id": "3a04e2dd34f75717ea5c9f6b41a558da", "fusion_lon": 0.0, "lon": -76.99516533333333, "name": "3a04e2dd34f75717ea5c9f6b41a558da", "is_disabled": 0, "rental_uris": {"android": "https://dc.lft.to/lastmile_qr_scan", "ios": "https://dc.lft.to/lastmile_qr_scan"}, "type": "electric_scooter", "lat": 38.86254066666667, "is_reserved": 0, "fusion_lat": 0.0}, {"bike_id": "34e4e5f2add458de647106a090c4d7fc", "fusion_lon": 0.0, "lon": -77.00121433333334, "name": "34e4e5f2add458de647106a090c4d7fc", "is_disabled": 0, "rental_uris": {"android": "https://dc.lft.to/lastmile_qr_scan", "ios": "https://dc.lft.to/lastmile_qr_scan"}, "type": "electric_scooter", "lat": 38.87782466666667, "is_reserved": 0, "fusion_lat": 0.0}, {"bike_id": "cd400194a1f8cd48cc7f60df240c26ba", "fusion_lon": 0.0, "lon": -77.03316283333334, "name": "cd400194a1f8cd48cc7f60df240c26ba", "is_disabled": 0, "rental_uris": {"android": "https://dc.lft.to/lastmile_qr_scan", "ios": "https://dc.lft.to/lastmile_qr_scan"}, "type": "electric_scooter", "lat": 38.92885916666667, "is_reserved": 0, "fusion_lat": 0.0}, {"bike_id": "de2794a66a086f57f00d61fe5eee7f58", "fusion_lon": 0.0, "lon": -76.951398, "name": "de2794a66a086f57f00d61fe5eee7f58", "is_disabled": 0, "rental_uris": {"android": "https://dc.lft.to/lastmile_qr_scan", "ios": "https://dc.lft.to/lastmile_qr_scan"}, "type": "electric_scooter", "lat": 38.89036183333333, "is_reserved": 0, "fusion_lat": 0.0}, {"bike_id": "91d7cbbad884769f7dd26d6243236289", "fusion_lon": 0.0, "lon": -77.03271516666666, "name": "91d7cbbad884769f7dd26d6243236289", "is_disabled": 0, "rental_uris": {"android": "https://dc.lft.to/lastmile_qr_scan", "ios": "https://dc.lft.to/lastmile_qr_scan"}, "type": "electric_scooter", "lat": 38.899927, "is_reserved": 0, "fusion_lat": 0.0}, {"bike_id": "8df7fa6c6697ec29d8c29c9275bf3d22", "fusion_lon": 0.0, "lon": -77.02103366666667, "name": "8df7fa6c6697ec29d8c29c9275bf3d22", "is_disabled": 0, "rental_uris": {"android": "https://dc.lft.to/lastmile_qr_scan", "ios": "https://dc.lft.to/lastmile_qr_scan"}, "type": "electric_scooter", "lat": 38.92407933333333, "is_reserved": 0, "fusion_lat": 0.0}, {"bike_id": "0418dee6133f1faaf8e6359ad327ab34", "fusion_lon": 0.0, "lon": -77.00154583333334, "name": "0418dee6133f1faaf8e6359ad327ab34", "is_disabled": 0, "rental_uris": {"android": "https://dc.lft.to/lastmile_qr_scan", "ios": "https://dc.lft.to/lastmile_qr_scan"}, "type": "electric_scooter", "lat": 38.92334316666667, "is_reserved": 0, "fusion_lat": 0.0}, {"bike_id": "3ba65bd793b5239f07f05d86d848c2f2", "fusion_lon": 0.0, "lon": -77.02622233333334, "name": "3ba65bd793b5239f07f05d86d848c2f2", "is_disabled": 0, "rental_uris": {"android": "https://dc.lft.to/lastmile_qr_scan", "ios": "https://dc.lft.to/lastmile_qr_scan"}, "type": "electric_bike", "lat": 38.9621985, "is_reserved": 0, "fusion_lat": 0.0}, {"bike_id": "1d16ce925396b3dd246d039cc4eaadb1", "fusion_lon": 0.0, "lon": -76.97702616666666, "name": "1d16ce925396b3dd246d039cc4eaadb1", "is_disabled": 0, "rental_uris": {"android": "https://dc.lft.to/lastmile_qr_scan", "ios": "https://dc.lft.to/lastmile_qr_scan"}, "type": "electric_bike", "lat": 38.949146999999996, "is_reserved": 0, "fusion_lat": 0.0}, {"bike_id": "91ceb9ec2861a94d21115073115be1a3", "fusion_lon": 0.0, "lon": -77.36094066666666, "name": "91ceb9ec2861a94d21115073115be1a3", "is_disabled": 0, "rental_uris": {"android": "https://dc.lft.to/lastmile_qr_scan", "ios": "https://dc.lft.to/lastmile_qr_scan"}, "type": "electric_bike", "lat": 38.939600666666664, "is_reserved": 0, "fusion_lat": 0.0}, {"bike_id": "c3071f9d2f646e9f090b30141111e31b", "fusion_lon": 0.0, "lon": -76.88368133333333, "name": "c3071f9d2f646e9f090b30141111e31b", "is_disabled": 0, "rental_uris": {"android": "https://dc.lft.to/lastmile_qr_scan", "ios": "https://dc.lft.to/lastmile_qr_scan"}, "type": "electric_bike", "lat": 38.99811966666667, "is_reserved": 0, "fusion_lat": 0.0}, {"bike_id": "5c9fa2aaca04ede0b31852c26f67500b", "fusion_lon": 0.0, "lon": -77.03890966666667, "name": "5c9fa2aaca04ede0b31852c26f67500b", "is_disabled": 0, "rental_uris": {"android": "https://dc.lft.to/lastmile_qr_scan", "ios": "https://dc.lft.to/lastmile_qr_scan"}, "type": "electric_scooter", "lat": 38.93258266666667, "is_reserved": 0, "fusion_lat": 0.0}, {"bike_id": "59a28cfa2dc86afde89c1a11c4687c5a", "fusion_lon": 0.0, "lon": -77.02975983333333, "name": "59a28cfa2dc86afde89c1a11c4687c5a", "is_disabled": 0, "rental_uris": {"android": "https://dc.lft.to/lastmile_qr_scan", "ios": "https://dc.lft.to/lastmile_qr_scan"}, "type": "electric_scooter", "lat": 38.895436833333335, "is_reserved": 0, "fusion_lat": 0.0}, {"bike_id": "7ff6104a1c4414aaa305ec733546b868", "fusion_lon": 0.0, "lon": -77.0433545, "name": "7ff6104a1c4414aaa305ec733546b868", "is_disabled": 0, "rental_uris": {"android": "https://dc.lft.to/lastmile_qr_scan", "ios": "https://dc.lft.to/lastmile_qr_scan"}, "type": "electric_scooter", "lat": 38.90723533333333, "is_reserved": 0, "fusion_lat": 0.0}, {"bike_id": "81e4ee2ea237b3416fffcd43b4b23ea4", "fusion_lon": 0.0, "lon": -77.0312265, "name": "81e4ee2ea237b3416fffcd43b4b23ea4", "is_disabled": 0, "rental_uris": {"android": "https://dc.lft.to/lastmile_qr_scan", "ios": "https://dc.lft.to/lastmile_qr_scan"}, "type": "electric_scooter", "lat": 38.91048266666667, "is_reserved": 0, "fusion_lat": 0.0}, {"bike_id": "fe9cd72a657d121f8ded8bf877e6cb32", "fusion_lon": 0.0, "lon": -77.0082275, "name": "fe9cd72a657d121f8ded8bf877e6cb32", "is_disabled": 0, "rental_uris": {"android": "https://dc.lft.to/lastmile_qr_scan", "ios": "https://dc.lft.to/lastmile_qr_scan"}, "type": "electric_bike", "lat": 38.877583, "is_reserved": 0, "fusion_lat": 0.0}, {"bike_id": "ba29849aeca6d2a598b7e20b420d7fb3", "fusion_lon": 0.0, "lon": -77.0196765, "name": "ba29849aeca6d2a598b7e20b420d7fb3", "is_disabled": 0, "rental_uris": {"android": "https://dc.lft.to/lastmile_qr_scan", "ios": "https://dc.lft.to/lastmile_qr_scan"}, "type": "electric_scooter", "lat": 38.89754, "is_reserved": 0, "fusion_lat": 0.0}, {"bike_id": "4ead002c6253da36a4c8996c54d4a282", "fusion_lon": 0.0, "lon": -77.03973783333333, "name": "4ead002c6253da36a4c8996c54d4a282", "is_disabled": 0, "rental_uris": {"android": "https://dc.lft.to/lastmile_qr_scan", "ios": "https://dc.lft.to/lastmile_qr_scan"}, "type": "electric_scooter", "lat": 38.911789166666665, "is_reserved": 0, "fusion_lat": 0.0}, {"bike_id": "3a75b67f9aacb16743e8d4fdcbb6f7bd", "fusion_lon": 0.0, "lon": -77.03483366666667, "name": "3a75b67f9aacb16743e8d4fdcbb6f7bd", "is_disabled": 0, "rental_uris": {"android": "https://dc.lft.to/lastmile_qr_scan", "ios": "https://dc.lft.to/lastmile_qr_scan"}, "type": "electric_scooter", "lat": 38.91856133333334, "is_reserved": 0, "fusion_lat": 0.0}, {"bike_id": "c2b80e0810b3015cee194fa2afe5f233", "fusion_lon": 0.0, "lon": -77.04612266666666, "name": "c2b80e0810b3015cee194fa2afe5f233", "is_disabled": 0, "rental_uris": {"android": "https://dc.lft.to/lastmile_qr_scan", "ios": "https://dc.lft.to/lastmile_qr_scan"}, "type": "electric_scooter", "lat": 38.9154985, "is_reserved": 0, "fusion_lat": 0.0}, {"bike_id": "734ffc1025c43f6ba093d7dcb5cfe030", "fusion_lon": 0.0, "lon": -77.03664416666666, "name": "734ffc1025c43f6ba093d7dcb5cfe030", "is_disabled": 0, "rental_uris": {"android": "https://dc.lft.to/lastmile_qr_scan", "ios": "https://dc.lft.to/lastmile_qr_scan"}, "type": "electric_scooter", "lat": 38.92288933333333, "is_reserved": 0, "fusion_lat": 0.0}, {"bike_id": "91836bbe8f9ffd4a91b1e1cfeead2961", "fusion_lon": 0.0, "lon": -77.09523483333334, "name": "91836bbe8f9ffd4a91b1e1cfeead2961", "is_disabled": 0, "rental_uris": {"android": "https://dc.lft.to/lastmile_qr_scan", "ios": "https://dc.lft.to/lastmile_qr_scan"}, "type": "electric_bike", "lat": 38.8380895, "is_reserved": 0, "fusion_lat": 0.0}, {"bike_id": "db01294138538a3a030773df4d20d710", "fusion_lon": 0.0, "lon": -77.02349433333333, "name": "db01294138538a3a030773df4d20d710", "is_disabled": 0, "rental_uris": {"android": "https://dc.lft.to/lastmile_qr_scan", "ios": "https://dc.lft.to/lastmile_qr_scan"}, "type": "electric_scooter", "lat": 38.935336166666666, "is_reserved": 0, "fusion_lat": 0.0}, {"bike_id": "2cc23329873981abcac48e4edc8117a6", "fusion_lon": 0.0, "lon": -77.0270055, "name": "2cc23329873981abcac48e4edc8117a6", "is_disabled": 0, "rental_uris": {"android": "https://dc.lft.to/lastmile_qr_scan", "ios": "https://dc.lft.to/lastmile_qr_scan"}, "type": "electric_scooter", "lat": 38.91796466666667, "is_reserved": 0, "fusion_lat": 0.0}, {"bike_id": "d9374b7a24a151322d18224333b8fa19", "fusion_lon": 0.0, "lon": -76.99856383333334, "name": "d9374b7a24a151322d18224333b8fa19", "is_disabled": 0, "rental_uris": {"android": "https://dc.lft.to/lastmile_qr_scan", "ios": "https://dc.lft.to/lastmile_qr_scan"}, "type": "electric_scooter", "lat": 38.90366016666667, "is_reserved": 0, "fusion_lat": 0.0}, {"bike_id": "f5082da9cee4f6473cf69114ca01ad6d", "fusion_lon": 0.0, "lon": -77.04829483333333, "name": "f5082da9cee4f6473cf69114ca01ad6d", "is_disabled": 0, "rental_uris": {"android": "https://dc.lft.to/lastmile_qr_scan", "ios": "https://dc.lft.to/lastmile_qr_scan"}, "type": "electric_scooter", "lat": 38.9110385, "is_reserved": 0, "fusion_lat": 0.0}, {"bike_id": "195eada97f17e7bc0fe82c45d606bceb", "fusion_lon": 0.0, "lon": -77.038582, "name": "195eada97f17e7bc0fe82c45d606bceb", "is_disabled": 0, "rental_uris": {"android": "https://dc.lft.to/lastmile_qr_scan", "ios": "https://dc.lft.to/lastmile_qr_scan"}, "type": "electric_scooter", "lat": 38.90780216666667, "is_reserved": 0, "fusion_lat": 0.0}, {"bike_id": "dbe0ff935c86a821317021fa7085d725", "fusion_lon": 0.0, "lon": -77.07843633333333, "name": "dbe0ff935c86a821317021fa7085d725", "is_disabled": 0, "rental_uris": {"android": "https://dc.lft.to/lastmile_qr_scan", "ios": "https://dc.lft.to/lastmile_qr_scan"}, "type": "electric_bike", "lat": 38.93128216666667, "is_reserved": 0, "fusion_lat": 0.0}, {"bike_id": "b08b31714925bb0525a28d9dd487969d", "fusion_lon": 0.0, "lon": -77.0137835, "name": "b08b31714925bb0525a28d9dd487969d", "is_disabled": 0, "rental_uris": {"android": "https://dc.lft.to/lastmile_qr_scan", "ios": "https://dc.lft.to/lastmile_qr_scan"}, "type": "electric_scooter", "lat": 38.89340933333333, "is_reserved": 0, "fusion_lat": 0.0}, {"bike_id": "980d79545abbd8af1b38f73a1def5bd0", "fusion_lon": 0.0, "lon": -77.05317683333334, "name": "980d79545abbd8af1b38f73a1def5bd0", "is_disabled": 0, "rental_uris": {"android": "https://dc.lft.to/lastmile_qr_scan", "ios": "https://dc.lft.to/lastmile_qr_scan"}, "type": "electric_scooter", "lat": 38.90267633333333, "is_reserved": 0, "fusion_lat": 0.0}, {"bike_id": "c076ea43c0f7dc615fa705d7b67a92af", "fusion_lon": 0.0, "lon": -77.035105, "name": "c076ea43c0f7dc615fa705d7b67a92af", "is_disabled": 0, "rental_uris": {"android": "https://dc.lft.to/lastmile_qr_scan", "ios": "https://dc.lft.to/lastmile_qr_scan"}, "type": "electric_scooter", "lat": 38.92149633333333, "is_reserved": 0, "fusion_lat": 0.0}, {"bike_id": "aa1f573bcae77ab0d5d99d89b8ca15d6", "fusion_lon": 0.0, "lon": -77.01735433333333, "name": "aa1f573bcae77ab0d5d99d89b8ca15d6", "is_disabled": 0, "rental_uris": {"android": "https://dc.lft.to/lastmile_qr_scan", "ios": "https://dc.lft.to/lastmile_qr_scan"}, "type": "electric_scooter", "lat": 38.903637333333336, "is_reserved": 0, "fusion_lat": 0.0}, {"bike_id": "f066b1747c3c7c2af0bdfa8e5a706eb5", "fusion_lon": 0.0, "lon": -77.03837233333333, "name": "f066b1747c3c7c2af0bdfa8e5a706eb5", "is_disabled": 0, "rental_uris": {"android": "https://dc.lft.to/lastmile_qr_scan", "ios": "https://dc.lft.to/lastmile_qr_scan"}, "type": "electric_scooter", "lat": 38.9101895, "is_reserved": 0, "fusion_lat": 0.0}, {"bike_id": "5b7f22e1f6991922cc10de87e676d62f", "fusion_lon": 0.0, "lon": -77.04247566666666, "name": "5b7f22e1f6991922cc10de87e676d62f", "is_disabled": 0, "rental_uris": {"android": "https://dc.lft.to/lastmile_qr_scan", "ios": "https://dc.lft.to/lastmile_qr_scan"}, "type": "electric_scooter", "lat": 38.910550666666666, "is_reserved": 0, "fusion_lat": 0.0}, {"bike_id": "da999c4632e0a896edf4a2846b785850", "fusion_lon": 0.0, "lon": -77.22321066666666, "name": "da999c4632e0a896edf4a2846b785850", "is_disabled": 0, "rental_uris": {"android": "https://dc.lft.to/lastmile_qr_scan", "ios": "https://dc.lft.to/lastmile_qr_scan"}, "type": "electric_bike", "lat": 38.9180095, "is_reserved": 0, "fusion_lat": 0.0}, {"bike_id": "5a92ad0503c6967dbf8dd1576c5d0da3", "fusion_lon": 0.0, "lon": -77.038107, "name": "5a92ad0503c6967dbf8dd1576c5d0da3", "is_disabled": 0, "rental_uris": {"android": "https://dc.lft.to/lastmile_qr_scan", "ios": "https://dc.lft.to/lastmile_qr_scan"}, "type": "electric_scooter", "lat": 38.91412416666667, "is_reserved": 0, "fusion_lat": 0.0}, {"bike_id": "04adaa7399d6b499d3b5a41952fe4064", "fusion_lon": 0.0, "lon": -77.04177, "name": "04adaa7399d6b499d3b5a41952fe4064", "is_disabled": 0, "rental_uris": {"android": "https://dc.lft.to/lastmile_qr_scan", "ios": "https://dc.lft.to/lastmile_qr_scan"}, "type": "electric_scooter", "lat": 38.91985366666667, "is_reserved": 0, "fusion_lat": 0.0}, {"bike_id": "7744cf495fc392fbf7f66e6b8f0b9bb9", "fusion_lon": 0.0, "lon": -77.03770383333334, "name": "7744cf495fc392fbf7f66e6b8f0b9bb9", "is_disabled": 0, "rental_uris": {"android": "https://dc.lft.to/lastmile_qr_scan", "ios": "https://dc.lft.to/lastmile_qr_scan"}, "type": "electric_scooter", "lat": 38.906546, "is_reserved": 0, "fusion_lat": 0.0}, {"bike_id": "ff423886ade44f80832688bf798dbafa", "fusion_lon": 0.0, "lon": -77.0488345, "name": "ff423886ade44f80832688bf798dbafa", "is_disabled": 0, "rental_uris": {"android": "https://dc.lft.to/lastmile_qr_scan", "ios": "https://dc.lft.to/lastmile_qr_scan"}, "type": "electric_scooter", "lat": 38.91341966666667, "is_reserved": 0, "fusion_lat": 0.0}, {"bike_id": "394c51c9d178e361ec1b60757834e522", "fusion_lon": 0.0, "lon": -77.02331366666667, "name": "394c51c9d178e361ec1b60757834e522", "is_disabled": 0, "rental_uris": {"android": "https://dc.lft.to/lastmile_qr_scan", "ios": "https://dc.lft.to/lastmile_qr_scan"}, "type": "electric_scooter", "lat": 38.9246915, "is_reserved": 0, "fusion_lat": 0.0}, {"bike_id": "a855ce7740e93feb86ce62578ded4c17", "fusion_lon": 0.0, "lon": -77.03208566666666, "name": "a855ce7740e93feb86ce62578ded4c17", "is_disabled": 0, "rental_uris": {"android": "https://dc.lft.to/lastmile_qr_scan", "ios": "https://dc.lft.to/lastmile_qr_scan"}, "type": "electric_scooter", "lat": 38.91472616666667, "is_reserved": 0, "fusion_lat": 0.0}, {"bike_id": "b356a5ac421f9e7d642cbc803f110ee8", "fusion_lon": 0.0, "lon": -77.019872, "name": "b356a5ac421f9e7d642cbc803f110ee8", "is_disabled": 0, "rental_uris": {"android": "https://dc.lft.to/lastmile_qr_scan", "ios": "https://dc.lft.to/lastmile_qr_scan"}, "type": "electric_scooter", "lat": 38.88476933333333, "is_reserved": 0, "fusion_lat": 0.0}, {"bike_id": "56e39f1e3886bf74db1ad51c22d7b5fe", "fusion_lon": 0.0, "lon": -77.043549, "name": "56e39f1e3886bf74db1ad51c22d7b5fe", "is_disabled": 0, "rental_uris": {"android": "https://dc.lft.to/lastmile_qr_scan", "ios": "https://dc.lft.to/lastmile_qr_scan"}, "type": "electric_scooter", "lat": 38.91099833333333, "is_reserved": 0, "fusion_lat": 0.0}, {"bike_id": "1543e262ad8e636c0fb9c4c806ed4a13", "fusion_lon": 0.0, "lon": -77.0947675, "name": "1543e262ad8e636c0fb9c4c806ed4a13", "is_disabled": 0, "rental_uris": {"android": "https://dc.lft.to/lastmile_qr_scan", "ios": "https://dc.lft.to/lastmile_qr_scan"}, "type": "electric_bike", "lat": 39.030421, "is_reserved": 0, "fusion_lat": 0.0}, {"bike_id": "6074b44b9dffd0d1bea184580394b497", "fusion_lon": 0.0, "lon": -77.06338633333333, "name": "6074b44b9dffd0d1bea184580394b497", "is_disabled": 0, "rental_uris": {"android": "https://dc.lft.to/lastmile_qr_scan", "ios": "https://dc.lft.to/lastmile_qr_scan"}, "type": "electric_scooter", "lat": 38.906812333333335, "is_reserved": 0, "fusion_lat": 0.0}, {"bike_id": "e5b80c8f60693d65ef4381da9562d9ff", "fusion_lon": 0.0, "lon": -76.988251, "name": "e5b80c8f60693d65ef4381da9562d9ff", "is_disabled": 0, "rental_uris": {"android": "https://dc.lft.to/lastmile_qr_scan", "ios": "https://dc.lft.to/lastmile_qr_scan"}, "type": "electric_scooter", "lat": 38.90034566666667, "is_reserved": 0, "fusion_lat": 0.0}, {"bike_id": "8ea5656efe3e3439ad77b59b807f0848", "fusion_lon": 0.0, "lon": -77.04668333333333, "name": "8ea5656efe3e3439ad77b59b807f0848", "is_disabled": 0, "rental_uris": {"android": "https://dc.lft.to/lastmile_qr_scan", "ios": "https://dc.lft.to/lastmile_qr_scan"}, "type": "electric_scooter", "lat": 38.902127, "is_reserved": 0, "fusion_lat": 0.0}, {"bike_id": "ede2455d035e46e919d9ac8c3b7aa33c", "fusion_lon": 0.0, "lon": -77.02959416666667, "name": "ede2455d035e46e919d9ac8c3b7aa33c", "is_disabled": 0, "rental_uris": {"android": "https://dc.lft.to/lastmile_qr_scan", "ios": "https://dc.lft.to/lastmile_qr_scan"}, "type": "electric_scooter", "lat": 38.905014, "is_reserved": 0, "fusion_lat": 0.0}, {"bike_id": "bf5e30251ff14f7703fda5e8d0f9d574", "fusion_lon": 0.0, "lon": -76.973313, "name": "bf5e30251ff14f7703fda5e8d0f9d574", "is_disabled": 0, "rental_uris": {"android": "https://dc.lft.to/lastmile_qr_scan", "ios": "https://dc.lft.to/lastmile_qr_scan"}, "type": "electric_scooter", "lat": 38.90407783333333, "is_reserved": 0, "fusion_lat": 0.0}, {"bike_id": "1f979ca902e8a9e51a8b773808ab3595", "fusion_lon": 0.0, "lon": -76.99259333333333, "name": "1f979ca902e8a9e51a8b773808ab3595", "is_disabled": 0, "rental_uris": {"android": "https://dc.lft.to/lastmile_qr_scan", "ios": "https://dc.lft.to/lastmile_qr_scan"}, "type": "electric_scooter", "lat": 38.919807166666665, "is_reserved": 0, "fusion_lat": 0.0}, {"bike_id": "a308ee6c650b1c57cda5cbe2ffe2b2d0", "fusion_lon": 0.0, "lon": -77.0207375, "name": "a308ee6c650b1c57cda5cbe2ffe2b2d0", "is_disabled": 0, "rental_uris": {"android": "https://dc.lft.to/lastmile_qr_scan", "ios": "https://dc.lft.to/lastmile_qr_scan"}, "type": "electric_scooter", "lat": 38.875699166666664, "is_reserved": 0, "fusion_lat": 0.0}, {"bike_id": "328149fd1b1f6bb77df99bb40c987d05", "fusion_lon": 0.0, "lon": -77.04974433333334, "name": "328149fd1b1f6bb77df99bb40c987d05", "is_disabled": 0, "rental_uris": {"android": "https://dc.lft.to/lastmile_qr_scan", "ios": "https://dc.lft.to/lastmile_qr_scan"}, "type": "electric_bike", "lat": 39.062896, "is_reserved": 0, "fusion_lat": 0.0}, {"bike_id": "d06c09da0ae3632004264362f7499994", "fusion_lon": 0.0, "lon": -77.0489745, "name": "d06c09da0ae3632004264362f7499994", "is_disabled": 0, "rental_uris": {"android": "https://dc.lft.to/lastmile_qr_scan", "ios": "https://dc.lft.to/lastmile_qr_scan"}, "type": "electric_scooter", "lat": 38.88996266666667, "is_reserved": 0, "fusion_lat": 0.0}, {"bike_id": "6e285a493836e48220bbdbafc0a2c4ea", "fusion_lon": 0.0, "lon": -76.98424816666666, "name": "6e285a493836e48220bbdbafc0a2c4ea", "is_disabled": 0, "rental_uris": {"android": "https://dc.lft.to/lastmile_qr_scan", "ios": "https://dc.lft.to/lastmile_qr_scan"}, "type": "electric_bike", "lat": 38.85503766666667, "is_reserved": 0, "fusion_lat": 0.0}, {"bike_id": "2bb87a90a1e109a10736d892cb24cac9", "fusion_lon": 0.0, "lon": -77.03203266666667, "name": "2bb87a90a1e109a10736d892cb24cac9", "is_disabled": 0, "rental_uris": {"android": "https://dc.lft.to/lastmile_qr_scan", "ios": "https://dc.lft.to/lastmile_qr_scan"}, "type": "electric_scooter", "lat": 38.895335333333335, "is_reserved": 0, "fusion_lat": 0.0}, {"bike_id": "df8453abf8b1a14ee08ded608d9f058a", "fusion_lon": 0.0, "lon": -77.0239185, "name": "df8453abf8b1a14ee08ded608d9f058a", "is_disabled": 0, "rental_uris": {"android": "https://dc.lft.to/lastmile_qr_scan", "ios": "https://dc.lft.to/lastmile_qr_scan"}, "type": "electric_scooter", "lat": 38.90192666666667, "is_reserved": 0, "fusion_lat": 0.0}, {"bike_id": "b18387936424165012a1f97e598cf533", "fusion_lon": 0.0, "lon": -77.00243616666667, "name": "b18387936424165012a1f97e598cf533", "is_disabled": 0, "rental_uris": {"android": "https://dc.lft.to/lastmile_qr_scan", "ios": "https://dc.lft.to/lastmile_qr_scan"}, "type": "electric_scooter", "lat": 38.88515816666666, "is_reserved": 0, "fusion_lat": 0.0}, {"bike_id": "6f312263fc41c94e646c22669ec21708", "fusion_lon": 0.0, "lon": -77.03965516666666, "name": "6f312263fc41c94e646c22669ec21708", "is_disabled": 0, "rental_uris": {"android": "https://dc.lft.to/lastmile_qr_scan", "ios": "https://dc.lft.to/lastmile_qr_scan"}, "type": "electric_scooter", "lat": 38.902488, "is_reserved": 0, "fusion_lat": 0.0}, {"bike_id": "c976e03235b0271fab0213d30ef20fae", "fusion_lon": 0.0, "lon": -77.02549033333334, "name": "c976e03235b0271fab0213d30ef20fae", "is_disabled": 0, "rental_uris": {"android": "https://dc.lft.to/lastmile_qr_scan", "ios": "https://dc.lft.to/lastmile_qr_scan"}, "type": "electric_scooter", "lat": 38.91631916666667, "is_reserved": 0, "fusion_lat": 0.0}, {"bike_id": "a51a3f1d0e63a9fd906b3d744ada6d9c", "fusion_lon": 0.0, "lon": -77.008871, "name": "a51a3f1d0e63a9fd906b3d744ada6d9c", "is_disabled": 0, "rental_uris": {"android": "https://dc.lft.to/lastmile_qr_scan", "ios": "https://dc.lft.to/lastmile_qr_scan"}, "type": "electric_scooter", "lat": 38.924794, "is_reserved": 0, "fusion_lat": 0.0}, {"bike_id": "b8dfaf209d6fc2c85dd6b8a4a9968a0d", "fusion_lon": 0.0, "lon": -76.987645, "name": "b8dfaf209d6fc2c85dd6b8a4a9968a0d", "is_disabled": 0, "rental_uris": {"android": "https://dc.lft.to/lastmile_qr_scan", "ios": "https://dc.lft.to/lastmile_qr_scan"}, "type": "electric_bike", "lat": 38.85763683333333, "is_reserved": 0, "fusion_lat": 0.0}, {"bike_id": "aa0541306c5fc66de746c2baa927a1fb", "fusion_lon": 0.0, "lon": -77.05753133333333, "name": "aa0541306c5fc66de746c2baa927a1fb", "is_disabled": 0, "rental_uris": {"android": "https://dc.lft.to/lastmile_qr_scan", "ios": "https://dc.lft.to/lastmile_qr_scan"}, "type": "electric_scooter", "lat": 38.9249785, "is_reserved": 0, "fusion_lat": 0.0}, {"bike_id": "60aea73e7714a5f1c4ba00e345ab2718", "fusion_lon": 0.0, "lon": -77.01998116666667, "name": "60aea73e7714a5f1c4ba00e345ab2718", "is_disabled": 0, "rental_uris": {"android": "https://dc.lft.to/lastmile_qr_scan", "ios": "https://dc.lft.to/lastmile_qr_scan"}, "type": "electric_scooter", "lat": 38.966265166666666, "is_reserved": 0, "fusion_lat": 0.0}, {"bike_id": "1df93d17fa0d76f7f6a807970e35acfc", "fusion_lon": 0.0, "lon": -77.03640883333334, "name": "1df93d17fa0d76f7f6a807970e35acfc", "is_disabled": 0, "rental_uris": {"android": "https://dc.lft.to/lastmile_qr_scan", "ios": "https://dc.lft.to/lastmile_qr_scan"}, "type": "electric_scooter", "lat": 38.931716, "is_reserved": 0, "fusion_lat": 0.0}, {"bike_id": "fa6ca79fdbc873746a5063e6d39cfb52", "fusion_lon": 0.0, "lon": -77.02693433333333, "name": "fa6ca79fdbc873746a5063e6d39cfb52", "is_disabled": 0, "rental_uris": {"android": "https://dc.lft.to/lastmile_qr_scan", "ios": "https://dc.lft.to/lastmile_qr_scan"}, "type": "electric_scooter", "lat": 38.9066595, "is_reserved": 0, "fusion_lat": 0.0}, {"bike_id": "0154fbe3f2362ff42e24a008f68aed61", "fusion_lon": 0.0, "lon": -76.996091, "name": "0154fbe3f2362ff42e24a008f68aed61", "is_disabled": 0, "rental_uris": {"android": "https://dc.lft.to/lastmile_qr_scan", "ios": "https://dc.lft.to/lastmile_qr_scan"}, "type": "electric_scooter", "lat": 38.90357783333333, "is_reserved": 0, "fusion_lat": 0.0}, {"bike_id": "b6204b7a6c96794dba837844d2b94cae", "fusion_lon": 0.0, "lon": -77.04801966666666, "name": "b6204b7a6c96794dba837844d2b94cae", "is_disabled": 0, "rental_uris": {"android": "https://dc.lft.to/lastmile_qr_scan", "ios": "https://dc.lft.to/lastmile_qr_scan"}, "type": "electric_scooter", "lat": 38.8922445, "is_reserved": 0, "fusion_lat": 0.0}, {"bike_id": "09e44d985618ad86e44481bd27ad4878", "fusion_lon": 0.0, "lon": -77.03249916666667, "name": "09e44d985618ad86e44481bd27ad4878", "is_disabled": 0, "rental_uris": {"android": "https://dc.lft.to/lastmile_qr_scan", "ios": "https://dc.lft.to/lastmile_qr_scan"}, "type": "electric_scooter", "lat": 38.928558833333334, "is_reserved": 0, "fusion_lat": 0.0}, {"bike_id": "3adf561c3d6b397378b875325a19ea8c", "fusion_lon": 0.0, "lon": -77.02565816666667, "name": "3adf561c3d6b397378b875325a19ea8c", "is_disabled": 0, "rental_uris": {"android": "https://dc.lft.to/lastmile_qr_scan", "ios": "https://dc.lft.to/lastmile_qr_scan"}, "type": "electric_scooter", "lat": 38.925358333333335, "is_reserved": 0, "fusion_lat": 0.0}, {"bike_id": "743a8020fd5ef57988da587a63543988", "fusion_lon": 0.0, "lon": -77.01845766666666, "name": "743a8020fd5ef57988da587a63543988", "is_disabled": 0, "rental_uris": {"android": "https://dc.lft.to/lastmile_qr_scan", "ios": "https://dc.lft.to/lastmile_qr_scan"}, "type": "electric_scooter", "lat": 38.91519783333333, "is_reserved": 0, "fusion_lat": 0.0}, {"bike_id": "42b56718b9729aa773a7b5752293551f", "fusion_lon": 0.0, "lon": -76.98617033333333, "name": "42b56718b9729aa773a7b5752293551f", "is_disabled": 0, "rental_uris": {"android": "https://dc.lft.to/lastmile_qr_scan", "ios": "https://dc.lft.to/lastmile_qr_scan"}, "type": "electric_scooter", "lat": 38.93823366666667, "is_reserved": 0, "fusion_lat": 0.0}, {"bike_id": "19b4fa010a37e426e3954b5d449eb03d", "fusion_lon": 0.0, "lon": -77.02720083333334, "name": "19b4fa010a37e426e3954b5d449eb03d", "is_disabled": 0, "rental_uris": {"android": "https://dc.lft.to/lastmile_qr_scan", "ios": "https://dc.lft.to/lastmile_qr_scan"}, "type": "electric_scooter", "lat": 38.9495275, "is_reserved": 0, "fusion_lat": 0.0}, {"bike_id": "6a44d540612a51175ad01092fc6ff21e", "fusion_lon": 0.0, "lon": -76.93614, "name": "6a44d540612a51175ad01092fc6ff21e", "is_disabled": 0, "rental_uris": {"android": "https://dc.lft.to/lastmile_qr_scan", "ios": "https://dc.lft.to/lastmile_qr_scan"}, "type": "electric_scooter", "lat": 38.886636833333334, "is_reserved": 0, "fusion_lat": 0.0}, {"bike_id": "255e5ae7c7d30f40febbab3e794ff255", "fusion_lon": 0.0, "lon": -77.01223683333333, "name": "255e5ae7c7d30f40febbab3e794ff255", "is_disabled": 0, "rental_uris": {"android": "https://dc.lft.to/lastmile_qr_scan", "ios": "https://dc.lft.to/lastmile_qr_scan"}, "type": "electric_scooter", "lat": 38.91544833333333, "is_reserved": 0, "fusion_lat": 0.0}, {"bike_id": "729706c7ed32e3199a32d5a9938d442a", "fusion_lon": 0.0, "lon": -77.02669083333333, "name": "729706c7ed32e3199a32d5a9938d442a", "is_disabled": 0, "rental_uris": {"android": "https://dc.lft.to/lastmile_qr_scan", "ios": "https://dc.lft.to/lastmile_qr_scan"}, "type": "electric_scooter", "lat": 38.8971935, "is_reserved": 0, "fusion_lat": 0.0}, {"bike_id": "37786dc1051f160825920fc4f1097c00", "fusion_lon": 0.0, "lon": -77.025106, "name": "37786dc1051f160825920fc4f1097c00", "is_disabled": 0, "rental_uris": {"android": "https://dc.lft.to/lastmile_qr_scan", "ios": "https://dc.lft.to/lastmile_qr_scan"}, "type": "electric_scooter", "lat": 38.91556883333333, "is_reserved": 0, "fusion_lat": 0.0}, {"bike_id": "c8c55da8150bad4a145e7f356dd0b10b", "fusion_lon": 0.0, "lon": -76.99785666666666, "name": "c8c55da8150bad4a145e7f356dd0b10b", "is_disabled": 0, "rental_uris": {"android": "https://dc.lft.to/lastmile_qr_scan", "ios": "https://dc.lft.to/lastmile_qr_scan"}, "type": "electric_scooter", "lat": 38.909042166666666, "is_reserved": 0, "fusion_lat": 0.0}, {"bike_id": "a1051ce7f4719dc7eaf5166c876333fd", "fusion_lon": 0.0, "lon": -77.03810716666666, "name": "a1051ce7f4719dc7eaf5166c876333fd", "is_disabled": 0, "rental_uris": {"android": "https://dc.lft.to/lastmile_qr_scan", "ios": "https://dc.lft.to/lastmile_qr_scan"}, "type": "electric_scooter", "lat": 38.92513983333333, "is_reserved": 0, "fusion_lat": 0.0}, {"bike_id": "a664fb6930a4eaa6dedd5e7cf06635d7", "fusion_lon": 0.0, "lon": -77.01222883333334, "name": "a664fb6930a4eaa6dedd5e7cf06635d7", "is_disabled": 0, "rental_uris": {"android": "https://dc.lft.to/lastmile_qr_scan", "ios": "https://dc.lft.to/lastmile_qr_scan"}, "type": "electric_scooter", "lat": 38.91531066666667, "is_reserved": 0, "fusion_lat": 0.0}, {"bike_id": "ad361a144d15067e6cecf484b9a4aed8", "fusion_lon": 0.0, "lon": -77.05223116666667, "name": "ad361a144d15067e6cecf484b9a4aed8", "is_disabled": 0, "rental_uris": {"android": "https://dc.lft.to/lastmile_qr_scan", "ios": "https://dc.lft.to/lastmile_qr_scan"}, "type": "electric_scooter", "lat": 38.924576333333334, "is_reserved": 0, "fusion_lat": 0.0}, {"bike_id": "9fa2f1f847039ae9cad240e0a81bf2c7", "fusion_lon": 0.0, "lon": -77.04041683333334, "name": "9fa2f1f847039ae9cad240e0a81bf2c7", "is_disabled": 0, "rental_uris": {"android": "https://dc.lft.to/lastmile_qr_scan", "ios": "https://dc.lft.to/lastmile_qr_scan"}, "type": "electric_scooter", "lat": 38.91319683333333, "is_reserved": 0, "fusion_lat": 0.0}, {"bike_id": "e7c553ae87fdb8fc537e2e8cca8c18e5", "fusion_lon": 0.0, "lon": -77.05058383333333, "name": "e7c553ae87fdb8fc537e2e8cca8c18e5", "is_disabled": 0, "rental_uris": {"android": "https://dc.lft.to/lastmile_qr_scan", "ios": "https://dc.lft.to/lastmile_qr_scan"}, "type": "electric_scooter", "lat": 38.924129666666666, "is_reserved": 0, "fusion_lat": 0.0}, {"bike_id": "0743caf7d5d567918cc44f82a93b2faf", "fusion_lon": 0.0, "lon": -76.97529366666667, "name": "0743caf7d5d567918cc44f82a93b2faf", "is_disabled": 0, "rental_uris": {"android": "https://dc.lft.to/lastmile_qr_scan", "ios": "https://dc.lft.to/lastmile_qr_scan"}, "type": "electric_bike", "lat": 38.903304, "is_reserved": 0, "fusion_lat": 0.0}, {"bike_id": "fd6a7910f0413aedc17159ac98cb5679", "fusion_lon": 0.0, "lon": -76.95752533333334, "name": "fd6a7910f0413aedc17159ac98cb5679", "is_disabled": 0, "rental_uris": {"android": "https://dc.lft.to/lastmile_qr_scan", "ios": "https://dc.lft.to/lastmile_qr_scan"}, "type": "electric_scooter", "lat": 38.88430566666667, "is_reserved": 0, "fusion_lat": 0.0}, {"bike_id": "ae1620ee1889a1553d5bf9c372d8d4ee", "fusion_lon": 0.0, "lon": -77.0230975, "name": "ae1620ee1889a1553d5bf9c372d8d4ee", "is_disabled": 0, "rental_uris": {"android": "https://dc.lft.to/lastmile_qr_scan", "ios": "https://dc.lft.to/lastmile_qr_scan"}, "type": "electric_scooter", "lat": 38.917683833333335, "is_reserved": 0, "fusion_lat": 0.0}, {"bike_id": "6571e76f0d57525c08fbe3c6fce60697", "fusion_lon": 0.0, "lon": -77.03217533333333, "name": "6571e76f0d57525c08fbe3c6fce60697", "is_disabled": 0, "rental_uris": {"android": "https://dc.lft.to/lastmile_qr_scan", "ios": "https://dc.lft.to/lastmile_qr_scan"}, "type": "electric_bike", "lat": 38.935846833333336, "is_reserved": 0, "fusion_lat": 0.0}, {"bike_id": "ee68a6e1541e4bdc2acbcd4263e84e08", "fusion_lon": 0.0, "lon": -76.94960233333333, "name": "ee68a6e1541e4bdc2acbcd4263e84e08", "is_disabled": 0, "rental_uris": {"android": "https://dc.lft.to/lastmile_qr_scan", "ios": "https://dc.lft.to/lastmile_qr_scan"}, "type": "electric_scooter", "lat": 38.90492116666667, "is_reserved": 0, "fusion_lat": 0.0}, {"bike_id": "a72dd68419dd36a823f79f505ca5f7c1", "fusion_lon": 0.0, "lon": -77.03122166666667, "name": "a72dd68419dd36a823f79f505ca5f7c1", "is_disabled": 0, "rental_uris": {"android": "https://dc.lft.to/lastmile_qr_scan", "ios": "https://dc.lft.to/lastmile_qr_scan"}, "type": "electric_scooter", "lat": 38.91486233333333, "is_reserved": 0, "fusion_lat": 0.0}, {"bike_id": "1dae68eaa1acbf9138b9dbf81950c790", "fusion_lon": 0.0, "lon": -77.03827683333333, "name": "1dae68eaa1acbf9138b9dbf81950c790", "is_disabled": 0, "rental_uris": {"android": "https://dc.lft.to/lastmile_qr_scan", "ios": "https://dc.lft.to/lastmile_qr_scan"}, "type": "electric_scooter", "lat": 38.91815583333333, "is_reserved": 0, "fusion_lat": 0.0}, {"bike_id": "56a1d126f1dd67a4abf5785112ed2a48", "fusion_lon": 0.0, "lon": -76.95978716666667, "name": "56a1d126f1dd67a4abf5785112ed2a48", "is_disabled": 0, "rental_uris": {"android": "https://dc.lft.to/lastmile_qr_scan", "ios": "https://dc.lft.to/lastmile_qr_scan"}, "type": "electric_bike", "lat": 38.869882, "is_reserved": 0, "fusion_lat": 0.0}, {"bike_id": "3f3b23974c144a0e61adc812dd86c7ed", "fusion_lon": 0.0, "lon": -77.15825216666667, "name": "3f3b23974c144a0e61adc812dd86c7ed", "is_disabled": 0, "rental_uris": {"android": "https://dc.lft.to/lastmile_qr_scan", "ios": "https://dc.lft.to/lastmile_qr_scan"}, "type": "electric_bike", "lat": 38.894509, "is_reserved": 0, "fusion_lat": 0.0}, {"bike_id": "6b52ecd27e22b56ba27953c3b977168a", "fusion_lon": 0.0, "lon": -77.03534533333334, "name": "6b52ecd27e22b56ba27953c3b977168a", "is_disabled": 0, "rental_uris": {"android": "https://dc.lft.to/lastmile_qr_scan", "ios": "https://dc.lft.to/lastmile_qr_scan"}, "type": "electric_scooter", "lat": 38.92473733333333, "is_reserved": 0, "fusion_lat": 0.0}, {"bike_id": "24279b70d62aaba0f6e579369b6019d0", "fusion_lon": 0.0, "lon": -77.05861966666667, "name": "24279b70d62aaba0f6e579369b6019d0", "is_disabled": 0, "rental_uris": {"android": "https://dc.lft.to/lastmile_qr_scan", "ios": "https://dc.lft.to/lastmile_qr_scan"}, "type": "electric_scooter", "lat": 38.93606366666667, "is_reserved": 0, "fusion_lat": 0.0}, {"bike_id": "e495033b6fcb7ed3715df34c529360e4", "fusion_lon": 0.0, "lon": -77.045072, "name": "e495033b6fcb7ed3715df34c529360e4", "is_disabled": 0, "rental_uris": {"android": "https://dc.lft.to/lastmile_qr_scan", "ios": "https://dc.lft.to/lastmile_qr_scan"}, "type": "electric_scooter", "lat": 38.90360366666667, "is_reserved": 0, "fusion_lat": 0.0}, {"bike_id": "dd065dea33b021fbb64d0a874b4dac70", "fusion_lon": 0.0, "lon": -77.03165116666666, "name": "dd065dea33b021fbb64d0a874b4dac70", "is_disabled": 0, "rental_uris": {"android": "https://dc.lft.to/lastmile_qr_scan", "ios": "https://dc.lft.to/lastmile_qr_scan"}, "type": "electric_scooter", "lat": 38.89214716666667, "is_reserved": 0, "fusion_lat": 0.0}, {"bike_id": "49bf87e34c3b75e1273e556161f1fd9c", "fusion_lon": 0.0, "lon": -77.027855, "name": "49bf87e34c3b75e1273e556161f1fd9c", "is_disabled": 0, "rental_uris": {"android": "https://dc.lft.to/lastmile_qr_scan", "ios": "https://dc.lft.to/lastmile_qr_scan"}, "type": "electric_scooter", "lat": 38.89545566666666, "is_reserved": 0, "fusion_lat": 0.0}, {"bike_id": "83c5287734e73c84154bbd5fd60ab582", "fusion_lon": 0.0, "lon": -77.06518533333333, "name": "83c5287734e73c84154bbd5fd60ab582", "is_disabled": 0, "rental_uris": {"android": "https://dc.lft.to/lastmile_qr_scan", "ios": "https://dc.lft.to/lastmile_qr_scan"}, "type": "electric_scooter", "lat": 38.90584033333333, "is_reserved": 0, "fusion_lat": 0.0}, {"bike_id": "ce302f7f834e220c3d095ea636888909", "fusion_lon": 0.0, "lon": -77.038768, "name": "ce302f7f834e220c3d095ea636888909", "is_disabled": 0, "rental_uris": {"android": "https://dc.lft.to/lastmile_qr_scan", "ios": "https://dc.lft.to/lastmile_qr_scan"}, "type": "electric_scooter", "lat": 38.93118916666667, "is_reserved": 0, "fusion_lat": 0.0}, {"bike_id": "6ac4616fdf32c18a3a4746adc314d91f", "fusion_lon": 0.0, "lon": -77.04135166666667, "name": "6ac4616fdf32c18a3a4746adc314d91f", "is_disabled": 0, "rental_uris": {"android": "https://dc.lft.to/lastmile_qr_scan", "ios": "https://dc.lft.to/lastmile_qr_scan"}, "type": "electric_scooter", "lat": 38.933673666666664, "is_reserved": 0, "fusion_lat": 0.0}, {"bike_id": "37a2b562ee51b397f99b552d828a75e7", "fusion_lon": 0.0, "lon": -77.0328365, "name": "37a2b562ee51b397f99b552d828a75e7", "is_disabled": 0, "rental_uris": {"android": "https://dc.lft.to/lastmile_qr_scan", "ios": "https://dc.lft.to/lastmile_qr_scan"}, "type": "electric_scooter", "lat": 38.92887133333333, "is_reserved": 0, "fusion_lat": 0.0}, {"bike_id": "c0655aa8ad6e27a1983c7ceffde09e90", "fusion_lon": 0.0, "lon": -76.99365083333333, "name": "c0655aa8ad6e27a1983c7ceffde09e90", "is_disabled": 0, "rental_uris": {"android": "https://dc.lft.to/lastmile_qr_scan", "ios": "https://dc.lft.to/lastmile_qr_scan"}, "type": "electric_scooter", "lat": 38.92833816666667, "is_reserved": 0, "fusion_lat": 0.0}, {"bike_id": "26814e2909068b5e77d7bd89ce768902", "fusion_lon": 0.0, "lon": -77.01608133333333, "name": "26814e2909068b5e77d7bd89ce768902", "is_disabled": 0, "rental_uris": {"android": "https://dc.lft.to/lastmile_qr_scan", "ios": "https://dc.lft.to/lastmile_qr_scan"}, "type": "electric_scooter", "lat": 38.89536016666667, "is_reserved": 0, "fusion_lat": 0.0}, {"bike_id": "875b784bccdc7abb34c4ab292fcbd60d", "fusion_lon": 0.0, "lon": -77.06840666666666, "name": "875b784bccdc7abb34c4ab292fcbd60d", "is_disabled": 0, "rental_uris": {"android": "https://dc.lft.to/lastmile_qr_scan", "ios": "https://dc.lft.to/lastmile_qr_scan"}, "type": "electric_scooter", "lat": 38.9527185, "is_reserved": 0, "fusion_lat": 0.0}, {"bike_id": "6bfaae93cbca87847af806f2cb2dc5c4", "fusion_lon": 0.0, "lon": -76.97734166666666, "name": "6bfaae93cbca87847af806f2cb2dc5c4", "is_disabled": 0, "rental_uris": {"android": "https://dc.lft.to/lastmile_qr_scan", "ios": "https://dc.lft.to/lastmile_qr_scan"}, "type": "electric_scooter", "lat": 38.89511916666667, "is_reserved": 0, "fusion_lat": 0.0}, {"bike_id": "e6962a8beb1e28527001232dc61952db", "fusion_lon": 0.0, "lon": -76.93991183333333, "name": "e6962a8beb1e28527001232dc61952db", "is_disabled": 0, "rental_uris": {"android": "https://dc.lft.to/lastmile_qr_scan", "ios": "https://dc.lft.to/lastmile_qr_scan"}, "type": "electric_scooter", "lat": 38.8997915, "is_reserved": 0, "fusion_lat": 0.0}, {"bike_id": "090ea0b35bb55c65c54af4384447f8c7", "fusion_lon": 0.0, "lon": -77.02372283333334, "name": "090ea0b35bb55c65c54af4384447f8c7", "is_disabled": 0, "rental_uris": {"android": "https://dc.lft.to/lastmile_qr_scan", "ios": "https://dc.lft.to/lastmile_qr_scan"}, "type": "electric_scooter", "lat": 38.901947, "is_reserved": 0, "fusion_lat": 0.0}, {"bike_id": "f26fee1ca1109262f890446df3883757", "fusion_lon": 0.0, "lon": -77.0276275, "name": "f26fee1ca1109262f890446df3883757", "is_disabled": 0, "rental_uris": {"android": "https://dc.lft.to/lastmile_qr_scan", "ios": "https://dc.lft.to/lastmile_qr_scan"}, "type": "electric_scooter", "lat": 38.954258333333335, "is_reserved": 0, "fusion_lat": 0.0}, {"bike_id": "7305da64d44b6282ca2ba3d995b2427d", "fusion_lon": 0.0, "lon": -77.02943866666666, "name": "7305da64d44b6282ca2ba3d995b2427d", "is_disabled": 0, "rental_uris": {"android": "https://dc.lft.to/lastmile_qr_scan", "ios": "https://dc.lft.to/lastmile_qr_scan"}, "type": "electric_scooter", "lat": 38.904834, "is_reserved": 0, "fusion_lat": 0.0}, {"bike_id": "b5f38a61bd383c852f449952f23f13c0", "fusion_lon": 0.0, "lon": -77.0444565, "name": "b5f38a61bd383c852f449952f23f13c0", "is_disabled": 0, "rental_uris": {"android": "https://dc.lft.to/lastmile_qr_scan", "ios": "https://dc.lft.to/lastmile_qr_scan"}, "type": "electric_scooter", "lat": 38.93017016666667, "is_reserved": 0, "fusion_lat": 0.0}, {"bike_id": "486a057f56dac2088a22bd0ddf92742b", "fusion_lon": 0.0, "lon": -76.99159866666666, "name": "486a057f56dac2088a22bd0ddf92742b", "is_disabled": 0, "rental_uris": {"android": "https://dc.lft.to/lastmile_qr_scan", "ios": "https://dc.lft.to/lastmile_qr_scan"}, "type": "electric_scooter", "lat": 38.86315033333333, "is_reserved": 0, "fusion_lat": 0.0}, {"bike_id": "f2b3914dcb59af76d955a6e9b7de0e6a", "fusion_lon": 0.0, "lon": -77.02321033333334, "name": "f2b3914dcb59af76d955a6e9b7de0e6a", "is_disabled": 0, "rental_uris": {"android": "https://dc.lft.to/lastmile_qr_scan", "ios": "https://dc.lft.to/lastmile_qr_scan"}, "type": "electric_scooter", "lat": 38.9072635, "is_reserved": 0, "fusion_lat": 0.0}, {"bike_id": "31d17f8371d606d5e45cb907c1d6a7fd", "fusion_lon": 0.0, "lon": -77.03091183333333, "name": "31d17f8371d606d5e45cb907c1d6a7fd", "is_disabled": 0, "rental_uris": {"android": "https://dc.lft.to/lastmile_qr_scan", "ios": "https://dc.lft.to/lastmile_qr_scan"}, "type": "electric_scooter", "lat": 38.923774333333334, "is_reserved": 0, "fusion_lat": 0.0}, {"bike_id": "f3669f993350927f954c9a03269742ac", "fusion_lon": 0.0, "lon": -77.050123, "name": "f3669f993350927f954c9a03269742ac", "is_disabled": 0, "rental_uris": {"android": "https://dc.lft.to/lastmile_qr_scan", "ios": "https://dc.lft.to/lastmile_qr_scan"}, "type": "electric_bike", "lat": 39.038986, "is_reserved": 0, "fusion_lat": 0.0}, {"bike_id": "fb717f420934e47b3e1bb550f1d53d0d", "fusion_lon": 0.0, "lon": -77.021765, "name": "fb717f420934e47b3e1bb550f1d53d0d", "is_disabled": 0, "rental_uris": {"android": "https://dc.lft.to/lastmile_qr_scan", "ios": "https://dc.lft.to/lastmile_qr_scan"}, "type": "electric_scooter", "lat": 38.9461105, "is_reserved": 0, "fusion_lat": 0.0}, {"bike_id": "c7cc8e814f2a97341a70e2d61ae6c5c8", "fusion_lon": 0.0, "lon": -77.0216165, "name": "c7cc8e814f2a97341a70e2d61ae6c5c8", "is_disabled": 0, "rental_uris": {"android": "https://dc.lft.to/lastmile_qr_scan", "ios": "https://dc.lft.to/lastmile_qr_scan"}, "type": "electric_scooter", "lat": 38.884572166666665, "is_reserved": 0, "fusion_lat": 0.0}, {"bike_id": "dc71c9c0748cada93e91576e07cc4f6b", "fusion_lon": 0.0, "lon": -77.03491783333334, "name": "dc71c9c0748cada93e91576e07cc4f6b", "is_disabled": 0, "rental_uris": {"android": "https://dc.lft.to/lastmile_qr_scan", "ios": "https://dc.lft.to/lastmile_qr_scan"}, "type": "electric_scooter", "lat": 38.92329516666667, "is_reserved": 0, "fusion_lat": 0.0}, {"bike_id": "84725a6a7d83035d6f4d31620b2e4387", "fusion_lon": 0.0, "lon": -76.93155516666667, "name": "84725a6a7d83035d6f4d31620b2e4387", "is_disabled": 0, "rental_uris": {"android": "https://dc.lft.to/lastmile_qr_scan", "ios": "https://dc.lft.to/lastmile_qr_scan"}, "type": "electric_scooter", "lat": 38.89876533333333, "is_reserved": 0, "fusion_lat": 0.0}, {"bike_id": "8b1d49b80d775829863ecef7c4a4edd8", "fusion_lon": 0.0, "lon": -76.9851685, "name": "8b1d49b80d775829863ecef7c4a4edd8", "is_disabled": 0, "rental_uris": {"android": "https://dc.lft.to/lastmile_qr_scan", "ios": "https://dc.lft.to/lastmile_qr_scan"}, "type": "electric_scooter", "lat": 38.86670616666667, "is_reserved": 0, "fusion_lat": 0.0}, {"bike_id": "82692f10d2603277f6d555cde026610e", "fusion_lon": 0.0, "lon": -77.033662, "name": "82692f10d2603277f6d555cde026610e", "is_disabled": 0, "rental_uris": {"android": "https://dc.lft.to/lastmile_qr_scan", "ios": "https://dc.lft.to/lastmile_qr_scan"}, "type": "electric_scooter", "lat": 38.94178383333333, "is_reserved": 0, "fusion_lat": 0.0}, {"bike_id": "fe6ba3948500a286c4421940ac912fa6", "fusion_lon": 0.0, "lon": -77.02578133333333, "name": "fe6ba3948500a286c4421940ac912fa6", "is_disabled": 0, "rental_uris": {"android": "https://dc.lft.to/lastmile_qr_scan", "ios": "https://dc.lft.to/lastmile_qr_scan"}, "type": "electric_scooter", "lat": 38.892284833333335, "is_reserved": 0, "fusion_lat": 0.0}, {"bike_id": "287c451e3625489dc86ed94665cab9be", "fusion_lon": 0.0, "lon": -77.0119995, "name": "287c451e3625489dc86ed94665cab9be", "is_disabled": 0, "rental_uris": {"android": "https://dc.lft.to/lastmile_qr_scan", "ios": "https://dc.lft.to/lastmile_qr_scan"}, "type": "electric_scooter", "lat": 38.90009233333333, "is_reserved": 0, "fusion_lat": 0.0}, {"bike_id": "30d965eda2af12f6fa7db19e221a16dc", "fusion_lon": 0.0, "lon": -76.987959, "name": "30d965eda2af12f6fa7db19e221a16dc", "is_disabled": 0, "rental_uris": {"android": "https://dc.lft.to/lastmile_qr_scan", "ios": "https://dc.lft.to/lastmile_qr_scan"}, "type": "electric_bike", "lat": 38.92210583333333, "is_reserved": 0, "fusion_lat": 0.0}, {"bike_id": "fab9d8b4b4dadc8538441822d4cc806e", "fusion_lon": 0.0, "lon": -76.927404, "name": "fab9d8b4b4dadc8538441822d4cc806e", "is_disabled": 0, "rental_uris": {"android": "https://dc.lft.to/lastmile_qr_scan", "ios": "https://dc.lft.to/lastmile_qr_scan"}, "type": "electric_scooter", "lat": 38.88968, "is_reserved": 0, "fusion_lat": 0.0}, {"bike_id": "0a867494d5a04acf88b04aac270c911c", "fusion_lon": 0.0, "lon": -77.0269455, "name": "0a867494d5a04acf88b04aac270c911c", "is_disabled": 0, "rental_uris": {"android": "https://dc.lft.to/lastmile_qr_scan", "ios": "https://dc.lft.to/lastmile_qr_scan"}, "type": "electric_scooter", "lat": 38.881282666666664, "is_reserved": 0, "fusion_lat": 0.0}, {"bike_id": "95c3a71d357a955530cd8f3c1ba32486", "fusion_lon": 0.0, "lon": -77.005669, "name": "95c3a71d357a955530cd8f3c1ba32486", "is_disabled": 0, "rental_uris": {"android": "https://dc.lft.to/lastmile_qr_scan", "ios": "https://dc.lft.to/lastmile_qr_scan"}, "type": "electric_scooter", "lat": 38.88500466666667, "is_reserved": 0, "fusion_lat": 0.0}, {"bike_id": "5cdbc7943e35cdd6c1751e5180ab46e9", "fusion_lon": 0.0, "lon": -77.03739683333333, "name": "5cdbc7943e35cdd6c1751e5180ab46e9", "is_disabled": 0, "rental_uris": {"android": "https://dc.lft.to/lastmile_qr_scan", "ios": "https://dc.lft.to/lastmile_qr_scan"}, "type": "electric_scooter", "lat": 38.916207166666666, "is_reserved": 0, "fusion_lat": 0.0}, {"bike_id": "6c2c529ae5093120fa4c9d91107051e6", "fusion_lon": 0.0, "lon": -76.99501133333334, "name": "6c2c529ae5093120fa4c9d91107051e6", "is_disabled": 0, "rental_uris": {"android": "https://dc.lft.to/lastmile_qr_scan", "ios": "https://dc.lft.to/lastmile_qr_scan"}, "type": "electric_scooter", "lat": 38.86245566666667, "is_reserved": 0, "fusion_lat": 0.0}, {"bike_id": "36a0cf0f901bca154620aa4b67b666bf", "fusion_lon": 0.0, "lon": -76.975937, "name": "36a0cf0f901bca154620aa4b67b666bf", "is_disabled": 0, "rental_uris": {"android": "https://dc.lft.to/lastmile_qr_scan", "ios": "https://dc.lft.to/lastmile_qr_scan"}, "type": "electric_scooter", "lat": 38.884102666666664, "is_reserved": 0, "fusion_lat": 0.0}, {"bike_id": "dcae029c98ccaf42b8e03867a1ba6fcb", "fusion_lon": 0.0, "lon": -77.040052, "name": "dcae029c98ccaf42b8e03867a1ba6fcb", "is_disabled": 0, "rental_uris": {"android": "https://dc.lft.to/lastmile_qr_scan", "ios": "https://dc.lft.to/lastmile_qr_scan"}, "type": "electric_scooter", "lat": 38.90316966666666, "is_reserved": 0, "fusion_lat": 0.0}, {"bike_id": "73998e54067bb63b1694206c363c92fc", "fusion_lon": 0.0, "lon": -77.00319966666666, "name": "73998e54067bb63b1694206c363c92fc", "is_disabled": 0, "rental_uris": {"android": "https://dc.lft.to/lastmile_qr_scan", "ios": "https://dc.lft.to/lastmile_qr_scan"}, "type": "electric_scooter", "lat": 38.901179166666665, "is_reserved": 0, "fusion_lat": 0.0}, {"bike_id": "806f85bbda2558df1a00a4836400f13f", "fusion_lon": 0.0, "lon": -77.04197333333333, "name": "806f85bbda2558df1a00a4836400f13f", "is_disabled": 0, "rental_uris": {"android": "https://dc.lft.to/lastmile_qr_scan", "ios": "https://dc.lft.to/lastmile_qr_scan"}, "type": "electric_scooter", "lat": 38.920312333333335, "is_reserved": 0, "fusion_lat": 0.0}, {"bike_id": "fe667187ff93b3ec9e37591e92615ce9", "fusion_lon": 0.0, "lon": -77.027927, "name": "fe667187ff93b3ec9e37591e92615ce9", "is_disabled": 0, "rental_uris": {"android": "https://dc.lft.to/lastmile_qr_scan", "ios": "https://dc.lft.to/lastmile_qr_scan"}, "type": "electric_scooter", "lat": 38.930784, "is_reserved": 0, "fusion_lat": 0.0}, {"bike_id": "8880e23e41a7e5876c252fa34dd2828f", "fusion_lon": 0.0, "lon": -77.00120066666666, "name": "8880e23e41a7e5876c252fa34dd2828f", "is_disabled": 0, "rental_uris": {"android": "https://dc.lft.to/lastmile_qr_scan", "ios": "https://dc.lft.to/lastmile_qr_scan"}, "type": "electric_bike", "lat": 38.91248133333333, "is_reserved": 0, "fusion_lat": 0.0}, {"bike_id": "32448c48ebf036e5ed37b291128f3726", "fusion_lon": 0.0, "lon": -76.97533116666666, "name": "32448c48ebf036e5ed37b291128f3726", "is_disabled": 0, "rental_uris": {"android": "https://dc.lft.to/lastmile_qr_scan", "ios": "https://dc.lft.to/lastmile_qr_scan"}, "type": "electric_bike", "lat": 38.840136, "is_reserved": 0, "fusion_lat": 0.0}, {"bike_id": "f8c51e63848ea27fd1ba91ac292681a2", "fusion_lon": 0.0, "lon": -77.02686266666667, "name": "f8c51e63848ea27fd1ba91ac292681a2", "is_disabled": 0, "rental_uris": {"android": "https://dc.lft.to/lastmile_qr_scan", "ios": "https://dc.lft.to/lastmile_qr_scan"}, "type": "electric_scooter", "lat": 38.912646333333335, "is_reserved": 0, "fusion_lat": 0.0}, {"bike_id": "759718a97a863779daaf7a57e1c5c768", "fusion_lon": 0.0, "lon": -77.02341966666667, "name": "759718a97a863779daaf7a57e1c5c768", "is_disabled": 0, "rental_uris": {"android": "https://dc.lft.to/lastmile_qr_scan", "ios": "https://dc.lft.to/lastmile_qr_scan"}, "type": "electric_scooter", "lat": 38.94467083333333, "is_reserved": 0, "fusion_lat": 0.0}, {"bike_id": "7375807c1097997648932bdf92c3ea72", "fusion_lon": 0.0, "lon": -77.048733, "name": "7375807c1097997648932bdf92c3ea72", "is_disabled": 0, "rental_uris": {"android": "https://dc.lft.to/lastmile_qr_scan", "ios": "https://dc.lft.to/lastmile_qr_scan"}, "type": "electric_scooter", "lat": 38.909772, "is_reserved": 0, "fusion_lat": 0.0}, {"bike_id": "e5292010cf26aecda88efce28fd2baa9", "fusion_lon": 0.0, "lon": -77.1247955, "name": "e5292010cf26aecda88efce28fd2baa9", "is_disabled": 0, "rental_uris": {"android": "https://dc.lft.to/lastmile_qr_scan", "ios": "https://dc.lft.to/lastmile_qr_scan"}, "type": "electric_bike", "lat": 38.853911, "is_reserved": 0, "fusion_lat": 0.0}, {"bike_id": "cc7fe5e68cc29ce05b3ddcecef6eaedf", "fusion_lon": 0.0, "lon": -76.946369, "name": "cc7fe5e68cc29ce05b3ddcecef6eaedf", "is_disabled": 0, "rental_uris": {"android": "https://dc.lft.to/lastmile_qr_scan", "ios": "https://dc.lft.to/lastmile_qr_scan"}, "type": "electric_scooter", "lat": 38.89841933333334, "is_reserved": 0, "fusion_lat": 0.0}, {"bike_id": "1f548760e89d2134b9d0556e7c7c746a", "fusion_lon": 0.0, "lon": -76.95750033333333, "name": "1f548760e89d2134b9d0556e7c7c746a", "is_disabled": 0, "rental_uris": {"android": "https://dc.lft.to/lastmile_qr_scan", "ios": "https://dc.lft.to/lastmile_qr_scan"}, "type": "electric_scooter", "lat": 38.884210333333336, "is_reserved": 0, "fusion_lat": 0.0}, {"bike_id": "4944e2f5e992a1ecf77d09728c005d1c", "fusion_lon": 0.0, "lon": -76.99775016666666, "name": "4944e2f5e992a1ecf77d09728c005d1c", "is_disabled": 0, "rental_uris": {"android": "https://dc.lft.to/lastmile_qr_scan", "ios": "https://dc.lft.to/lastmile_qr_scan"}, "type": "electric_scooter", "lat": 38.8442555, "is_reserved": 0, "fusion_lat": 0.0}, {"bike_id": "34d45a9941b01c67e1ffb9be749684da", "fusion_lon": 0.0, "lon": -77.02034483333334, "name": "34d45a9941b01c67e1ffb9be749684da", "is_disabled": 0, "rental_uris": {"android": "https://dc.lft.to/lastmile_qr_scan", "ios": "https://dc.lft.to/lastmile_qr_scan"}, "type": "electric_scooter", "lat": 38.92418083333333, "is_reserved": 0, "fusion_lat": 0.0}, {"bike_id": "c13e1ecb39fd6dcfe9bb08c4d79b2e09", "fusion_lon": 0.0, "lon": -77.04628416666667, "name": "c13e1ecb39fd6dcfe9bb08c4d79b2e09", "is_disabled": 0, "rental_uris": {"android": "https://dc.lft.to/lastmile_qr_scan", "ios": "https://dc.lft.to/lastmile_qr_scan"}, "type": "electric_scooter", "lat": 38.904501333333336, "is_reserved": 0, "fusion_lat": 0.0}, {"bike_id": "b10e9243c6cb4695f05650d662af4d09", "fusion_lon": 0.0, "lon": -76.94621066666667, "name": "b10e9243c6cb4695f05650d662af4d09", "is_disabled": 0, "rental_uris": {"android": "https://dc.lft.to/lastmile_qr_scan", "ios": "https://dc.lft.to/lastmile_qr_scan"}, "type": "electric_bike", "lat": 38.83232683333333, "is_reserved": 0, "fusion_lat": 0.0}, {"bike_id": "cf0a73b3bff91bd906b6c6fd79c5ba72", "fusion_lon": 0.0, "lon": -76.93755383333334, "name": "cf0a73b3bff91bd906b6c6fd79c5ba72", "is_disabled": 0, "rental_uris": {"android": "https://dc.lft.to/lastmile_qr_scan", "ios": "https://dc.lft.to/lastmile_qr_scan"}, "type": "electric_scooter", "lat": 38.8904505, "is_reserved": 0, "fusion_lat": 0.0}, {"bike_id": "3b4695696d41f235e5c07da6a73250eb", "fusion_lon": 0.0, "lon": -76.970963, "name": "3b4695696d41f235e5c07da6a73250eb", "is_disabled": 0, "rental_uris": {"android": "https://dc.lft.to/lastmile_qr_scan", "ios": "https://dc.lft.to/lastmile_qr_scan"}, "type": "electric_bike", "lat": 38.85717116666667, "is_reserved": 0, "fusion_lat": 0.0}, {"bike_id": "42b9ed1334c2379b917a220d91b125cb", "fusion_lon": 0.0, "lon": -77.02704233333333, "name": "42b9ed1334c2379b917a220d91b125cb", "is_disabled": 0, "rental_uris": {"android": "https://dc.lft.to/lastmile_qr_scan", "ios": "https://dc.lft.to/lastmile_qr_scan"}, "type": "electric_scooter", "lat": 38.928794, "is_reserved": 0, "fusion_lat": 0.0}, {"bike_id": "e53ea226cf0a8784e82239adc68a3ace", "fusion_lon": 0.0, "lon": -77.03445933333333, "name": "e53ea226cf0a8784e82239adc68a3ace", "is_disabled": 0, "rental_uris": {"android": "https://dc.lft.to/lastmile_qr_scan", "ios": "https://dc.lft.to/lastmile_qr_scan"}, "type": "electric_scooter", "lat": 38.9075885, "is_reserved": 0, "fusion_lat": 0.0}, {"bike_id": "5a5a11f51c85d13033ca332eb4c05ee3", "fusion_lon": 0.0, "lon": -76.997818, "name": "5a5a11f51c85d13033ca332eb4c05ee3", "is_disabled": 0, "rental_uris": {"android": "https://dc.lft.to/lastmile_qr_scan", "ios": "https://dc.lft.to/lastmile_qr_scan"}, "type": "electric_scooter", "lat": 38.8442595, "is_reserved": 0, "fusion_lat": 0.0}, {"bike_id": "9dabe487c7b8bf9e3895596d318420b6", "fusion_lon": 0.0, "lon": -77.03848266666667, "name": "9dabe487c7b8bf9e3895596d318420b6", "is_disabled": 0, "rental_uris": {"android": "https://dc.lft.to/lastmile_qr_scan", "ios": "https://dc.lft.to/lastmile_qr_scan"}, "type": "electric_scooter", "lat": 38.91552883333333, "is_reserved": 0, "fusion_lat": 0.0}, {"bike_id": "12a61dac9e5590e455266fad3ac35ad0", "fusion_lon": 0.0, "lon": -77.068408, "name": "12a61dac9e5590e455266fad3ac35ad0", "is_disabled": 0, "rental_uris": {"android": "https://dc.lft.to/lastmile_qr_scan", "ios": "https://dc.lft.to/lastmile_qr_scan"}, "type": "electric_scooter", "lat": 38.91725266666667, "is_reserved": 0, "fusion_lat": 0.0}, {"bike_id": "04d4d69aa5e55e8360a2cf54eb37e8a0", "fusion_lon": 0.0, "lon": -77.023212, "name": "04d4d69aa5e55e8360a2cf54eb37e8a0", "is_disabled": 0, "rental_uris": {"android": "https://dc.lft.to/lastmile_qr_scan", "ios": "https://dc.lft.to/lastmile_qr_scan"}, "type": "electric_scooter", "lat": 38.91827933333333, "is_reserved": 0, "fusion_lat": 0.0}, {"bike_id": "141e8e81a0563e55113d96d45da0ad0d", "fusion_lon": 0.0, "lon": -77.03107766666666, "name": "141e8e81a0563e55113d96d45da0ad0d", "is_disabled": 0, "rental_uris": {"android": "https://dc.lft.to/lastmile_qr_scan", "ios": "https://dc.lft.to/lastmile_qr_scan"}, "type": "electric_scooter", "lat": 38.950736666666664, "is_reserved": 0, "fusion_lat": 0.0}, {"bike_id": "7a73f9129efd69d7a289d99a94c0ac4d", "fusion_lon": 0.0, "lon": -77.0057935, "name": "7a73f9129efd69d7a289d99a94c0ac4d", "is_disabled": 0, "rental_uris": {"android": "https://dc.lft.to/lastmile_qr_scan", "ios": "https://dc.lft.to/lastmile_qr_scan"}, "type": "electric_scooter", "lat": 38.90571283333333, "is_reserved": 0, "fusion_lat": 0.0}, {"bike_id": "84824063fe252311ba78d49489b15fe5", "fusion_lon": 0.0, "lon": -77.0217745, "name": "84824063fe252311ba78d49489b15fe5", "is_disabled": 0, "rental_uris": {"android": "https://dc.lft.to/lastmile_qr_scan", "ios": "https://dc.lft.to/lastmile_qr_scan"}, "type": "electric_scooter", "lat": 38.924966, "is_reserved": 0, "fusion_lat": 0.0}, {"bike_id": "d27fbc70798d8c0242681b894876193e", "fusion_lon": 0.0, "lon": -77.04266616666666, "name": "d27fbc70798d8c0242681b894876193e", "is_disabled": 0, "rental_uris": {"android": "https://dc.lft.to/lastmile_qr_scan", "ios": "https://dc.lft.to/lastmile_qr_scan"}, "type": "electric_scooter", "lat": 38.908552, "is_reserved": 0, "fusion_lat": 0.0}, {"bike_id": "9215a1d517b32b3a459743eb73c0f183", "fusion_lon": 0.0, "lon": -76.98605183333333, "name": "9215a1d517b32b3a459743eb73c0f183", "is_disabled": 0, "rental_uris": {"android": "https://dc.lft.to/lastmile_qr_scan", "ios": "https://dc.lft.to/lastmile_qr_scan"}, "type": "electric_scooter", "lat": 38.87832266666667, "is_reserved": 0, "fusion_lat": 0.0}, {"bike_id": "919cc897a66d02224e251741e3502e6d", "fusion_lon": 0.0, "lon": -76.96907983333334, "name": "919cc897a66d02224e251741e3502e6d", "is_disabled": 0, "rental_uris": {"android": "https://dc.lft.to/lastmile_qr_scan", "ios": "https://dc.lft.to/lastmile_qr_scan"}, "type": "electric_bike", "lat": 38.84608633333333, "is_reserved": 0, "fusion_lat": 0.0}, {"bike_id": "c475e0892e12017611d42d3bf8d1463a", "fusion_lon": 0.0, "lon": -77.06505033333333, "name": "c475e0892e12017611d42d3bf8d1463a", "is_disabled": 0, "rental_uris": {"android": "https://dc.lft.to/lastmile_qr_scan", "ios": "https://dc.lft.to/lastmile_qr_scan"}, "type": "electric_bike", "lat": 38.9686945, "is_reserved": 0, "fusion_lat": 0.0}, {"bike_id": "0b9a27b9e32f267675819bce2310b260", "fusion_lon": 0.0, "lon": -77.0394435, "name": "0b9a27b9e32f267675819bce2310b260", "is_disabled": 0, "rental_uris": {"android": "https://dc.lft.to/lastmile_qr_scan", "ios": "https://dc.lft.to/lastmile_qr_scan"}, "type": "electric_scooter", "lat": 38.9260985, "is_reserved": 0, "fusion_lat": 0.0}, {"bike_id": "2d87bf830d971586c575b2320b4d58e1", "fusion_lon": 0.0, "lon": -77.01364933333333, "name": "2d87bf830d971586c575b2320b4d58e1", "is_disabled": 0, "rental_uris": {"android": "https://dc.lft.to/lastmile_qr_scan", "ios": "https://dc.lft.to/lastmile_qr_scan"}, "type": "electric_scooter", "lat": 38.928844, "is_reserved": 0, "fusion_lat": 0.0}, {"bike_id": "220aaa94c3ae4c5b55a26ec417c5674d", "fusion_lon": 0.0, "lon": -77.04487316666666, "name": "220aaa94c3ae4c5b55a26ec417c5674d", "is_disabled": 0, "rental_uris": {"android": "https://dc.lft.to/lastmile_qr_scan", "ios": "https://dc.lft.to/lastmile_qr_scan"}, "type": "electric_bike", "lat": 38.842913, "is_reserved": 0, "fusion_lat": 0.0}, {"bike_id": "d20aa9e787ed69800816fc4fd90d5410", "fusion_lon": 0.0, "lon": -77.04687683333333, "name": "d20aa9e787ed69800816fc4fd90d5410", "is_disabled": 0, "rental_uris": {"android": "https://dc.lft.to/lastmile_qr_scan", "ios": "https://dc.lft.to/lastmile_qr_scan"}, "type": "electric_scooter", "lat": 38.89218566666667, "is_reserved": 0, "fusion_lat": 0.0}, {"bike_id": "5a8025d433adabb90b0d571966783c0b", "fusion_lon": 0.0, "lon": -76.94931733333334, "name": "5a8025d433adabb90b0d571966783c0b", "is_disabled": 0, "rental_uris": {"android": "https://dc.lft.to/lastmile_qr_scan", "ios": "https://dc.lft.to/lastmile_qr_scan"}, "type": "electric_scooter", "lat": 38.89344066666666, "is_reserved": 0, "fusion_lat": 0.0}, {"bike_id": "9c86165d20d6fb28dfd021045695865b", "fusion_lon": 0.0, "lon": -77.00200266666667, "name": "9c86165d20d6fb28dfd021045695865b", "is_disabled": 0, "rental_uris": {"android": "https://dc.lft.to/lastmile_qr_scan", "ios": "https://dc.lft.to/lastmile_qr_scan"}, "type": "electric_scooter", "lat": 38.90242466666667, "is_reserved": 0, "fusion_lat": 0.0}, {"bike_id": "7099343e2bb07f0aacd5468d11dd3a16", "fusion_lon": 0.0, "lon": -77.02722183333333, "name": "7099343e2bb07f0aacd5468d11dd3a16", "is_disabled": 0, "rental_uris": {"android": "https://dc.lft.to/lastmile_qr_scan", "ios": "https://dc.lft.to/lastmile_qr_scan"}, "type": "electric_scooter", "lat": 38.94958883333334, "is_reserved": 0, "fusion_lat": 0.0}, {"bike_id": "550693b54f99545d21834159028e1cda", "fusion_lon": 0.0, "lon": -77.0213355, "name": "550693b54f99545d21834159028e1cda", "is_disabled": 0, "rental_uris": {"android": "https://dc.lft.to/lastmile_qr_scan", "ios": "https://dc.lft.to/lastmile_qr_scan"}, "type": "electric_scooter", "lat": 38.899426, "is_reserved": 0, "fusion_lat": 0.0}, {"bike_id": "1ef06baa9d7ebd6773f470391ad63ddb", "fusion_lon": 0.0, "lon": -77.02472316666666, "name": "1ef06baa9d7ebd6773f470391ad63ddb", "is_disabled": 0, "rental_uris": {"android": "https://dc.lft.to/lastmile_qr_scan", "ios": "https://dc.lft.to/lastmile_qr_scan"}, "type": "electric_scooter", "lat": 38.9189855, "is_reserved": 0, "fusion_lat": 0.0}, {"bike_id": "fe0cd75203b4fad1b30b85cb04cf5c01", "fusion_lon": 0.0, "lon": -77.0253525, "name": "fe0cd75203b4fad1b30b85cb04cf5c01", "is_disabled": 0, "rental_uris": {"android": "https://dc.lft.to/lastmile_qr_scan", "ios": "https://dc.lft.to/lastmile_qr_scan"}, "type": "electric_scooter", "lat": 38.92488733333333, "is_reserved": 0, "fusion_lat": 0.0}, {"bike_id": "341d76eb2e0adeb476c3070b76acf8dc", "fusion_lon": 0.0, "lon": -77.03630633333333, "name": "341d76eb2e0adeb476c3070b76acf8dc", "is_disabled": 0, "rental_uris": {"android": "https://dc.lft.to/lastmile_qr_scan", "ios": "https://dc.lft.to/lastmile_qr_scan"}, "type": "electric_scooter", "lat": 38.92671216666667, "is_reserved": 0, "fusion_lat": 0.0}, {"bike_id": "d82421ac76cac243411362d8685fac37", "fusion_lon": 0.0, "lon": -77.049088, "name": "d82421ac76cac243411362d8685fac37", "is_disabled": 0, "rental_uris": {"android": "https://dc.lft.to/lastmile_qr_scan", "ios": "https://dc.lft.to/lastmile_qr_scan"}, "type": "electric_scooter", "lat": 38.900636, "is_reserved": 0, "fusion_lat": 0.0}, {"bike_id": "18f43950c860ef5bc8b0055105dbf90e", "fusion_lon": 0.0, "lon": -77.04180216666667, "name": "18f43950c860ef5bc8b0055105dbf90e", "is_disabled": 0, "rental_uris": {"android": "https://dc.lft.to/lastmile_qr_scan", "ios": "https://dc.lft.to/lastmile_qr_scan"}, "type": "electric_scooter", "lat": 38.90537333333333, "is_reserved": 0, "fusion_lat": 0.0}, {"bike_id": "913cbc816fbbd1339585cf8700b0e3e9", "fusion_lon": 0.0, "lon": -77.01750583333333, "name": "913cbc816fbbd1339585cf8700b0e3e9", "is_disabled": 0, "rental_uris": {"android": "https://dc.lft.to/lastmile_qr_scan", "ios": "https://dc.lft.to/lastmile_qr_scan"}, "type": "electric_scooter", "lat": 38.911048, "is_reserved": 0, "fusion_lat": 0.0}, {"bike_id": "5fbfb20bacc1c3917dae28e61d102460", "fusion_lon": 0.0, "lon": -76.98927616666667, "name": "5fbfb20bacc1c3917dae28e61d102460", "is_disabled": 0, "rental_uris": {"android": "https://dc.lft.to/lastmile_qr_scan", "ios": "https://dc.lft.to/lastmile_qr_scan"}, "type": "electric_scooter", "lat": 38.84065616666667, "is_reserved": 0, "fusion_lat": 0.0}, {"bike_id": "03ac79a2054d3630d0a1c1128614487b", "fusion_lon": 0.0, "lon": -77.043281, "name": "03ac79a2054d3630d0a1c1128614487b", "is_disabled": 0, "rental_uris": {"android": "https://dc.lft.to/lastmile_qr_scan", "ios": "https://dc.lft.to/lastmile_qr_scan"}, "type": "electric_scooter", "lat": 38.89221533333333, "is_reserved": 0, "fusion_lat": 0.0}, {"bike_id": "d6996a36b3b10d1728a784c0e98d3db1", "fusion_lon": 0.0, "lon": -77.0351275, "name": "d6996a36b3b10d1728a784c0e98d3db1", "is_disabled": 0, "rental_uris": {"android": "https://dc.lft.to/lastmile_qr_scan", "ios": "https://dc.lft.to/lastmile_qr_scan"}, "type": "electric_scooter", "lat": 38.935989, "is_reserved": 0, "fusion_lat": 0.0}, {"bike_id": "c280f82c5e40486821301526ad05bd8d", "fusion_lon": 0.0, "lon": -77.01681916666666, "name": "c280f82c5e40486821301526ad05bd8d", "is_disabled": 0, "rental_uris": {"android": "https://dc.lft.to/lastmile_qr_scan", "ios": "https://dc.lft.to/lastmile_qr_scan"}, "type": "electric_scooter", "lat": 38.907214833333335, "is_reserved": 0, "fusion_lat": 0.0}, {"bike_id": "cdad10fcf6c9d73cd8f7b01ec0d38fdc", "fusion_lon": 0.0, "lon": -77.02679083333334, "name": "cdad10fcf6c9d73cd8f7b01ec0d38fdc", "is_disabled": 0, "rental_uris": {"android": "https://dc.lft.to/lastmile_qr_scan", "ios": "https://dc.lft.to/lastmile_qr_scan"}, "type": "electric_scooter", "lat": 38.8972695, "is_reserved": 0, "fusion_lat": 0.0}, {"bike_id": "c062e22dca6f8a30819f31f92dd0806e", "fusion_lon": 0.0, "lon": -77.03284566666666, "name": "c062e22dca6f8a30819f31f92dd0806e", "is_disabled": 0, "rental_uris": {"android": "https://dc.lft.to/lastmile_qr_scan", "ios": "https://dc.lft.to/lastmile_qr_scan"}, "type": "electric_scooter", "lat": 38.92891516666667, "is_reserved": 0, "fusion_lat": 0.0}, {"bike_id": "16d927363798b3ed5f143191dc779f3e", "fusion_lon": 0.0, "lon": -76.98539, "name": "16d927363798b3ed5f143191dc779f3e", "is_disabled": 0, "rental_uris": {"android": "https://dc.lft.to/lastmile_qr_scan", "ios": "https://dc.lft.to/lastmile_qr_scan"}, "type": "electric_scooter", "lat": 38.8664315, "is_reserved": 0, "fusion_lat": 0.0}, {"bike_id": "cf0e9f93b2688d49a4f64ae99aa1e8bc", "fusion_lon": 0.0, "lon": -77.02573216666667, "name": "cf0e9f93b2688d49a4f64ae99aa1e8bc", "is_disabled": 0, "rental_uris": {"android": "https://dc.lft.to/lastmile_qr_scan", "ios": "https://dc.lft.to/lastmile_qr_scan"}, "type": "electric_scooter", "lat": 38.892228, "is_reserved": 0, "fusion_lat": 0.0}, {"bike_id": "ce829804f47375ce7fb5e2c58464a179", "fusion_lon": 0.0, "lon": -77.048695, "name": "ce829804f47375ce7fb5e2c58464a179", "is_disabled": 0, "rental_uris": {"android": "https://dc.lft.to/lastmile_qr_scan", "ios": "https://dc.lft.to/lastmile_qr_scan"}, "type": "electric_scooter", "lat": 38.909715166666665, "is_reserved": 0, "fusion_lat": 0.0}, {"bike_id": "aae18f7e84eecf86f9f47f368fec21b7", "fusion_lon": 0.0, "lon": -77.02676633333333, "name": "aae18f7e84eecf86f9f47f368fec21b7", "is_disabled": 0, "rental_uris": {"android": "https://dc.lft.to/lastmile_qr_scan", "ios": "https://dc.lft.to/lastmile_qr_scan"}, "type": "electric_scooter", "lat": 38.8980485, "is_reserved": 0, "fusion_lat": 0.0}, {"bike_id": "750cce0f3446e640e7f4a55139531e10", "fusion_lon": 0.0, "lon": -76.98250633333333, "name": "750cce0f3446e640e7f4a55139531e10", "is_disabled": 0, "rental_uris": {"android": "https://dc.lft.to/lastmile_qr_scan", "ios": "https://dc.lft.to/lastmile_qr_scan"}, "type": "electric_bike", "lat": 38.95326983333333, "is_reserved": 0, "fusion_lat": 0.0}, {"bike_id": "801343f8dcf956867dfce2dd52d55e15", "fusion_lon": 0.0, "lon": -77.04109516666666, "name": "801343f8dcf956867dfce2dd52d55e15", "is_disabled": 0, "rental_uris": {"android": "https://dc.lft.to/lastmile_qr_scan", "ios": "https://dc.lft.to/lastmile_qr_scan"}, "type": "electric_scooter", "lat": 38.92442033333333, "is_reserved": 0, "fusion_lat": 0.0}, {"bike_id": "1b72879335c23e28dbc64965286add96", "fusion_lon": 0.0, "lon": -77.04481166666666, "name": "1b72879335c23e28dbc64965286add96", "is_disabled": 0, "rental_uris": {"android": "https://dc.lft.to/lastmile_qr_scan", "ios": "https://dc.lft.to/lastmile_qr_scan"}, "type": "electric_scooter", "lat": 38.901105666666666, "is_reserved": 0, "fusion_lat": 0.0}, {"bike_id": "df0dd0b91cc58a789419cc1596bc087e", "fusion_lon": 0.0, "lon": -77.0791535, "name": "df0dd0b91cc58a789419cc1596bc087e", "is_disabled": 0, "rental_uris": {"android": "https://dc.lft.to/lastmile_qr_scan", "ios": "https://dc.lft.to/lastmile_qr_scan"}, "type": "electric_bike", "lat": 38.80223466666666, "is_reserved": 0, "fusion_lat": 0.0}, {"bike_id": "fb8f2611d791a5fa1f88abbdfef28968", "fusion_lon": 0.0, "lon": -77.04355483333333, "name": "fb8f2611d791a5fa1f88abbdfef28968", "is_disabled": 0, "rental_uris": {"android": "https://dc.lft.to/lastmile_qr_scan", "ios": "https://dc.lft.to/lastmile_qr_scan"}, "type": "electric_scooter", "lat": 38.90258266666667, "is_reserved": 0, "fusion_lat": 0.0}, {"bike_id": "fb9913c631050a3151def68604bb0eb0", "fusion_lon": 0.0, "lon": -77.01330633333333, "name": "fb9913c631050a3151def68604bb0eb0", "is_disabled": 0, "rental_uris": {"android": "https://dc.lft.to/lastmile_qr_scan", "ios": "https://dc.lft.to/lastmile_qr_scan"}, "type": "electric_scooter", "lat": 38.927972833333335, "is_reserved": 0, "fusion_lat": 0.0}, {"bike_id": "4260901a80b55bcdd56af854815856aa", "fusion_lon": 0.0, "lon": -77.0326785, "name": "4260901a80b55bcdd56af854815856aa", "is_disabled": 0, "rental_uris": {"android": "https://dc.lft.to/lastmile_qr_scan", "ios": "https://dc.lft.to/lastmile_qr_scan"}, "type": "electric_scooter", "lat": 38.933113166666665, "is_reserved": 0, "fusion_lat": 0.0}, {"bike_id": "57bd388477ce39f0c3ca7cad090560cd", "fusion_lon": 0.0, "lon": -77.16089333333333, "name": "57bd388477ce39f0c3ca7cad090560cd", "is_disabled": 0, "rental_uris": {"android": "https://dc.lft.to/lastmile_qr_scan", "ios": "https://dc.lft.to/lastmile_qr_scan"}, "type": "electric_bike", "lat": 38.886857666666664, "is_reserved": 0, "fusion_lat": 0.0}, {"bike_id": "fc744773c5a2e51cd8169327d13deb5e", "fusion_lon": 0.0, "lon": -76.98702083333333, "name": "fc744773c5a2e51cd8169327d13deb5e", "is_disabled": 0, "rental_uris": {"android": "https://dc.lft.to/lastmile_qr_scan", "ios": "https://dc.lft.to/lastmile_qr_scan"}, "type": "electric_scooter", "lat": 38.859613333333336, "is_reserved": 0, "fusion_lat": 0.0}, {"bike_id": "004749ace4cb88906168e716906a3371", "fusion_lon": 0.0, "lon": -76.98841716666666, "name": "004749ace4cb88906168e716906a3371", "is_disabled": 0, "rental_uris": {"android": "https://dc.lft.to/lastmile_qr_scan", "ios": "https://dc.lft.to/lastmile_qr_scan"}, "type": "electric_bike", "lat": 38.84275316666667, "is_reserved": 0, "fusion_lat": 0.0}, {"bike_id": "783d236cdc273e65d06bf7b5edfc194f", "fusion_lon": 0.0, "lon": -77.11016416666666, "name": "783d236cdc273e65d06bf7b5edfc194f", "is_disabled": 0, "rental_uris": {"android": "https://dc.lft.to/lastmile_qr_scan", "ios": "https://dc.lft.to/lastmile_qr_scan"}, "type": "electric_bike", "lat": 38.847431666666665, "is_reserved": 0, "fusion_lat": 0.0},