{"data": {"bikes": [{"lat": 38.90093683333333, "fusion_lat": 0.0, "type": "electric_scooter", "bike_id": "bbe3f34952e1988cc4545131fac24793", "rental_uris": {"ios": "https://dc.lft.to/lastmile_qr_scan", "android": "https://dc.lft.to/lastmile_qr_scan"}, "fusion_lon": 0.0, "lon": -77.0505955, "name": "bbe3f34952e1988cc4545131fac24793", "is_reserved": 0, "is_disabled": 0}, {"lat": 38.91707733333333, "fusion_lat": 0.0, "type": "electric_scooter", "bike_id": "b943d1ea51384257a180cf132b886b0a", "rental_uris": {"ios": "https://dc.lft.to/lastmile_qr_scan", "android": "https://dc.lft.to/lastmile_qr_scan"}, "fusion_lon": 0.0, "lon": -77.038649, "name": "b943d1ea51384257a180cf132b886b0a", "is_reserved": 0, "is_disabled": 0}, {"lat": 38.8954345, "fusion_lat": 0.0, "type": "electric_scooter", "bike_id": "558c28c99a4dead16f8788e50dcfab01", "rental_uris": {"ios": "https://dc.lft.to/lastmile_qr_scan", "android": "https://dc.lft.to/lastmile_qr_scan"}, "fusion_lon": 0.0, "lon": -76.98339833333333, "name": "558c28c99a4dead16f8788e50dcfab01", "is_reserved": 0, "is_disabled": 0}, {"lat": 38.98785933333333, "fusion_lat": 0.0, "type": "electric_bike", "bike_id": "e106a5092fe71156736df305fb1f65c8", "rental_uris": {"ios": "https://dc.lft.to/lastmile_qr_scan", "android": "https://dc.lft.to/lastmile_qr_scan"}, "fusion_lon": 0.0, "lon": -77.141028, "name": "e106a5092fe71156736df305fb1f65c8", "is_reserved": 0, "is_disabled": 0}, {"lat": 38.83866616666667, "fusion_lat": 0.0, "type": "electric_bike", "bike_id": "fd8f92d0b5d12ca256f578e063d20754", "rental_uris": {"ios": "https://dc.lft.to/lastmile_qr_scan", "android": "https://dc.lft.to/lastmile_qr_scan"}, "fusion_lon": 0.0, "lon": -76.99702216666667, "name": "fd8f92d0b5d12ca256f578e063d20754", "is_reserved": 0, "is_disabled": 0}, {"lat": 38.87571033333333, "fusion_lat": 0.0, "type": "electric_scooter", "bike_id": "70941cd3641649b16b5927d2b3aaffb0", "rental_uris": {"ios": "https://dc.lft.to/lastmile_qr_scan", "android": "https://dc.lft.to/lastmile_qr_scan"}, "fusion_lon": 0.0, "lon": -77.00603416666667, "name": "70941cd3641649b16b5927d2b3aaffb0", "is_reserved": 0, "is_disabled": 0}, {"lat": 38.9046365, "fusion_lat": 0.0, "type": "electric_scooter", "bike_id": "8ba7c0828c23462cd244dba0a63b338f", "rental_uris": {"ios": "https://dc.lft.to/lastmile_qr_scan", "android": "https://dc.lft.to/lastmile_qr_scan"}, "fusion_lon": 0.0, "lon": -77.06601983333333, "name": "8ba7c0828c23462cd244dba0a63b338f", "is_reserved": 0, "is_disabled": 0}, {"lat": 38.913410999999996, "fusion_lat": 0.0, "type": "electric_scooter", "bike_id": "a049ae045b341dc2f055331cccf627b8", "rental_uris": {"ios": "https://dc.lft.to/lastmile_qr_scan", "android": "https://dc.lft.to/lastmile_qr_scan"}, "fusion_lon": 0.0, "lon": -77.003378, "name": "a049ae045b341dc2f055331cccf627b8", "is_reserved": 0, "is_disabled": 0}, {"lat": 38.89250783333333, "fusion_lat": 0.0, "type": "electric_bike", "bike_id": "6162db38583d213b31e19490a49892ad", "rental_uris": {"ios": "https://dc.lft.to/lastmile_qr_scan", "android": "https://dc.lft.to/lastmile_qr_scan"}, "fusion_lon": 0.0, "lon": -76.98548066666666, "name": "6162db38583d213b31e19490a49892ad", "is_reserved": 0, "is_disabled": 0}, {"lat": 38.900791, "fusion_lat": 0.0, "type": "electric_bike", "bike_id": "b6c026416a95bf0dd6c6457e402edaea", "rental_uris": {"ios": "https://dc.lft.to/lastmile_qr_scan", "android": "https://dc.lft.to/lastmile_qr_scan"}, "fusion_lon": 0.0, "lon": -77.05906916666666, "name": "b6c026416a95bf0dd6c6457e402edaea", "is_reserved": 0, "is_disabled": 0}, {"lat": 38.91131016666667, "fusion_lat": 0.0, "type": "electric_scooter", "bike_id": "e402893b517d2e407c57a643ad393a64", "rental_uris": {"ios": "https://dc.lft.to/lastmile_qr_scan", "android": "https://dc.lft.to/lastmile_qr_scan"}, "fusion_lon": 0.0, "lon": -77.02193766666667, "name": "e402893b517d2e407c57a643ad393a64", "is_reserved": 0, "is_disabled": 0}, {"lat": 38.871826666666664, "fusion_lat": 0.0, "type": "electric_scooter", "bike_id": "8082d9d32c46c7df98bc8bacddd4f4a4", "rental_uris": {"ios": "https://dc.lft.to/lastmile_qr_scan", "android": "https://dc.lft.to/lastmile_qr_scan"}, "fusion_lon": 0.0, "lon": -77.0064285, "name": "8082d9d32c46c7df98bc8bacddd4f4a4", "is_reserved": 0, "is_disabled": 0}, {"lat": 38.902929, "fusion_lat": 0.0, "type": "electric_scooter", "bike_id": "30951a3b9fd2f345399560ab4d428a9d", "rental_uris": {"ios": "https://dc.lft.to/lastmile_qr_scan", "android": "https://dc.lft.to/lastmile_qr_scan"}, "fusion_lon": 0.0, "lon": -77.0547535, "name": "30951a3b9fd2f345399560ab4d428a9d", "is_reserved": 0, "is_disabled": 0}, {"lat": 38.922286, "fusion_lat": 0.0, "type": "electric_scooter", "bike_id": "5725a693ba8f3ddf7ec162c9326c9645", "rental_uris": {"ios": "https://dc.lft.to/lastmile_qr_scan", "android": "https://dc.lft.to/lastmile_qr_scan"}, "fusion_lon": 0.0, "lon": -77.07288416666667, "name": "5725a693ba8f3ddf7ec162c9326c9645", "is_reserved": 0, "is_disabled": 0}, {"lat": 38.914520333333336, "fusion_lat": 0.0, "type": "electric_scooter", "bike_id": "90cb29e62a911ac43b50d21d97280c59", "rental_uris": {"ios": "https://dc.lft.to/lastmile_qr_scan", "android": "https://dc.lft.to/lastmile_qr_scan"}, "fusion_lon": 0.0, "lon": -77.02287166666666, "name": "90cb29e62a911ac43b50d21d97280c59", "is_reserved": 0, "is_disabled": 0}, {"lat": 38.89357033333334, "fusion_lat": 0.0, "type": "electric_scooter", "bike_id": "350c29ac549dd4ed22e52b62d3f91420", "rental_uris": {"ios": "https://dc.lft.to/lastmile_qr_scan", "android": "https://dc.lft.to/lastmile_qr_scan"}, "fusion_lon": 0.0, "lon": -77.00337083333334, "name": "350c29ac549dd4ed22e52b62d3f91420", "is_reserved": 0, "is_disabled": 0}, {"lat": 38.8934695, "fusion_lat": 0.0, "type": "electric_scooter", "bike_id": "ce915aae5a52ebdcf4198cf6b60cff0a", "rental_uris": {"ios": "https://dc.lft.to/lastmile_qr_scan", "android": "https://dc.lft.to/lastmile_qr_scan"}, "fusion_lon": 0.0, "lon": -76.95227466666667, "name": "ce915aae5a52ebdcf4198cf6b60cff0a", "is_reserved": 0, "is_disabled": 0}, {"lat": 38.972159833333336, "fusion_lat": 0.0, "type": "electric_scooter", "bike_id": "c11e9818d787045fdf9fcd663e5d9368", "rental_uris": {"ios": "https://dc.lft.to/lastmile_qr_scan", "android": "https://dc.lft.to/lastmile_qr_scan"}, "fusion_lon": 0.0, "lon": -77.03341, "name": "c11e9818d787045fdf9fcd663e5d9368", "is_reserved": 0, "is_disabled": 0}, {"lat": 38.8991855, "fusion_lat": 0.0, "type": "electric_scooter", "bike_id": "87b69b298326edb2b3657bd00e13618a", "rental_uris": {"ios": "https://dc.lft.to/lastmile_qr_scan", "android": "https://dc.lft.to/lastmile_qr_scan"}, "fusion_lon": 0.0, "lon": -77.01941983333333, "name": "87b69b298326edb2b3657bd00e13618a", "is_reserved": 0, "is_disabled": 0}, {"lat": 38.918181, "fusion_lat": 0.0, "type": "electric_scooter", "bike_id": "5bc8cee0f5c607af2119c03acb01790d", "rental_uris": {"ios": "https://dc.lft.to/lastmile_qr_scan", "android": "https://dc.lft.to/lastmile_qr_scan"}, "fusion_lon": 0.0, "lon": -77.0378545, "name": "5bc8cee0f5c607af2119c03acb01790d", "is_reserved": 0, "is_disabled": 0}, {"lat": 38.935667, "fusion_lat": 0.0, "type": "electric_bike", "bike_id": "0d55dcadf8e0bf194b593fc681606a29", "rental_uris": {"ios": "https://dc.lft.to/lastmile_qr_scan", "android": "https://dc.lft.to/lastmile_qr_scan"}, "fusion_lon": 0.0, "lon": -77.1061335, "name": "0d55dcadf8e0bf194b593fc681606a29", "is_reserved": 0, "is_disabled": 0}, {"lat": 38.90293366666667, "fusion_lat": 0.0, "type": "electric_scooter", "bike_id": "53068af6a7822ebc368a76cfa0ef5210", "rental_uris": {"ios": "https://dc.lft.to/lastmile_qr_scan", "android": "https://dc.lft.to/lastmile_qr_scan"}, "fusion_lon": 0.0, "lon": -76.99263566666667, "name": "53068af6a7822ebc368a76cfa0ef5210", "is_reserved": 0, "is_disabled": 0}, {"lat": 38.909379333333334, "fusion_lat": 0.0, "type": "electric_scooter", "bike_id": "db1830cceecf7941bbcc500d243d3a61", "rental_uris": {"ios": "https://dc.lft.to/lastmile_qr_scan", "android": "https://dc.lft.to/lastmile_qr_scan"}, "fusion_lon": 0.0, "lon": -76.99963966666667, "name": "db1830cceecf7941bbcc500d243d3a61", "is_reserved": 0, "is_disabled": 0}, {"lat": 38.91709566666667, "fusion_lat": 0.0, "type": "electric_scooter", "bike_id": "e86a2e33e379b5d52a247e8164a73050", "rental_uris": {"ios": "https://dc.lft.to/lastmile_qr_scan", "android": "https://dc.lft.to/lastmile_qr_scan"}, "fusion_lon": 0.0, "lon": -77.02438666666667, "name": "e86a2e33e379b5d52a247e8164a73050", "is_reserved": 0, "is_disabled": 0}, {"lat": 38.863828833333336, "fusion_lat": 0.0, "type": "electric_scooter", "bike_id": "c7b63dc2ddb5c158d74ed1ed3cac212a", "rental_uris": {"ios": "https://dc.lft.to/lastmile_qr_scan", "android": "https://dc.lft.to/lastmile_qr_scan"}, "fusion_lon": 0.0, "lon": -76.991285, "name": "c7b63dc2ddb5c158d74ed1ed3cac212a", "is_reserved": 0, "is_disabled": 0}, {"lat": 38.939624, "fusion_lat": 0.0, "type": "electric_scooter", "bike_id": "297bacd87fc66ec6e985b6a2211b1cc8", "rental_uris": {"ios": "https://dc.lft.to/lastmile_qr_scan", "android": "https://dc.lft.to/lastmile_qr_scan"}, "fusion_lon": 0.0, "lon": -77.03284083333334, "name": "297bacd87fc66ec6e985b6a2211b1cc8", "is_reserved": 0, "is_disabled": 0}, {"lat": 38.87736183333333, "fusion_lat": 0.0, "type": "electric_scooter", "bike_id": "97254495b2be4c31dc5c1e7afe8aa74e", "rental_uris": {"ios": "https://dc.lft.to/lastmile_qr_scan", "android": "https://dc.lft.to/lastmile_qr_scan"}, "fusion_lon": 0.0, "lon": -76.994883, "name": "97254495b2be4c31dc5c1e7afe8aa74e", "is_reserved": 0, "is_disabled": 0}, {"lat": 38.91405666666667, "fusion_lat": 0.0, "type": "electric_scooter", "bike_id": "f0628c431ab7c88d95761dfd398ff994", "rental_uris": {"ios": "https://dc.lft.to/lastmile_qr_scan", "android": "https://dc.lft.to/lastmile_qr_scan"}, "fusion_lon": 0.0, "lon": -77.032187, "name": "f0628c431ab7c88d95761dfd398ff994", "is_reserved": 0, "is_disabled": 0}, {"lat": 38.9247925, "fusion_lat": 0.0, "type": "electric_scooter", "bike_id": "f0f0ccd84a3ed73c7b1336b2942d9f78", "rental_uris": {"ios": "https://dc.lft.to/lastmile_qr_scan", "android": "https://dc.lft.to/lastmile_qr_scan"}, "fusion_lon": 0.0, "lon": -77.03914583333334, "name": "f0f0ccd84a3ed73c7b1336b2942d9f78", "is_reserved": 0, "is_disabled": 0}, {"lat": 38.903624, "fusion_lat": 0.0, "type": "electric_scooter", "bike_id": "880892c07af0b17a9f9bbf0b6ac7b9db", "rental_uris": {"ios": "https://dc.lft.to/lastmile_qr_scan", "android": "https://dc.lft.to/lastmile_qr_scan"}, "fusion_lon": 0.0, "lon": -77.02204033333334, "name": "880892c07af0b17a9f9bbf0b6ac7b9db", "is_reserved": 0, "is_disabled": 0}, {"lat": 38.941987166666664, "fusion_lat": 0.0, "type": "electric_scooter", "bike_id": "8b241971d98b9c878929689f610acfb5", "rental_uris": {"ios": "https://dc.lft.to/lastmile_qr_scan", "android": "https://dc.lft.to/lastmile_qr_scan"}, "fusion_lon": 0.0, "lon": -77.024754, "name": "8b241971d98b9c878929689f610acfb5", "is_reserved": 0, "is_disabled": 0}, {"lat": 38.918509666666665, "fusion_lat": 0.0, "type": "electric_scooter", "bike_id": "219c3cc2316ba96b32463982af2a685b", "rental_uris": {"ios": "https://dc.lft.to/lastmile_qr_scan", "android": "https://dc.lft.to/lastmile_qr_scan"}, "fusion_lon": 0.0, "lon": -77.01359783333334, "name": "219c3cc2316ba96b32463982af2a685b", "is_reserved": 0, "is_disabled": 0}, {"lat": 38.90774433333333, "fusion_lat": 0.0, "type": "electric_scooter", "bike_id": "3f8f1942d262c7362573e8559f08723f", "rental_uris": {"ios": "https://dc.lft.to/lastmile_qr_scan", "android": "https://dc.lft.to/lastmile_qr_scan"}, "fusion_lon": 0.0, "lon": -77.03841333333334, "name": "3f8f1942d262c7362573e8559f08723f", "is_reserved": 0, "is_disabled": 0}, {"lat": 38.9232405, "fusion_lat": 0.0, "type": "electric_scooter", "bike_id": "13218d66297ace3b109a48d3f6e85e77", "rental_uris": {"ios": "https://dc.lft.to/lastmile_qr_scan", "android": "https://dc.lft.to/lastmile_qr_scan"}, "fusion_lon": 0.0, "lon": -77.0353305, "name": "13218d66297ace3b109a48d3f6e85e77", "is_reserved": 0, "is_disabled": 0}, {"lat": 38.91795916666667, "fusion_lat": 0.0, "type": "electric_scooter", "bike_id": "1770c458ce03f1678dd89fc05838c1e9", "rental_uris": {"ios": "https://dc.lft.to/lastmile_qr_scan", "android": "https://dc.lft.to/lastmile_qr_scan"}, "fusion_lon": 0.0, "lon": -77.0344755, "name": "1770c458ce03f1678dd89fc05838c1e9", "is_reserved": 0, "is_disabled": 0}, {"lat": 38.907399, "fusion_lat": 0.0, "type": "electric_scooter", "bike_id": "8bd97555bb1a1ea5d7852a74e0559c9a", "rental_uris": {"ios": "https://dc.lft.to/lastmile_qr_scan", "android": "https://dc.lft.to/lastmile_qr_scan"}, "fusion_lon": 0.0, "lon": -77.044822, "name": "8bd97555bb1a1ea5d7852a74e0559c9a", "is_reserved": 0, "is_disabled": 0}, {"lat": 38.919963, "fusion_lat": 0.0, "type": "electric_scooter", "bike_id": "379ca82e42be1f7a96bc4e542009f785", "rental_uris": {"ios": "https://dc.lft.to/lastmile_qr_scan", "android": "https://dc.lft.to/lastmile_qr_scan"}, "fusion_lon": 0.0, "lon": -77.04764483333334, "name": "379ca82e42be1f7a96bc4e542009f785", "is_reserved": 0, "is_disabled": 0}, {"lat": 38.89475866666667, "fusion_lat": 0.0, "type": "electric_scooter", "bike_id": "75e13dcae90c5f6208a2864cd0f537e1", "rental_uris": {"ios": "https://dc.lft.to/lastmile_qr_scan", "android": "https://dc.lft.to/lastmile_qr_scan"}, "fusion_lon": 0.0, "lon": -77.01094966666666, "name": "75e13dcae90c5f6208a2864cd0f537e1", "is_reserved": 0, "is_disabled": 0}, {"lat": 38.91556, "fusion_lat": 0.0, "type": "electric_scooter", "bike_id": "f3c3d0ac7bffba607e08dcb48636d37e", "rental_uris": {"ios": "https://dc.lft.to/lastmile_qr_scan", "android": "https://dc.lft.to/lastmile_qr_scan"}, "fusion_lon": 0.0, "lon": -77.02060116666667, "name": "f3c3d0ac7bffba607e08dcb48636d37e", "is_reserved": 0, "is_disabled": 0}, {"lat": 38.901246, "fusion_lat": 0.0, "type": "electric_scooter", "bike_id": "9ae6dfcd0616eabd56f3a5e5ffb84f1e", "rental_uris": {"ios": "https://dc.lft.to/lastmile_qr_scan", "android": "https://dc.lft.to/lastmile_qr_scan"}, "fusion_lon": 0.0, "lon": -77.03187566666666, "name": "9ae6dfcd0616eabd56f3a5e5ffb84f1e", "is_reserved": 0, "is_disabled": 0}, {"lat": 38.902256666666666, "fusion_lat": 0.0, "type": "electric_scooter", "bike_id": "c5bb67e3979414e585ee494e6c97b8f9", "rental_uris": {"ios": "https://dc.lft.to/lastmile_qr_scan", "android": "https://dc.lft.to/lastmile_qr_scan"}, "fusion_lon": 0.0, "lon": -77.0209595, "name": "c5bb67e3979414e585ee494e6c97b8f9", "is_reserved": 0, "is_disabled": 0}, {"lat": 38.903552833333336, "fusion_lat": 0.0, "type": "electric_scooter", "bike_id": "ebcdba2ac38a8403507e888b4f42301b", "rental_uris": {"ios": "https://dc.lft.to/lastmile_qr_scan", "android": "https://dc.lft.to/lastmile_qr_scan"}, "fusion_lon": 0.0, "lon": -77.01739583333334, "name": "ebcdba2ac38a8403507e888b4f42301b", "is_reserved": 0, "is_disabled": 0}, {"lat": 38.9097155, "fusion_lat": 0.0, "type": "electric_scooter", "bike_id": "86204ea252fba16f31402e759d2532f1", "rental_uris": {"ios": "https://dc.lft.to/lastmile_qr_scan", "android": "https://dc.lft.to/lastmile_qr_scan"}, "fusion_lon": 0.0, "lon": -77.03868016666667, "name": "86204ea252fba16f31402e759d2532f1", "is_reserved": 0, "is_disabled": 0}, {"lat": 38.86010433333333, "fusion_lat": 0.0, "type": "electric_scooter", "bike_id": "7f54e27a4ea94ed2c7cd39403495adaf", "rental_uris": {"ios": "https://dc.lft.to/lastmile_qr_scan", "android": "https://dc.lft.to/lastmile_qr_scan"}, "fusion_lon": 0.0, "lon": -76.96704483333333, "name": "7f54e27a4ea94ed2c7cd39403495adaf", "is_reserved": 0, "is_disabled": 0}, {"lat": 38.908333166666665, "fusion_lat": 0.0, "type": "electric_scooter", "bike_id": "8a9489f4a7ee15981772d1d735e49b03", "rental_uris": {"ios": "https://dc.lft.to/lastmile_qr_scan", "android": "https://dc.lft.to/lastmile_qr_scan"}, "fusion_lon": 0.0, "lon": -77.03205566666666, "name": "8a9489f4a7ee15981772d1d735e49b03", "is_reserved": 0, "is_disabled": 0}, {"lat": 38.9112045, "fusion_lat": 0.0, "type": "electric_scooter", "bike_id": "0b62e127e0860ccd28eb067e4a7e6927", "rental_uris": {"ios": "https://dc.lft.to/lastmile_qr_scan", "android": "https://dc.lft.to/lastmile_qr_scan"}, "fusion_lon": 0.0, "lon": -77.04545966666667, "name": "0b62e127e0860ccd28eb067e4a7e6927", "is_reserved": 0, "is_disabled": 0}, {"lat": 38.90516066666667, "fusion_lat": 0.0, "type": "electric_scooter", "bike_id": "7189e60baaa74823e92e0b0d3562bc9d", "rental_uris": {"ios": "https://dc.lft.to/lastmile_qr_scan", "android": "https://dc.lft.to/lastmile_qr_scan"}, "fusion_lon": 0.0, "lon": -77.05006683333333, "name": "7189e60baaa74823e92e0b0d3562bc9d", "is_reserved": 0, "is_disabled": 0}, {"lat": 38.90414783333333, "fusion_lat": 0.0, "type": "electric_scooter", "bike_id": "5538172f7abaf02cff0ff1997e74442a", "rental_uris": {"ios": "https://dc.lft.to/lastmile_qr_scan", "android": "https://dc.lft.to/lastmile_qr_scan"}, "fusion_lon": 0.0, "lon": -77.05340366666667, "name": "5538172f7abaf02cff0ff1997e74442a", "is_reserved": 0, "is_disabled": 0}, {"lat": 38.9362875, "fusion_lat": 0.0, "type": "electric_scooter", "bike_id": "3ed34f6b6470aefd9f13224450644120", "rental_uris": {"ios": "https://dc.lft.to/lastmile_qr_scan", "android": "https://dc.lft.to/lastmile_qr_scan"}, "fusion_lon": 0.0, "lon": -77.0588335, "name": "3ed34f6b6470aefd9f13224450644120", "is_reserved": 0, "is_disabled": 0}, {"lat": 38.89726733333333, "fusion_lat": 0.0, "type": "electric_scooter", "bike_id": "820e8dcc5de2a8657fc938461f8d2b76", "rental_uris": {"ios": "https://dc.lft.to/lastmile_qr_scan", "android": "https://dc.lft.to/lastmile_qr_scan"}, "fusion_lon": 0.0, "lon": -77.02403716666667, "name": "820e8dcc5de2a8657fc938461f8d2b76", "is_reserved": 0, "is_disabled": 0}, {"lat": 38.91917933333333, "fusion_lat": 0.0, "type": "electric_scooter", "bike_id": "eaa0c54d771d25a2915d216fbebbab02", "rental_uris": {"ios": "https://dc.lft.to/lastmile_qr_scan", "android": "https://dc.lft.to/lastmile_qr_scan"}, "fusion_lon": 0.0, "lon": -77.024072, "name": "eaa0c54d771d25a2915d216fbebbab02", "is_reserved": 0, "is_disabled": 0}, {"lat": 38.912043, "fusion_lat": 0.0, "type": "electric_scooter", "bike_id": "19c9e8409102d94ff18a1a6ef14284fe", "rental_uris": {"ios": "https://dc.lft.to/lastmile_qr_scan", "android": "https://dc.lft.to/lastmile_qr_scan"}, "fusion_lon": 0.0, "lon": -77.0758915, "name": "19c9e8409102d94ff18a1a6ef14284fe", "is_reserved": 0, "is_disabled": 0}, {"lat": 38.9009825, "fusion_lat": 0.0, "type": "electric_scooter", "bike_id": "c52e5d4c87f15a2bf22bfb6d8a304795", "rental_uris": {"ios": "https://dc.lft.to/lastmile_qr_scan", "android": "https://dc.lft.to/lastmile_qr_scan"}, "fusion_lon": 0.0, "lon": -77.0395, "name": "c52e5d4c87f15a2bf22bfb6d8a304795", "is_reserved": 0, "is_disabled": 0}, {"lat": 38.91255366666667, "fusion_lat": 0.0, "type": "electric_scooter", "bike_id": "b45c7c137c8bad42e947edad85ce1a31", "rental_uris": {"ios": "https://dc.lft.to/lastmile_qr_scan", "android": "https://dc.lft.to/lastmile_qr_scan"}, "fusion_lon": 0.0, "lon": -77.04306683333333, "name": "b45c7c137c8bad42e947edad85ce1a31", "is_reserved": 0, "is_disabled": 0}, {"lat": 38.919240333333335, "fusion_lat": 0.0, "type": "electric_scooter", "bike_id": "0a825d5388860c66a4c72bffd462943c", "rental_uris": {"ios": "https://dc.lft.to/lastmile_qr_scan", "android": "https://dc.lft.to/lastmile_qr_scan"}, "fusion_lon": 0.0, "lon": -77.02510066666666, "name": "0a825d5388860c66a4c72bffd462943c", "is_reserved": 0, "is_disabled": 0}, {"lat": 38.95089816666667, "fusion_lat": 0.0, "type": "electric_bike", "bike_id": "6130a95b6483cf18f6e139ac16c89331", "rental_uris": {"ios": "https://dc.lft.to/lastmile_qr_scan", "android": "https://dc.lft.to/lastmile_qr_scan"}, "fusion_lon": 0.0, "lon": -76.9979645, "name": "6130a95b6483cf18f6e139ac16c89331", "is_reserved": 0, "is_disabled": 0}, {"lat": 38.935067333333336, "fusion_lat": 0.0, "type": "electric_bike", "bike_id": "efefd2ed2564236a6a06355321e4255f", "rental_uris": {"ios": "https://dc.lft.to/lastmile_qr_scan", "android": "https://dc.lft.to/lastmile_qr_scan"}, "fusion_lon": 0.0, "lon": -76.96306983333334, "name": "efefd2ed2564236a6a06355321e4255f", "is_reserved": 0, "is_disabled": 0}, {"lat": 38.9244515, "fusion_lat": 0.0, "type": "electric_scooter", "bike_id": "7b3349e1149693a17311e040f0698a3e", "rental_uris": {"ios": "https://dc.lft.to/lastmile_qr_scan", "android": "https://dc.lft.to/lastmile_qr_scan"}, "fusion_lon": 0.0, "lon": -77.02234066666666, "name": "7b3349e1149693a17311e040f0698a3e", "is_reserved": 0, "is_disabled": 0}, {"lat": 38.9305925, "fusion_lat": 0.0, "type": "electric_scooter", "bike_id": "002a9d51258ba413c54992c0256050a2", "rental_uris": {"ios": "https://dc.lft.to/lastmile_qr_scan", "android": "https://dc.lft.to/lastmile_qr_scan"}, "fusion_lon": 0.0, "lon": -77.05846916666667, "name": "002a9d51258ba413c54992c0256050a2", "is_reserved": 0, "is_disabled": 0}, {"lat": 38.901233500000004, "fusion_lat": 0.0, "type": "electric_scooter", "bike_id": "00cb4497cf4df5c807e67589eba2ed56", "rental_uris": {"ios": "https://dc.lft.to/lastmile_qr_scan", "android": "https://dc.lft.to/lastmile_qr_scan"}, "fusion_lon": 0.0, "lon": -77.01746616666667, "name": "00cb4497cf4df5c807e67589eba2ed56", "is_reserved": 0, "is_disabled": 0}, {"lat": 38.930541166666664, "fusion_lat": 0.0, "type": "electric_scooter", "bike_id": "f7f6320eb9c9a2b9d05414a4235a86a8", "rental_uris": {"ios": "https://dc.lft.to/lastmile_qr_scan", "android": "https://dc.lft.to/lastmile_qr_scan"}, "fusion_lon": 0.0, "lon": -77.058459, "name": "f7f6320eb9c9a2b9d05414a4235a86a8", "is_reserved": 0, "is_disabled": 0}, {"lat": 38.890106333333335, "fusion_lat": 0.0, "type": "electric_scooter", "bike_id": "5f5d4ced0b226e3b01c55eb91affa2af", "rental_uris": {"ios": "https://dc.lft.to/lastmile_qr_scan", "android": "https://dc.lft.to/lastmile_qr_scan"}, "fusion_lon": 0.0, "lon": -76.937498, "name": "5f5d4ced0b226e3b01c55eb91affa2af", "is_reserved": 0, "is_disabled": 0}, {"lat": 38.904083166666666, "fusion_lat": 0.0, "type": "electric_scooter", "bike_id": "ba3137cd7473786405470e42038064a6", "rental_uris": {"ios": "https://dc.lft.to/lastmile_qr_scan", "android": "https://dc.lft.to/lastmile_qr_scan"}, "fusion_lon": 0.0, "lon": -77.02588083333333, "name": "ba3137cd7473786405470e42038064a6", "is_reserved": 0, "is_disabled": 0}, {"lat": 38.994386166666665, "fusion_lat": 0.0, "type": "electric_bike", "bike_id": "444c1ab131999edf97a6aa57319ecc56", "rental_uris": {"ios": "https://dc.lft.to/lastmile_qr_scan", "android": "https://dc.lft.to/lastmile_qr_scan"}, "fusion_lon": 0.0, "lon": -77.02666916666666, "name": "444c1ab131999edf97a6aa57319ecc56", "is_reserved": 0, "is_disabled": 0}, {"lat": 38.91692783333333, "fusion_lat": 0.0, "type": "electric_scooter", "bike_id": "5faff1ae34c21e47cb70230367829369", "rental_uris": {"ios": "https://dc.lft.to/lastmile_qr_scan", "android": "https://dc.lft.to/lastmile_qr_scan"}, "fusion_lon": 0.0, "lon": -77.01229766666667, "name": "5faff1ae34c21e47cb70230367829369", "is_reserved": 0, "is_disabled": 0}, {"lat": 38.9067315, "fusion_lat": 0.0, "type": "electric_scooter", "bike_id": "bc3f2253ac49c8dbd352f8617d2b5d9c", "rental_uris": {"ios": "https://dc.lft.to/lastmile_qr_scan", "android": "https://dc.lft.to/lastmile_qr_scan"}, "fusion_lon": 0.0, "lon": -77.03440316666666, "name": "bc3f2253ac49c8dbd352f8617d2b5d9c", "is_reserved": 0, "is_disabled": 0}, {"lat": 38.90575283333333, "fusion_lat": 0.0, "type": "electric_scooter", "bike_id": "1f6c46bf3ab3d3e2cc2de1602b44d751", "rental_uris": {"ios": "https://dc.lft.to/lastmile_qr_scan", "android": "https://dc.lft.to/lastmile_qr_scan"}, "fusion_lon": 0.0, "lon": -77.018533, "name": "1f6c46bf3ab3d3e2cc2de1602b44d751", "is_reserved": 0, "is_disabled": 0}, {"lat": 38.89297466666667, "fusion_lat": 0.0, "type": "electric_scooter", "bike_id": "b9361fdab512095825fa319abb31e3c9", "rental_uris": {"ios": "https://dc.lft.to/lastmile_qr_scan", "android": "https://dc.lft.to/lastmile_qr_scan"}, "fusion_lon": 0.0, "lon": -77.07868783333333, "name": "b9361fdab512095825fa319abb31e3c9", "is_reserved": 0, "is_disabled": 0}, {"lat": 38.90784633333333, "fusion_lat": 0.0, "type": "electric_scooter", "bike_id": "a9591efa8f9cc15940d1380ed0706e37", "rental_uris": {"ios": "https://dc.lft.to/lastmile_qr_scan", "android": "https://dc.lft.to/lastmile_qr_scan"}, "fusion_lon": 0.0, "lon": -77.03829866666666, "name": "a9591efa8f9cc15940d1380ed0706e37", "is_reserved": 0, "is_disabled": 0}, {"lat": 38.94980066666667, "fusion_lat": 0.0, "type": "electric_scooter", "bike_id": "d80dd16984db34e081e9b8ef29c847cb", "rental_uris": {"ios": "https://dc.lft.to/lastmile_qr_scan", "android": "https://dc.lft.to/lastmile_qr_scan"}, "fusion_lon": 0.0, "lon": -77.099645, "name": "d80dd16984db34e081e9b8ef29c847cb", "is_reserved": 0, "is_disabled": 0}, {"lat": 38.93422833333333, "fusion_lat": 0.0, "type": "electric_scooter", "bike_id": "a2642eb01d1a74eab30703d7366a6ce5", "rental_uris": {"ios": "https://dc.lft.to/lastmile_qr_scan", "android": "https://dc.lft.to/lastmile_qr_scan"}, "fusion_lon": 0.0, "lon": -77.04003133333333, "name": "a2642eb01d1a74eab30703d7366a6ce5", "is_reserved": 0, "is_disabled": 0}, {"lat": 38.89236366666667, "fusion_lat": 0.0, "type": "electric_scooter", "bike_id": "9507d4da0efd6497ff10831a7654d072", "rental_uris": {"ios": "https://dc.lft.to/lastmile_qr_scan", "android": "https://dc.lft.to/lastmile_qr_scan"}, "fusion_lon": 0.0, "lon": -77.04488333333333, "name": "9507d4da0efd6497ff10831a7654d072", "is_reserved": 0, "is_disabled": 0}, {"lat": 39.0525085, "fusion_lat": 0.0, "type": "electric_bike", "bike_id": "d9b6667aaca0ee6b44f453300a72082c", "rental_uris": {"ios": "https://dc.lft.to/lastmile_qr_scan", "android": "https://dc.lft.to/lastmile_qr_scan"}, "fusion_lon": 0.0, "lon": -77.08067683333333, "name": "d9b6667aaca0ee6b44f453300a72082c", "is_reserved": 0, "is_disabled": 0}, {"lat": 38.868905833333336, "fusion_lat": 0.0, "type": "electric_bike", "bike_id": "4a3c7ee862cb07862aa3c71e7c1b3706", "rental_uris": {"ios": "https://dc.lft.to/lastmile_qr_scan", "android": "https://dc.lft.to/lastmile_qr_scan"}, "fusion_lon": 0.0, "lon": -76.985229, "name": "4a3c7ee862cb07862aa3c71e7c1b3706", "is_reserved": 0, "is_disabled": 0}, {"lat": 38.90154616666667, "fusion_lat": 0.0, "type": "electric_scooter", "bike_id": "8a08f6b09bc0024c16770b69e5f24e98", "rental_uris": {"ios": "https://dc.lft.to/lastmile_qr_scan", "android": "https://dc.lft.to/lastmile_qr_scan"}, "fusion_lon": 0.0, "lon": -77.04179133333334, "name": "8a08f6b09bc0024c16770b69e5f24e98", "is_reserved": 0, "is_disabled": 0}, {"lat": 38.923604833333336, "fusion_lat": 0.0, "type": "electric_scooter", "bike_id": "0279db62b2f491be9109f00dd181efc2", "rental_uris": {"ios": "https://dc.lft.to/lastmile_qr_scan", "android": "https://dc.lft.to/lastmile_qr_scan"}, "fusion_lon": 0.0, "lon": -77.05047633333334, "name": "0279db62b2f491be9109f00dd181efc2", "is_reserved": 0, "is_disabled": 0}, {"lat": 38.899728333333336, "fusion_lat": 0.0, "type": "electric_scooter", "bike_id": "11f9b7399bb2dcc9b7556972751a344e", "rental_uris": {"ios": "https://dc.lft.to/lastmile_qr_scan", "android": "https://dc.lft.to/lastmile_qr_scan"}, "fusion_lon": 0.0, "lon": -76.98552633333334, "name": "11f9b7399bb2dcc9b7556972751a344e", "is_reserved": 0, "is_disabled": 0}, {"lat": 38.91709683333333, "fusion_lat": 0.0, "type": "electric_scooter", "bike_id": "93e3fbc9092e1a4d08ec74200f75176f", "rental_uris": {"ios": "https://dc.lft.to/lastmile_qr_scan", "android": "https://dc.lft.to/lastmile_qr_scan"}, "fusion_lon": 0.0, "lon": -77.02778766666667, "name": "93e3fbc9092e1a4d08ec74200f75176f", "is_reserved": 0, "is_disabled": 0}, {"lat": 38.90777933333333, "fusion_lat": 0.0, "type": "electric_scooter", "bike_id": "41626928607cfd6effa965485b7304d7", "rental_uris": {"ios": "https://dc.lft.to/lastmile_qr_scan", "android": "https://dc.lft.to/lastmile_qr_scan"}, "fusion_lon": 0.0, "lon": -77.03829366666666, "name": "41626928607cfd6effa965485b7304d7", "is_reserved": 0, "is_disabled": 0}, {"lat": 38.916964166666666, "fusion_lat": 0.0, "type": "electric_scooter", "bike_id": "879b06b73e03f292703b10831bc7956f", "rental_uris": {"ios": "https://dc.lft.to/lastmile_qr_scan", "android": "https://dc.lft.to/lastmile_qr_scan"}, "fusion_lon": 0.0, "lon": -77.02601583333333, "name": "879b06b73e03f292703b10831bc7956f", "is_reserved": 0, "is_disabled": 0}, {"lat": 38.900308833333334, "fusion_lat": 0.0, "type": "electric_scooter", "bike_id": "d19b70b304071a3743418a176c066000", "rental_uris": {"ios": "https://dc.lft.to/lastmile_qr_scan", "android": "https://dc.lft.to/lastmile_qr_scan"}, "fusion_lon": 0.0, "lon": -77.03676516666667, "name": "d19b70b304071a3743418a176c066000", "is_reserved": 0, "is_disabled": 0}, {"lat": 38.9098145, "fusion_lat": 0.0, "type": "electric_scooter", "bike_id": "abfd9b3b641ce54dbe723678c0502f00", "rental_uris": {"ios": "https://dc.lft.to/lastmile_qr_scan", "android": "https://dc.lft.to/lastmile_qr_scan"}, "fusion_lon": 0.0, "lon": -77.03214416666667, "name": "abfd9b3b641ce54dbe723678c0502f00", "is_reserved": 0, "is_disabled": 0}, {"lat": 38.923383, "fusion_lat": 0.0, "type": "electric_scooter", "bike_id": "47cc9e85a9db6ae3b76f3ce7c434838d", "rental_uris": {"ios": "https://dc.lft.to/lastmile_qr_scan", "android": "https://dc.lft.to/lastmile_qr_scan"}, "fusion_lon": 0.0, "lon": -77.04149233333334, "name": "47cc9e85a9db6ae3b76f3ce7c434838d", "is_reserved": 0, "is_disabled": 0}, {"lat": 38.91713016666667, "fusion_lat": 0.0, "type": "electric_scooter", "bike_id": "6e83a3b7586378d5462ef09ef3e02409", "rental_uris": {"ios": "https://dc.lft.to/lastmile_qr_scan", "android": "https://dc.lft.to/lastmile_qr_scan"}, "fusion_lon": 0.0, "lon": -77.02909433333333, "name": "6e83a3b7586378d5462ef09ef3e02409", "is_reserved": 0, "is_disabled": 0}, {"lat": 38.8800715, "fusion_lat": 0.0, "type": "electric_scooter", "bike_id": "151afb2aae432e923784d334e2e5253e", "rental_uris": {"ios": "https://dc.lft.to/lastmile_qr_scan", "android": "https://dc.lft.to/lastmile_qr_scan"}, "fusion_lon": 0.0, "lon": -77.02483283333333, "name": "151afb2aae432e923784d334e2e5253e", "is_reserved": 0, "is_disabled": 0}, {"lat": 38.92797083333333, "fusion_lat": 0.0, "type": "electric_scooter", "bike_id": "6c6d383072850d80b45038498bf630b1", "rental_uris": {"ios": "https://dc.lft.to/lastmile_qr_scan", "android": "https://dc.lft.to/lastmile_qr_scan"}, "fusion_lon": 0.0, "lon": -77.02213016666667, "name": "6c6d383072850d80b45038498bf630b1", "is_reserved": 0, "is_disabled": 0}, {"lat": 38.935901666666666, "fusion_lat": 0.0, "type": "electric_scooter", "bike_id": "92b64ab8edfb8f0959e92395c0da7cf6", "rental_uris": {"ios": "https://dc.lft.to/lastmile_qr_scan", "android": "https://dc.lft.to/lastmile_qr_scan"}, "fusion_lon": 0.0, "lon": -77.0285105, "name": "92b64ab8edfb8f0959e92395c0da7cf6", "is_reserved": 0, "is_disabled": 0}, {"lat": 38.901221666666665, "fusion_lat": 0.0, "type": "electric_scooter", "bike_id": "a380f3a56ccd58972f8c3cba08cd20be", "rental_uris": {"ios": "https://dc.lft.to/lastmile_qr_scan", "android": "https://dc.lft.to/lastmile_qr_scan"}, "fusion_lon": 0.0, "lon": -77.050001, "name": "a380f3a56ccd58972f8c3cba08cd20be", "is_reserved": 0, "is_disabled": 0}, {"lat": 38.8844955, "fusion_lat": 0.0, "type": "electric_scooter", "bike_id": "0b060c1b3f323ecf43375a75d7e399fd", "rental_uris": {"ios": "https://dc.lft.to/lastmile_qr_scan", "android": "https://dc.lft.to/lastmile_qr_scan"}, "fusion_lon": 0.0, "lon": -76.95099216666667, "name": "0b060c1b3f323ecf43375a75d7e399fd", "is_reserved": 0, "is_disabled": 0}, {"lat": 38.844284, "fusion_lat": 0.0, "type": "electric_scooter", "bike_id": "7bcf4c60832a7d317a4c71b644d62d02", "rental_uris": {"ios": "https://dc.lft.to/lastmile_qr_scan", "android": "https://dc.lft.to/lastmile_qr_scan"}, "fusion_lon": 0.0, "lon": -76.99783083333334, "name": "7bcf4c60832a7d317a4c71b644d62d02", "is_reserved": 0, "is_disabled": 0}, {"lat": 38.88489033333333, "fusion_lat": 0.0, "type": "electric_scooter", "bike_id": "568e1c8e4a7e09e3f127f6f26b9d1cd0", "rental_uris": {"ios": "https://dc.lft.to/lastmile_qr_scan", "android": "https://dc.lft.to/lastmile_qr_scan"}, "fusion_lon": 0.0, "lon": -77.03480716666667, "name": "568e1c8e4a7e09e3f127f6f26b9d1cd0", "is_reserved": 0, "is_disabled": 0}, {"lat": 38.900311, "fusion_lat": 0.0, "type": "electric_scooter", "bike_id": "3ff31b0ad92a46d2ed76efc045794813", "rental_uris": {"ios": "https://dc.lft.to/lastmile_qr_scan", "android": "https://dc.lft.to/lastmile_qr_scan"}, "fusion_lon": 0.0, "lon": -77.00221416666666, "name": "3ff31b0ad92a46d2ed76efc045794813", "is_reserved": 0, "is_disabled": 0}, {"lat": 38.915756333333334, "fusion_lat": 0.0, "type": "electric_scooter", "bike_id": "5db25a8b67b35dc69f3f71d644ad54dd", "rental_uris": {"ios": "https://dc.lft.to/lastmile_qr_scan", "android": "https://dc.lft.to/lastmile_qr_scan"}, "fusion_lon": 0.0, "lon": -77.03849416666667, "name": "5db25a8b67b35dc69f3f71d644ad54dd", "is_reserved": 0, "is_disabled": 0}, {"lat": 38.966236, "fusion_lat": 0.0, "type": "electric_bike", "bike_id": "cecb3da611524a49aac6d5b845d7b816", "rental_uris": {"ios": "https://dc.lft.to/lastmile_qr_scan", "android": "https://dc.lft.to/lastmile_qr_scan"}, "fusion_lon": 0.0, "lon": -77.0342895, "name": "cecb3da611524a49aac6d5b845d7b816", "is_reserved": 0, "is_disabled": 0}, {"lat": 38.884838, "fusion_lat": 0.0, "type": "electric_scooter", "bike_id": "3ce4c3ddc7b17f367307238e3560ec9a", "rental_uris": {"ios": "https://dc.lft.to/lastmile_qr_scan", "android": "https://dc.lft.to/lastmile_qr_scan"}, "fusion_lon": 0.0, "lon": -77.007095, "name": "3ce4c3ddc7b17f367307238e3560ec9a", "is_reserved": 0, "is_disabled": 0}, {"lat": 38.8561815, "fusion_lat": 0.0, "type": "electric_bike", "bike_id": "fbf83c4373dcd139ba3865432729bd6e", "rental_uris": {"ios": "https://dc.lft.to/lastmile_qr_scan", "android": "https://dc.lft.to/lastmile_qr_scan"}, "fusion_lon": 0.0, "lon": -76.96156633333334, "name": "fbf83c4373dcd139ba3865432729bd6e", "is_reserved": 0, "is_disabled": 0}, {"lat": 38.907312833333336, "fusion_lat": 0.0, "type": "electric_scooter", "bike_id": "6d3c167c64f55eafd61559a9018ea840", "rental_uris": {"ios": "https://dc.lft.to/lastmile_qr_scan", "android": "https://dc.lft.to/lastmile_qr_scan"}, "fusion_lon": 0.0, "lon": -77.025483, "name": "6d3c167c64f55eafd61559a9018ea840", "is_reserved": 0, "is_disabled": 0}, {"lat": 38.909217166666664, "fusion_lat": 0.0, "type": "electric_scooter", "bike_id": "84b4c3bc3d9ca7181580b8d58a6a088d", "rental_uris": {"ios": "https://dc.lft.to/lastmile_qr_scan", "android": "https://dc.lft.to/lastmile_qr_scan"}, "fusion_lon": 0.0, "lon": -76.99977333333334, "name": "84b4c3bc3d9ca7181580b8d58a6a088d", "is_reserved": 0, "is_disabled": 0}, {"lat": 38.92387083333333, "fusion_lat": 0.0, "type": "electric_scooter", "bike_id": "7f7d63f5363bb518f1122d109c930ff4", "rental_uris": {"ios": "https://dc.lft.to/lastmile_qr_scan", "android": "https://dc.lft.to/lastmile_qr_scan"}, "fusion_lon": 0.0, "lon": -77.03099483333334, "name": "7f7d63f5363bb518f1122d109c930ff4", "is_reserved": 0, "is_disabled": 0}, {"lat": 38.936119833333336, "fusion_lat": 0.0, "type": "electric_scooter", "bike_id": "f76f7f2fdd27ab9d1b77c33213528ebf", "rental_uris": {"ios": "https://dc.lft.to/lastmile_qr_scan", "android": "https://dc.lft.to/lastmile_qr_scan"}, "fusion_lon": 0.0, "lon": -77.03183066666666, "name": "f76f7f2fdd27ab9d1b77c33213528ebf", "is_reserved": 0, "is_disabled": 0}, {"lat": 38.9000455, "fusion_lat": 0.0, "type": "electric_scooter", "bike_id": "cd722273087c46bc726649796398cc57", "rental_uris": {"ios": "https://dc.lft.to/lastmile_qr_scan", "android": "https://dc.lft.to/lastmile_qr_scan"}, "fusion_lon": 0.0, "lon": -77.05098416666667, "name": "cd722273087c46bc726649796398cc57", "is_reserved": 0, "is_disabled": 0}, {"lat": 38.8779035, "fusion_lat": 0.0, "type": "electric_scooter", "bike_id": "7e3c9f8ec1f0417022fdd0c022aecabc", "rental_uris": {"ios": "https://dc.lft.to/lastmile_qr_scan", "android": "https://dc.lft.to/lastmile_qr_scan"}, "fusion_lon": 0.0, "lon": -76.9941195, "name": "7e3c9f8ec1f0417022fdd0c022aecabc", "is_reserved": 0, "is_disabled": 0}, {"lat": 38.89843466666667, "fusion_lat": 0.0, "type": "electric_scooter", "bike_id": "7cb0ec22606bd0e6596095023e5a1d72", "rental_uris": {"ios": "https://dc.lft.to/lastmile_qr_scan", "android": "https://dc.lft.to/lastmile_qr_scan"}, "fusion_lon": 0.0, "lon": -77.03954366666666, "name": "7cb0ec22606bd0e6596095023e5a1d72", "is_reserved": 0, "is_disabled": 0}, {"lat": 38.91233416666667, "fusion_lat": 0.0, "type": "electric_scooter", "bike_id": "99ba38ba1434e06ef24bfab1fe820d7b", "rental_uris": {"ios": "https://dc.lft.to/lastmile_qr_scan", "android": "https://dc.lft.to/lastmile_qr_scan"}, "fusion_lon": 0.0, "lon": -77.048808, "name": "99ba38ba1434e06ef24bfab1fe820d7b", "is_reserved": 0, "is_disabled": 0}, {"lat": 38.957051666666665, "fusion_lat": 0.0, "type": "electric_scooter", "bike_id": "e75f2c8effa70e657195f9ed7cb22a8e", "rental_uris": {"ios": "https://dc.lft.to/lastmile_qr_scan", "android": "https://dc.lft.to/lastmile_qr_scan"}, "fusion_lon": 0.0, "lon": -77.0240605, "name": "e75f2c8effa70e657195f9ed7cb22a8e", "is_reserved": 0, "is_disabled": 0}, {"lat": 38.918865333333336, "fusion_lat": 0.0, "type": "electric_scooter", "bike_id": "3cab87393df657b2a6381d6b3711db0c", "rental_uris": {"ios": "https://dc.lft.to/lastmile_qr_scan", "android": "https://dc.lft.to/lastmile_qr_scan"}, "fusion_lon": 0.0, "lon": -77.0471615, "name": "3cab87393df657b2a6381d6b3711db0c", "is_reserved": 0, "is_disabled": 0}, {"lat": 38.912622166666665, "fusion_lat": 0.0, "type": "electric_scooter", "bike_id": "75e24f25dfd89684a65d7bd9db190ff1", "rental_uris": {"ios": "https://dc.lft.to/lastmile_qr_scan", "android": "https://dc.lft.to/lastmile_qr_scan"}, "fusion_lon": 0.0, "lon": -77.03261466666666, "name": "75e24f25dfd89684a65d7bd9db190ff1", "is_reserved": 0, "is_disabled": 0}, {"lat": 38.90409183333333, "fusion_lat": 0.0, "type": "electric_scooter", "bike_id": "1f108798e1cd04ed48b755897e34faaf", "rental_uris": {"ios": "https://dc.lft.to/lastmile_qr_scan", "android": "https://dc.lft.to/lastmile_qr_scan"}, "fusion_lon": 0.0, "lon": -76.97334466666666, "name": "1f108798e1cd04ed48b755897e34faaf", "is_reserved": 0, "is_disabled": 0}, {"lat": 38.93888883333333, "fusion_lat": 0.0, "type": "electric_scooter", "bike_id": "fa9197db981e4995c016e716a7c5bf90", "rental_uris": {"ios": "https://dc.lft.to/lastmile_qr_scan", "android": "https://dc.lft.to/lastmile_qr_scan"}, "fusion_lon": 0.0, "lon": -77.01766333333333, "name": "fa9197db981e4995c016e716a7c5bf90", "is_reserved": 0, "is_disabled": 0}, {"lat": 38.892256333333336, "fusion_lat": 0.0, "type": "electric_scooter", "bike_id": "aeedb01b24cefa21890fd36a1a275799", "rental_uris": {"ios": "https://dc.lft.to/lastmile_qr_scan", "android": "https://dc.lft.to/lastmile_qr_scan"}, "fusion_lon": 0.0, "lon": -77.04338583333333, "name": "aeedb01b24cefa21890fd36a1a275799", "is_reserved": 0, "is_disabled": 0}, {"lat": 38.86232733333333, "fusion_lat": 0.0, "type": "electric_scooter", "bike_id": "8984e797534b8925e22d13cc7e952ed5", "rental_uris": {"ios": "https://dc.lft.to/lastmile_qr_scan", "android": "https://dc.lft.to/lastmile_qr_scan"}, "fusion_lon": 0.0, "lon": -76.99553683333333, "name": "8984e797534b8925e22d13cc7e952ed5", "is_reserved": 0, "is_disabled": 0}, {"lat": 39.07055416666667, "fusion_lat": 0.0, "type": "electric_bike", "bike_id": "8289863d69bdd7fe736cbf9814066f38", "rental_uris": {"ios": "https://dc.lft.to/lastmile_qr_scan", "android": "https://dc.lft.to/lastmile_qr_scan"}, "fusion_lon": 0.0, "lon": -77.11509666666667, "name": "8289863d69bdd7fe736cbf9814066f38", "is_reserved": 0, "is_disabled": 0}, {"lat": 38.898712833333335, "fusion_lat": 0.0, "type": "electric_scooter", "bike_id": "c22a4d5356d83e4b72ff199e43f8c1cb", "rental_uris": {"ios": "https://dc.lft.to/lastmile_qr_scan", "android": "https://dc.lft.to/lastmile_qr_scan"}, "fusion_lon": 0.0, "lon": -77.04867116666667, "name": "c22a4d5356d83e4b72ff199e43f8c1cb", "is_reserved": 0, "is_disabled": 0}, {"lat": 38.9277095, "fusion_lat": 0.0, "type": "electric_scooter", "bike_id": "eb8ab9d1fa7d8375e82c45a7aca6f9b9", "rental_uris": {"ios": "https://dc.lft.to/lastmile_qr_scan", "android": "https://dc.lft.to/lastmile_qr_scan"}, "fusion_lon": 0.0, "lon": -76.97348266666667, "name": "eb8ab9d1fa7d8375e82c45a7aca6f9b9", "is_reserved": 0, "is_disabled": 0}, {"lat": 38.94970033333333, "fusion_lat": 0.0, "type": "electric_scooter", "bike_id": "ded9d5daf0b8fba27b463ff74f5ee96e", "rental_uris": {"ios": "https://dc.lft.to/lastmile_qr_scan", "android": "https://dc.lft.to/lastmile_qr_scan"}, "fusion_lon": 0.0, "lon": -77.066545, "name": "ded9d5daf0b8fba27b463ff74f5ee96e", "is_reserved": 0, "is_disabled": 0}, {"lat": 38.924418, "fusion_lat": 0.0, "type": "electric_scooter", "bike_id": "948f1f3d7285595c005ec94bd3bd654a", "rental_uris": {"ios": "https://dc.lft.to/lastmile_qr_scan", "android": "https://dc.lft.to/lastmile_qr_scan"}, "fusion_lon": 0.0, "lon": -77.03336666666667, "name": "948f1f3d7285595c005ec94bd3bd654a", "is_reserved": 0, "is_disabled": 0}, {"lat": 38.906599666666665, "fusion_lat": 0.0, "type": "electric_scooter", "bike_id": "c490280dac80b99db4449a880830d0e7", "rental_uris": {"ios": "https://dc.lft.to/lastmile_qr_scan", "android": "https://dc.lft.to/lastmile_qr_scan"}, "fusion_lon": 0.0, "lon": -77.027062, "name": "c490280dac80b99db4449a880830d0e7", "is_reserved": 0, "is_disabled": 0}, {"lat": 38.902109833333334, "fusion_lat": 0.0, "type": "electric_scooter", "bike_id": "a03c16e858989317548edd50f339caa7", "rental_uris": {"ios": "https://dc.lft.to/lastmile_qr_scan", "android": "https://dc.lft.to/lastmile_qr_scan"}, "fusion_lon": 0.0, "lon": -77.05151766666667, "name": "a03c16e858989317548edd50f339caa7", "is_reserved": 0, "is_disabled": 0}, {"lat": 38.90580216666667, "fusion_lat": 0.0, "type": "electric_scooter", "bike_id": "b821352dadd7873ca3fcfff1c9f53270", "rental_uris": {"ios": "https://dc.lft.to/lastmile_qr_scan", "android": "https://dc.lft.to/lastmile_qr_scan"}, "fusion_lon": 0.0, "lon": -77.02209083333334, "name": "b821352dadd7873ca3fcfff1c9f53270", "is_reserved": 0, "is_disabled": 0}, {"lat": 38.887463, "fusion_lat": 0.0, "type": "electric_scooter", "bike_id": "4a29fa34829649c8afe6ce16969bc7a0", "rental_uris": {"ios": "https://dc.lft.to/lastmile_qr_scan", "android": "https://dc.lft.to/lastmile_qr_scan"}, "fusion_lon": 0.0, "lon": -76.93265633333333, "name": "4a29fa34829649c8afe6ce16969bc7a0", "is_reserved": 0, "is_disabled": 0}, {"lat": 38.89044, "fusion_lat": 0.0, "type": "electric_scooter", "bike_id": "98260e694ab82d86cc6a0d0f1c952b8f", "rental_uris": {"ios": "https://dc.lft.to/lastmile_qr_scan", "android": "https://dc.lft.to/lastmile_qr_scan"}, "fusion_lon": 0.0, "lon": -76.9376155, "name": "98260e694ab82d86cc6a0d0f1c952b8f", "is_reserved": 0, "is_disabled": 0}, {"lat": 38.928816, "fusion_lat": 0.0, "type": "electric_scooter", "bike_id": "f81705d738c364cd2f6a47339098c862", "rental_uris": {"ios": "https://dc.lft.to/lastmile_qr_scan", "android": "https://dc.lft.to/lastmile_qr_scan"}, "fusion_lon": 0.0, "lon": -77.0347315, "name": "f81705d738c364cd2f6a47339098c862", "is_reserved": 0, "is_disabled": 0}, {"lat": 38.9229185, "fusion_lat": 0.0, "type": "electric_scooter", "bike_id": "d95e8fa301d9f3caf62a752f81a0c7d6", "rental_uris": {"ios": "https://dc.lft.to/lastmile_qr_scan", "android": "https://dc.lft.to/lastmile_qr_scan"}, "fusion_lon": 0.0, "lon": -77.02969566666667, "name": "d95e8fa301d9f3caf62a752f81a0c7d6", "is_reserved": 0, "is_disabled": 0}, {"lat": 38.924744, "fusion_lat": 0.0, "type": "electric_bike", "bike_id": "ba1a97ead2b4d6cd5e96be8160f11b3b", "rental_uris": {"ios": "https://dc.lft.to/lastmile_qr_scan", "android": "https://dc.lft.to/lastmile_qr_scan"}, "fusion_lon": 0.0, "lon": -77.23357683333333, "name": "ba1a97ead2b4d6cd5e96be8160f11b3b", "is_reserved": 0, "is_disabled": 0}, {"lat": 38.927166, "fusion_lat": 0.0, "type": "electric_scooter", "bike_id": "4a57628d997adcf9ea9513d6db33aede", "rental_uris": {"ios": "https://dc.lft.to/lastmile_qr_scan", "android": "https://dc.lft.to/lastmile_qr_scan"}, "fusion_lon": 0.0, "lon": -77.02785133333333, "name": "4a57628d997adcf9ea9513d6db33aede", "is_reserved": 0, "is_disabled": 0}, {"lat": 38.9167485, "fusion_lat": 0.0, "type": "electric_scooter", "bike_id": "e865a53794fbcaede1fb40248eaef836", "rental_uris": {"ios": "https://dc.lft.to/lastmile_qr_scan", "android": "https://dc.lft.to/lastmile_qr_scan"}, "fusion_lon": 0.0, "lon": -77.02393683333334, "name": "e865a53794fbcaede1fb40248eaef836", "is_reserved": 0, "is_disabled": 0}, {"lat": 38.968376, "fusion_lat": 0.0, "type": "electric_bike", "bike_id": "d0c8a8aed06810989e38a592dba6b390", "rental_uris": {"ios": "https://dc.lft.to/lastmile_qr_scan", "android": "https://dc.lft.to/lastmile_qr_scan"}, "fusion_lon": 0.0, "lon": -77.00597933333333, "name": "d0c8a8aed06810989e38a592dba6b390", "is_reserved": 0, "is_disabled": 0}, {"lat": 38.924599666666666, "fusion_lat": 0.0, "type": "electric_scooter", "bike_id": "52f69afdba855d73108ed3d43d4fc1ea", "rental_uris": {"ios": "https://dc.lft.to/lastmile_qr_scan", "android": "https://dc.lft.to/lastmile_qr_scan"}, "fusion_lon": 0.0, "lon": -77.03912983333333, "name": "52f69afdba855d73108ed3d43d4fc1ea", "is_reserved": 0, "is_disabled": 0}, {"lat": 38.892213, "fusion_lat": 0.0, "type": "electric_scooter", "bike_id": "6f56a0323fd73ce0a2dfe0719d864c1a", "rental_uris": {"ios": "https://dc.lft.to/lastmile_qr_scan", "android": "https://dc.lft.to/lastmile_qr_scan"}, "fusion_lon": 0.0, "lon": -77.043341, "name": "6f56a0323fd73ce0a2dfe0719d864c1a", "is_reserved": 0, "is_disabled": 0}, {"lat": 38.94629783333333, "fusion_lat": 0.0, "type": "electric_scooter", "bike_id": "c119fad3c517350893e1487e9d098518", "rental_uris": {"ios": "https://dc.lft.to/lastmile_qr_scan", "android": "https://dc.lft.to/lastmile_qr_scan"}, "fusion_lon": 0.0, "lon": -77.03948216666667, "name": "c119fad3c517350893e1487e9d098518", "is_reserved": 0, "is_disabled": 0}, {"lat": 38.917259666666666, "fusion_lat": 0.0, "type": "electric_scooter", "bike_id": "218bcf220e6536a380c5da0e3630b48a", "rental_uris": {"ios": "https://dc.lft.to/lastmile_qr_scan", "android": "https://dc.lft.to/lastmile_qr_scan"}, "fusion_lon": 0.0, "lon": -77.03668783333333, "name": "218bcf220e6536a380c5da0e3630b48a", "is_reserved": 0, "is_disabled": 0}, {"lat": 38.892167666666666, "fusion_lat": 0.0, "type": "electric_scooter", "bike_id": "717f920c14270305f894876cc686a4fe", "rental_uris": {"ios": "https://dc.lft.to/lastmile_qr_scan", "android": "https://dc.lft.to/lastmile_qr_scan"}, "fusion_lon": 0.0, "lon": -77.04369116666666, "name": "717f920c14270305f894876cc686a4fe", "is_reserved": 0, "is_disabled": 0}, {"lat": 38.891863666666666, "fusion_lat": 0.0, "type": "electric_scooter", "bike_id": "da30afdbec8d9c34ae93d2d9fd7473db", "rental_uris": {"ios": "https://dc.lft.to/lastmile_qr_scan", "android": "https://dc.lft.to/lastmile_qr_scan"}, "fusion_lon": 0.0, "lon": -77.03185116666667, "name": "da30afdbec8d9c34ae93d2d9fd7473db", "is_reserved": 0, "is_disabled": 0}, {"lat": 38.90368383333333, "fusion_lat": 0.0, "type": "electric_scooter", "bike_id": "4ae0bb674a0fe373a694d9c62f9d89ab", "rental_uris": {"ios": "https://dc.lft.to/lastmile_qr_scan", "android": "https://dc.lft.to/lastmile_qr_scan"}, "fusion_lon": 0.0, "lon": -77.04478033333334, "name": "4ae0bb674a0fe373a694d9c62f9d89ab", "is_reserved": 0, "is_disabled": 0}, {"lat": 38.910747, "fusion_lat": 0.0, "type": "electric_scooter", "bike_id": "01812d4abc5fb513a54abf8759352ed8", "rental_uris": {"ios": "https://dc.lft.to/lastmile_qr_scan", "android": "https://dc.lft.to/lastmile_qr_scan"}, "fusion_lon": 0.0, "lon": -77.02726866666667, "name": "01812d4abc5fb513a54abf8759352ed8", "is_reserved": 0, "is_disabled": 0}, {"lat": 38.92896916666667, "fusion_lat": 0.0, "type": "electric_scooter", "bike_id": "e1f50434d9b00a0c0ebf226b9ab06e7f", "rental_uris": {"ios": "https://dc.lft.to/lastmile_qr_scan", "android": "https://dc.lft.to/lastmile_qr_scan"}, "fusion_lon": 0.0, "lon": -77.05808216666667, "name": "e1f50434d9b00a0c0ebf226b9ab06e7f", "is_reserved": 0, "is_disabled": 0}, {"lat": 38.901125666666665, "fusion_lat": 0.0, "type": "electric_scooter", "bike_id": "3883903bec4312aab282d3d1a33ecc32", "rental_uris": {"ios": "https://dc.lft.to/lastmile_qr_scan", "android": "https://dc.lft.to/lastmile_qr_scan"}, "fusion_lon": 0.0, "lon": -77.05004866666667, "name": "3883903bec4312aab282d3d1a33ecc32", "is_reserved": 0, "is_disabled": 0}, {"lat": 38.898240666666666, "fusion_lat": 0.0, "type": "electric_bike", "bike_id": "c988bd4dd2e49b17939aa57b197482b8", "rental_uris": {"ios": "https://dc.lft.to/lastmile_qr_scan", "android": "https://dc.lft.to/lastmile_qr_scan"}, "fusion_lon": 0.0, "lon": -77.006043, "name": "c988bd4dd2e49b17939aa57b197482b8", "is_reserved": 0, "is_disabled": 0}, {"lat": 38.91626333333333, "fusion_lat": 0.0, "type": "electric_scooter", "bike_id": "58bfbb68ba3b57dd53b7a93a94721798", "rental_uris": {"ios": "https://dc.lft.to/lastmile_qr_scan", "android": "https://dc.lft.to/lastmile_qr_scan"}, "fusion_lon": 0.0, "lon": -77.03850833333334, "name": "58bfbb68ba3b57dd53b7a93a94721798", "is_reserved": 0, "is_disabled": 0}, {"lat": 38.903891, "fusion_lat": 0.0, "type": "electric_scooter", "bike_id": "84ce65b0c6a7ade16b98dfa90df650bb", "rental_uris": {"ios": "https://dc.lft.to/lastmile_qr_scan", "android": "https://dc.lft.to/lastmile_qr_scan"}, "fusion_lon": 0.0, "lon": -77.020613, "name": "84ce65b0c6a7ade16b98dfa90df650bb", "is_reserved": 0, "is_disabled": 0}, {"lat": 38.87467433333333, "fusion_lat": 0.0, "type": "electric_scooter", "bike_id": "6697b2ac3470fd1f1dc9762cda18c48d", "rental_uris": {"ios": "https://dc.lft.to/lastmile_qr_scan", "android": "https://dc.lft.to/lastmile_qr_scan"}, "fusion_lon": 0.0, "lon": -77.001057, "name": "6697b2ac3470fd1f1dc9762cda18c48d", "is_reserved": 0, "is_disabled": 0}, {"lat": 38.92877716666667, "fusion_lat": 0.0, "type": "electric_scooter", "bike_id": "dbcf6a9e8457cd5487e8e8b6fa9fc85d", "rental_uris": {"ios": "https://dc.lft.to/lastmile_qr_scan", "android": "https://dc.lft.to/lastmile_qr_scan"}, "fusion_lon": 0.0, "lon": -77.03233816666666, "name": "dbcf6a9e8457cd5487e8e8b6fa9fc85d", "is_reserved": 0, "is_disabled": 0}, {"lat": 38.87546533333333, "fusion_lat": 0.0, "type": "electric_scooter", "bike_id": "6415fbddb477e2d52c03a0a02a46e85f", "rental_uris": {"ios": "https://dc.lft.to/lastmile_qr_scan", "android": "https://dc.lft.to/lastmile_qr_scan"}, "fusion_lon": 0.0, "lon": -77.005371, "name": "6415fbddb477e2d52c03a0a02a46e85f", "is_reserved": 0, "is_disabled": 0}, {"lat": 38.9066555, "fusion_lat": 0.0, "type": "electric_scooter", "bike_id": "529bc86a0e6e2fa27d918d99ac7b5c90", "rental_uris": {"ios": "https://dc.lft.to/lastmile_qr_scan", "android": "https://dc.lft.to/lastmile_qr_scan"}, "fusion_lon": 0.0, "lon": -77.027068, "name": "529bc86a0e6e2fa27d918d99ac7b5c90", "is_reserved": 0, "is_disabled": 0}, {"lat": 38.923143833333334, "fusion_lat": 0.0, "type": "electric_scooter", "bike_id": "fae83c993139d62d52fad6a5340480ab", "rental_uris": {"ios": "https://dc.lft.to/lastmile_qr_scan", "android": "https://dc.lft.to/lastmile_qr_scan"}, "fusion_lon": 0.0, "lon": -77.04271916666667, "name": "fae83c993139d62d52fad6a5340480ab", "is_reserved": 0, "is_disabled": 0}, {"lat": 38.9134695, "fusion_lat": 0.0, "type": "electric_scooter", "bike_id": "90dc52bf6d5987e4aa0c22248767b196", "rental_uris": {"ios": "https://dc.lft.to/lastmile_qr_scan", "android": "https://dc.lft.to/lastmile_qr_scan"}, "fusion_lon": 0.0, "lon": -77.0294725, "name": "90dc52bf6d5987e4aa0c22248767b196", "is_reserved": 0, "is_disabled": 0}, {"lat": 38.89339566666666, "fusion_lat": 0.0, "type": "electric_scooter", "bike_id": "7730b75a604162945e13b1867dbaae18", "rental_uris": {"ios": "https://dc.lft.to/lastmile_qr_scan", "android": "https://dc.lft.to/lastmile_qr_scan"}, "fusion_lon": 0.0, "lon": -77.01228, "name": "7730b75a604162945e13b1867dbaae18", "is_reserved": 0, "is_disabled": 0}, {"lat": 38.897358833333335, "fusion_lat": 0.0, "type": "electric_bike", "bike_id": "97de63a1ce3dbf0dc48c9795599b4c29", "rental_uris": {"ios": "https://dc.lft.to/lastmile_qr_scan", "android": "https://dc.lft.to/lastmile_qr_scan"}, "fusion_lon": 0.0, "lon": -77.047357, "name": "97de63a1ce3dbf0dc48c9795599b4c29", "is_reserved": 0, "is_disabled": 0}, {"lat": 38.91764916666666, "fusion_lat": 0.0, "type": "electric_scooter", "bike_id": "e667bc441c43c2e7f7b32e8dbbe2e68c", "rental_uris": {"ios": "https://dc.lft.to/lastmile_qr_scan", "android": "https://dc.lft.to/lastmile_qr_scan"}, "fusion_lon": 0.0, "lon": -77.02363333333334, "name": "e667bc441c43c2e7f7b32e8dbbe2e68c", "is_reserved": 0, "is_disabled": 0}, {"lat": 38.9520405, "fusion_lat": 0.0, "type": "electric_scooter", "bike_id": "589b5378a7519588d9e2247fc3c55ee5", "rental_uris": {"ios": "https://dc.lft.to/lastmile_qr_scan", "android": "https://dc.lft.to/lastmile_qr_scan"}, "fusion_lon": 0.0, "lon": -77.02736533333334, "name": "589b5378a7519588d9e2247fc3c55ee5", "is_reserved": 0, "is_disabled": 0}, {"lat": 38.9332745, "fusion_lat": 0.0, "type": "electric_scooter", "bike_id": "7e901678b3c954ef4631cc6573cc1bad", "rental_uris": {"ios": "https://dc.lft.to/lastmile_qr_scan", "android": "https://dc.lft.to/lastmile_qr_scan"}, "fusion_lon": 0.0, "lon": -77.02923016666666, "name": "7e901678b3c954ef4631cc6573cc1bad", "is_reserved": 0, "is_disabled": 0}, {"lat": 38.9297085, "fusion_lat": 0.0, "type": "electric_scooter", "bike_id": "20428b0593020a5e19a443ebcf8741e9", "rental_uris": {"ios": "https://dc.lft.to/lastmile_qr_scan", "android": "https://dc.lft.to/lastmile_qr_scan"}, "fusion_lon": 0.0, "lon": -77.0234365, "name": "20428b0593020a5e19a443ebcf8741e9", "is_reserved": 0, "is_disabled": 0}, {"lat": 38.90412833333333, "fusion_lat": 0.0, "type": "electric_scooter", "bike_id": "c8ab687bd193e352da5270b7aa4dbecd", "rental_uris": {"ios": "https://dc.lft.to/lastmile_qr_scan", "android": "https://dc.lft.to/lastmile_qr_scan"}, "fusion_lon": 0.0, "lon": -77.05345683333333, "name": "c8ab687bd193e352da5270b7aa4dbecd", "is_reserved": 0, "is_disabled": 0}, {"lat": 38.9248935, "fusion_lat": 0.0, "type": "electric_scooter", "bike_id": "c467d6dbc7f7957b50c65b94cf183c5c", "rental_uris": {"ios": "https://dc.lft.to/lastmile_qr_scan", "android": "https://dc.lft.to/lastmile_qr_scan"}, "fusion_lon": 0.0, "lon": -77.03920883333333, "name": "c467d6dbc7f7957b50c65b94cf183c5c", "is_reserved": 0, "is_disabled": 0}, {"lat": 38.923296666666666, "fusion_lat": 0.0, "type": "electric_scooter", "bike_id": "348bd716d4c4bef80a390c43aaae96f5", "rental_uris": {"ios": "https://dc.lft.to/lastmile_qr_scan", "android": "https://dc.lft.to/lastmile_qr_scan"}, "fusion_lon": 0.0, "lon": -77.02977266666667, "name": "348bd716d4c4bef80a390c43aaae96f5", "is_reserved": 0, "is_disabled": 0}, {"lat": 38.90063133333334, "fusion_lat": 0.0, "type": "electric_scooter", "bike_id": "efc145b551f351e09e0f37b8e4d8604d", "rental_uris": {"ios": "https://dc.lft.to/lastmile_qr_scan", "android": "https://dc.lft.to/lastmile_qr_scan"}, "fusion_lon": 0.0, "lon": -77.0486295, "name": "efc145b551f351e09e0f37b8e4d8604d", "is_reserved": 0, "is_disabled": 0}, {"lat": 38.895896666666665, "fusion_lat": 0.0, "type": "electric_scooter", "bike_id": "e493ecd480d70fabec581b5f9431df31", "rental_uris": {"ios": "https://dc.lft.to/lastmile_qr_scan", "android": "https://dc.lft.to/lastmile_qr_scan"}, "fusion_lon": 0.0, "lon": -77.021796, "name": "e493ecd480d70fabec581b5f9431df31", "is_reserved": 0, "is_disabled": 0}, {"lat": 38.9230585, "fusion_lat": 0.0, "type": "electric_scooter", "bike_id": "56bd3067b90e289e59ddab7b6233d9d0", "rental_uris": {"ios": "https://dc.lft.to/lastmile_qr_scan", "android": "https://dc.lft.to/lastmile_qr_scan"}, "fusion_lon": 0.0, "lon": -77.029831, "name": "56bd3067b90e289e59ddab7b6233d9d0", "is_reserved": 0, "is_disabled": 0}, {"lat": 38.92414383333333, "fusion_lat": 0.0, "type": "electric_scooter", "bike_id": "b000cd97f310257a8405a876fa2f2f9f", "rental_uris": {"ios": "https://dc.lft.to/lastmile_qr_scan", "android": "https://dc.lft.to/lastmile_qr_scan"}, "fusion_lon": 0.0, "lon": -77.0208835, "name": "b000cd97f310257a8405a876fa2f2f9f", "is_reserved": 0, "is_disabled": 0}, {"lat": 38.902198, "fusion_lat": 0.0, "type": "electric_scooter", "bike_id": "b891d7661e9fecb1643d703bf7b7571a", "rental_uris": {"ios": "https://dc.lft.to/lastmile_qr_scan", "android": "https://dc.lft.to/lastmile_qr_scan"}, "fusion_lon": 0.0, "lon": -76.981984, "name": "b891d7661e9fecb1643d703bf7b7571a", "is_reserved": 0, "is_disabled": 0}, {"lat": 38.90863133333333, "fusion_lat": 0.0, "type": "electric_scooter", "bike_id": "0fdf662f910fa73dd4a757251191a2c9", "rental_uris": {"ios": "https://dc.lft.to/lastmile_qr_scan", "android": "https://dc.lft.to/lastmile_qr_scan"}, "fusion_lon": 0.0, "lon": -77.01943033333333, "name": "0fdf662f910fa73dd4a757251191a2c9", "is_reserved": 0, "is_disabled": 0}, {"lat": 38.89008066666667, "fusion_lat": 0.0, "type": "electric_scooter", "bike_id": "7554785e1919baba8ca6946984a4fccc", "rental_uris": {"ios": "https://dc.lft.to/lastmile_qr_scan", "android": "https://dc.lft.to/lastmile_qr_scan"}, "fusion_lon": 0.0, "lon": -76.93747366666666, "name": "7554785e1919baba8ca6946984a4fccc", "is_reserved": 0, "is_disabled": 0}, {"lat": 39.099649, "fusion_lat": 0.0, "type": "electric_bike", "bike_id": "39c370cb2217c9a7bee55224d77812b2", "rental_uris": {"ios": "https://dc.lft.to/lastmile_qr_scan", "android": "https://dc.lft.to/lastmile_qr_scan"}, "fusion_lon": 0.0, "lon": -77.1830815, "name": "39c370cb2217c9a7bee55224d77812b2", "is_reserved": 0, "is_disabled": 0}, {"lat": 38.933625666666664, "fusion_lat": 0.0, "type": "electric_scooter", "bike_id": "36cebd703b08cdb8cfb8527633171ae9", "rental_uris": {"ios": "https://dc.lft.to/lastmile_qr_scan", "android": "https://dc.lft.to/lastmile_qr_scan"}, "fusion_lon": 0.0, "lon": -77.0372385, "name": "36cebd703b08cdb8cfb8527633171ae9", "is_reserved": 0, "is_disabled": 0}, {"lat": 38.91542033333333, "fusion_lat": 0.0, "type": "electric_scooter", "bike_id": "51f817c3cdafd5bb5fcae7a457a98a7e", "rental_uris": {"ios": "https://dc.lft.to/lastmile_qr_scan", "android": "https://dc.lft.to/lastmile_qr_scan"}, "fusion_lon": 0.0, "lon": -77.011843, "name": "51f817c3cdafd5bb5fcae7a457a98a7e", "is_reserved": 0, "is_disabled": 0}, {"lat": 38.89983266666667, "fusion_lat": 0.0, "type": "electric_scooter", "bike_id": "721f1c38d693f56ce0bab56a3112972a", "rental_uris": {"ios": "https://dc.lft.to/lastmile_qr_scan", "android": "https://dc.lft.to/lastmile_qr_scan"}, "fusion_lon": 0.0, "lon": -77.02887666666666, "name": "721f1c38d693f56ce0bab56a3112972a", "is_reserved": 0, "is_disabled": 0}, {"lat": 38.906350833333335, "fusion_lat": 0.0, "type": "electric_scooter", "bike_id": "08755705714274310f145351ea86dabf", "rental_uris": {"ios": "https://dc.lft.to/lastmile_qr_scan", "android": "https://dc.lft.to/lastmile_qr_scan"}, "fusion_lon": 0.0, "lon": -77.03885266666667, "name": "08755705714274310f145351ea86dabf", "is_reserved": 0, "is_disabled": 0}, {"lat": 38.908223166666666, "fusion_lat": 0.0, "type": "electric_scooter", "bike_id": "678be17f5fc5b4146111c5c48e766d88", "rental_uris": {"ios": "https://dc.lft.to/lastmile_qr_scan", "android": "https://dc.lft.to/lastmile_qr_scan"}, "fusion_lon": 0.0, "lon": -77.034847, "name": "678be17f5fc5b4146111c5c48e766d88", "is_reserved": 0, "is_disabled": 0}, {"lat": 38.886325166666666, "fusion_lat": 0.0, "type": "electric_scooter", "bike_id": "fca0c40f0d35d0517d4298bfc4490992", "rental_uris": {"ios": "https://dc.lft.to/lastmile_qr_scan", "android": "https://dc.lft.to/lastmile_qr_scan"}, "fusion_lon": 0.0, "lon": -76.925916, "name": "fca0c40f0d35d0517d4298bfc4490992", "is_reserved": 0, "is_disabled": 0}, {"lat": 38.878657, "fusion_lat": 0.0, "type": "electric_scooter", "bike_id": "23c8b37d9060fd98e88d88830f0688c3", "rental_uris": {"ios": "https://dc.lft.to/lastmile_qr_scan", "android": "https://dc.lft.to/lastmile_qr_scan"}, "fusion_lon": 0.0, "lon": -76.96261666666666, "name": "23c8b37d9060fd98e88d88830f0688c3", "is_reserved": 0, "is_disabled": 0}, {"lat": 38.899258, "fusion_lat": 0.0, "type": "electric_scooter", "bike_id": "684cdbf5ed28d379d183cb189d47b5ce", "rental_uris": {"ios": "https://dc.lft.to/lastmile_qr_scan", "android": "https://dc.lft.to/lastmile_qr_scan"}, "fusion_lon": 0.0, "lon": -77.0500465, "name": "684cdbf5ed28d379d183cb189d47b5ce", "is_reserved": 0, "is_disabled": 0}, {"lat": 38.91968766666667, "fusion_lat": 0.0, "type": "electric_scooter", "bike_id": "db8a57400435b89057cd3033ee793ea4", "rental_uris": {"ios": "https://dc.lft.to/lastmile_qr_scan", "android": "https://dc.lft.to/lastmile_qr_scan"}, "fusion_lon": 0.0, "lon": -77.03379983333333, "name": "db8a57400435b89057cd3033ee793ea4", "is_reserved": 0, "is_disabled": 0}, {"lat": 38.91910266666667, "fusion_lat": 0.0, "type": "electric_scooter", "bike_id": "358e2e006644a5f9ecbb5ba6fe878c80", "rental_uris": {"ios": "https://dc.lft.to/lastmile_qr_scan", "android": "https://dc.lft.to/lastmile_qr_scan"}, "fusion_lon": 0.0, "lon": -77.04476266666667, "name": "358e2e006644a5f9ecbb5ba6fe878c80", "is_reserved": 0, "is_disabled": 0}, {"lat": 38.904087833333335, "fusion_lat": 0.0, "type": "electric_scooter", "bike_id": "27629b54c77d957d583ce6847a158dfe", "rental_uris": {"ios": "https://dc.lft.to/lastmile_qr_scan", "android": "https://dc.lft.to/lastmile_qr_scan"}, "fusion_lon": 0.0, "lon": -76.97331266666667, "name": "27629b54c77d957d583ce6847a158dfe", "is_reserved": 0, "is_disabled": 0}, {"lat": 38.905266166666664, "fusion_lat": 0.0, "type": "electric_scooter", "bike_id": "aa85b817ef0da2fe2eadafdb35891bec", "rental_uris": {"ios": "https://dc.lft.to/lastmile_qr_scan", "android": "https://dc.lft.to/lastmile_qr_scan"}, "fusion_lon": 0.0, "lon": -77.0057705, "name": "aa85b817ef0da2fe2eadafdb35891bec", "is_reserved": 0, "is_disabled": 0}, {"lat": 38.929334, "fusion_lat": 0.0, "type": "electric_scooter", "bike_id": "3e89d00b978266eff1ffbb64fc3992ef", "rental_uris": {"ios": "https://dc.lft.to/lastmile_qr_scan", "android": "https://dc.lft.to/lastmile_qr_scan"}, "fusion_lon": 0.0, "lon": -77.03284533333333, "name": "3e89d00b978266eff1ffbb64fc3992ef", "is_reserved": 0, "is_disabled": 0}, {"lat": 38.9125605, "fusion_lat": 0.0, "type": "electric_scooter", "bike_id": "5057f8d8d587060da14f6dc9103ac5fa", "rental_uris": {"ios": "https://dc.lft.to/lastmile_qr_scan", "android": "https://dc.lft.to/lastmile_qr_scan"}, "fusion_lon": 0.0, "lon": -77.04736033333333, "name": "5057f8d8d587060da14f6dc9103ac5fa", "is_reserved": 0, "is_disabled": 0}, {"lat": 38.9233325, "fusion_lat": 0.0, "type": "electric_scooter", "bike_id": "ed031f180d40c62bbba3ce0e8fa66065", "rental_uris": {"ios": "https://dc.lft.to/lastmile_qr_scan", "android": "https://dc.lft.to/lastmile_qr_scan"}, "fusion_lon": 0.0, "lon": -77.05689516666666, "name": "ed031f180d40c62bbba3ce0e8fa66065", "is_reserved": 0, "is_disabled": 0}, {"lat": 38.843368, "fusion_lat": 0.0, "type": "electric_scooter", "bike_id": "a08deae09fa012d9f7b520664d0d36ea", "rental_uris": {"ios": "https://dc.lft.to/lastmile_qr_scan", "android": "https://dc.lft.to/lastmile_qr_scan"}, "fusion_lon": 0.0, "lon": -76.99911983333334, "name": "a08deae09fa012d9f7b520664d0d36ea", "is_reserved": 0, "is_disabled": 0}, {"lat": 38.935783666666666, "fusion_lat": 0.0, "type": "electric_scooter", "bike_id": "00a784a08d74a5654620ba1d9b3a39a6", "rental_uris": {"ios": "https://dc.lft.to/lastmile_qr_scan", "android": "https://dc.lft.to/lastmile_qr_scan"}, "fusion_lon": 0.0, "lon": -77.02125816666667, "name": "00a784a08d74a5654620ba1d9b3a39a6", "is_reserved": 0, "is_disabled": 0}, {"lat": 38.908746, "fusion_lat": 0.0, "type": "electric_scooter", "bike_id": "e976d1760a264f7055fbc0eec88dc816", "rental_uris": {"ios": "https://dc.lft.to/lastmile_qr_scan", "android": "https://dc.lft.to/lastmile_qr_scan"}, "fusion_lon": 0.0, "lon": -77.0435655, "name": "e976d1760a264f7055fbc0eec88dc816", "is_reserved": 0, "is_disabled": 0}, {"lat": 38.90253466666667, "fusion_lat": 0.0, "type": "electric_scooter", "bike_id": "96dd3a2a8ebd66e648b8ecd240dd93e0", "rental_uris": {"ios": "https://dc.lft.to/lastmile_qr_scan", "android": "https://dc.lft.to/lastmile_qr_scan"}, "fusion_lon": 0.0, "lon": -77.0340265, "name": "96dd3a2a8ebd66e648b8ecd240dd93e0", "is_reserved": 0, "is_disabled": 0}, {"lat": 38.91535783333333, "fusion_lat": 0.0, "type": "electric_scooter", "bike_id": "27840dac26da7fe4a1e606a17b5a7990", "rental_uris": {"ios": "https://dc.lft.to/lastmile_qr_scan", "android": "https://dc.lft.to/lastmile_qr_scan"}, "fusion_lon": 0.0, "lon": -77.03183816666666, "name": "27840dac26da7fe4a1e606a17b5a7990", "is_reserved": 0, "is_disabled": 0}, {"lat": 38.883419833333335, "fusion_lat": 0.0, "type": "electric_scooter", "bike_id": "2cda741e78ec74ad452371f3853f6f60", "rental_uris": {"ios": "https://dc.lft.to/lastmile_qr_scan", "android": "https://dc.lft.to/lastmile_qr_scan"}, "fusion_lon": 0.0, "lon": -76.93504, "name": "2cda741e78ec74ad452371f3853f6f60", "is_reserved": 0, "is_disabled": 0}, {"lat": 38.91815916666667, "fusion_lat": 0.0, "type": "electric_scooter", "bike_id": "90d778fe7d04752526aa731e02a22c8e", "rental_uris": {"ios": "https://dc.lft.to/lastmile_qr_scan", "android": "https://dc.lft.to/lastmile_qr_scan"}, "fusion_lon": 0.0, "lon": -77.0258955, "name": "90d778fe7d04752526aa731e02a22c8e", "is_reserved": 0, "is_disabled": 0}, {"lat": 38.891717, "fusion_lat": 0.0, "type": "electric_scooter", "bike_id": "1829cb78d8199f8a72ac3ccb833d75cc", "rental_uris": {"ios": "https://dc.lft.to/lastmile_qr_scan", "android": "https://dc.lft.to/lastmile_qr_scan"}, "fusion_lon": 0.0, "lon": -76.92663416666667, "name": "1829cb78d8199f8a72ac3ccb833d75cc", "is_reserved": 0, "is_disabled": 0}, {"lat": 38.921846, "fusion_lat": 0.0, "type": "electric_scooter", "bike_id": "5769dafb127fb2eda17a3c9fc0271b8f", "rental_uris": {"ios": "https://dc.lft.to/lastmile_qr_scan", "android": "https://dc.lft.to/lastmile_qr_scan"}, "fusion_lon": 0.0, "lon": -77.042486, "name": "5769dafb127fb2eda17a3c9fc0271b8f", "is_reserved": 0, "is_disabled": 0}, {"lat": 38.90866183333333, "fusion_lat": 0.0, "type": "electric_scooter", "bike_id": "c0b7140e4056ba590c67db3439120983", "rental_uris": {"ios": "https://dc.lft.to/lastmile_qr_scan", "android": "https://dc.lft.to/lastmile_qr_scan"}, "fusion_lon": 0.0, "lon": -77.02385633333333, "name": "c0b7140e4056ba590c67db3439120983", "is_reserved": 0, "is_disabled": 0}, {"lat": 38.903434, "fusion_lat": 0.0, "type": "electric_scooter", "bike_id": "9af0c6da8a831f798af89372ae7d83c9", "rental_uris": {"ios": "https://dc.lft.to/lastmile_qr_scan", "android": "https://dc.lft.to/lastmile_qr_scan"}, "fusion_lon": 0.0, "lon": -77.0502745, "name": "9af0c6da8a831f798af89372ae7d83c9", "is_reserved": 0, "is_disabled": 0}, {"lat": 38.90948183333333, "fusion_lat": 0.0, "type": "electric_scooter", "bike_id": "37cf34c7eddd7852faf4f53504f6ee41", "rental_uris": {"ios": "https://dc.lft.to/lastmile_qr_scan", "android": "https://dc.lft.to/lastmile_qr_scan"}, "fusion_lon": 0.0, "lon": -77.034515, "name": "37cf34c7eddd7852faf4f53504f6ee41", "is_reserved": 0, "is_disabled": 0}, {"lat": 38.88446183333333, "fusion_lat": 0.0, "type": "electric_scooter", "bike_id": "af3e98f63b564fbba33892c7a63a445f", "rental_uris": {"ios": "https://dc.lft.to/lastmile_qr_scan", "android": "https://dc.lft.to/lastmile_qr_scan"}, "fusion_lon": 0.0, "lon": -77.01761733333333, "name": "af3e98f63b564fbba33892c7a63a445f", "is_reserved": 0, "is_disabled": 0}, {"lat": 38.925136, "fusion_lat": 0.0, "type": "electric_scooter", "bike_id": "86e42c796c6165ea5e9390a06648fcfd", "rental_uris": {"ios": "https://dc.lft.to/lastmile_qr_scan", "android": "https://dc.lft.to/lastmile_qr_scan"}, "fusion_lon": 0.0, "lon": -77.05033816666666, "name": "86e42c796c6165ea5e9390a06648fcfd", "is_reserved": 0, "is_disabled": 0}, {"lat": 38.907452166666666, "fusion_lat": 0.0, "type": "electric_scooter", "bike_id": "be12f6be1fc4b83df7ed92fd7ea12a37", "rental_uris": {"ios": "https://dc.lft.to/lastmile_qr_scan", "android": "https://dc.lft.to/lastmile_qr_scan"}, "fusion_lon": 0.0, "lon": -77.02975016666667, "name": "be12f6be1fc4b83df7ed92fd7ea12a37", "is_reserved": 0, "is_disabled": 0}, {"lat": 38.90417, "fusion_lat": 0.0, "type": "electric_scooter", "bike_id": "db68c89d9b16b743cd4363e616701bcf", "rental_uris": {"ios": "https://dc.lft.to/lastmile_qr_scan", "android": "https://dc.lft.to/lastmile_qr_scan"}, "fusion_lon": 0.0, "lon": -77.0259345, "name": "db68c89d9b16b743cd4363e616701bcf", "is_reserved": 0, "is_disabled": 0}, {"lat": 38.912007833333334, "fusion_lat": 0.0, "type": "electric_scooter", "bike_id": "e400557e1fd5bf07a0f7123598ae91b9", "rental_uris": {"ios": "https://dc.lft.to/lastmile_qr_scan", "android": "https://dc.lft.to/lastmile_qr_scan"}, "fusion_lon": 0.0, "lon": -76.98774383333334, "name": "e400557e1fd5bf07a0f7123598ae91b9", "is_reserved": 0, "is_disabled": 0}, {"lat": 38.927567833333335, "fusion_lat": 0.0, "type": "electric_scooter", "bike_id": "5e0a60928cfd6d1b2d7d8c3883b7a50d", "rental_uris": {"ios": "https://dc.lft.to/lastmile_qr_scan", "android": "https://dc.lft.to/lastmile_qr_scan"}, "fusion_lon": 0.0, "lon": -77.05263666666667, "name": "5e0a60928cfd6d1b2d7d8c3883b7a50d", "is_reserved": 0, "is_disabled": 0}, {"lat": 38.92417866666667, "fusion_lat": 0.0, "type": "electric_scooter", "bike_id": "ed49975c8425aae2aecc61c533b98b50", "rental_uris": {"ios": "https://dc.lft.to/lastmile_qr_scan", "android": "https://dc.lft.to/lastmile_qr_scan"}, "fusion_lon": 0.0, "lon": -77.01951133333333, "name": "ed49975c8425aae2aecc61c533b98b50", "is_reserved": 0, "is_disabled": 0}, {"lat": 38.9224855, "fusion_lat": 0.0, "type": "electric_scooter", "bike_id": "52923a2f9076d05b6f2e412742da51c9", "rental_uris": {"ios": "https://dc.lft.to/lastmile_qr_scan", "android": "https://dc.lft.to/lastmile_qr_scan"}, "fusion_lon": 0.0, "lon": -77.02983583333334, "name": "52923a2f9076d05b6f2e412742da51c9", "is_reserved": 0, "is_disabled": 0}, {"lat": 38.90468166666667, "fusion_lat": 0.0, "type": "electric_scooter", "bike_id": "6301d3f5d879a5fbdfb91d5b7f1bb2db", "rental_uris": {"ios": "https://dc.lft.to/lastmile_qr_scan", "android": "https://dc.lft.to/lastmile_qr_scan"}, "fusion_lon": 0.0, "lon": -76.995104, "name": "6301d3f5d879a5fbdfb91d5b7f1bb2db", "is_reserved": 0, "is_disabled": 0}, {"lat": 38.92068166666667, "fusion_lat": 0.0, "type": "electric_scooter", "bike_id": "e0ea46c7abc852b14e08bbf691c9ce5d", "rental_uris": {"ios": "https://dc.lft.to/lastmile_qr_scan", "android": "https://dc.lft.to/lastmile_qr_scan"}, "fusion_lon": 0.0, "lon": -77.04568516666667, "name": "e0ea46c7abc852b14e08bbf691c9ce5d", "is_reserved": 0, "is_disabled": 0}, {"lat": 38.819875333333336, "fusion_lat": 0.0, "type": "electric_bike", "bike_id": "9a1b7826d02f762499c382780bd1f065", "rental_uris": {"ios": "https://dc.lft.to/lastmile_qr_scan", "android": "https://dc.lft.to/lastmile_qr_scan"}, "fusion_lon": 0.0, "lon": -76.99811433333333, "name": "9a1b7826d02f762499c382780bd1f065", "is_reserved": 0, "is_disabled": 0}, {"lat": 38.924474833333335, "fusion_lat": 0.0, "type": "electric_scooter", "bike_id": "7f9197a78777fee4ee6431f0e3e49bf4", "rental_uris": {"ios": "https://dc.lft.to/lastmile_qr_scan", "android": "https://dc.lft.to/lastmile_qr_scan"}, "fusion_lon": 0.0, "lon": -76.98988083333333, "name": "7f9197a78777fee4ee6431f0e3e49bf4", "is_reserved": 0, "is_disabled": 0}, {"lat": 38.912703666666665, "fusion_lat": 0.0, "type": "electric_scooter", "bike_id": "5030462730bddf3545a53bcda558de87", "rental_uris": {"ios": "https://dc.lft.to/lastmile_qr_scan", "android": "https://dc.lft.to/lastmile_qr_scan"}, "fusion_lon": 0.0, "lon": -77.016754, "name": "5030462730bddf3545a53bcda558de87", "is_reserved": 0, "is_disabled": 0}, {"lat": 38.89222633333333, "fusion_lat": 0.0, "type": "electric_scooter", "bike_id": "8d703e22eef3dda92a6217c7ad91ae2d", "rental_uris": {"ios": "https://dc.lft.to/lastmile_qr_scan", "android": "https://dc.lft.to/lastmile_qr_scan"}, "fusion_lon": 0.0, "lon": -77.0433005, "name": "8d703e22eef3dda92a6217c7ad91ae2d", "is_reserved": 0, "is_disabled": 0}, {"lat": 38.903259166666665, "fusion_lat": 0.0, "type": "electric_scooter", "bike_id": "dbc376828c0721ac0633457e646f9301", "rental_uris": {"ios": "https://dc.lft.to/lastmile_qr_scan", "android": "https://dc.lft.to/lastmile_qr_scan"}, "fusion_lon": 0.0, "lon": -77.040035, "name": "dbc376828c0721ac0633457e646f9301", "is_reserved": 0, "is_disabled": 0}, {"lat": 38.9173505, "fusion_lat": 0.0, "type": "electric_scooter", "bike_id": "11d77b98e337226016910d5e36c3a18f", "rental_uris": {"ios": "https://dc.lft.to/lastmile_qr_scan", "android": "https://dc.lft.to/lastmile_qr_scan"}, "fusion_lon": 0.0, "lon": -77.01221533333333, "name": "11d77b98e337226016910d5e36c3a18f", "is_reserved": 0, "is_disabled": 0}, {"lat": 38.9196505, "fusion_lat": 0.0, "type": "electric_scooter", "bike_id": "7b85d3e253c135943ebdb3e3c2c4d3b1", "rental_uris": {"ios": "https://dc.lft.to/lastmile_qr_scan", "android": "https://dc.lft.to/lastmile_qr_scan"}, "fusion_lon": 0.0, "lon": -77.0149265, "name": "7b85d3e253c135943ebdb3e3c2c4d3b1", "is_reserved": 0, "is_disabled": 0}, {"lat": 38.920265, "fusion_lat": 0.0, "type": "electric_scooter", "bike_id": "8c4bdfea62d91c64dc7e6cf6f1580001", "rental_uris": {"ios": "https://dc.lft.to/lastmile_qr_scan", "android": "https://dc.lft.to/lastmile_qr_scan"}, "fusion_lon": 0.0, "lon": -77.07168683333333, "name": "8c4bdfea62d91c64dc7e6cf6f1580001", "is_reserved": 0, "is_disabled": 0}, {"lat": 38.914308166666665, "fusion_lat": 0.0, "type": "electric_scooter", "bike_id": "ca2b927bc4ee9a71a791a6f56646ee44", "rental_uris": {"ios": "https://dc.lft.to/lastmile_qr_scan", "android": "https://dc.lft.to/lastmile_qr_scan"}, "fusion_lon": 0.0, "lon": -76.9844775, "name": "ca2b927bc4ee9a71a791a6f56646ee44", "is_reserved": 0, "is_disabled": 0}, {"lat": 38.8918615, "fusion_lat": 0.0, "type": "electric_scooter", "bike_id": "c315388f21d01dc29c9925a5b510be88", "rental_uris": {"ios": "https://dc.lft.to/lastmile_qr_scan", "android": "https://dc.lft.to/lastmile_qr_scan"}, "fusion_lon": 0.0, "lon": -77.03183916666667, "name": "c315388f21d01dc29c9925a5b510be88", "is_reserved": 0, "is_disabled": 0}, {"lat": 38.887345, "fusion_lat": 0.0, "type": "electric_scooter", "bike_id": "8391247665695a77f66991af31cd02ff", "rental_uris": {"ios": "https://dc.lft.to/lastmile_qr_scan", "android": "https://dc.lft.to/lastmile_qr_scan"}, "fusion_lon": 0.0, "lon": -77.03184866666666, "name": "8391247665695a77f66991af31cd02ff", "is_reserved": 0, "is_disabled": 0}, {"lat": 38.932741166666666, "fusion_lat": 0.0, "type": "electric_scooter", "bike_id": "338b0cad4f416eaa2b8db983c1530d82", "rental_uris": {"ios": "https://dc.lft.to/lastmile_qr_scan", "android": "https://dc.lft.to/lastmile_qr_scan"}, "fusion_lon": 0.0, "lon": -77.0407855, "name": "338b0cad4f416eaa2b8db983c1530d82", "is_reserved": 0, "is_disabled": 0}, {"lat": 38.99772983333333, "fusion_lat": 0.0, "type": "electric_bike", "bike_id": "0fc217c93cc352666da6e0cec6e77b5f", "rental_uris": {"ios": "https://dc.lft.to/lastmile_qr_scan", "android": "https://dc.lft.to/lastmile_qr_scan"}, "fusion_lon": 0.0, "lon": -77.0471985, "name": "0fc217c93cc352666da6e0cec6e77b5f", "is_reserved": 0, "is_disabled": 0}, {"lat": 38.92687, "fusion_lat": 0.0, "type": "electric_scooter", "bike_id": "cf1aff3e8f9aab63a329994731a9015d", "rental_uris": {"ios": "https://dc.lft.to/lastmile_qr_scan", "android": "https://dc.lft.to/lastmile_qr_scan"}, "fusion_lon": 0.0, "lon": -77.03572516666667, "name": "cf1aff3e8f9aab63a329994731a9015d", "is_reserved": 0, "is_disabled": 0}, {"lat": 38.9428045, "fusion_lat": 0.0, "type": "electric_scooter", "bike_id": "f19bc8758dd79ecb03276665f2c4b25b", "rental_uris": {"ios": "https://dc.lft.to/lastmile_qr_scan", "android": "https://dc.lft.to/lastmile_qr_scan"}, "fusion_lon": 0.0, "lon": -77.029532, "name": "f19bc8758dd79ecb03276665f2c4b25b", "is_reserved": 0, "is_disabled": 0}, {"lat": 38.88632833333333, "fusion_lat": 0.0, "type": "electric_scooter", "bike_id": "26f4b60a8a904b49ece0201a9494af7b", "rental_uris": {"ios": "https://dc.lft.to/lastmile_qr_scan", "android": "https://dc.lft.to/lastmile_qr_scan"}, "fusion_lon": 0.0, "lon": -77.0283695, "name": "26f4b60a8a904b49ece0201a9494af7b", "is_reserved": 0, "is_disabled": 0}, {"lat": 38.90714116666667, "fusion_lat": 0.0, "type": "electric_scooter", "bike_id": "e61f4dd7b9d003b8c7fc016ab12ab5a7", "rental_uris": {"ios": "https://dc.lft.to/lastmile_qr_scan", "android": "https://dc.lft.to/lastmile_qr_scan"}, "fusion_lon": 0.0, "lon": -77.041533, "name": "e61f4dd7b9d003b8c7fc016ab12ab5a7", "is_reserved": 0, "is_disabled": 0}, {"lat": 38.9497745, "fusion_lat": 0.0, "type": "electric_scooter", "bike_id": "eb8eec8a236247e0d5927987280e12a7", "rental_uris": {"ios": "https://dc.lft.to/lastmile_qr_scan", "android": "https://dc.lft.to/lastmile_qr_scan"}, "fusion_lon": 0.0, "lon": -77.029825, "name": "eb8eec8a236247e0d5927987280e12a7", "is_reserved": 0, "is_disabled": 0}, {"lat": 38.912674, "fusion_lat": 0.0, "type": "electric_scooter", "bike_id": "f1a56c59e7988d5bbe5ba4a5d9e39551", "rental_uris": {"ios": "https://dc.lft.to/lastmile_qr_scan", "android": "https://dc.lft.to/lastmile_qr_scan"}, "fusion_lon": 0.0, "lon": -77.02216983333334, "name": "f1a56c59e7988d5bbe5ba4a5d9e39551", "is_reserved": 0, "is_disabled": 0}, {"lat": 38.917769666666665, "fusion_lat": 0.0, "type": "electric_scooter", "bike_id": "ff4971ba18a7cc4bafa2946b33644bd5", "rental_uris": {"ios": "https://dc.lft.to/lastmile_qr_scan", "android": "https://dc.lft.to/lastmile_qr_scan"}, "fusion_lon": 0.0, "lon": -77.02308116666667, "name": "ff4971ba18a7cc4bafa2946b33644bd5", "is_reserved": 0, "is_disabled": 0}, {"lat": 38.90760316666667, "fusion_lat": 0.0, "type": "electric_scooter", "bike_id": "5d99bcbb4b24d848d6d26811cbac2aef", "rental_uris": {"ios": "https://dc.lft.to/lastmile_qr_scan", "android": "https://dc.lft.to/lastmile_qr_scan"}, "fusion_lon": 0.0, "lon": -77.0013185, "name": "5d99bcbb4b24d848d6d26811cbac2aef", "is_reserved": 0, "is_disabled": 0}, {"lat": 38.91023233333333, "fusion_lat": 0.0, "type": "electric_scooter", "bike_id": "8324ef68703b572747720a6e05745eb6", "rental_uris": {"ios": "https://dc.lft.to/lastmile_qr_scan", "android": "https://dc.lft.to/lastmile_qr_scan"}, "fusion_lon": 0.0, "lon": -77.04650016666666, "name": "8324ef68703b572747720a6e05745eb6", "is_reserved": 0, "is_disabled": 0}, {"lat": 38.91034966666667, "fusion_lat": 0.0, "type": "electric_scooter", "bike_id": "f2d927def20079f60e2fa87612175b66", "rental_uris": {"ios": "https://dc.lft.to/lastmile_qr_scan", "android": "https://dc.lft.to/lastmile_qr_scan"}, "fusion_lon": 0.0, "lon": -77.02184216666667, "name": "f2d927def20079f60e2fa87612175b66", "is_reserved": 0, "is_disabled": 0}, {"lat": 38.920558, "fusion_lat": 0.0, "type": "electric_scooter", "bike_id": "67932b331156beb85b57408424fdafb1", "rental_uris": {"ios": "https://dc.lft.to/lastmile_qr_scan", "android": "https://dc.lft.to/lastmile_qr_scan"}, "fusion_lon": 0.0, "lon": -77.0433985, "name": "67932b331156beb85b57408424fdafb1", "is_reserved": 0, "is_disabled": 0}, {"lat": 38.89228033333333, "fusion_lat": 0.0, "type": "electric_scooter", "bike_id": "c56d7e3a87838f30968e7f0916839de4", "rental_uris": {"ios": "https://dc.lft.to/lastmile_qr_scan", "android": "https://dc.lft.to/lastmile_qr_scan"}, "fusion_lon": 0.0, "lon": -77.00296383333334, "name": "c56d7e3a87838f30968e7f0916839de4", "is_reserved": 0, "is_disabled": 0}, {"lat": 38.925707, "fusion_lat": 0.0, "type": "electric_scooter", "bike_id": "7f6af844dcb10be5c6f2a531a9e17851", "rental_uris": {"ios": "https://dc.lft.to/lastmile_qr_scan", "android": "https://dc.lft.to/lastmile_qr_scan"}, "fusion_lon": 0.0, "lon": -77.02689116666667, "name": "7f6af844dcb10be5c6f2a531a9e17851", "is_reserved": 0, "is_disabled": 0}, {"lat": 38.94919933333333, "fusion_lat": 0.0, "type": "electric_bike", "bike_id": "f36ef46d065555991c9dad979dad624c", "rental_uris": {"ios": "https://dc.lft.to/lastmile_qr_scan", "android": "https://dc.lft.to/lastmile_qr_scan"}, "fusion_lon": 0.0, "lon": -77.00798683333333, "name": "f36ef46d065555991c9dad979dad624c", "is_reserved": 0, "is_disabled": 0}, {"lat": 38.89562183333334, "fusion_lat": 0.0, "type": "electric_bike", "bike_id": "90cffad91b5b4d20afac5e0c117247f0", "rental_uris": {"ios": "https://dc.lft.to/lastmile_qr_scan", "android": "https://dc.lft.to/lastmile_qr_scan"}, "fusion_lon": 0.0, "lon": -77.12733983333334, "name": "90cffad91b5b4d20afac5e0c117247f0", "is_reserved": 0, "is_disabled": 0}, {"lat": 38.884617166666665, "fusion_lat": 0.0, "type": "electric_bike", "bike_id": "0c6b319256a45fe489536ac7e6f92b8f", "rental_uris": {"ios": "https://dc.lft.to/lastmile_qr_scan", "android": "https://dc.lft.to/lastmile_qr_scan"}, "fusion_lon": 0.0, "lon": -76.95239183333334, "name": "0c6b319256a45fe489536ac7e6f92b8f", "is_reserved": 0, "is_disabled": 0}, {"lat": 38.918964333333335, "fusion_lat": 0.0, "type": "electric_scooter", "bike_id": "e072ae58131539459094c917ce979585", "rental_uris": {"ios": "https://dc.lft.to/lastmile_qr_scan", "android": "https://dc.lft.to/lastmile_qr_scan"}, "fusion_lon": 0.0, "lon": -77.0295605, "name": "e072ae58131539459094c917ce979585", "is_reserved": 0, "is_disabled": 0}, {"lat": 38.887206166666665, "fusion_lat": 0.0, "type": "electric_scooter", "bike_id": "43df8e77ddc189ed864c331f17285d06", "rental_uris": {"ios": "https://dc.lft.to/lastmile_qr_scan", "android": "https://dc.lft.to/lastmile_qr_scan"}, "fusion_lon": 0.0, "lon": -77.022082, "name": "43df8e77ddc189ed864c331f17285d06", "is_reserved": 0, "is_disabled": 0}, {"lat": 38.902967333333336, "fusion_lat": 0.0, "type": "electric_scooter", "bike_id": "8949a8ea0db7f18cff03bce11f0fd263", "rental_uris": {"ios": "https://dc.lft.to/lastmile_qr_scan", "android": "https://dc.lft.to/lastmile_qr_scan"}, "fusion_lon": 0.0, "lon": -76.933984, "name": "8949a8ea0db7f18cff03bce11f0fd263", "is_reserved": 0, "is_disabled": 0}, {"lat": 38.92671216666667, "fusion_lat": 0.0, "type": "electric_scooter", "bike_id": "ff8189c728d7792d6561cc7609b36ee7", "rental_uris": {"ios": "https://dc.lft.to/lastmile_qr_scan", "android": "https://dc.lft.to/lastmile_qr_scan"}, "fusion_lon": 0.0, "lon": -77.01514166666666, "name": "ff8189c728d7792d6561cc7609b36ee7", "is_reserved": 0, "is_disabled": 0}, {"lat": 38.992304833333336, "fusion_lat": 0.0, "type": "electric_bike", "bike_id": "1ada8d497058451ff25f2a5a7871d150", "rental_uris": {"ios": "https://dc.lft.to/lastmile_qr_scan", "android": "https://dc.lft.to/lastmile_qr_scan"}, "fusion_lon": 0.0, "lon": -77.03588233333333, "name": "1ada8d497058451ff25f2a5a7871d150", "is_reserved": 0, "is_disabled": 0}, {"lat": 38.91934833333333, "fusion_lat": 0.0, "type": "electric_scooter", "bike_id": "610137e8b475d164d739845c168015d9", "rental_uris": {"ios": "https://dc.lft.to/lastmile_qr_scan", "android": "https://dc.lft.to/lastmile_qr_scan"}, "fusion_lon": 0.0, "lon": -77.024776, "name": "610137e8b475d164d739845c168015d9", "is_reserved": 0, "is_disabled": 0}, {"lat": 38.978267, "fusion_lat": 0.0, "type": "electric_bike", "bike_id": "d0f528e26cd918aa4d5b404fe56aef22", "rental_uris": {"ios": "https://dc.lft.to/lastmile_qr_scan", "android": "https://dc.lft.to/lastmile_qr_scan"}, "fusion_lon": 0.0, "lon": -76.92893083333334, "name": "d0f528e26cd918aa4d5b404fe56aef22", "is_reserved": 0, "is_disabled": 0}, {"lat": 38.91911233333333, "fusion_lat": 0.0, "type": "electric_scooter", "bike_id": "127bca195c990a767c65eb1928b77dca", "rental_uris": {"ios": "https://dc.lft.to/lastmile_qr_scan", "android": "https://dc.lft.to/lastmile_qr_scan"}, "fusion_lon": 0.0, "lon": -77.0336575, "name": "127bca195c990a767c65eb1928b77dca", "is_reserved": 0, "is_disabled": 0}, {"lat": 38.884275, "fusion_lat": 0.0, "type": "electric_scooter", "bike_id": "4287eefa2613f130ee2b9f1bd829937b", "rental_uris": {"ios": "https://dc.lft.to/lastmile_qr_scan", "android": "https://dc.lft.to/lastmile_qr_scan"}, "fusion_lon": 0.0, "lon": -76.957571, "name": "4287eefa2613f130ee2b9f1bd829937b", "is_reserved": 0, "is_disabled": 0}, {"lat": 38.936317833333334, "fusion_lat": 0.0, "type": "electric_scooter", "bike_id": "119b0df4a06a2d240f169fa75b003fa4", "rental_uris": {"ios": "https://dc.lft.to/lastmile_qr_scan", "android": "https://dc.lft.to/lastmile_qr_scan"}, "fusion_lon": 0.0, "lon": -77.021185, "name": "119b0df4a06a2d240f169fa75b003fa4", "is_reserved": 0, "is_disabled": 0}, {"lat": 38.8954455, "fusion_lat": 0.0, "type": "electric_scooter", "bike_id": "05331be3e27f040f1e655018eb602c61", "rental_uris": {"ios": "https://dc.lft.to/lastmile_qr_scan", "android": "https://dc.lft.to/lastmile_qr_scan"}, "fusion_lon": 0.0, "lon": -76.98339716666666, "name": "05331be3e27f040f1e655018eb602c61", "is_reserved": 0, "is_disabled": 0}, {"lat": 38.89757633333333, "fusion_lat": 0.0, "type": "electric_scooter", "bike_id": "b89e3957ddb4b91acf52dc68daed269d", "rental_uris": {"ios": "https://dc.lft.to/lastmile_qr_scan", "android": "https://dc.lft.to/lastmile_qr_scan"}, "fusion_lon": 0.0, "lon": -77.04359833333334, "name": "b89e3957ddb4b91acf52dc68daed269d", "is_reserved": 0, "is_disabled": 0}, {"lat": 38.93208966666667, "fusion_lat": 0.0, "type": "electric_scooter", "bike_id": "39a76fa4576fbe5e76e4499e27c4ddb8", "rental_uris": {"ios": "https://dc.lft.to/lastmile_qr_scan", "android": "https://dc.lft.to/lastmile_qr_scan"}, "fusion_lon": 0.0, "lon": -77.03673133333334, "name": "39a76fa4576fbe5e76e4499e27c4ddb8", "is_reserved": 0, "is_disabled": 0}, {"lat": 38.95331083333333, "fusion_lat": 0.0, "type": "electric_bike", "bike_id": "196fe620015af18caca169c3836ab778", "rental_uris": {"ios": "https://dc.lft.to/lastmile_qr_scan", "android": "https://dc.lft.to/lastmile_qr_scan"}, "fusion_lon": 0.0, "lon": -76.982527, "name": "196fe620015af18caca169c3836ab778", "is_reserved": 0, "is_disabled": 0}, {"lat": 38.959598, "fusion_lat": 0.0, "type": "electric_bike", "bike_id": "9366343827406ffeb8a4951a268a7bab", "rental_uris": {"ios": "https://dc.lft.to/lastmile_qr_scan", "android": "https://dc.lft.to/lastmile_qr_scan"}, "fusion_lon": 0.0, "lon": -77.03057116666666, "name": "9366343827406ffeb8a4951a268a7bab", "is_reserved": 0, "is_disabled": 0}, {"lat": 38.931911166666666, "fusion_lat": 0.0, "type": "electric_scooter", "bike_id": "a6ca7a74281470ab8faf5309880b7243", "rental_uris": {"ios": "https://dc.lft.to/lastmile_qr_scan", "android": "https://dc.lft.to/lastmile_qr_scan"}, "fusion_lon": 0.0, "lon": -77.019904, "name": "a6ca7a74281470ab8faf5309880b7243", "is_reserved": 0, "is_disabled": 0}, {"lat": 38.905485, "fusion_lat": 0.0, "type": "electric_scooter", "bike_id": "6a1e95d9f4feb390dea9114a8fe02d20", "rental_uris": {"ios": "https://dc.lft.to/lastmile_qr_scan", "android": "https://dc.lft.to/lastmile_qr_scan"}, "fusion_lon": 0.0, "lon": -77.00602533333333, "name": "6a1e95d9f4feb390dea9114a8fe02d20", "is_reserved": 0, "is_disabled": 0}, {"lat": 38.900836166666664, "fusion_lat": 0.0, "type": "electric_scooter", "bike_id": "d0983bf7ac87029f77edb2e83aeaa06d", "rental_uris": {"ios": "https://dc.lft.to/lastmile_qr_scan", "android": "https://dc.lft.to/lastmile_qr_scan"}, "fusion_lon": 0.0, "lon": -76.92958, "name": "d0983bf7ac87029f77edb2e83aeaa06d", "is_reserved": 0, "is_disabled": 0}, {"lat": 38.884039, "fusion_lat": 0.0, "type": "electric_scooter", "bike_id": "b0405ebddb5c0274ab432b1e030fdf5a", "rental_uris": {"ios": "https://dc.lft.to/lastmile_qr_scan", "android": "https://dc.lft.to/lastmile_qr_scan"}, "fusion_lon": 0.0, "lon": -77.03223083333333, "name": "b0405ebddb5c0274ab432b1e030fdf5a", "is_reserved": 0, "is_disabled": 0}, {"lat": 38.967953333333334, "fusion_lat": 0.0, "type": "electric_scooter", "bike_id": "dc32d6489dc66a7978d89f57b688f18c", "rental_uris": {"ios": "https://dc.lft.to/lastmile_qr_scan", "android": "https://dc.lft.to/lastmile_qr_scan"}, "fusion_lon": 0.0, "lon": -77.02433683333334, "name": "dc32d6489dc66a7978d89f57b688f18c", "is_reserved": 0, "is_disabled": 0}, {"lat": 38.8987855, "fusion_lat": 0.0, "type": "electric_scooter", "bike_id": "7902c7faeef7dc48bd61d35b0276e8fc", "rental_uris": {"ios": "https://dc.lft.to/lastmile_qr_scan", "android": "https://dc.lft.to/lastmile_qr_scan"}, "fusion_lon": 0.0, "lon": -77.0331905, "name": "7902c7faeef7dc48bd61d35b0276e8fc", "is_reserved": 0, "is_disabled": 0}, {"lat": 38.837442833333334, "fusion_lat": 0.0, "type": "electric_bike", "bike_id": "05f2e29771947254a1040a43479ebb87", "rental_uris": {"ios": "https://dc.lft.to/lastmile_qr_scan", "android": "https://dc.lft.to/lastmile_qr_scan"}, "fusion_lon": 0.0, "lon": -76.99820816666667, "name": "05f2e29771947254a1040a43479ebb87", "is_reserved": 0, "is_disabled": 0}, {"lat": 38.91602666666667, "fusion_lat": 0.0, "type": "electric_scooter", "bike_id": "df19882467eaf4576eec2b238067bd89", "rental_uris": {"ios": "https://dc.lft.to/lastmile_qr_scan", "android": "https://dc.lft.to/lastmile_qr_scan"}, "fusion_lon": 0.0, "lon": -77.02291833333334, "name": "df19882467eaf4576eec2b238067bd89", "is_reserved": 0, "is_disabled": 0}, {"lat": 38.99600016666667, "fusion_lat": 0.0, "type": "electric_bike", "bike_id": "f4497df10bcd8879434a0967f7115e81", "rental_uris": {"ios": "https://dc.lft.to/lastmile_qr_scan", "android": "https://dc.lft.to/lastmile_qr_scan"}, "fusion_lon": 0.0, "lon": -77.07792766666667, "name": "f4497df10bcd8879434a0967f7115e81", "is_reserved": 0, "is_disabled": 0}, {"lat": 38.914198666666664, "fusion_lat": 0.0, "type": "electric_scooter", "bike_id": "3f3a8e4ceee5cccb33682984d6d6605a", "rental_uris": {"ios": "https://dc.lft.to/lastmile_qr_scan", "android": "https://dc.lft.to/lastmile_qr_scan"}, "fusion_lon": 0.0, "lon": -77.0107625, "name": "3f3a8e4ceee5cccb33682984d6d6605a", "is_reserved": 0, "is_disabled": 0}, {"lat": 38.90898033333333, "fusion_lat": 0.0, "type": "electric_scooter", "bike_id": "d35693218cc6f275990dcc3fce9fb5ab", "rental_uris": {"ios": "https://dc.lft.to/lastmile_qr_scan", "android": "https://dc.lft.to/lastmile_qr_scan"}, "fusion_lon": 0.0, "lon": -77.04496633333333, "name": "d35693218cc6f275990dcc3fce9fb5ab", "is_reserved": 0, "is_disabled": 0}, {"lat": 38.90516216666666, "fusion_lat": 0.0, "type": "electric_scooter", "bike_id": "39a5fbc53fc151ee2ce384e9ad658573", "rental_uris": {"ios": "https://dc.lft.to/lastmile_qr_scan", "android": "https://dc.lft.to/lastmile_qr_scan"}, "fusion_lon": 0.0, "lon": -77.03225366666666, "name": "39a5fbc53fc151ee2ce384e9ad658573", "is_reserved": 0, "is_disabled": 0}, {"lat": 38.8766, "fusion_lat": 0.0, "type": "electric_scooter", "bike_id": "374e55886540d63447bac884bd29b7ff", "rental_uris": {"ios": "https://dc.lft.to/lastmile_qr_scan", "android": "https://dc.lft.to/lastmile_qr_scan"}, "fusion_lon": 0.0, "lon": -77.002858, "name": "374e55886540d63447bac884bd29b7ff", "is_reserved": 0, "is_disabled": 0}, {"lat": 38.90254383333333, "fusion_lat": 0.0, "type": "electric_scooter", "bike_id": "2ca6e7dc203199bddfc2d56e9310c5a9", "rental_uris": {"ios": "https://dc.lft.to/lastmile_qr_scan", "android": "https://dc.lft.to/lastmile_qr_scan"}, "fusion_lon": 0.0, "lon": -77.028222, "name": "2ca6e7dc203199bddfc2d56e9310c5a9", "is_reserved": 0, "is_disabled": 0}, {"lat": 38.944032166666666, "fusion_lat": 0.0, "type": "electric_scooter", "bike_id": "a6c400f6bff9ec8d3c5b6a166fcfa9be", "rental_uris": {"ios": "https://dc.lft.to/lastmile_qr_scan", "android": "https://dc.lft.to/lastmile_qr_scan"}, "fusion_lon": 0.0, "lon": -77.03909266666666, "name": "a6c400f6bff9ec8d3c5b6a166fcfa9be", "is_reserved": 0, "is_disabled": 0}, {"lat": 38.90767433333333, "fusion_lat": 0.0, "type": "electric_scooter", "bike_id": "d80134176ec4391dd1a8aa408a902c43", "rental_uris": {"ios": "https://dc.lft.to/lastmile_qr_scan", "android": "https://dc.lft.to/lastmile_qr_scan"}, "fusion_lon": 0.0, "lon": -77.01697266666666, "name": "d80134176ec4391dd1a8aa408a902c43", "is_reserved": 0, "is_disabled": 0}, {"lat": 38.93580433333333, "fusion_lat": 0.0, "type": "electric_scooter", "bike_id": "b6ab3daa2e6f07dd18ad8ab4d4227fab", "rental_uris": {"ios": "https://dc.lft.to/lastmile_qr_scan", "android": "https://dc.lft.to/lastmile_qr_scan"}, "fusion_lon": 0.0, "lon": -77.03361933333333, "name": "b6ab3daa2e6f07dd18ad8ab4d4227fab", "is_reserved": 0, "is_disabled": 0}, {"lat": 38.885222166666665, "fusion_lat": 0.0, "type": "electric_scooter", "bike_id": "e7bc94ca594d443af7c09a8a31680081", "rental_uris": {"ios": "https://dc.lft.to/lastmile_qr_scan", "android": "https://dc.lft.to/lastmile_qr_scan"}, "fusion_lon": 0.0, "lon": -77.01131733333334, "name": "e7bc94ca594d443af7c09a8a31680081", "is_reserved": 0, "is_disabled": 0}, {"lat": 38.83578633333333, "fusion_lat": 0.0, "type": "electric_bike", "bike_id": "c3c07ec8d63a9b62cc5ab60885e5d14b", "rental_uris": {"ios": "https://dc.lft.to/lastmile_qr_scan", "android": "https://dc.lft.to/lastmile_qr_scan"}, "fusion_lon": 0.0, "lon": -77.00133516666666, "name": "c3c07ec8d63a9b62cc5ab60885e5d14b", "is_reserved": 0, "is_disabled": 0}, {"lat": 38.89241033333333, "fusion_lat": 0.0, "type": "electric_scooter", "bike_id": "20521968c76d66ad40c52df09140ee1e", "rental_uris": {"ios": "https://dc.lft.to/lastmile_qr_scan", "android": "https://dc.lft.to/lastmile_qr_scan"}, "fusion_lon": 0.0, "lon": -77.0282565, "name": "20521968c76d66ad40c52df09140ee1e", "is_reserved": 0, "is_disabled": 0}, {"lat": 38.916154666666664, "fusion_lat": 0.0, "type": "electric_scooter", "bike_id": "48009947281350f6f46ad46c1899eb3c", "rental_uris": {"ios": "https://dc.lft.to/lastmile_qr_scan", "android": "https://dc.lft.to/lastmile_qr_scan"}, "fusion_lon": 0.0, "lon": -77.03186966666667, "name": "48009947281350f6f46ad46c1899eb3c", "is_reserved": 0, "is_disabled": 0}, {"lat": 38.9042465, "fusion_lat": 0.0, "type": "electric_scooter", "bike_id": "b35641faefa2ee0dc6f0420d477aca8d", "rental_uris": {"ios": "https://dc.lft.to/lastmile_qr_scan", "android": "https://dc.lft.to/lastmile_qr_scan"}, "fusion_lon": 0.0, "lon": -77.06014266666666, "name": "b35641faefa2ee0dc6f0420d477aca8d", "is_reserved": 0, "is_disabled": 0}, {"lat": 38.91469466666667, "fusion_lat": 0.0, "type": "electric_scooter", "bike_id": "407e380c2af0c824d8b3f98aaf583682", "rental_uris": {"ios": "https://dc.lft.to/lastmile_qr_scan", "android": "https://dc.lft.to/lastmile_qr_scan"}, "fusion_lon": 0.0, "lon": -77.03876116666666, "name": "407e380c2af0c824d8b3f98aaf583682", "is_reserved": 0, "is_disabled": 0}, {"lat": 38.88768833333334, "fusion_lat": 0.0, "type": "electric_scooter", "bike_id": "1d8b0d7a2b593548a81c57a61d7019c7", "rental_uris": {"ios": "https://dc.lft.to/lastmile_qr_scan", "android": "https://dc.lft.to/lastmile_qr_scan"}, "fusion_lon": 0.0, "lon": -77.0284065, "name": "1d8b0d7a2b593548a81c57a61d7019c7", "is_reserved": 0, "is_disabled": 0}, {"lat": 38.90312183333333, "fusion_lat": 0.0, "type": "electric_scooter", "bike_id": "a30e5df3cea2e7f988fa4276e05222b8", "rental_uris": {"ios": "https://dc.lft.to/lastmile_qr_scan", "android": "https://dc.lft.to/lastmile_qr_scan"}, "fusion_lon": 0.0, "lon": -77.01637116666667, "name": "a30e5df3cea2e7f988fa4276e05222b8", "is_reserved": 0, "is_disabled": 0}, {"lat": 38.90793683333333, "fusion_lat": 0.0, "type": "electric_scooter", "bike_id": "4435870acfdfc47d2b388d182b4c0324", "rental_uris": {"ios": "https://dc.lft.to/lastmile_qr_scan", "android": "https://dc.lft.to/lastmile_qr_scan"}, "fusion_lon": 0.0, "lon": -77.04339283333333, "name": "4435870acfdfc47d2b388d182b4c0324", "is_reserved": 0, "is_disabled": 0}, {"lat": 38.871832, "fusion_lat": 0.0, "type": "electric_scooter", "bike_id": "4b231e33419d67d3aa1abab56da9b9ec", "rental_uris": {"ios": "https://dc.lft.to/lastmile_qr_scan", "android": "https://dc.lft.to/lastmile_qr_scan"}, "fusion_lon": 0.0, "lon": -77.006436, "name": "4b231e33419d67d3aa1abab56da9b9ec", "is_reserved": 0, "is_disabled": 0}, {"lat": 38.89735233333333, "fusion_lat": 0.0, "type": "electric_scooter", "bike_id": "d476a66e96f68abefcc218ac6ce85171", "rental_uris": {"ios": "https://dc.lft.to/lastmile_qr_scan", "android": "https://dc.lft.to/lastmile_qr_scan"}, "fusion_lon": 0.0, "lon": -77.04352916666667, "name": "d476a66e96f68abefcc218ac6ce85171", "is_reserved": 0, "is_disabled": 0}, {"lat": 38.901982, "fusion_lat": 0.0, "type": "electric_scooter", "bike_id": "a053bdd142c657a091f32eb7fdb29db3", "rental_uris": {"ios": "https://dc.lft.to/lastmile_qr_scan", "android": "https://dc.lft.to/lastmile_qr_scan"}, "fusion_lon": 0.0, "lon": -77.0237215, "name": "a053bdd142c657a091f32eb7fdb29db3", "is_reserved": 0, "is_disabled": 0}, {"lat": 38.8921975, "fusion_lat": 0.0, "type": "electric_scooter", "bike_id": "205d78913c93b7724c4b77be26312024", "rental_uris": {"ios": "https://dc.lft.to/lastmile_qr_scan", "android": "https://dc.lft.to/lastmile_qr_scan"}, "fusion_lon": 0.0, "lon": -77.04472066666666, "name": "205d78913c93b7724c4b77be26312024", "is_reserved": 0, "is_disabled": 0}, {"lat": 38.91008766666667, "fusion_lat": 0.0, "type": "electric_bike", "bike_id": "ad40675a65d4dc3673667ad5b9e197dc", "rental_uris": {"ios": "https://dc.lft.to/lastmile_qr_scan", "android": "https://dc.lft.to/lastmile_qr_scan"}, "fusion_lon": 0.0, "lon": -76.99401983333334, "name": "ad40675a65d4dc3673667ad5b9e197dc", "is_reserved": 0, "is_disabled": 0}, {"lat": 38.88736166666666, "fusion_lat": 0.0, "type": "electric_scooter", "bike_id": "2c1059b6b9ca4c44e1e383fc29076334", "rental_uris": {"ios": "https://dc.lft.to/lastmile_qr_scan", "android": "https://dc.lft.to/lastmile_qr_scan"}, "fusion_lon": 0.0, "lon": -77.031797, "name": "2c1059b6b9ca4c44e1e383fc29076334", "is_reserved": 0, "is_disabled": 0}, {"lat": 38.842819, "fusion_lat": 0.0, "type": "electric_bike", "bike_id": "29845c263365b6096d0084eae266f80e", "rental_uris": {"ios": "https://dc.lft.to/lastmile_qr_scan", "android": "https://dc.lft.to/lastmile_qr_scan"}, "fusion_lon": 0.0, "lon": -77.07528016666667, "name": "29845c263365b6096d0084eae266f80e", "is_reserved": 0, "is_disabled": 0}, {"lat": 38.904684833333334, "fusion_lat": 0.0, "type": "electric_scooter", "bike_id": "6d65e9b8881e7c0a8d64777d5a6153c2", "rental_uris": {"ios": "https://dc.lft.to/lastmile_qr_scan", "android": "https://dc.lft.to/lastmile_qr_scan"}, "fusion_lon": 0.0, "lon": -77.02942483333334, "name": "6d65e9b8881e7c0a8d64777d5a6153c2", "is_reserved": 0, "is_disabled": 0}, {"lat": 38.926279, "fusion_lat": 0.0, "type": "electric_scooter", "bike_id": "7f46af9d2c5a28f234ead541e635f19b", "rental_uris": {"ios": "https://dc.lft.to/lastmile_qr_scan", "android": "https://dc.lft.to/lastmile_qr_scan"}, "fusion_lon": 0.0, "lon": -77.02169183333334, "name": "7f46af9d2c5a28f234ead541e635f19b", "is_reserved": 0, "is_disabled": 0}, {"lat": 38.937757166666664, "fusion_lat": 0.0, "type": "electric_scooter", "bike_id": "f7fe8f8b7cf8998f607ca8d6ed189805", "rental_uris": {"ios": "https://dc.lft.to/lastmile_qr_scan", "android": "https://dc.lft.to/lastmile_qr_scan"}, "fusion_lon": 0.0, "lon": -77.0328765, "name": "f7fe8f8b7cf8998f607ca8d6ed189805", "is_reserved": 0, "is_disabled": 0}, {"lat": 38.9050765, "fusion_lat": 0.0, "type": "electric_scooter", "bike_id": "bd6353c744c5b8bb270eabddac14fd53", "rental_uris": {"ios": "https://dc.lft.to/lastmile_qr_scan", "android": "https://dc.lft.to/lastmile_qr_scan"}, "fusion_lon": 0.0, "lon": -77.030046, "name": "bd6353c744c5b8bb270eabddac14fd53", "is_reserved": 0, "is_disabled": 0}, {"lat": 38.91912283333333, "fusion_lat": 0.0, "type": "electric_scooter", "bike_id": "b3007cdc87b2059c308a84ee05a9f0ee", "rental_uris": {"ios": "https://dc.lft.to/lastmile_qr_scan", "android": "https://dc.lft.to/lastmile_qr_scan"}, "fusion_lon": 0.0, "lon": -77.0262075, "name": "b3007cdc87b2059c308a84ee05a9f0ee", "is_reserved": 0, "is_disabled": 0}, {"lat": 38.916911, "fusion_lat": 0.0, "type": "electric_scooter", "bike_id": "92e064003c2d037df557fbdc8c36a536", "rental_uris": {"ios": "https://dc.lft.to/lastmile_qr_scan", "android": "https://dc.lft.to/lastmile_qr_scan"},