{"data": {"bikes": [{"is_disabled": 0, "fusion_lat": 0.0, "lat": 38.90184716666667, "type": "electric_scooter", "lon": -76.93467233333334, "is_reserved": 0, "fusion_lon": 0.0, "bike_id": "bd563a74350629f3edb448c7d8833005", "name": "bd563a74350629f3edb448c7d8833005", "rental_uris": {"ios": "https://dc.lft.to/lastmile_qr_scan", "android": "https://dc.lft.to/lastmile_qr_scan"}}, {"is_disabled": 0, "fusion_lat": 0.0, "lat": 38.903423833333335, "type": "electric_scooter", "lon": -76.97244566666667, "is_reserved": 0, "fusion_lon": 0.0, "bike_id": "ad1c8f41151050fdf4e3490a0d2a5829", "name": "ad1c8f41151050fdf4e3490a0d2a5829", "rental_uris": {"ios": "https://dc.lft.to/lastmile_qr_scan", "android": "https://dc.lft.to/lastmile_qr_scan"}}, {"is_disabled": 0, "fusion_lat": 0.0, "lat": 38.901834, "type": "electric_scooter", "lon": -77.02158316666667, "is_reserved": 0, "fusion_lon": 0.0, "bike_id": "6ee72fa22e99d0692fa822f9f10f0d99", "name": "6ee72fa22e99d0692fa822f9f10f0d99", "rental_uris": {"ios": "https://dc.lft.to/lastmile_qr_scan", "android": "https://dc.lft.to/lastmile_qr_scan"}}, {"is_disabled": 0, "fusion_lat": 0.0, "lat": 38.919951166666664, "type": "electric_scooter", "lon": -77.0240805, "is_reserved": 0, "fusion_lon": 0.0, "bike_id": "28714afe9b6ccd43add6faeb01c91abc", "name": "28714afe9b6ccd43add6faeb01c91abc", "rental_uris": {"ios": "https://dc.lft.to/lastmile_qr_scan", "android": "https://dc.lft.to/lastmile_qr_scan"}}, {"is_disabled": 0, "fusion_lat": 0.0, "lat": 38.91139033333333, "type": "electric_bike", "lon": -77.0658085, "is_reserved": 0, "fusion_lon": 0.0, "bike_id": "bc691106cec4737a9d5bf6e081724014", "name": "bc691106cec4737a9d5bf6e081724014", "rental_uris": {"ios": "https://dc.lft.to/lastmile_qr_scan", "android": "https://dc.lft.to/lastmile_qr_scan"}}, {"is_disabled": 0, "fusion_lat": 0.0, "lat": 38.923604833333336, "type": "electric_scooter", "lon": -77.050871, "is_reserved": 0, "fusion_lon": 0.0, "bike_id": "5428a5222b11032773ee29b081ceb025", "name": "5428a5222b11032773ee29b081ceb025", "rental_uris": {"ios": "https://dc.lft.to/lastmile_qr_scan", "android": "https://dc.lft.to/lastmile_qr_scan"}}, {"is_disabled": 0, "fusion_lat": 0.0, "lat": 38.86620883333333, "type": "electric_scooter", "lon": -76.98665566666666, "is_reserved": 0, "fusion_lon": 0.0, "bike_id": "eb37fbd0c0e515ce82c2e9752fd1dc7a", "name": "eb37fbd0c0e515ce82c2e9752fd1dc7a", "rental_uris": {"ios": "https://dc.lft.to/lastmile_qr_scan", "android": "https://dc.lft.to/lastmile_qr_scan"}}, {"is_disabled": 0, "fusion_lat": 0.0, "lat": 38.91259383333333, "type": "electric_scooter", "lon": -77.034938, "is_reserved": 0, "fusion_lon": 0.0, "bike_id": "dbfe92c1ea85f43b5a01200b9f137b94", "name": "dbfe92c1ea85f43b5a01200b9f137b94", "rental_uris": {"ios": "https://dc.lft.to/lastmile_qr_scan", "android": "https://dc.lft.to/lastmile_qr_scan"}}, {"is_disabled": 0, "fusion_lat": 0.0, "lat": 38.904491166666666, "type": "electric_scooter", "lon": -77.05920883333333, "is_reserved": 0, "fusion_lon": 0.0, "bike_id": "965ce0db14bd78c5b3bff49de1cca1b7", "name": "965ce0db14bd78c5b3bff49de1cca1b7", "rental_uris": {"ios": "https://dc.lft.to/lastmile_qr_scan", "android": "https://dc.lft.to/lastmile_qr_scan"}}, {"is_disabled": 0, "fusion_lat": 0.0, "lat": 38.90410966666666, "type": "electric_scooter", "lon": -77.04870616666666, "is_reserved": 0, "fusion_lon": 0.0, "bike_id": "fb17beaea99f12ee2fbf7890d3a31187", "name": "fb17beaea99f12ee2fbf7890d3a31187", "rental_uris": {"ios": "https://dc.lft.to/lastmile_qr_scan", "android": "https://dc.lft.to/lastmile_qr_scan"}}, {"is_disabled": 0, "fusion_lat": 0.0, "lat": 38.953944, "type": "electric_bike", "lon": -77.02751533333333, "is_reserved": 0, "fusion_lon": 0.0, "bike_id": "0176879074f104ab537a562679bee2c6", "name": "0176879074f104ab537a562679bee2c6", "rental_uris": {"ios": "https://dc.lft.to/lastmile_qr_scan", "android": "https://dc.lft.to/lastmile_qr_scan"}}, {"is_disabled": 0, "fusion_lat": 0.0, "lat": 38.909740166666666, "type": "electric_scooter", "lon": -77.03900533333334, "is_reserved": 0, "fusion_lon": 0.0, "bike_id": "63b0fcf79de4af31502798e357955d38", "name": "63b0fcf79de4af31502798e357955d38", "rental_uris": {"ios": "https://dc.lft.to/lastmile_qr_scan", "android": "https://dc.lft.to/lastmile_qr_scan"}}, {"is_disabled": 0, "fusion_lat": 0.0, "lat": 38.9133085, "type": "electric_scooter", "lon": -77.04842583333334, "is_reserved": 0, "fusion_lon": 0.0, "bike_id": "9788822af167bc6ed415bef6203487cf", "name": "9788822af167bc6ed415bef6203487cf", "rental_uris": {"ios": "https://dc.lft.to/lastmile_qr_scan", "android": "https://dc.lft.to/lastmile_qr_scan"}}, {"is_disabled": 0, "fusion_lat": 0.0, "lat": 38.8859005, "type": "electric_scooter", "lon": -77.00066533333333, "is_reserved": 0, "fusion_lon": 0.0, "bike_id": "3161bbaf1a611d078761b50232ea2117", "name": "3161bbaf1a611d078761b50232ea2117", "rental_uris": {"ios": "https://dc.lft.to/lastmile_qr_scan", "android": "https://dc.lft.to/lastmile_qr_scan"}}, {"is_disabled": 0, "fusion_lat": 0.0, "lat": 38.916821666666664, "type": "electric_scooter", "lon": -77.01572033333333, "is_reserved": 0, "fusion_lon": 0.0, "bike_id": "aba406c9761b437a0061d85f6a290583", "name": "aba406c9761b437a0061d85f6a290583", "rental_uris": {"ios": "https://dc.lft.to/lastmile_qr_scan", "android": "https://dc.lft.to/lastmile_qr_scan"}}, {"is_disabled": 0, "fusion_lat": 0.0, "lat": 38.91964516666667, "type": "electric_scooter", "lon": -77.02501683333334, "is_reserved": 0, "fusion_lon": 0.0, "bike_id": "e81a89ed13810e6844c0873b82aa3f41", "name": "e81a89ed13810e6844c0873b82aa3f41", "rental_uris": {"ios": "https://dc.lft.to/lastmile_qr_scan", "android": "https://dc.lft.to/lastmile_qr_scan"}}, {"is_disabled": 0, "fusion_lat": 0.0, "lat": 38.92022933333333, "type": "electric_scooter", "lon": -77.00209966666667, "is_reserved": 0, "fusion_lon": 0.0, "bike_id": "7bee802f85bc24c769c4ed9c881e2f28", "name": "7bee802f85bc24c769c4ed9c881e2f28", "rental_uris": {"ios": "https://dc.lft.to/lastmile_qr_scan", "android": "https://dc.lft.to/lastmile_qr_scan"}}, {"is_disabled": 0, "fusion_lat": 0.0, "lat": 38.90037616666667, "type": "electric_scooter", "lon": -77.03336733333333, "is_reserved": 0, "fusion_lon": 0.0, "bike_id": "3e8be04012caf4d2a1fde319456f4d68", "name": "3e8be04012caf4d2a1fde319456f4d68", "rental_uris": {"ios": "https://dc.lft.to/lastmile_qr_scan", "android": "https://dc.lft.to/lastmile_qr_scan"}}, {"is_disabled": 0, "fusion_lat": 0.0, "lat": 38.90045283333333, "type": "electric_scooter", "lon": -76.92477766666667, "is_reserved": 0, "fusion_lon": 0.0, "bike_id": "7c0813d58b10a2e03902b466b7ad367d", "name": "7c0813d58b10a2e03902b466b7ad367d", "rental_uris": {"ios": "https://dc.lft.to/lastmile_qr_scan", "android": "https://dc.lft.to/lastmile_qr_scan"}}, {"is_disabled": 0, "fusion_lat": 0.0, "lat": 38.8792065, "type": "electric_scooter", "lon": -77.02154283333333, "is_reserved": 0, "fusion_lon": 0.0, "bike_id": "505e63ea57d23b0684d150b7cf723fd2", "name": "505e63ea57d23b0684d150b7cf723fd2", "rental_uris": {"ios": "https://dc.lft.to/lastmile_qr_scan", "android": "https://dc.lft.to/lastmile_qr_scan"}}, {"is_disabled": 0, "fusion_lat": 0.0, "lat": 38.91157666666667, "type": "electric_scooter", "lon": -77.02001816666667, "is_reserved": 0, "fusion_lon": 0.0, "bike_id": "adb67ffa9b0d057564e40ea9f2fba3ab", "name": "adb67ffa9b0d057564e40ea9f2fba3ab", "rental_uris": {"ios": "https://dc.lft.to/lastmile_qr_scan", "android": "https://dc.lft.to/lastmile_qr_scan"}}, {"is_disabled": 0, "fusion_lat": 0.0, "lat": 38.931188666666664, "type": "electric_scooter", "lon": -77.0208575, "is_reserved": 0, "fusion_lon": 0.0, "bike_id": "58d02138acce4903cf3eea04fb874848", "name": "58d02138acce4903cf3eea04fb874848", "rental_uris": {"ios": "https://dc.lft.to/lastmile_qr_scan", "android": "https://dc.lft.to/lastmile_qr_scan"}}, {"is_disabled": 0, "fusion_lat": 0.0, "lat": 38.91991866666667, "type": "electric_scooter", "lon": -77.0238945, "is_reserved": 0, "fusion_lon": 0.0, "bike_id": "486f119551958daec4ba0a6dc06ee207", "name": "486f119551958daec4ba0a6dc06ee207", "rental_uris": {"ios": "https://dc.lft.to/lastmile_qr_scan", "android": "https://dc.lft.to/lastmile_qr_scan"}}, {"is_disabled": 0, "fusion_lat": 0.0, "lat": 38.916644833333336, "type": "electric_scooter", "lon": -77.02706933333333, "is_reserved": 0, "fusion_lon": 0.0, "bike_id": "dafdbf12cd3b10030d28b7ccde1e35c6", "name": "dafdbf12cd3b10030d28b7ccde1e35c6", "rental_uris": {"ios": "https://dc.lft.to/lastmile_qr_scan", "android": "https://dc.lft.to/lastmile_qr_scan"}}, {"is_disabled": 0, "fusion_lat": 0.0, "lat": 38.900132666666664, "type": "electric_scooter", "lon": -77.04044433333334, "is_reserved": 0, "fusion_lon": 0.0, "bike_id": "9d3894cbcc63c78b1981557a825294eb", "name": "9d3894cbcc63c78b1981557a825294eb", "rental_uris": {"ios": "https://dc.lft.to/lastmile_qr_scan", "android": "https://dc.lft.to/lastmile_qr_scan"}}, {"is_disabled": 0, "fusion_lat": 0.0, "lat": 38.897592833333334, "type": "electric_scooter", "lon": -76.941834, "is_reserved": 0, "fusion_lon": 0.0, "bike_id": "cfd6cc3930a820784d70406263f02f11", "name": "cfd6cc3930a820784d70406263f02f11", "rental_uris": {"ios": "https://dc.lft.to/lastmile_qr_scan", "android": "https://dc.lft.to/lastmile_qr_scan"}}, {"is_disabled": 0, "fusion_lat": 0.0, "lat": 38.905176833333336, "type": "electric_scooter", "lon": -77.04777266666666, "is_reserved": 0, "fusion_lon": 0.0, "bike_id": "7a9443fd94c589916c83465baa873f68", "name": "7a9443fd94c589916c83465baa873f68", "rental_uris": {"ios": "https://dc.lft.to/lastmile_qr_scan", "android": "https://dc.lft.to/lastmile_qr_scan"}}, {"is_disabled": 0, "fusion_lat": 0.0, "lat": 38.92587416666667, "type": "electric_scooter", "lon": -77.050526, "is_reserved": 0, "fusion_lon": 0.0, "bike_id": "6f82b00dd01b4e7ee48fc4bdc8cc7b31", "name": "6f82b00dd01b4e7ee48fc4bdc8cc7b31", "rental_uris": {"ios": "https://dc.lft.to/lastmile_qr_scan", "android": "https://dc.lft.to/lastmile_qr_scan"}}, {"is_disabled": 0, "fusion_lat": 0.0, "lat": 38.857912166666665, "type": "electric_bike", "lon": -77.09954966666666, "is_reserved": 0, "fusion_lon": 0.0, "bike_id": "b06ac4c90bdc54c17cb2a78bfb7f9a85", "name": "b06ac4c90bdc54c17cb2a78bfb7f9a85", "rental_uris": {"ios": "https://dc.lft.to/lastmile_qr_scan", "android": "https://dc.lft.to/lastmile_qr_scan"}}, {"is_disabled": 0, "fusion_lat": 0.0, "lat": 38.92301283333333, "type": "electric_scooter", "lon": -77.04148416666666, "is_reserved": 0, "fusion_lon": 0.0, "bike_id": "29df6775378c4111105a93ebd319fb41", "name": "29df6775378c4111105a93ebd319fb41", "rental_uris": {"ios": "https://dc.lft.to/lastmile_qr_scan", "android": "https://dc.lft.to/lastmile_qr_scan"}}, {"is_disabled": 0, "fusion_lat": 0.0, "lat": 38.884331, "type": "electric_scooter", "lon": -76.95758733333334, "is_reserved": 0, "fusion_lon": 0.0, "bike_id": "ac2856c0de4a9245f0a23e392cffb88f", "name": "ac2856c0de4a9245f0a23e392cffb88f", "rental_uris": {"ios": "https://dc.lft.to/lastmile_qr_scan", "android": "https://dc.lft.to/lastmile_qr_scan"}}, {"is_disabled": 0, "fusion_lat": 0.0, "lat": 38.93187916666667, "type": "electric_bike", "lon": -77.03445916666666, "is_reserved": 0, "fusion_lon": 0.0, "bike_id": "b4d9e7c140f5a130b9fc734bd11f3fed", "name": "b4d9e7c140f5a130b9fc734bd11f3fed", "rental_uris": {"ios": "https://dc.lft.to/lastmile_qr_scan", "android": "https://dc.lft.to/lastmile_qr_scan"}}, {"is_disabled": 0, "fusion_lat": 0.0, "lat": 38.909895666666664, "type": "electric_scooter", "lon": -77.03856483333334, "is_reserved": 0, "fusion_lon": 0.0, "bike_id": "2e015ebad630a0adc54b3a701c20dada", "name": "2e015ebad630a0adc54b3a701c20dada", "rental_uris": {"ios": "https://dc.lft.to/lastmile_qr_scan", "android": "https://dc.lft.to/lastmile_qr_scan"}}, {"is_disabled": 0, "fusion_lat": 0.0, "lat": 38.85916233333333, "type": "electric_scooter", "lon": -76.989826, "is_reserved": 0, "fusion_lon": 0.0, "bike_id": "c9e6827910b6bac6b6f4f0687a887809", "name": "c9e6827910b6bac6b6f4f0687a887809", "rental_uris": {"ios": "https://dc.lft.to/lastmile_qr_scan", "android": "https://dc.lft.to/lastmile_qr_scan"}}, {"is_disabled": 0, "fusion_lat": 0.0, "lat": 38.86657316666667, "type": "electric_scooter", "lon": -76.9887285, "is_reserved": 0, "fusion_lon": 0.0, "bike_id": "c626f7cbff82e4c566390255a37aadf0", "name": "c626f7cbff82e4c566390255a37aadf0", "rental_uris": {"ios": "https://dc.lft.to/lastmile_qr_scan", "android": "https://dc.lft.to/lastmile_qr_scan"}}, {"is_disabled": 0, "fusion_lat": 0.0, "lat": 38.939750833333335, "type": "electric_scooter", "lon": -77.03590433333333, "is_reserved": 0, "fusion_lon": 0.0, "bike_id": "fd621a974e73cdb96e499031e9140300", "name": "fd621a974e73cdb96e499031e9140300", "rental_uris": {"ios": "https://dc.lft.to/lastmile_qr_scan", "android": "https://dc.lft.to/lastmile_qr_scan"}}, {"is_disabled": 0, "fusion_lat": 0.0, "lat": 38.90475583333333, "type": "electric_scooter", "lon": -77.0486285, "is_reserved": 0, "fusion_lon": 0.0, "bike_id": "c202f3164ce96b12f0fb2f2cd3ae6e5f", "name": "c202f3164ce96b12f0fb2f2cd3ae6e5f", "rental_uris": {"ios": "https://dc.lft.to/lastmile_qr_scan", "android": "https://dc.lft.to/lastmile_qr_scan"}}, {"is_disabled": 0, "fusion_lat": 0.0, "lat": 38.93461516666667, "type": "electric_scooter", "lon": -77.03047333333333, "is_reserved": 0, "fusion_lon": 0.0, "bike_id": "135fb4755308331c4002ba51f1a29e42", "name": "135fb4755308331c4002ba51f1a29e42", "rental_uris": {"ios": "https://dc.lft.to/lastmile_qr_scan", "android": "https://dc.lft.to/lastmile_qr_scan"}}, {"is_disabled": 0, "fusion_lat": 0.0, "lat": 38.9420655, "type": "electric_bike", "lon": -77.018238, "is_reserved": 0, "fusion_lon": 0.0, "bike_id": "41302d0ce99d3cafe5621629b30dfd5f", "name": "41302d0ce99d3cafe5621629b30dfd5f", "rental_uris": {"ios": "https://dc.lft.to/lastmile_qr_scan", "android": "https://dc.lft.to/lastmile_qr_scan"}}, {"is_disabled": 0, "fusion_lat": 0.0, "lat": 38.9235975, "type": "electric_scooter", "lon": -77.02060216666666, "is_reserved": 0, "fusion_lon": 0.0, "bike_id": "38d560383f00e1eae2214fe865c06f2f", "name": "38d560383f00e1eae2214fe865c06f2f", "rental_uris": {"ios": "https://dc.lft.to/lastmile_qr_scan", "android": "https://dc.lft.to/lastmile_qr_scan"}}, {"is_disabled": 0, "fusion_lat": 0.0, "lat": 38.90276716666666, "type": "electric_scooter", "lon": -77.06012816666667, "is_reserved": 0, "fusion_lon": 0.0, "bike_id": "065203d545a594f96fa3bd881a01094d", "name": "065203d545a594f96fa3bd881a01094d", "rental_uris": {"ios": "https://dc.lft.to/lastmile_qr_scan", "android": "https://dc.lft.to/lastmile_qr_scan"}}, {"is_disabled": 0, "fusion_lat": 0.0, "lat": 38.89476416666667, "type": "electric_scooter", "lon": -77.04993966666666, "is_reserved": 0, "fusion_lon": 0.0, "bike_id": "f54648c54551d587d59af5cf1d75011f", "name": "f54648c54551d587d59af5cf1d75011f", "rental_uris": {"ios": "https://dc.lft.to/lastmile_qr_scan", "android": "https://dc.lft.to/lastmile_qr_scan"}}, {"is_disabled": 0, "fusion_lat": 0.0, "lat": 38.93592966666667, "type": "electric_scooter", "lon": -77.02413883333334, "is_reserved": 0, "fusion_lon": 0.0, "bike_id": "b405eaeacfeaaaf58d195d71a05fe253", "name": "b405eaeacfeaaaf58d195d71a05fe253", "rental_uris": {"ios": "https://dc.lft.to/lastmile_qr_scan", "android": "https://dc.lft.to/lastmile_qr_scan"}}, {"is_disabled": 0, "fusion_lat": 0.0, "lat": 38.900777, "type": "electric_bike", "lon": -77.04486983333334, "is_reserved": 0, "fusion_lon": 0.0, "bike_id": "6be02b0577fce1ba6b77b9f0518eaf8c", "name": "6be02b0577fce1ba6b77b9f0518eaf8c", "rental_uris": {"ios": "https://dc.lft.to/lastmile_qr_scan", "android": "https://dc.lft.to/lastmile_qr_scan"}}, {"is_disabled": 0, "fusion_lat": 0.0, "lat": 38.904760833333334, "type": "electric_scooter", "lon": -77.01895833333333, "is_reserved": 0, "fusion_lon": 0.0, "bike_id": "e6e850814a0a1d5778f4bc4ba34828a6", "name": "e6e850814a0a1d5778f4bc4ba34828a6", "rental_uris": {"ios": "https://dc.lft.to/lastmile_qr_scan", "android": "https://dc.lft.to/lastmile_qr_scan"}}, {"is_disabled": 0, "fusion_lat": 0.0, "lat": 38.90065083333333, "type": "electric_scooter", "lon": -77.01728516666667, "is_reserved": 0, "fusion_lon": 0.0, "bike_id": "ae6f8ab7398ae2554f7d26b6bbdbd052", "name": "ae6f8ab7398ae2554f7d26b6bbdbd052", "rental_uris": {"ios": "https://dc.lft.to/lastmile_qr_scan", "android": "https://dc.lft.to/lastmile_qr_scan"}}, {"is_disabled": 0, "fusion_lat": 0.0, "lat": 38.921825, "type": "electric_scooter", "lon": -76.99460766666667, "is_reserved": 0, "fusion_lon": 0.0, "bike_id": "5454e793646461a1813738ff87596e5a", "name": "5454e793646461a1813738ff87596e5a", "rental_uris": {"ios": "https://dc.lft.to/lastmile_qr_scan", "android": "https://dc.lft.to/lastmile_qr_scan"}}, {"is_disabled": 0, "fusion_lat": 0.0, "lat": 38.88591516666666, "type": "electric_scooter", "lon": -77.00065483333333, "is_reserved": 0, "fusion_lon": 0.0, "bike_id": "598c9bb736eceaae9a6f1eb919133394", "name": "598c9bb736eceaae9a6f1eb919133394", "rental_uris": {"ios": "https://dc.lft.to/lastmile_qr_scan", "android": "https://dc.lft.to/lastmile_qr_scan"}}, {"is_disabled": 0, "fusion_lat": 0.0, "lat": 38.912612833333334, "type": "electric_scooter", "lon": -77.042276, "is_reserved": 0, "fusion_lon": 0.0, "bike_id": "ad37cd7d73afa2eba97cf956681a4c0d", "name": "ad37cd7d73afa2eba97cf956681a4c0d", "rental_uris": {"ios": "https://dc.lft.to/lastmile_qr_scan", "android": "https://dc.lft.to/lastmile_qr_scan"}}, {"is_disabled": 0, "fusion_lat": 0.0, "lat": 38.91387616666667, "type": "electric_scooter", "lon": -77.01698483333334, "is_reserved": 0, "fusion_lon": 0.0, "bike_id": "107d8bc71a1eacd98dca66f44fd36c29", "name": "107d8bc71a1eacd98dca66f44fd36c29", "rental_uris": {"ios": "https://dc.lft.to/lastmile_qr_scan", "android": "https://dc.lft.to/lastmile_qr_scan"}}, {"is_disabled": 0, "fusion_lat": 0.0, "lat": 38.90269166666667, "type": "electric_scooter", "lon": -77.03443383333334, "is_reserved": 0, "fusion_lon": 0.0, "bike_id": "121b5af1613f36fbd9373d5f6174e571", "name": "121b5af1613f36fbd9373d5f6174e571", "rental_uris": {"ios": "https://dc.lft.to/lastmile_qr_scan", "android": "https://dc.lft.to/lastmile_qr_scan"}}, {"is_disabled": 0, "fusion_lat": 0.0, "lat": 38.9180905, "type": "electric_scooter", "lon": -77.03722183333333, "is_reserved": 0, "fusion_lon": 0.0, "bike_id": "27529d36f66cb141821cc74508ebb6c7", "name": "27529d36f66cb141821cc74508ebb6c7", "rental_uris": {"ios": "https://dc.lft.to/lastmile_qr_scan", "android": "https://dc.lft.to/lastmile_qr_scan"}}, {"is_disabled": 0, "fusion_lat": 0.0, "lat": 38.95737916666667, "type": "electric_scooter", "lon": -77.02386766666666, "is_reserved": 0, "fusion_lon": 0.0, "bike_id": "8c01c96a4bdf23daa01fb9e6ca125a48", "name": "8c01c96a4bdf23daa01fb9e6ca125a48", "rental_uris": {"ios": "https://dc.lft.to/lastmile_qr_scan", "android": "https://dc.lft.to/lastmile_qr_scan"}}, {"is_disabled": 0, "fusion_lat": 0.0, "lat": 38.9167915, "type": "electric_scooter", "lon": -77.0297195, "is_reserved": 0, "fusion_lon": 0.0, "bike_id": "a09999cc12b1955d910eb7fcdd0a6da5", "name": "a09999cc12b1955d910eb7fcdd0a6da5", "rental_uris": {"ios": "https://dc.lft.to/lastmile_qr_scan", "android": "https://dc.lft.to/lastmile_qr_scan"}}, {"is_disabled": 0, "fusion_lat": 0.0, "lat": 38.91822833333333, "type": "electric_scooter", "lon": -77.038383, "is_reserved": 0, "fusion_lon": 0.0, "bike_id": "aa3385904567278ccf145aa655e8d4b3", "name": "aa3385904567278ccf145aa655e8d4b3", "rental_uris": {"ios": "https://dc.lft.to/lastmile_qr_scan", "android": "https://dc.lft.to/lastmile_qr_scan"}}, {"is_disabled": 0, "fusion_lat": 0.0, "lat": 38.9051825, "type": "electric_scooter", "lon": -77.05912683333334, "is_reserved": 0, "fusion_lon": 0.0, "bike_id": "8f3038fa5573ee3084c2cf83c6c59146", "name": "8f3038fa5573ee3084c2cf83c6c59146", "rental_uris": {"ios": "https://dc.lft.to/lastmile_qr_scan", "android": "https://dc.lft.to/lastmile_qr_scan"}}, {"is_disabled": 0, "fusion_lat": 0.0, "lat": 38.902602333333334, "type": "electric_scooter", "lon": -77.04902716666666, "is_reserved": 0, "fusion_lon": 0.0, "bike_id": "a95869f38c9739ea87a426668a3b8bef", "name": "a95869f38c9739ea87a426668a3b8bef", "rental_uris": {"ios": "https://dc.lft.to/lastmile_qr_scan", "android": "https://dc.lft.to/lastmile_qr_scan"}}, {"is_disabled": 0, "fusion_lat": 0.0, "lat": 38.90491983333333, "type": "electric_scooter", "lon": -77.06785366666666, "is_reserved": 0, "fusion_lon": 0.0, "bike_id": "7441d23fca840089a4c52ed947176296", "name": "7441d23fca840089a4c52ed947176296", "rental_uris": {"ios": "https://dc.lft.to/lastmile_qr_scan", "android": "https://dc.lft.to/lastmile_qr_scan"}}, {"is_disabled": 0, "fusion_lat": 0.0, "lat": 38.93360766666667, "type": "electric_scooter", "lon": -77.05714616666667, "is_reserved": 0, "fusion_lon": 0.0, "bike_id": "395edc9ad62e6131626dcf881f87a1e7", "name": "395edc9ad62e6131626dcf881f87a1e7", "rental_uris": {"ios": "https://dc.lft.to/lastmile_qr_scan", "android": "https://dc.lft.to/lastmile_qr_scan"}}, {"is_disabled": 0, "fusion_lat": 0.0, "lat": 38.90510366666667, "type": "electric_scooter", "lon": -77.066578, "is_reserved": 0, "fusion_lon": 0.0, "bike_id": "37ce68a7cb60cc0e0787329c3f0f97a0", "name": "37ce68a7cb60cc0e0787329c3f0f97a0", "rental_uris": {"ios": "https://dc.lft.to/lastmile_qr_scan", "android": "https://dc.lft.to/lastmile_qr_scan"}}, {"is_disabled": 0, "fusion_lat": 0.0, "lat": 38.925587666666665, "type": "electric_scooter", "lon": -77.037793, "is_reserved": 0, "fusion_lon": 0.0, "bike_id": "8bee379e044ce67a4d3417c51d5adf74", "name": "8bee379e044ce67a4d3417c51d5adf74", "rental_uris": {"ios": "https://dc.lft.to/lastmile_qr_scan", "android": "https://dc.lft.to/lastmile_qr_scan"}}, {"is_disabled": 0, "fusion_lat": 0.0, "lat": 38.91054233333333, "type": "electric_scooter", "lon": -77.01524133333334, "is_reserved": 0, "fusion_lon": 0.0, "bike_id": "62f66c356133e109fa650f29572cde2b", "name": "62f66c356133e109fa650f29572cde2b", "rental_uris": {"ios": "https://dc.lft.to/lastmile_qr_scan", "android": "https://dc.lft.to/lastmile_qr_scan"}}, {"is_disabled": 0, "fusion_lat": 0.0, "lat": 38.876663, "type": "electric_scooter", "lon": -77.01575583333333, "is_reserved": 0, "fusion_lon": 0.0, "bike_id": "53b95391d219c38d5bf69b88d542185d", "name": "53b95391d219c38d5bf69b88d542185d", "rental_uris": {"ios": "https://dc.lft.to/lastmile_qr_scan", "android": "https://dc.lft.to/lastmile_qr_scan"}}, {"is_disabled": 0, "fusion_lat": 0.0, "lat": 38.874989, "type": "electric_scooter", "lon": -77.00114366666666, "is_reserved": 0, "fusion_lon": 0.0, "bike_id": "845571575553d6bc988ce0e57c0c6bc8", "name": "845571575553d6bc988ce0e57c0c6bc8", "rental_uris": {"ios": "https://dc.lft.to/lastmile_qr_scan", "android": "https://dc.lft.to/lastmile_qr_scan"}}, {"is_disabled": 0, "fusion_lat": 0.0, "lat": 38.900756333333334, "type": "electric_scooter", "lon": -77.05027266666667, "is_reserved": 0, "fusion_lon": 0.0, "bike_id": "504d0448b621106d8206725736adc028", "name": "504d0448b621106d8206725736adc028", "rental_uris": {"ios": "https://dc.lft.to/lastmile_qr_scan", "android": "https://dc.lft.to/lastmile_qr_scan"}}, {"is_disabled": 0, "fusion_lat": 0.0, "lat": 38.956368166666664, "type": "electric_scooter", "lon": -77.033065, "is_reserved": 0, "fusion_lon": 0.0, "bike_id": "0b886e330c5786ccbba938f7de56ec0d", "name": "0b886e330c5786ccbba938f7de56ec0d", "rental_uris": {"ios": "https://dc.lft.to/lastmile_qr_scan", "android": "https://dc.lft.to/lastmile_qr_scan"}}, {"is_disabled": 0, "fusion_lat": 0.0, "lat": 38.871988333333334, "type": "electric_scooter", "lon": -77.006076, "is_reserved": 0, "fusion_lon": 0.0, "bike_id": "33fb4e05a7e383013a1e4a4268dc4698", "name": "33fb4e05a7e383013a1e4a4268dc4698", "rental_uris": {"ios": "https://dc.lft.to/lastmile_qr_scan", "android": "https://dc.lft.to/lastmile_qr_scan"}}, {"is_disabled": 0, "fusion_lat": 0.0, "lat": 38.89221633333333, "type": "electric_scooter", "lon": -77.04646966666667, "is_reserved": 0, "fusion_lon": 0.0, "bike_id": "3f39687e2697e770787a308b63e3071c", "name": "3f39687e2697e770787a308b63e3071c", "rental_uris": {"ios": "https://dc.lft.to/lastmile_qr_scan", "android": "https://dc.lft.to/lastmile_qr_scan"}}, {"is_disabled": 0, "fusion_lat": 0.0, "lat": 38.92710233333333, "type": "electric_scooter", "lon": -77.02083866666666, "is_reserved": 0, "fusion_lon": 0.0, "bike_id": "602bc653f994b0a130644daea416ad3b", "name": "602bc653f994b0a130644daea416ad3b", "rental_uris": {"ios": "https://dc.lft.to/lastmile_qr_scan", "android": "https://dc.lft.to/lastmile_qr_scan"}}, {"is_disabled": 0, "fusion_lat": 0.0, "lat": 38.8718765, "type": "electric_bike", "lon": -77.08411616666666, "is_reserved": 0, "fusion_lon": 0.0, "bike_id": "db4056913ad210a38bb5c8a47e263c3b", "name": "db4056913ad210a38bb5c8a47e263c3b", "rental_uris": {"ios": "https://dc.lft.to/lastmile_qr_scan", "android": "https://dc.lft.to/lastmile_qr_scan"}}, {"is_disabled": 0, "fusion_lat": 0.0, "lat": 38.909721, "type": "electric_scooter", "lon": -77.04044283333333, "is_reserved": 0, "fusion_lon": 0.0, "bike_id": "6fd59c6f1729ccaf59b0558e73c287d1", "name": "6fd59c6f1729ccaf59b0558e73c287d1", "rental_uris": {"ios": "https://dc.lft.to/lastmile_qr_scan", "android": "https://dc.lft.to/lastmile_qr_scan"}}, {"is_disabled": 0, "fusion_lat": 0.0, "lat": 38.93311333333333, "type": "electric_scooter", "lon": -77.03262966666667, "is_reserved": 0, "fusion_lon": 0.0, "bike_id": "b4887b0374f2a1c8322fb55acd3a6f1d", "name": "b4887b0374f2a1c8322fb55acd3a6f1d", "rental_uris": {"ios": "https://dc.lft.to/lastmile_qr_scan", "android": "https://dc.lft.to/lastmile_qr_scan"}}, {"is_disabled": 0, "fusion_lat": 0.0, "lat": 38.928538333333336, "type": "electric_scooter", "lon": -77.05426083333333, "is_reserved": 0, "fusion_lon": 0.0, "bike_id": "9995f044fb8ca11aeb8b94742bed7f0c", "name": "9995f044fb8ca11aeb8b94742bed7f0c", "rental_uris": {"ios": "https://dc.lft.to/lastmile_qr_scan", "android": "https://dc.lft.to/lastmile_qr_scan"}}, {"is_disabled": 0, "fusion_lat": 0.0, "lat": 38.932447833333335, "type": "electric_scooter", "lon": -77.0328405, "is_reserved": 0, "fusion_lon": 0.0, "bike_id": "c5e374cf0c7f50fc87c57d71b09d07aa", "name": "c5e374cf0c7f50fc87c57d71b09d07aa", "rental_uris": {"ios": "https://dc.lft.to/lastmile_qr_scan", "android": "https://dc.lft.to/lastmile_qr_scan"}}, {"is_disabled": 0, "fusion_lat": 0.0, "lat": 38.93284033333333, "type": "electric_scooter", "lon": -77.03973233333333, "is_reserved": 0, "fusion_lon": 0.0, "bike_id": "52c79bd542b385b225fba95d48c59bff", "name": "52c79bd542b385b225fba95d48c59bff", "rental_uris": {"ios": "https://dc.lft.to/lastmile_qr_scan", "android": "https://dc.lft.to/lastmile_qr_scan"}}, {"is_disabled": 0, "fusion_lat": 0.0, "lat": 38.8690845, "type": "electric_bike", "lon": -77.13175316666667, "is_reserved": 0, "fusion_lon": 0.0, "bike_id": "53de250b07ee06e5889357dbfc2f81e3", "name": "53de250b07ee06e5889357dbfc2f81e3", "rental_uris": {"ios": "https://dc.lft.to/lastmile_qr_scan", "android": "https://dc.lft.to/lastmile_qr_scan"}}, {"is_disabled": 0, "fusion_lat": 0.0, "lat": 38.896227833333334, "type": "electric_scooter", "lon": -76.998544, "is_reserved": 0, "fusion_lon": 0.0, "bike_id": "94c5dc02ac49878987d8b5a8a509e364", "name": "94c5dc02ac49878987d8b5a8a509e364", "rental_uris": {"ios": "https://dc.lft.to/lastmile_qr_scan", "android": "https://dc.lft.to/lastmile_qr_scan"}}, {"is_disabled": 0, "fusion_lat": 0.0, "lat": 38.9110355, "type": "electric_scooter", "lon": -77.04840233333333, "is_reserved": 0, "fusion_lon": 0.0, "bike_id": "c51ad26b93821ca113e8b62184c612df", "name": "c51ad26b93821ca113e8b62184c612df", "rental_uris": {"ios": "https://dc.lft.to/lastmile_qr_scan", "android": "https://dc.lft.to/lastmile_qr_scan"}}, {"is_disabled": 0, "fusion_lat": 0.0, "lat": 38.89228933333333, "type": "electric_scooter", "lon": -77.04641366666667, "is_reserved": 0, "fusion_lon": 0.0, "bike_id": "6878fa93cdb66b35c1effc39e1d31068", "name": "6878fa93cdb66b35c1effc39e1d31068", "rental_uris": {"ios": "https://dc.lft.to/lastmile_qr_scan", "android": "https://dc.lft.to/lastmile_qr_scan"}}, {"is_disabled": 0, "fusion_lat": 0.0, "lat": 38.92917, "type": "electric_scooter", "lon": -77.0318625, "is_reserved": 0, "fusion_lon": 0.0, "bike_id": "e8ad8e1bdcdf43fc5211cc6e56ac7dbb", "name": "e8ad8e1bdcdf43fc5211cc6e56ac7dbb", "rental_uris": {"ios": "https://dc.lft.to/lastmile_qr_scan", "android": "https://dc.lft.to/lastmile_qr_scan"}}, {"is_disabled": 0, "fusion_lat": 0.0, "lat": 38.8980425, "type": "electric_scooter", "lon": -77.03304583333333, "is_reserved": 0, "fusion_lon": 0.0, "bike_id": "614e325cc6e1c477beedf87e125d5fe3", "name": "614e325cc6e1c477beedf87e125d5fe3", "rental_uris": {"ios": "https://dc.lft.to/lastmile_qr_scan", "android": "https://dc.lft.to/lastmile_qr_scan"}}, {"is_disabled": 0, "fusion_lat": 0.0, "lat": 38.82003066666667, "type": "electric_bike", "lon": -76.99808516666667, "is_reserved": 0, "fusion_lon": 0.0, "bike_id": "add496ccc55f2b8736447c09c7797339", "name": "add496ccc55f2b8736447c09c7797339", "rental_uris": {"ios": "https://dc.lft.to/lastmile_qr_scan", "android": "https://dc.lft.to/lastmile_qr_scan"}}, {"is_disabled": 0, "fusion_lat": 0.0, "lat": 38.905742333333336, "type": "electric_scooter", "lon": -77.03073966666666, "is_reserved": 0, "fusion_lon": 0.0, "bike_id": "30d9d9fbb6460fb2f7f098578df85971", "name": "30d9d9fbb6460fb2f7f098578df85971", "rental_uris": {"ios": "https://dc.lft.to/lastmile_qr_scan", "android": "https://dc.lft.to/lastmile_qr_scan"}}, {"is_disabled": 0, "fusion_lat": 0.0, "lat": 38.8922365, "type": "electric_scooter", "lon": -77.0463705, "is_reserved": 0, "fusion_lon": 0.0, "bike_id": "fde7b4f0d55b5d930d139414239fcaa1", "name": "fde7b4f0d55b5d930d139414239fcaa1", "rental_uris": {"ios": "https://dc.lft.to/lastmile_qr_scan", "android": "https://dc.lft.to/lastmile_qr_scan"}}, {"is_disabled": 0, "fusion_lat": 0.0, "lat": 38.941489833333335, "type": "electric_scooter", "lon": -77.02981416666667, "is_reserved": 0, "fusion_lon": 0.0, "bike_id": "bcba31b8cf49445322304aace4b43c0b", "name": "bcba31b8cf49445322304aace4b43c0b", "rental_uris": {"ios": "https://dc.lft.to/lastmile_qr_scan", "android": "https://dc.lft.to/lastmile_qr_scan"}}, {"is_disabled": 0, "fusion_lat": 0.0, "lat": 38.927729666666664, "type": "electric_scooter", "lon": -77.02703933333333, "is_reserved": 0, "fusion_lon": 0.0, "bike_id": "ceb3abf21fe12b24d79e85df9a9b6256", "name": "ceb3abf21fe12b24d79e85df9a9b6256", "rental_uris": {"ios": "https://dc.lft.to/lastmile_qr_scan", "android": "https://dc.lft.to/lastmile_qr_scan"}}, {"is_disabled": 0, "fusion_lat": 0.0, "lat": 38.89908783333333, "type": "electric_scooter", "lon": -77.0331965, "is_reserved": 0, "fusion_lon": 0.0, "bike_id": "240a974bac420177cec52d5eefb79faf", "name": "240a974bac420177cec52d5eefb79faf", "rental_uris": {"ios": "https://dc.lft.to/lastmile_qr_scan", "android": "https://dc.lft.to/lastmile_qr_scan"}}, {"is_disabled": 0, "fusion_lat": 0.0, "lat": 38.93246883333333, "type": "electric_scooter", "lon": -77.03109016666667, "is_reserved": 0, "fusion_lon": 0.0, "bike_id": "267e91832c92f3d71f62c6c9f3d77668", "name": "267e91832c92f3d71f62c6c9f3d77668", "rental_uris": {"ios": "https://dc.lft.to/lastmile_qr_scan", "android": "https://dc.lft.to/lastmile_qr_scan"}}, {"is_disabled": 0, "fusion_lat": 0.0, "lat": 38.893688833333336, "type": "electric_scooter", "lon": -76.94956983333333, "is_reserved": 0, "fusion_lon": 0.0, "bike_id": "587df60a882dc99ceec692ed559eb264", "name": "587df60a882dc99ceec692ed559eb264", "rental_uris": {"ios": "https://dc.lft.to/lastmile_qr_scan", "android": "https://dc.lft.to/lastmile_qr_scan"}}, {"is_disabled": 0, "fusion_lat": 0.0, "lat": 38.869181833333336, "type": "electric_scooter", "lon": -76.982988, "is_reserved": 0, "fusion_lon": 0.0, "bike_id": "4c01e39c13b5b19b1e5783c5bf1e8f8f", "name": "4c01e39c13b5b19b1e5783c5bf1e8f8f", "rental_uris": {"ios": "https://dc.lft.to/lastmile_qr_scan", "android": "https://dc.lft.to/lastmile_qr_scan"}}, {"is_disabled": 0, "fusion_lat": 0.0, "lat": 38.92123083333333, "type": "electric_scooter", "lon": -77.0458235, "is_reserved": 0, "fusion_lon": 0.0, "bike_id": "d6f8a714cda7d66803e00276fd5e4486", "name": "d6f8a714cda7d66803e00276fd5e4486", "rental_uris": {"ios": "https://dc.lft.to/lastmile_qr_scan", "android": "https://dc.lft.to/lastmile_qr_scan"}}, {"is_disabled": 0, "fusion_lat": 0.0, "lat": 38.88503133333333, "type": "electric_scooter", "lon": -77.00565616666667, "is_reserved": 0, "fusion_lon": 0.0, "bike_id": "dfc58557460dc8d42edd4a8bf426db14", "name": "dfc58557460dc8d42edd4a8bf426db14", "rental_uris": {"ios": "https://dc.lft.to/lastmile_qr_scan", "android": "https://dc.lft.to/lastmile_qr_scan"}}, {"is_disabled": 0, "fusion_lat": 0.0, "lat": 38.90438016666667, "type": "electric_scooter", "lon": -77.03275216666667, "is_reserved": 0, "fusion_lon": 0.0, "bike_id": "13da3f78db373913e91c9dca00ea61ad", "name": "13da3f78db373913e91c9dca00ea61ad", "rental_uris": {"ios": "https://dc.lft.to/lastmile_qr_scan", "android": "https://dc.lft.to/lastmile_qr_scan"}}, {"is_disabled": 0, "fusion_lat": 0.0, "lat": 38.91176383333333, "type": "electric_scooter", "lon": -77.06829566666667, "is_reserved": 0, "fusion_lon": 0.0, "bike_id": "7f31da93d279dbe11904e62e38302996", "name": "7f31da93d279dbe11904e62e38302996", "rental_uris": {"ios": "https://dc.lft.to/lastmile_qr_scan", "android": "https://dc.lft.to/lastmile_qr_scan"}}, {"is_disabled": 0, "fusion_lat": 0.0, "lat": 38.98656966666667, "type": "electric_bike", "lon": -77.0563975, "is_reserved": 0, "fusion_lon": 0.0, "bike_id": "3f75ff339e1bea99ec2af1c7c14ea5bf", "name": "3f75ff339e1bea99ec2af1c7c14ea5bf", "rental_uris": {"ios": "https://dc.lft.to/lastmile_qr_scan", "android": "https://dc.lft.to/lastmile_qr_scan"}}, {"is_disabled": 0, "fusion_lat": 0.0, "lat": 38.875320333333335, "type": "electric_scooter", "lon": -77.00064483333334, "is_reserved": 0, "fusion_lon": 0.0, "bike_id": "1c0116898f46538c8f2816171c7b58cc", "name": "1c0116898f46538c8f2816171c7b58cc", "rental_uris": {"ios": "https://dc.lft.to/lastmile_qr_scan", "android": "https://dc.lft.to/lastmile_qr_scan"}}, {"is_disabled": 0, "fusion_lat": 0.0, "lat": 38.903344833333335, "type": "electric_scooter", "lon": -77.04341883333333, "is_reserved": 0, "fusion_lon": 0.0, "bike_id": "dee783bb96225b5a5541984580dcd663", "name": "dee783bb96225b5a5541984580dcd663", "rental_uris": {"ios": "https://dc.lft.to/lastmile_qr_scan", "android": "https://dc.lft.to/lastmile_qr_scan"}}, {"is_disabled": 0, "fusion_lat": 0.0, "lat": 38.84424083333333, "type": "electric_scooter", "lon": -76.99777283333333, "is_reserved": 0, "fusion_lon": 0.0, "bike_id": "689d2850a1574f6ce638c0ab43a9a6f3", "name": "689d2850a1574f6ce638c0ab43a9a6f3", "rental_uris": {"ios": "https://dc.lft.to/lastmile_qr_scan", "android": "https://dc.lft.to/lastmile_qr_scan"}}, {"is_disabled": 0, "fusion_lat": 0.0, "lat": 38.902199, "type": "electric_bike", "lon": -76.95050433333333, "is_reserved": 0, "fusion_lon": 0.0, "bike_id": "43eef10401451ea08d437797e5fab9ab", "name": "43eef10401451ea08d437797e5fab9ab", "rental_uris": {"ios": "https://dc.lft.to/lastmile_qr_scan", "android": "https://dc.lft.to/lastmile_qr_scan"}}, {"is_disabled": 0, "fusion_lat": 0.0, "lat": 38.903785, "type": "electric_scooter", "lon": -77.04272083333333, "is_reserved": 0, "fusion_lon": 0.0, "bike_id": "0270a50a43c59fbf218824a3b40764ed", "name": "0270a50a43c59fbf218824a3b40764ed", "rental_uris": {"ios": "https://dc.lft.to/lastmile_qr_scan", "android": "https://dc.lft.to/lastmile_qr_scan"}}, {"is_disabled": 0, "fusion_lat": 0.0, "lat": 38.923352666666666, "type": "electric_scooter", "lon": -77.04323533333333, "is_reserved": 0, "fusion_lon": 0.0, "bike_id": "568ddae911712950e3c861965f2caa15", "name": "568ddae911712950e3c861965f2caa15", "rental_uris": {"ios": "https://dc.lft.to/lastmile_qr_scan", "android": "https://dc.lft.to/lastmile_qr_scan"}}, {"is_disabled": 0, "fusion_lat": 0.0, "lat": 38.901468666666666, "type": "electric_scooter", "lon": -77.04309016666667, "is_reserved": 0, "fusion_lon": 0.0, "bike_id": "5b520b1fbac03927148ee10089ce76aa", "name": "5b520b1fbac03927148ee10089ce76aa", "rental_uris": {"ios": "https://dc.lft.to/lastmile_qr_scan", "android": "https://dc.lft.to/lastmile_qr_scan"}}, {"is_disabled": 0, "fusion_lat": 0.0, "lat": 38.89834416666667, "type": "electric_scooter", "lon": -77.05024866666666, "is_reserved": 0, "fusion_lon": 0.0, "bike_id": "15312e328a8bdcd0faa3e0376097356a", "name": "15312e328a8bdcd0faa3e0376097356a", "rental_uris": {"ios": "https://dc.lft.to/lastmile_qr_scan", "android": "https://dc.lft.to/lastmile_qr_scan"}}, {"is_disabled": 0, "fusion_lat": 0.0, "lat": 38.9113925, "type": "electric_bike", "lon": -77.04888883333334, "is_reserved": 0, "fusion_lon": 0.0, "bike_id": "0b46dcfa62a346e5d671c250397eb2fd", "name": "0b46dcfa62a346e5d671c250397eb2fd", "rental_uris": {"ios": "https://dc.lft.to/lastmile_qr_scan", "android": "https://dc.lft.to/lastmile_qr_scan"}}, {"is_disabled": 0, "fusion_lat": 0.0, "lat": 38.93242033333333, "type": "electric_scooter", "lon": -77.03283283333333, "is_reserved": 0, "fusion_lon": 0.0, "bike_id": "90c8dbd7207adcd1b3b2f7099b82f935", "name": "90c8dbd7207adcd1b3b2f7099b82f935", "rental_uris": {"ios": "https://dc.lft.to/lastmile_qr_scan", "android": "https://dc.lft.to/lastmile_qr_scan"}}, {"is_disabled": 0, "fusion_lat": 0.0, "lat": 38.92204383333333, "type": "electric_scooter", "lon": -77.040248, "is_reserved": 0, "fusion_lon": 0.0, "bike_id": "19b9c286a2c6fe6f16d0e4b9e2694096", "name": "19b9c286a2c6fe6f16d0e4b9e2694096", "rental_uris": {"ios": "https://dc.lft.to/lastmile_qr_scan", "android": "https://dc.lft.to/lastmile_qr_scan"}}, {"is_disabled": 0, "fusion_lat": 0.0, "lat": 38.88019883333333, "type": "electric_bike", "lon": -77.1104925, "is_reserved": 0, "fusion_lon": 0.0, "bike_id": "69c7e72200c1ed713a782aa9c1a72341", "name": "69c7e72200c1ed713a782aa9c1a72341", "rental_uris": {"ios": "https://dc.lft.to/lastmile_qr_scan", "android": "https://dc.lft.to/lastmile_qr_scan"}}, {"is_disabled": 0, "fusion_lat": 0.0, "lat": 38.9342985, "type": "electric_scooter", "lon": -76.96506433333333, "is_reserved": 0, "fusion_lon": 0.0, "bike_id": "ab51320362d383a31ffec50e6716beda", "name": "ab51320362d383a31ffec50e6716beda", "rental_uris": {"ios": "https://dc.lft.to/lastmile_qr_scan", "android": "https://dc.lft.to/lastmile_qr_scan"}}, {"is_disabled": 0, "fusion_lat": 0.0, "lat": 38.88549283333333, "type": "electric_bike", "lon": -77.1178765, "is_reserved": 0, "fusion_lon": 0.0, "bike_id": "b38d67fd915737d5116eae09325f27e8", "name": "b38d67fd915737d5116eae09325f27e8", "rental_uris": {"ios": "https://dc.lft.to/lastmile_qr_scan", "android": "https://dc.lft.to/lastmile_qr_scan"}}, {"is_disabled": 0, "fusion_lat": 0.0, "lat": 38.918219, "type": "electric_scooter", "lon": -77.02711283333333, "is_reserved": 0, "fusion_lon": 0.0, "bike_id": "8558920eaa4027889f104fbdbe84a115", "name": "8558920eaa4027889f104fbdbe84a115", "rental_uris": {"ios": "https://dc.lft.to/lastmile_qr_scan", "android": "https://dc.lft.to/lastmile_qr_scan"}}, {"is_disabled": 0, "fusion_lat": 0.0, "lat": 38.922113, "type": "electric_scooter", "lon": -77.03656583333333, "is_reserved": 0, "fusion_lon": 0.0, "bike_id": "1ebd17de160432a19f8c7e64cec1e39c", "name": "1ebd17de160432a19f8c7e64cec1e39c", "rental_uris": {"ios": "https://dc.lft.to/lastmile_qr_scan", "android": "https://dc.lft.to/lastmile_qr_scan"}}, {"is_disabled": 0, "fusion_lat": 0.0, "lat": 38.99838666666667, "type": "electric_bike", "lon": -77.02912716666667, "is_reserved": 0, "fusion_lon": 0.0, "bike_id": "ba12ea0853f50eb7fadb4e74cdf264db", "name": "ba12ea0853f50eb7fadb4e74cdf264db", "rental_uris": {"ios": "https://dc.lft.to/lastmile_qr_scan", "android": "https://dc.lft.to/lastmile_qr_scan"}}, {"is_disabled": 0, "fusion_lat": 0.0, "lat": 38.90141216666667, "type": "electric_scooter", "lon": -77.025524, "is_reserved": 0, "fusion_lon": 0.0, "bike_id": "7957379838fee27690ccb7ebb03fc857", "name": "7957379838fee27690ccb7ebb03fc857", "rental_uris": {"ios": "https://dc.lft.to/lastmile_qr_scan", "android": "https://dc.lft.to/lastmile_qr_scan"}}, {"is_disabled": 0, "fusion_lat": 0.0, "lat": 38.872009166666665, "type": "electric_scooter", "lon": -77.00608516666667, "is_reserved": 0, "fusion_lon": 0.0, "bike_id": "648a07c36e88fcbb27c80709c2eb5be9", "name": "648a07c36e88fcbb27c80709c2eb5be9", "rental_uris": {"ios": "https://dc.lft.to/lastmile_qr_scan", "android": "https://dc.lft.to/lastmile_qr_scan"}}, {"is_disabled": 0, "fusion_lat": 0.0, "lat": 38.920481333333335, "type": "electric_scooter", "lon": -77.02232183333334, "is_reserved": 0, "fusion_lon": 0.0, "bike_id": "db2656dd2b410388cf9e884fb8793261", "name": "db2656dd2b410388cf9e884fb8793261", "rental_uris": {"ios": "https://dc.lft.to/lastmile_qr_scan", "android": "https://dc.lft.to/lastmile_qr_scan"}}, {"is_disabled": 0, "fusion_lat": 0.0, "lat": 38.917319666666664, "type": "electric_scooter", "lon": -77.036592, "is_reserved": 0, "fusion_lon": 0.0, "bike_id": "7efeafc5671a5ad39550b526a0b7f3a0", "name": "7efeafc5671a5ad39550b526a0b7f3a0", "rental_uris": {"ios": "https://dc.lft.to/lastmile_qr_scan", "android": "https://dc.lft.to/lastmile_qr_scan"}}, {"is_disabled": 0, "fusion_lat": 0.0, "lat": 38.89537633333333, "type": "electric_scooter", "lon": -76.94888516666667, "is_reserved": 0, "fusion_lon": 0.0, "bike_id": "bab1a6522ae5f21272dee67f9323ec7e", "name": "bab1a6522ae5f21272dee67f9323ec7e", "rental_uris": {"ios": "https://dc.lft.to/lastmile_qr_scan", "android": "https://dc.lft.to/lastmile_qr_scan"}}, {"is_disabled": 0, "fusion_lat": 0.0, "lat": 38.898259, "type": "electric_scooter", "lon": -77.03299333333334, "is_reserved": 0, "fusion_lon": 0.0, "bike_id": "fd750ca1b51a0091ea07ca0f2b3129c5", "name": "fd750ca1b51a0091ea07ca0f2b3129c5", "rental_uris": {"ios": "https://dc.lft.to/lastmile_qr_scan", "android": "https://dc.lft.to/lastmile_qr_scan"}}, {"is_disabled": 0, "fusion_lat": 0.0, "lat": 38.895582833333336, "type": "electric_scooter", "lon": -76.93038516666667, "is_reserved": 0, "fusion_lon": 0.0, "bike_id": "c59017cb0be947d856e7065ba43c6260", "name": "c59017cb0be947d856e7065ba43c6260", "rental_uris": {"ios": "https://dc.lft.to/lastmile_qr_scan", "android": "https://dc.lft.to/lastmile_qr_scan"}}, {"is_disabled": 0, "fusion_lat": 0.0, "lat": 38.920536, "type": "electric_scooter", "lon": -77.02429333333333, "is_reserved": 0, "fusion_lon": 0.0, "bike_id": "1ad926844e7341dc39a273d837fcc730", "name": "1ad926844e7341dc39a273d837fcc730", "rental_uris": {"ios": "https://dc.lft.to/lastmile_qr_scan", "android": "https://dc.lft.to/lastmile_qr_scan"}}, {"is_disabled": 0, "fusion_lat": 0.0, "lat": 38.9127525, "type": "electric_scooter", "lon": -77.0224515, "is_reserved": 0, "fusion_lon": 0.0, "bike_id": "b45455d15378bf73e8c6d5ad47cc7c93", "name": "b45455d15378bf73e8c6d5ad47cc7c93", "rental_uris": {"ios": "https://dc.lft.to/lastmile_qr_scan", "android": "https://dc.lft.to/lastmile_qr_scan"}}, {"is_disabled": 0, "fusion_lat": 0.0, "lat": 38.89617366666667, "type": "electric_scooter", "lon": -77.04049766666667, "is_reserved": 0, "fusion_lon": 0.0, "bike_id": "03c0a2df43fae253ce1f647a970ce7d1", "name": "03c0a2df43fae253ce1f647a970ce7d1", "rental_uris": {"ios": "https://dc.lft.to/lastmile_qr_scan", "android": "https://dc.lft.to/lastmile_qr_scan"}}, {"is_disabled": 0, "fusion_lat": 0.0, "lat": 39.05813333333333, "type": "electric_bike", "lon": -77.12624033333333, "is_reserved": 0, "fusion_lon": 0.0, "bike_id": "827aac09ddca6238644f9388b8cb59b9", "name": "827aac09ddca6238644f9388b8cb59b9", "rental_uris": {"ios": "https://dc.lft.to/lastmile_qr_scan", "android": "https://dc.lft.to/lastmile_qr_scan"}}, {"is_disabled": 0, "fusion_lat": 0.0, "lat": 38.897580833333336, "type": "electric_scooter", "lon": -77.03138683333333, "is_reserved": 0, "fusion_lon": 0.0, "bike_id": "430a9bae63308b89f37250decd32cc3b", "name": "430a9bae63308b89f37250decd32cc3b", "rental_uris": {"ios": "https://dc.lft.to/lastmile_qr_scan", "android": "https://dc.lft.to/lastmile_qr_scan"}}, {"is_disabled": 0, "fusion_lat": 0.0, "lat": 38.90393533333334, "type": "electric_scooter", "lon": -77.03883316666666, "is_reserved": 0, "fusion_lon": 0.0, "bike_id": "6c6666e962a0625259137042261e21c5", "name": "6c6666e962a0625259137042261e21c5", "rental_uris": {"ios": "https://dc.lft.to/lastmile_qr_scan", "android": "https://dc.lft.to/lastmile_qr_scan"}}, {"is_disabled": 0, "fusion_lat": 0.0, "lat": 38.90781616666666, "type": "electric_scooter", "lon": -77.03473416666667, "is_reserved": 0, "fusion_lon": 0.0, "bike_id": "a0d5895d9071444ce6a7cb221d4f8357", "name": "a0d5895d9071444ce6a7cb221d4f8357", "rental_uris": {"ios": "https://dc.lft.to/lastmile_qr_scan", "android": "https://dc.lft.to/lastmile_qr_scan"}}, {"is_disabled": 0, "fusion_lat": 0.0, "lat": 38.8461195, "type": "electric_bike", "lon": -76.96905116666667, "is_reserved": 0, "fusion_lon": 0.0, "bike_id": "ba2876d389acdf683e948060938bb71c", "name": "ba2876d389acdf683e948060938bb71c", "rental_uris": {"ios": "https://dc.lft.to/lastmile_qr_scan", "android": "https://dc.lft.to/lastmile_qr_scan"}}, {"is_disabled": 0, "fusion_lat": 0.0, "lat": 38.84623083333334, "type": "electric_bike", "lon": -76.97820733333333, "is_reserved": 0, "fusion_lon": 0.0, "bike_id": "ea7da50cad5b600df7ab494ce08ea088", "name": "ea7da50cad5b600df7ab494ce08ea088", "rental_uris": {"ios": "https://dc.lft.to/lastmile_qr_scan", "android": "https://dc.lft.to/lastmile_qr_scan"}}, {"is_disabled": 0, "fusion_lat": 0.0, "lat": 38.953587166666665, "type": "electric_bike", "lon": -76.9809415, "is_reserved": 0, "fusion_lon": 0.0, "bike_id": "5d4593412f70d55a7640ff472d8a2c18", "name": "5d4593412f70d55a7640ff472d8a2c18", "rental_uris": {"ios": "https://dc.lft.to/lastmile_qr_scan", "android": "https://dc.lft.to/lastmile_qr_scan"}}, {"is_disabled": 0, "fusion_lat": 0.0, "lat": 38.911962833333334, "type": "electric_scooter", "lon": -77.00439233333333, "is_reserved": 0, "fusion_lon": 0.0, "bike_id": "32792bd3a5e123375ce1d14138c772ab", "name": "32792bd3a5e123375ce1d14138c772ab", "rental_uris": {"ios": "https://dc.lft.to/lastmile_qr_scan", "android": "https://dc.lft.to/lastmile_qr_scan"}}, {"is_disabled": 0, "fusion_lat": 0.0, "lat": 38.909158, "type": "electric_scooter", "lon": -76.99909983333333, "is_reserved": 0, "fusion_lon": 0.0, "bike_id": "c4dbe1887716ad92a4d3b6938abd98ef", "name": "c4dbe1887716ad92a4d3b6938abd98ef", "rental_uris": {"ios": "https://dc.lft.to/lastmile_qr_scan", "android": "https://dc.lft.to/lastmile_qr_scan"}}, {"is_disabled": 0, "fusion_lat": 0.0, "lat": 38.8549355, "type": "electric_bike", "lon": -77.11611933333333, "is_reserved": 0, "fusion_lon": 0.0, "bike_id": "337eb0d347c2aecbdafbca384272d1c1", "name": "337eb0d347c2aecbdafbca384272d1c1", "rental_uris": {"ios": "https://dc.lft.to/lastmile_qr_scan", "android": "https://dc.lft.to/lastmile_qr_scan"}}, {"is_disabled": 0, "fusion_lat": 0.0, "lat": 38.899059666666666, "type": "electric_scooter", "lon": -76.9334875, "is_reserved": 0, "fusion_lon": 0.0, "bike_id": "affa0d7ac2788f2b8a5703aee32418cc", "name": "affa0d7ac2788f2b8a5703aee32418cc", "rental_uris": {"ios": "https://dc.lft.to/lastmile_qr_scan", "android": "https://dc.lft.to/lastmile_qr_scan"}}, {"is_disabled": 0, "fusion_lat": 0.0, "lat": 38.87500433333334, "type": "electric_scooter", "lon": -76.9979935, "is_reserved": 0, "fusion_lon": 0.0, "bike_id": "820b9e5b6a4b1ed0379b3cbd48d71c29", "name": "820b9e5b6a4b1ed0379b3cbd48d71c29", "rental_uris": {"ios": "https://dc.lft.to/lastmile_qr_scan", "android": "https://dc.lft.to/lastmile_qr_scan"}}, {"is_disabled": 0, "fusion_lat": 0.0, "lat": 38.8919925, "type": "electric_scooter", "lon": -77.02378766666666, "is_reserved": 0, "fusion_lon": 0.0, "bike_id": "bbc71deabc495129fd9a9b1e8eae9cc5", "name": "bbc71deabc495129fd9a9b1e8eae9cc5", "rental_uris": {"ios": "https://dc.lft.to/lastmile_qr_scan", "android": "https://dc.lft.to/lastmile_qr_scan"}}, {"is_disabled": 0, "fusion_lat": 0.0, "lat": 38.9241815, "type": "electric_scooter", "lon": -77.02242683333333, "is_reserved": 0, "fusion_lon": 0.0, "bike_id": "9948d471a96645403ba1f62216f4c774", "name": "9948d471a96645403ba1f62216f4c774", "rental_uris": {"ios": "https://dc.lft.to/lastmile_qr_scan", "android": "https://dc.lft.to/lastmile_qr_scan"}}, {"is_disabled": 0, "fusion_lat": 0.0, "lat": 38.90415683333333, "type": "electric_scooter", "lon": -77.02073816666666, "is_reserved": 0, "fusion_lon": 0.0, "bike_id": "1b849f953b923f2788c5990c01be3317", "name": "1b849f953b923f2788c5990c01be3317", "rental_uris": {"ios": "https://dc.lft.to/lastmile_qr_scan", "android": "https://dc.lft.to/lastmile_qr_scan"}}, {"is_disabled": 0, "fusion_lat": 0.0, "lat": 38.885199, "type": "electric_scooter", "lon": -77.033541, "is_reserved": 0, "fusion_lon": 0.0, "bike_id": "599ee1db00ebcd9e8ec6aa7990359497", "name": "599ee1db00ebcd9e8ec6aa7990359497", "rental_uris": {"ios": "https://dc.lft.to/lastmile_qr_scan", "android": "https://dc.lft.to/lastmile_qr_scan"}}, {"is_disabled": 0, "fusion_lat": 0.0, "lat": 38.8580855, "type": "electric_scooter", "lon": -76.98993183333333, "is_reserved": 0, "fusion_lon": 0.0, "bike_id": "d5c10d70dadca25421ff32141acab3b9", "name": "d5c10d70dadca25421ff32141acab3b9", "rental_uris": {"ios": "https://dc.lft.to/lastmile_qr_scan", "android": "https://dc.lft.to/lastmile_qr_scan"}}, {"is_disabled": 0, "fusion_lat": 0.0, "lat": 38.890176, "type": "electric_scooter", "lon": -76.93742733333333, "is_reserved": 0, "fusion_lon": 0.0, "bike_id": "2305afc9f4a026731dfa87c9713755f7", "name": "2305afc9f4a026731dfa87c9713755f7", "rental_uris": {"ios": "https://dc.lft.to/lastmile_qr_scan", "android": "https://dc.lft.to/lastmile_qr_scan"}}, {"is_disabled": 0, "fusion_lat": 0.0, "lat": 38.9048125, "type": "electric_scooter", "lon": -77.06008266666667, "is_reserved": 0, "fusion_lon": 0.0, "bike_id": "e49a2e299a8d606a02564d4b72584750", "name": "e49a2e299a8d606a02564d4b72584750", "rental_uris": {"ios": "https://dc.lft.to/lastmile_qr_scan", "android": "https://dc.lft.to/lastmile_qr_scan"}}, {"is_disabled": 0, "fusion_lat": 0.0, "lat": 38.94014133333334, "type": "electric_scooter", "lon": -77.07177866666666, "is_reserved": 0, "fusion_lon": 0.0, "bike_id": "adf6b93ebfa7254d7fcdc87467b24454", "name": "adf6b93ebfa7254d7fcdc87467b24454", "rental_uris": {"ios": "https://dc.lft.to/lastmile_qr_scan", "android": "https://dc.lft.to/lastmile_qr_scan"}}, {"is_disabled": 0, "fusion_lat": 0.0, "lat": 38.92852933333333, "type": "electric_scooter", "lon": -77.05422483333334, "is_reserved": 0, "fusion_lon": 0.0, "bike_id": "f1831ec4338b442bb3eefdded97f28e6", "name": "f1831ec4338b442bb3eefdded97f28e6", "rental_uris": {"ios": "https://dc.lft.to/lastmile_qr_scan", "android": "https://dc.lft.to/lastmile_qr_scan"}}, {"is_disabled": 0, "fusion_lat": 0.0, "lat": 38.923822333333334, "type": "electric_scooter", "lon": -77.0353145, "is_reserved": 0, "fusion_lon": 0.0, "bike_id": "8c96bb9ddc4559297b51c111e231d6fb", "name": "8c96bb9ddc4559297b51c111e231d6fb", "rental_uris": {"ios": "https://dc.lft.to/lastmile_qr_scan", "android": "https://dc.lft.to/lastmile_qr_scan"}}, {"is_disabled": 0, "fusion_lat": 0.0, "lat": 38.896085, "type": "electric_scooter", "lon": -77.0478735, "is_reserved": 0, "fusion_lon": 0.0, "bike_id": "9efefada710b385f4d17903ce1d75522", "name": "9efefada710b385f4d17903ce1d75522", "rental_uris": {"ios": "https://dc.lft.to/lastmile_qr_scan", "android": "https://dc.lft.to/lastmile_qr_scan"}}, {"is_disabled": 0, "fusion_lat": 0.0, "lat": 38.92325866666667, "type": "electric_scooter", "lon": -77.047605, "is_reserved": 0, "fusion_lon": 0.0, "bike_id": "5338286fefbbe4935bc957158f02678e", "name": "5338286fefbbe4935bc957158f02678e", "rental_uris": {"ios": "https://dc.lft.to/lastmile_qr_scan", "android": "https://dc.lft.to/lastmile_qr_scan"}}, {"is_disabled": 0, "fusion_lat": 0.0, "lat": 38.92451466666667, "type": "electric_scooter", "lon": -77.04118483333333, "is_reserved": 0, "fusion_lon": 0.0, "bike_id": "f6249fbede6f49b6067dbe37bfce9f9d", "name": "f6249fbede6f49b6067dbe37bfce9f9d", "rental_uris": {"ios": "https://dc.lft.to/lastmile_qr_scan", "android": "https://dc.lft.to/lastmile_qr_scan"}}, {"is_disabled": 0, "fusion_lat": 0.0, "lat": 38.923335, "type": "electric_scooter", "lon": -77.056743, "is_reserved": 0, "fusion_lon": 0.0, "bike_id": "9ecc269ef72796049b9463b1dd116189", "name": "9ecc269ef72796049b9463b1dd116189", "rental_uris": {"ios": "https://dc.lft.to/lastmile_qr_scan", "android": "https://dc.lft.to/lastmile_qr_scan"}}, {"is_disabled": 0, "fusion_lat": 0.0, "lat": 38.95647733333333, "type": "electric_bike", "lon": -77.02251966666667, "is_reserved": 0, "fusion_lon": 0.0, "bike_id": "7678b4298bfba735889dce7887db3a58", "name": "7678b4298bfba735889dce7887db3a58", "rental_uris": {"ios": "https://dc.lft.to/lastmile_qr_scan", "android": "https://dc.lft.to/lastmile_qr_scan"}}, {"is_disabled": 0, "fusion_lat": 0.0, "lat": 38.861673833333334, "type": "electric_bike", "lon": -76.95067566666667, "is_reserved": 0, "fusion_lon": 0.0, "bike_id": "085038d9bdcc4562ba6ebc1c89ce79c8", "name": "085038d9bdcc4562ba6ebc1c89ce79c8", "rental_uris": {"ios": "https://dc.lft.to/lastmile_qr_scan", "android": "https://dc.lft.to/lastmile_qr_scan"}}, {"is_disabled": 0, "fusion_lat": 0.0, "lat": 38.895366333333335, "type": "electric_scooter", "lon": -76.94888716666667, "is_reserved": 0, "fusion_lon": 0.0, "bike_id": "13ece31bb271350b5c27aa5183c111f6", "name": "13ece31bb271350b5c27aa5183c111f6", "rental_uris": {"ios": "https://dc.lft.to/lastmile_qr_scan", "android": "https://dc.lft.to/lastmile_qr_scan"}}, {"is_disabled": 0, "fusion_lat": 0.0, "lat": 38.89250716666667, "type": "electric_scooter", "lon": -77.0395655, "is_reserved": 0, "fusion_lon": 0.0, "bike_id": "505db2b380b27d3de287e2a7ead0739c", "name": "505db2b380b27d3de287e2a7ead0739c", "rental_uris": {"ios": "https://dc.lft.to/lastmile_qr_scan", "android": "https://dc.lft.to/lastmile_qr_scan"}}, {"is_disabled": 0, "fusion_lat": 0.0, "lat": 38.917003333333334, "type": "electric_scooter", "lon": -77.03120216666667, "is_reserved": 0, "fusion_lon": 0.0, "bike_id": "d82eb121f84e2c4af218c4525ec14f65", "name": "d82eb121f84e2c4af218c4525ec14f65", "rental_uris": {"ios": "https://dc.lft.to/lastmile_qr_scan", "android": "https://dc.lft.to/lastmile_qr_scan"}}, {"is_disabled": 0, "fusion_lat": 0.0, "lat": 38.89833633333333, "type": "electric_scooter", "lon": -77.00759616666667, "is_reserved": 0, "fusion_lon": 0.0, "bike_id": "046da52bfc7b0bbd4a35c429a8469d98", "name": "046da52bfc7b0bbd4a35c429a8469d98", "rental_uris": {"ios": "https://dc.lft.to/lastmile_qr_scan", "android": "https://dc.lft.to/lastmile_qr_scan"}}, {"is_disabled": 0, "fusion_lat": 0.0, "lat": 38.91269616666666, "type": "electric_scooter", "lon": -77.02264016666666, "is_reserved": 0, "fusion_lon": 0.0, "bike_id": "0202e915fbec2bb3f0b268235489431f", "name": "0202e915fbec2bb3f0b268235489431f", "rental_uris": {"ios": "https://dc.lft.to/lastmile_qr_scan", "android": "https://dc.lft.to/lastmile_qr_scan"}}, {"is_disabled": 0, "fusion_lat": 0.0, "lat": 38.93430866666667, "type": "electric_scooter", "lon": -77.03998433333334, "is_reserved": 0, "fusion_lon": 0.0, "bike_id": "99c70c8d704ac2ef388a830d87ac04ab", "name": "99c70c8d704ac2ef388a830d87ac04ab", "rental_uris": {"ios": "https://dc.lft.to/lastmile_qr_scan", "android": "https://dc.lft.to/lastmile_qr_scan"}}, {"is_disabled": 0, "fusion_lat": 0.0, "lat": 38.91607333333333, "type": "electric_scooter", "lon": -77.0118435, "is_reserved": 0, "fusion_lon": 0.0, "bike_id": "053ae0169dfaa3cbf88235bc3dde9218", "name": "053ae0169dfaa3cbf88235bc3dde9218", "rental_uris": {"ios": "https://dc.lft.to/lastmile_qr_scan", "android": "https://dc.lft.to/lastmile_qr_scan"}}, {"is_disabled": 0, "fusion_lat": 0.0, "lat": 38.88732616666667, "type": "electric_scooter", "lon": -77.0032515, "is_reserved": 0, "fusion_lon": 0.0, "bike_id": "222726a9fb69b82995111a460ff396cb", "name": "222726a9fb69b82995111a460ff396cb", "rental_uris": {"ios": "https://dc.lft.to/lastmile_qr_scan", "android": "https://dc.lft.to/lastmile_qr_scan"}}, {"is_disabled": 0, "fusion_lat": 0.0, "lat": 38.807546, "type": "electric_bike", "lon": -77.09455033333333, "is_reserved": 0, "fusion_lon": 0.0, "bike_id": "f279b1b9f9042382a62b1ce41161ce0d", "name": "f279b1b9f9042382a62b1ce41161ce0d", "rental_uris": {"ios": "https://dc.lft.to/lastmile_qr_scan", "android": "https://dc.lft.to/lastmile_qr_scan"}}, {"is_disabled": 0, "fusion_lat": 0.0, "lat": 38.9025405, "type": "electric_scooter", "lon": -77.04172883333334, "is_reserved": 0, "fusion_lon": 0.0, "bike_id": "3c6e6c095cdd04866a4922d9a51fdd02", "name": "3c6e6c095cdd04866a4922d9a51fdd02", "rental_uris": {"ios": "https://dc.lft.to/lastmile_qr_scan", "android": "https://dc.lft.to/lastmile_qr_scan"}}, {"is_disabled": 0, "fusion_lat": 0.0, "lat": 38.91766066666667, "type": "electric_scooter", "lon": -77.04043283333333, "is_reserved": 0, "fusion_lon": 0.0, "bike_id": "ffa27e0afbf18811d7918e2ef647f9e3", "name": "ffa27e0afbf18811d7918e2ef647f9e3", "rental_uris": {"ios": "https://dc.lft.to/lastmile_qr_scan", "android": "https://dc.lft.to/lastmile_qr_scan"}}, {"is_disabled": 0, "fusion_lat": 0.0, "lat": 38.94716483333333, "type": "electric_scooter", "lon": -77.0335205, "is_reserved": 0, "fusion_lon": 0.0, "bike_id": "0e89b329fb908458c8b84c94d66f21e1", "name": "0e89b329fb908458c8b84c94d66f21e1", "rental_uris": {"ios": "https://dc.lft.to/lastmile_qr_scan", "android": "https://dc.lft.to/lastmile_qr_scan"}}, {"is_disabled": 0, "fusion_lat": 0.0, "lat": 38.937147333333336, "type": "electric_scooter", "lon": -77.029403, "is_reserved": 0, "fusion_lon": 0.0, "bike_id": "7aad285d643c3e1da727d55e11f6fe3f", "name": "7aad285d643c3e1da727d55e11f6fe3f", "rental_uris": {"ios": "https://dc.lft.to/lastmile_qr_scan", "android": "https://dc.lft.to/lastmile_qr_scan"}}, {"is_disabled": 0, "fusion_lat": 0.0, "lat": 38.90507316666667, "type": "electric_scooter", "lon": -77.025983, "is_reserved": 0, "fusion_lon": 0.0, "bike_id": "ccf499f3fe93761dbd8cfedaa2ee807e", "name": "ccf499f3fe93761dbd8cfedaa2ee807e", "rental_uris": {"ios": "https://dc.lft.to/lastmile_qr_scan", "android": "https://dc.lft.to/lastmile_qr_scan"}}, {"is_disabled": 0, "fusion_lat": 0.0, "lat": 38.928844166666664, "type": "electric_scooter", "lon": -77.01383766666666, "is_reserved": 0, "fusion_lon": 0.0, "bike_id": "1f10c67f0d1c85b810b4c3e2a003cbbf", "name": "1f10c67f0d1c85b810b4c3e2a003cbbf", "rental_uris": {"ios": "https://dc.lft.to/lastmile_qr_scan", "android": "https://dc.lft.to/lastmile_qr_scan"}}, {"is_disabled": 0, "fusion_lat": 0.0, "lat": 38.9579175, "type": "electric_bike", "lon": -77.0019825, "is_reserved": 0, "fusion_lon": 0.0, "bike_id": "07f63af6eda1508dfc1c5df61debe531", "name": "07f63af6eda1508dfc1c5df61debe531", "rental_uris": {"ios": "https://dc.lft.to/lastmile_qr_scan", "android": "https://dc.lft.to/lastmile_qr_scan"}}, {"is_disabled": 0, "fusion_lat": 0.0, "lat": 38.88495566666667, "type": "electric_scooter", "lon": -77.00344083333333, "is_reserved": 0, "fusion_lon": 0.0, "bike_id": "0d0afd80ef354fa60bac6c0cd1b40739", "name": "0d0afd80ef354fa60bac6c0cd1b40739", "rental_uris": {"ios": "https://dc.lft.to/lastmile_qr_scan", "android": "https://dc.lft.to/lastmile_qr_scan"}}, {"is_disabled": 0, "fusion_lat": 0.0, "lat": 38.89746, "type": "electric_scooter", "lon": -77.007631, "is_reserved": 0, "fusion_lon": 0.0, "bike_id": "19d08aca9cc379834c6b424fba13c38f", "name": "19d08aca9cc379834c6b424fba13c38f", "rental_uris": {"ios": "https://dc.lft.to/lastmile_qr_scan", "android": "https://dc.lft.to/lastmile_qr_scan"}}, {"is_disabled": 0, "fusion_lat": 0.0, "lat": 38.85499166666666, "type": "electric_bike", "lon": -76.98401866666667, "is_reserved": 0, "fusion_lon": 0.0, "bike_id": "a3e14bff24b78f739004923c3415a8df", "name": "a3e14bff24b78f739004923c3415a8df", "rental_uris": {"ios": "https://dc.lft.to/lastmile_qr_scan", "android": "https://dc.lft.to/lastmile_qr_scan"}}, {"is_disabled": 0, "fusion_lat": 0.0, "lat": 38.88383133333333, "type": "electric_scooter", "lon": -77.04601433333333, "is_reserved": 0, "fusion_lon": 0.0, "bike_id": "eede88bf1949628ce756261702cac6b1", "name": "eede88bf1949628ce756261702cac6b1", "rental_uris": {"ios": "https://dc.lft.to/lastmile_qr_scan", "android": "https://dc.lft.to/lastmile_qr_scan"}}, {"is_disabled": 0, "fusion_lat": 0.0, "lat": 38.889982833333335, "type": "electric_scooter", "lon": -76.9556345, "is_reserved": 0, "fusion_lon": 0.0, "bike_id": "ea7623de5d9cdcdf270c4fc10166c0ed", "name": "ea7623de5d9cdcdf270c4fc10166c0ed", "rental_uris": {"ios": "https://dc.lft.to/lastmile_qr_scan", "android": "https://dc.lft.to/lastmile_qr_scan"}}, {"is_disabled": 0, "fusion_lat": 0.0, "lat": 38.92174583333333, "type": "electric_scooter", "lon": -77.0402045, "is_reserved": 0, "fusion_lon": 0.0, "bike_id": "993761e6f09d32695f1e6cf1a3ec8b00", "name": "993761e6f09d32695f1e6cf1a3ec8b00", "rental_uris": {"ios": "https://dc.lft.to/lastmile_qr_scan", "android": "https://dc.lft.to/lastmile_qr_scan"}}, {"is_disabled": 0, "fusion_lat": 0.0, "lat": 38.83731383333333, "type": "electric_bike", "lon": -76.99748883333334, "is_reserved": 0, "fusion_lon": 0.0, "bike_id": "ddb1798885fe36ae9386cfe83a88009c", "name": "ddb1798885fe36ae9386cfe83a88009c", "rental_uris": {"ios": "https://dc.lft.to/lastmile_qr_scan", "android": "https://dc.lft.to/lastmile_qr_scan"}}, {"is_disabled": 0, "fusion_lat": 0.0, "lat": 38.8929335, "type": "electric_scooter", "lon": -76.99854383333333, "is_reserved": 0, "fusion_lon": 0.0, "bike_id": "c8333c499a412d3582a970c2991bdb7f", "name": "c8333c499a412d3582a970c2991bdb7f", "rental_uris": {"ios": "https://dc.lft.to/lastmile_qr_scan", "android": "https://dc.lft.to/lastmile_qr_scan"}}, {"is_disabled": 0, "fusion_lat": 0.0, "lat": 38.88504733333333, "type": "electric_scooter", "lon": -77.015529, "is_reserved": 0, "fusion_lon": 0.0, "bike_id": "aaec2090061ff273e73f742d4b755ff8", "name": "aaec2090061ff273e73f742d4b755ff8", "rental_uris": {"ios": "https://dc.lft.to/lastmile_qr_scan", "android": "https://dc.lft.to/lastmile_qr_scan"}}, {"is_disabled": 0, "fusion_lat": 0.0, "lat": 38.903139333333336, "type": "electric_scooter", "lon": -76.97801666666666, "is_reserved": 0, "fusion_lon": 0.0, "bike_id": "08acca4a19d004f27cf497c2b3006e7a", "name": "08acca4a19d004f27cf497c2b3006e7a", "rental_uris": {"ios": "https://dc.lft.to/lastmile_qr_scan", "android": "https://dc.lft.to/lastmile_qr_scan"}}, {"is_disabled": 0, "fusion_lat": 0.0, "lat": 38.879662833333335, "type": "electric_bike", "lon": -77.01008183333333, "is_reserved": 0, "fusion_lon": 0.0, "bike_id": "19e714322ac8e2bffcbf2029dd287254", "name": "19e714322ac8e2bffcbf2029dd287254", "rental_uris": {"ios": "https://dc.lft.to/lastmile_qr_scan", "android": "https://dc.lft.to/lastmile_qr_scan"}}, {"is_disabled": 0, "fusion_lat": 0.0, "lat": 38.970957166666665, "type": "electric_bike", "lon": -77.06962883333334, "is_reserved": 0, "fusion_lon": 0.0, "bike_id": "0197db4e0d2ca045aa0f16b85940414f", "name": "0197db4e0d2ca045aa0f16b85940414f", "rental_uris": {"ios": "https://dc.lft.to/lastmile_qr_scan", "android": "https://dc.lft.to/lastmile_qr_scan"}}, {"is_disabled": 0, "fusion_lat": 0.0, "lat": 38.9000005, "type": "electric_scooter", "lon": -77.0267705, "is_reserved": 0, "fusion_lon": 0.0, "bike_id": "c866c07ca79c39d8fa97b528ba7f86f3", "name": "c866c07ca79c39d8fa97b528ba7f86f3", "rental_uris": {"ios": "https://dc.lft.to/lastmile_qr_scan", "android": "https://dc.lft.to/lastmile_qr_scan"}}, {"is_disabled": 0, "fusion_lat": 0.0, "lat": 38.925042, "type": "electric_scooter", "lon": -77.0388505, "is_reserved": 0, "fusion_lon": 0.0, "bike_id": "d02dedc2b58f9655fe5ab8a7af46add6", "name": "d02dedc2b58f9655fe5ab8a7af46add6", "rental_uris": {"ios": "https://dc.lft.to/lastmile_qr_scan", "android": "https://dc.lft.to/lastmile_qr_scan"}}, {"is_disabled": 0, "fusion_lat": 0.0, "lat": 38.898779, "type": "electric_scooter", "lon": -76.93186016666667, "is_reserved": 0, "fusion_lon": 0.0, "bike_id": "ca0dbd35625f7e51ca00df7c5e2457c8", "name": "ca0dbd35625f7e51ca00df7c5e2457c8", "rental_uris": {"ios": "https://dc.lft.to/lastmile_qr_scan", "android": "https://dc.lft.to/lastmile_qr_scan"}}, {"is_disabled": 0, "fusion_lat": 0.0, "lat": 38.91564566666667, "type": "electric_scooter", "lon": -77.04856816666667, "is_reserved": 0, "fusion_lon": 0.0, "bike_id": "7defc8cdadad1c28cad0f50e87bc289d", "name": "7defc8cdadad1c28cad0f50e87bc289d", "rental_uris": {"ios": "https://dc.lft.to/lastmile_qr_scan", "android": "https://dc.lft.to/lastmile_qr_scan"}}, {"is_disabled": 0, "fusion_lat": 0.0, "lat": 38.92585616666667, "type": "electric_scooter", "lon": -77.00473816666667, "is_reserved": 0, "fusion_lon": 0.0, "bike_id": "24745992bd792b5aa4773cfb3ad8bed9", "name": "24745992bd792b5aa4773cfb3ad8bed9", "rental_uris": {"ios": "https://dc.lft.to/lastmile_qr_scan", "android": "https://dc.lft.to/lastmile_qr_scan"}}, {"is_disabled": 0, "fusion_lat": 0.0, "lat": 38.900474833333334, "type": "electric_scooter", "lon": -77.002588, "is_reserved": 0, "fusion_lon": 0.0, "bike_id": "2ea791764cc93ea08a052a20e735de2e", "name": "2ea791764cc93ea08a052a20e735de2e", "rental_uris": {"ios": "https://dc.lft.to/lastmile_qr_scan", "android": "https://dc.lft.to/lastmile_qr_scan"}}, {"is_disabled": 0, "fusion_lat": 0.0, "lat": 38.916181, "type": "electric_scooter", "lon": -77.02711033333334, "is_reserved": 0, "fusion_lon": 0.0, "bike_id": "a6d31f6687de130061bada64595f2b60", "name": "a6d31f6687de130061bada64595f2b60", "rental_uris": {"ios": "https://dc.lft.to/lastmile_qr_scan", "android": "https://dc.lft.to/lastmile_qr_scan"}}, {"is_disabled": 0, "fusion_lat": 0.0, "lat": 38.92148983333333, "type": "electric_scooter", "lon": -77.0386145, "is_reserved": 0, "fusion_lon": 0.0, "bike_id": "435e18d38cb217f3549e9eb1c8404765", "name": "435e18d38cb217f3549e9eb1c8404765", "rental_uris": {"ios": "https://dc.lft.to/lastmile_qr_scan", "android": "https://dc.lft.to/lastmile_qr_scan"}}, {"is_disabled": 0, "fusion_lat": 0.0, "lat": 38.903878166666665, "type": "electric_scooter", "lon": -77.03886883333334, "is_reserved": 0, "fusion_lon": 0.0, "bike_id": "3478eebdc2e2ca6e4106f8bd3a2c70f9", "name": "3478eebdc2e2ca6e4106f8bd3a2c70f9", "rental_uris": {"ios": "https://dc.lft.to/lastmile_qr_scan", "android": "https://dc.lft.to/lastmile_qr_scan"}}, {"is_disabled": 0, "fusion_lat": 0.0, "lat": 38.884616666666666, "type": "electric_scooter", "lon": -77.0058075, "is_reserved": 0, "fusion_lon": 0.0, "bike_id": "88ed8ff65af0a49007c8e074477d0b5a", "name": "88ed8ff65af0a49007c8e074477d0b5a", "rental_uris": {"ios": "https://dc.lft.to/lastmile_qr_scan", "android": "https://dc.lft.to/lastmile_qr_scan"}}, {"is_disabled": 0, "fusion_lat": 0.0, "lat": 38.8714985, "type": "electric_bike", "lon": -76.93668116666667, "is_reserved": 0, "fusion_lon": 0.0, "bike_id": "38911a463c11880e945e52d9519b65fa", "name": "38911a463c11880e945e52d9519b65fa", "rental_uris": {"ios": "https://dc.lft.to/lastmile_qr_scan", "android": "https://dc.lft.to/lastmile_qr_scan"}}, {"is_disabled": 0, "fusion_lat": 0.0, "lat": 38.95358233333333, "type": "electric_bike", "lon": -76.9808815, "is_reserved": 0, "fusion_lon": 0.0, "bike_id": "e1675c5e49b11b48fa5a097f28c42928", "name": "e1675c5e49b11b48fa5a097f28c42928", "rental_uris": {"ios": "https://dc.lft.to/lastmile_qr_scan", "android": "https://dc.lft.to/lastmile_qr_scan"}}, {"is_disabled": 0, "fusion_lat": 0.0, "lat": 38.9177975, "type": "electric_scooter", "lon": -77.0225675, "is_reserved": 0, "fusion_lon": 0.0, "bike_id": "25393baf5b2bb5466806f516fc9f6857", "name": "25393baf5b2bb5466806f516fc9f6857", "rental_uris": {"ios": "https://dc.lft.to/lastmile_qr_scan", "android": "https://dc.lft.to/lastmile_qr_scan"}}, {"is_disabled": 0, "fusion_lat": 0.0, "lat": 38.901458, "type": "electric_scooter", "lon": -76.99796216666667, "is_reserved": 0, "fusion_lon": 0.0, "bike_id": "57a60bc6066b3df0bb12695f6b36e18f", "name": "57a60bc6066b3df0bb12695f6b36e18f", "rental_uris": {"ios": "https://dc.lft.to/lastmile_qr_scan", "android": "https://dc.lft.to/lastmile_qr_scan"}}, {"is_disabled": 0, "fusion_lat": 0.0, "lat": 38.9204515, "type": "electric_scooter", "lon": -77.02421566666666, "is_reserved": 0, "fusion_lon": 0.0, "bike_id": "09cc15ff8f42bf7b9347267c42b4adf7", "name": "09cc15ff8f42bf7b9347267c42b4adf7", "rental_uris": {"ios": "https://dc.lft.to/lastmile_qr_scan", "android": "https://dc.lft.to/lastmile_qr_scan"}}, {"is_disabled": 0, "fusion_lat": 0.0, "lat": 38.912728, "type": "electric_scooter", "lon": -77.04173083333333, "is_reserved": 0, "fusion_lon": 0.0, "bike_id": "2ae26d3ae6233f60605759988d72c750", "name": "2ae26d3ae6233f60605759988d72c750", "rental_uris": {"ios": "https://dc.lft.to/lastmile_qr_scan", "android": "https://dc.lft.to/lastmile_qr_scan"}}, {"is_disabled": 0, "fusion_lat": 0.0, "lat": 38.90849683333333, "type": "electric_scooter", "lon": -77.024644, "is_reserved": 0, "fusion_lon": 0.0, "bike_id": "a60b84c88070a264bc780013cc8fa879", "name": "a60b84c88070a264bc780013cc8fa879", "rental_uris": {"ios": "https://dc.lft.to/lastmile_qr_scan", "android": "https://dc.lft.to/lastmile_qr_scan"}}, {"is_disabled": 0, "fusion_lat": 0.0, "lat": 38.89614133333333, "type": "electric_scooter", "lon": -76.99410916666666, "is_reserved": 0, "fusion_lon": 0.0, "bike_id": "6f8581d02fe4d25c624bfc2c3330a077", "name": "6f8581d02fe4d25c624bfc2c3330a077", "rental_uris": {"ios": "https://dc.lft.to/lastmile_qr_scan", "android": "https://dc.lft.to/lastmile_qr_scan"}}, {"is_disabled": 0, "fusion_lat": 0.0, "lat": 38.9382845, "type": "electric_bike", "lon": -77.03287983333334, "is_reserved": 0, "fusion_lon": 0.0, "bike_id": "902fa33f9b276a9f4ced9c64a0a66307", "name": "902fa33f9b276a9f4ced9c64a0a66307", "rental_uris": {"ios": "https://dc.lft.to/lastmile_qr_scan", "android": "https://dc.lft.to/lastmile_qr_scan"}}, {"is_disabled": 0, "fusion_lat": 0.0, "lat": 38.90162433333333, "type": "electric_scooter", "lon": -77.02540333333333, "is_reserved": 0, "fusion_lon": 0.0, "bike_id": "07666b67ae6950e03cd8f25d9b71dfca", "name": "07666b67ae6950e03cd8f25d9b71dfca", "rental_uris": {"ios": "https://dc.lft.to/lastmile_qr_scan", "android": "https://dc.lft.to/lastmile_qr_scan"}}, {"is_disabled": 0, "fusion_lat": 0.0, "lat": 38.9480575, "type": "electric_bike", "lon": -77.00806983333334, "is_reserved": 0, "fusion_lon": 0.0, "bike_id": "863371f6431b5c4e6dc4f62db7e6f6f2", "name": "863371f6431b5c4e6dc4f62db7e6f6f2", "rental_uris": {"ios": "https://dc.lft.to/lastmile_qr_scan", "android": "https://dc.lft.to/lastmile_qr_scan"}}, {"is_disabled": 0, "fusion_lat": 0.0, "lat": 38.922929833333335, "type": "electric_scooter", "lon": -77.031954, "is_reserved": 0, "fusion_lon": 0.0, "bike_id": "4c96f02d8dd42e8cb4ba7502dfba4bf2", "name": "4c96f02d8dd42e8cb4ba7502dfba4bf2", "rental_uris": {"ios": "https://dc.lft.to/lastmile_qr_scan", "android": "https://dc.lft.to/lastmile_qr_scan"}}, {"is_disabled": 0, "fusion_lat": 0.0, "lat": 38.88315766666667, "type": "electric_scooter", "lon": -77.00935783333334, "is_reserved": 0, "fusion_lon": 0.0, "bike_id": "1c3317fecd65353636d1499f1fd999b1", "name": "1c3317fecd65353636d1499f1fd999b1", "rental_uris": {"ios": "https://dc.lft.to/lastmile_qr_scan", "android": "https://dc.lft.to/lastmile_qr_scan"}}, {"is_disabled": 0, "fusion_lat": 0.0, "lat": 38.94895416666667, "type": "electric_bike", "lon": -76.96377383333333, "is_reserved": 0, "fusion_lon": 0.0, "bike_id": "1a218e4320eaaba5b004164ef6bd33fd", "name": "1a218e4320eaaba5b004164ef6bd33fd", "rental_uris": {"ios": "https://dc.lft.to/lastmile_qr_scan", "android": "https://dc.lft.to/lastmile_qr_scan"}}, {"is_disabled": 0, "fusion_lat": 0.0, "lat": 38.87531383333334, "type": "electric_scooter", "lon": -77.000645, "is_reserved": 0, "fusion_lon": 0.0, "bike_id": "c84d3fa9db6656762842b8f7206c8a0c", "name": "c84d3fa9db6656762842b8f7206c8a0c", "rental_uris": {"ios": "https://dc.lft.to/lastmile_qr_scan", "android": "https://dc.lft.to/lastmile_qr_scan"}}, {"is_disabled": 0, "fusion_lat": 0.0, "lat": 38.89891716666666, "type": "electric_scooter", "lon": -77.03271316666667, "is_reserved": 0, "fusion_lon": 0.0, "bike_id": "c19b91e597adb271af5a29dfdc8f0bf2", "name": "c19b91e597adb271af5a29dfdc8f0bf2", "rental_uris": {"ios": "https://dc.lft.to/lastmile_qr_scan", "android": "https://dc.lft.to/lastmile_qr_scan"}}, {"is_disabled": 0, "fusion_lat": 0.0, "lat": 38.89252066666667, "type": "electric_scooter", "lon": -76.943431, "is_reserved": 0, "fusion_lon": 0.0, "bike_id": "3b239e05b4d9f4ab513be3655683fc44", "name": "3b239e05b4d9f4ab513be3655683fc44", "rental_uris": {"ios": "https://dc.lft.to/lastmile_qr_scan", "android": "https://dc.lft.to/lastmile_qr_scan"}}, {"is_disabled": 0, "fusion_lat": 0.0, "lat": 38.900063333333335, "type": "electric_scooter", "lon": -77.00591316666667, "is_reserved": 0, "fusion_lon": 0.0, "bike_id": "3de5f01c156c79d31d2e1ba4bcb70a15", "name": "3de5f01c156c79d31d2e1ba4bcb70a15", "rental_uris": {"ios": "https://dc.lft.to/lastmile_qr_scan", "android": "https://dc.lft.to/lastmile_qr_scan"}}, {"is_disabled": 0, "fusion_lat": 0.0, "lat": 38.9080115, "type": "electric_scooter", "lon": -77.01866633333333, "is_reserved": 0, "fusion_lon": 0.0, "bike_id": "a0f69eca82fc1b59f9011b9d2046dd65", "name": "a0f69eca82fc1b59f9011b9d2046dd65", "rental_uris": {"ios": "https://dc.lft.to/lastmile_qr_scan", "android": "https://dc.lft.to/lastmile_qr_scan"}}, {"is_disabled": 0, "fusion_lat": 0.0, "lat": 38.94833916666666, "type": "electric_scooter", "lon": -77.02555566666666, "is_reserved": 0, "fusion_lon": 0.0, "bike_id": "1e7f458b1f92a1adacf523b00b440ada", "name": "1e7f458b1f92a1adacf523b00b440ada", "rental_uris": {"ios": "https://dc.lft.to/lastmile_qr_scan", "android": "https://dc.lft.to/lastmile_qr_scan"}}, {"is_disabled": 0, "fusion_lat": 0.0, "lat": 38.86561716666667, "type": "electric_scooter", "lon": -76.9894675, "is_reserved": 0, "fusion_lon": 0.0, "bike_id": "70e53b5cf31a6b8bdcd200b02de3a9ba", "name": "70e53b5cf31a6b8bdcd200b02de3a9ba", "rental_uris": {"ios": "https://dc.lft.to/lastmile_qr_scan", "android": "https://dc.lft.to/lastmile_qr_scan"}}, {"is_disabled": 0, "fusion_lat": 0.0, "lat": 38.9004955, "type": "electric_scooter", "lon": -77.00226, "is_reserved": 0, "fusion_lon": 0.0, "bike_id": "a82bbf1b512472744de207495a4e4b02", "name": "a82bbf1b512472744de207495a4e4b02", "rental_uris": {"ios": "https://dc.lft.to/lastmile_qr_scan", "android": "https://dc.lft.to/lastmile_qr_scan"}}, {"is_disabled": 0, "fusion_lat": 0.0, "lat": 38.9021115, "type": "electric_scooter", "lon": -77.04363216666667, "is_reserved": 0, "fusion_lon": 0.0, "bike_id": "120b303938f42ae6dde9236bb05f6e36", "name": "120b303938f42ae6dde9236bb05f6e36", "rental_uris": {"ios": "https://dc.lft.to/lastmile_qr_scan", "android": "https://dc.lft.to/lastmile_qr_scan"}}, {"is_disabled": 0, "fusion_lat": 0.0, "lat": 38.9592975, "type": "electric_scooter", "lon": -77.0332595, "is_reserved": 0, "fusion_lon": 0.0, "bike_id": "8412bfcd8826fd6a850ddf568ed5f309", "name": "8412bfcd8826fd6a850ddf568ed5f309", "rental_uris": {"ios": "https://dc.lft.to/lastmile_qr_scan", "android": "https://dc.lft.to/lastmile_qr_scan"}}, {"is_disabled": 0, "fusion_lat": 0.0, "lat": 38.91766333333333, "type": "electric_scooter", "lon": -77.03186833333334, "is_reserved": 0, "fusion_lon": 0.0, "bike_id": "a601a3c3678b11a7c81a1335781fac8a", "name": "a601a3c3678b11a7c81a1335781fac8a", "rental_uris": {"ios": "https://dc.lft.to/lastmile_qr_scan", "android": "https://dc.lft.to/lastmile_qr_scan"}}, {"is_disabled": 0, "fusion_lat": 0.0, "lat": 38.91678533333334, "type": "electric_scooter", "lon": -77.0122275, "is_reserved": 0, "fusion_lon": 0.0, "bike_id": "6281b296bd33bc3fc33283a7cbd0f35c", "name": "6281b296bd33bc3fc33283a7cbd0f35c", "rental_uris": {"ios": "https://dc.lft.to/lastmile_qr_scan", "android": "https://dc.lft.to/lastmile_qr_scan"}}, {"is_disabled": 0, "fusion_lat": 0.0, "lat": 38.9141085, "type": "electric_scooter", "lon": -77.0399145, "is_reserved": 0, "fusion_lon": 0.0, "bike_id": "fd271bf0e90c6250f4cb4d0033a84b24", "name": "fd271bf0e90c6250f4cb4d0033a84b24", "rental_uris": {"ios": "https://dc.lft.to/lastmile_qr_scan", "android": "https://dc.lft.to/lastmile_qr_scan"}}, {"is_disabled": 0, "fusion_lat": 0.0, "lat": 38.881099166666665, "type": "electric_scooter", "lon": -77.01662666666667, "is_reserved": 0, "fusion_lon": 0.0, "bike_id": "f3772b02c8abeb3ae8efcafe56ac839f", "name": "f3772b02c8abeb3ae8efcafe56ac839f", "rental_uris": {"ios": "https://dc.lft.to/lastmile_qr_scan", "android": "https://dc.lft.to/lastmile_qr_scan"}}, {"is_disabled": 0, "fusion_lat": 0.0, "lat": 38.905901166666666, "type": "electric_scooter", "lon": -76.98619616666667, "is_reserved": 0, "fusion_lon": 0.0, "bike_id": "fbe4048ba06aae450300bbf7f876e314", "name": "fbe4048ba06aae450300bbf7f876e314", "rental_uris": {"ios": "https://dc.lft.to/lastmile_qr_scan", "android": "https://dc.lft.to/lastmile_qr_scan"}}, {"is_disabled": 0, "fusion_lat": 0.0, "lat": 38.89222216666667, "type": "electric_bike", "lon": -77.10781633333333, "is_reserved": 0, "fusion_lon": 0.0, "bike_id": "75e5d257fe11b794111522ea038db3be", "name": "75e5d257fe11b794111522ea038db3be", "rental_uris": {"ios": "https://dc.lft.to/lastmile_qr_scan", "android": "https://dc.lft.to/lastmile_qr_scan"}}, {"is_disabled": 0, "fusion_lat": 0.0, "lat": 38.908659166666666, "type": "electric_scooter", "lon": -77.0284585, "is_reserved": 0, "fusion_lon": 0.0, "bike_id": "56a255aeac4594e0b1a4e445ba10d950", "name": "56a255aeac4594e0b1a4e445ba10d950", "rental_uris": {"ios": "https://dc.lft.to/lastmile_qr_scan", "android": "https://dc.lft.to/lastmile_qr_scan"}}, {"is_disabled": 0, "fusion_lat": 0.0, "lat": 38.897363666666664, "type": "electric_scooter", "lon": -77.04890516666667, "is_reserved": 0, "fusion_lon": 0.0, "bike_id": "e058a787ee5719a8cc100238141f21bf", "name": "e058a787ee5719a8cc100238141f21bf", "rental_uris": {"ios": "https://dc.lft.to/lastmile_qr_scan", "android": "https://dc.lft.to/lastmile_qr_scan"}}, {"is_disabled": 0, "fusion_lat": 0.0, "lat": 38.91109816666667, "type": "electric_scooter", "lon": -77.04503, "is_reserved": 0, "fusion_lon": 0.0, "bike_id": "161fcf7d3bbfa05d8159de2993abd039", "name": "161fcf7d3bbfa05d8159de2993abd039", "rental_uris": {"ios": "https://dc.lft.to/lastmile_qr_scan", "android": "https://dc.lft.to/lastmile_qr_scan"}}, {"is_disabled": 0, "fusion_lat": 0.0, "lat": 38.90916816666667, "type": "electric_scooter", "lon": -77.08008683333334, "is_reserved": 0, "fusion_lon": 0.0, "bike_id": "648438076c8e04cc1969631ee1fc69df", "name": "648438076c8e04cc1969631ee1fc69df", "rental_uris": {"ios": "https://dc.lft.to/lastmile_qr_scan", "android": "https://dc.lft.to/lastmile_qr_scan"}}, {"is_disabled": 0, "fusion_lat": 0.0, "lat": 38.88742383333334, "type": "electric_scooter", "lon": -77.01534433333333, "is_reserved": 0, "fusion_lon": 0.0, "bike_id": "9ca8767b85d8a91d3f37a17e3fa052f0", "name": "9ca8767b85d8a91d3f37a17e3fa052f0", "rental_uris": {"ios": "https://dc.lft.to/lastmile_qr_scan", "android": "https://dc.lft.to/lastmile_qr_scan"}}, {"is_disabled": 0, "fusion_lat": 0.0, "lat": 38.9202425, "type": "electric_scooter", "lon": -77.02802416666667, "is_reserved": 0, "fusion_lon": 0.0, "bike_id": "e022f7c24a780759e1b9d0254d696212", "name": "e022f7c24a780759e1b9d0254d696212", "rental_uris": {"ios": "https://dc.lft.to/lastmile_qr_scan", "android": "https://dc.lft.to/lastmile_qr_scan"}}, {"is_disabled": 0, "fusion_lat": 0.0, "lat": 38.91876583333333, "type": "electric_scooter", "lon": -77.04180333333333, "is_reserved": 0, "fusion_lon": 0.0, "bike_id": "4e56116ccae4c05932404da24a7917e1", "name": "4e56116ccae4c05932404da24a7917e1", "rental_uris": {"ios": "https://dc.lft.to/lastmile_qr_scan", "android": "https://dc.lft.to/lastmile_qr_scan"}}, {"is_disabled": 0, "fusion_lat": 0.0, "lat": 38.92339116666667, "type": "electric_scooter", "lon": -77.01899066666667, "is_reserved": 0, "fusion_lon": 0.0, "bike_id": "cb6d2aaf973a345d1e1836786a6784f4", "name": "cb6d2aaf973a345d1e1836786a6784f4", "rental_uris": {"ios": "https://dc.lft.to/lastmile_qr_scan", "android": "https://dc.lft.to/lastmile_qr_scan"}}, {"is_disabled": 0, "fusion_lat": 0.0, "lat": 38.883431333333334, "type": "electric_scooter", "lon": -77.03145833333333, "is_reserved": 0, "fusion_lon": 0.0, "bike_id": "b57eb6527f63cdcb5fdc33bad72e17df", "name": "b57eb6527f63cdcb5fdc33bad72e17df", "rental_uris": {"ios": "https://dc.lft.to/lastmile_qr_scan", "android": "https://dc.lft.to/lastmile_qr_scan"}}, {"is_disabled": 0, "fusion_lat": 0.0, "lat": 38.87094583333333, "type": "electric_scooter", "lon": -77.01206916666666, "is_reserved": 0, "fusion_lon": 0.0, "bike_id": "62e08b71fcf565f3d65d53ca557db6aa", "name": "62e08b71fcf565f3d65d53ca557db6aa", "rental_uris": {"ios": "https://dc.lft.to/lastmile_qr_scan", "android": "https://dc.lft.to/lastmile_qr_scan"}}, {"is_disabled": 0, "fusion_lat": 0.0, "lat": 38.910131666666665, "type": "electric_scooter", "lon": -76.9938735, "is_reserved": 0, "fusion_lon": 0.0, "bike_id": "559e0a07e9cf191e3d39b85204557cbc", "name": "559e0a07e9cf191e3d39b85204557cbc", "rental_uris": {"ios": "https://dc.lft.to/lastmile_qr_scan", "android": "https://dc.lft.to/lastmile_qr_scan"}}, {"is_disabled": 0, "fusion_lat": 0.0, "lat": 38.913380333333336, "type": "electric_scooter", "lon": -77.0022345, "is_reserved": 0, "fusion_lon": 0.0, "bike_id": "45ae0ac3bd2955a5505da3b0047d9335", "name": "45ae0ac3bd2955a5505da3b0047d9335", "rental_uris": {"ios": "https://dc.lft.to/lastmile_qr_scan", "android": "https://dc.lft.to/lastmile_qr_scan"}}, {"is_disabled": 0, "fusion_lat": 0.0, "lat": 38.861111, "type": "electric_scooter", "lon": -76.967559, "is_reserved": 0, "fusion_lon": 0.0, "bike_id": "85c814d2ee587a76c1d6f205a16328ca", "name": "85c814d2ee587a76c1d6f205a16328ca", "rental_uris": {"ios": "https://dc.lft.to/lastmile_qr_scan", "android": "https://dc.lft.to/lastmile_qr_scan"}}, {"is_disabled": 0, "fusion_lat": 0.0, "lat": 38.905940666666666, "type": "electric_scooter", "lon": -77.06522883333334, "is_reserved": 0, "fusion_lon": 0.0, "bike_id": "a1b7fd604d77ab988808b4524c25ef15", "name": "a1b7fd604d77ab988808b4524c25ef15", "rental_uris": {"ios": "https://dc.lft.to/lastmile_qr_scan", "android": "https://dc.lft.to/lastmile_qr_scan"}}, {"is_disabled": 0, "fusion_lat": 0.0, "lat": 38.8610735, "type": "electric_scooter", "lon": -76.983615, "is_reserved": 0, "fusion_lon": 0.0, "bike_id": "2e8ac5268575516573b7adae83622ae8", "name": "2e8ac5268575516573b7adae83622ae8", "rental_uris": {"ios": "https://dc.lft.to/lastmile_qr_scan", "android": "https://dc.lft.to/lastmile_qr_scan"}}, {"is_disabled": 0, "fusion_lat": 0.0, "lat": 38.9077125, "type": "electric_scooter", "lon": -77.043508, "is_reserved": 0, "fusion_lon": 0.0, "bike_id": "8f776b595c3b2b770cd819870ef656d0", "name": "8f776b595c3b2b770cd819870ef656d0", "rental_uris": {"ios": "https://dc.lft.to/lastmile_qr_scan", "android": "https://dc.lft.to/lastmile_qr_scan"}}, {"is_disabled": 0, "fusion_lat": 0.0, "lat": 38.8977725, "type": "electric_scooter", "lon": -77.0316815, "is_reserved": 0, "fusion_lon": 0.0, "bike_id": "68a3512622c118fc17aadbf2735c2470", "name": "68a3512622c118fc17aadbf2735c2470", "rental_uris": {"ios": "https://dc.lft.to/lastmile_qr_scan", "android": "https://dc.lft.to/lastmile_qr_scan"}}, {"is_disabled": 0, "fusion_lat": 0.0, "lat": 38.89080083333333, "type": "electric_scooter", "lon": -76.9835745, "is_reserved": 0, "fusion_lon": 0.0, "bike_id": "33a191d72f808a3a15d5f77540f75bec", "name": "33a191d72f808a3a15d5f77540f75bec", "rental_uris": {"ios": "https://dc.lft.to/lastmile_qr_scan", "android": "https://dc.lft.to/lastmile_qr_scan"}}, {"is_disabled": 0, "fusion_lat": 0.0, "lat": 38.936841666666666, "type": "electric_scooter", "lon": -77.03626983333334, "is_reserved": 0, "fusion_lon": 0.0, "bike_id": "ebbb9f6df2ae5ef8028f4ea9d69b5e1c", "name": "ebbb9f6df2ae5ef8028f4ea9d69b5e1c", "rental_uris": {"ios": "https://dc.lft.to/lastmile_qr_scan", "android": "https://dc.lft.to/lastmile_qr_scan"}}, {"is_disabled": 0, "fusion_lat": 0.0, "lat": 38.90554016666667, "type": "electric_scooter", "lon": -77.02484933333334, "is_reserved": 0, "fusion_lon": 0.0, "bike_id": "281891b5c11886304493ceb31e093e27", "name": "281891b5c11886304493ceb31e093e27", "rental_uris": {"ios": "https://dc.lft.to/lastmile_qr_scan", "android": "https://dc.lft.to/lastmile_qr_scan"}}, {"is_disabled": 0, "fusion_lat": 0.0, "lat": 38.89903533333333, "type": "electric_scooter", "lon": -77.04077366666667, "is_reserved": 0, "fusion_lon": 0.0, "bike_id": "212f9fc2e3e1a3edd6e97abfe60bca56", "name": "212f9fc2e3e1a3edd6e97abfe60bca56", "rental_uris": {"ios": "https://dc.lft.to/lastmile_qr_scan", "android": "https://dc.lft.to/lastmile_qr_scan"}}, {"is_disabled": 0, "fusion_lat": 0.0, "lat": 38.90492733333333, "type": "electric_scooter", "lon": -77.02961366666666, "is_reserved": 0, "fusion_lon": 0.0, "bike_id": "e2013abcd6479dbf41233ccf75a8d90b", "name": "e2013abcd6479dbf41233ccf75a8d90b", "rental_uris": {"ios": "https://dc.lft.to/lastmile_qr_scan", "android": "https://dc.lft.to/lastmile_qr_scan"}}, {"is_disabled": 0, "fusion_lat": 0.0, "lat": 38.916683, "type": "electric_scooter", "lon": -77.006711, "is_reserved": 0, "fusion_lon": 0.0, "bike_id": "9aaa7a900ee9757e7263694cdcbe0870", "name": "9aaa7a900ee9757e7263694cdcbe0870", "rental_uris": {"ios": "https://dc.lft.to/lastmile_qr_scan", "android": "https://dc.lft.to/lastmile_qr_scan"}}, {"is_disabled": 0, "fusion_lat": 0.0, "lat": 38.842953, "type": "electric_scooter", "lon": -76.99948866666666, "is_reserved": 0, "fusion_lon": 0.0, "bike_id": "3f897b7fe7e6c78c22b6cbb91bbaa05e", "name": "3f897b7fe7e6c78c22b6cbb91bbaa05e", "rental_uris": {"ios": "https://dc.lft.to/lastmile_qr_scan", "android": "https://dc.lft.to/lastmile_qr_scan"}}, {"is_disabled": 0, "fusion_lat": 0.0, "lat": 38.973684166666665, "type": "electric_scooter", "lon": -77.01862316666667, "is_reserved": 0, "fusion_lon": 0.0, "bike_id": "5d8ac8d9811dd2dff9f7f88a2b1b1e6d", "name": "5d8ac8d9811dd2dff9f7f88a2b1b1e6d", "rental_uris": {"ios": "https://dc.lft.to/lastmile_qr_scan", "android": "https://dc.lft.to/lastmile_qr_scan"}}, {"is_disabled": 0, "fusion_lat": 0.0, "lat": 38.91471933333333, "type": "electric_scooter", "lon": -77.03885183333334, "is_reserved": 0, "fusion_lon": 0.0, "bike_id": "63b936dfdb732a1bba499b52ba7939b4", "name": "63b936dfdb732a1bba499b52ba7939b4", "rental_uris": {"ios": "https://dc.lft.to/lastmile_qr_scan", "android": "https://dc.lft.to/lastmile_qr_scan"}}, {"is_disabled": 0, "fusion_lat": 0.0, "lat": 38.919845333333335, "type": "electric_scooter", "lon": -77.04158583333333, "is_reserved": 0, "fusion_lon": 0.0, "bike_id": "5c7ca1772dd298dea7d1826c7c561206", "name": "5c7ca1772dd298dea7d1826c7c561206", "rental_uris": {"ios": "https://dc.lft.to/lastmile_qr_scan", "android": "https://dc.lft.to/lastmile_qr_scan"}}, {"is_disabled": 0, "fusion_lat": 0.0, "lat": 38.867146, "type": "electric_scooter", "lon": -76.98721533333334, "is_reserved": 0, "fusion_lon": 0.0, "bike_id": "45d1049187b2e500a3a79c6135302409", "name": "45d1049187b2e500a3a79c6135302409", "rental_uris": {"ios": "https://dc.lft.to/lastmile_qr_scan", "android": "https://dc.lft.to/lastmile_qr_scan"}}, {"is_disabled": 0, "fusion_lat": 0.0, "lat": 38.90252066666667, "type": "electric_scooter", "lon": -77.01730883333333, "is_reserved": 0, "fusion_lon": 0.0, "bike_id": "e0bfe4d82305143c23124a8f3c8b40f6", "name": "e0bfe4d82305143c23124a8f3c8b40f6", "rental_uris": {"ios": "https://dc.lft.to/lastmile_qr_scan", "android": "https://dc.lft.to/lastmile_qr_scan"}}, {"is_disabled": 0, "fusion_lat": 0.0, "lat": 38.901417, "type": "electric_scooter", "lon": -77.03868633333333, "is_reserved": 0, "fusion_lon": 0.0, "bike_id": "13fc290e5c1ca669e6b2c62955435fab", "name": "13fc290e5c1ca669e6b2c62955435fab", "rental_uris": {"ios": "https://dc.lft.to/lastmile_qr_scan", "android": "https://dc.lft.to/lastmile_qr_scan"}}, {"is_disabled": 0, "fusion_lat": 0.0, "lat": 38.876380833333336, "type": "electric_scooter", "lon": -77.016467, "is_reserved": 0, "fusion_lon": 0.0, "bike_id": "0f33872b9c4eab046a2044d08b6cc066", "name": "0f33872b9c4eab046a2044d08b6cc066", "rental_uris": {"ios": "https://dc.lft.to/lastmile_qr_scan", "android": "https://dc.lft.to/lastmile_qr_scan"}}, {"is_disabled": 0, "fusion_lat": 0.0, "lat": 38.940503, "type": "electric_scooter", "lon": -77.09269416666666, "is_reserved": 0, "fusion_lon": 0.0, "bike_id": "d61dfa45a0cfd7ad6cac3ffb67ce6c4a", "name": "d61dfa45a0cfd7ad6cac3ffb67ce6c4a", "rental_uris": {"ios": "https://dc.lft.to/lastmile_qr_scan", "android": "https://dc.lft.to/lastmile_qr_scan"}}, {"is_disabled": 0, "fusion_lat": 0.0, "lat": 38.901351166666664, "type": "electric_scooter", "lon": -77.018112, "is_reserved": 0, "fusion_lon": 0.0, "bike_id": "da1f3de0654bb533d5386e2dba96c16f", "name": "da1f3de0654bb533d5386e2dba96c16f", "rental_uris": {"ios": "https://dc.lft.to/lastmile_qr_scan", "android": "https://dc.lft.to/lastmile_qr_scan"}}, {"is_disabled": 0, "fusion_lat": 0.0, "lat": 38.88123683333333, "type": "electric_scooter", "lon": -77.00097266666667, "is_reserved": 0, "fusion_lon": 0.0, "bike_id": "4ff39cccaa84d3d7deafc588fad31b8b", "name": "4ff39cccaa84d3d7deafc588fad31b8b", "rental_uris": {"ios": "https://dc.lft.to/lastmile_qr_scan", "android": "https://dc.lft.to/lastmile_qr_scan"}}, {"is_disabled": 0, "fusion_lat": 0.0, "lat": 38.91732666666667, "type": "electric_scooter", "lon": -77.00794366666666, "is_reserved": 0, "fusion_lon": 0.0, "bike_id": "44d0d99ea6df7bd6cf0dd38c979830bc", "name": "44d0d99ea6df7bd6cf0dd38c979830bc", "rental_uris": {"ios": "https://dc.lft.to/lastmile_qr_scan", "android": "https://dc.lft.to/lastmile_qr_scan"}}, {"is_disabled": 0, "fusion_lat": 0.0, "lat": 38.8934655, "type": "electric_scooter", "lon": -76.94934016666667, "is_reserved": 0, "fusion_lon": 0.0, "bike_id": "9b8f77328819e95a85e12eeb67737b47", "name": "9b8f77328819e95a85e12eeb67737b47", "rental_uris": {"ios": "https://dc.lft.to/lastmile_qr_scan", "android": "https://dc.lft.to/lastmile_qr_scan"}}, {"is_disabled": 0, "fusion_lat": 0.0, "lat": 38.94447733333333, "type": "electric_scooter", "lon": -76.992044, "is_reserved": 0, "fusion_lon": 0.0, "bike_id": "b7b70b1c1bfeaa32faf77cd4f238394f", "name": "b7b70b1c1bfeaa32faf77cd4f238394f", "rental_uris": {"ios": "https://dc.lft.to/lastmile_qr_scan", "android": "https://dc.lft.to/lastmile_qr_scan"}}, {"is_disabled": 0, "fusion_lat": 0.0, "lat": 38.9195285, "type": "electric_scooter", "lon": -77.04144566666666, "is_reserved": 0, "fusion_lon": 0.0, "bike_id": "a726550387b25450b9784be13579c704", "name": "a726550387b25450b9784be13579c704", "rental_uris": {"ios": "https://dc.lft.to/lastmile_qr_scan", "android": "https://dc.lft.to/lastmile_qr_scan"}}, {"is_disabled": 0, "fusion_lat": 0.0, "lat": 38.90579066666667, "type": "electric_scooter", "lon": -77.0409735, "is_reserved": 0, "fusion_lon": 0.0, "bike_id": "f5f34692ba1c88db4533f00f3cc4bf59", "name": "f5f34692ba1c88db4533f00f3cc4bf59", "rental_uris": {"ios": "https://dc.lft.to/lastmile_qr_scan", "android": "https://dc.lft.to/lastmile_qr_scan"}}, {"is_disabled": 0, "fusion_lat": 0.0, "lat": 38.9272055, "type": "electric_scooter", "lon": -77.0397925, "is_reserved": 0, "fusion_lon": 0.0, "bike_id": "6393aa9a05280e2268e26fa5b179a1c6", "name": "6393aa9a05280e2268e26fa5b179a1c6", "rental_uris": {"ios": "https://dc.lft.to/lastmile_qr_scan", "android": "https://dc.lft.to/lastmile_qr_scan"}}, {"is_disabled": 0, "fusion_lat": 0.0, "lat": 38.87866233333333, "type": "electric_scooter", "lon": -76.98984583333333, "is_reserved": 0, "fusion_lon": 0.0, "bike_id": "e828a5380b7a4c48b0fc4daeb0c1ca66", "name": "e828a5380b7a4c48b0fc4daeb0c1ca66", "rental_uris": {"ios": "https://dc.lft.to/lastmile_qr_scan", "android": "https://dc.lft.to/lastmile_qr_scan"}}, {"is_disabled": 0, "fusion_lat": 0.0, "lat": 38.921138166666665, "type": "electric_scooter", "lon": -77.04370833333333, "is_reserved": 0, "fusion_lon": 0.0, "bike_id": "1e7d1115c1a661f353764ad7dae2cc5a", "name": "1e7d1115c1a661f353764ad7dae2cc5a", "rental_uris": {"ios": "https://dc.lft.to/lastmile_qr_scan", "android": "https://dc.lft.to/lastmile_qr_scan"}}, {"is_disabled": 0, "fusion_lat": 0.0, "lat": 38.92813866666667, "type": "electric_scooter", "lon": -77.0370115, "is_reserved": 0, "fusion_lon": 0.0, "bike_id": "fe9e7ba22b85280c46f57f112fcc7cea", "name": "fe9e7ba22b85280c46f57f112fcc7cea", "rental_uris": {"ios": "https://dc.lft.to/lastmile_qr_scan", "android": "https://dc.lft.to/lastmile_qr_scan"}}, {"is_disabled": 0, "fusion_lat": 0.0, "lat": 38.934723166666664, "type": "electric_scooter", "lon": -77.019281, "is_reserved": 0, "fusion_lon": 0.0, "bike_id": "570bc58afe379057dffa2735839604c0", "name": "570bc58afe379057dffa2735839604c0", "rental_uris": {"ios": "https://dc.lft.to/lastmile_qr_scan", "android": "https://dc.lft.to/lastmile_qr_scan"}}, {"is_disabled": 0, "fusion_lat": 0.0, "lat": 38.9655995, "type": "electric_bike", "lon": -77.02299366666666, "is_reserved": 0, "fusion_lon": 0.0, "bike_id": "92da131e36d7422e05a942b9b4fe7e09", "name": "92da131e36d7422e05a942b9b4fe7e09", "rental_uris": {"ios": "https://dc.lft.to/lastmile_qr_scan", "android": "https://dc.lft.to/lastmile_qr_scan"}}, {"is_disabled": 0, "fusion_lat": 0.0, "lat": 38.9027845, "type": "electric_scooter", "lon": -77.038333, "is_reserved": 0, "fusion_lon": 0.0, "bike_id": "c2255cc09d5a79b736f18ac2426587c5", "name": "c2255cc09d5a79b736f18ac2426587c5", "rental_uris": {"ios": "https://dc.lft.to/lastmile_qr_scan", "android": "https://dc.lft.to/lastmile_qr_scan"}}, {"is_disabled": 0, "fusion_lat": 0.0, "lat": 38.921373, "type": "electric_scooter", "lon": -77.04127216666667, "is_reserved": 0, "fusion_lon": 0.0, "bike_id": "105e279c156d056b7e95332db6fa2c6e", "name": "105e279c156d056b7e95332db6fa2c6e", "rental_uris": {"ios": "https://dc.lft.to/lastmile_qr_scan", "android": "https://dc.lft.to/lastmile_qr_scan"}}, {"is_disabled": 0, "fusion_lat": 0.0, "lat": 38.873761333333334, "type": "electric_bike", "lon": -77.11801216666667, "is_reserved": 0, "fusion_lon": 0.0, "bike_id": "4e8890563a5d9f05b463284fbfea99e2", "name": "4e8890563a5d9f05b463284fbfea99e2", "rental_uris": {"ios": "https://dc.lft.to/lastmile_qr_scan", "android": "https://dc.lft.to/lastmile_qr_scan"}}, {"is_disabled": 0, "fusion_lat": 0.0, "lat": 38.88503033333333, "type": "electric_scooter", "lon": -77.00570133333333, "is_reserved": 0, "fusion_lon": 0.0, "bike_id": "7f92b2f36a84807dab003a2944ca702c", "name": "7f92b2f36a84807dab003a2944ca702c", "rental_uris": {"ios": "https://dc.lft.to/lastmile_qr_scan", "android": "https://dc.lft.to/lastmile_qr_scan"}}, {"is_disabled": 0, "fusion_lat": 0.0, "lat": 38.90833266666667, "type": "electric_scooter", "lon": -77.0023445, "is_reserved": 0, "fusion_lon": 0.0, "bike_id": "fcf9520c5766727d9401fc09488d9d5d", "name": "fcf9520c5766727d9401fc09488d9d5d", "rental_uris": {"ios": "https://dc.lft.to/lastmile_qr_scan", "android": "https://dc.lft.to/lastmile_qr_scan"}}, {"is_disabled": 0, "fusion_lat": 0.0, "lat": 38.91565466666667, "type": "electric_scooter", "lon": -77.030349, "is_reserved": 0, "fusion_lon": 0.0, "bike_id": "592412facf1b87732230da5ae91c4e53", "name": "592412facf1b87732230da5ae91c4e53", "rental_uris": {"ios": "https://dc.lft.to/lastmile_qr_scan", "android": "https://dc.lft.to/lastmile_qr_scan"}}, {"is_disabled": 0, "fusion_lat": 0.0, "lat": 38.870914666666664, "type": "electric_bike", "lon": -77.01210133333333, "is_reserved": 0, "fusion_lon": 0.0, "bike_id": "e7c35fcba902fdbf4124f21720decf02", "name": "e7c35fcba902fdbf4124f21720decf02", "rental_uris": {"ios": "https://dc.lft.to/lastmile_qr_scan", "android": "https://dc.lft.to/lastmile_qr_scan"}}, {"is_disabled": 0, "fusion_lat": 0.0, "lat": 38.9241245, "type": "electric_scooter", "lon": -77.036421, "is_reserved": 0, "fusion_lon": 0.0, "bike_id": "c529a90679bf3c52a86db3818cea61e4", "name": "c529a90679bf3c52a86db3818cea61e4", "rental_uris": {"ios": "https://dc.lft.to/lastmile_qr_scan", "android": "https://dc.lft.to/lastmile_qr_scan"}}, {"is_disabled": 0, "fusion_lat": 0.0, "lat": 38.89919116666667, "type": "electric_scooter", "lon": -76.93378316666667, "is_reserved": 0, "fusion_lon": 0.0, "bike_id": "c62505722a596e7cbffbd6b38e229c77", "name": "c62505722a596e7cbffbd6b38e229c77", "rental_uris": {"ios": "https://dc.lft.to/lastmile_qr_scan", "android": "https://dc.lft.to/lastmile_qr_scan"}}, {"is_disabled": 0, "fusion_lat": 0.0, "lat": 38.907257333333334, "type": "electric_scooter", "lon": -77.02967633333333, "is_reserved": 0, "fusion_lon": 0.0, "bike_id": "03ea69d8dbdb9c3dfd211a5e8c85edf8", "name": "03ea69d8dbdb9c3dfd211a5e8c85edf8", "rental_uris": {"ios": "https://dc.lft.to/lastmile_qr_scan", "android": "https://dc.lft.to/lastmile_qr_scan"}}, {"is_disabled": 0, "fusion_lat": 0.0, "lat": 38.85323966666667, "type": "electric_bike", "lon": -76.98008866666666, "is_reserved": 0, "fusion_lon": 0.0, "bike_id": "831d083f05f4a00c024b7c9078fe3861", "name": "831d083f05f4a00c024b7c9078fe3861", "rental_uris": {"ios": "https://dc.lft.to/lastmile_qr_scan", "android": "https://dc.lft.to/lastmile_qr_scan"}}, {"is_disabled": 0, "fusion_lat": 0.0, "lat": 38.91764516666667, "type": "electric_scooter", "lon": -77.036612, "is_reserved": 0, "fusion_lon": 0.0, "bike_id": "6c5dab3a34d309dc811a66a6896d8026", "name": "6c5dab3a34d309dc811a66a6896d8026", "rental_uris": {"ios": "https://dc.lft.to/lastmile_qr_scan", "android": "https://dc.lft.to/lastmile_qr_scan"}}, {"is_disabled": 0, "fusion_lat": 0.0, "lat": 38.8804815, "type": "electric_scooter", "lon": -76.98632016666667, "is_reserved": 0, "fusion_lon": 0.0, "bike_id": "5af49a72c48fcb887a3fba6498402cc7", "name": "5af49a72c48fcb887a3fba6498402cc7", "rental_uris": {"ios": "https://dc.lft.to/lastmile_qr_scan", "android": "https://dc.lft.to/lastmile_qr_scan"}}, {"is_disabled": 0, "fusion_lat": 0.0, "lat": 38.922366833333335, "type": "electric_scooter", "lon": -77.030874, "is_reserved": 0, "fusion_lon": 0.0, "bike_id": "25007857b03e4d1f72bc00e325971237", "name": "25007857b03e4d1f72bc00e325971237", "rental_uris": {"ios": "https://dc.lft.to/lastmile_qr_scan", "android": "https://dc.lft.to/lastmile_qr_scan"}}, {"is_disabled": 0, "fusion_lat": 0.0, "lat": 38.8968465, "type": "electric_scooter", "lon": -76.99626266666667, "is_reserved": 0, "fusion_lon": 0.0, "bike_id": "a7502f8715bedd9fa1f9f6926237d159", "name": "a7502f8715bedd9fa1f9f6926237d159", "rental_uris": {"ios": "https://dc.lft.to/lastmile_qr_scan", "android": "https://dc.lft.to/lastmile_qr_scan"}}, {"is_disabled": 0, "fusion_lat": 0.0, "lat": 38.88452683333333, "type": "electric_scooter", "lon": -76.95097233333334, "is_reserved": 0, "fusion_lon": 0.0, "bike_id": "9945ca2dcaf4805e788b53986d892a25", "name": "9945ca2dcaf4805e788b53986d892a25", "rental_uris": {"ios": "https://dc.lft.to/lastmile_qr_scan", "android": "https://dc.lft.to/lastmile_qr_scan"}}, {"is_disabled": 0, "fusion_lat": 0.0, "lat": 38.92879966666667, "type": "electric_scooter", "lon": -77.01365, "is_reserved": 0, "fusion_lon": 0.0, "bike_id": "bf6170074d8d4d472c389e7276d1c034", "name": "bf6170074d8d4d472c389e7276d1c034", "rental_uris": {"ios": "https://dc.lft.to/lastmile_qr_scan", "android": "https://dc.lft.to/lastmile_qr_scan"}}, {"is_disabled": 0, "fusion_lat": 0.0, "lat": 38.89223883333333, "type": "electric_scooter", "lon": -77.04192866666666, "is_reserved": 0, "fusion_lon": 0.0, "bike_id": "f40ba8ea25082bdeac4e296a0255e525", "name": "f40ba8ea25082bdeac4e296a0255e525", "rental_uris": {"ios": "https://dc.lft.to/lastmile_qr_scan", "android": "https://dc.lft.to/lastmile_qr_scan"}}, {"is_disabled": 0, "fusion_lat": 0.0, "lat": 38.89604883333333, "type": "electric_scooter", "lon": -77.00920216666667, "is_reserved": 0, "fusion_lon": 0.0, "bike_id": "7e36b8850927fa047e16cd6bf848299f", "name": "7e36b8850927fa047e16cd6bf848299f", "rental_uris": {"ios": "https://dc.lft.to/lastmile_qr_scan", "android": "https://dc.lft.to/lastmile_qr_scan"}},