{"data": {"bikes": [{"bike_id": "225f67fa1ada16f4f6a38b2a3155fad2", "fusion_lon": 0.0, "lon": -77.054181, "name": "225f67fa1ada16f4f6a38b2a3155fad2", "is_disabled": 0, "rental_uris": {"android": "https://dc.lft.to/lastmile_qr_scan", "ios": "https://dc.lft.to/lastmile_qr_scan"}, "type": "electric_scooter", "lat": 38.90250116666667, "is_reserved": 0, "fusion_lat": 0.0}, {"bike_id": "05140d7dfd8f284f5fb4b908dfa727be", "fusion_lon": 0.0, "lon": -77.03519816666666, "name": "05140d7dfd8f284f5fb4b908dfa727be", "is_disabled": 0, "rental_uris": {"android": "https://dc.lft.to/lastmile_qr_scan", "ios": "https://dc.lft.to/lastmile_qr_scan"}, "type": "electric_scooter", "lat": 38.92347066666667, "is_reserved": 0, "fusion_lat": 0.0}, {"bike_id": "6b633bf2ff4bfa554dde332f1c30a408", "fusion_lon": 0.0, "lon": -77.02397666666667, "name": "6b633bf2ff4bfa554dde332f1c30a408", "is_disabled": 0, "rental_uris": {"android": "https://dc.lft.to/lastmile_qr_scan", "ios": "https://dc.lft.to/lastmile_qr_scan"}, "type": "electric_scooter", "lat": 38.897246333333335, "is_reserved": 0, "fusion_lat": 0.0}, {"bike_id": "332aae15b8f678120c8b478e9860fdda", "fusion_lon": 0.0, "lon": -77.05150366666666, "name": "332aae15b8f678120c8b478e9860fdda", "is_disabled": 0, "rental_uris": {"android": "https://dc.lft.to/lastmile_qr_scan", "ios": "https://dc.lft.to/lastmile_qr_scan"}, "type": "electric_scooter", "lat": 38.905621333333336, "is_reserved": 0, "fusion_lat": 0.0}, {"bike_id": "1405cf2d83b3c9d67ad4e98bcd85eabf", "fusion_lon": 0.0, "lon": -77.03229416666667, "name": "1405cf2d83b3c9d67ad4e98bcd85eabf", "is_disabled": 0, "rental_uris": {"android": "https://dc.lft.to/lastmile_qr_scan", "ios": "https://dc.lft.to/lastmile_qr_scan"}, "type": "electric_scooter", "lat": 38.91404983333334, "is_reserved": 0, "fusion_lat": 0.0}, {"bike_id": "cb5421b9015b962b57fdb15690cb226c", "fusion_lon": 0.0, "lon": -77.032366, "name": "cb5421b9015b962b57fdb15690cb226c", "is_disabled": 0, "rental_uris": {"android": "https://dc.lft.to/lastmile_qr_scan", "ios": "https://dc.lft.to/lastmile_qr_scan"}, "type": "electric_scooter", "lat": 38.92760233333333, "is_reserved": 0, "fusion_lat": 0.0}, {"bike_id": "db8be1bbf22ff27b4971e542b4dd53e3", "fusion_lon": 0.0, "lon": -76.9810975, "name": "db8be1bbf22ff27b4971e542b4dd53e3", "is_disabled": 0, "rental_uris": {"android": "https://dc.lft.to/lastmile_qr_scan", "ios": "https://dc.lft.to/lastmile_qr_scan"}, "type": "electric_bike", "lat": 38.91474766666666, "is_reserved": 0, "fusion_lat": 0.0}, {"bike_id": "cff41c00151163a8c0652ebd8528c9ea", "fusion_lon": 0.0, "lon": -76.91126933333334, "name": "cff41c00151163a8c0652ebd8528c9ea", "is_disabled": 0, "rental_uris": {"android": "https://dc.lft.to/lastmile_qr_scan", "ios": "https://dc.lft.to/lastmile_qr_scan"}, "type": "electric_scooter", "lat": 38.894225666666664, "is_reserved": 0, "fusion_lat": 0.0}, {"bike_id": "b3fb3bf37cb256390909bbcfa7a6a331", "fusion_lon": 0.0, "lon": -77.03341066666667, "name": "b3fb3bf37cb256390909bbcfa7a6a331", "is_disabled": 0, "rental_uris": {"android": "https://dc.lft.to/lastmile_qr_scan", "ios": "https://dc.lft.to/lastmile_qr_scan"}, "type": "electric_scooter", "lat": 38.898324333333335, "is_reserved": 0, "fusion_lat": 0.0}, {"bike_id": "65821e01c7680c65fa5c78629d2266d4", "fusion_lon": 0.0, "lon": -76.99947, "name": "65821e01c7680c65fa5c78629d2266d4", "is_disabled": 0, "rental_uris": {"android": "https://dc.lft.to/lastmile_qr_scan", "ios": "https://dc.lft.to/lastmile_qr_scan"}, "type": "electric_scooter", "lat": 38.84300533333333, "is_reserved": 0, "fusion_lat": 0.0}, {"bike_id": "a4433124258c03b37a6baece3cc0d19c", "fusion_lon": 0.0, "lon": -77.0311085, "name": "a4433124258c03b37a6baece3cc0d19c", "is_disabled": 0, "rental_uris": {"android": "https://dc.lft.to/lastmile_qr_scan", "ios": "https://dc.lft.to/lastmile_qr_scan"}, "type": "electric_scooter", "lat": 38.917051, "is_reserved": 0, "fusion_lat": 0.0}, {"bike_id": "14e8d796a1bf628bbff42e80444d7818", "fusion_lon": 0.0, "lon": -77.03262183333334, "name": "14e8d796a1bf628bbff42e80444d7818", "is_disabled": 0, "rental_uris": {"android": "https://dc.lft.to/lastmile_qr_scan", "ios": "https://dc.lft.to/lastmile_qr_scan"}, "type": "electric_scooter", "lat": 38.91407683333333, "is_reserved": 0, "fusion_lat": 0.0}, {"bike_id": "c1b0698faa5569ddf51d5f015e12ec33", "fusion_lon": 0.0, "lon": -77.04197533333334, "name": "c1b0698faa5569ddf51d5f015e12ec33", "is_disabled": 0, "rental_uris": {"android": "https://dc.lft.to/lastmile_qr_scan", "ios": "https://dc.lft.to/lastmile_qr_scan"}, "type": "electric_scooter", "lat": 38.926231333333334, "is_reserved": 0, "fusion_lat": 0.0}, {"bike_id": "e0ebf623988734ed612ef936dc916ed9", "fusion_lon": 0.0, "lon": -77.03659783333333, "name": "e0ebf623988734ed612ef936dc916ed9", "is_disabled": 0, "rental_uris": {"android": "https://dc.lft.to/lastmile_qr_scan", "ios": "https://dc.lft.to/lastmile_qr_scan"}, "type": "electric_scooter", "lat": 38.9139765, "is_reserved": 0, "fusion_lat": 0.0}, {"bike_id": "746d41925180780cd47364286b0a4e3e", "fusion_lon": 0.0, "lon": -77.00328966666666, "name": "746d41925180780cd47364286b0a4e3e", "is_disabled": 0, "rental_uris": {"android": "https://dc.lft.to/lastmile_qr_scan", "ios": "https://dc.lft.to/lastmile_qr_scan"}, "type": "electric_scooter", "lat": 38.902644, "is_reserved": 0, "fusion_lat": 0.0}, {"bike_id": "9f72ea5bf387481825752132f6a2ee05", "fusion_lon": 0.0, "lon": -77.04090166666667, "name": "9f72ea5bf387481825752132f6a2ee05", "is_disabled": 0, "rental_uris": {"android": "https://dc.lft.to/lastmile_qr_scan", "ios": "https://dc.lft.to/lastmile_qr_scan"}, "type": "electric_scooter", "lat": 38.91702466666667, "is_reserved": 0, "fusion_lat": 0.0}, {"bike_id": "d54a2b0d9e1fd7a5b1bd4cd22b2e404a", "fusion_lon": 0.0, "lon": -77.02005783333334, "name": "d54a2b0d9e1fd7a5b1bd4cd22b2e404a", "is_disabled": 0, "rental_uris": {"android": "https://dc.lft.to/lastmile_qr_scan", "ios": "https://dc.lft.to/lastmile_qr_scan"}, "type": "electric_scooter", "lat": 38.913143, "is_reserved": 0, "fusion_lat": 0.0}, {"bike_id": "dee997fca1adfb878b7afed35ed09600", "fusion_lon": 0.0, "lon": -77.02188316666667, "name": "dee997fca1adfb878b7afed35ed09600", "is_disabled": 0, "rental_uris": {"android": "https://dc.lft.to/lastmile_qr_scan", "ios": "https://dc.lft.to/lastmile_qr_scan"}, "type": "electric_scooter", "lat": 38.91151333333333, "is_reserved": 0, "fusion_lat": 0.0}, {"bike_id": "29b5622e52dcaa5af8fc2dd52c36ca55", "fusion_lon": 0.0, "lon": -77.07728716666666, "name": "29b5622e52dcaa5af8fc2dd52c36ca55", "is_disabled": 0, "rental_uris": {"android": "https://dc.lft.to/lastmile_qr_scan", "ios": "https://dc.lft.to/lastmile_qr_scan"}, "type": "electric_scooter", "lat": 38.957689333333335, "is_reserved": 0, "fusion_lat": 0.0}, {"bike_id": "ce94ed69d1a80b45eb27e1118bed6d0e", "fusion_lon": 0.0, "lon": -76.9884055, "name": "ce94ed69d1a80b45eb27e1118bed6d0e", "is_disabled": 0, "rental_uris": {"android": "https://dc.lft.to/lastmile_qr_scan", "ios": "https://dc.lft.to/lastmile_qr_scan"}, "type": "electric_scooter", "lat": 38.892561666666666, "is_reserved": 0, "fusion_lat": 0.0}, {"bike_id": "451c40564b052292065137cab2450d1e", "fusion_lon": 0.0, "lon": -77.023478, "name": "451c40564b052292065137cab2450d1e", "is_disabled": 0, "rental_uris": {"android": "https://dc.lft.to/lastmile_qr_scan", "ios": "https://dc.lft.to/lastmile_qr_scan"}, "type": "electric_scooter", "lat": 38.946141, "is_reserved": 0, "fusion_lat": 0.0}, {"bike_id": "f5e466888f963f67ce4a53921007e4db", "fusion_lon": 0.0, "lon": -77.0326005, "name": "f5e466888f963f67ce4a53921007e4db", "is_disabled": 0, "rental_uris": {"android": "https://dc.lft.to/lastmile_qr_scan", "ios": "https://dc.lft.to/lastmile_qr_scan"}, "type": "electric_scooter", "lat": 38.914060166666665, "is_reserved": 0, "fusion_lat": 0.0}, {"bike_id": "9c969a25d94df2bd84a142511382475f", "fusion_lon": 0.0, "lon": -76.987116, "name": "9c969a25d94df2bd84a142511382475f", "is_disabled": 0, "rental_uris": {"android": "https://dc.lft.to/lastmile_qr_scan", "ios": "https://dc.lft.to/lastmile_qr_scan"}, "type": "electric_scooter", "lat": 38.8669865, "is_reserved": 0, "fusion_lat": 0.0}, {"bike_id": "edb16c2e27427661e5892f3349363bf1", "fusion_lon": 0.0, "lon": -77.02510083333334, "name": "edb16c2e27427661e5892f3349363bf1", "is_disabled": 0, "rental_uris": {"android": "https://dc.lft.to/lastmile_qr_scan", "ios": "https://dc.lft.to/lastmile_qr_scan"}, "type": "electric_scooter", "lat": 38.90411666666667, "is_reserved": 0, "fusion_lat": 0.0}, {"bike_id": "5df147b29289710e6ae66417e0941506", "fusion_lon": 0.0, "lon": -77.03918733333333, "name": "5df147b29289710e6ae66417e0941506", "is_disabled": 0, "rental_uris": {"android": "https://dc.lft.to/lastmile_qr_scan", "ios": "https://dc.lft.to/lastmile_qr_scan"}, "type": "electric_scooter", "lat": 38.924752, "is_reserved": 0, "fusion_lat": 0.0}, {"bike_id": "5503c8986041adc89451d2d7a6b19674", "fusion_lon": 0.0, "lon": -77.020558, "name": "5503c8986041adc89451d2d7a6b19674", "is_disabled": 0, "rental_uris": {"android": "https://dc.lft.to/lastmile_qr_scan", "ios": "https://dc.lft.to/lastmile_qr_scan"}, "type": "electric_scooter", "lat": 38.91413333333333, "is_reserved": 0, "fusion_lat": 0.0}, {"bike_id": "f5373ba5b30f6bc961e21b4b033ad43d", "fusion_lon": 0.0, "lon": -77.01454883333334, "name": "f5373ba5b30f6bc961e21b4b033ad43d", "is_disabled": 0, "rental_uris": {"android": "https://dc.lft.to/lastmile_qr_scan", "ios": "https://dc.lft.to/lastmile_qr_scan"}, "type": "electric_scooter", "lat": 38.91823983333333, "is_reserved": 0, "fusion_lat": 0.0}, {"bike_id": "312f32f695e5b053114e4cfac58f39ca", "fusion_lon": 0.0, "lon": -77.02982166666666, "name": "312f32f695e5b053114e4cfac58f39ca", "is_disabled": 0, "rental_uris": {"android": "https://dc.lft.to/lastmile_qr_scan", "ios": "https://dc.lft.to/lastmile_qr_scan"}, "type": "electric_scooter", "lat": 38.934475666666664, "is_reserved": 0, "fusion_lat": 0.0}, {"bike_id": "192b1ceda07155b4b8d89d34bfeb7711", "fusion_lon": 0.0, "lon": -77.0271435, "name": "192b1ceda07155b4b8d89d34bfeb7711", "is_disabled": 0, "rental_uris": {"android": "https://dc.lft.to/lastmile_qr_scan", "ios": "https://dc.lft.to/lastmile_qr_scan"}, "type": "electric_scooter", "lat": 38.906687166666664, "is_reserved": 0, "fusion_lat": 0.0}, {"bike_id": "6aa2f89f129ea4afdf93c365b970b7c5", "fusion_lon": 0.0, "lon": -77.0347405, "name": "6aa2f89f129ea4afdf93c365b970b7c5", "is_disabled": 0, "rental_uris": {"android": "https://dc.lft.to/lastmile_qr_scan", "ios": "https://dc.lft.to/lastmile_qr_scan"}, "type": "electric_scooter", "lat": 38.917088666666665, "is_reserved": 0, "fusion_lat": 0.0}, {"bike_id": "783d52bd3f70045e3519bfa6a240bfb2", "fusion_lon": 0.0, "lon": -77.03401966666667, "name": "783d52bd3f70045e3519bfa6a240bfb2", "is_disabled": 0, "rental_uris": {"android": "https://dc.lft.to/lastmile_qr_scan", "ios": "https://dc.lft.to/lastmile_qr_scan"}, "type": "electric_scooter", "lat": 38.91105733333333, "is_reserved": 0, "fusion_lat": 0.0}, {"bike_id": "da9f7a321f0dd3f45e4cdd9ab2de5bd1", "fusion_lon": 0.0, "lon": -76.9883035, "name": "da9f7a321f0dd3f45e4cdd9ab2de5bd1", "is_disabled": 0, "rental_uris": {"android": "https://dc.lft.to/lastmile_qr_scan", "ios": "https://dc.lft.to/lastmile_qr_scan"}, "type": "electric_scooter", "lat": 38.90034, "is_reserved": 0, "fusion_lat": 0.0}, {"bike_id": "1a8e239ff5dd571c916b4cbc04bdc3f8", "fusion_lon": 0.0, "lon": -76.99708083333333, "name": "1a8e239ff5dd571c916b4cbc04bdc3f8", "is_disabled": 0, "rental_uris": {"android": "https://dc.lft.to/lastmile_qr_scan", "ios": "https://dc.lft.to/lastmile_qr_scan"}, "type": "electric_bike", "lat": 38.911026, "is_reserved": 0, "fusion_lat": 0.0}, {"bike_id": "f2d265cfa39a399b0b8e7340e8c29359", "fusion_lon": 0.0, "lon": -77.06649116666667, "name": "f2d265cfa39a399b0b8e7340e8c29359", "is_disabled": 0, "rental_uris": {"android": "https://dc.lft.to/lastmile_qr_scan", "ios": "https://dc.lft.to/lastmile_qr_scan"}, "type": "electric_bike", "lat": 38.949696, "is_reserved": 0, "fusion_lat": 0.0}, {"bike_id": "e2f6084c48738bd1b1db97ccc1484864", "fusion_lon": 0.0, "lon": -77.03111533333333, "name": "e2f6084c48738bd1b1db97ccc1484864", "is_disabled": 0, "rental_uris": {"android": "https://dc.lft.to/lastmile_qr_scan", "ios": "https://dc.lft.to/lastmile_qr_scan"}, "type": "electric_scooter", "lat": 38.8948405, "is_reserved": 0, "fusion_lat": 0.0}, {"bike_id": "ef1d1239816e9b6c1bfe089bf20a7adf", "fusion_lon": 0.0, "lon": -77.0268185, "name": "ef1d1239816e9b6c1bfe089bf20a7adf", "is_disabled": 0, "rental_uris": {"android": "https://dc.lft.to/lastmile_qr_scan", "ios": "https://dc.lft.to/lastmile_qr_scan"}, "type": "electric_scooter", "lat": 38.9238785, "is_reserved": 0, "fusion_lat": 0.0}, {"bike_id": "2c0231bd9e2e79a5bbd32b78c73c77ce", "fusion_lon": 0.0, "lon": -77.1176115, "name": "2c0231bd9e2e79a5bbd32b78c73c77ce", "is_disabled": 0, "rental_uris": {"android": "https://dc.lft.to/lastmile_qr_scan", "ios": "https://dc.lft.to/lastmile_qr_scan"}, "type": "electric_bike", "lat": 39.04910066666667, "is_reserved": 0, "fusion_lat": 0.0}, {"bike_id": "c800f5a862ccc9c253fec02191fb7120", "fusion_lon": 0.0, "lon": -77.055003, "name": "c800f5a862ccc9c253fec02191fb7120", "is_disabled": 0, "rental_uris": {"android": "https://dc.lft.to/lastmile_qr_scan", "ios": "https://dc.lft.to/lastmile_qr_scan"}, "type": "electric_scooter", "lat": 38.936641333333334, "is_reserved": 0, "fusion_lat": 0.0}, {"bike_id": "1410c1e8ad83fdcd091b166ce7240550", "fusion_lon": 0.0, "lon": -77.13144966666667, "name": "1410c1e8ad83fdcd091b166ce7240550", "is_disabled": 0, "rental_uris": {"android": "https://dc.lft.to/lastmile_qr_scan", "ios": "https://dc.lft.to/lastmile_qr_scan"}, "type": "electric_bike", "lat": 38.86170166666667, "is_reserved": 0, "fusion_lat": 0.0}, {"bike_id": "1f450df7d28f10fd730ad7b2f0d8a130", "fusion_lon": 0.0, "lon": -76.98709366666667, "name": "1f450df7d28f10fd730ad7b2f0d8a130", "is_disabled": 0, "rental_uris": {"android": "https://dc.lft.to/lastmile_qr_scan", "ios": "https://dc.lft.to/lastmile_qr_scan"}, "type": "electric_scooter", "lat": 38.86539, "is_reserved": 0, "fusion_lat": 0.0}, {"bike_id": "c1b75e5b0c1cf934da09d82c9ad74dae", "fusion_lon": 0.0, "lon": -77.02177033333334, "name": "c1b75e5b0c1cf934da09d82c9ad74dae", "is_disabled": 0, "rental_uris": {"android": "https://dc.lft.to/lastmile_qr_scan", "ios": "https://dc.lft.to/lastmile_qr_scan"}, "type": "electric_scooter", "lat": 38.94291716666667, "is_reserved": 0, "fusion_lat": 0.0}, {"bike_id": "f5af98cced7ac4e07ab1ed234835fb4e", "fusion_lon": 0.0, "lon": -77.0236705, "name": "f5af98cced7ac4e07ab1ed234835fb4e", "is_disabled": 0, "rental_uris": {"android": "https://dc.lft.to/lastmile_qr_scan", "ios": "https://dc.lft.to/lastmile_qr_scan"}, "type": "electric_scooter", "lat": 38.884787333333335, "is_reserved": 0, "fusion_lat": 0.0}, {"bike_id": "78d5a7238525dfc04acd60d7be09a207", "fusion_lon": 0.0, "lon": -77.06601883333333, "name": "78d5a7238525dfc04acd60d7be09a207", "is_disabled": 0, "rental_uris": {"android": "https://dc.lft.to/lastmile_qr_scan", "ios": "https://dc.lft.to/lastmile_qr_scan"}, "type": "electric_scooter", "lat": 38.90351016666666, "is_reserved": 0, "fusion_lat": 0.0}, {"bike_id": "35abb97f873f7fd6d69366a716d03eb9", "fusion_lon": 0.0, "lon": -76.99379033333334, "name": "35abb97f873f7fd6d69366a716d03eb9", "is_disabled": 0, "rental_uris": {"android": "https://dc.lft.to/lastmile_qr_scan", "ios": "https://dc.lft.to/lastmile_qr_scan"}, "type": "electric_scooter", "lat": 38.923950833333336, "is_reserved": 0, "fusion_lat": 0.0}, {"bike_id": "55fcda8c5fe750b64192eca916378a68", "fusion_lon": 0.0, "lon": -77.01135866666667, "name": "55fcda8c5fe750b64192eca916378a68", "is_disabled": 0, "rental_uris": {"android": "https://dc.lft.to/lastmile_qr_scan", "ios": "https://dc.lft.to/lastmile_qr_scan"}, "type": "electric_scooter", "lat": 38.8852755, "is_reserved": 0, "fusion_lat": 0.0}, {"bike_id": "bde37fb94f8cded570144f793eb8bfd9", "fusion_lon": 0.0, "lon": -77.043114, "name": "bde37fb94f8cded570144f793eb8bfd9", "is_disabled": 0, "rental_uris": {"android": "https://dc.lft.to/lastmile_qr_scan", "ios": "https://dc.lft.to/lastmile_qr_scan"}, "type": "electric_scooter", "lat": 38.8811095, "is_reserved": 0, "fusion_lat": 0.0}, {"bike_id": "ce6c8d0627dd34db72597222665ee7f5", "fusion_lon": 0.0, "lon": -77.0211675, "name": "ce6c8d0627dd34db72597222665ee7f5", "is_disabled": 0, "rental_uris": {"android": "https://dc.lft.to/lastmile_qr_scan", "ios": "https://dc.lft.to/lastmile_qr_scan"}, "type": "electric_scooter", "lat": 38.917384166666665, "is_reserved": 0, "fusion_lat": 0.0}, {"bike_id": "e602f884ccd1eaa33593546ed5ad6e30", "fusion_lon": 0.0, "lon": -76.97183083333333, "name": "e602f884ccd1eaa33593546ed5ad6e30", "is_disabled": 0, "rental_uris": {"android": "https://dc.lft.to/lastmile_qr_scan", "ios": "https://dc.lft.to/lastmile_qr_scan"}, "type": "electric_bike", "lat": 38.91790066666667, "is_reserved": 0, "fusion_lat": 0.0}, {"bike_id": "5d1dc728bfea7cac1bf797eb0a1d1146", "fusion_lon": 0.0, "lon": -77.0202705, "name": "5d1dc728bfea7cac1bf797eb0a1d1146", "is_disabled": 0, "rental_uris": {"android": "https://dc.lft.to/lastmile_qr_scan", "ios": "https://dc.lft.to/lastmile_qr_scan"}, "type": "electric_scooter", "lat": 38.90152916666667, "is_reserved": 0, "fusion_lat": 0.0}, {"bike_id": "5f522d62334862ecf10e2e12639422c7", "fusion_lon": 0.0, "lon": -77.02490383333334, "name": "5f522d62334862ecf10e2e12639422c7", "is_disabled": 0, "rental_uris": {"android": "https://dc.lft.to/lastmile_qr_scan", "ios": "https://dc.lft.to/lastmile_qr_scan"}, "type": "electric_scooter", "lat": 38.94186716666667, "is_reserved": 0, "fusion_lat": 0.0}, {"bike_id": "8fa6bb1527349e268c01634de7fff269", "fusion_lon": 0.0, "lon": -77.01202633333334, "name": "8fa6bb1527349e268c01634de7fff269", "is_disabled": 0, "rental_uris": {"android": "https://dc.lft.to/lastmile_qr_scan", "ios": "https://dc.lft.to/lastmile_qr_scan"}, "type": "electric_scooter", "lat": 38.900127166666664, "is_reserved": 0, "fusion_lat": 0.0}, {"bike_id": "00976650d6b9b8f4cc3cd13ae9641732", "fusion_lon": 0.0, "lon": -76.927429, "name": "00976650d6b9b8f4cc3cd13ae9641732", "is_disabled": 0, "rental_uris": {"android": "https://dc.lft.to/lastmile_qr_scan", "ios": "https://dc.lft.to/lastmile_qr_scan"}, "type": "electric_scooter", "lat": 38.8896805, "is_reserved": 0, "fusion_lat": 0.0}, {"bike_id": "4e748f101ddd98aee7fc69c787d454f5", "fusion_lon": 0.0, "lon": -77.0217365, "name": "4e748f101ddd98aee7fc69c787d454f5", "is_disabled": 0, "rental_uris": {"android": "https://dc.lft.to/lastmile_qr_scan", "ios": "https://dc.lft.to/lastmile_qr_scan"}, "type": "electric_scooter", "lat": 38.94605833333333, "is_reserved": 0, "fusion_lat": 0.0}, {"bike_id": "c53db85c943e64ecf05846d20b600b95", "fusion_lon": 0.0, "lon": -77.02155066666667, "name": "c53db85c943e64ecf05846d20b600b95", "is_disabled": 0, "rental_uris": {"android": "https://dc.lft.to/lastmile_qr_scan", "ios": "https://dc.lft.to/lastmile_qr_scan"}, "type": "electric_scooter", "lat": 38.8847775, "is_reserved": 0, "fusion_lat": 0.0}, {"bike_id": "42bb1f64bdae79631bde565de8fa1f79", "fusion_lon": 0.0, "lon": -77.03097566666666, "name": "42bb1f64bdae79631bde565de8fa1f79", "is_disabled": 0, "rental_uris": {"android": "https://dc.lft.to/lastmile_qr_scan", "ios": "https://dc.lft.to/lastmile_qr_scan"}, "type": "electric_scooter", "lat": 38.9237745, "is_reserved": 0, "fusion_lat": 0.0}, {"bike_id": "f58caca84f20ba5d54dd5f1003fbb4e5", "fusion_lon": 0.0, "lon": -77.00117266666666, "name": "f58caca84f20ba5d54dd5f1003fbb4e5", "is_disabled": 0, "rental_uris": {"android": "https://dc.lft.to/lastmile_qr_scan", "ios": "https://dc.lft.to/lastmile_qr_scan"}, "type": "electric_scooter", "lat": 38.91706166666667, "is_reserved": 0, "fusion_lat": 0.0}, {"bike_id": "c905dacce644409abd592e411e2d3066", "fusion_lon": 0.0, "lon": -76.93157333333333, "name": "c905dacce644409abd592e411e2d3066", "is_disabled": 0, "rental_uris": {"android": "https://dc.lft.to/lastmile_qr_scan", "ios": "https://dc.lft.to/lastmile_qr_scan"}, "type": "electric_scooter", "lat": 38.89878933333333, "is_reserved": 0, "fusion_lat": 0.0}, {"bike_id": "ccf59f14304ec3ffb9811e88f7139156", "fusion_lon": 0.0, "lon": -77.02697433333333, "name": "ccf59f14304ec3ffb9811e88f7139156", "is_disabled": 0, "rental_uris": {"android": "https://dc.lft.to/lastmile_qr_scan", "ios": "https://dc.lft.to/lastmile_qr_scan"}, "type": "electric_scooter", "lat": 38.881268166666665, "is_reserved": 0, "fusion_lat": 0.0}, {"bike_id": "112130fd2ddb725df104b48fbf97637d", "fusion_lon": 0.0, "lon": -77.03344616666666, "name": "112130fd2ddb725df104b48fbf97637d", "is_disabled": 0, "rental_uris": {"android": "https://dc.lft.to/lastmile_qr_scan", "ios": "https://dc.lft.to/lastmile_qr_scan"}, "type": "electric_scooter", "lat": 38.94178983333333, "is_reserved": 0, "fusion_lat": 0.0}, {"bike_id": "71fb7ddb7d1051a77a65c7159ac189c2", "fusion_lon": 0.0, "lon": -76.9879805, "name": "71fb7ddb7d1051a77a65c7159ac189c2", "is_disabled": 0, "rental_uris": {"android": "https://dc.lft.to/lastmile_qr_scan", "ios": "https://dc.lft.to/lastmile_qr_scan"}, "type": "electric_bike", "lat": 38.922143166666665, "is_reserved": 0, "fusion_lat": 0.0}, {"bike_id": "db4f34e1740d9ceac239d2fb37186772", "fusion_lon": 0.0, "lon": -77.02322983333333, "name": "db4f34e1740d9ceac239d2fb37186772", "is_disabled": 0, "rental_uris": {"android": "https://dc.lft.to/lastmile_qr_scan", "ios": "https://dc.lft.to/lastmile_qr_scan"}, "type": "electric_scooter", "lat": 38.9072085, "is_reserved": 0, "fusion_lat": 0.0}, {"bike_id": "bd409a51c4ecc5873a1ea336819d6683", "fusion_lon": 0.0, "lon": -77.02576816666667, "name": "bd409a51c4ecc5873a1ea336819d6683", "is_disabled": 0, "rental_uris": {"android": "https://dc.lft.to/lastmile_qr_scan", "ios": "https://dc.lft.to/lastmile_qr_scan"}, "type": "electric_scooter", "lat": 38.89229816666667, "is_reserved": 0, "fusion_lat": 0.0}, {"bike_id": "b916ac0451c39bd0f4511864ca64e780", "fusion_lon": 0.0, "lon": -77.03495783333334, "name": "b916ac0451c39bd0f4511864ca64e780", "is_disabled": 0, "rental_uris": {"android": "https://dc.lft.to/lastmile_qr_scan", "ios": "https://dc.lft.to/lastmile_qr_scan"}, "type": "electric_scooter", "lat": 38.92350483333333, "is_reserved": 0, "fusion_lat": 0.0}, {"bike_id": "576be4e01c07cd5fd6b22d28d5163910", "fusion_lon": 0.0, "lon": -76.985271, "name": "576be4e01c07cd5fd6b22d28d5163910", "is_disabled": 0, "rental_uris": {"android": "https://dc.lft.to/lastmile_qr_scan", "ios": "https://dc.lft.to/lastmile_qr_scan"}, "type": "electric_scooter", "lat": 38.866713833333336, "is_reserved": 0, "fusion_lat": 0.0}, {"bike_id": "68ce2e209b61c64c712577afd7a432fa", "fusion_lon": 0.0, "lon": -77.04332833333333, "name": "68ce2e209b61c64c712577afd7a432fa", "is_disabled": 0, "rental_uris": {"android": "https://dc.lft.to/lastmile_qr_scan", "ios": "https://dc.lft.to/lastmile_qr_scan"}, "type": "electric_scooter", "lat": 38.892229, "is_reserved": 0, "fusion_lat": 0.0}, {"bike_id": "2ccf5ed870388d6b7c133e9adcfe3362", "fusion_lon": 0.0, "lon": -77.032599, "name": "2ccf5ed870388d6b7c133e9adcfe3362", "is_disabled": 0, "rental_uris": {"android": "https://dc.lft.to/lastmile_qr_scan", "ios": "https://dc.lft.to/lastmile_qr_scan"}, "type": "electric_scooter", "lat": 38.9377905, "is_reserved": 0, "fusion_lat": 0.0}, {"bike_id": "ac0677a009f922c2c8d31a014f32dbc2", "fusion_lon": 0.0, "lon": -77.04838433333333, "name": "ac0677a009f922c2c8d31a014f32dbc2", "is_disabled": 0, "rental_uris": {"android": "https://dc.lft.to/lastmile_qr_scan", "ios": "https://dc.lft.to/lastmile_qr_scan"}, "type": "electric_scooter", "lat": 38.91032383333334, "is_reserved": 0, "fusion_lat": 0.0}, {"bike_id": "ac223d85d8be5098c6b27d621dea0e58", "fusion_lon": 0.0, "lon": -77.02945633333333, "name": "ac223d85d8be5098c6b27d621dea0e58", "is_disabled": 0, "rental_uris": {"android": "https://dc.lft.to/lastmile_qr_scan", "ios": "https://dc.lft.to/lastmile_qr_scan"}, "type": "electric_scooter", "lat": 38.9063065, "is_reserved": 0, "fusion_lat": 0.0}, {"bike_id": "563f51b7890fc25286a61d46ade49054", "fusion_lon": 0.0, "lon": -77.04139683333334, "name": "563f51b7890fc25286a61d46ade49054", "is_disabled": 0, "rental_uris": {"android": "https://dc.lft.to/lastmile_qr_scan", "ios": "https://dc.lft.to/lastmile_qr_scan"}, "type": "electric_scooter", "lat": 38.89355, "is_reserved": 0, "fusion_lat": 0.0}, {"bike_id": "9597a1050cecd802e08b38a82ead628e", "fusion_lon": 0.0, "lon": -77.04709016666666, "name": "9597a1050cecd802e08b38a82ead628e", "is_disabled": 0, "rental_uris": {"android": "https://dc.lft.to/lastmile_qr_scan", "ios": "https://dc.lft.to/lastmile_qr_scan"}, "type": "electric_scooter", "lat": 38.922245833333335, "is_reserved": 0, "fusion_lat": 0.0}, {"bike_id": "64ce2d5490f4aec54b55e2b59375a9bf", "fusion_lon": 0.0, "lon": -76.99710066666667, "name": "64ce2d5490f4aec54b55e2b59375a9bf", "is_disabled": 0, "rental_uris": {"android": "https://dc.lft.to/lastmile_qr_scan", "ios": "https://dc.lft.to/lastmile_qr_scan"}, "type": "electric_scooter", "lat": 38.84431633333333, "is_reserved": 0, "fusion_lat": 0.0}, {"bike_id": "a2fd0cf5c0ec2fca9a71cb5126bb86b6", "fusion_lon": 0.0, "lon": -77.02378166666666, "name": "a2fd0cf5c0ec2fca9a71cb5126bb86b6", "is_disabled": 0, "rental_uris": {"android": "https://dc.lft.to/lastmile_qr_scan", "ios": "https://dc.lft.to/lastmile_qr_scan"}, "type": "electric_scooter", "lat": 38.9095335, "is_reserved": 0, "fusion_lat": 0.0}, {"bike_id": "41593ac0d7e6b38fef24f7ac397327e8", "fusion_lon": 0.0, "lon": -77.0416935, "name": "41593ac0d7e6b38fef24f7ac397327e8", "is_disabled": 0, "rental_uris": {"android": "https://dc.lft.to/lastmile_qr_scan", "ios": "https://dc.lft.to/lastmile_qr_scan"}, "type": "electric_scooter", "lat": 38.91859216666667, "is_reserved": 0, "fusion_lat": 0.0}, {"bike_id": "3d3b44ca489c5525214b4583beed4d6f", "fusion_lon": 0.0, "lon": -77.03464516666666, "name": "3d3b44ca489c5525214b4583beed4d6f", "is_disabled": 0, "rental_uris": {"android": "https://dc.lft.to/lastmile_qr_scan", "ios": "https://dc.lft.to/lastmile_qr_scan"}, "type": "electric_scooter", "lat": 38.9080515, "is_reserved": 0, "fusion_lat": 0.0}, {"bike_id": "8346afe98551fbf1dfefb8fcbe4e0864", "fusion_lon": 0.0, "lon": -76.98071433333334, "name": "8346afe98551fbf1dfefb8fcbe4e0864", "is_disabled": 0, "rental_uris": {"android": "https://dc.lft.to/lastmile_qr_scan", "ios": "https://dc.lft.to/lastmile_qr_scan"}, "type": "electric_bike", "lat": 38.90170583333333, "is_reserved": 0, "fusion_lat": 0.0}, {"bike_id": "32ca2becf68118eee59ec88161250f37", "fusion_lon": 0.0, "lon": -77.01758616666666, "name": "32ca2becf68118eee59ec88161250f37", "is_disabled": 0, "rental_uris": {"android": "https://dc.lft.to/lastmile_qr_scan", "ios": "https://dc.lft.to/lastmile_qr_scan"}, "type": "electric_scooter", "lat": 38.902608, "is_reserved": 0, "fusion_lat": 0.0}, {"bike_id": "edc1d559ac82a763fb88eadbc171efaf", "fusion_lon": 0.0, "lon": -77.02694416666667, "name": "edc1d559ac82a763fb88eadbc171efaf", "is_disabled": 0, "rental_uris": {"android": "https://dc.lft.to/lastmile_qr_scan", "ios": "https://dc.lft.to/lastmile_qr_scan"}, "type": "electric_scooter", "lat": 38.911251166666666, "is_reserved": 0, "fusion_lat": 0.0}, {"bike_id": "2d95a5ed9c346a3ed5121548fbd4d161", "fusion_lon": 0.0, "lon": -77.08189016666667, "name": "2d95a5ed9c346a3ed5121548fbd4d161", "is_disabled": 0, "rental_uris": {"android": "https://dc.lft.to/lastmile_qr_scan", "ios": "https://dc.lft.to/lastmile_qr_scan"}, "type": "electric_bike", "lat": 38.855698, "is_reserved": 0, "fusion_lat": 0.0}, {"bike_id": "774eaa6252bf847f1978d7db1a403c84", "fusion_lon": 0.0, "lon": -77.0242695, "name": "774eaa6252bf847f1978d7db1a403c84", "is_disabled": 0, "rental_uris": {"android": "https://dc.lft.to/lastmile_qr_scan", "ios": "https://dc.lft.to/lastmile_qr_scan"}, "type": "electric_scooter", "lat": 38.92657766666667, "is_reserved": 0, "fusion_lat": 0.0}, {"bike_id": "5517ce109650b0b6b50e92415f02adef", "fusion_lon": 0.0, "lon": -77.04154016666666, "name": "5517ce109650b0b6b50e92415f02adef", "is_disabled": 0, "rental_uris": {"android": "https://dc.lft.to/lastmile_qr_scan", "ios": "https://dc.lft.to/lastmile_qr_scan"}, "type": "electric_scooter", "lat": 38.905628, "is_reserved": 0, "fusion_lat": 0.0}, {"bike_id": "812e53be3fb167f31b0e0077d1019511", "fusion_lon": 0.0, "lon": -77.03159933333333, "name": "812e53be3fb167f31b0e0077d1019511", "is_disabled": 0, "rental_uris": {"android": "https://dc.lft.to/lastmile_qr_scan", "ios": "https://dc.lft.to/lastmile_qr_scan"}, "type": "electric_scooter", "lat": 38.920911833333335, "is_reserved": 0, "fusion_lat": 0.0}, {"bike_id": "b55cf8b23fd20596943ef5def6de9663", "fusion_lon": 0.0, "lon": -77.0013585, "name": "b55cf8b23fd20596943ef5def6de9663", "is_disabled": 0, "rental_uris": {"android": "https://dc.lft.to/lastmile_qr_scan", "ios": "https://dc.lft.to/lastmile_qr_scan"}, "type": "electric_scooter", "lat": 38.90511333333333, "is_reserved": 0, "fusion_lat": 0.0}, {"bike_id": "735d3b7e53eedab21b0e7f25623dd44a", "fusion_lon": 0.0, "lon": -76.9899005, "name": "735d3b7e53eedab21b0e7f25623dd44a", "is_disabled": 0, "rental_uris": {"android": "https://dc.lft.to/lastmile_qr_scan", "ios": "https://dc.lft.to/lastmile_qr_scan"}, "type": "electric_scooter", "lat": 38.865025, "is_reserved": 0, "fusion_lat": 0.0}, {"bike_id": "b24d35c0ef6b8e0fbcc72d0ab5e92ce7", "fusion_lon": 0.0, "lon": -76.93733583333334, "name": "b24d35c0ef6b8e0fbcc72d0ab5e92ce7", "is_disabled": 0, "rental_uris": {"android": "https://dc.lft.to/lastmile_qr_scan", "ios": "https://dc.lft.to/lastmile_qr_scan"}, "type": "electric_scooter", "lat": 38.890170166666664, "is_reserved": 0, "fusion_lat": 0.0}, {"bike_id": "5291a5e39a4c2cdef1ba8c61efd0b5f1", "fusion_lon": 0.0, "lon": -77.03844716666667, "name": "5291a5e39a4c2cdef1ba8c61efd0b5f1", "is_disabled": 0, "rental_uris": {"android": "https://dc.lft.to/lastmile_qr_scan", "ios": "https://dc.lft.to/lastmile_qr_scan"}, "type": "electric_scooter", "lat": 38.908533166666665, "is_reserved": 0, "fusion_lat": 0.0}, {"bike_id": "d7b1aaa29333b92b71d87cdccc170971", "fusion_lon": 0.0, "lon": -77.00569416666667, "name": "d7b1aaa29333b92b71d87cdccc170971", "is_disabled": 0, "rental_uris": {"android": "https://dc.lft.to/lastmile_qr_scan", "ios": "https://dc.lft.to/lastmile_qr_scan"}, "type": "electric_scooter", "lat": 38.88503633333333, "is_reserved": 0, "fusion_lat": 0.0}, {"bike_id": "41e12cf8e915b46f89a94154771bf9dc", "fusion_lon": 0.0, "lon": -76.95188966666667, "name": "41e12cf8e915b46f89a94154771bf9dc", "is_disabled": 0, "rental_uris": {"android": "https://dc.lft.to/lastmile_qr_scan", "ios": "https://dc.lft.to/lastmile_qr_scan"}, "type": "electric_scooter", "lat": 38.90740266666667, "is_reserved": 0, "fusion_lat": 0.0}, {"bike_id": "21b9917d1eba6bbebee33b57ee217073", "fusion_lon": 0.0, "lon": -77.01775916666666, "name": "21b9917d1eba6bbebee33b57ee217073", "is_disabled": 0, "rental_uris": {"android": "https://dc.lft.to/lastmile_qr_scan", "ios": "https://dc.lft.to/lastmile_qr_scan"}, "type": "electric_scooter", "lat": 38.90782983333333, "is_reserved": 0, "fusion_lat": 0.0}, {"bike_id": "d565c9d0401debb685626052bbed0404", "fusion_lon": 0.0, "lon": -77.04410716666666, "name": "d565c9d0401debb685626052bbed0404", "is_disabled": 0, "rental_uris": {"android": "https://dc.lft.to/lastmile_qr_scan", "ios": "https://dc.lft.to/lastmile_qr_scan"}, "type": "electric_scooter", "lat": 38.920719, "is_reserved": 0, "fusion_lat": 0.0}, {"bike_id": "78db68adaf7d3f6f6e2fe41a2a0684bf", "fusion_lon": 0.0, "lon": -77.05611, "name": "78db68adaf7d3f6f6e2fe41a2a0684bf", "is_disabled": 0, "rental_uris": {"android": "https://dc.lft.to/lastmile_qr_scan", "ios": "https://dc.lft.to/lastmile_qr_scan"}, "type": "electric_scooter", "lat": 38.931650166666664, "is_reserved": 0, "fusion_lat": 0.0}, {"bike_id": "c913996f1005e5d8dc383d75c9d9d025", "fusion_lon": 0.0, "lon": -76.93543366666667, "name": "c913996f1005e5d8dc383d75c9d9d025", "is_disabled": 0, "rental_uris": {"android": "https://dc.lft.to/lastmile_qr_scan", "ios": "https://dc.lft.to/lastmile_qr_scan"}, "type": "electric_bike", "lat": 38.955575333333336, "is_reserved": 0, "fusion_lat": 0.0}, {"bike_id": "3854760bf8009d5d0f188383c12a8d5e", "fusion_lon": 0.0, "lon": -77.03960433333333, "name": "3854760bf8009d5d0f188383c12a8d5e", "is_disabled": 0, "rental_uris": {"android": "https://dc.lft.to/lastmile_qr_scan", "ios": "https://dc.lft.to/lastmile_qr_scan"}, "type": "electric_scooter", "lat": 38.90723933333334, "is_reserved": 0, "fusion_lat": 0.0}, {"bike_id": "d8eeaa39aa6f8e6874054b94e06c719c", "fusion_lon": 0.0, "lon": -77.05151466666666, "name": "d8eeaa39aa6f8e6874054b94e06c719c", "is_disabled": 0, "rental_uris": {"android": "https://dc.lft.to/lastmile_qr_scan", "ios": "https://dc.lft.to/lastmile_qr_scan"}, "type": "electric_scooter", "lat": 38.905310166666666, "is_reserved": 0, "fusion_lat": 0.0}, {"bike_id": "bacfa55cec54ab564e80665508a2d638", "fusion_lon": 0.0, "lon": -76.93198616666666, "name": "bacfa55cec54ab564e80665508a2d638", "is_disabled": 0, "rental_uris": {"android": "https://dc.lft.to/lastmile_qr_scan", "ios": "https://dc.lft.to/lastmile_qr_scan"}, "type": "electric_scooter", "lat": 38.89880216666667, "is_reserved": 0, "fusion_lat": 0.0}, {"bike_id": "01c5e69fb8cda2620fc58d0f6512d02d", "fusion_lon": 0.0, "lon": -76.98521566666666, "name": "01c5e69fb8cda2620fc58d0f6512d02d", "is_disabled": 0, "rental_uris": {"android": "https://dc.lft.to/lastmile_qr_scan", "ios": "https://dc.lft.to/lastmile_qr_scan"}, "type": "electric_scooter", "lat": 38.86669966666667, "is_reserved": 0, "fusion_lat": 0.0}, {"bike_id": "7afa0d3e550ebfbddcbe56d43820b11a", "fusion_lon": 0.0, "lon": -77.03540183333334, "name": "7afa0d3e550ebfbddcbe56d43820b11a", "is_disabled": 0, "rental_uris": {"android": "https://dc.lft.to/lastmile_qr_scan", "ios": "https://dc.lft.to/lastmile_qr_scan"}, "type": "electric_scooter", "lat": 38.92418383333333, "is_reserved": 0, "fusion_lat": 0.0}, {"bike_id": "b17660d1de014c3eff564e46b476b47f", "fusion_lon": 0.0, "lon": -77.0339725, "name": "b17660d1de014c3eff564e46b476b47f", "is_disabled": 0, "rental_uris": {"android": "https://dc.lft.to/lastmile_qr_scan", "ios": "https://dc.lft.to/lastmile_qr_scan"}, "type": "electric_bike", "lat": 38.96030433333333, "is_reserved": 0, "fusion_lat": 0.0}, {"bike_id": "1de23e6e719d1c3878eba56866a4e862", "fusion_lon": 0.0, "lon": -77.02926933333333, "name": "1de23e6e719d1c3878eba56866a4e862", "is_disabled": 0, "rental_uris": {"android": "https://dc.lft.to/lastmile_qr_scan", "ios": "https://dc.lft.to/lastmile_qr_scan"}, "type": "electric_scooter", "lat": 38.90515466666667, "is_reserved": 0, "fusion_lat": 0.0}, {"bike_id": "f1f6763439dbf44556e98028e6b0ae47", "fusion_lon": 0.0, "lon": -77.04482733333333, "name": "f1f6763439dbf44556e98028e6b0ae47", "is_disabled": 0, "rental_uris": {"android": "https://dc.lft.to/lastmile_qr_scan", "ios": "https://dc.lft.to/lastmile_qr_scan"}, "type": "electric_scooter", "lat": 38.922413, "is_reserved": 0, "fusion_lat": 0.0}, {"bike_id": "dbc369dd3cc4e1422c26e78f493963a9", "fusion_lon": 0.0, "lon": -77.0158375, "name": "dbc369dd3cc4e1422c26e78f493963a9", "is_disabled": 0, "rental_uris": {"android": "https://dc.lft.to/lastmile_qr_scan", "ios": "https://dc.lft.to/lastmile_qr_scan"}, "type": "electric_scooter", "lat": 38.8918175, "is_reserved": 0, "fusion_lat": 0.0}, {"bike_id": "34c4f7ab9b277b74c1a1ffef8e4f2006", "fusion_lon": 0.0, "lon": -77.02212383333334, "name": "34c4f7ab9b277b74c1a1ffef8e4f2006", "is_disabled": 0, "rental_uris": {"android": "https://dc.lft.to/lastmile_qr_scan", "ios": "https://dc.lft.to/lastmile_qr_scan"}, "type": "electric_scooter", "lat": 38.87895783333333, "is_reserved": 0, "fusion_lat": 0.0}, {"bike_id": "d9d2e13a7555e9413a1e128215ad747a", "fusion_lon": 0.0, "lon": -77.02729, "name": "d9d2e13a7555e9413a1e128215ad747a", "is_disabled": 0, "rental_uris": {"android": "https://dc.lft.to/lastmile_qr_scan", "ios": "https://dc.lft.to/lastmile_qr_scan"}, "type": "electric_scooter", "lat": 38.9283805, "is_reserved": 0, "fusion_lat": 0.0}, {"bike_id": "9c8614b59cf25274415dda82960a490c", "fusion_lon": 0.0, "lon": -77.04147883333333, "name": "9c8614b59cf25274415dda82960a490c", "is_disabled": 0, "rental_uris": {"android": "https://dc.lft.to/lastmile_qr_scan", "ios": "https://dc.lft.to/lastmile_qr_scan"}, "type": "electric_scooter", "lat": 38.9155405, "is_reserved": 0, "fusion_lat": 0.0}, {"bike_id": "0dc5cd21aea230b16f36d88bf57a3545", "fusion_lon": 0.0, "lon": -77.02167466666667, "name": "0dc5cd21aea230b16f36d88bf57a3545", "is_disabled": 0, "rental_uris": {"android": "https://dc.lft.to/lastmile_qr_scan", "ios": "https://dc.lft.to/lastmile_qr_scan"}, "type": "electric_scooter", "lat": 38.91488833333333, "is_reserved": 0, "fusion_lat": 0.0}, {"bike_id": "dc140cf80c7e7aefbb43cb968b97897d", "fusion_lon": 0.0, "lon": -77.12733666666666, "name": "dc140cf80c7e7aefbb43cb968b97897d", "is_disabled": 0, "rental_uris": {"android": "https://dc.lft.to/lastmile_qr_scan", "ios": "https://dc.lft.to/lastmile_qr_scan"}, "type": "electric_bike", "lat": 38.895651666666666, "is_reserved": 0, "fusion_lat": 0.0}, {"bike_id": "f819e237555a91f74a080770bba76841", "fusion_lon": 0.0, "lon": -77.04181183333333, "name": "f819e237555a91f74a080770bba76841", "is_disabled": 0, "rental_uris": {"android": "https://dc.lft.to/lastmile_qr_scan", "ios": "https://dc.lft.to/lastmile_qr_scan"}, "type": "electric_scooter", "lat": 38.89300583333333, "is_reserved": 0, "fusion_lat": 0.0}, {"bike_id": "77ee9c49b1b449a835fe83e5ccaed6f9", "fusion_lon": 0.0, "lon": -77.02419933333333, "name": "77ee9c49b1b449a835fe83e5ccaed6f9", "is_disabled": 0, "rental_uris": {"android": "https://dc.lft.to/lastmile_qr_scan", "ios": "https://dc.lft.to/lastmile_qr_scan"}, "type": "electric_scooter", "lat": 38.957360333333334, "is_reserved": 0, "fusion_lat": 0.0}, {"bike_id": "bcd4712915ccd6a124187f006c269696", "fusion_lon": 0.0, "lon": -77.01137833333334, "name": "bcd4712915ccd6a124187f006c269696", "is_disabled": 0, "rental_uris": {"android": "https://dc.lft.to/lastmile_qr_scan", "ios": "https://dc.lft.to/lastmile_qr_scan"}, "type": "electric_scooter", "lat": 38.90732083333333, "is_reserved": 0, "fusion_lat": 0.0}, {"bike_id": "f0c964774ab3b9bf3a774239acb2c644", "fusion_lon": 0.0, "lon": -76.99961816666666, "name": "f0c964774ab3b9bf3a774239acb2c644", "is_disabled": 0, "rental_uris": {"android": "https://dc.lft.to/lastmile_qr_scan", "ios": "https://dc.lft.to/lastmile_qr_scan"}, "type": "electric_bike", "lat": 38.92151783333333, "is_reserved": 0, "fusion_lat": 0.0}, {"bike_id": "6729a4f612d52786773d86cc6b364913", "fusion_lon": 0.0, "lon": -76.98890166666666, "name": "6729a4f612d52786773d86cc6b364913", "is_disabled": 0, "rental_uris": {"android": "https://dc.lft.to/lastmile_qr_scan", "ios": "https://dc.lft.to/lastmile_qr_scan"}, "type": "electric_scooter", "lat": 38.866591666666665, "is_reserved": 0, "fusion_lat": 0.0}, {"bike_id": "ded4f0fab79ecbbb90692b8e135e8bc9", "fusion_lon": 0.0, "lon": -77.02694216666667, "name": "ded4f0fab79ecbbb90692b8e135e8bc9", "is_disabled": 0, "rental_uris": {"android": "https://dc.lft.to/lastmile_qr_scan", "ios": "https://dc.lft.to/lastmile_qr_scan"}, "type": "electric_scooter", "lat": 38.911238833333336, "is_reserved": 0, "fusion_lat": 0.0}, {"bike_id": "26b74886bb5e7a4f944ee9c0d6dd240f", "fusion_lon": 0.0, "lon": -77.023862, "name": "26b74886bb5e7a4f944ee9c0d6dd240f", "is_disabled": 0, "rental_uris": {"android": "https://dc.lft.to/lastmile_qr_scan", "ios": "https://dc.lft.to/lastmile_qr_scan"}, "type": "electric_scooter", "lat": 38.919815, "is_reserved": 0, "fusion_lat": 0.0}, {"bike_id": "00d81bf746bf8ec3ce9b3eb0e27a7166", "fusion_lon": 0.0, "lon": -77.02604766666667, "name": "00d81bf746bf8ec3ce9b3eb0e27a7166", "is_disabled": 0, "rental_uris": {"android": "https://dc.lft.to/lastmile_qr_scan", "ios": "https://dc.lft.to/lastmile_qr_scan"}, "type": "electric_scooter", "lat": 38.90517033333333, "is_reserved": 0, "fusion_lat": 0.0}, {"bike_id": "ba247f2ec193f5cd96ee44f2c5175626", "fusion_lon": 0.0, "lon": -77.0526955, "name": "ba247f2ec193f5cd96ee44f2c5175626", "is_disabled": 0, "rental_uris": {"android": "https://dc.lft.to/lastmile_qr_scan", "ios": "https://dc.lft.to/lastmile_qr_scan"}, "type": "electric_scooter", "lat": 38.92536716666667, "is_reserved": 0, "fusion_lat": 0.0}, {"bike_id": "93efda02aeadda33ab86dc645e4939ef", "fusion_lon": 0.0, "lon": -77.0394005, "name": "93efda02aeadda33ab86dc645e4939ef", "is_disabled": 0, "rental_uris": {"android": "https://dc.lft.to/lastmile_qr_scan", "ios": "https://dc.lft.to/lastmile_qr_scan"}, "type": "electric_scooter", "lat": 38.9156655, "is_reserved": 0, "fusion_lat": 0.0}, {"bike_id": "abcd883af50c47edb40f3a0e80ad4c56", "fusion_lon": 0.0, "lon": -77.00726983333334, "name": "abcd883af50c47edb40f3a0e80ad4c56", "is_disabled": 0, "rental_uris": {"android": "https://dc.lft.to/lastmile_qr_scan", "ios": "https://dc.lft.to/lastmile_qr_scan"}, "type": "electric_scooter", "lat": 38.877104, "is_reserved": 0, "fusion_lat": 0.0}, {"bike_id": "a050ce9bd3274c751a9ecc66eaf9760f", "fusion_lon": 0.0, "lon": -76.9733035, "name": "a050ce9bd3274c751a9ecc66eaf9760f", "is_disabled": 0, "rental_uris": {"android": "https://dc.lft.to/lastmile_qr_scan", "ios": "https://dc.lft.to/lastmile_qr_scan"}, "type": "electric_scooter", "lat": 38.904119333333334, "is_reserved": 0, "fusion_lat": 0.0}, {"bike_id": "b23c997f770561e16c8514a5a66d3727", "fusion_lon": 0.0, "lon": -77.033654, "name": "b23c997f770561e16c8514a5a66d3727", "is_disabled": 0, "rental_uris": {"android": "https://dc.lft.to/lastmile_qr_scan", "ios": "https://dc.lft.to/lastmile_qr_scan"}, "type": "electric_scooter", "lat": 38.91373316666667, "is_reserved": 0, "fusion_lat": 0.0}, {"bike_id": "be7784ea5db69e58e6d2b73af3a8bae2", "fusion_lon": 0.0, "lon": -76.9894245, "name": "be7784ea5db69e58e6d2b73af3a8bae2", "is_disabled": 0, "rental_uris": {"android": "https://dc.lft.to/lastmile_qr_scan", "ios": "https://dc.lft.to/lastmile_qr_scan"}, "type": "electric_scooter", "lat": 38.90398483333333, "is_reserved": 0, "fusion_lat": 0.0}, {"bike_id": "c10a71b1574eaef63fd54577f061c0d0", "fusion_lon": 0.0, "lon": -77.03773316666667, "name": "c10a71b1574eaef63fd54577f061c0d0", "is_disabled": 0, "rental_uris": {"android": "https://dc.lft.to/lastmile_qr_scan", "ios": "https://dc.lft.to/lastmile_qr_scan"}, "type": "electric_scooter", "lat": 38.9067625, "is_reserved": 0, "fusion_lat": 0.0}, {"bike_id": "7f903a61c061ef014c89eb1fbc788734", "fusion_lon": 0.0, "lon": -77.09479883333333, "name": "7f903a61c061ef014c89eb1fbc788734", "is_disabled": 0, "rental_uris": {"android": "https://dc.lft.to/lastmile_qr_scan", "ios": "https://dc.lft.to/lastmile_qr_scan"}, "type": "electric_bike", "lat": 39.03048916666667, "is_reserved": 0, "fusion_lat": 0.0}, {"bike_id": "76679225c7ed01b6c98a0d458322b816", "fusion_lon": 0.0, "lon": -76.99254116666667, "name": "76679225c7ed01b6c98a0d458322b816", "is_disabled": 0, "rental_uris": {"android": "https://dc.lft.to/lastmile_qr_scan", "ios": "https://dc.lft.to/lastmile_qr_scan"}, "type": "electric_scooter", "lat": 38.919697666666664, "is_reserved": 0, "fusion_lat": 0.0}, {"bike_id": "19ee3b48ab1d5f40d58219be6dd8bc68", "fusion_lon": 0.0, "lon": -77.06337633333334, "name": "19ee3b48ab1d5f40d58219be6dd8bc68", "is_disabled": 0, "rental_uris": {"android": "https://dc.lft.to/lastmile_qr_scan", "ios": "https://dc.lft.to/lastmile_qr_scan"}, "type": "electric_scooter", "lat": 38.90684133333333, "is_reserved": 0, "fusion_lat": 0.0}, {"bike_id": "ee657d29fb11e2a48778ba21d388d5c3", "fusion_lon": 0.0, "lon": -77.02317716666667, "name": "ee657d29fb11e2a48778ba21d388d5c3", "is_disabled": 0, "rental_uris": {"android": "https://dc.lft.to/lastmile_qr_scan", "ios": "https://dc.lft.to/lastmile_qr_scan"}, "type": "electric_scooter", "lat": 38.895592666666666, "is_reserved": 0, "fusion_lat": 0.0}, {"bike_id": "d8cbe3988ffa84adcc8bdf744befbf7f", "fusion_lon": 0.0, "lon": -77.0320235, "name": "d8cbe3988ffa84adcc8bdf744befbf7f", "is_disabled": 0, "rental_uris": {"android": "https://dc.lft.to/lastmile_qr_scan", "ios": "https://dc.lft.to/lastmile_qr_scan"}, "type": "electric_scooter", "lat": 38.91484616666666, "is_reserved": 0, "fusion_lat": 0.0}, {"bike_id": "7742a8dc7c8f09da6596181c7f421b56", "fusion_lon": 0.0, "lon": -77.048899, "name": "7742a8dc7c8f09da6596181c7f421b56", "is_disabled": 0, "rental_uris": {"android": "https://dc.lft.to/lastmile_qr_scan", "ios": "https://dc.lft.to/lastmile_qr_scan"}, "type": "electric_scooter", "lat": 38.9134605, "is_reserved": 0, "fusion_lat": 0.0}, {"bike_id": "7248f8c263f23acfdcafcdbc69adbea4", "fusion_lon": 0.0, "lon": -77.03046366666666, "name": "7248f8c263f23acfdcafcdbc69adbea4", "is_disabled": 0, "rental_uris": {"android": "https://dc.lft.to/lastmile_qr_scan", "ios": "https://dc.lft.to/lastmile_qr_scan"}, "type": "electric_scooter", "lat": 38.884339833333335, "is_reserved": 0, "fusion_lat": 0.0}, {"bike_id": "6a31c9009c9e4669f81b02e361a02705", "fusion_lon": 0.0, "lon": -77.02332816666667, "name": "6a31c9009c9e4669f81b02e361a02705", "is_disabled": 0, "rental_uris": {"android": "https://dc.lft.to/lastmile_qr_scan", "ios": "https://dc.lft.to/lastmile_qr_scan"}, "type": "electric_scooter", "lat": 38.92478033333333, "is_reserved": 0, "fusion_lat": 0.0}, {"bike_id": "0af8ac627afc729be81a186d5a129332", "fusion_lon": 0.0, "lon": -77.02088033333334, "name": "0af8ac627afc729be81a186d5a129332", "is_disabled": 0, "rental_uris": {"android": "https://dc.lft.to/lastmile_qr_scan", "ios": "https://dc.lft.to/lastmile_qr_scan"}, "type": "electric_scooter", "lat": 38.875739833333334, "is_reserved": 0, "fusion_lat": 0.0}, {"bike_id": "51863c88c2581c823120fd2dfa944654", "fusion_lon": 0.0, "lon": -77.0486835, "name": "51863c88c2581c823120fd2dfa944654", "is_disabled": 0, "rental_uris": {"android": "https://dc.lft.to/lastmile_qr_scan", "ios": "https://dc.lft.to/lastmile_qr_scan"}, "type": "electric_scooter", "lat": 38.91566533333334, "is_reserved": 0, "fusion_lat": 0.0}, {"bike_id": "734e8567fa6bd0cc933c6fcaf6c5cabd", "fusion_lon": 0.0, "lon": -77.029654, "name": "734e8567fa6bd0cc933c6fcaf6c5cabd", "is_disabled": 0, "rental_uris": {"android": "https://dc.lft.to/lastmile_qr_scan", "ios": "https://dc.lft.to/lastmile_qr_scan"}, "type": "electric_scooter", "lat": 38.904984666666664, "is_reserved": 0, "fusion_lat": 0.0}, {"bike_id": "7a77109ce699c0f3d74b254621f84d39", "fusion_lon": 0.0, "lon": -77.02217516666667, "name": "7a77109ce699c0f3d74b254621f84d39", "is_disabled": 0, "rental_uris": {"android": "https://dc.lft.to/lastmile_qr_scan", "ios": "https://dc.lft.to/lastmile_qr_scan"}, "type": "electric_scooter", "lat": 38.91557433333333, "is_reserved": 0, "fusion_lat": 0.0}, {"bike_id": "dcceb1ed77ac4951f55deb4f1c434b9d", "fusion_lon": 0.0, "lon": -77.01773733333333, "name": "dcceb1ed77ac4951f55deb4f1c434b9d", "is_disabled": 0, "rental_uris": {"android": "https://dc.lft.to/lastmile_qr_scan", "ios": "https://dc.lft.to/lastmile_qr_scan"}, "type": "electric_scooter", "lat": 38.87712783333333, "is_reserved": 0, "fusion_lat": 0.0}, {"bike_id": "0ce3a45c9d0820f0221b546139aec395", "fusion_lon": 0.0, "lon": -77.01747733333333, "name": "0ce3a45c9d0820f0221b546139aec395", "is_disabled": 0, "rental_uris": {"android": "https://dc.lft.to/lastmile_qr_scan", "ios": "https://dc.lft.to/lastmile_qr_scan"}, "type": "electric_scooter", "lat": 38.877725833333336, "is_reserved": 0, "fusion_lat": 0.0}, {"bike_id": "492535dd6ad0d2430c551a5b6c784726", "fusion_lon": 0.0, "lon": -77.047263, "name": "492535dd6ad0d2430c551a5b6c784726", "is_disabled": 0, "rental_uris": {"android": "https://dc.lft.to/lastmile_qr_scan", "ios": "https://dc.lft.to/lastmile_qr_scan"}, "type": "electric_scooter", "lat": 38.90128433333334, "is_reserved": 0, "fusion_lat": 0.0}, {"bike_id": "9a99eb28643642e698c77dc5474a8d51", "fusion_lon": 0.0, "lon": -77.0996055, "name": "9a99eb28643642e698c77dc5474a8d51", "is_disabled": 0, "rental_uris": {"android": "https://dc.lft.to/lastmile_qr_scan", "ios": "https://dc.lft.to/lastmile_qr_scan"}, "type": "electric_bike", "lat": 38.8578875, "is_reserved": 0, "fusion_lat": 0.0}, {"bike_id": "94820401272d614ac4a4d70c93773896", "fusion_lon": 0.0, "lon": -77.02477283333333, "name": "94820401272d614ac4a4d70c93773896", "is_disabled": 0, "rental_uris": {"android": "https://dc.lft.to/lastmile_qr_scan", "ios": "https://dc.lft.to/lastmile_qr_scan"}, "type": "electric_scooter", "lat": 38.90978966666667, "is_reserved": 0, "fusion_lat": 0.0}, {"bike_id": "3727b686bfe42c022e5b64c5875c9d9a", "fusion_lon": 0.0, "lon": -77.09802466666666, "name": "3727b686bfe42c022e5b64c5875c9d9a", "is_disabled": 0, "rental_uris": {"android": "https://dc.lft.to/lastmile_qr_scan", "ios": "https://dc.lft.to/lastmile_qr_scan"}, "type": "electric_bike", "lat": 38.85032966666667, "is_reserved": 0, "fusion_lat": 0.0}, {"bike_id": "2e17072594289ee80c6cc69f30bc21ca", "fusion_lon": 0.0, "lon": -77.048065, "name": "2e17072594289ee80c6cc69f30bc21ca", "is_disabled": 0, "rental_uris": {"android": "https://dc.lft.to/lastmile_qr_scan", "ios": "https://dc.lft.to/lastmile_qr_scan"}, "type": "electric_scooter", "lat": 38.90218866666667, "is_reserved": 0, "fusion_lat": 0.0}, {"bike_id": "bcf361c59eec57c7466af6ad0d026929", "fusion_lon": 0.0, "lon": -76.99541066666667, "name": "bcf361c59eec57c7466af6ad0d026929", "is_disabled": 0, "rental_uris": {"android": "https://dc.lft.to/lastmile_qr_scan", "ios": "https://dc.lft.to/lastmile_qr_scan"}, "type": "electric_scooter", "lat": 38.92669333333333, "is_reserved": 0, "fusion_lat": 0.0}, {"bike_id": "f5ae0476f6465925dae063d62be8df6f", "fusion_lon": 0.0, "lon": -76.92875833333333, "name": "f5ae0476f6465925dae063d62be8df6f", "is_disabled": 0, "rental_uris": {"android": "https://dc.lft.to/lastmile_qr_scan", "ios": "https://dc.lft.to/lastmile_qr_scan"}, "type": "electric_scooter", "lat": 38.88524366666667, "is_reserved": 0, "fusion_lat": 0.0}, {"bike_id": "fa98fddca5162e6d440bc464b1c8c6c4", "fusion_lon": 0.0, "lon": -77.00148683333333, "name": "fa98fddca5162e6d440bc464b1c8c6c4", "is_disabled": 0, "rental_uris": {"android": "https://dc.lft.to/lastmile_qr_scan", "ios": "https://dc.lft.to/lastmile_qr_scan"}, "type": "electric_scooter", "lat": 38.907386833333334, "is_reserved": 0, "fusion_lat": 0.0}, {"bike_id": "92225dd3756239034fcdf6ed40a9b29b", "fusion_lon": 0.0, "lon": -77.02970733333333, "name": "92225dd3756239034fcdf6ed40a9b29b", "is_disabled": 0, "rental_uris": {"android": "https://dc.lft.to/lastmile_qr_scan", "ios": "https://dc.lft.to/lastmile_qr_scan"}, "type": "electric_scooter", "lat": 38.90742433333333, "is_reserved": 0, "fusion_lat": 0.0}, {"bike_id": "fdf0c1096f9dfb863b895aa4f8ee728b", "fusion_lon": 0.0, "lon": -76.97943266666667, "name": "fdf0c1096f9dfb863b895aa4f8ee728b", "is_disabled": 0, "rental_uris": {"android": "https://dc.lft.to/lastmile_qr_scan", "ios": "https://dc.lft.to/lastmile_qr_scan"}, "type": "electric_scooter", "lat": 38.9452755, "is_reserved": 0, "fusion_lat": 0.0}, {"bike_id": "4a1cb016175d659cb8978c8effbd5fd8", "fusion_lon": 0.0, "lon": -77.00961683333334, "name": "4a1cb016175d659cb8978c8effbd5fd8", "is_disabled": 0, "rental_uris": {"android": "https://dc.lft.to/lastmile_qr_scan", "ios": "https://dc.lft.to/lastmile_qr_scan"}, "type": "electric_scooter", "lat": 38.90790766666667, "is_reserved": 0, "fusion_lat": 0.0}, {"bike_id": "3035e71113e03608917eb74948808a3e", "fusion_lon": 0.0, "lon": -77.02664783333333, "name": "3035e71113e03608917eb74948808a3e", "is_disabled": 0, "rental_uris": {"android": "https://dc.lft.to/lastmile_qr_scan", "ios": "https://dc.lft.to/lastmile_qr_scan"}, "type": "electric_scooter", "lat": 38.922191833333336, "is_reserved": 0, "fusion_lat": 0.0}, {"bike_id": "c1416873a0cf57f9aec5196b690fbe64", "fusion_lon": 0.0, "lon": -77.0206745, "name": "c1416873a0cf57f9aec5196b690fbe64", "is_disabled": 0, "rental_uris": {"android": "https://dc.lft.to/lastmile_qr_scan", "ios": "https://dc.lft.to/lastmile_qr_scan"}, "type": "electric_bike", "lat": 38.96442233333333, "is_reserved": 0, "fusion_lat": 0.0}, {"bike_id": "29d3568e1ee88fc8655ca61d16c7973d", "fusion_lon": 0.0, "lon": -77.04674733333333, "name": "29d3568e1ee88fc8655ca61d16c7973d", "is_disabled": 0, "rental_uris": {"android": "https://dc.lft.to/lastmile_qr_scan", "ios": "https://dc.lft.to/lastmile_qr_scan"}, "type": "electric_scooter", "lat": 38.9054765, "is_reserved": 0, "fusion_lat": 0.0}, {"bike_id": "84de3cc8366127f4338cde3fa24bf8e1", "fusion_lon": 0.0, "lon": -77.03592266666666, "name": "84de3cc8366127f4338cde3fa24bf8e1", "is_disabled": 0, "rental_uris": {"android": "https://dc.lft.to/lastmile_qr_scan", "ios": "https://dc.lft.to/lastmile_qr_scan"}, "type": "electric_scooter", "lat": 38.912685333333336, "is_reserved": 0, "fusion_lat": 0.0}, {"bike_id": "514985da0bb715f334150c29cb4b3348", "fusion_lon": 0.0, "lon": -77.0209905, "name": "514985da0bb715f334150c29cb4b3348", "is_disabled": 0, "rental_uris": {"android": "https://dc.lft.to/lastmile_qr_scan", "ios": "https://dc.lft.to/lastmile_qr_scan"}, "type": "electric_scooter", "lat": 38.91109016666667, "is_reserved": 0, "fusion_lat": 0.0}, {"bike_id": "d83738177dae0c8caa133c4059ea91dc", "fusion_lon": 0.0, "lon": -77.02905283333334, "name": "d83738177dae0c8caa133c4059ea91dc", "is_disabled": 0, "rental_uris": {"android": "https://dc.lft.to/lastmile_qr_scan", "ios": "https://dc.lft.to/lastmile_qr_scan"}, "type": "electric_scooter", "lat": 38.9281575, "is_reserved": 0, "fusion_lat": 0.0}, {"bike_id": "f959405b008f7b7eba05516862d878f4", "fusion_lon": 0.0, "lon": -77.02456866666667, "name": "f959405b008f7b7eba05516862d878f4", "is_disabled": 0, "rental_uris": {"android": "https://dc.lft.to/lastmile_qr_scan", "ios": "https://dc.lft.to/lastmile_qr_scan"}, "type": "electric_scooter", "lat": 38.91883416666667, "is_reserved": 0, "fusion_lat": 0.0}, {"bike_id": "53a63cbbafe65cb920371e1c9022cd80", "fusion_lon": 0.0, "lon": -77.03749916666666, "name": "53a63cbbafe65cb920371e1c9022cd80", "is_disabled": 0, "rental_uris": {"android": "https://dc.lft.to/lastmile_qr_scan", "ios": "https://dc.lft.to/lastmile_qr_scan"}, "type": "electric_scooter", "lat": 38.926036, "is_reserved": 0, "fusion_lat": 0.0}, {"bike_id": "6e0a2ea7bdb8326266ba33dd25298ec7", "fusion_lon": 0.0, "lon": -76.9950755, "name": "6e0a2ea7bdb8326266ba33dd25298ec7", "is_disabled": 0, "rental_uris": {"android": "https://dc.lft.to/lastmile_qr_scan", "ios": "https://dc.lft.to/lastmile_qr_scan"}, "type": "electric_scooter", "lat": 38.8916605, "is_reserved": 0, "fusion_lat": 0.0}, {"bike_id": "8693d52091c07820eb82195d74a08bd3", "fusion_lon": 0.0, "lon": -77.00919033333334, "name": "8693d52091c07820eb82195d74a08bd3", "is_disabled": 0, "rental_uris": {"android": "https://dc.lft.to/lastmile_qr_scan", "ios": "https://dc.lft.to/lastmile_qr_scan"}, "type": "electric_scooter", "lat": 38.8278855, "is_reserved": 0, "fusion_lat": 0.0}, {"bike_id": "c1a2e3c71660e44adc2f94ee58541854", "fusion_lon": 0.0, "lon": -77.01853666666666, "name": "c1a2e3c71660e44adc2f94ee58541854", "is_disabled": 0, "rental_uris": {"android": "https://dc.lft.to/lastmile_qr_scan", "ios": "https://dc.lft.to/lastmile_qr_scan"}, "type": "electric_scooter", "lat": 38.97370433333333, "is_reserved": 0, "fusion_lat": 0.0}, {"bike_id": "f9ff5115fc88af1a91db2ad6f4eaf9d1", "fusion_lon": 0.0, "lon": -77.00928933333333, "name": "f9ff5115fc88af1a91db2ad6f4eaf9d1", "is_disabled": 0, "rental_uris": {"android": "https://dc.lft.to/lastmile_qr_scan", "ios": "https://dc.lft.to/lastmile_qr_scan"}, "type": "electric_scooter", "lat": 38.8973285, "is_reserved": 0, "fusion_lat": 0.0}, {"bike_id": "26f13a7af25d95b5399e34445fb4731a", "fusion_lon": 0.0, "lon": -77.03185616666667, "name": "26f13a7af25d95b5399e34445fb4731a", "is_disabled": 0, "rental_uris": {"android": "https://dc.lft.to/lastmile_qr_scan", "ios": "https://dc.lft.to/lastmile_qr_scan"}, "type": "electric_scooter", "lat": 38.92488616666667, "is_reserved": 0, "fusion_lat": 0.0}, {"bike_id": "e21f0d9cf955e64dfaf6368b291a2b44", "fusion_lon": 0.0, "lon": -76.9805875, "name": "e21f0d9cf955e64dfaf6368b291a2b44", "is_disabled": 0, "rental_uris": {"android": "https://dc.lft.to/lastmile_qr_scan", "ios": "https://dc.lft.to/lastmile_qr_scan"}, "type": "electric_scooter", "lat": 38.901781, "is_reserved": 0, "fusion_lat": 0.0}, {"bike_id": "ca2be359fd822f6986e9c87dd1a572cf", "fusion_lon": 0.0, "lon": -77.02121433333333, "name": "ca2be359fd822f6986e9c87dd1a572cf", "is_disabled": 0, "rental_uris": {"android": "https://dc.lft.to/lastmile_qr_scan", "ios": "https://dc.lft.to/lastmile_qr_scan"}, "type": "electric_scooter", "lat": 38.8873925, "is_reserved": 0, "fusion_lat": 0.0}, {"bike_id": "789dcd30c6ba89cd39b098b31023bdf2", "fusion_lon": 0.0, "lon": -76.95755583333333, "name": "789dcd30c6ba89cd39b098b31023bdf2", "is_disabled": 0, "rental_uris": {"android": "https://dc.lft.to/lastmile_qr_scan", "ios": "https://dc.lft.to/lastmile_qr_scan"}, "type": "electric_scooter", "lat": 38.88431383333333, "is_reserved": 0, "fusion_lat": 0.0}, {"bike_id": "f760658bdbe64d8679dd4199771421b3", "fusion_lon": 0.0, "lon": -77.10603666666667, "name": "f760658bdbe64d8679dd4199771421b3", "is_disabled": 0, "rental_uris": {"android": "https://dc.lft.to/lastmile_qr_scan", "ios": "https://dc.lft.to/lastmile_qr_scan"}, "type": "electric_bike", "lat": 38.92899033333333, "is_reserved": 0, "fusion_lat": 0.0}, {"bike_id": "c43f5436cd821b9a19076697da0d9eb1", "fusion_lon": 0.0, "lon": -77.01576983333334, "name": "c43f5436cd821b9a19076697da0d9eb1", "is_disabled": 0, "rental_uris": {"android": "https://dc.lft.to/lastmile_qr_scan", "ios": "https://dc.lft.to/lastmile_qr_scan"}, "type": "electric_scooter", "lat": 38.916830166666664, "is_reserved": 0, "fusion_lat": 0.0}, {"bike_id": "3a8be227fd41bfe8ec08e8be13e70f9c", "fusion_lon": 0.0, "lon": -77.04481033333333, "name": "3a8be227fd41bfe8ec08e8be13e70f9c", "is_disabled": 0, "rental_uris": {"android": "https://dc.lft.to/lastmile_qr_scan", "ios": "https://dc.lft.to/lastmile_qr_scan"}, "type": "electric_scooter", "lat": 38.911665, "is_reserved": 0, "fusion_lat": 0.0}, {"bike_id": "a303af658fe49111e0540fa9055471ad", "fusion_lon": 0.0, "lon": -76.9977955, "name": "a303af658fe49111e0540fa9055471ad", "is_disabled": 0, "rental_uris": {"android": "https://dc.lft.to/lastmile_qr_scan", "ios": "https://dc.lft.to/lastmile_qr_scan"}, "type": "electric_scooter", "lat": 38.8442865, "is_reserved": 0, "fusion_lat": 0.0}, {"bike_id": "0ddce5f104a1167273172be7984c51f4", "fusion_lon": 0.0, "lon": -77.025907, "name": "0ddce5f104a1167273172be7984c51f4", "is_disabled": 0, "rental_uris": {"android": "https://dc.lft.to/lastmile_qr_scan", "ios": "https://dc.lft.to/lastmile_qr_scan"}, "type": "electric_scooter", "lat": 38.90553033333333, "is_reserved": 0, "fusion_lat": 0.0}, {"bike_id": "01b64b8594efdd488459167e80e6388a", "fusion_lon": 0.0, "lon": -77.04594966666667, "name": "01b64b8594efdd488459167e80e6388a", "is_disabled": 0, "rental_uris": {"android": "https://dc.lft.to/lastmile_qr_scan", "ios": "https://dc.lft.to/lastmile_qr_scan"}, "type": "electric_scooter", "lat": 38.91865816666667, "is_reserved": 0, "fusion_lat": 0.0}, {"bike_id": "e1ced4852b6dd6fa6d835e6260d6a7c4", "fusion_lon": 0.0, "lon": -77.00268283333334, "name": "e1ced4852b6dd6fa6d835e6260d6a7c4", "is_disabled": 0, "rental_uris": {"android": "https://dc.lft.to/lastmile_qr_scan", "ios": "https://dc.lft.to/lastmile_qr_scan"}, "type": "electric_scooter", "lat": 38.905881, "is_reserved": 0, "fusion_lat": 0.0}, {"bike_id": "3e2ffc53b753e1a0d0e45586262d6c2b", "fusion_lon": 0.0, "lon": -76.94967866666667, "name": "3e2ffc53b753e1a0d0e45586262d6c2b", "is_disabled": 0, "rental_uris": {"android": "https://dc.lft.to/lastmile_qr_scan", "ios": "https://dc.lft.to/lastmile_qr_scan"}, "type": "electric_scooter", "lat": 38.8936115, "is_reserved": 0, "fusion_lat": 0.0}, {"bike_id": "223f0644b841644c7770a17df967deae", "fusion_lon": 0.0, "lon": -77.03448333333333, "name": "223f0644b841644c7770a17df967deae", "is_disabled": 0, "rental_uris": {"android": "https://dc.lft.to/lastmile_qr_scan", "ios": "https://dc.lft.to/lastmile_qr_scan"}, "type": "electric_scooter", "lat": 38.90554866666667, "is_reserved": 0, "fusion_lat": 0.0}, {"bike_id": "656fa90f2b8af8de5de7171b0b2539f8", "fusion_lon": 0.0, "lon": -77.0486375, "name": "656fa90f2b8af8de5de7171b0b2539f8", "is_disabled": 0, "rental_uris": {"android": "https://dc.lft.to/lastmile_qr_scan", "ios": "https://dc.lft.to/lastmile_qr_scan"}, "type": "electric_scooter", "lat": 38.915273666666664, "is_reserved": 0, "fusion_lat": 0.0}, {"bike_id": "74ac76d61b947bf7fb93e8177ada7b3c", "fusion_lon": 0.0, "lon": -77.00114766666667, "name": "74ac76d61b947bf7fb93e8177ada7b3c", "is_disabled": 0, "rental_uris": {"android": "https://dc.lft.to/lastmile_qr_scan", "ios": "https://dc.lft.to/lastmile_qr_scan"}, "type": "electric_scooter", "lat": 38.876264666666664, "is_reserved": 0, "fusion_lat": 0.0}, {"bike_id": "89eb1a6489fc0e4179005bb5931f262d", "fusion_lon": 0.0, "lon": -77.04146633333333, "name": "89eb1a6489fc0e4179005bb5931f262d", "is_disabled": 0, "rental_uris": {"android": "https://dc.lft.to/lastmile_qr_scan", "ios": "https://dc.lft.to/lastmile_qr_scan"}, "type": "electric_scooter", "lat": 38.9155345, "is_reserved": 0, "fusion_lat": 0.0}, {"bike_id": "e951b1be16161dee1aad3fbd66584e86", "fusion_lon": 0.0, "lon": -76.98066233333333, "name": "e951b1be16161dee1aad3fbd66584e86", "is_disabled": 0, "rental_uris": {"android": "https://dc.lft.to/lastmile_qr_scan", "ios": "https://dc.lft.to/lastmile_qr_scan"}, "type": "electric_scooter", "lat": 38.884944, "is_reserved": 0, "fusion_lat": 0.0}, {"bike_id": "ebb54956f6fde07f103196541b19f802", "fusion_lon": 0.0, "lon": -77.04336983333333, "name": "ebb54956f6fde07f103196541b19f802", "is_disabled": 0, "rental_uris": {"android": "https://dc.lft.to/lastmile_qr_scan", "ios": "https://dc.lft.to/lastmile_qr_scan"}, "type": "electric_scooter", "lat": 38.89724433333333, "is_reserved": 0, "fusion_lat": 0.0}, {"bike_id": "12bea851a185d7fc7557e8f4e184e444", "fusion_lon": 0.0, "lon": -77.03908016666666, "name": "12bea851a185d7fc7557e8f4e184e444", "is_disabled": 0, "rental_uris": {"android": "https://dc.lft.to/lastmile_qr_scan", "ios": "https://dc.lft.to/lastmile_qr_scan"}, "type": "electric_scooter", "lat": 38.914193166666664, "is_reserved": 0, "fusion_lat": 0.0}, {"bike_id": "8d938ccf7598e6692783d3b9f7118153", "fusion_lon": 0.0, "lon": -77.02186733333333, "name": "8d938ccf7598e6692783d3b9f7118153", "is_disabled": 0, "rental_uris": {"android": "https://dc.lft.to/lastmile_qr_scan", "ios": "https://dc.lft.to/lastmile_qr_scan"}, "type": "electric_scooter", "lat": 38.9105735, "is_reserved": 0, "fusion_lat": 0.0}, {"bike_id": "8779c52d71e297abe5ce11cdd0efaba4", "fusion_lon": 0.0, "lon": -77.01532416666667, "name": "8779c52d71e297abe5ce11cdd0efaba4", "is_disabled": 0, "rental_uris": {"android": "https://dc.lft.to/lastmile_qr_scan", "ios": "https://dc.lft.to/lastmile_qr_scan"}, "type": "electric_scooter", "lat": 38.887422, "is_reserved": 0, "fusion_lat": 0.0}, {"bike_id": "e5c5cc24bc0acd9c38ff087f4a78b8fc", "fusion_lon": 0.0, "lon": -76.993933, "name": "e5c5cc24bc0acd9c38ff087f4a78b8fc", "is_disabled": 0, "rental_uris": {"android": "https://dc.lft.to/lastmile_qr_scan", "ios": "https://dc.lft.to/lastmile_qr_scan"}, "type": "electric_scooter", "lat": 38.8973055, "is_reserved": 0, "fusion_lat": 0.0}, {"bike_id": "759243f9f19e377fb1c1d83848118d81", "fusion_lon": 0.0, "lon": -77.01842033333334, "name": "759243f9f19e377fb1c1d83848118d81", "is_disabled": 0, "rental_uris": {"android": "https://dc.lft.to/lastmile_qr_scan", "ios": "https://dc.lft.to/lastmile_qr_scan"}, "type": "electric_scooter", "lat": 38.904024666666665, "is_reserved": 0, "fusion_lat": 0.0}, {"bike_id": "cb118d97cea0b23053cc68d4dd7a12d6", "fusion_lon": 0.0, "lon": -77.08189733333333, "name": "cb118d97cea0b23053cc68d4dd7a12d6", "is_disabled": 0, "rental_uris": {"android": "https://dc.lft.to/lastmile_qr_scan", "ios": "https://dc.lft.to/lastmile_qr_scan"}, "type": "electric_scooter", "lat": 38.93551516666667, "is_reserved": 0, "fusion_lat": 0.0}, {"bike_id": "f0b4d0a8606eeb34ddc13cd17fe197d2", "fusion_lon": 0.0, "lon": -77.02958666666666, "name": "f0b4d0a8606eeb34ddc13cd17fe197d2", "is_disabled": 0, "rental_uris": {"android": "https://dc.lft.to/lastmile_qr_scan", "ios": "https://dc.lft.to/lastmile_qr_scan"}, "type": "electric_scooter", "lat": 38.92688416666667, "is_reserved": 0, "fusion_lat": 0.0}, {"bike_id": "0a7c5413e9bdf8bdc3dca96db9c38610", "fusion_lon": 0.0, "lon": -77.002097, "name": "0a7c5413e9bdf8bdc3dca96db9c38610", "is_disabled": 0, "rental_uris": {"android": "https://dc.lft.to/lastmile_qr_scan", "ios": "https://dc.lft.to/lastmile_qr_scan"}, "type": "electric_scooter", "lat": 38.89727383333334, "is_reserved": 0, "fusion_lat": 0.0}, {"bike_id": "69973618a0e63f2961801cf2472cbeee", "fusion_lon": 0.0, "lon": -77.04555466666666, "name": "69973618a0e63f2961801cf2472cbeee", "is_disabled": 0, "rental_uris": {"android": "https://dc.lft.to/lastmile_qr_scan", "ios": "https://dc.lft.to/lastmile_qr_scan"}, "type": "electric_scooter", "lat": 38.91771983333334, "is_reserved": 0, "fusion_lat": 0.0}, {"bike_id": "8f95036847921d6e7831465d52053955", "fusion_lon": 0.0, "lon": -77.01784083333334, "name": "8f95036847921d6e7831465d52053955", "is_disabled": 0, "rental_uris": {"android": "https://dc.lft.to/lastmile_qr_scan", "ios": "https://dc.lft.to/lastmile_qr_scan"}, "type": "electric_scooter", "lat": 38.9111265, "is_reserved": 0, "fusion_lat": 0.0}, {"bike_id": "6046996a7a5ae7305ae2097798813c72", "fusion_lon": 0.0, "lon": -77.01982066666666, "name": "6046996a7a5ae7305ae2097798813c72", "is_disabled": 0, "rental_uris": {"android": "https://dc.lft.to/lastmile_qr_scan", "ios": "https://dc.lft.to/lastmile_qr_scan"}, "type": "electric_scooter", "lat": 38.8861805, "is_reserved": 0, "fusion_lat": 0.0}, {"bike_id": "fcba84ab847d8d1e7dc89bb6b34f548a", "fusion_lon": 0.0, "lon": -77.0174525, "name": "fcba84ab847d8d1e7dc89bb6b34f548a", "is_disabled": 0, "rental_uris": {"android": "https://dc.lft.to/lastmile_qr_scan", "ios": "https://dc.lft.to/lastmile_qr_scan"}, "type": "electric_scooter", "lat": 38.91118316666667, "is_reserved": 0, "fusion_lat": 0.0}, {"bike_id": "3b514fcf73e8fc1e1751688c7a0728d5", "fusion_lon": 0.0, "lon": -77.03103133333333, "name": "3b514fcf73e8fc1e1751688c7a0728d5", "is_disabled": 0, "rental_uris": {"android": "https://dc.lft.to/lastmile_qr_scan", "ios": "https://dc.lft.to/lastmile_qr_scan"}, "type": "electric_scooter", "lat": 38.89848933333333, "is_reserved": 0, "fusion_lat": 0.0}, {"bike_id": "806cb3638430b789df6c89dd4077c2e2", "fusion_lon": 0.0, "lon": -77.02989166666667, "name": "806cb3638430b789df6c89dd4077c2e2", "is_disabled": 0, "rental_uris": {"android": "https://dc.lft.to/lastmile_qr_scan", "ios": "https://dc.lft.to/lastmile_qr_scan"}, "type": "electric_scooter", "lat": 38.923808666666666, "is_reserved": 0, "fusion_lat": 0.0}, {"bike_id": "2f6fec23b8075f52335c250cb0c4b481", "fusion_lon": 0.0, "lon": -77.02303766666667, "name": "2f6fec23b8075f52335c250cb0c4b481", "is_disabled": 0, "rental_uris": {"android": "https://dc.lft.to/lastmile_qr_scan", "ios": "https://dc.lft.to/lastmile_qr_scan"}, "type": "electric_scooter", "lat": 38.9359615, "is_reserved": 0, "fusion_lat": 0.0}, {"bike_id": "b7fcf70598bcee0978aa93af4994fb83", "fusion_lon": 0.0, "lon": -77.12075316666666, "name": "b7fcf70598bcee0978aa93af4994fb83", "is_disabled": 0, "rental_uris": {"android": "https://dc.lft.to/lastmile_qr_scan", "ios": "https://dc.lft.to/lastmile_qr_scan"}, "type": "electric_bike", "lat": 38.854219666666665, "is_reserved": 0, "fusion_lat": 0.0}, {"bike_id": "b787e39d110cc69a22fde590325dd2c2", "fusion_lon": 0.0, "lon": -77.03289133333334, "name": "b787e39d110cc69a22fde590325dd2c2", "is_disabled": 0, "rental_uris": {"android": "https://dc.lft.to/lastmile_qr_scan", "ios": "https://dc.lft.to/lastmile_qr_scan"}, "type": "electric_scooter", "lat": 38.919912, "is_reserved": 0, "fusion_lat": 0.0}, {"bike_id": "6246899a06359e5d254484a58d3ea056", "fusion_lon": 0.0, "lon": -77.00730183333333, "name": "6246899a06359e5d254484a58d3ea056", "is_disabled": 0, "rental_uris": {"android": "https://dc.lft.to/lastmile_qr_scan", "ios": "https://dc.lft.to/lastmile_qr_scan"}, "type": "electric_scooter", "lat": 38.88493733333333, "is_reserved": 0, "fusion_lat": 0.0}, {"bike_id": "8cec1781a3364e92c7d944360af6b832", "fusion_lon": 0.0, "lon": -77.03355983333333, "name": "8cec1781a3364e92c7d944360af6b832", "is_disabled": 0, "rental_uris": {"android": "https://dc.lft.to/lastmile_qr_scan", "ios": "https://dc.lft.to/lastmile_qr_scan"}, "type": "electric_scooter", "lat": 38.89838183333333, "is_reserved": 0, "fusion_lat": 0.0}, {"bike_id": "9add6d7caed3ad4e415484f336662189", "fusion_lon": 0.0, "lon": -76.95410083333333, "name": "9add6d7caed3ad4e415484f336662189", "is_disabled": 0, "rental_uris": {"android": "https://dc.lft.to/lastmile_qr_scan", "ios": "https://dc.lft.to/lastmile_qr_scan"}, "type": "electric_bike", "lat": 38.89012316666667, "is_reserved": 0, "fusion_lat": 0.0}, {"bike_id": "e422e0d93946182963234d513248e8a0", "fusion_lon": 0.0, "lon": -77.01627833333333, "name": "e422e0d93946182963234d513248e8a0", "is_disabled": 0, "rental_uris": {"android": "https://dc.lft.to/lastmile_qr_scan", "ios": "https://dc.lft.to/lastmile_qr_scan"}, "type": "electric_scooter", "lat": 38.899628666666665, "is_reserved": 0, "fusion_lat": 0.0}, {"bike_id": "9af45ee1c797067cc8d7418f988fcf58", "fusion_lon": 0.0, "lon": -77.11246283333334, "name": "9af45ee1c797067cc8d7418f988fcf58", "is_disabled": 0, "rental_uris": {"android": "https://dc.lft.to/lastmile_qr_scan", "ios": "https://dc.lft.to/lastmile_qr_scan"}, "type": "electric_bike", "lat": 38.85608966666667, "is_reserved": 0, "fusion_lat": 0.0}, {"bike_id": "12e281b6579b72bc437790da11ea5f4a", "fusion_lon": 0.0, "lon": -77.05403083333333, "name": "12e281b6579b72bc437790da11ea5f4a", "is_disabled": 0, "rental_uris": {"android": "https://dc.lft.to/lastmile_qr_scan", "ios": "https://dc.lft.to/lastmile_qr_scan"}, "type": "electric_scooter", "lat": 38.92815, "is_reserved": 0, "fusion_lat": 0.0}, {"bike_id": "fa3ca2e2fc351cd83bb7de768fdfa3ed", "fusion_lon": 0.0, "lon": -77.0033585, "name": "fa3ca2e2fc351cd83bb7de768fdfa3ed", "is_disabled": 0, "rental_uris": {"android": "https://dc.lft.to/lastmile_qr_scan", "ios": "https://dc.lft.to/lastmile_qr_scan"}, "type": "electric_scooter", "lat": 38.901148666666664, "is_reserved": 0, "fusion_lat": 0.0}, {"bike_id": "65042623970a4cd0ccfc7eb216a614c9", "fusion_lon": 0.0, "lon": -76.94754566666667, "name": "65042623970a4cd0ccfc7eb216a614c9", "is_disabled": 0, "rental_uris": {"android": "https://dc.lft.to/lastmile_qr_scan", "ios": "https://dc.lft.to/lastmile_qr_scan"}, "type": "electric_scooter", "lat": 38.89674266666667, "is_reserved": 0, "fusion_lat": 0.0}, {"bike_id": "698a96b1b78924793c4dcb05a5a2e5b4", "fusion_lon": 0.0, "lon": -77.0319285, "name": "698a96b1b78924793c4dcb05a5a2e5b4", "is_disabled": 0, "rental_uris": {"android": "https://dc.lft.to/lastmile_qr_scan", "ios": "https://dc.lft.to/lastmile_qr_scan"}, "type": "electric_scooter", "lat": 38.91583033333333, "is_reserved": 0, "fusion_lat": 0.0}, {"bike_id": "3e550a06eb881819508611e72c410947", "fusion_lon": 0.0, "lon": -77.043374, "name": "3e550a06eb881819508611e72c410947", "is_disabled": 0, "rental_uris": {"android": "https://dc.lft.to/lastmile_qr_scan", "ios": "https://dc.lft.to/lastmile_qr_scan"}, "type": "electric_scooter", "lat": 38.9073045, "is_reserved": 0, "fusion_lat": 0.0}, {"bike_id": "9d8e36d6e70e02d120c174b0e1d7d3be", "fusion_lon": 0.0, "lon": -77.0337195, "name": "9d8e36d6e70e02d120c174b0e1d7d3be", "is_disabled": 0, "rental_uris": {"android": "https://dc.lft.to/lastmile_qr_scan", "ios": "https://dc.lft.to/lastmile_qr_scan"}, "type": "electric_scooter", "lat": 38.93223883333334, "is_reserved": 0, "fusion_lat": 0.0}, {"bike_id": "10f8c417729f670d3922112260c4f76e", "fusion_lon": 0.0, "lon": -77.02319783333333, "name": "10f8c417729f670d3922112260c4f76e", "is_disabled": 0, "rental_uris": {"android": "https://dc.lft.to/lastmile_qr_scan", "ios": "https://dc.lft.to/lastmile_qr_scan"}, "type": "electric_scooter", "lat": 38.919417, "is_reserved": 0, "fusion_lat": 0.0}, {"bike_id": "57ef88c9d94ba95e808c29569cdc9d0a", "fusion_lon": 0.0, "lon": -77.027878, "name": "57ef88c9d94ba95e808c29569cdc9d0a", "is_disabled": 0, "rental_uris": {"android": "https://dc.lft.to/lastmile_qr_scan", "ios": "https://dc.lft.to/lastmile_qr_scan"}, "type": "electric_scooter", "lat": 38.93063083333333, "is_reserved": 0, "fusion_lat": 0.0}, {"bike_id": "b3e28d5afb2e7b37a9b9c92c5dd88f40", "fusion_lon": 0.0, "lon": -77.05109116666667, "name": "b3e28d5afb2e7b37a9b9c92c5dd88f40", "is_disabled": 0, "rental_uris": {"android": "https://dc.lft.to/lastmile_qr_scan", "ios": "https://dc.lft.to/lastmile_qr_scan"}, "type": "electric_scooter", "lat": 38.90532283333334, "is_reserved": 0, "fusion_lat": 0.0}, {"bike_id": "99c9546fb6cf1968f3401bee4cc95af8", "fusion_lon": 0.0, "lon": -77.06079983333333, "name": "99c9546fb6cf1968f3401bee4cc95af8", "is_disabled": 0, "rental_uris": {"android": "https://dc.lft.to/lastmile_qr_scan", "ios": "https://dc.lft.to/lastmile_qr_scan"}, "type": "electric_bike", "lat": 38.885822166666664, "is_reserved": 0, "fusion_lat": 0.0}, {"bike_id": "526dc534b672c19b2b4a6d38d876ba92", "fusion_lon": 0.0, "lon": -77.03208616666667, "name": "526dc534b672c19b2b4a6d38d876ba92", "is_disabled": 0, "rental_uris": {"android": "https://dc.lft.to/lastmile_qr_scan", "ios": "https://dc.lft.to/lastmile_qr_scan"}, "type": "electric_scooter", "lat": 38.914738, "is_reserved": 0, "fusion_lat": 0.0}, {"bike_id": "a430a38661e8644588b3bc59d98d7734", "fusion_lon": 0.0, "lon": -77.014786, "name": "a430a38661e8644588b3bc59d98d7734", "is_disabled": 0, "rental_uris": {"android": "https://dc.lft.to/lastmile_qr_scan", "ios": "https://dc.lft.to/lastmile_qr_scan"}, "type": "electric_scooter", "lat": 38.87628866666667, "is_reserved": 0, "fusion_lat": 0.0}, {"bike_id": "5ea3b49b502dfb2b4bd3f131d986e42e", "fusion_lon": 0.0, "lon": -77.0271905, "name": "5ea3b49b502dfb2b4bd3f131d986e42e", "is_disabled": 0, "rental_uris": {"android": "https://dc.lft.to/lastmile_qr_scan", "ios": "https://dc.lft.to/lastmile_qr_scan"}, "type": "electric_scooter", "lat": 38.906765666666665, "is_reserved": 0, "fusion_lat": 0.0}, {"bike_id": "b99bc34e98389226c1b91f786d0fd7d2", "fusion_lon": 0.0, "lon": -77.13105916666666, "name": "b99bc34e98389226c1b91f786d0fd7d2", "is_disabled": 0, "rental_uris": {"android": "https://dc.lft.to/lastmile_qr_scan", "ios": "https://dc.lft.to/lastmile_qr_scan"}, "type": "electric_bike", "lat": 39.024351833333334, "is_reserved": 0, "fusion_lat": 0.0}, {"bike_id": "d0be4b730d69bc017c1d5f3e274beb00", "fusion_lon": 0.0, "lon": -76.98998316666666, "name": "d0be4b730d69bc017c1d5f3e274beb00", "is_disabled": 0, "rental_uris": {"android": "https://dc.lft.to/lastmile_qr_scan", "ios": "https://dc.lft.to/lastmile_qr_scan"}, "type": "electric_scooter", "lat": 38.9244975, "is_reserved": 0, "fusion_lat": 0.0}, {"bike_id": "41c950ab4801f9070fc885e4a828338d", "fusion_lon": 0.0, "lon": -77.0275325, "name": "41c950ab4801f9070fc885e4a828338d", "is_disabled": 0, "rental_uris": {"android": "https://dc.lft.to/lastmile_qr_scan", "ios": "https://dc.lft.to/lastmile_qr_scan"}, "type": "electric_scooter", "lat": 38.951667, "is_reserved": 0, "fusion_lat": 0.0}, {"bike_id": "bc610f4fcfa7bfbe441ba03e50e262ff", "fusion_lon": 0.0, "lon": -77.02092816666666, "name": "bc610f4fcfa7bfbe441ba03e50e262ff", "is_disabled": 0, "rental_uris": {"android": "https://dc.lft.to/lastmile_qr_scan", "ios": "https://dc.lft.to/lastmile_qr_scan"}, "type": "electric_bike", "lat": 38.9411215, "is_reserved": 0, "fusion_lat": 0.0}, {"bike_id": "27181d07d65bbf2ef8af9ac408ce4cb8", "fusion_lon": 0.0, "lon": -77.09478616666667, "name": "27181d07d65bbf2ef8af9ac408ce4cb8", "is_disabled": 0, "rental_uris": {"android": "https://dc.lft.to/lastmile_qr_scan", "ios": "https://dc.lft.to/lastmile_qr_scan"}, "type": "electric_bike", "lat": 39.0305355, "is_reserved": 0, "fusion_lat": 0.0}, {"bike_id": "94fce6e639050683573e777c31cf05d8", "fusion_lon": 0.0, "lon": -77.0387005, "name": "94fce6e639050683573e777c31cf05d8", "is_disabled": 0, "rental_uris": {"android": "https://dc.lft.to/lastmile_qr_scan", "ios": "https://dc.lft.to/lastmile_qr_scan"}, "type": "electric_scooter", "lat": 38.932493, "is_reserved": 0, "fusion_lat": 0.0}, {"bike_id": "4481261244b76931fca4627bd3c1ec9a", "fusion_lon": 0.0, "lon": -77.04007516666667, "name": "4481261244b76931fca4627bd3c1ec9a", "is_disabled": 0, "rental_uris": {"android": "https://dc.lft.to/lastmile_qr_scan", "ios": "https://dc.lft.to/lastmile_qr_scan"}, "type": "electric_scooter", "lat": 38.921761333333336, "is_reserved": 0, "fusion_lat": 0.0}, {"bike_id": "80f2f3fba82523347f201f6177d1e173", "fusion_lon": 0.0, "lon": -77.049749, "name": "80f2f3fba82523347f201f6177d1e173", "is_disabled": 0, "rental_uris": {"android": "https://dc.lft.to/lastmile_qr_scan", "ios": "https://dc.lft.to/lastmile_qr_scan"}, "type": "electric_bike", "lat": 38.83223133333333, "is_reserved": 0, "fusion_lat": 0.0}, {"bike_id": "85eea7126b51d2dce2335bf878ab9b2f", "fusion_lon": 0.0, "lon": -76.995173, "name": "85eea7126b51d2dce2335bf878ab9b2f", "is_disabled": 0, "rental_uris": {"android": "https://dc.lft.to/lastmile_qr_scan", "ios": "https://dc.lft.to/lastmile_qr_scan"}, "type": "electric_scooter", "lat": 38.862551333333336, "is_reserved": 0, "fusion_lat": 0.0}, {"bike_id": "9a9729cc6470cca7fb5c603412e5208a", "fusion_lon": 0.0, "lon": -77.002123, "name": "9a9729cc6470cca7fb5c603412e5208a", "is_disabled": 0, "rental_uris": {"android": "https://dc.lft.to/lastmile_qr_scan", "ios": "https://dc.lft.to/lastmile_qr_scan"}, "type": "electric_scooter", "lat": 38.920526833333334, "is_reserved": 0, "fusion_lat": 0.0}, {"bike_id": "7a000927108640174a643a16bf92b5d1", "fusion_lon": 0.0, "lon": -77.00126633333333, "name": "7a000927108640174a643a16bf92b5d1", "is_disabled": 0, "rental_uris": {"android": "https://dc.lft.to/lastmile_qr_scan", "ios": "https://dc.lft.to/lastmile_qr_scan"}, "type": "electric_scooter", "lat": 38.877959833333335, "is_reserved": 0, "fusion_lat": 0.0}, {"bike_id": "12eaa0299c7e9799747f1b86696c69c0", "fusion_lon": 0.0, "lon": -77.0358075, "name": "12eaa0299c7e9799747f1b86696c69c0", "is_disabled": 0, "rental_uris": {"android": "https://dc.lft.to/lastmile_qr_scan", "ios": "https://dc.lft.to/lastmile_qr_scan"}, "type": "electric_scooter", "lat": 38.93477, "is_reserved": 0, "fusion_lat": 0.0}, {"bike_id": "674849fdfd3d2912ab8b438e20492ed6", "fusion_lon": 0.0, "lon": -77.03664733333333, "name": "674849fdfd3d2912ab8b438e20492ed6", "is_disabled": 0, "rental_uris": {"android": "https://dc.lft.to/lastmile_qr_scan", "ios": "https://dc.lft.to/lastmile_qr_scan"}, "type": "electric_scooter", "lat": 38.93093733333333, "is_reserved": 0, "fusion_lat": 0.0}, {"bike_id": "7a30c7913a14d14b1f6533fa8727d9cf", "fusion_lon": 0.0, "lon": -77.026872, "name": "7a30c7913a14d14b1f6533fa8727d9cf", "is_disabled": 0, "rental_uris": {"android": "https://dc.lft.to/lastmile_qr_scan", "ios": "https://dc.lft.to/lastmile_qr_scan"}, "type": "electric_scooter", "lat": 38.9126685, "is_reserved": 0, "fusion_lat": 0.0}, {"bike_id": "9e3dfd5cc986406d8e557d43b6c531b8", "fusion_lon": 0.0, "lon": -77.02162933333334, "name": "9e3dfd5cc986406d8e557d43b6c531b8", "is_disabled": 0, "rental_uris": {"android": "https://dc.lft.to/lastmile_qr_scan", "ios": "https://dc.lft.to/lastmile_qr_scan"}, "type": "electric_scooter", "lat": 38.8990675, "is_reserved": 0, "fusion_lat": 0.0}, {"bike_id": "f63abecf3c238227dd7dec67fd196c4d", "fusion_lon": 0.0, "lon": -76.98983333333334, "name": "f63abecf3c238227dd7dec67fd196c4d", "is_disabled": 0, "rental_uris": {"android": "https://dc.lft.to/lastmile_qr_scan", "ios": "https://dc.lft.to/lastmile_qr_scan"}, "type": "electric_scooter", "lat": 38.86500916666667, "is_reserved": 0, "fusion_lat": 0.0}, {"bike_id": "b398fe1e6259be9530273ebf2415b013", "fusion_lon": 0.0, "lon": -77.022048, "name": "b398fe1e6259be9530273ebf2415b013", "is_disabled": 0, "rental_uris": {"android": "https://dc.lft.to/lastmile_qr_scan", "ios": "https://dc.lft.to/lastmile_qr_scan"}, "type": "electric_scooter", "lat": 38.9024045, "is_reserved": 0, "fusion_lat": 0.0}, {"bike_id": "3e5885480b3e7b3f3046b36ccd94b959", "fusion_lon": 0.0, "lon": -76.9913125, "name": "3e5885480b3e7b3f3046b36ccd94b959", "is_disabled": 0, "rental_uris": {"android": "https://dc.lft.to/lastmile_qr_scan", "ios": "https://dc.lft.to/lastmile_qr_scan"}, "type": "electric_scooter", "lat": 38.87911316666667, "is_reserved": 0, "fusion_lat": 0.0}, {"bike_id": "1534d91c097092b308b00fc09d9487ee", "fusion_lon": 0.0, "lon": -77.0228875, "name": "1534d91c097092b308b00fc09d9487ee", "is_disabled": 0, "rental_uris": {"android": "https://dc.lft.to/lastmile_qr_scan", "ios": "https://dc.lft.to/lastmile_qr_scan"}, "type": "electric_scooter", "lat": 38.8906205, "is_reserved": 0, "fusion_lat": 0.0}, {"bike_id": "a1f136efa29082f2747645dd9317e04b", "fusion_lon": 0.0, "lon": -77.000714, "name": "a1f136efa29082f2747645dd9317e04b", "is_disabled": 0, "rental_uris": {"android": "https://dc.lft.to/lastmile_qr_scan", "ios": "https://dc.lft.to/lastmile_qr_scan"}, "type": "electric_scooter", "lat": 38.900377166666665, "is_reserved": 0, "fusion_lat": 0.0}, {"bike_id": "4968b30a6eb11ab827e6cd9ed181b061", "fusion_lon": 0.0, "lon": -77.0122845, "name": "4968b30a6eb11ab827e6cd9ed181b061", "is_disabled": 0, "rental_uris": {"android": "https://dc.lft.to/lastmile_qr_scan", "ios": "https://dc.lft.to/lastmile_qr_scan"}, "type": "electric_scooter", "lat": 38.914102, "is_reserved": 0, "fusion_lat": 0.0}, {"bike_id": "b735aee9e94d2ae296531a43296a1e9e", "fusion_lon": 0.0, "lon": -76.93026566666667, "name": "b735aee9e94d2ae296531a43296a1e9e", "is_disabled": 0, "rental_uris": {"android": "https://dc.lft.to/lastmile_qr_scan", "ios": "https://dc.lft.to/lastmile_qr_scan"}, "type": "electric_scooter", "lat": 38.898226666666666, "is_reserved": 0, "fusion_lat": 0.0}, {"bike_id": "ecbcdcb25f37e45c616e910bfb434862", "fusion_lon": 0.0, "lon": -77.0158905, "name": "ecbcdcb25f37e45c616e910bfb434862", "is_disabled": 0, "rental_uris": {"android": "https://dc.lft.to/lastmile_qr_scan", "ios": "https://dc.lft.to/lastmile_qr_scan"}, "type": "electric_scooter", "lat": 38.95013816666667, "is_reserved": 0, "fusion_lat": 0.0}, {"bike_id": "094ef6d3d34ad9ae21ac4e9114459de0", "fusion_lon": 0.0, "lon": -77.04686683333334, "name": "094ef6d3d34ad9ae21ac4e9114459de0", "is_disabled": 0, "rental_uris": {"android": "https://dc.lft.to/lastmile_qr_scan", "ios": "https://dc.lft.to/lastmile_qr_scan"}, "type": "electric_scooter", "lat": 38.897349, "is_reserved": 0, "fusion_lat": 0.0}, {"bike_id": "289fef901829669bffcef24e4c1ba6df", "fusion_lon": 0.0, "lon": -77.02982416666667, "name": "289fef901829669bffcef24e4c1ba6df", "is_disabled": 0, "rental_uris": {"android": "https://dc.lft.to/lastmile_qr_scan", "ios": "https://dc.lft.to/lastmile_qr_scan"}, "type": "electric_scooter", "lat": 38.9459685, "is_reserved": 0, "fusion_lat": 0.0}, {"bike_id": "6b148c891f378107b0ad96ad29b29ad6", "fusion_lon": 0.0, "lon": -77.02849583333334, "name": "6b148c891f378107b0ad96ad29b29ad6", "is_disabled": 0, "rental_uris": {"android": "https://dc.lft.to/lastmile_qr_scan", "ios": "https://dc.lft.to/lastmile_qr_scan"}, "type": "electric_scooter", "lat": 38.925762666666664, "is_reserved": 0, "fusion_lat": 0.0}, {"bike_id": "e3c7cf2f6836b49d1d13910b68054a58", "fusion_lon": 0.0, "lon": -77.03439516666667, "name": "e3c7cf2f6836b49d1d13910b68054a58", "is_disabled": 0, "rental_uris": {"android": "https://dc.lft.to/lastmile_qr_scan", "ios": "https://dc.lft.to/lastmile_qr_scan"}, "type": "electric_scooter", "lat": 38.934385666666664, "is_reserved": 0, "fusion_lat": 0.0}, {"bike_id": "3a85c718941528976cd79658ff35c446", "fusion_lon": 0.0, "lon": -77.0377005, "name": "3a85c718941528976cd79658ff35c446", "is_disabled": 0, "rental_uris": {"android": "https://dc.lft.to/lastmile_qr_scan", "ios": "https://dc.lft.to/lastmile_qr_scan"}, "type": "electric_scooter", "lat": 38.9067735, "is_reserved": 0, "fusion_lat": 0.0}, {"bike_id": "ed110daaa546032eae158aea0e637686", "fusion_lon": 0.0, "lon": -77.02214383333333, "name": "ed110daaa546032eae158aea0e637686", "is_disabled": 0, "rental_uris": {"android": "https://dc.lft.to/lastmile_qr_scan", "ios": "https://dc.lft.to/lastmile_qr_scan"}, "type": "electric_scooter", "lat": 38.9155435, "is_reserved": 0, "fusion_lat": 0.0}, {"bike_id": "abfdd0408311e9a155048f707c3a7363", "fusion_lon": 0.0, "lon": -77.0453515, "name": "abfdd0408311e9a155048f707c3a7363", "is_disabled": 0, "rental_uris": {"android": "https://dc.lft.to/lastmile_qr_scan", "ios": "https://dc.lft.to/lastmile_qr_scan"}, "type": "electric_scooter", "lat": 38.932987833333335, "is_reserved": 0, "fusion_lat": 0.0}, {"bike_id": "f259b951aac5b07393ac597c57269729", "fusion_lon": 0.0, "lon": -77.02686283333334, "name": "f259b951aac5b07393ac597c57269729", "is_disabled": 0, "rental_uris": {"android": "https://dc.lft.to/lastmile_qr_scan", "ios": "https://dc.lft.to/lastmile_qr_scan"}, "type": "electric_scooter", "lat": 38.90856016666667, "is_reserved": 0, "fusion_lat": 0.0}, {"bike_id": "952a3e7e6e017d235ce301e5c30c3f5d", "fusion_lon": 0.0, "lon": -77.05125266666667, "name": "952a3e7e6e017d235ce301e5c30c3f5d", "is_disabled": 0, "rental_uris": {"android": "https://dc.lft.to/lastmile_qr_scan", "ios": "https://dc.lft.to/lastmile_qr_scan"}, "type": "electric_scooter", "lat": 38.923483, "is_reserved": 0, "fusion_lat": 0.0}, {"bike_id": "fabd67728e98f4cbf82e72fb2c4731e8", "fusion_lon": 0.0, "lon": -77.02792683333334, "name": "fabd67728e98f4cbf82e72fb2c4731e8", "is_disabled": 0, "rental_uris": {"android": "https://dc.lft.to/lastmile_qr_scan", "ios": "https://dc.lft.to/lastmile_qr_scan"}, "type": "electric_scooter", "lat": 38.954068, "is_reserved": 0, "fusion_lat": 0.0}, {"bike_id": "5ecade53faf636778f86928130162d91", "fusion_lon": 0.0, "lon": -77.01206316666666, "name": "5ecade53faf636778f86928130162d91", "is_disabled": 0, "rental_uris": {"android": "https://dc.lft.to/lastmile_qr_scan", "ios": "https://dc.lft.to/lastmile_qr_scan"}, "type": "electric_scooter", "lat": 38.8709395, "is_reserved": 0, "fusion_lat": 0.0}, {"bike_id": "0abfdaffba1f1b1a5ba37f8fb872df54", "fusion_lon": 0.0, "lon": -77.03220383333333, "name": "0abfdaffba1f1b1a5ba37f8fb872df54", "is_disabled": 0, "rental_uris": {"android": "https://dc.lft.to/lastmile_qr_scan", "ios": "https://dc.lft.to/lastmile_qr_scan"}, "type": "electric_bike", "lat": 38.93315616666667, "is_reserved": 0, "fusion_lat": 0.0}, {"bike_id": "ffb29a7dc7096d704de78a3514e083c7", "fusion_lon": 0.0, "lon": -77.03494666666667, "name": "ffb29a7dc7096d704de78a3514e083c7", "is_disabled": 0, "rental_uris": {"android": "https://dc.lft.to/lastmile_qr_scan", "ios": "https://dc.lft.to/lastmile_qr_scan"}, "type": "electric_bike", "lat": 38.937567, "is_reserved": 0, "fusion_lat": 0.0}, {"bike_id": "6fb9382510593b85c48a292d78a09b9f", "fusion_lon": 0.0, "lon": -77.00887033333333, "name": "6fb9382510593b85c48a292d78a09b9f", "is_disabled": 0, "rental_uris": {"android": "https://dc.lft.to/lastmile_qr_scan", "ios": "https://dc.lft.to/lastmile_qr_scan"}, "type": "electric_scooter", "lat": 38.92486933333333, "is_reserved": 0, "fusion_lat": 0.0}, {"bike_id": "c7b1ef9619f3c3f16e64494012cdeebf", "fusion_lon": 0.0, "lon": -76.99396883333333, "name": "c7b1ef9619f3c3f16e64494012cdeebf", "is_disabled": 0, "rental_uris": {"android": "https://dc.lft.to/lastmile_qr_scan", "ios": "https://dc.lft.to/lastmile_qr_scan"}, "type": "electric_scooter", "lat": 38.921677, "is_reserved": 0, "fusion_lat": 0.0}, {"bike_id": "f11a5ed9828e823191cf40cc76c7a782", "fusion_lon": 0.0, "lon": -77.04531166666666, "name": "f11a5ed9828e823191cf40cc76c7a782", "is_disabled": 0, "rental_uris": {"android": "https://dc.lft.to/lastmile_qr_scan", "ios": "https://dc.lft.to/lastmile_qr_scan"}, "type": "electric_scooter", "lat": 38.9133205, "is_reserved": 0, "fusion_lat": 0.0}, {"bike_id": "7afbd5420eec072b269c405d838cd873", "fusion_lon": 0.0, "lon": -77.0174475, "name": "7afbd5420eec072b269c405d838cd873", "is_disabled": 0, "rental_uris": {"android": "https://dc.lft.to/lastmile_qr_scan", "ios": "https://dc.lft.to/lastmile_qr_scan"}, "type": "electric_scooter", "lat": 38.90239733333333, "is_reserved": 0, "fusion_lat": 0.0}, {"bike_id": "fd0e8f3591134775e9c51cd4c8a35175", "fusion_lon": 0.0, "lon": -77.01673083333333, "name": "fd0e8f3591134775e9c51cd4c8a35175", "is_disabled": 0, "rental_uris": {"android": "https://dc.lft.to/lastmile_qr_scan", "ios": "https://dc.lft.to/lastmile_qr_scan"}, "type": "electric_scooter", "lat": 38.881122833333336, "is_reserved": 0, "fusion_lat": 0.0}, {"bike_id": "980b661e92118b17a678aedcebda5b51", "fusion_lon": 0.0, "lon": -76.99056183333333, "name": "980b661e92118b17a678aedcebda5b51", "is_disabled": 0, "rental_uris": {"android": "https://dc.lft.to/lastmile_qr_scan", "ios": "https://dc.lft.to/lastmile_qr_scan"}, "type": "electric_scooter", "lat": 38.863613, "is_reserved": 0, "fusion_lat": 0.0}, {"bike_id": "de3f91d8a2ed80bdbebe17255444367a", "fusion_lon": 0.0, "lon": -77.03774883333334, "name": "de3f91d8a2ed80bdbebe17255444367a", "is_disabled": 0, "rental_uris": {"android": "https://dc.lft.to/lastmile_qr_scan", "ios": "https://dc.lft.to/lastmile_qr_scan"}, "type": "electric_scooter", "lat": 38.90677633333333, "is_reserved": 0, "fusion_lat": 0.0}, {"bike_id": "0e9fdcd9e42f991f82da942357da00f0", "fusion_lon": 0.0, "lon": -77.03311066666667, "name": "0e9fdcd9e42f991f82da942357da00f0", "is_disabled": 0, "rental_uris": {"android": "https://dc.lft.to/lastmile_qr_scan", "ios": "https://dc.lft.to/lastmile_qr_scan"}, "type": "electric_scooter", "lat": 38.91810266666667, "is_reserved": 0, "fusion_lat": 0.0}, {"bike_id": "57446081180601f96edfde95be8ee678", "fusion_lon": 0.0, "lon": -77.05080716666667, "name": "57446081180601f96edfde95be8ee678", "is_disabled": 0, "rental_uris": {"android": "https://dc.lft.to/lastmile_qr_scan", "ios": "https://dc.lft.to/lastmile_qr_scan"}, "type": "electric_scooter", "lat": 38.8999925, "is_reserved": 0, "fusion_lat": 0.0}, {"bike_id": "220e529448742e103a049ae474bf3a42", "fusion_lon": 0.0, "lon": -77.032576, "name": "220e529448742e103a049ae474bf3a42", "is_disabled": 0, "rental_uris": {"android": "https://dc.lft.to/lastmile_qr_scan", "ios": "https://dc.lft.to/lastmile_qr_scan"}, "type": "electric_scooter", "lat": 38.93975566666667, "is_reserved": 0, "fusion_lat": 0.0}, {"bike_id": "b85e314f2dfb0d411a2c2a2462c88a55", "fusion_lon": 0.0, "lon": -77.0167915, "name": "b85e314f2dfb0d411a2c2a2462c88a55", "is_disabled": 0, "rental_uris": {"android": "https://dc.lft.to/lastmile_qr_scan", "ios": "https://dc.lft.to/lastmile_qr_scan"}, "type": "electric_scooter", "lat": 38.88113383333334, "is_reserved": 0, "fusion_lat": 0.0}, {"bike_id": "b486ff3247220f4ac0160d1538adae8c", "fusion_lon": 0.0, "lon": -77.018612, "name": "b486ff3247220f4ac0160d1538adae8c", "is_disabled": 0, "rental_uris": {"android": "https://dc.lft.to/lastmile_qr_scan", "ios": "https://dc.lft.to/lastmile_qr_scan"}, "type": "electric_scooter", "lat": 38.90248833333333, "is_reserved": 0, "fusion_lat": 0.0}, {"bike_id": "a0434eadcbcae2eef607253b77ded967", "fusion_lon": 0.0, "lon": -77.04141633333333, "name": "a0434eadcbcae2eef607253b77ded967", "is_disabled": 0, "rental_uris": {"android": "https://dc.lft.to/lastmile_qr_scan", "ios": "https://dc.lft.to/lastmile_qr_scan"}, "type": "electric_scooter", "lat": 38.89355616666667, "is_reserved": 0, "fusion_lat": 0.0}, {"bike_id": "386e74dab51554cb55ca2ed81e480c54", "fusion_lon": 0.0, "lon": -77.0229185, "name": "386e74dab51554cb55ca2ed81e480c54", "is_disabled": 0, "rental_uris": {"android": "https://dc.lft.to/lastmile_qr_scan", "ios": "https://dc.lft.to/lastmile_qr_scan"}, "type": "electric_scooter", "lat": 38.890619, "is_reserved": 0, "fusion_lat": 0.0}, {"bike_id": "424edf6144a371f342a2bc973b47e1f7", "fusion_lon": 0.0, "lon": -77.03374833333334, "name": "424edf6144a371f342a2bc973b47e1f7", "is_disabled": 0, "rental_uris": {"android": "https://dc.lft.to/lastmile_qr_scan", "ios": "https://dc.lft.to/lastmile_qr_scan"}, "type": "electric_scooter", "lat": 38.900099833333336, "is_reserved": 0, "fusion_lat": 0.0}, {"bike_id": "f60371ba5b8c93b17c72d94212d6bee7", "fusion_lon": 0.0, "lon": -76.98585266666667, "name": "f60371ba5b8c93b17c72d94212d6bee7", "is_disabled": 0, "rental_uris": {"android": "https://dc.lft.to/lastmile_qr_scan", "ios": "https://dc.lft.to/lastmile_qr_scan"}, "type": "electric_bike", "lat": 38.912875166666666, "is_reserved": 0, "fusion_lat": 0.0}, {"bike_id": "f7d7a35dc9ebb253219a856eb6e14883", "fusion_lon": 0.0, "lon": -77.03801766666666, "name": "f7d7a35dc9ebb253219a856eb6e14883", "is_disabled": 0, "rental_uris": {"android": "https://dc.lft.to/lastmile_qr_scan", "ios": "https://dc.lft.to/lastmile_qr_scan"}, "type": "electric_scooter", "lat": 38.909701166666665, "is_reserved": 0, "fusion_lat": 0.0}, {"bike_id": "4438e45f2c73cbb5fdc18d40cce8ec0a", "fusion_lon": 0.0, "lon": -77.02976933333333, "name": "4438e45f2c73cbb5fdc18d40cce8ec0a", "is_disabled": 0, "rental_uris": {"android": "https://dc.lft.to/lastmile_qr_scan", "ios": "https://dc.lft.to/lastmile_qr_scan"}, "type": "electric_scooter", "lat": 38.90744133333333, "is_reserved": 0, "fusion_lat": 0.0}, {"bike_id": "74bc41feacfb76c94207c0b8dcca4291", "fusion_lon": 0.0, "lon": -77.00727583333334, "name": "74bc41feacfb76c94207c0b8dcca4291", "is_disabled": 0, "rental_uris": {"android": "https://dc.lft.to/lastmile_qr_scan", "ios": "https://dc.lft.to/lastmile_qr_scan"}, "type": "electric_scooter", "lat": 38.884957, "is_reserved": 0, "fusion_lat": 0.0}, {"bike_id": "87d6d0a28164077db7902ce1a428fac5", "fusion_lon": 0.0, "lon": -77.03456416666667, "name": "87d6d0a28164077db7902ce1a428fac5", "is_disabled": 0, "rental_uris": {"android": "https://dc.lft.to/lastmile_qr_scan", "ios": "https://dc.lft.to/lastmile_qr_scan"}, "type": "electric_scooter", "lat": 38.937533, "is_reserved": 0, "fusion_lat": 0.0}, {"bike_id": "340c1cbfcead5e328b7dc8316dea9e17", "fusion_lon": 0.0, "lon": -77.02571733333333, "name": "340c1cbfcead5e328b7dc8316dea9e17", "is_disabled": 0, "rental_uris": {"android": "https://dc.lft.to/lastmile_qr_scan", "ios": "https://dc.lft.to/lastmile_qr_scan"}, "type": "electric_scooter", "lat": 38.903651333333336, "is_reserved": 0, "fusion_lat": 0.0}, {"bike_id": "4d2f92baab7984978fb24344edfbcfa1", "fusion_lon": 0.0, "lon": -76.89533216666666, "name": "4d2f92baab7984978fb24344edfbcfa1", "is_disabled": 0, "rental_uris": {"android": "https://dc.lft.to/lastmile_qr_scan", "ios": "https://dc.lft.to/lastmile_qr_scan"}, "type": "electric_bike", "lat": 38.945519, "is_reserved": 0, "fusion_lat": 0.0}, {"bike_id": "a611485c062e4905ebf07e9e33a80e06", "fusion_lon": 0.0, "lon": -77.044675, "name": "a611485c062e4905ebf07e9e33a80e06", "is_disabled": 0, "rental_uris": {"android": "https://dc.lft.to/lastmile_qr_scan", "ios": "https://dc.lft.to/lastmile_qr_scan"}, "type": "electric_scooter", "lat": 38.911184, "is_reserved": 0, "fusion_lat": 0.0}, {"bike_id": "b9ca5a66ab8932824e9ba7350c823bb8", "fusion_lon": 0.0, "lon": -77.03075566666666, "name": "b9ca5a66ab8932824e9ba7350c823bb8", "is_disabled": 0, "rental_uris": {"android": "https://dc.lft.to/lastmile_qr_scan", "ios": "https://dc.lft.to/lastmile_qr_scan"}, "type": "electric_scooter", "lat": 38.88592333333333, "is_reserved": 0, "fusion_lat": 0.0}, {"bike_id": "f7aa031249a4ff62261278718412688a", "fusion_lon": 0.0, "lon": -77.02204966666666, "name": "f7aa031249a4ff62261278718412688a", "is_disabled": 0, "rental_uris": {"android": "https://dc.lft.to/lastmile_qr_scan", "ios": "https://dc.lft.to/lastmile_qr_scan"}, "type": "electric_scooter", "lat": 38.90226166666667, "is_reserved": 0, "fusion_lat": 0.0}, {"bike_id": "d0a56b608a1285556fcda4e87208a3e6", "fusion_lon": 0.0, "lon": -77.04146733333333, "name": "d0a56b608a1285556fcda4e87208a3e6", "is_disabled": 0, "rental_uris": {"android": "https://dc.lft.to/lastmile_qr_scan", "ios": "https://dc.lft.to/lastmile_qr_scan"}, "type": "electric_scooter", "lat": 38.915553333333335, "is_reserved": 0, "fusion_lat": 0.0}, {"bike_id": "a540102716e0c75e1c4caaf5059f30f3", "fusion_lon": 0.0, "lon": -77.033555, "name": "a540102716e0c75e1c4caaf5059f30f3", "is_disabled": 0, "rental_uris": {"android": "https://dc.lft.to/lastmile_qr_scan", "ios": "https://dc.lft.to/lastmile_qr_scan"}, "type": "electric_scooter", "lat": 38.907217, "is_reserved": 0, "fusion_lat": 0.0}, {"bike_id": "becc7ef00b1c0ee8b77b58f7578ce54e", "fusion_lon": 0.0, "lon": -77.01925483333333, "name": "becc7ef00b1c0ee8b77b58f7578ce54e", "is_disabled": 0, "rental_uris": {"android": "https://dc.lft.to/lastmile_qr_scan", "ios": "https://dc.lft.to/lastmile_qr_scan"}, "type": "electric_scooter", "lat": 38.92362583333333, "is_reserved": 0, "fusion_lat": 0.0}, {"bike_id": "6a769835444172a6199645f5916475d9", "fusion_lon": 0.0, "lon": -77.04945083333334, "name": "6a769835444172a6199645f5916475d9", "is_disabled": 0, "rental_uris": {"android": "https://dc.lft.to/lastmile_qr_scan", "ios": "https://dc.lft.to/lastmile_qr_scan"}, "type": "electric_bike", "lat": 38.888298666666664, "is_reserved": 0, "fusion_lat": 0.0}, {"bike_id": "fa4981d2f4f16e2229e0c2a436bc07d5", "fusion_lon": 0.0, "lon": -77.03522783333334, "name": "fa4981d2f4f16e2229e0c2a436bc07d5", "is_disabled": 0, "rental_uris": {"android": "https://dc.lft.to/lastmile_qr_scan", "ios": "https://dc.lft.to/lastmile_qr_scan"}, "type": "electric_scooter", "lat": 38.9222195, "is_reserved": 0, "fusion_lat": 0.0}, {"bike_id": "bf05e4dc4da9ac278da3a57c7c425577", "fusion_lon": 0.0, "lon": -77.0400935, "name": "bf05e4dc4da9ac278da3a57c7c425577", "is_disabled": 0, "rental_uris": {"android": "https://dc.lft.to/lastmile_qr_scan", "ios": "https://dc.lft.to/lastmile_qr_scan"}, "type": "electric_scooter", "lat": 38.90992966666666, "is_reserved": 0, "fusion_lat": 0.0}, {"bike_id": "3e185bcd493f5057237a8af021b4141e", "fusion_lon": 0.0, "lon": -77.00737383333333, "name": "3e185bcd493f5057237a8af021b4141e", "is_disabled": 0, "rental_uris": {"android": "https://dc.lft.to/lastmile_qr_scan", "ios": "https://dc.lft.to/lastmile_qr_scan"}, "type": "electric_scooter", "lat": 38.91025716666667, "is_reserved": 0, "fusion_lat": 0.0}, {"bike_id": "4b67c469aa5c48289cd93f4470b3fcba", "fusion_lon": 0.0, "lon": -77.00210316666667, "name": "4b67c469aa5c48289cd93f4470b3fcba", "is_disabled": 0, "rental_uris": {"android": "https://dc.lft.to/lastmile_qr_scan", "ios": "https://dc.lft.to/lastmile_qr_scan"}, "type": "electric_scooter", "lat": 38.909508333333335, "is_reserved": 0, "fusion_lat": 0.0}, {"bike_id": "d1a747f22ddad49775725a1baa7b5b03", "fusion_lon": 0.0, "lon": -77.03415983333333, "name": "d1a747f22ddad49775725a1baa7b5b03", "is_disabled": 0, "rental_uris": {"android": "https://dc.lft.to/lastmile_qr_scan", "ios": "https://dc.lft.to/lastmile_qr_scan"}, "type": "electric_scooter", "lat": 38.9224285, "is_reserved": 0, "fusion_lat": 0.0}, {"bike_id": "1b75813d706b33c3f01e1a3c1a96e733", "fusion_lon": 0.0, "lon": -77.0230025, "name": "1b75813d706b33c3f01e1a3c1a96e733", "is_disabled": 0, "rental_uris": {"android": "https://dc.lft.to/lastmile_qr_scan", "ios": "https://dc.lft.to/lastmile_qr_scan"}, "type": "electric_bike", "lat": 38.923329, "is_reserved": 0, "fusion_lat": 0.0}, {"bike_id": "7857a2e0e3e08df37710251864c0e689", "fusion_lon": 0.0, "lon": -76.997355, "name": "7857a2e0e3e08df37710251864c0e689", "is_disabled": 0, "rental_uris": {"android": "https://dc.lft.to/lastmile_qr_scan", "ios": "https://dc.lft.to/lastmile_qr_scan"}, "type": "electric_scooter", "lat": 38.901333, "is_reserved": 0, "fusion_lat": 0.0},