{"data": {"bikes": [{"rental_uris": {"android": "https://dc.lft.to/lastmile_qr_scan", "ios": "https://dc.lft.to/lastmile_qr_scan"}, "lat": 38.911844, "fusion_lon": 0.0, "fusion_lat": 0.0, "type": "electric_scooter", "bike_id": "ef60bb30d1e9dbe46cf15128e2245c2b", "lon": -77.0321905, "is_reserved": 0, "is_disabled": 0, "name": "ef60bb30d1e9dbe46cf15128e2245c2b"}, {"rental_uris": {"android": "https://dc.lft.to/lastmile_qr_scan", "ios": "https://dc.lft.to/lastmile_qr_scan"}, "lat": 38.894785666666664, "fusion_lon": 0.0, "fusion_lat": 0.0, "type": "electric_scooter", "bike_id": "b35e8b119076e9aef7050f31da174367", "lon": -77.0111465, "is_reserved": 0, "is_disabled": 0, "name": "b35e8b119076e9aef7050f31da174367"}, {"rental_uris": {"android": "https://dc.lft.to/lastmile_qr_scan", "ios": "https://dc.lft.to/lastmile_qr_scan"}, "lat": 38.90164033333333, "fusion_lon": 0.0, "fusion_lat": 0.0, "type": "electric_scooter", "bike_id": "3227431007cffc0d1387ad794e47b42a", "lon": -77.05074716666667, "is_reserved": 0, "is_disabled": 0, "name": "3227431007cffc0d1387ad794e47b42a"}, {"rental_uris": {"android": "https://dc.lft.to/lastmile_qr_scan", "ios": "https://dc.lft.to/lastmile_qr_scan"}, "lat": 38.90556133333333, "fusion_lon": 0.0, "fusion_lat": 0.0, "type": "electric_bike", "bike_id": "4ba5719107e601d529192b64153923a9", "lon": -77.04548616666666, "is_reserved": 0, "is_disabled": 0, "name": "4ba5719107e601d529192b64153923a9"}, {"rental_uris": {"android": "https://dc.lft.to/lastmile_qr_scan", "ios": "https://dc.lft.to/lastmile_qr_scan"}, "lat": 38.871733166666665, "fusion_lon": 0.0, "fusion_lat": 0.0, "type": "electric_scooter", "bike_id": "82594941705d8caebc6fdb52fc1f181d", "lon": -77.00678916666666, "is_reserved": 0, "is_disabled": 0, "name": "82594941705d8caebc6fdb52fc1f181d"}, {"rental_uris": {"android": "https://dc.lft.to/lastmile_qr_scan", "ios": "https://dc.lft.to/lastmile_qr_scan"}, "lat": 38.876386333333336, "fusion_lon": 0.0, "fusion_lat": 0.0, "type": "electric_scooter", "bike_id": "a9266d519637c65818d83fdf084318f0", "lon": -77.00370533333333, "is_reserved": 0, "is_disabled": 0, "name": "a9266d519637c65818d83fdf084318f0"}, {"rental_uris": {"android": "https://dc.lft.to/lastmile_qr_scan", "ios": "https://dc.lft.to/lastmile_qr_scan"}, "lat": 38.915648833333336, "fusion_lon": 0.0, "fusion_lat": 0.0, "type": "electric_scooter", "bike_id": "f537699b85e3165d7f23a0a9d30f290d", "lon": -77.042996, "is_reserved": 0, "is_disabled": 0, "name": "f537699b85e3165d7f23a0a9d30f290d"}, {"rental_uris": {"android": "https://dc.lft.to/lastmile_qr_scan", "ios": "https://dc.lft.to/lastmile_qr_scan"}, "lat": 38.92049466666667, "fusion_lon": 0.0, "fusion_lat": 0.0, "type": "electric_scooter", "bike_id": "014f15f20616b975c4d4178c547810f6", "lon": -77.0344385, "is_reserved": 0, "is_disabled": 0, "name": "014f15f20616b975c4d4178c547810f6"}, {"rental_uris": {"android": "https://dc.lft.to/lastmile_qr_scan", "ios": "https://dc.lft.to/lastmile_qr_scan"}, "lat": 38.9170325, "fusion_lon": 0.0, "fusion_lat": 0.0, "type": "electric_scooter", "bike_id": "b4531d46c57075337ebb1331af08e630", "lon": -77.0071295, "is_reserved": 0, "is_disabled": 0, "name": "b4531d46c57075337ebb1331af08e630"}, {"rental_uris": {"android": "https://dc.lft.to/lastmile_qr_scan", "ios": "https://dc.lft.to/lastmile_qr_scan"}, "lat": 38.8994525, "fusion_lon": 0.0, "fusion_lat": 0.0, "type": "electric_scooter", "bike_id": "4114799db8444ddfea790b22cf410d31", "lon": -77.04882183333334, "is_reserved": 0, "is_disabled": 0, "name": "4114799db8444ddfea790b22cf410d31"}, {"rental_uris": {"android": "https://dc.lft.to/lastmile_qr_scan", "ios": "https://dc.lft.to/lastmile_qr_scan"}, "lat": 38.89220383333333, "fusion_lon": 0.0, "fusion_lat": 0.0, "type": "electric_scooter", "bike_id": "e0e0ba46e1d9e430252aefa68b1630df", "lon": -77.04684683333333, "is_reserved": 0, "is_disabled": 0, "name": "e0e0ba46e1d9e430252aefa68b1630df"}, {"rental_uris": {"android": "https://dc.lft.to/lastmile_qr_scan", "ios": "https://dc.lft.to/lastmile_qr_scan"}, "lat": 38.924547833333335, "fusion_lon": 0.0, "fusion_lat": 0.0, "type": "electric_scooter", "bike_id": "8ff0c901077f43134d53a42bbb216477", "lon": -77.02150816666666, "is_reserved": 0, "is_disabled": 0, "name": "8ff0c901077f43134d53a42bbb216477"}, {"rental_uris": {"android": "https://dc.lft.to/lastmile_qr_scan", "ios": "https://dc.lft.to/lastmile_qr_scan"}, "lat": 38.9170645, "fusion_lon": 0.0, "fusion_lat": 0.0, "type": "electric_scooter", "bike_id": "c9426a6ca69990c7c156835e22f43db7", "lon": -77.01163633333333, "is_reserved": 0, "is_disabled": 0, "name": "c9426a6ca69990c7c156835e22f43db7"}, {"rental_uris": {"android": "https://dc.lft.to/lastmile_qr_scan", "ios": "https://dc.lft.to/lastmile_qr_scan"}, "lat": 38.91602833333334, "fusion_lon": 0.0, "fusion_lat": 0.0, "type": "electric_scooter", "bike_id": "4b23728a4f347cbed8fc7bc5e6d7abfa", "lon": -77.01216916666667, "is_reserved": 0, "is_disabled": 0, "name": "4b23728a4f347cbed8fc7bc5e6d7abfa"}, {"rental_uris": {"android": "https://dc.lft.to/lastmile_qr_scan", "ios": "https://dc.lft.to/lastmile_qr_scan"}, "lat": 38.9077975, "fusion_lon": 0.0, "fusion_lat": 0.0, "type": "electric_scooter", "bike_id": "183348565f9d8368ae148fa7a37dac50", "lon": -77.063023, "is_reserved": 0, "is_disabled": 0, "name": "183348565f9d8368ae148fa7a37dac50"}, {"rental_uris": {"android": "https://dc.lft.to/lastmile_qr_scan", "ios": "https://dc.lft.to/lastmile_qr_scan"}, "lat": 38.919739666666665, "fusion_lon": 0.0, "fusion_lat": 0.0, "type": "electric_scooter", "bike_id": "4f57a9a0d908f80f8dec4fbbb87d8c60", "lon": -77.02184466666667, "is_reserved": 0, "is_disabled": 0, "name": "4f57a9a0d908f80f8dec4fbbb87d8c60"}, {"rental_uris": {"android": "https://dc.lft.to/lastmile_qr_scan", "ios": "https://dc.lft.to/lastmile_qr_scan"}, "lat": 38.934803333333335, "fusion_lon": 0.0, "fusion_lat": 0.0, "type": "electric_scooter", "bike_id": "265ca42d3822368076238835fe899bcb", "lon": -77.07325783333333, "is_reserved": 0, "is_disabled": 0, "name": "265ca42d3822368076238835fe899bcb"}, {"rental_uris": {"android": "https://dc.lft.to/lastmile_qr_scan", "ios": "https://dc.lft.to/lastmile_qr_scan"}, "lat": 38.92028966666667, "fusion_lon": 0.0, "fusion_lat": 0.0, "type": "electric_scooter", "bike_id": "8d7579c79c18275e0b239297e8a49fb5", "lon": -77.0311665, "is_reserved": 0, "is_disabled": 0, "name": "8d7579c79c18275e0b239297e8a49fb5"}, {"rental_uris": {"android": "https://dc.lft.to/lastmile_qr_scan", "ios": "https://dc.lft.to/lastmile_qr_scan"}, "lat": 38.924193, "fusion_lon": 0.0, "fusion_lat": 0.0, "type": "electric_scooter", "bike_id": "a7ad0e04d914a40d0598b133b77d25c2", "lon": -77.019478, "is_reserved": 0, "is_disabled": 0, "name": "a7ad0e04d914a40d0598b133b77d25c2"}, {"rental_uris": {"android": "https://dc.lft.to/lastmile_qr_scan", "ios": "https://dc.lft.to/lastmile_qr_scan"}, "lat": 38.943040333333336, "fusion_lon": 0.0, "fusion_lat": 0.0, "type": "electric_scooter", "bike_id": "fb117b9adbc43b734bb1b31580237b80", "lon": -77.02949816666667, "is_reserved": 0, "is_disabled": 0, "name": "fb117b9adbc43b734bb1b31580237b80"}, {"rental_uris": {"android": "https://dc.lft.to/lastmile_qr_scan", "ios": "https://dc.lft.to/lastmile_qr_scan"}, "lat": 38.91364316666667, "fusion_lon": 0.0, "fusion_lat": 0.0, "type": "electric_scooter", "bike_id": "5107abd73610bfce0883a4202373e91e", "lon": -77.0457595, "is_reserved": 0, "is_disabled": 0, "name": "5107abd73610bfce0883a4202373e91e"}, {"rental_uris": {"android": "https://dc.lft.to/lastmile_qr_scan", "ios": "https://dc.lft.to/lastmile_qr_scan"}, "lat": 38.892284833333335, "fusion_lon": 0.0, "fusion_lat": 0.0, "type": "electric_scooter", "bike_id": "7f932bafd1dae94892b0af84c4938d04", "lon": -77.05002233333333, "is_reserved": 0, "is_disabled": 0, "name": "7f932bafd1dae94892b0af84c4938d04"}, {"rental_uris": {"android": "https://dc.lft.to/lastmile_qr_scan", "ios": "https://dc.lft.to/lastmile_qr_scan"}, "lat": 38.8721325, "fusion_lon": 0.0, "fusion_lat": 0.0, "type": "electric_scooter", "bike_id": "a1f89e05f09105f03f12f3a30c3d9463", "lon": -77.00581433333333, "is_reserved": 0, "is_disabled": 0, "name": "a1f89e05f09105f03f12f3a30c3d9463"}, {"rental_uris": {"android": "https://dc.lft.to/lastmile_qr_scan", "ios": "https://dc.lft.to/lastmile_qr_scan"}, "lat": 38.88863716666667, "fusion_lon": 0.0, "fusion_lat": 0.0, "type": "electric_scooter", "bike_id": "572d0168db6b5997db96e76364fc6872", "lon": -77.00178766666667, "is_reserved": 0, "is_disabled": 0, "name": "572d0168db6b5997db96e76364fc6872"}, {"rental_uris": {"android": "https://dc.lft.to/lastmile_qr_scan", "ios": "https://dc.lft.to/lastmile_qr_scan"}, "lat": 38.89353216666667, "fusion_lon": 0.0, "fusion_lat": 0.0, "type": "electric_scooter", "bike_id": "56af5590b494943439c76ab25589d057", "lon": -77.00330333333333, "is_reserved": 0, "is_disabled": 0, "name": "56af5590b494943439c76ab25589d057"}, {"rental_uris": {"android": "https://dc.lft.to/lastmile_qr_scan", "ios": "https://dc.lft.to/lastmile_qr_scan"}, "lat": 38.935587, "fusion_lon": 0.0, "fusion_lat": 0.0, "type": "electric_scooter", "bike_id": "a4afc787112baeb210d6c4e4f614ee08", "lon": -77.0588025, "is_reserved": 0, "is_disabled": 0, "name": "a4afc787112baeb210d6c4e4f614ee08"}, {"rental_uris": {"android": "https://dc.lft.to/lastmile_qr_scan", "ios": "https://dc.lft.to/lastmile_qr_scan"}, "lat": 38.887144666666664, "fusion_lon": 0.0, "fusion_lat": 0.0, "type": "electric_scooter", "bike_id": "34b421f5c0a8f0bcdf7f2d3353ed82a8", "lon": -77.02185966666667, "is_reserved": 0, "is_disabled": 0, "name": "34b421f5c0a8f0bcdf7f2d3353ed82a8"}, {"rental_uris": {"android": "https://dc.lft.to/lastmile_qr_scan", "ios": "https://dc.lft.to/lastmile_qr_scan"}, "lat": 38.91483783333334, "fusion_lon": 0.0, "fusion_lat": 0.0, "type": "electric_scooter", "bike_id": "24ac12d944038c67bb2b335c0a3266e0", "lon": -76.98536733333333, "is_reserved": 0, "is_disabled": 0, "name": "24ac12d944038c67bb2b335c0a3266e0"}, {"rental_uris": {"android": "https://dc.lft.to/lastmile_qr_scan", "ios": "https://dc.lft.to/lastmile_qr_scan"}, "lat": 38.9247975, "fusion_lon": 0.0, "fusion_lat": 0.0, "type": "electric_scooter", "bike_id": "1198032825777761ee9f646182d073be", "lon": -77.0222855, "is_reserved": 0, "is_disabled": 0, "name": "1198032825777761ee9f646182d073be"}, {"rental_uris": {"android": "https://dc.lft.to/lastmile_qr_scan", "ios": "https://dc.lft.to/lastmile_qr_scan"}, "lat": 38.891960833333336, "fusion_lon": 0.0, "fusion_lat": 0.0, "type": "electric_scooter", "bike_id": "910ba373534814fbd342416223035fee", "lon": -77.00283633333333, "is_reserved": 0, "is_disabled": 0, "name": "910ba373534814fbd342416223035fee"}, {"rental_uris": {"android": "https://dc.lft.to/lastmile_qr_scan", "ios": "https://dc.lft.to/lastmile_qr_scan"}, "lat": 38.91102016666667, "fusion_lon": 0.0, "fusion_lat": 0.0, "type": "electric_scooter", "bike_id": "b5bf18266f6613fa5f9c46aa2f4f07ca", "lon": -77.026373, "is_reserved": 0, "is_disabled": 0, "name": "b5bf18266f6613fa5f9c46aa2f4f07ca"}, {"rental_uris": {"android": "https://dc.lft.to/lastmile_qr_scan", "ios": "https://dc.lft.to/lastmile_qr_scan"}, "lat": 38.92917516666667, "fusion_lon": 0.0, "fusion_lat": 0.0, "type": "electric_scooter", "bike_id": "1c3b8f2a897bdf7993994b4ab5ecefac", "lon": -77.03482883333334, "is_reserved": 0, "is_disabled": 0, "name": "1c3b8f2a897bdf7993994b4ab5ecefac"}, {"rental_uris": {"android": "https://dc.lft.to/lastmile_qr_scan", "ios": "https://dc.lft.to/lastmile_qr_scan"}, "lat": 38.878966166666665, "fusion_lon": 0.0, "fusion_lat": 0.0, "type": "electric_scooter", "bike_id": "6d6b0412923b5aed1ae24d1d9884e338", "lon": -76.93521066666666, "is_reserved": 0, "is_disabled": 0, "name": "6d6b0412923b5aed1ae24d1d9884e338"}, {"rental_uris": {"android": "https://dc.lft.to/lastmile_qr_scan", "ios": "https://dc.lft.to/lastmile_qr_scan"}, "lat": 38.904798166666666, "fusion_lon": 0.0, "fusion_lat": 0.0, "type": "electric_scooter", "bike_id": "81628fbc6720bbec79e289d1c9cfe48c", "lon": -77.04871216666666, "is_reserved": 0, "is_disabled": 0, "name": "81628fbc6720bbec79e289d1c9cfe48c"}, {"rental_uris": {"android": "https://dc.lft.to/lastmile_qr_scan", "ios": "https://dc.lft.to/lastmile_qr_scan"}, "lat": 38.9673155, "fusion_lon": 0.0, "fusion_lat": 0.0, "type": "electric_scooter", "bike_id": "1ef86cdf39cf6bd1d07f9bcfcf3a8604", "lon": -77.02529866666667, "is_reserved": 0, "is_disabled": 0, "name": "1ef86cdf39cf6bd1d07f9bcfcf3a8604"}, {"rental_uris": {"android": "https://dc.lft.to/lastmile_qr_scan", "ios": "https://dc.lft.to/lastmile_qr_scan"}, "lat": 38.8809625, "fusion_lon": 0.0, "fusion_lat": 0.0, "type": "electric_scooter", "bike_id": "c93b03feac712d51f2402ec357e81203", "lon": -76.99502133333333, "is_reserved": 0, "is_disabled": 0, "name": "c93b03feac712d51f2402ec357e81203"}, {"rental_uris": {"android": "https://dc.lft.to/lastmile_qr_scan", "ios": "https://dc.lft.to/lastmile_qr_scan"}, "lat": 38.90732966666667, "fusion_lon": 0.0, "fusion_lat": 0.0, "type": "electric_scooter", "bike_id": "1299b748bc971ba336cbe94dc79cd213", "lon": -77.00267766666667, "is_reserved": 0, "is_disabled": 0, "name": "1299b748bc971ba336cbe94dc79cd213"}, {"rental_uris": {"android": "https://dc.lft.to/lastmile_qr_scan", "ios": "https://dc.lft.to/lastmile_qr_scan"}, "lat": 38.8997585, "fusion_lon": 0.0, "fusion_lat": 0.0, "type": "electric_scooter", "bike_id": "1289929391d31f16ed4d64058950b73a", "lon": -76.99145716666666, "is_reserved": 0, "is_disabled": 0, "name": "1289929391d31f16ed4d64058950b73a"}, {"rental_uris": {"android": "https://dc.lft.to/lastmile_qr_scan", "ios": "https://dc.lft.to/lastmile_qr_scan"}, "lat": 38.89717233333333, "fusion_lon": 0.0, "fusion_lat": 0.0, "type": "electric_scooter", "bike_id": "c719c8de7085f234cc89a032774b5cef", "lon": -77.0327995, "is_reserved": 0, "is_disabled": 0, "name": "c719c8de7085f234cc89a032774b5cef"}, {"rental_uris": {"android": "https://dc.lft.to/lastmile_qr_scan", "ios": "https://dc.lft.to/lastmile_qr_scan"}, "lat": 38.90581483333333, "fusion_lon": 0.0, "fusion_lat": 0.0, "type": "electric_scooter", "bike_id": "db10cd0c6f29b5433811bf7ff1ffa593", "lon": -77.0060905, "is_reserved": 0, "is_disabled": 0, "name": "db10cd0c6f29b5433811bf7ff1ffa593"}, {"rental_uris": {"android": "https://dc.lft.to/lastmile_qr_scan", "ios": "https://dc.lft.to/lastmile_qr_scan"}, "lat": 38.908223, "fusion_lon": 0.0, "fusion_lat": 0.0, "type": "electric_scooter", "bike_id": "d5e4a1075595c1836f1a6f8adc83a17b", "lon": -77.03571416666666, "is_reserved": 0, "is_disabled": 0, "name": "d5e4a1075595c1836f1a6f8adc83a17b"}, {"rental_uris": {"android": "https://dc.lft.to/lastmile_qr_scan", "ios": "https://dc.lft.to/lastmile_qr_scan"}, "lat": 38.923793, "fusion_lon": 0.0, "fusion_lat": 0.0, "type": "electric_scooter", "bike_id": "a8c4c54b60788d9e9885fbbaae35d1f7", "lon": -77.01952366666667, "is_reserved": 0, "is_disabled": 0, "name": "a8c4c54b60788d9e9885fbbaae35d1f7"}, {"rental_uris": {"android": "https://dc.lft.to/lastmile_qr_scan", "ios": "https://dc.lft.to/lastmile_qr_scan"}, "lat": 38.92366366666667, "fusion_lon": 0.0, "fusion_lat": 0.0, "type": "electric_scooter", "bike_id": "f230429fc8c28aa78e6dabcb1f1629b3", "lon": -77.07230166666666, "is_reserved": 0, "is_disabled": 0, "name": "f230429fc8c28aa78e6dabcb1f1629b3"}, {"rental_uris": {"android": "https://dc.lft.to/lastmile_qr_scan", "ios": "https://dc.lft.to/lastmile_qr_scan"}, "lat": 38.90593916666667, "fusion_lon": 0.0, "fusion_lat": 0.0, "type": "electric_scooter", "bike_id": "72c2edd0ba662fa7b02d6c67e90c875f", "lon": -76.985444, "is_reserved": 0, "is_disabled": 0, "name": "72c2edd0ba662fa7b02d6c67e90c875f"}, {"rental_uris": {"android": "https://dc.lft.to/lastmile_qr_scan", "ios": "https://dc.lft.to/lastmile_qr_scan"}, "lat": 38.9432275, "fusion_lon": 0.0, "fusion_lat": 0.0, "type": "electric_scooter", "bike_id": "a214d7cd268049ad238fade8292905ea", "lon": -77.01312233333333, "is_reserved": 0, "is_disabled": 0, "name": "a214d7cd268049ad238fade8292905ea"}, {"rental_uris": {"android": "https://dc.lft.to/lastmile_qr_scan", "ios": "https://dc.lft.to/lastmile_qr_scan"}, "lat": 38.899836666666666, "fusion_lon": 0.0, "fusion_lat": 0.0, "type": "electric_scooter", "bike_id": "ee292a680acfb970a35ca80eac5298dd", "lon": -77.02191933333333, "is_reserved": 0, "is_disabled": 0, "name": "ee292a680acfb970a35ca80eac5298dd"}, {"rental_uris": {"android": "https://dc.lft.to/lastmile_qr_scan", "ios": "https://dc.lft.to/lastmile_qr_scan"}, "lat": 38.89934266666667, "fusion_lon": 0.0, "fusion_lat": 0.0, "type": "electric_scooter", "bike_id": "d0f62728dcbc3ec68530d2caec1010e5", "lon": -77.04997066666667, "is_reserved": 0, "is_disabled": 0, "name": "d0f62728dcbc3ec68530d2caec1010e5"}, {"rental_uris": {"android": "https://dc.lft.to/lastmile_qr_scan", "ios": "https://dc.lft.to/lastmile_qr_scan"}, "lat": 38.9163055, "fusion_lon": 0.0, "fusion_lat": 0.0, "type": "electric_scooter", "bike_id": "2d23db09f2f555455ebdf8a8e9cd01d0", "lon": -77.03502116666667, "is_reserved": 0, "is_disabled": 0, "name": "2d23db09f2f555455ebdf8a8e9cd01d0"}, {"rental_uris": {"android": "https://dc.lft.to/lastmile_qr_scan", "ios": "https://dc.lft.to/lastmile_qr_scan"}, "lat": 38.901391833333335, "fusion_lon": 0.0, "fusion_lat": 0.0, "type": "electric_scooter", "bike_id": "a638a5921b9c70bbd26b5ddeb34462bc", "lon": -77.04358833333333, "is_reserved": 0, "is_disabled": 0, "name": "a638a5921b9c70bbd26b5ddeb34462bc"}, {"rental_uris": {"android": "https://dc.lft.to/lastmile_qr_scan", "ios": "https://dc.lft.to/lastmile_qr_scan"}, "lat": 38.90852916666667, "fusion_lon": 0.0, "fusion_lat": 0.0, "type": "electric_scooter", "bike_id": "c75653ab42785ca8b9f964f0751b8172", "lon": -77.045824, "is_reserved": 0, "is_disabled": 0, "name": "c75653ab42785ca8b9f964f0751b8172"}, {"rental_uris": {"android": "https://dc.lft.to/lastmile_qr_scan", "ios": "https://dc.lft.to/lastmile_qr_scan"}, "lat": 38.922869666666664, "fusion_lon": 0.0, "fusion_lat": 0.0, "type": "electric_scooter", "bike_id": "07ee588a667283e92164cec8b2c1e5fd", "lon": -77.0296315, "is_reserved": 0, "is_disabled": 0, "name": "07ee588a667283e92164cec8b2c1e5fd"}, {"rental_uris": {"android": "https://dc.lft.to/lastmile_qr_scan", "ios": "https://dc.lft.to/lastmile_qr_scan"}, "lat": 38.92748566666667, "fusion_lon": 0.0, "fusion_lat": 0.0, "type": "electric_scooter", "bike_id": "3fde428fa5aacda0d8476f76af4814c0", "lon": -77.0253365, "is_reserved": 0, "is_disabled": 0, "name": "3fde428fa5aacda0d8476f76af4814c0"}, {"rental_uris": {"android": "https://dc.lft.to/lastmile_qr_scan", "ios": "https://dc.lft.to/lastmile_qr_scan"}, "lat": 38.9025995, "fusion_lon": 0.0, "fusion_lat": 0.0, "type": "electric_scooter", "bike_id": "b228bfc9309580efb42297e5469e4e72", "lon": -77.03515683333333, "is_reserved": 0, "is_disabled": 0, "name": "b228bfc9309580efb42297e5469e4e72"}, {"rental_uris": {"android": "https://dc.lft.to/lastmile_qr_scan", "ios": "https://dc.lft.to/lastmile_qr_scan"}, "lat": 38.93061316666667, "fusion_lon": 0.0, "fusion_lat": 0.0, "type": "electric_scooter", "bike_id": "a1c289f3442c427095509bccbf42d55c", "lon": -77.03935683333333, "is_reserved": 0, "is_disabled": 0, "name": "a1c289f3442c427095509bccbf42d55c"}, {"rental_uris": {"android": "https://dc.lft.to/lastmile_qr_scan", "ios": "https://dc.lft.to/lastmile_qr_scan"}, "lat": 38.892716, "fusion_lon": 0.0, "fusion_lat": 0.0, "type": "electric_scooter", "bike_id": "66dc1b663cc60925d2b8314cb1e01075", "lon": -76.98371466666667, "is_reserved": 0, "is_disabled": 0, "name": "66dc1b663cc60925d2b8314cb1e01075"}, {"rental_uris": {"android": "https://dc.lft.to/lastmile_qr_scan", "ios": "https://dc.lft.to/lastmile_qr_scan"}, "lat": 38.897280333333335, "fusion_lon": 0.0, "fusion_lat": 0.0, "type": "electric_scooter", "bike_id": "88b53c7f70b01cbcdc422703223d4d6c", "lon": -77.03064633333334, "is_reserved": 0, "is_disabled": 0, "name": "88b53c7f70b01cbcdc422703223d4d6c"}, {"rental_uris": {"android": "https://dc.lft.to/lastmile_qr_scan", "ios": "https://dc.lft.to/lastmile_qr_scan"}, "lat": 38.9396825, "fusion_lon": 0.0, "fusion_lat": 0.0, "type": "electric_scooter", "bike_id": "af55364924c4d74972e433047f7e00da", "lon": -77.02944116666667, "is_reserved": 0, "is_disabled": 0, "name": "af55364924c4d74972e433047f7e00da"}, {"rental_uris": {"android": "https://dc.lft.to/lastmile_qr_scan", "ios": "https://dc.lft.to/lastmile_qr_scan"}, "lat": 38.88609616666667, "fusion_lon": 0.0, "fusion_lat": 0.0, "type": "electric_scooter", "bike_id": "2e4ed9e8c4e731c57ced34d2afee2aab", "lon": -77.00329683333334, "is_reserved": 0, "is_disabled": 0, "name": "2e4ed9e8c4e731c57ced34d2afee2aab"}, {"rental_uris": {"android": "https://dc.lft.to/lastmile_qr_scan", "ios": "https://dc.lft.to/lastmile_qr_scan"}, "lat": 38.914331, "fusion_lon": 0.0, "fusion_lat": 0.0, "type": "electric_scooter", "bike_id": "d9d554c539106ee81beab347404ea651", "lon": -77.0281265, "is_reserved": 0, "is_disabled": 0, "name": "d9d554c539106ee81beab347404ea651"}, {"rental_uris": {"android": "https://dc.lft.to/lastmile_qr_scan", "ios": "https://dc.lft.to/lastmile_qr_scan"}, "lat": 38.9091905, "fusion_lon": 0.0, "fusion_lat": 0.0, "type": "electric_scooter", "bike_id": "6465e4dec5c59eb211d44a1ef0bfdbbb", "lon": -77.07272483333334, "is_reserved": 0, "is_disabled": 0, "name": "6465e4dec5c59eb211d44a1ef0bfdbbb"}, {"rental_uris": {"android": "https://dc.lft.to/lastmile_qr_scan", "ios": "https://dc.lft.to/lastmile_qr_scan"}, "lat": 38.89734283333333, "fusion_lon": 0.0, "fusion_lat": 0.0, "type": "electric_scooter", "bike_id": "34aa999eaaeaa39515eab503dbab62df", "lon": -77.02220233333334, "is_reserved": 0, "is_disabled": 0, "name": "34aa999eaaeaa39515eab503dbab62df"}, {"rental_uris": {"android": "https://dc.lft.to/lastmile_qr_scan", "ios": "https://dc.lft.to/lastmile_qr_scan"}, "lat": 38.88725133333333, "fusion_lon": 0.0, "fusion_lat": 0.0, "type": "electric_scooter", "bike_id": "2725afef62a918f8ae34f8445619d0b9", "lon": -76.98376716666667, "is_reserved": 0, "is_disabled": 0, "name": "2725afef62a918f8ae34f8445619d0b9"}, {"rental_uris": {"android": "https://dc.lft.to/lastmile_qr_scan", "ios": "https://dc.lft.to/lastmile_qr_scan"}, "lat": 38.897810166666666, "fusion_lon": 0.0, "fusion_lat": 0.0, "type": "electric_scooter", "bike_id": "c44a28a0b3148b872c65e0bbc765c0bd", "lon": -77.02217933333333, "is_reserved": 0, "is_disabled": 0, "name": "c44a28a0b3148b872c65e0bbc765c0bd"}, {"rental_uris": {"android": "https://dc.lft.to/lastmile_qr_scan", "ios": "https://dc.lft.to/lastmile_qr_scan"}, "lat": 38.90034383333333, "fusion_lon": 0.0, "fusion_lat": 0.0, "type": "electric_scooter", "bike_id": "cfb44464b3a84baa953f3f4d59f102f2", "lon": -76.991555, "is_reserved": 0, "is_disabled": 0, "name": "cfb44464b3a84baa953f3f4d59f102f2"}, {"rental_uris": {"android": "https://dc.lft.to/lastmile_qr_scan", "ios": "https://dc.lft.to/lastmile_qr_scan"}, "lat": 38.923315333333335, "fusion_lon": 0.0, "fusion_lat": 0.0, "type": "electric_scooter", "bike_id": "77b3b00a73655700c520e9eb7c2fceac", "lon": -77.0568375, "is_reserved": 0, "is_disabled": 0, "name": "77b3b00a73655700c520e9eb7c2fceac"}, {"rental_uris": {"android": "https://dc.lft.to/lastmile_qr_scan", "ios": "https://dc.lft.to/lastmile_qr_scan"}, "lat": 38.921686, "fusion_lon": 0.0, "fusion_lat": 0.0, "type": "electric_scooter", "bike_id": "884b6eccccaadfe3fc534d44d8bf58a2", "lon": -77.02111516666666, "is_reserved": 0, "is_disabled": 0, "name": "884b6eccccaadfe3fc534d44d8bf58a2"}, {"rental_uris": {"android": "https://dc.lft.to/lastmile_qr_scan", "ios": "https://dc.lft.to/lastmile_qr_scan"}, "lat": 38.923616333333335, "fusion_lon": 0.0, "fusion_lat": 0.0, "type": "electric_scooter", "bike_id": "14216cba06c0eb08cda8bb130a024eea", "lon": -77.05128116666667, "is_reserved": 0, "is_disabled": 0, "name": "14216cba06c0eb08cda8bb130a024eea"}, {"rental_uris": {"android": "https://dc.lft.to/lastmile_qr_scan", "ios": "https://dc.lft.to/lastmile_qr_scan"}, "lat": 38.887355, "fusion_lon": 0.0, "fusion_lat": 0.0, "type": "electric_scooter", "bike_id": "0c7cdf4f68f328e81cea405b02a0ff29", "lon": -77.0257785, "is_reserved": 0, "is_disabled": 0, "name": "0c7cdf4f68f328e81cea405b02a0ff29"}, {"rental_uris": {"android": "https://dc.lft.to/lastmile_qr_scan", "ios": "https://dc.lft.to/lastmile_qr_scan"}, "lat": 38.9066795, "fusion_lon": 0.0, "fusion_lat": 0.0, "type": "electric_scooter", "bike_id": "b47ac653b045100327a82b8094f173d1", "lon": -77.071507, "is_reserved": 0, "is_disabled": 0, "name": "b47ac653b045100327a82b8094f173d1"}, {"rental_uris": {"android": "https://dc.lft.to/lastmile_qr_scan", "ios": "https://dc.lft.to/lastmile_qr_scan"}, "lat": 38.89869066666667, "fusion_lon": 0.0, "fusion_lat": 0.0, "type": "electric_scooter", "bike_id": "4a8f6b483a23c19c46ff0cea1d413b8b", "lon": -76.94663633333333, "is_reserved": 0, "is_disabled": 0, "name": "4a8f6b483a23c19c46ff0cea1d413b8b"}, {"rental_uris": {"android": "https://dc.lft.to/lastmile_qr_scan", "ios": "https://dc.lft.to/lastmile_qr_scan"}, "lat": 38.9018835, "fusion_lon": 0.0, "fusion_lat": 0.0, "type": "electric_scooter", "bike_id": "a5dac70fda1a82546785c89b5ad221ac", "lon": -77.00213383333333, "is_reserved": 0, "is_disabled": 0, "name": "a5dac70fda1a82546785c89b5ad221ac"}, {"rental_uris": {"android": "https://dc.lft.to/lastmile_qr_scan", "ios": "https://dc.lft.to/lastmile_qr_scan"}, "lat": 38.93103, "fusion_lon": 0.0, "fusion_lat": 0.0, "type": "electric_scooter", "bike_id": "fe08a4a4d0bdd70ac278cd5b03bade5d", "lon": -77.09109216666667, "is_reserved": 0, "is_disabled": 0, "name": "fe08a4a4d0bdd70ac278cd5b03bade5d"}, {"rental_uris": {"android": "https://dc.lft.to/lastmile_qr_scan", "ios": "https://dc.lft.to/lastmile_qr_scan"}, "lat": 38.92404583333333, "fusion_lon": 0.0, "fusion_lat": 0.0, "type": "electric_scooter", "bike_id": "af733c60a4e66e2c1a3bfc9b87707c07", "lon": -77.02741933333333, "is_reserved": 0, "is_disabled": 0, "name": "af733c60a4e66e2c1a3bfc9b87707c07"}, {"rental_uris": {"android": "https://dc.lft.to/lastmile_qr_scan", "ios": "https://dc.lft.to/lastmile_qr_scan"}, "lat": 38.9244695, "fusion_lon": 0.0, "fusion_lat": 0.0, "type": "electric_scooter", "bike_id": "0cdf6268845d6a81dfbb4a23d9d64b10", "lon": -77.0203375, "is_reserved": 0, "is_disabled": 0, "name": "0cdf6268845d6a81dfbb4a23d9d64b10"}, {"rental_uris": {"android": "https://dc.lft.to/lastmile_qr_scan", "ios": "https://dc.lft.to/lastmile_qr_scan"}, "lat": 38.88595133333333, "fusion_lon": 0.0, "fusion_lat": 0.0, "type": "electric_scooter", "bike_id": "d772e2e1370c6add70d9965cb97f270a", "lon": -77.011796, "is_reserved": 0, "is_disabled": 0, "name": "d772e2e1370c6add70d9965cb97f270a"}, {"rental_uris": {"android": "https://dc.lft.to/lastmile_qr_scan", "ios": "https://dc.lft.to/lastmile_qr_scan"}, "lat": 38.89223033333333, "fusion_lon": 0.0, "fusion_lat": 0.0, "type": "electric_scooter", "bike_id": "c65d02c9cfcb3a69f1ca2e44864c4e0f", "lon": -77.03219383333334, "is_reserved": 0, "is_disabled": 0, "name": "c65d02c9cfcb3a69f1ca2e44864c4e0f"}, {"rental_uris": {"android": "https://dc.lft.to/lastmile_qr_scan", "ios": "https://dc.lft.to/lastmile_qr_scan"}, "lat": 38.928695833333336, "fusion_lon": 0.0, "fusion_lat": 0.0, "type": "electric_scooter", "bike_id": "c2c675abef2769371ef4cc6b10f94537", "lon": -77.01367266666666, "is_reserved": 0, "is_disabled": 0, "name": "c2c675abef2769371ef4cc6b10f94537"}, {"rental_uris": {"android": "https://dc.lft.to/lastmile_qr_scan", "ios": "https://dc.lft.to/lastmile_qr_scan"}, "lat": 38.894126, "fusion_lon": 0.0, "fusion_lat": 0.0, "type": "electric_scooter", "bike_id": "a891964bd749ccbff3f60ac9bf15deba", "lon": -77.02171533333333, "is_reserved": 0, "is_disabled": 0, "name": "a891964bd749ccbff3f60ac9bf15deba"}, {"rental_uris": {"android": "https://dc.lft.to/lastmile_qr_scan", "ios": "https://dc.lft.to/lastmile_qr_scan"}, "lat": 38.865626666666664, "fusion_lon": 0.0, "fusion_lat": 0.0, "type": "electric_bike", "bike_id": "dc30cdea7a3e9b5f79203987ea165e81", "lon": -76.97348566666666, "is_reserved": 0, "is_disabled": 0, "name": "dc30cdea7a3e9b5f79203987ea165e81"}, {"rental_uris": {"android": "https://dc.lft.to/lastmile_qr_scan", "ios": "https://dc.lft.to/lastmile_qr_scan"}, "lat": 38.900313, "fusion_lon": 0.0, "fusion_lat": 0.0, "type": "electric_scooter", "bike_id": "30a33b71d0ce40d77791d8398dcdf67c", "lon": -76.98860533333334, "is_reserved": 0, "is_disabled": 0, "name": "30a33b71d0ce40d77791d8398dcdf67c"}, {"rental_uris": {"android": "https://dc.lft.to/lastmile_qr_scan", "ios": "https://dc.lft.to/lastmile_qr_scan"}, "lat": 38.906459166666664, "fusion_lon": 0.0, "fusion_lat": 0.0, "type": "electric_scooter", "bike_id": "0bbb8c7608a775d54d8160f1e32aadd6", "lon": -76.98377783333333, "is_reserved": 0, "is_disabled": 0, "name": "0bbb8c7608a775d54d8160f1e32aadd6"}, {"rental_uris": {"android": "https://dc.lft.to/lastmile_qr_scan", "ios": "https://dc.lft.to/lastmile_qr_scan"}, "lat": 38.863735166666665, "fusion_lon": 0.0, "fusion_lat": 0.0, "type": "electric_scooter", "bike_id": "a742e5ef375805bb9d24619ce006b433", "lon": -76.9905775, "is_reserved": 0, "is_disabled": 0, "name": "a742e5ef375805bb9d24619ce006b433"}, {"rental_uris": {"android": "https://dc.lft.to/lastmile_qr_scan", "ios": "https://dc.lft.to/lastmile_qr_scan"}, "lat": 38.899015, "fusion_lon": 0.0, "fusion_lat": 0.0, "type": "electric_scooter", "bike_id": "0ed6986bd580eeb7dc555dcdb6c06598", "lon": -77.03277633333333, "is_reserved": 0, "is_disabled": 0, "name": "0ed6986bd580eeb7dc555dcdb6c06598"}, {"rental_uris": {"android": "https://dc.lft.to/lastmile_qr_scan", "ios": "https://dc.lft.to/lastmile_qr_scan"}, "lat": 38.92786366666667, "fusion_lon": 0.0, "fusion_lat": 0.0, "type": "electric_scooter", "bike_id": "72edd0fd7cbb1ede927f6c9a1d830bb7", "lon": -77.02107116666667, "is_reserved": 0, "is_disabled": 0, "name": "72edd0fd7cbb1ede927f6c9a1d830bb7"}, {"rental_uris": {"android": "https://dc.lft.to/lastmile_qr_scan", "ios": "https://dc.lft.to/lastmile_qr_scan"}, "lat": 38.906569, "fusion_lon": 0.0, "fusion_lat": 0.0, "type": "electric_scooter", "bike_id": "c167dc92aba50d1fccf6aec8fcd590af", "lon": -76.98595033333334, "is_reserved": 0, "is_disabled": 0, "name": "c167dc92aba50d1fccf6aec8fcd590af"}, {"rental_uris": {"android": "https://dc.lft.to/lastmile_qr_scan", "ios": "https://dc.lft.to/lastmile_qr_scan"}, "lat": 38.8994035, "fusion_lon": 0.0, "fusion_lat": 0.0, "type": "electric_scooter", "bike_id": "dda941983010d4282f517fbb1a3c3def", "lon": -77.02174933333333, "is_reserved": 0, "is_disabled": 0, "name": "dda941983010d4282f517fbb1a3c3def"}, {"rental_uris": {"android": "https://dc.lft.to/lastmile_qr_scan", "ios": "https://dc.lft.to/lastmile_qr_scan"}, "lat": 38.99806016666667, "fusion_lon": 0.0, "fusion_lat": 0.0, "type": "electric_bike", "bike_id": "712caf137289355990a9e1456aea0cfc", "lon": -76.99778766666667, "is_reserved": 0, "is_disabled": 0, "name": "712caf137289355990a9e1456aea0cfc"}, {"rental_uris": {"android": "https://dc.lft.to/lastmile_qr_scan", "ios": "https://dc.lft.to/lastmile_qr_scan"}, "lat": 38.91807683333333, "fusion_lon": 0.0, "fusion_lat": 0.0, "type": "electric_scooter", "bike_id": "f7f256a9ab5a018670fcc75757e69434", "lon": -77.0329465, "is_reserved": 0, "is_disabled": 0, "name": "f7f256a9ab5a018670fcc75757e69434"}, {"rental_uris": {"android": "https://dc.lft.to/lastmile_qr_scan", "ios": "https://dc.lft.to/lastmile_qr_scan"}, "lat": 38.920772166666666, "fusion_lon": 0.0, "fusion_lat": 0.0, "type": "electric_scooter", "bike_id": "1b333fac507a59644b330860137a527e", "lon": -77.01818266666666, "is_reserved": 0, "is_disabled": 0, "name": "1b333fac507a59644b330860137a527e"}, {"rental_uris": {"android": "https://dc.lft.to/lastmile_qr_scan", "ios": "https://dc.lft.to/lastmile_qr_scan"}, "lat": 38.92381616666667, "fusion_lon": 0.0, "fusion_lat": 0.0, "type": "electric_scooter", "bike_id": "6ef78f8b60770804eeab2fe45847d2f9", "lon": -77.02637566666667, "is_reserved": 0, "is_disabled": 0, "name": "6ef78f8b60770804eeab2fe45847d2f9"}, {"rental_uris": {"android": "https://dc.lft.to/lastmile_qr_scan", "ios": "https://dc.lft.to/lastmile_qr_scan"}, "lat": 38.9207585, "fusion_lon": 0.0, "fusion_lat": 0.0, "type": "electric_scooter", "bike_id": "53dca7288450c632cecd12fc97865e6e", "lon": -77.02307066666667, "is_reserved": 0, "is_disabled": 0, "name": "53dca7288450c632cecd12fc97865e6e"}, {"rental_uris": {"android": "https://dc.lft.to/lastmile_qr_scan", "ios": "https://dc.lft.to/lastmile_qr_scan"}, "lat": 38.892075, "fusion_lon": 0.0, "fusion_lat": 0.0, "type": "electric_scooter", "bike_id": "a5bbce29ba04f684ee6a33aa26451acc", "lon": -76.96102466666666, "is_reserved": 0, "is_disabled": 0, "name": "a5bbce29ba04f684ee6a33aa26451acc"}, {"rental_uris": {"android": "https://dc.lft.to/lastmile_qr_scan", "ios": "https://dc.lft.to/lastmile_qr_scan"}, "lat": 38.91671766666666, "fusion_lon": 0.0, "fusion_lat": 0.0, "type": "electric_scooter", "bike_id": "2e2228c8a68cc9237831e0feaf6ab711", "lon": -77.03184066666667, "is_reserved": 0, "is_disabled": 0, "name": "2e2228c8a68cc9237831e0feaf6ab711"}, {"rental_uris": {"android": "https://dc.lft.to/lastmile_qr_scan", "ios": "https://dc.lft.to/lastmile_qr_scan"}, "lat": 38.907096333333335, "fusion_lon": 0.0, "fusion_lat": 0.0, "type": "electric_scooter", "bike_id": "5d7db7442352f592b8ef805da0dab94c", "lon": -77.03616366666667, "is_reserved": 0, "is_disabled": 0, "name": "5d7db7442352f592b8ef805da0dab94c"}, {"rental_uris": {"android": "https://dc.lft.to/lastmile_qr_scan", "ios": "https://dc.lft.to/lastmile_qr_scan"}, "lat": 38.94224066666666, "fusion_lon": 0.0, "fusion_lat": 0.0, "type": "electric_scooter", "bike_id": "57899d42ab62a146b628513bd2266f47", "lon": -77.06217716666667, "is_reserved": 0, "is_disabled": 0, "name": "57899d42ab62a146b628513bd2266f47"}, {"rental_uris": {"android": "https://dc.lft.to/lastmile_qr_scan", "ios": "https://dc.lft.to/lastmile_qr_scan"}, "lat": 38.90077, "fusion_lon": 0.0, "fusion_lat": 0.0, "type": "electric_scooter", "bike_id": "889f8ac51c4eece228ad80794d4a2459", "lon": -77.0129935, "is_reserved": 0, "is_disabled": 0, "name": "889f8ac51c4eece228ad80794d4a2459"}, {"rental_uris": {"android": "https://dc.lft.to/lastmile_qr_scan", "ios": "https://dc.lft.to/lastmile_qr_scan"}, "lat": 38.93886, "fusion_lon": 0.0, "fusion_lat": 0.0, "type": "electric_scooter", "bike_id": "eb37cf543977924fbc4494d257bd58b5", "lon": -77.0283425, "is_reserved": 0, "is_disabled": 0, "name": "eb37cf543977924fbc4494d257bd58b5"}, {"rental_uris": {"android": "https://dc.lft.to/lastmile_qr_scan", "ios": "https://dc.lft.to/lastmile_qr_scan"}, "lat": 38.914771333333334, "fusion_lon": 0.0, "fusion_lat": 0.0, "type": "electric_scooter", "bike_id": "37f2081dc7e00fa62f0659697f6157b9", "lon": -77.05445433333334, "is_reserved": 0, "is_disabled": 0, "name": "37f2081dc7e00fa62f0659697f6157b9"}, {"rental_uris": {"android": "https://dc.lft.to/lastmile_qr_scan", "ios": "https://dc.lft.to/lastmile_qr_scan"}, "lat": 38.893543666666666, "fusion_lon": 0.0, "fusion_lat": 0.0, "type": "electric_scooter", "bike_id": "623519362c486fae3e705e0f64582679", "lon": -77.00285566666666, "is_reserved": 0, "is_disabled": 0, "name": "623519362c486fae3e705e0f64582679"}, {"rental_uris": {"android": "https://dc.lft.to/lastmile_qr_scan", "ios": "https://dc.lft.to/lastmile_qr_scan"}, "lat": 38.895900166666664, "fusion_lon": 0.0, "fusion_lat": 0.0, "type": "electric_scooter", "bike_id": "c84a5ffc946dcd1940999c461380db80", "lon": -77.027127, "is_reserved": 0, "is_disabled": 0, "name": "c84a5ffc946dcd1940999c461380db80"}, {"rental_uris": {"android": "https://dc.lft.to/lastmile_qr_scan", "ios": "https://dc.lft.to/lastmile_qr_scan"}, "lat": 38.891975333333335, "fusion_lon": 0.0, "fusion_lat": 0.0, "type": "electric_scooter", "bike_id": "608a950cfe04e245f6dfd2089a9ac0ca", "lon": -77.00221566666667, "is_reserved": 0, "is_disabled": 0, "name": "608a950cfe04e245f6dfd2089a9ac0ca"}, {"rental_uris": {"android": "https://dc.lft.to/lastmile_qr_scan", "ios": "https://dc.lft.to/lastmile_qr_scan"}, "lat": 38.918168666666666, "fusion_lon": 0.0, "fusion_lat": 0.0, "type": "electric_scooter", "bike_id": "2e783db02e826237c9964d674fa1acbb", "lon": -77.02719816666666, "is_reserved": 0, "is_disabled": 0, "name": "2e783db02e826237c9964d674fa1acbb"}, {"rental_uris": {"android": "https://dc.lft.to/lastmile_qr_scan", "ios": "https://dc.lft.to/lastmile_qr_scan"}, "lat": 38.904325666666665, "fusion_lon": 0.0, "fusion_lat": 0.0, "type": "electric_scooter", "bike_id": "1e488dfe7fcc28aac080e9515f92fb1d", "lon": -77.0435675, "is_reserved": 0, "is_disabled": 0, "name": "1e488dfe7fcc28aac080e9515f92fb1d"}, {"rental_uris": {"android": "https://dc.lft.to/lastmile_qr_scan", "ios": "https://dc.lft.to/lastmile_qr_scan"}, "lat": 38.89113283333333, "fusion_lon": 0.0, "fusion_lat": 0.0, "type": "electric_bike", "bike_id": "ef17db77490b74320af4846a9c804eed", "lon": -76.95198733333334, "is_reserved": 0, "is_disabled": 0, "name": "ef17db77490b74320af4846a9c804eed"}, {"rental_uris": {"android": "https://dc.lft.to/lastmile_qr_scan", "ios": "https://dc.lft.to/lastmile_qr_scan"}, "lat": 38.952562666666665, "fusion_lon": 0.0, "fusion_lat": 0.0, "type": "electric_scooter", "bike_id": "3c792f60907bf4bd61d793ed139b479c", "lon": -77.02071466666666, "is_reserved": 0, "is_disabled": 0, "name": "3c792f60907bf4bd61d793ed139b479c"}, {"rental_uris": {"android": "https://dc.lft.to/lastmile_qr_scan", "ios": "https://dc.lft.to/lastmile_qr_scan"}, "lat": 38.93253083333333, "fusion_lon": 0.0, "fusion_lat": 0.0, "type": "electric_bike", "bike_id": "e27b8007962a14327ffa6828f36caac7", "lon": -77.06561533333333, "is_reserved": 0, "is_disabled": 0, "name": "e27b8007962a14327ffa6828f36caac7"}, {"rental_uris": {"android": "https://dc.lft.to/lastmile_qr_scan", "ios": "https://dc.lft.to/lastmile_qr_scan"}, "lat": 38.902567166666664, "fusion_lon": 0.0, "fusion_lat": 0.0, "type": "electric_scooter", "bike_id": "55123fc40a144c34d4b17c3be06e901b", "lon": -76.99858066666667, "is_reserved": 0, "is_disabled": 0, "name": "55123fc40a144c34d4b17c3be06e901b"}, {"rental_uris": {"android": "https://dc.lft.to/lastmile_qr_scan", "ios": "https://dc.lft.to/lastmile_qr_scan"}, "lat": 38.91047066666667, "fusion_lon": 0.0, "fusion_lat": 0.0, "type": "electric_scooter", "bike_id": "8b3f328c61345a310ff64dfcadeeedcb", "lon": -77.06459016666666, "is_reserved": 0, "is_disabled": 0, "name": "8b3f328c61345a310ff64dfcadeeedcb"}, {"rental_uris": {"android": "https://dc.lft.to/lastmile_qr_scan", "ios": "https://dc.lft.to/lastmile_qr_scan"}, "lat": 38.90851266666667, "fusion_lon": 0.0, "fusion_lat": 0.0, "type": "electric_scooter", "bike_id": "3b380661842d09ec11ad984c8343b8ee", "lon": -77.04520166666667, "is_reserved": 0, "is_disabled": 0, "name": "3b380661842d09ec11ad984c8343b8ee"}, {"rental_uris": {"android": "https://dc.lft.to/lastmile_qr_scan", "ios": "https://dc.lft.to/lastmile_qr_scan"}, "lat": 38.898540833333335, "fusion_lon": 0.0, "fusion_lat": 0.0, "type": "electric_scooter", "bike_id": "626e89f340e912ca73fa7909315c3c28", "lon": -77.04354166666667, "is_reserved": 0, "is_disabled": 0, "name": "626e89f340e912ca73fa7909315c3c28"}, {"rental_uris": {"android": "https://dc.lft.to/lastmile_qr_scan", "ios": "https://dc.lft.to/lastmile_qr_scan"}, "lat": 38.92355633333333, "fusion_lon": 0.0, "fusion_lat": 0.0, "type": "electric_scooter", "bike_id": "271b4144b89dc31e88e9f23d659f6538", "lon": -77.0415525, "is_reserved": 0, "is_disabled": 0, "name": "271b4144b89dc31e88e9f23d659f6538"}, {"rental_uris": {"android": "https://dc.lft.to/lastmile_qr_scan", "ios": "https://dc.lft.to/lastmile_qr_scan"}, "lat": 38.914952, "fusion_lon": 0.0, "fusion_lat": 0.0, "type": "electric_scooter", "bike_id": "e073d33a5f9d5dfe23dff5b775b5af00", "lon": -77.0453835, "is_reserved": 0, "is_disabled": 0, "name": "e073d33a5f9d5dfe23dff5b775b5af00"}, {"rental_uris": {"android": "https://dc.lft.to/lastmile_qr_scan", "ios": "https://dc.lft.to/lastmile_qr_scan"}, "lat": 38.928513833333334, "fusion_lon": 0.0, "fusion_lat": 0.0, "type": "electric_scooter", "bike_id": "f877491313c1832d5d941132f1b6ff0d", "lon": -77.03621416666667, "is_reserved": 0, "is_disabled": 0, "name": "f877491313c1832d5d941132f1b6ff0d"}, {"rental_uris": {"android": "https://dc.lft.to/lastmile_qr_scan", "ios": "https://dc.lft.to/lastmile_qr_scan"}, "lat": 38.89764316666667, "fusion_lon": 0.0, "fusion_lat": 0.0, "type": "electric_scooter", "bike_id": "0acb3b49efe2748e208fd4df8051440a", "lon": -76.98549833333334, "is_reserved": 0, "is_disabled": 0, "name": "0acb3b49efe2748e208fd4df8051440a"}, {"rental_uris": {"android": "https://dc.lft.to/lastmile_qr_scan", "ios": "https://dc.lft.to/lastmile_qr_scan"}, "lat": 38.9552805, "fusion_lon": 0.0, "fusion_lat": 0.0, "type": "electric_bike", "bike_id": "ea551f54d8dd448e697cf7b8818c18d1", "lon": -76.96819033333334, "is_reserved": 0, "is_disabled": 0, "name": "ea551f54d8dd448e697cf7b8818c18d1"}, {"rental_uris": {"android": "https://dc.lft.to/lastmile_qr_scan", "ios": "https://dc.lft.to/lastmile_qr_scan"}, "lat": 38.90003383333333, "fusion_lon": 0.0, "fusion_lat": 0.0, "type": "electric_scooter", "bike_id": "4cb94b56d7a31f3795c8e74c90110e7a", "lon": -77.03302833333333, "is_reserved": 0, "is_disabled": 0, "name": "4cb94b56d7a31f3795c8e74c90110e7a"}, {"rental_uris": {"android": "https://dc.lft.to/lastmile_qr_scan", "ios": "https://dc.lft.to/lastmile_qr_scan"}, "lat": 38.832954666666666, "fusion_lon": 0.0, "fusion_lat": 0.0, "type": "electric_bike", "bike_id": "f024fd3718a23c8a91418630838e5a94", "lon": -77.0840485, "is_reserved": 0, "is_disabled": 0, "name": "f024fd3718a23c8a91418630838e5a94"}, {"rental_uris": {"android": "https://dc.lft.to/lastmile_qr_scan", "ios": "https://dc.lft.to/lastmile_qr_scan"}, "lat": 38.9246785, "fusion_lon": 0.0, "fusion_lat": 0.0, "type": "electric_scooter", "bike_id": "11a4504018554b57611c8c99296f1233", "lon": -77.05237983333333, "is_reserved": 0, "is_disabled": 0, "name": "11a4504018554b57611c8c99296f1233"}, {"rental_uris": {"android": "https://dc.lft.to/lastmile_qr_scan", "ios": "https://dc.lft.to/lastmile_qr_scan"}, "lat": 38.932058166666664, "fusion_lon": 0.0, "fusion_lat": 0.0, "type": "electric_scooter", "bike_id": "65811e0a09a57214e59b950adcd9c945", "lon": -77.02298616666667, "is_reserved": 0, "is_disabled": 0, "name": "65811e0a09a57214e59b950adcd9c945"}, {"rental_uris": {"android": "https://dc.lft.to/lastmile_qr_scan", "ios": "https://dc.lft.to/lastmile_qr_scan"}, "lat": 38.897189166666664, "fusion_lon": 0.0, "fusion_lat": 0.0, "type": "electric_scooter", "bike_id": "fa4ee5fdc612a8874a3aff65ee42b30b", "lon": -77.03249583333333, "is_reserved": 0, "is_disabled": 0, "name": "fa4ee5fdc612a8874a3aff65ee42b30b"}, {"rental_uris": {"android": "https://dc.lft.to/lastmile_qr_scan", "ios": "https://dc.lft.to/lastmile_qr_scan"}, "lat": 38.924862166666664, "fusion_lon": 0.0, "fusion_lat": 0.0, "type": "electric_scooter", "bike_id": "1186b18768ebef2f029fd4fb314ed0ca", "lon": -77.02190683333333, "is_reserved": 0, "is_disabled": 0, "name": "1186b18768ebef2f029fd4fb314ed0ca"}, {"rental_uris": {"android": "https://dc.lft.to/lastmile_qr_scan", "ios": "https://dc.lft.to/lastmile_qr_scan"}, "lat": 38.912725333333334, "fusion_lon": 0.0, "fusion_lat": 0.0, "type": "electric_scooter", "bike_id": "c3920b7c44acf2845f6d2bf150dfa104", "lon": -76.98562683333333, "is_reserved": 0, "is_disabled": 0, "name": "c3920b7c44acf2845f6d2bf150dfa104"}, {"rental_uris": {"android": "https://dc.lft.to/lastmile_qr_scan", "ios": "https://dc.lft.to/lastmile_qr_scan"}, "lat": 38.907348166666665, "fusion_lon": 0.0, "fusion_lat": 0.0, "type": "electric_scooter", "bike_id": "497aa7ff76198cee1f4e0167f9c03f8e", "lon": -77.04160266666666, "is_reserved": 0, "is_disabled": 0, "name": "497aa7ff76198cee1f4e0167f9c03f8e"}, {"rental_uris": {"android": "https://dc.lft.to/lastmile_qr_scan", "ios": "https://dc.lft.to/lastmile_qr_scan"}, "lat": 38.88358866666667, "fusion_lon": 0.0, "fusion_lat": 0.0, "type": "electric_scooter", "bike_id": "76ef5f385442415ab5aaaf572227e430", "lon": -76.95769916666667, "is_reserved": 0, "is_disabled": 0, "name": "76ef5f385442415ab5aaaf572227e430"}, {"rental_uris": {"android": "https://dc.lft.to/lastmile_qr_scan", "ios": "https://dc.lft.to/lastmile_qr_scan"}, "lat": 38.92416083333333, "fusion_lon": 0.0, "fusion_lat": 0.0, "type": "electric_scooter", "bike_id": "217a95ad1bad51ba7a293c81afd36529", "lon": -77.02128983333333, "is_reserved": 0, "is_disabled": 0, "name": "217a95ad1bad51ba7a293c81afd36529"}, {"rental_uris": {"android": "https://dc.lft.to/lastmile_qr_scan", "ios": "https://dc.lft.to/lastmile_qr_scan"}, "lat": 38.923614666666666, "fusion_lon": 0.0, "fusion_lat": 0.0, "type": "electric_scooter", "bike_id": "5480228f32a7c23cb8ebef3cb5fee4f3", "lon": -77.02039666666667, "is_reserved": 0, "is_disabled": 0, "name": "5480228f32a7c23cb8ebef3cb5fee4f3"}, {"rental_uris": {"android": "https://dc.lft.to/lastmile_qr_scan", "ios": "https://dc.lft.to/lastmile_qr_scan"}, "lat": 38.8752485, "fusion_lon": 0.0, "fusion_lat": 0.0, "type": "electric_scooter", "bike_id": "8a4f5ca311cda4a32b962c94dc607aca", "lon": -77.005825, "is_reserved": 0, "is_disabled": 0, "name": "8a4f5ca311cda4a32b962c94dc607aca"}, {"rental_uris": {"android": "https://dc.lft.to/lastmile_qr_scan", "ios": "https://dc.lft.to/lastmile_qr_scan"}, "lat": 38.897368166666666, "fusion_lon": 0.0, "fusion_lat": 0.0, "type": "electric_scooter", "bike_id": "043c3aef531a7619e9c2922f4334192f", "lon": -77.02454433333334, "is_reserved": 0, "is_disabled": 0, "name": "043c3aef531a7619e9c2922f4334192f"}, {"rental_uris": {"android": "https://dc.lft.to/lastmile_qr_scan", "ios": "https://dc.lft.to/lastmile_qr_scan"}, "lat": 38.93590183333333, "fusion_lon": 0.0, "fusion_lat": 0.0, "type": "electric_scooter", "bike_id": "8bb29632568779657b5b2fb00659f1f1", "lon": -77.03519033333333, "is_reserved": 0, "is_disabled": 0, "name": "8bb29632568779657b5b2fb00659f1f1"}, {"rental_uris": {"android": "https://dc.lft.to/lastmile_qr_scan", "ios": "https://dc.lft.to/lastmile_qr_scan"}, "lat": 38.9059725, "fusion_lon": 0.0, "fusion_lat": 0.0, "type": "electric_scooter", "bike_id": "a6ad97b71298a4b01a4ec818fadf23aa", "lon": -77.07005383333333, "is_reserved": 0, "is_disabled": 0, "name": "a6ad97b71298a4b01a4ec818fadf23aa"}, {"rental_uris": {"android": "https://dc.lft.to/lastmile_qr_scan", "ios": "https://dc.lft.to/lastmile_qr_scan"}, "lat": 38.92242316666667, "fusion_lon": 0.0, "fusion_lat": 0.0, "type": "electric_scooter", "bike_id": "c21a3adf99ebeff8d31add9aba13c418", "lon": -77.0365975, "is_reserved": 0, "is_disabled": 0, "name": "c21a3adf99ebeff8d31add9aba13c418"}, {"rental_uris": {"android": "https://dc.lft.to/lastmile_qr_scan", "ios": "https://dc.lft.to/lastmile_qr_scan"}, "lat": 38.909532, "fusion_lon": 0.0, "fusion_lat": 0.0, "type": "electric_scooter", "bike_id": "319e4d8baa861df05b4fc0d1da03877a", "lon": -77.0237625, "is_reserved": 0, "is_disabled": 0, "name": "319e4d8baa861df05b4fc0d1da03877a"}, {"rental_uris": {"android": "https://dc.lft.to/lastmile_qr_scan", "ios": "https://dc.lft.to/lastmile_qr_scan"}, "lat": 38.899679666666664, "fusion_lon": 0.0, "fusion_lat": 0.0, "type": "electric_scooter", "bike_id": "7927e9ea9d98c1a1501fa83386694145", "lon": -76.9376835, "is_reserved": 0, "is_disabled": 0, "name": "7927e9ea9d98c1a1501fa83386694145"}, {"rental_uris": {"android": "https://dc.lft.to/lastmile_qr_scan", "ios": "https://dc.lft.to/lastmile_qr_scan"}, "lat": 38.95300316666667, "fusion_lon": 0.0, "fusion_lat": 0.0, "type": "electric_scooter", "bike_id": "a9f2192545bfcdbd9107027ba0ea89ac", "lon": -77.02767166666666, "is_reserved": 0, "is_disabled": 0, "name": "a9f2192545bfcdbd9107027ba0ea89ac"}, {"rental_uris": {"android": "https://dc.lft.to/lastmile_qr_scan", "ios": "https://dc.lft.to/lastmile_qr_scan"}, "lat": 38.896121, "fusion_lon": 0.0, "fusion_lat": 0.0, "type": "electric_scooter", "bike_id": "920bb8adc49581c30ab5f1943d847204", "lon": -77.0459445, "is_reserved": 0, "is_disabled": 0, "name": "920bb8adc49581c30ab5f1943d847204"}, {"rental_uris": {"android": "https://dc.lft.to/lastmile_qr_scan", "ios": "https://dc.lft.to/lastmile_qr_scan"}, "lat": 38.9110775, "fusion_lon": 0.0, "fusion_lat": 0.0, "type": "electric_scooter", "bike_id": "8b9e4896b425ab63ce5d0e617f4f64d7", "lon": -77.03130216666666, "is_reserved": 0, "is_disabled": 0, "name": "8b9e4896b425ab63ce5d0e617f4f64d7"}, {"rental_uris": {"android": "https://dc.lft.to/lastmile_qr_scan", "ios": "https://dc.lft.to/lastmile_qr_scan"}, "lat": 38.924204833333334, "fusion_lon": 0.0, "fusion_lat": 0.0, "type": "electric_scooter", "bike_id": "a0bf5edfe4e0e4dce5ca32256b9ad83f", "lon": -77.01945166666667, "is_reserved": 0, "is_disabled": 0, "name": "a0bf5edfe4e0e4dce5ca32256b9ad83f"}, {"rental_uris": {"android": "https://dc.lft.to/lastmile_qr_scan", "ios": "https://dc.lft.to/lastmile_qr_scan"}, "lat": 38.87656616666666, "fusion_lon": 0.0, "fusion_lat": 0.0, "type": "electric_scooter", "bike_id": "15e25651fc2ebb4b7a0aea7bab590334", "lon": -77.005957, "is_reserved": 0, "is_disabled": 0, "name": "15e25651fc2ebb4b7a0aea7bab590334"}, {"rental_uris": {"android": "https://dc.lft.to/lastmile_qr_scan", "ios": "https://dc.lft.to/lastmile_qr_scan"}, "lat": 38.92600816666667, "fusion_lon": 0.0, "fusion_lat": 0.0, "type": "electric_scooter", "bike_id": "57bc248d58a92372f47585c9cbb1cbc7", "lon": -77.02153616666666, "is_reserved": 0, "is_disabled": 0, "name": "57bc248d58a92372f47585c9cbb1cbc7"}, {"rental_uris": {"android": "https://dc.lft.to/lastmile_qr_scan", "ios": "https://dc.lft.to/lastmile_qr_scan"}, "lat": 38.904076, "fusion_lon": 0.0, "fusion_lat": 0.0, "type": "electric_scooter", "bike_id": "4a504f45c84fa16b6a7905a53363eea4", "lon": -76.973341, "is_reserved": 0, "is_disabled": 0, "name": "4a504f45c84fa16b6a7905a53363eea4"}, {"rental_uris": {"android": "https://dc.lft.to/lastmile_qr_scan", "ios": "https://dc.lft.to/lastmile_qr_scan"}, "lat": 38.9029575, "fusion_lon": 0.0, "fusion_lat": 0.0, "type": "electric_scooter", "bike_id": "e9c1667213f887b3812ff4dfaf68750a", "lon": -77.036735, "is_reserved": 0, "is_disabled": 0, "name": "e9c1667213f887b3812ff4dfaf68750a"}, {"rental_uris": {"android": "https://dc.lft.to/lastmile_qr_scan", "ios": "https://dc.lft.to/lastmile_qr_scan"}, "lat": 38.928849, "fusion_lon": 0.0, "fusion_lat": 0.0, "type": "electric_scooter", "bike_id": "18cfaf76d6027b6aa735c38aeca180a1", "lon": -77.04072483333333, "is_reserved": 0, "is_disabled": 0, "name": "18cfaf76d6027b6aa735c38aeca180a1"}, {"rental_uris": {"android": "https://dc.lft.to/lastmile_qr_scan", "ios": "https://dc.lft.to/lastmile_qr_scan"}, "lat": 38.92239633333333, "fusion_lon": 0.0, "fusion_lat": 0.0, "type": "electric_scooter", "bike_id": "9411cf188a93c136b9268d46209d9e5d", "lon": -77.07467416666667, "is_reserved": 0, "is_disabled": 0, "name": "9411cf188a93c136b9268d46209d9e5d"}, {"rental_uris": {"android": "https://dc.lft.to/lastmile_qr_scan", "ios": "https://dc.lft.to/lastmile_qr_scan"}, "lat": 38.926112333333336, "fusion_lon": 0.0, "fusion_lat": 0.0, "type": "electric_scooter", "bike_id": "c839570715f07017a01a4bd084355826", "lon": -77.021607, "is_reserved": 0, "is_disabled": 0, "name": "c839570715f07017a01a4bd084355826"}, {"rental_uris": {"android": "https://dc.lft.to/lastmile_qr_scan", "ios": "https://dc.lft.to/lastmile_qr_scan"}, "lat": 38.9132095, "fusion_lon": 0.0, "fusion_lat": 0.0, "type": "electric_scooter", "bike_id": "425e1298fb06ae07dec79945470730f3", "lon": -77.03197433333334, "is_reserved": 0, "is_disabled": 0, "name": "425e1298fb06ae07dec79945470730f3"}, {"rental_uris": {"android": "https://dc.lft.to/lastmile_qr_scan", "ios": "https://dc.lft.to/lastmile_qr_scan"}, "lat": 38.92089816666667, "fusion_lon": 0.0, "fusion_lat": 0.0, "type": "electric_scooter", "bike_id": "cfd4706d365900cd5c1b688c665af671", "lon": -77.02530066666667, "is_reserved": 0, "is_disabled": 0, "name": "cfd4706d365900cd5c1b688c665af671"}, {"rental_uris": {"android": "https://dc.lft.to/lastmile_qr_scan", "ios": "https://dc.lft.to/lastmile_qr_scan"}, "lat": 38.884278333333334, "fusion_lon": 0.0, "fusion_lat": 0.0, "type": "electric_scooter", "bike_id": "d6b8252373fed0330ee9989a869e3c72", "lon": -77.0279545, "is_reserved": 0, "is_disabled": 0, "name": "d6b8252373fed0330ee9989a869e3c72"}, {"rental_uris": {"android": "https://dc.lft.to/lastmile_qr_scan", "ios": "https://dc.lft.to/lastmile_qr_scan"}, "lat": 38.9077715, "fusion_lon": 0.0, "fusion_lat": 0.0, "type": "electric_scooter", "bike_id": "4f5a807ab46b663ca43cd738ca1e66f9", "lon": -77.045063, "is_reserved": 0, "is_disabled": 0, "name": "4f5a807ab46b663ca43cd738ca1e66f9"}, {"rental_uris": {"android": "https://dc.lft.to/lastmile_qr_scan", "ios": "https://dc.lft.to/lastmile_qr_scan"}, "lat": 38.9208715, "fusion_lon": 0.0, "fusion_lat": 0.0, "type": "electric_scooter", "bike_id": "faa0865410d4c1c8c333e0a89de08a25", "lon": -77.02517666666667, "is_reserved": 0, "is_disabled": 0, "name": "faa0865410d4c1c8c333e0a89de08a25"}, {"rental_uris": {"android": "https://dc.lft.to/lastmile_qr_scan", "ios": "https://dc.lft.to/lastmile_qr_scan"}, "lat": 38.91810433333333, "fusion_lon": 0.0, "fusion_lat": 0.0, "type": "electric_scooter", "bike_id": "77d171ddd645ba1e93503cc9f78881d9", "lon": -77.04155416666667, "is_reserved": 0, "is_disabled": 0, "name": "77d171ddd645ba1e93503cc9f78881d9"}, {"rental_uris": {"android": "https://dc.lft.to/lastmile_qr_scan", "ios": "https://dc.lft.to/lastmile_qr_scan"}, "lat": 38.90762183333333, "fusion_lon": 0.0, "fusion_lat": 0.0, "type": "electric_scooter", "bike_id": "643ea41225bcfe2295cd9494075a9be1", "lon": -76.99297133333333, "is_reserved": 0, "is_disabled": 0, "name": "643ea41225bcfe2295cd9494075a9be1"}, {"rental_uris": {"android": "https://dc.lft.to/lastmile_qr_scan", "ios": "https://dc.lft.to/lastmile_qr_scan"}, "lat": 38.916101, "fusion_lon": 0.0, "fusion_lat": 0.0, "type": "electric_scooter", "bike_id": "d33ca52162465fd9661bcb260b2f3f36", "lon": -77.0327625, "is_reserved": 0, "is_disabled": 0, "name": "d33ca52162465fd9661bcb260b2f3f36"}, {"rental_uris": {"android": "https://dc.lft.to/lastmile_qr_scan", "ios": "https://dc.lft.to/lastmile_qr_scan"}, "lat": 38.92468316666667, "fusion_lon": 0.0, "fusion_lat": 0.0, "type": "electric_scooter", "bike_id": "f71f16492fc75ae3df86b41ed2fedb4b", "lon": -77.02202966666667, "is_reserved": 0, "is_disabled": 0, "name": "f71f16492fc75ae3df86b41ed2fedb4b"}, {"rental_uris": {"android": "https://dc.lft.to/lastmile_qr_scan", "ios": "https://dc.lft.to/lastmile_qr_scan"}, "lat": 38.8988235, "fusion_lon": 0.0, "fusion_lat": 0.0, "type": "electric_scooter", "bike_id": "ea6196644bd9ac09a7c1156df8acaa28", "lon": -77.00147233333334, "is_reserved": 0, "is_disabled": 0, "name": "ea6196644bd9ac09a7c1156df8acaa28"}, {"rental_uris": {"android": "https://dc.lft.to/lastmile_qr_scan", "ios": "https://dc.lft.to/lastmile_qr_scan"}, "lat": 38.9180735, "fusion_lon": 0.0, "fusion_lat": 0.0, "type": "electric_scooter", "bike_id": "6bc62bf24ed364a1d7dc841849169964", "lon": -76.99963733333334, "is_reserved": 0, "is_disabled": 0, "name": "6bc62bf24ed364a1d7dc841849169964"}, {"rental_uris": {"android": "https://dc.lft.to/lastmile_qr_scan", "ios": "https://dc.lft.to/lastmile_qr_scan"}, "lat": 38.89861166666667, "fusion_lon": 0.0, "fusion_lat": 0.0, "type": "electric_scooter", "bike_id": "de76db7721b66226c15d93df8046ce94", "lon": -77.04249016666667, "is_reserved": 0, "is_disabled": 0, "name": "de76db7721b66226c15d93df8046ce94"}, {"rental_uris": {"android": "https://dc.lft.to/lastmile_qr_scan", "ios": "https://dc.lft.to/lastmile_qr_scan"}, "lat": 38.892882666666665, "fusion_lon": 0.0, "fusion_lat": 0.0, "type": "electric_scooter", "bike_id": "2c823c5b69efaf757b530bf269b3794f", "lon": -77.01997433333334, "is_reserved": 0, "is_disabled": 0, "name": "2c823c5b69efaf757b530bf269b3794f"}, {"rental_uris": {"android": "https://dc.lft.to/lastmile_qr_scan", "ios": "https://dc.lft.to/lastmile_qr_scan"}, "lat": 38.88604266666667, "fusion_lon": 0.0, "fusion_lat": 0.0, "type": "electric_scooter", "bike_id": "fc01418eeb8e0cb6c9de954d515dfcd8", "lon": -77.03106033333333, "is_reserved": 0, "is_disabled": 0, "name": "fc01418eeb8e0cb6c9de954d515dfcd8"}, {"rental_uris": {"android": "https://dc.lft.to/lastmile_qr_scan", "ios": "https://dc.lft.to/lastmile_qr_scan"}, "lat": 38.86514233333333, "fusion_lon": 0.0, "fusion_lat": 0.0, "type": "electric_scooter", "bike_id": "df443afa890ecc2b1db8aaa09b236a52", "lon": -76.97340066666666, "is_reserved": 0, "is_disabled": 0, "name": "df443afa890ecc2b1db8aaa09b236a52"}, {"rental_uris": {"android": "https://dc.lft.to/lastmile_qr_scan", "ios": "https://dc.lft.to/lastmile_qr_scan"}, "lat": 38.89951333333333, "fusion_lon": 0.0, "fusion_lat": 0.0, "type": "electric_scooter", "bike_id": "8b9196eb69ba6fd9a23db55dac7be0bd", "lon": -77.0433835, "is_reserved": 0, "is_disabled": 0, "name": "8b9196eb69ba6fd9a23db55dac7be0bd"}, {"rental_uris": {"android": "https://dc.lft.to/lastmile_qr_scan", "ios": "https://dc.lft.to/lastmile_qr_scan"}, "lat": 38.9103505, "fusion_lon": 0.0, "fusion_lat": 0.0, "type": "electric_scooter", "bike_id": "75de24d5412fa40173091eef3e9f3c77", "lon": -76.99738966666666, "is_reserved": 0, "is_disabled": 0, "name": "75de24d5412fa40173091eef3e9f3c77"}, {"rental_uris": {"android": "https://dc.lft.to/lastmile_qr_scan", "ios": "https://dc.lft.to/lastmile_qr_scan"}, "lat": 38.904252, "fusion_lon": 0.0, "fusion_lat": 0.0, "type": "electric_scooter", "bike_id": "0b77a8b84bb5b9af146613efee597c8b", "lon": -77.046648, "is_reserved": 0, "is_disabled": 0, "name": "0b77a8b84bb5b9af146613efee597c8b"}, {"rental_uris": {"android": "https://dc.lft.to/lastmile_qr_scan", "ios": "https://dc.lft.to/lastmile_qr_scan"}, "lat": 38.8865235, "fusion_lon": 0.0, "fusion_lat": 0.0, "type": "electric_scooter", "bike_id": "f8f146a271e56db5f314520e8cc4b404", "lon": -77.0011375, "is_reserved": 0, "is_disabled": 0, "name": "f8f146a271e56db5f314520e8cc4b404"}, {"rental_uris": {"android": "https://dc.lft.to/lastmile_qr_scan", "ios": "https://dc.lft.to/lastmile_qr_scan"}, "lat": 38.919234833333334, "fusion_lon": 0.0, "fusion_lat": 0.0, "type": "electric_scooter", "bike_id": "59fed115cd70806b469ba504a4848a18", "lon": -77.03360566666667, "is_reserved": 0, "is_disabled": 0, "name": "59fed115cd70806b469ba504a4848a18"}, {"rental_uris": {"android": "https://dc.lft.to/lastmile_qr_scan", "ios": "https://dc.lft.to/lastmile_qr_scan"}, "lat": 38.92057116666667, "fusion_lon": 0.0, "fusion_lat": 0.0, "type": "electric_scooter", "bike_id": "84304b2ebf483b2bef0d9cd8ebe62b1d", "lon": -77.02547216666666, "is_reserved": 0, "is_disabled": 0, "name": "84304b2ebf483b2bef0d9cd8ebe62b1d"}, {"rental_uris": {"android": "https://dc.lft.to/lastmile_qr_scan", "ios": "https://dc.lft.to/lastmile_qr_scan"}, "lat": 38.90245733333333, "fusion_lon": 0.0, "fusion_lat": 0.0, "type": "electric_scooter", "bike_id": "29dd7db158ff86f7b36e3c466e8c7ef6", "lon": -77.02479533333333, "is_reserved": 0, "is_disabled": 0, "name": "29dd7db158ff86f7b36e3c466e8c7ef6"}, {"rental_uris": {"android": "https://dc.lft.to/lastmile_qr_scan", "ios": "https://dc.lft.to/lastmile_qr_scan"}, "lat": 38.87727533333333, "fusion_lon": 0.0, "fusion_lat": 0.0, "type": "electric_scooter", "bike_id": "6806bc71e0b21c22c5127208f773d6ba", "lon": -77.00678166666667, "is_reserved": 0, "is_disabled": 0, "name": "6806bc71e0b21c22c5127208f773d6ba"}, {"rental_uris": {"android": "https://dc.lft.to/lastmile_qr_scan", "ios": "https://dc.lft.to/lastmile_qr_scan"}, "lat": 38.919700166666665, "fusion_lon": 0.0, "fusion_lat": 0.0, "type": "electric_scooter", "bike_id": "18de9446f586b57f9ef79e248edd74fb", "lon": -77.02517566666667, "is_reserved": 0, "is_disabled": 0, "name": "18de9446f586b57f9ef79e248edd74fb"}, {"rental_uris": {"android": "https://dc.lft.to/lastmile_qr_scan", "ios": "https://dc.lft.to/lastmile_qr_scan"}, "lat": 38.93546583333333, "fusion_lon": 0.0, "fusion_lat": 0.0, "type": "electric_scooter", "bike_id": "0d17a2e0dceda2d7ba8015c3b1e4d458", "lon": -77.03421033333333, "is_reserved": 0, "is_disabled": 0, "name": "0d17a2e0dceda2d7ba8015c3b1e4d458"}, {"rental_uris": {"android": "https://dc.lft.to/lastmile_qr_scan", "ios": "https://dc.lft.to/lastmile_qr_scan"}, "lat": 38.8846185, "fusion_lon": 0.0, "fusion_lat": 0.0, "type": "electric_scooter", "bike_id": "81cf68a427da4d499da73eaaed536178", "lon": -77.024902, "is_reserved": 0, "is_disabled": 0, "name": "81cf68a427da4d499da73eaaed536178"}, {"rental_uris": {"android": "https://dc.lft.to/lastmile_qr_scan", "ios": "https://dc.lft.to/lastmile_qr_scan"}, "lat": 38.9178445, "fusion_lon": 0.0, "fusion_lat": 0.0, "type": "electric_scooter", "bike_id": "5ce15eab14ddcebacce99dd2d526c76c", "lon": -77.03443566666667, "is_reserved": 0, "is_disabled": 0, "name": "5ce15eab14ddcebacce99dd2d526c76c"}, {"rental_uris": {"android": "https://dc.lft.to/lastmile_qr_scan", "ios": "https://dc.lft.to/lastmile_qr_scan"}, "lat": 38.897288833333334, "fusion_lon": 0.0, "fusion_lat": 0.0, "type": "electric_scooter", "bike_id": "018d2ec3598ab9ea3a75413bca0d5be5", "lon": -77.03342583333334, "is_reserved": 0, "is_disabled": 0, "name": "018d2ec3598ab9ea3a75413bca0d5be5"}, {"rental_uris": {"android": "https://dc.lft.to/lastmile_qr_scan", "ios": "https://dc.lft.to/lastmile_qr_scan"}, "lat": 38.928575, "fusion_lon": 0.0, "fusion_lat": 0.0, "type": "electric_scooter", "bike_id": "f55d50cafb4ca2a4162c7ad84a1c5d8f", "lon": -77.031677, "is_reserved": 0, "is_disabled": 0, "name": "f55d50cafb4ca2a4162c7ad84a1c5d8f"}, {"rental_uris": {"android": "https://dc.lft.to/lastmile_qr_scan", "ios": "https://dc.lft.to/lastmile_qr_scan"}, "lat": 38.9201625, "fusion_lon": 0.0, "fusion_lat": 0.0, "type": "electric_scooter", "bike_id": "273db7d804b08b05b9eedeea164b8cdc", "lon": -77.06362883333334, "is_reserved": 0, "is_disabled": 0, "name": "273db7d804b08b05b9eedeea164b8cdc"}, {"rental_uris": {"android": "https://dc.lft.to/lastmile_qr_scan", "ios": "https://dc.lft.to/lastmile_qr_scan"}, "lat": 38.94168833333333, "fusion_lon": 0.0, "fusion_lat": 0.0, "type": "electric_scooter", "bike_id": "a3994e541943b09363818ba98edc9fe5", "lon": -77.02331616666666, "is_reserved": 0, "is_disabled": 0, "name": "a3994e541943b09363818ba98edc9fe5"}, {"rental_uris": {"android": "https://dc.lft.to/lastmile_qr_scan", "ios": "https://dc.lft.to/lastmile_qr_scan"}, "lat": 38.91414833333333, "fusion_lon": 0.0, "fusion_lat": 0.0, "type": "electric_scooter", "bike_id": "a31f263648bec259bf30758f962a4cd7", "lon": -77.02585683333334, "is_reserved": 0, "is_disabled": 0, "name": "a31f263648bec259bf30758f962a4cd7"}, {"rental_uris": {"android": "https://dc.lft.to/lastmile_qr_scan", "ios": "https://dc.lft.to/lastmile_qr_scan"}, "lat": 38.90001216666667, "fusion_lon": 0.0, "fusion_lat": 0.0, "type": "electric_scooter", "bike_id": "d1c1254c18283be8120b30649fd6511c", "lon": -77.027515, "is_reserved": 0, "is_disabled": 0, "name": "d1c1254c18283be8120b30649fd6511c"}, {"rental_uris": {"android": "https://dc.lft.to/lastmile_qr_scan", "ios": "https://dc.lft.to/lastmile_qr_scan"}, "lat": 38.923618833333336, "fusion_lon": 0.0, "fusion_lat": 0.0, "type": "electric_scooter", "bike_id": "79bcaadfb942b490e4340752810bd757", "lon": -77.020514, "is_reserved": 0, "is_disabled": 0, "name": "79bcaadfb942b490e4340752810bd757"}, {"rental_uris": {"android": "https://dc.lft.to/lastmile_qr_scan", "ios": "https://dc.lft.to/lastmile_qr_scan"}, "lat": 38.92242533333334, "fusion_lon": 0.0, "fusion_lat": 0.0, "type": "electric_scooter", "bike_id": "ab929c180c1c61a8f6d8683e65fb815d", "lon": -77.0366135, "is_reserved": 0, "is_disabled": 0, "name": "ab929c180c1c61a8f6d8683e65fb815d"}, {"rental_uris": {"android": "https://dc.lft.to/lastmile_qr_scan", "ios": "https://dc.lft.to/lastmile_qr_scan"}, "lat": 38.89594733333333, "fusion_lon": 0.0, "fusion_lat": 0.0, "type": "electric_scooter", "bike_id": "4b7a2dbc4c4e0105fcf61790a92388c8", "lon": -77.02268883333333, "is_reserved": 0, "is_disabled": 0, "name": "4b7a2dbc4c4e0105fcf61790a92388c8"}, {"rental_uris": {"android": "https://dc.lft.to/lastmile_qr_scan", "ios": "https://dc.lft.to/lastmile_qr_scan"}, "lat": 38.9216745, "fusion_lon": 0.0, "fusion_lat": 0.0, "type": "electric_scooter", "bike_id": "5cb2c74f4354914bb53e875a90474969", "lon": -77.02674883333333, "is_reserved": 0, "is_disabled": 0, "name": "5cb2c74f4354914bb53e875a90474969"}, {"rental_uris": {"android": "https://dc.lft.to/lastmile_qr_scan", "ios": "https://dc.lft.to/lastmile_qr_scan"}, "lat": 38.8992275, "fusion_lon": 0.0, "fusion_lat": 0.0, "type": "electric_scooter", "bike_id": "d466bc5345c67001112071faee9323a6", "lon": -77.03924016666667, "is_reserved": 0, "is_disabled": 0, "name": "d466bc5345c67001112071faee9323a6"}, {"rental_uris": {"android": "https://dc.lft.to/lastmile_qr_scan", "ios": "https://dc.lft.to/lastmile_qr_scan"}, "lat": 38.892228, "fusion_lon": 0.0, "fusion_lat": 0.0, "type": "electric_scooter", "bike_id": "f87325a0bd5c5e280293e6e6654e8ccb", "lon": -77.0253555, "is_reserved": 0, "is_disabled": 0, "name": "f87325a0bd5c5e280293e6e6654e8ccb"}, {"rental_uris": {"android": "https://dc.lft.to/lastmile_qr_scan", "ios": "https://dc.lft.to/lastmile_qr_scan"}, "lat": 38.896273666666666, "fusion_lon": 0.0, "fusion_lat": 0.0, "type": "electric_scooter", "bike_id": "7bc1550773bd714f383455660a4f85cd", "lon": -77.02605483333333, "is_reserved": 0, "is_disabled": 0, "name": "7bc1550773bd714f383455660a4f85cd"}, {"rental_uris": {"android": "https://dc.lft.to/lastmile_qr_scan", "ios": "https://dc.lft.to/lastmile_qr_scan"}, "lat": 38.905188333333335, "fusion_lon": 0.0, "fusion_lat": 0.0, "type": "electric_scooter", "bike_id": "d727e5655b5aef5684ca58cab3f8a6c3", "lon": -77.02198133333333, "is_reserved": 0, "is_disabled": 0, "name": "d727e5655b5aef5684ca58cab3f8a6c3"}, {"rental_uris": {"android": "https://dc.lft.to/lastmile_qr_scan", "ios": "https://dc.lft.to/lastmile_qr_scan"}, "lat": 38.934765166666665, "fusion_lon": 0.0, "fusion_lat": 0.0, "type": "electric_scooter", "bike_id": "cf223eee4dafd901f6f5a5403524d868", "lon": -76.98838466666666, "is_reserved": 0, "is_disabled": 0, "name": "cf223eee4dafd901f6f5a5403524d868"}, {"rental_uris": {"android": "https://dc.lft.to/lastmile_qr_scan", "ios": "https://dc.lft.to/lastmile_qr_scan"}, "lat": 38.944945, "fusion_lon": 0.0, "fusion_lat": 0.0, "type": "electric_scooter", "bike_id": "f55256b2cb03574bed41c8358cc379e2", "lon": -77.02845333333333, "is_reserved": 0, "is_disabled": 0, "name": "f55256b2cb03574bed41c8358cc379e2"}, {"rental_uris": {"android": "https://dc.lft.to/lastmile_qr_scan", "ios": "https://dc.lft.to/lastmile_qr_scan"}, "lat": 38.909622666666664, "fusion_lon": 0.0, "fusion_lat": 0.0, "type": "electric_scooter", "bike_id": "0a1face7127b4603b17170e857a72263", "lon": -77.04629066666666, "is_reserved": 0, "is_disabled": 0, "name": "0a1face7127b4603b17170e857a72263"}, {"rental_uris": {"android": "https://dc.lft.to/lastmile_qr_scan", "ios": "https://dc.lft.to/lastmile_qr_scan"}, "lat": 38.8851025, "fusion_lon": 0.0, "fusion_lat": 0.0, "type": "electric_scooter", "bike_id": "2e049ba5c7222ae54b0ec4581ccdd9c0", "lon": -77.01111333333333, "is_reserved": 0, "is_disabled": 0, "name": "2e049ba5c7222ae54b0ec4581ccdd9c0"}, {"rental_uris": {"android": "https://dc.lft.to/lastmile_qr_scan", "ios": "https://dc.lft.to/lastmile_qr_scan"}, "lat": 38.900359333333334, "fusion_lon": 0.0, "fusion_lat": 0.0, "type": "electric_scooter", "bike_id": "c9fe5b7897ff2d9b3e033277b69e6f78", "lon": -77.0468475, "is_reserved": 0, "is_disabled": 0, "name": "c9fe5b7897ff2d9b3e033277b69e6f78"}, {"rental_uris": {"android": "https://dc.lft.to/lastmile_qr_scan", "ios": "https://dc.lft.to/lastmile_qr_scan"}, "lat": 38.919658166666665, "fusion_lon": 0.0, "fusion_lat": 0.0, "type": "electric_scooter", "bike_id": "aea5e6ebd7ca2af3a0b3e3f3439d998a", "lon": -77.03959233333333, "is_reserved": 0, "is_disabled": 0, "name": "aea5e6ebd7ca2af3a0b3e3f3439d998a"}, {"rental_uris": {"android": "https://dc.lft.to/lastmile_qr_scan", "ios": "https://dc.lft.to/lastmile_qr_scan"}, "lat": 38.897147833333335, "fusion_lon": 0.0, "fusion_lat": 0.0, "type": "electric_scooter", "bike_id": "9f4723a563f01a78a78a0150d1e50c26", "lon": -77.00797366666667, "is_reserved": 0, "is_disabled": 0, "name": "9f4723a563f01a78a78a0150d1e50c26"}, {"rental_uris": {"android": "https://dc.lft.to/lastmile_qr_scan", "ios": "https://dc.lft.to/lastmile_qr_scan"}, "lat": 38.928907833333334, "fusion_lon": 0.0, "fusion_lat": 0.0, "type": "electric_scooter", "bike_id": "68ad499b70a4e3f0b40e63f9e6b551ea", "lon": -77.03254383333334, "is_reserved": 0, "is_disabled": 0, "name": "68ad499b70a4e3f0b40e63f9e6b551ea"}, {"rental_uris": {"android": "https://dc.lft.to/lastmile_qr_scan", "ios": "https://dc.lft.to/lastmile_qr_scan"}, "lat": 38.90230733333333, "fusion_lon": 0.0, "fusion_lat": 0.0, "type": "electric_scooter", "bike_id": "5f68d40ad43ac2c7faa2307779bcd64a", "lon": -77.04121716666667, "is_reserved": 0, "is_disabled": 0, "name": "5f68d40ad43ac2c7faa2307779bcd64a"}, {"rental_uris": {"android": "https://dc.lft.to/lastmile_qr_scan", "ios": "https://dc.lft.to/lastmile_qr_scan"}, "lat": 38.92161083333333, "fusion_lon": 0.0, "fusion_lat": 0.0, "type": "electric_scooter", "bike_id": "b7d5091074ef5f9c300ff06d95c858cd", "lon": -77.0218905, "is_reserved": 0, "is_disabled": 0, "name": "b7d5091074ef5f9c300ff06d95c858cd"}, {"rental_uris": {"android": "https://dc.lft.to/lastmile_qr_scan", "ios": "https://dc.lft.to/lastmile_qr_scan"}, "lat": 38.895547, "fusion_lon": 0.0, "fusion_lat": 0.0, "type": "electric_scooter", "bike_id": "1615d075b89c429b23dae5dbeed8ee47", "lon": -76.93057283333333, "is_reserved": 0, "is_disabled": 0, "name": "1615d075b89c429b23dae5dbeed8ee47"}, {"rental_uris": {"android": "https://dc.lft.to/lastmile_qr_scan", "ios": "https://dc.lft.to/lastmile_qr_scan"}, "lat": 38.89555083333333, "fusion_lon": 0.0, "fusion_lat": 0.0, "type": "electric_scooter", "bike_id": "fa5fe8b48ae2cc17069949e89aa11dce", "lon": -77.02891866666667, "is_reserved": 0, "is_disabled": 0, "name": "fa5fe8b48ae2cc17069949e89aa11dce"}, {"rental_uris": {"android": "https://dc.lft.to/lastmile_qr_scan", "ios": "https://dc.lft.to/lastmile_qr_scan"}, "lat": 38.92139533333334, "fusion_lon": 0.0, "fusion_lat": 0.0, "type": "electric_scooter", "bike_id": "ca46edb609d920f1f65b551121e4ddf2", "lon": -77.02085066666666, "is_reserved": 0, "is_disabled": 0, "name": "ca46edb609d920f1f65b551121e4ddf2"}, {"rental_uris": {"android": "https://dc.lft.to/lastmile_qr_scan", "ios": "https://dc.lft.to/lastmile_qr_scan"}, "lat": 38.92471166666667, "fusion_lon": 0.0, "fusion_lat": 0.0, "type": "electric_scooter", "bike_id": "a3f948eaf86465e643ff516cdc56e8a5", "lon": -77.05206033333333, "is_reserved": 0, "is_disabled": 0, "name": "a3f948eaf86465e643ff516cdc56e8a5"}, {"rental_uris": {"android": "https://dc.lft.to/lastmile_qr_scan", "ios": "https://dc.lft.to/lastmile_qr_scan"}, "lat": 38.944722166666665, "fusion_lon": 0.0, "fusion_lat": 0.0, "type": "electric_bike", "bike_id": "5fe1043c080b507ab77c0c1cca076ebc", "lon": -76.98684716666666, "is_reserved": 0, "is_disabled": 0, "name": "5fe1043c080b507ab77c0c1cca076ebc"}, {"rental_uris": {"android": "https://dc.lft.to/lastmile_qr_scan", "ios": "https://dc.lft.to/lastmile_qr_scan"}, "lat": 38.95185516666667, "fusion_lon": 0.0, "fusion_lat": 0.0, "type": "electric_scooter", "bike_id": "9775987bcdcc6aed6c2d24fc8b4ec7ec", "lon": -77.02638183333333, "is_reserved": 0, "is_disabled": 0, "name": "9775987bcdcc6aed6c2d24fc8b4ec7ec"}, {"rental_uris": {"android": "https://dc.lft.to/lastmile_qr_scan", "ios": "https://dc.lft.to/lastmile_qr_scan"}, "lat": 38.89389383333334, "fusion_lon": 0.0, "fusion_lat": 0.0, "type": "electric_scooter", "bike_id": "07c9e6f8a284dd8bcdd6b8b3928905c2", "lon": -77.0244795, "is_reserved": 0, "is_disabled": 0, "name": "07c9e6f8a284dd8bcdd6b8b3928905c2"}, {"rental_uris": {"android": "https://dc.lft.to/lastmile_qr_scan", "ios": "https://dc.lft.to/lastmile_qr_scan"}, "lat": 39.02296883333333, "fusion_lon": 0.0, "fusion_lat": 0.0, "type": "electric_bike", "bike_id": "3375adafe263b7bbce0d246ed848797d", "lon": -77.02102933333333, "is_reserved": 0, "is_disabled": 0, "name": "3375adafe263b7bbce0d246ed848797d"}, {"rental_uris": {"android": "https://dc.lft.to/lastmile_qr_scan", "ios": "https://dc.lft.to/lastmile_qr_scan"}, "lat": 38.91184, "fusion_lon": 0.0, "fusion_lat": 0.0, "type": "electric_scooter", "bike_id": "ae35de09501237b38e42396c4e89e102", "lon": -77.06076966666667, "is_reserved": 0, "is_disabled": 0, "name": "ae35de09501237b38e42396c4e89e102"}, {"rental_uris": {"android": "https://dc.lft.to/lastmile_qr_scan", "ios": "https://dc.lft.to/lastmile_qr_scan"}, "lat": 38.8984515, "fusion_lon": 0.0, "fusion_lat": 0.0, "type": "electric_scooter", "bike_id": "58859e9c1e2a55e8163a35a1ebc615e6", "lon": -77.02851983333333, "is_reserved": 0, "is_disabled": 0, "name": "58859e9c1e2a55e8163a35a1ebc615e6"}, {"rental_uris": {"android": "https://dc.lft.to/lastmile_qr_scan", "ios": "https://dc.lft.to/lastmile_qr_scan"}, "lat": 38.924727, "fusion_lon": 0.0, "fusion_lat": 0.0, "type": "electric_scooter", "bike_id": "3c39819defbfad129f9a8f74b690f23b", "lon": -77.039163, "is_reserved": 0, "is_disabled": 0, "name": "3c39819defbfad129f9a8f74b690f23b"}, {"rental_uris": {"android": "https://dc.lft.to/lastmile_qr_scan", "ios": "https://dc.lft.to/lastmile_qr_scan"}, "lat": 38.91954783333333, "fusion_lon": 0.0, "fusion_lat": 0.0, "type": "electric_scooter", "bike_id": "c727da3e8d189f639e1abbcd19931a69", "lon": -77.0609155, "is_reserved": 0, "is_disabled": 0, "name": "c727da3e8d189f639e1abbcd19931a69"}, {"rental_uris": {"android": "https://dc.lft.to/lastmile_qr_scan", "ios": "https://dc.lft.to/lastmile_qr_scan"}, "lat": 38.92278133333333, "fusion_lon": 0.0, "fusion_lat": 0.0, "type": "electric_scooter", "bike_id": "e1890384cfc9123c7c1a2eadcc57ec57", "lon": -77.02129866666667, "is_reserved": 0, "is_disabled": 0, "name": "e1890384cfc9123c7c1a2eadcc57ec57"}, {"rental_uris": {"android": "https://dc.lft.to/lastmile_qr_scan", "ios": "https://dc.lft.to/lastmile_qr_scan"}, "lat": 38.905927166666665, "fusion_lon": 0.0, "fusion_lat": 0.0, "type": "electric_scooter", "bike_id": "fd4fcd94f8f1560ad54318834308a50a", "lon": -77.04031916666666, "is_reserved": 0, "is_disabled": 0, "name": "fd4fcd94f8f1560ad54318834308a50a"}, {"rental_uris": {"android": "https://dc.lft.to/lastmile_qr_scan", "ios": "https://dc.lft.to/lastmile_qr_scan"}, "lat": 38.887786166666665, "fusion_lon": 0.0, "fusion_lat": 0.0, "type": "electric_scooter", "bike_id": "5e1a23bcceb72f1295952c1615d0bc58", "lon": -77.00062366666667, "is_reserved": 0, "is_disabled": 0, "name": "5e1a23bcceb72f1295952c1615d0bc58"}, {"rental_uris": {"android": "https://dc.lft.to/lastmile_qr_scan", "ios": "https://dc.lft.to/lastmile_qr_scan"}, "lat": 38.92608233333333, "fusion_lon": 0.0, "fusion_lat": 0.0, "type": "electric_scooter", "bike_id": "f8782addea574abb0065714ac2cbb5b0", "lon": -77.02158766666666, "is_reserved": 0, "is_disabled": 0, "name": "f8782addea574abb0065714ac2cbb5b0"}, {"rental_uris": {"android": "https://dc.lft.to/lastmile_qr_scan", "ios": "https://dc.lft.to/lastmile_qr_scan"}, "lat": 38.90999033333333, "fusion_lon": 0.0, "fusion_lat": 0.0, "type": "electric_bike", "bike_id": "d7bab0ef6968c21318055d101fa5bb78", "lon": -76.9841885, "is_reserved": 0, "is_disabled": 0, "name": "d7bab0ef6968c21318055d101fa5bb78"}, {"rental_uris": {"android": "https://dc.lft.to/lastmile_qr_scan", "ios": "https://dc.lft.to/lastmile_qr_scan"}, "lat": 38.92061566666667, "fusion_lon": 0.0, "fusion_lat": 0.0, "type": "electric_scooter", "bike_id": "811b88ac6658450e371b8a5e97f33962", "lon": -77.0229845, "is_reserved": 0, "is_disabled": 0, "name": "811b88ac6658450e371b8a5e97f33962"}, {"rental_uris": {"android": "https://dc.lft.to/lastmile_qr_scan", "ios": "https://dc.lft.to/lastmile_qr_scan"}, "lat": 38.9223195, "fusion_lon": 0.0, "fusion_lat": 0.0, "type": "electric_scooter", "bike_id": "2a534f8ded2d3c84c4d9e2f60cba0ad6", "lon": -77.03533033333333, "is_reserved": 0, "is_disabled": 0, "name": "2a534f8ded2d3c84c4d9e2f60cba0ad6"}, {"rental_uris": {"android": "https://dc.lft.to/lastmile_qr_scan", "ios": "https://dc.lft.to/lastmile_qr_scan"}, "lat": 38.92443633333333, "fusion_lon": 0.0, "fusion_lat": 0.0, "type": "electric_scooter", "bike_id": "827f8a311cf145e7acf28593083b13af", "lon": -77.020312, "is_reserved": 0, "is_disabled": 0, "name": "827f8a311cf145e7acf28593083b13af"}, {"rental_uris": {"android": "https://dc.lft.to/lastmile_qr_scan", "ios": "https://dc.lft.to/lastmile_qr_scan"}, "lat": 38.940699, "fusion_lon": 0.0, "fusion_lat": 0.0, "type": "electric_scooter", "bike_id": "7697d43b88819afb8eb5589b3ed4cd65", "lon": -77.00170133333333, "is_reserved": 0, "is_disabled": 0, "name": "7697d43b88819afb8eb5589b3ed4cd65"}, {"rental_uris": {"android": "https://dc.lft.to/lastmile_qr_scan", "ios": "https://dc.lft.to/lastmile_qr_scan"}, "lat": 38.902587, "fusion_lon": 0.0, "fusion_lat": 0.0, "type": "electric_scooter", "bike_id": "6a2ad5b50f428e5f6aa9ccfce8aaaef0", "lon": -76.998567, "is_reserved": 0, "is_disabled": 0, "name": "6a2ad5b50f428e5f6aa9ccfce8aaaef0"}, {"rental_uris": {"android": "https://dc.lft.to/lastmile_qr_scan", "ios": "https://dc.lft.to/lastmile_qr_scan"}, "lat": 38.91553966666667, "fusion_lon": 0.0, "fusion_lat": 0.0, "type": "electric_scooter", "bike_id": "201bfcb8597d7d4b2898bbcc8a23d00b", "lon": -77.03131533333334, "is_reserved": 0, "is_disabled": 0, "name": "201bfcb8597d7d4b2898bbcc8a23d00b"}, {"rental_uris": {"android": "https://dc.lft.to/lastmile_qr_scan", "ios": "https://dc.lft.to/lastmile_qr_scan"}, "lat": 38.902441, "fusion_lon": 0.0, "fusion_lat": 0.0, "type": "electric_scooter", "bike_id": "491613f6298e8dc36300763a31b7ea9d", "lon": -77.03963316666666, "is_reserved": 0, "is_disabled": 0, "name": "491613f6298e8dc36300763a31b7ea9d"}, {"rental_uris": {"android": "https://dc.lft.to/lastmile_qr_scan", "ios": "https://dc.lft.to/lastmile_qr_scan"}, "lat": 38.900047666666666, "fusion_lon": 0.0, "fusion_lat": 0.0, "type": "electric_scooter", "bike_id": "ef82e118092a5cc1c4c7351cacb38b15", "lon": -76.998417, "is_reserved": 0, "is_disabled": 0, "name": "ef82e118092a5cc1c4c7351cacb38b15"}, {"rental_uris": {"android": "https://dc.lft.to/lastmile_qr_scan", "ios": "https://dc.lft.to/lastmile_qr_scan"}, "lat": 38.91960016666667, "fusion_lon": 0.0, "fusion_lat": 0.0, "type": "electric_scooter", "bike_id": "06dd8098b3ed25c714edd5c8a1339e7d", "lon": -77.023035, "is_reserved": 0, "is_disabled": 0, "name": "06dd8098b3ed25c714edd5c8a1339e7d"}, {"rental_uris": {"android": "https://dc.lft.to/lastmile_qr_scan", "ios": "https://dc.lft.to/lastmile_qr_scan"}, "lat": 38.92055583333333, "fusion_lon": 0.0, "fusion_lat": 0.0, "type": "electric_scooter", "bike_id": "5badc8668be9ba6d059fe949c4fc1364", "lon": -77.04066583333334, "is_reserved": 0, "is_disabled": 0, "name": "5badc8668be9ba6d059fe949c4fc1364"}, {"rental_uris": {"android": "https://dc.lft.to/lastmile_qr_scan", "ios": "https://dc.lft.to/lastmile_qr_scan"}, "lat": 38.98504633333334, "fusion_lon": 0.0, "fusion_lat": 0.0, "type": "electric_bike", "bike_id": "9bf3602c802a6f86986a1f6f6f17e06b", "lon": -76.98178583333333, "is_reserved": 0, "is_disabled": 0, "name": "9bf3602c802a6f86986a1f6f6f17e06b"}, {"rental_uris": {"android": "https://dc.lft.to/lastmile_qr_scan", "ios": "https://dc.lft.to/lastmile_qr_scan"}, "lat": 38.9278805, "fusion_lon": 0.0, "fusion_lat": 0.0, "type": "electric_scooter", "bike_id": "0bcfe68f4b32d938a93b3c28b598159a", "lon": -77.02318116666666, "is_reserved": 0, "is_disabled": 0, "name": "0bcfe68f4b32d938a93b3c28b598159a"}, {"rental_uris": {"android": "https://dc.lft.to/lastmile_qr_scan", "ios": "https://dc.lft.to/lastmile_qr_scan"}, "lat": 38.8985225, "fusion_lon": 0.0, "fusion_lat": 0.0, "type": "electric_scooter", "bike_id": "fb51e48d354aff129cc6cec42f47fe73", "lon": -77.032116, "is_reserved": 0, "is_disabled": 0, "name": "fb51e48d354aff129cc6cec42f47fe73"}, {"rental_uris": {"android": "https://dc.lft.to/lastmile_qr_scan", "ios": "https://dc.lft.to/lastmile_qr_scan"}, "lat": 38.93931883333333, "fusion_lon": 0.0, "fusion_lat": 0.0, "type": "electric_scooter", "bike_id": "5531b6c7b391b7caf5823d772a00136b", "lon": -77.060658, "is_reserved": 0, "is_disabled": 0, "name": "5531b6c7b391b7caf5823d772a00136b"}, {"rental_uris": {"android": "https://dc.lft.to/lastmile_qr_scan", "ios": "https://dc.lft.to/lastmile_qr_scan"}, "lat": 38.8935615, "fusion_lon": 0.0, "fusion_lat": 0.0, "type": "electric_scooter", "bike_id": "6f4519138acf6ec1f52a81741e556103", "lon": -77.00329016666667, "is_reserved": 0, "is_disabled": 0, "name": "6f4519138acf6ec1f52a81741e556103"}, {"rental_uris": {"android": "https://dc.lft.to/lastmile_qr_scan", "ios": "https://dc.lft.to/lastmile_qr_scan"}, "lat": 38.921416666666666, "fusion_lon": 0.0, "fusion_lat": 0.0, "type": "electric_scooter", "bike_id": "6a0b70863e45dfb7fcd7398c0a300a30", "lon": -77.03445433333333, "is_reserved": 0, "is_disabled": 0, "name": "6a0b70863e45dfb7fcd7398c0a300a30"}, {"rental_uris": {"android": "https://dc.lft.to/lastmile_qr_scan", "ios": "https://dc.lft.to/lastmile_qr_scan"}, "lat": 38.893755666666664, "fusion_lon": 0.0, "fusion_lat": 0.0, "type": "electric_scooter", "bike_id": "b314bc51c843566e2ed7223869f27972", "lon": -77.02198933333334, "is_reserved": 0, "is_disabled": 0, "name": "b314bc51c843566e2ed7223869f27972"}, {"rental_uris": {"android": "https://dc.lft.to/lastmile_qr_scan", "ios": "https://dc.lft.to/lastmile_qr_scan"}, "lat": 38.917421166666664, "fusion_lon": 0.0, "fusion_lat": 0.0, "type": "electric_scooter", "bike_id": "e1117c27b8cc5bf742889f8993b50534", "lon": -77.04158383333333, "is_reserved": 0, "is_disabled": 0, "name": "e1117c27b8cc5bf742889f8993b50534"}, {"rental_uris": {"android": "https://dc.lft.to/lastmile_qr_scan", "ios": "https://dc.lft.to/lastmile_qr_scan"}, "lat": 38.87319333333333, "fusion_lon": 0.0, "fusion_lat": 0.0, "type": "electric_bike", "bike_id": "8e4887396c680fa8ef324c928c2d5b21", "lon": -77.1141485, "is_reserved": 0, "is_disabled": 0, "name": "8e4887396c680fa8ef324c928c2d5b21"}, {"rental_uris": {"android": "https://dc.lft.to/lastmile_qr_scan", "ios": "https://dc.lft.to/lastmile_qr_scan"}, "lat": 38.920616, "fusion_lon": 0.0, "fusion_lat": 0.0, "type": "electric_scooter", "bike_id": "c0e4ef3046f26cf0f12389c11c856a2e", "lon": -77.02294333333333, "is_reserved": 0, "is_disabled": 0, "name": "c0e4ef3046f26cf0f12389c11c856a2e"}, {"rental_uris": {"android": "https://dc.lft.to/lastmile_qr_scan", "ios": "https://dc.lft.to/lastmile_qr_scan"}, "lat": 38.902624833333334, "fusion_lon": 0.0, "fusion_lat": 0.0, "type": "electric_scooter", "bike_id": "6381863e86b4adfb4fe1aa39612ec8a1", "lon": -77.03826666666667, "is_reserved": 0, "is_disabled": 0, "name": "6381863e86b4adfb4fe1aa39612ec8a1"}, {"rental_uris": {"android": "https://dc.lft.to/lastmile_qr_scan", "ios": "https://dc.lft.to/lastmile_qr_scan"}, "lat": 38.87391016666667, "fusion_lon": 0.0, "fusion_lat": 0.0, "type": "electric_scooter", "bike_id": "782b06551272a167d778716c1f91a897", "lon": -77.00013233333334, "is_reserved": 0, "is_disabled": 0, "name": "782b06551272a167d778716c1f91a897"}, {"rental_uris": {"android": "https://dc.lft.to/lastmile_qr_scan", "ios": "https://dc.lft.to/lastmile_qr_scan"}, "lat": 38.92314916666667, "fusion_lon": 0.0, "fusion_lat": 0.0, "type": "electric_scooter", "bike_id": "2a5bc00322630930f2889babe6675078", "lon": -77.0433515, "is_reserved": 0, "is_disabled": 0, "name": "2a5bc00322630930f2889babe6675078"}, {"rental_uris": {"android": "https://dc.lft.to/lastmile_qr_scan", "ios": "https://dc.lft.to/lastmile_qr_scan"}, "lat": 38.91913516666666, "fusion_lon": 0.0, "fusion_lat": 0.0, "type": "electric_scooter", "bike_id": "d40f0885e48f9eecd8469a8fa2ce8dbd", "lon": -77.03174883333334, "is_reserved": 0, "is_disabled": 0, "name": "d40f0885e48f9eecd8469a8fa2ce8dbd"}, {"rental_uris": {"android": "https://dc.lft.to/lastmile_qr_scan", "ios": "https://dc.lft.to/lastmile_qr_scan"}, "lat": 38.89225783333333, "fusion_lon": 0.0, "fusion_lat": 0.0, "type": "electric_scooter", "bike_id": "c7a1694fed037cc5193450cd2c4ec947", "lon": -77.02764816666667, "is_reserved": 0, "is_disabled": 0, "name": "c7a1694fed037cc5193450cd2c4ec947"}, {"rental_uris": {"android": "https://dc.lft.to/lastmile_qr_scan", "ios": "https://dc.lft.to/lastmile_qr_scan"}, "lat": 38.87150533333333, "fusion_lon": 0.0, "fusion_lat": 0.0, "type": "electric_scooter", "bike_id": "72848ee4508c8a1c2c719ad63460d6b3", "lon": -76.97727783333333, "is_reserved": 0, "is_disabled": 0, "name": "72848ee4508c8a1c2c719ad63460d6b3"}, {"rental_uris": {"android": "https://dc.lft.to/lastmile_qr_scan", "ios": "https://dc.lft.to/lastmile_qr_scan"}, "lat": 38.89339783333333, "fusion_lon": 0.0, "fusion_lat": 0.0, "type": "electric_scooter", "bike_id": "bdff2eab52366dbc4891504bd1a8472e", "lon": -77.00199116666667, "is_reserved": 0, "is_disabled": 0, "name": "bdff2eab52366dbc4891504bd1a8472e"}, {"rental_uris": {"android": "https://dc.lft.to/lastmile_qr_scan", "ios": "https://dc.lft.to/lastmile_qr_scan"}, "lat": 38.899060666666664, "fusion_lon": 0.0, "fusion_lat": 0.0, "type": "electric_scooter", "bike_id": "8745b467121ed3e9a152b3fe184e2d66", "lon": -76.9338925, "is_reserved": 0, "is_disabled": 0, "name": "8745b467121ed3e9a152b3fe184e2d66"}, {"rental_uris": {"android": "https://dc.lft.to/lastmile_qr_scan", "ios": "https://dc.lft.to/lastmile_qr_scan"}, "lat": 38.913485333333334, "fusion_lon": 0.0, "fusion_lat": 0.0, "type": "electric_scooter", "bike_id": "80b3c2c6614df0bcb733b5e956bc6fcc", "lon": -77.00923283333333, "is_reserved": 0, "is_disabled": 0, "name": "80b3c2c6614df0bcb733b5e956bc6fcc"}, {"rental_uris": {"android": "https://dc.lft.to/lastmile_qr_scan", "ios": "https://dc.lft.to/lastmile_qr_scan"}, "lat": 38.89743333333333, "fusion_lon": 0.0, "fusion_lat": 0.0, "type": "electric_scooter", "bike_id": "28d45fc620c2cc7ce315999885f2a224", "lon": -77.04165116666667, "is_reserved": 0, "is_disabled": 0, "name": "28d45fc620c2cc7ce315999885f2a224"}, {"rental_uris": {"android": "https://dc.lft.to/lastmile_qr_scan", "ios": "https://dc.lft.to/lastmile_qr_scan"}, "lat": 38.89196033333333, "fusion_lon": 0.0, "fusion_lat": 0.0, "type": "electric_scooter", "bike_id": "fa53d22a952ad24a9f0d212b5879de2b", "lon": -77.00290216666667, "is_reserved": 0, "is_disabled": 0, "name": "fa53d22a952ad24a9f0d212b5879de2b"}, {"rental_uris": {"android": "https://dc.lft.to/lastmile_qr_scan", "ios": "https://dc.lft.to/lastmile_qr_scan"}, "lat": 39.00190583333333, "fusion_lon": 0.0, "fusion_lat": 0.0, "type": "electric_bike", "bike_id": "1080396c70a91fa0cb4dc9b4a457011e", "lon": -76.90188466666666, "is_reserved": 0, "is_disabled": 0, "name": "1080396c70a91fa0cb4dc9b4a457011e"}, {"rental_uris": {"android": "https://dc.lft.to/lastmile_qr_scan", "ios": "https://dc.lft.to/lastmile_qr_scan"}, "lat": 38.909519333333336, "fusion_lon": 0.0, "fusion_lat": 0.0, "type": "electric_scooter", "bike_id": "4374632ecba9c417fc0c9ca9c75b6204", "lon": -77.01276933333334, "is_reserved": 0, "is_disabled": 0, "name": "4374632ecba9c417fc0c9ca9c75b6204"}, {"rental_uris": {"android": "https://dc.lft.to/lastmile_qr_scan", "ios": "https://dc.lft.to/lastmile_qr_scan"}, "lat": 38.893104666666666, "fusion_lon": 0.0, "fusion_lat": 0.0, "type": "electric_scooter", "bike_id": "682491aec119ef4115b9c9a6df0cfb27", "lon": -77.04286533333334, "is_reserved": 0, "is_disabled": 0, "name": "682491aec119ef4115b9c9a6df0cfb27"}, {"rental_uris": {"android": "https://dc.lft.to/lastmile_qr_scan", "ios": "https://dc.lft.to/lastmile_qr_scan"}, "lat": 38.93051616666666, "fusion_lon": 0.0, "fusion_lat": 0.0, "type": "electric_scooter", "bike_id": "4bb9dc1c0a6c26b577b894c62a300306", "lon": -77.01873316666666, "is_reserved": 0, "is_disabled": 0, "name": "4bb9dc1c0a6c26b577b894c62a300306"}, {"rental_uris": {"android": "https://dc.lft.to/lastmile_qr_scan", "ios": "https://dc.lft.to/lastmile_qr_scan"}, "lat": 38.8637355, "fusion_lon": 0.0, "fusion_lat": 0.0, "type": "electric_scooter", "bike_id": "9c87ebb5c038d9abcc4f556116bf1cad", "lon": -76.99056933333334, "is_reserved": 0, "is_disabled": 0, "name": "9c87ebb5c038d9abcc4f556116bf1cad"}, {"rental_uris": {"android": "https://dc.lft.to/lastmile_qr_scan", "ios": "https://dc.lft.to/lastmile_qr_scan"}, "lat": 38.8860115, "fusion_lon": 0.0, "fusion_lat": 0.0, "type": "electric_scooter", "bike_id": "0430519060de5a4e8299cd80c8b83c11", "lon": -76.925035, "is_reserved": 0, "is_disabled": 0, "name": "0430519060de5a4e8299cd80c8b83c11"}, {"rental_uris": {"android": "https://dc.lft.to/lastmile_qr_scan", "ios": "https://dc.lft.to/lastmile_qr_scan"}, "lat": 38.911917, "fusion_lon": 0.0, "fusion_lat": 0.0, "type": "electric_scooter", "bike_id": "5b26d14766805efee8d831db3960c691", "lon": -77.04531733333333, "is_reserved": 0, "is_disabled": 0, "name": "5b26d14766805efee8d831db3960c691"}, {"rental_uris": {"android": "https://dc.lft.to/lastmile_qr_scan", "ios": "https://dc.lft.to/lastmile_qr_scan"}, "lat": 38.92506933333333, "fusion_lon": 0.0, "fusion_lat": 0.0, "type": "electric_scooter", "bike_id": "6a93b9a056ecb31047db153e88587451", "lon": -77.02440733333333, "is_reserved": 0, "is_disabled": 0, "name": "6a93b9a056ecb31047db153e88587451"}, {"rental_uris": {"android": "https://dc.lft.to/lastmile_qr_scan", "ios": "https://dc.lft.to/lastmile_qr_scan"}, "lat": 38.90027383333333, "fusion_lon": 0.0, "fusion_lat": 0.0, "type": "electric_scooter", "bike_id": "b030eedef944e6fa882c5df2ade0aa21", "lon": -76.98858883333334, "is_reserved": 0, "is_disabled": 0, "name": "b030eedef944e6fa882c5df2ade0aa21"}, {"rental_uris": {"android": "https://dc.lft.to/lastmile_qr_scan", "ios": "https://dc.lft.to/lastmile_qr_scan"}, "lat": 38.93199333333333, "fusion_lon": 0.0, "fusion_lat": 0.0, "type": "electric_scooter", "bike_id": "7877d1b3ac740559dd47774108fe3e56", "lon": -77.0374465, "is_reserved": 0, "is_disabled": 0, "name": "7877d1b3ac740559dd47774108fe3e56"}, {"rental_uris": {"android": "https://dc.lft.to/lastmile_qr_scan", "ios": "https://dc.lft.to/lastmile_qr_scan"}, "lat": 38.9015025, "fusion_lon": 0.0, "fusion_lat": 0.0, "type": "electric_scooter", "bike_id": "0a1cf2980c3cbf7b36effaf74dec962e", "lon": -77.059197, "is_reserved": 0, "is_disabled": 0, "name": "0a1cf2980c3cbf7b36effaf74dec962e"}, {"rental_uris": {"android": "https://dc.lft.to/lastmile_qr_scan", "ios": "https://dc.lft.to/lastmile_qr_scan"}, "lat": 38.92511666666667, "fusion_lon": 0.0, "fusion_lat": 0.0, "type": "electric_scooter", "bike_id": "4bb06a756661f2a60563b3d879c87c56", "lon": -77.0379115, "is_reserved": 0, "is_disabled": 0, "name": "4bb06a756661f2a60563b3d879c87c56"}, {"rental_uris": {"android": "https://dc.lft.to/lastmile_qr_scan", "ios": "https://dc.lft.to/lastmile_qr_scan"}, "lat": 38.87629166666667, "fusion_lon": 0.0, "fusion_lat": 0.0, "type": "electric_scooter", "bike_id": "39859a141f4455fe6d734bf81cd4465a", "lon": -77.00952233333334, "is_reserved": 0, "is_disabled": 0, "name": "39859a141f4455fe6d734bf81cd4465a"}, {"rental_uris": {"android": "https://dc.lft.to/lastmile_qr_scan", "ios": "https://dc.lft.to/lastmile_qr_scan"}, "lat": 38.912671833333334, "fusion_lon": 0.0, "fusion_lat": 0.0, "type": "electric_scooter", "bike_id": "e5dbfff7736fa48291379ff7e823fd87", "lon": -77.02215116666666, "is_reserved": 0, "is_disabled": 0, "name": "e5dbfff7736fa48291379ff7e823fd87"}, {"rental_uris": {"android": "https://dc.lft.to/lastmile_qr_scan", "ios": "https://dc.lft.to/lastmile_qr_scan"}, "lat": 38.92231816666666, "fusion_lon": 0.0, "fusion_lat": 0.0, "type": "electric_scooter", "bike_id": "d239f1bb16e8fe6432854401c97a33ec", "lon": -77.0336165, "is_reserved": 0, "is_disabled": 0, "name": "d239f1bb16e8fe6432854401c97a33ec"}, {"rental_uris": {"android": "https://dc.lft.to/lastmile_qr_scan", "ios": "https://dc.lft.to/lastmile_qr_scan"}, "lat": 38.89848283333333, "fusion_lon": 0.0, "fusion_lat": 0.0, "type": "electric_scooter", "bike_id": "a03e0aa9682ab1333288ff0194b01d60", "lon": -77.01371566666667, "is_reserved": 0, "is_disabled": 0, "name": "a03e0aa9682ab1333288ff0194b01d60"}, {"rental_uris": {"android": "https://dc.lft.to/lastmile_qr_scan", "ios": "https://dc.lft.to/lastmile_qr_scan"}, "lat": 38.8926255, "fusion_lon": 0.0, "fusion_lat": 0.0, "type": "electric_scooter", "bike_id": "ec7abce8647246d8f5b3efc7a5c3080f", "lon": -77.003726, "is_reserved": 0, "is_disabled": 0, "name": "ec7abce8647246d8f5b3efc7a5c3080f"}, {"rental_uris": {"android": "https://dc.lft.to/lastmile_qr_scan", "ios": "https://dc.lft.to/lastmile_qr_scan"}, "lat": 38.931887, "fusion_lon": 0.0, "fusion_lat": 0.0, "type": "electric_scooter", "bike_id": "0916efd203c2bb47948a7a91e0be410a", "lon": -77.01988366666667, "is_reserved": 0, "is_disabled": 0, "name": "0916efd203c2bb47948a7a91e0be410a"}, {"rental_uris": {"android": "https://dc.lft.to/lastmile_qr_scan", "ios": "https://dc.lft.to/lastmile_qr_scan"}, "lat": 38.9119515, "fusion_lon": 0.0, "fusion_lat": 0.0, "type": "electric_scooter", "bike_id": "40c1e781cdfcdce9598444a27b4dd05f", "lon": -77.00728816666667, "is_reserved": 0, "is_disabled": 0, "name": "40c1e781cdfcdce9598444a27b4dd05f"}, {"rental_uris": {"android": "https://dc.lft.to/lastmile_qr_scan", "ios": "https://dc.lft.to/lastmile_qr_scan"}, "lat": 38.899497, "fusion_lon": 0.0, "fusion_lat": 0.0, "type": "electric_scooter", "bike_id": "56a8eb5af5734dba8245e5a1b470f084", "lon": -76.98832433333334, "is_reserved": 0, "is_disabled": 0, "name": "56a8eb5af5734dba8245e5a1b470f084"}, {"rental_uris": {"android": "https://dc.lft.to/lastmile_qr_scan", "ios": "https://dc.lft.to/lastmile_qr_scan"}, "lat": 38.926630333333335, "fusion_lon": 0.0, "fusion_lat": 0.0, "type": "electric_scooter", "bike_id": "ed85b7e520e0bc176cbc995c8ce827a8", "lon": -76.99557433333334, "is_reserved": 0, "is_disabled": 0, "name": "ed85b7e520e0bc176cbc995c8ce827a8"}, {"rental_uris": {"android": "https://dc.lft.to/lastmile_qr_scan", "ios": "https://dc.lft.to/lastmile_qr_scan"}, "lat": 38.900112666666665, "fusion_lon": 0.0, "fusion_lat": 0.0, "type": "electric_scooter", "bike_id": "18f3285bef9b6d4c455bc719b45de4ed", "lon": -77.04482266666666, "is_reserved": 0, "is_disabled": 0, "name": "18f3285bef9b6d4c455bc719b45de4ed"}, {"rental_uris": {"android": "https://dc.lft.to/lastmile_qr_scan", "ios": "https://dc.lft.to/lastmile_qr_scan"}, "lat": 38.86516866666667, "fusion_lon": 0.0, "fusion_lat": 0.0, "type": "electric_scooter", "bike_id": "f449fde0a5363d836c4dbb52db74a751", "lon": -76.99018033333333, "is_reserved": 0, "is_disabled": 0, "name": "f449fde0a5363d836c4dbb52db74a751"}, {"rental_uris": {"android": "https://dc.lft.to/lastmile_qr_scan", "ios": "https://dc.lft.to/lastmile_qr_scan"}, "lat": 38.905036333333335, "fusion_lon": 0.0, "fusion_lat": 0.0, "type": "electric_scooter", "bike_id": "5b565f99afcb49eefc2638291b20cde1", "lon": -77.048469, "is_reserved": 0, "is_disabled": 0, "name": "5b565f99afcb49eefc2638291b20cde1"}, {"rental_uris": {"android": "https://dc.lft.to/lastmile_qr_scan", "ios": "https://dc.lft.to/lastmile_qr_scan"}, "lat": 38.88285833333333, "fusion_lon": 0.0, "fusion_lat": 0.0, "type": "electric_scooter", "bike_id": "43c0498198560cdd49b429de68db3c53", "lon": -76.98933833333334, "is_reserved": 0, "is_disabled": 0, "name": "43c0498198560cdd49b429de68db3c53"}, {"rental_uris": {"android": "https://dc.lft.to/lastmile_qr_scan", "ios": "https://dc.lft.to/lastmile_qr_scan"}, "lat": 38.83583183333333, "fusion_lon": 0.0, "fusion_lat": 0.0, "type": "electric_bike", "bike_id": "cbe0da3c00a9f69605c4288fde1e8055", "lon": -76.99017533333334, "is_reserved": 0, "is_disabled": 0, "name": "cbe0da3c00a9f69605c4288fde1e8055"}, {"rental_uris": {"android": "https://dc.lft.to/lastmile_qr_scan", "ios": "https://dc.lft.to/lastmile_qr_scan"}, "lat": 38.923912333333334, "fusion_lon": 0.0, "fusion_lat": 0.0, "type": "electric_bike", "bike_id": "d34730cb2c7bf996629696c7b660fb09", "lon": -76.99995383333334, "is_reserved": 0, "is_disabled": 0, "name": "d34730cb2c7bf996629696c7b660fb09"}, {"rental_uris": {"android": "https://dc.lft.to/lastmile_qr_scan", "ios": "https://dc.lft.to/lastmile_qr_scan"}, "lat": 38.891704, "fusion_lon": 0.0, "fusion_lat": 0.0, "type": "electric_scooter", "bike_id": "e3d5beaecb83f3af9f12b1996a5fa4a0", "lon": -77.01551033333334, "is_reserved": 0, "is_disabled": 0, "name": "e3d5beaecb83f3af9f12b1996a5fa4a0"}, {"rental_uris": {"android": "https://dc.lft.to/lastmile_qr_scan", "ios": "https://dc.lft.to/lastmile_qr_scan"}, "lat": 38.926165166666664, "fusion_lon": 0.0, "fusion_lat": 0.0, "type": "electric_scooter", "bike_id": "147101efdf2ff821380fb6717738ad36", "lon": -77.041934, "is_reserved": 0, "is_disabled": 0, "name": "147101efdf2ff821380fb6717738ad36"}, {"rental_uris": {"android": "https://dc.lft.to/lastmile_qr_scan", "ios": "https://dc.lft.to/lastmile_qr_scan"}, "lat": 38.92802566666667, "fusion_lon": 0.0, "fusion_lat": 0.0, "type": "electric_scooter", "bike_id": "27173fe09a6c32f6b61eeb0145186cff", "lon": -77.01554416666667, "is_reserved": 0, "is_disabled": 0, "name": "27173fe09a6c32f6b61eeb0145186cff"}, {"rental_uris": {"android": "https://dc.lft.to/lastmile_qr_scan", "ios": "https://dc.lft.to/lastmile_qr_scan"}, "lat": 38.92245483333333, "fusion_lon": 0.0, "fusion_lat": 0.0, "type": "electric_scooter", "bike_id": "c1cee2755535e6f25cfbbae07b5e2b8f", "lon": -77.01949733333333, "is_reserved": 0, "is_disabled": 0, "name": "c1cee2755535e6f25cfbbae07b5e2b8f"}, {"rental_uris": {"android": "https://dc.lft.to/lastmile_qr_scan", "ios": "https://dc.lft.to/lastmile_qr_scan"}, "lat": 38.90531083333333, "fusion_lon": 0.0, "fusion_lat": 0.0, "type": "electric_scooter", "bike_id": "a1e4905194f642afef832dc6b7c6c544", "lon": -77.058774, "is_reserved": 0, "is_disabled": 0, "name": "a1e4905194f642afef832dc6b7c6c544"}, {"rental_uris": {"android": "https://dc.lft.to/lastmile_qr_scan", "ios": "https://dc.lft.to/lastmile_qr_scan"}, "lat": 38.905966666666664, "fusion_lon": 0.0, "fusion_lat": 0.0, "type": "electric_scooter", "bike_id": "091efbda5ebe0a482bb8519b2fc9fbe3", "lon": -77.05698266666667, "is_reserved": 0, "is_disabled": 0, "name": "091efbda5ebe0a482bb8519b2fc9fbe3"}, {"rental_uris": {"android": "https://dc.lft.to/lastmile_qr_scan", "ios": "https://dc.lft.to/lastmile_qr_scan"}, "lat": 38.933706666666666, "fusion_lon": 0.0, "fusion_lat": 0.0, "type": "electric_scooter", "bike_id": "a394dd469809a9ad7aafb39719984e2f", "lon": -77.03092683333334, "is_reserved": 0, "is_disabled": 0, "name": "a394dd469809a9ad7aafb39719984e2f"}, {"rental_uris": {"android": "https://dc.lft.to/lastmile_qr_scan", "ios": "https://dc.lft.to/lastmile_qr_scan"}, "lat": 38.967336333333336, "fusion_lon": 0.0, "fusion_lat": 0.0, "type": "electric_bike", "bike_id": "c2f17d7263d684c895e763ca29d469e7", "lon": -77.08907216666667, "is_reserved": 0, "is_disabled": 0, "name": "c2f17d7263d684c895e763ca29d469e7"}, {"rental_uris": {"android": "https://dc.lft.to/lastmile_qr_scan", "ios": "https://dc.lft.to/lastmile_qr_scan"}, "lat": 38.903931, "fusion_lon": 0.0, "fusion_lat": 0.0, "type": "electric_scooter", "bike_id": "102c74dda7961b213990a920b8fc741f", "lon": -77.06345916666666, "is_reserved": 0, "is_disabled": 0, "name": "102c74dda7961b213990a920b8fc741f"}, {"rental_uris": {"android": "https://dc.lft.to/lastmile_qr_scan", "ios": "https://dc.lft.to/lastmile_qr_scan"}, "lat": 38.88655133333334, "fusion_lon": 0.0, "fusion_lat": 0.0, "type": "electric_scooter", "bike_id": "a4e14be735c16aa88e759e54e5c03898", "lon": -77.02834366666667, "is_reserved": 0, "is_disabled": 0, "name": "a4e14be735c16aa88e759e54e5c03898"}, {"rental_uris": {"android": "https://dc.lft.to/lastmile_qr_scan", "ios": "https://dc.lft.to/lastmile_qr_scan"}, "lat": 38.932787166666664, "fusion_lon": 0.0, "fusion_lat": 0.0, "type": "electric_scooter", "bike_id": "974bebaaa2dba692aaf738fab06bcf02", "lon": -77.025459, "is_reserved": 0, "is_disabled": 0, "name": "974bebaaa2dba692aaf738fab06bcf02"}, {"rental_uris": {"android": "https://dc.lft.to/lastmile_qr_scan", "ios": "https://dc.lft.to/lastmile_qr_scan"},