{"data": {"bikes": [{"is_disabled": 0, "is_reserved": 0, "fusion_lat": 0.0, "lat": 38.9177505, "fusion_lon": 0.0, "rental_uris": {"ios": "https://dc.lft.to/lastmile_qr_scan", "android": "https://dc.lft.to/lastmile_qr_scan"}, "lon": -77.0211015, "bike_id": "cddcff92976c5963ea3111d549918c50", "type": "electric_scooter", "name": "cddcff92976c5963ea3111d549918c50"}, {"is_disabled": 0, "is_reserved": 0, "fusion_lat": 0.0, "lat": 38.902600666666665, "fusion_lon": 0.0, "rental_uris": {"ios": "https://dc.lft.to/lastmile_qr_scan", "android": "https://dc.lft.to/lastmile_qr_scan"}, "lon": -77.02829066666666, "bike_id": "369e8b69c6798be83c03e9942955063a", "type": "electric_scooter", "name": "369e8b69c6798be83c03e9942955063a"}, {"is_disabled": 0, "is_reserved": 0, "fusion_lat": 0.0, "lat": 38.92126733333333, "fusion_lon": 0.0, "rental_uris": {"ios": "https://dc.lft.to/lastmile_qr_scan", "android": "https://dc.lft.to/lastmile_qr_scan"}, "lon": -77.04694183333334, "bike_id": "0f84b2a636bff562c9b3e4ca8caac966", "type": "electric_scooter", "name": "0f84b2a636bff562c9b3e4ca8caac966"}, {"is_disabled": 0, "is_reserved": 0, "fusion_lat": 0.0, "lat": 38.9408075, "fusion_lon": 0.0, "rental_uris": {"ios": "https://dc.lft.to/lastmile_qr_scan", "android": "https://dc.lft.to/lastmile_qr_scan"}, "lon": -77.00153916666666, "bike_id": "9703c66902b5cb19149d6924d832bd13", "type": "electric_bike", "name": "9703c66902b5cb19149d6924d832bd13"}, {"is_disabled": 0, "is_reserved": 0, "fusion_lat": 0.0, "lat": 38.900338166666664, "fusion_lon": 0.0, "rental_uris": {"ios": "https://dc.lft.to/lastmile_qr_scan", "android": "https://dc.lft.to/lastmile_qr_scan"}, "lon": -77.00376866666667, "bike_id": "aff144837450719387b694e1764643fa", "type": "electric_scooter", "name": "aff144837450719387b694e1764643fa"}, {"is_disabled": 0, "is_reserved": 0, "fusion_lat": 0.0, "lat": 38.910908, "fusion_lon": 0.0, "rental_uris": {"ios": "https://dc.lft.to/lastmile_qr_scan", "android": "https://dc.lft.to/lastmile_qr_scan"}, "lon": -77.087676, "bike_id": "88b6512de6ceb2b2d48f6649e0c22c2e", "type": "electric_bike", "name": "88b6512de6ceb2b2d48f6649e0c22c2e"}, {"is_disabled": 0, "is_reserved": 0, "fusion_lat": 0.0, "lat": 38.9319315, "fusion_lon": 0.0, "rental_uris": {"ios": "https://dc.lft.to/lastmile_qr_scan", "android": "https://dc.lft.to/lastmile_qr_scan"}, "lon": -77.03891966666667, "bike_id": "bd1fce0cb7436e1e2f35aa901fc2c9da", "type": "electric_scooter", "name": "bd1fce0cb7436e1e2f35aa901fc2c9da"}, {"is_disabled": 0, "is_reserved": 0, "fusion_lat": 0.0, "lat": 38.906143, "fusion_lon": 0.0, "rental_uris": {"ios": "https://dc.lft.to/lastmile_qr_scan", "android": "https://dc.lft.to/lastmile_qr_scan"}, "lon": -77.05657933333333, "bike_id": "e2f86753263a70d85c891192c3d3d05e", "type": "electric_scooter", "name": "e2f86753263a70d85c891192c3d3d05e"}, {"is_disabled": 0, "is_reserved": 0, "fusion_lat": 0.0, "lat": 38.899899833333336, "fusion_lon": 0.0, "rental_uris": {"ios": "https://dc.lft.to/lastmile_qr_scan", "android": "https://dc.lft.to/lastmile_qr_scan"}, "lon": -77.0271845, "bike_id": "5c476828c77575cbf04f71298e4f3fd2", "type": "electric_scooter", "name": "5c476828c77575cbf04f71298e4f3fd2"}, {"is_disabled": 0, "is_reserved": 0, "fusion_lat": 0.0, "lat": 38.92237516666667, "fusion_lon": 0.0, "rental_uris": {"ios": "https://dc.lft.to/lastmile_qr_scan", "android": "https://dc.lft.to/lastmile_qr_scan"}, "lon": -77.04011333333334, "bike_id": "c5a28bfcf34f433740ebaa9b4580172d", "type": "electric_scooter", "name": "c5a28bfcf34f433740ebaa9b4580172d"}, {"is_disabled": 0, "is_reserved": 0, "fusion_lat": 0.0, "lat": 38.925032, "fusion_lon": 0.0, "rental_uris": {"ios": "https://dc.lft.to/lastmile_qr_scan", "android": "https://dc.lft.to/lastmile_qr_scan"}, "lon": -77.02255933333333, "bike_id": "098c3c7c2895a9c4c7b96cbcfba7e1e6", "type": "electric_scooter", "name": "098c3c7c2895a9c4c7b96cbcfba7e1e6"}, {"is_disabled": 0, "is_reserved": 0, "fusion_lat": 0.0, "lat": 38.94311783333333, "fusion_lon": 0.0, "rental_uris": {"ios": "https://dc.lft.to/lastmile_qr_scan", "android": "https://dc.lft.to/lastmile_qr_scan"}, "lon": -77.077222, "bike_id": "286342fb3ed72930cde28ff5cbc0a569", "type": "electric_scooter", "name": "286342fb3ed72930cde28ff5cbc0a569"}, {"is_disabled": 0, "is_reserved": 0, "fusion_lat": 0.0, "lat": 38.90074233333333, "fusion_lon": 0.0, "rental_uris": {"ios": "https://dc.lft.to/lastmile_qr_scan", "android": "https://dc.lft.to/lastmile_qr_scan"}, "lon": -77.0434805, "bike_id": "d895736102204a030bdc8c055a5f84e3", "type": "electric_scooter", "name": "d895736102204a030bdc8c055a5f84e3"}, {"is_disabled": 0, "is_reserved": 0, "fusion_lat": 0.0, "lat": 38.91415883333333, "fusion_lon": 0.0, "rental_uris": {"ios": "https://dc.lft.to/lastmile_qr_scan", "android": "https://dc.lft.to/lastmile_qr_scan"}, "lon": -77.0316625, "bike_id": "7533e85e3d645622c61501f45fdfabe2", "type": "electric_scooter", "name": "7533e85e3d645622c61501f45fdfabe2"}, {"is_disabled": 0, "is_reserved": 0, "fusion_lat": 0.0, "lat": 38.897463, "fusion_lon": 0.0, "rental_uris": {"ios": "https://dc.lft.to/lastmile_qr_scan", "android": "https://dc.lft.to/lastmile_qr_scan"}, "lon": -77.02163933333334, "bike_id": "ff514267ec67c48712399f0741d2e4f0", "type": "electric_scooter", "name": "ff514267ec67c48712399f0741d2e4f0"}, {"is_disabled": 0, "is_reserved": 0, "fusion_lat": 0.0, "lat": 38.90361033333333, "fusion_lon": 0.0, "rental_uris": {"ios": "https://dc.lft.to/lastmile_qr_scan", "android": "https://dc.lft.to/lastmile_qr_scan"}, "lon": -77.031498, "bike_id": "d59102216e072bda57583ac1b1b3a75c", "type": "electric_scooter", "name": "d59102216e072bda57583ac1b1b3a75c"}, {"is_disabled": 0, "is_reserved": 0, "fusion_lat": 0.0, "lat": 38.92231233333333, "fusion_lon": 0.0, "rental_uris": {"ios": "https://dc.lft.to/lastmile_qr_scan", "android": "https://dc.lft.to/lastmile_qr_scan"}, "lon": -76.97532266666667, "bike_id": "41a3782d4384b83df8877a503efe8da8", "type": "electric_scooter", "name": "41a3782d4384b83df8877a503efe8da8"}, {"is_disabled": 0, "is_reserved": 0, "fusion_lat": 0.0, "lat": 38.928137666666665, "fusion_lon": 0.0, "rental_uris": {"ios": "https://dc.lft.to/lastmile_qr_scan", "android": "https://dc.lft.to/lastmile_qr_scan"}, "lon": -77.043605, "bike_id": "6a8b308efa0db1cf8f83aacdabac70c8", "type": "electric_scooter", "name": "6a8b308efa0db1cf8f83aacdabac70c8"}, {"is_disabled": 0, "is_reserved": 0, "fusion_lat": 0.0, "lat": 38.9035615, "fusion_lon": 0.0, "rental_uris": {"ios": "https://dc.lft.to/lastmile_qr_scan", "android": "https://dc.lft.to/lastmile_qr_scan"}, "lon": -77.0399845, "bike_id": "0afe431698fb8c3c13375ab8e310fd46", "type": "electric_scooter", "name": "0afe431698fb8c3c13375ab8e310fd46"}, {"is_disabled": 0, "is_reserved": 0, "fusion_lat": 0.0, "lat": 38.93861366666667, "fusion_lon": 0.0, "rental_uris": {"ios": "https://dc.lft.to/lastmile_qr_scan", "android": "https://dc.lft.to/lastmile_qr_scan"}, "lon": -77.07816566666666, "bike_id": "51240d6998637e416cf962eb8c9114b0", "type": "electric_scooter", "name": "51240d6998637e416cf962eb8c9114b0"}, {"is_disabled": 0, "is_reserved": 0, "fusion_lat": 0.0, "lat": 38.83415683333333, "fusion_lon": 0.0, "rental_uris": {"ios": "https://dc.lft.to/lastmile_qr_scan", "android": "https://dc.lft.to/lastmile_qr_scan"}, "lon": -77.0502525, "bike_id": "b3a954f4fb254cb29cc6289fe6fb3a9c", "type": "electric_bike", "name": "b3a954f4fb254cb29cc6289fe6fb3a9c"}, {"is_disabled": 0, "is_reserved": 0, "fusion_lat": 0.0, "lat": 38.906962166666666, "fusion_lon": 0.0, "rental_uris": {"ios": "https://dc.lft.to/lastmile_qr_scan", "android": "https://dc.lft.to/lastmile_qr_scan"}, "lon": -77.04890816666666, "bike_id": "4a00599a5fbd9721f0113f5d5bf14b5f", "type": "electric_scooter", "name": "4a00599a5fbd9721f0113f5d5bf14b5f"}, {"is_disabled": 0, "is_reserved": 0, "fusion_lat": 0.0, "lat": 38.857190333333335, "fusion_lon": 0.0, "rental_uris": {"ios": "https://dc.lft.to/lastmile_qr_scan", "android": "https://dc.lft.to/lastmile_qr_scan"}, "lon": -76.98096316666667, "bike_id": "d05b6c9792871135f53d6ea435c7a1fd", "type": "electric_scooter", "name": "d05b6c9792871135f53d6ea435c7a1fd"}, {"is_disabled": 0, "is_reserved": 0, "fusion_lat": 0.0, "lat": 38.903683666666666, "fusion_lon": 0.0, "rental_uris": {"ios": "https://dc.lft.to/lastmile_qr_scan", "android": "https://dc.lft.to/lastmile_qr_scan"}, "lon": -77.05367283333334, "bike_id": "93a6b780ab86ae68f0bff3a0e7b20d88", "type": "electric_scooter", "name": "93a6b780ab86ae68f0bff3a0e7b20d88"}, {"is_disabled": 0, "is_reserved": 0, "fusion_lat": 0.0, "lat": 38.91700083333333, "fusion_lon": 0.0, "rental_uris": {"ios": "https://dc.lft.to/lastmile_qr_scan", "android": "https://dc.lft.to/lastmile_qr_scan"}, "lon": -77.0237905, "bike_id": "cbbf185fe1ad93045aaeb1436777886e", "type": "electric_scooter", "name": "cbbf185fe1ad93045aaeb1436777886e"}, {"is_disabled": 0, "is_reserved": 0, "fusion_lat": 0.0, "lat": 38.88537516666667, "fusion_lon": 0.0, "rental_uris": {"ios": "https://dc.lft.to/lastmile_qr_scan", "android": "https://dc.lft.to/lastmile_qr_scan"}, "lon": -76.9853465, "bike_id": "47e86d90f253f2967c7832360c45e2f7", "type": "electric_scooter", "name": "47e86d90f253f2967c7832360c45e2f7"}, {"is_disabled": 0, "is_reserved": 0, "fusion_lat": 0.0, "lat": 38.9280445, "fusion_lon": 0.0, "rental_uris": {"ios": "https://dc.lft.to/lastmile_qr_scan", "android": "https://dc.lft.to/lastmile_qr_scan"}, "lon": -77.229407, "bike_id": "625d1b5a69d873cf22695a223fb38569", "type": "electric_bike", "name": "625d1b5a69d873cf22695a223fb38569"}, {"is_disabled": 0, "is_reserved": 0, "fusion_lat": 0.0, "lat": 38.9169355, "fusion_lon": 0.0, "rental_uris": {"ios": "https://dc.lft.to/lastmile_qr_scan", "android": "https://dc.lft.to/lastmile_qr_scan"}, "lon": -77.052957, "bike_id": "6ef7351b063e07e10f9c280e6fd9a0cc", "type": "electric_scooter", "name": "6ef7351b063e07e10f9c280e6fd9a0cc"}, {"is_disabled": 0, "is_reserved": 0, "fusion_lat": 0.0, "lat": 38.92371266666667, "fusion_lon": 0.0, "rental_uris": {"ios": "https://dc.lft.to/lastmile_qr_scan", "android": "https://dc.lft.to/lastmile_qr_scan"}, "lon": -77.019125, "bike_id": "3d948640d0d407bada7dea8dc3865288", "type": "electric_scooter", "name": "3d948640d0d407bada7dea8dc3865288"}, {"is_disabled": 0, "is_reserved": 0, "fusion_lat": 0.0, "lat": 38.9217885, "fusion_lon": 0.0, "rental_uris": {"ios": "https://dc.lft.to/lastmile_qr_scan", "android": "https://dc.lft.to/lastmile_qr_scan"}, "lon": -77.02101916666666, "bike_id": "263f9c7dc5ed48a61ce6701025494f66", "type": "electric_scooter", "name": "263f9c7dc5ed48a61ce6701025494f66"}, {"is_disabled": 0, "is_reserved": 0, "fusion_lat": 0.0, "lat": 38.901290333333336, "fusion_lon": 0.0, "rental_uris": {"ios": "https://dc.lft.to/lastmile_qr_scan", "android": "https://dc.lft.to/lastmile_qr_scan"}, "lon": -77.0035545, "bike_id": "7ccf7b890c681a8c467d3ae182c40280", "type": "electric_scooter", "name": "7ccf7b890c681a8c467d3ae182c40280"}, {"is_disabled": 0, "is_reserved": 0, "fusion_lat": 0.0, "lat": 38.901067166666664, "fusion_lon": 0.0, "rental_uris": {"ios": "https://dc.lft.to/lastmile_qr_scan", "android": "https://dc.lft.to/lastmile_qr_scan"}, "lon": -77.039528, "bike_id": "5c6008b89e72eb2f7ace1c463750ec42", "type": "electric_scooter", "name": "5c6008b89e72eb2f7ace1c463750ec42"}, {"is_disabled": 0, "is_reserved": 0, "fusion_lat": 0.0, "lat": 38.89881283333333, "fusion_lon": 0.0, "rental_uris": {"ios": "https://dc.lft.to/lastmile_qr_scan", "android": "https://dc.lft.to/lastmile_qr_scan"}, "lon": -76.9317235, "bike_id": "cda8e57952d4dbfd942f0a6612a4eff9", "type": "electric_scooter", "name": "cda8e57952d4dbfd942f0a6612a4eff9"}, {"is_disabled": 0, "is_reserved": 0, "fusion_lat": 0.0, "lat": 38.92466116666667, "fusion_lon": 0.0, "rental_uris": {"ios": "https://dc.lft.to/lastmile_qr_scan", "android": "https://dc.lft.to/lastmile_qr_scan"}, "lon": -77.078653, "bike_id": "30d521ac71ead5b014ada08b6f2a9221", "type": "electric_scooter", "name": "30d521ac71ead5b014ada08b6f2a9221"}, {"is_disabled": 0, "is_reserved": 0, "fusion_lat": 0.0, "lat": 38.91780083333333, "fusion_lon": 0.0, "rental_uris": {"ios": "https://dc.lft.to/lastmile_qr_scan", "android": "https://dc.lft.to/lastmile_qr_scan"}, "lon": -77.04097916666667, "bike_id": "93441fda89bee4721ac8fd8a3d66b4b9", "type": "electric_scooter", "name": "93441fda89bee4721ac8fd8a3d66b4b9"}, {"is_disabled": 0, "is_reserved": 0, "fusion_lat": 0.0, "lat": 38.96427216666667, "fusion_lon": 0.0, "rental_uris": {"ios": "https://dc.lft.to/lastmile_qr_scan", "android": "https://dc.lft.to/lastmile_qr_scan"}, "lon": -77.07425283333333, "bike_id": "843ad1c3ca774261e7b7e19aeea998da", "type": "electric_scooter", "name": "843ad1c3ca774261e7b7e19aeea998da"}, {"is_disabled": 0, "is_reserved": 0, "fusion_lat": 0.0, "lat": 38.963808666666665, "fusion_lon": 0.0, "rental_uris": {"ios": "https://dc.lft.to/lastmile_qr_scan", "android": "https://dc.lft.to/lastmile_qr_scan"}, "lon": -77.0197735, "bike_id": "2a243e6fb8d939bbf1d9cc691d516156", "type": "electric_bike", "name": "2a243e6fb8d939bbf1d9cc691d516156"}, {"is_disabled": 0, "is_reserved": 0, "fusion_lat": 0.0, "lat": 38.923646, "fusion_lon": 0.0, "rental_uris": {"ios": "https://dc.lft.to/lastmile_qr_scan", "android": "https://dc.lft.to/lastmile_qr_scan"}, "lon": -77.02061566666667, "bike_id": "9513d2d942c0ddfa501e263bcf68c01f", "type": "electric_scooter", "name": "9513d2d942c0ddfa501e263bcf68c01f"}, {"is_disabled": 0, "is_reserved": 0, "fusion_lat": 0.0, "lat": 38.918164166666664, "fusion_lon": 0.0, "rental_uris": {"ios": "https://dc.lft.to/lastmile_qr_scan", "android": "https://dc.lft.to/lastmile_qr_scan"}, "lon": -77.04003566666667, "bike_id": "81ece8ce5acf1aaa18d71bda103185b6", "type": "electric_scooter", "name": "81ece8ce5acf1aaa18d71bda103185b6"}, {"is_disabled": 0, "is_reserved": 0, "fusion_lat": 0.0, "lat": 38.926024, "fusion_lon": 0.0, "rental_uris": {"ios": "https://dc.lft.to/lastmile_qr_scan", "android": "https://dc.lft.to/lastmile_qr_scan"}, "lon": -77.02290533333333, "bike_id": "17decee6e4d369b317cab0f4e697b858", "type": "electric_scooter", "name": "17decee6e4d369b317cab0f4e697b858"}, {"is_disabled": 0, "is_reserved": 0, "fusion_lat": 0.0, "lat": 38.93342166666667, "fusion_lon": 0.0, "rental_uris": {"ios": "https://dc.lft.to/lastmile_qr_scan", "android": "https://dc.lft.to/lastmile_qr_scan"}, "lon": -77.0194435, "bike_id": "0d8bd16cbc76b30a249503c1d518204d", "type": "electric_scooter", "name": "0d8bd16cbc76b30a249503c1d518204d"}, {"is_disabled": 0, "is_reserved": 0, "fusion_lat": 0.0, "lat": 38.93050933333333, "fusion_lon": 0.0, "rental_uris": {"ios": "https://dc.lft.to/lastmile_qr_scan", "android": "https://dc.lft.to/lastmile_qr_scan"}, "lon": -77.03364016666667, "bike_id": "111d2287960f1a388dc53020498811f1", "type": "electric_scooter", "name": "111d2287960f1a388dc53020498811f1"}, {"is_disabled": 0, "is_reserved": 0, "fusion_lat": 0.0, "lat": 38.95184166666667, "fusion_lon": 0.0, "rental_uris": {"ios": "https://dc.lft.to/lastmile_qr_scan", "android": "https://dc.lft.to/lastmile_qr_scan"}, "lon": -76.935423, "bike_id": "6ddb803f94d9934ec5165ec7812cee56", "type": "electric_bike", "name": "6ddb803f94d9934ec5165ec7812cee56"}, {"is_disabled": 0, "is_reserved": 0, "fusion_lat": 0.0, "lat": 38.8831835, "fusion_lon": 0.0, "rental_uris": {"ios": "https://dc.lft.to/lastmile_qr_scan", "android": "https://dc.lft.to/lastmile_qr_scan"}, "lon": -76.93153783333334, "bike_id": "20a2087b73736640529f575ebe256644", "type": "electric_scooter", "name": "20a2087b73736640529f575ebe256644"}, {"is_disabled": 0, "is_reserved": 0, "fusion_lat": 0.0, "lat": 38.917136, "fusion_lon": 0.0, "rental_uris": {"ios": "https://dc.lft.to/lastmile_qr_scan", "android": "https://dc.lft.to/lastmile_qr_scan"}, "lon": -77.03233166666666, "bike_id": "ee36c0d1b50d6b46969a7c819f370484", "type": "electric_scooter", "name": "ee36c0d1b50d6b46969a7c819f370484"}, {"is_disabled": 0, "is_reserved": 0, "fusion_lat": 0.0, "lat": 38.892529, "fusion_lon": 0.0, "rental_uris": {"ios": "https://dc.lft.to/lastmile_qr_scan", "android": "https://dc.lft.to/lastmile_qr_scan"}, "lon": -77.04654716666667, "bike_id": "cbeb8c585e1d4e085475a10b76b69a7d", "type": "electric_scooter", "name": "cbeb8c585e1d4e085475a10b76b69a7d"}, {"is_disabled": 0, "is_reserved": 0, "fusion_lat": 0.0, "lat": 38.89847616666667, "fusion_lon": 0.0, "rental_uris": {"ios": "https://dc.lft.to/lastmile_qr_scan", "android": "https://dc.lft.to/lastmile_qr_scan"}, "lon": -77.02858633333334, "bike_id": "8e7d3115178346b382721505a8bad067", "type": "electric_scooter", "name": "8e7d3115178346b382721505a8bad067"}, {"is_disabled": 0, "is_reserved": 0, "fusion_lat": 0.0, "lat": 38.8768195, "fusion_lon": 0.0, "rental_uris": {"ios": "https://dc.lft.to/lastmile_qr_scan", "android": "https://dc.lft.to/lastmile_qr_scan"}, "lon": -77.0006195, "bike_id": "4aac8c5bdb60185c917448f519d26d40", "type": "electric_scooter", "name": "4aac8c5bdb60185c917448f519d26d40"}, {"is_disabled": 0, "is_reserved": 0, "fusion_lat": 0.0, "lat": 38.901771333333336, "fusion_lon": 0.0, "rental_uris": {"ios": "https://dc.lft.to/lastmile_qr_scan", "android": "https://dc.lft.to/lastmile_qr_scan"}, "lon": -76.98812116666667, "bike_id": "090d86685a45cde7b408aa93a824913b", "type": "electric_scooter", "name": "090d86685a45cde7b408aa93a824913b"}, {"is_disabled": 0, "is_reserved": 0, "fusion_lat": 0.0, "lat": 38.89969883333333, "fusion_lon": 0.0, "rental_uris": {"ios": "https://dc.lft.to/lastmile_qr_scan", "android": "https://dc.lft.to/lastmile_qr_scan"}, "lon": -76.93766416666666, "bike_id": "b75e478557df990ee086cbd01892562f", "type": "electric_scooter", "name": "b75e478557df990ee086cbd01892562f"}, {"is_disabled": 0, "is_reserved": 0, "fusion_lat": 0.0, "lat": 38.92414516666667, "fusion_lon": 0.0, "rental_uris": {"ios": "https://dc.lft.to/lastmile_qr_scan", "android": "https://dc.lft.to/lastmile_qr_scan"}, "lon": -77.03415416666667, "bike_id": "59b2d16905af945baf7456ea3980de7a", "type": "electric_scooter", "name": "59b2d16905af945baf7456ea3980de7a"}, {"is_disabled": 0, "is_reserved": 0, "fusion_lat": 0.0, "lat": 38.83043033333333, "fusion_lon": 0.0, "rental_uris": {"ios": "https://dc.lft.to/lastmile_qr_scan", "android": "https://dc.lft.to/lastmile_qr_scan"}, "lon": -77.00824133333333, "bike_id": "09ff1636662b55f6bb1839baae787e9f", "type": "electric_bike", "name": "09ff1636662b55f6bb1839baae787e9f"}, {"is_disabled": 0, "is_reserved": 0, "fusion_lat": 0.0, "lat": 38.918299833333336, "fusion_lon": 0.0, "rental_uris": {"ios": "https://dc.lft.to/lastmile_qr_scan", "android": "https://dc.lft.to/lastmile_qr_scan"}, "lon": -77.03662066666666, "bike_id": "e398b041e9c7043ce507de0a9caa5404", "type": "electric_scooter", "name": "e398b041e9c7043ce507de0a9caa5404"}, {"is_disabled": 0, "is_reserved": 0, "fusion_lat": 0.0, "lat": 38.91762033333333, "fusion_lon": 0.0, "rental_uris": {"ios": "https://dc.lft.to/lastmile_qr_scan", "android": "https://dc.lft.to/lastmile_qr_scan"}, "lon": -77.02802816666667, "bike_id": "c31b77d9f707b3153cf4c2892b94c5ac", "type": "electric_scooter", "name": "c31b77d9f707b3153cf4c2892b94c5ac"}, {"is_disabled": 0, "is_reserved": 0, "fusion_lat": 0.0, "lat": 38.877458, "fusion_lon": 0.0, "rental_uris": {"ios": "https://dc.lft.to/lastmile_qr_scan", "android": "https://dc.lft.to/lastmile_qr_scan"}, "lon": -77.00421033333333, "bike_id": "03da0e8727b6eccc971f463b3d5acd86", "type": "electric_scooter", "name": "03da0e8727b6eccc971f463b3d5acd86"}, {"is_disabled": 0, "is_reserved": 0, "fusion_lat": 0.0, "lat": 38.931793666666664, "fusion_lon": 0.0, "rental_uris": {"ios": "https://dc.lft.to/lastmile_qr_scan", "android": "https://dc.lft.to/lastmile_qr_scan"}, "lon": -77.0234305, "bike_id": "444065c1c5fc6b2bfad17052118618ad", "type": "electric_scooter", "name": "444065c1c5fc6b2bfad17052118618ad"}, {"is_disabled": 0, "is_reserved": 0, "fusion_lat": 0.0, "lat": 38.91800966666667, "fusion_lon": 0.0, "rental_uris": {"ios": "https://dc.lft.to/lastmile_qr_scan", "android": "https://dc.lft.to/lastmile_qr_scan"}, "lon": -77.02710616666667, "bike_id": "56445360214bf6338f7bac749e5b4db5", "type": "electric_scooter", "name": "56445360214bf6338f7bac749e5b4db5"}, {"is_disabled": 0, "is_reserved": 0, "fusion_lat": 0.0, "lat": 38.88162333333333, "fusion_lon": 0.0, "rental_uris": {"ios": "https://dc.lft.to/lastmile_qr_scan", "android": "https://dc.lft.to/lastmile_qr_scan"}, "lon": -77.02764483333333, "bike_id": "1e867a80e98bfc3007f56822dd19b87e", "type": "electric_scooter", "name": "1e867a80e98bfc3007f56822dd19b87e"}, {"is_disabled": 0, "is_reserved": 0, "fusion_lat": 0.0, "lat": 38.923658833333334, "fusion_lon": 0.0, "rental_uris": {"ios": "https://dc.lft.to/lastmile_qr_scan", "android": "https://dc.lft.to/lastmile_qr_scan"}, "lon": -77.02058333333333, "bike_id": "5a066a474d3324d2dc38e16cdd6d1089", "type": "electric_scooter", "name": "5a066a474d3324d2dc38e16cdd6d1089"}, {"is_disabled": 0, "is_reserved": 0, "fusion_lat": 0.0, "lat": 38.846270833333335, "fusion_lon": 0.0, "rental_uris": {"ios": "https://dc.lft.to/lastmile_qr_scan", "android": "https://dc.lft.to/lastmile_qr_scan"}, "lon": -77.06935483333334, "bike_id": "eaad8c65a68fdffc280bb3235a741f3a", "type": "electric_bike", "name": "eaad8c65a68fdffc280bb3235a741f3a"}, {"is_disabled": 0, "is_reserved": 0, "fusion_lat": 0.0, "lat": 38.9240495, "fusion_lon": 0.0, "rental_uris": {"ios": "https://dc.lft.to/lastmile_qr_scan", "android": "https://dc.lft.to/lastmile_qr_scan"}, "lon": -77.02692383333333, "bike_id": "18529dd02a6351146c795114414aed82", "type": "electric_scooter", "name": "18529dd02a6351146c795114414aed82"}, {"is_disabled": 0, "is_reserved": 0, "fusion_lat": 0.0, "lat": 38.914972, "fusion_lon": 0.0, "rental_uris": {"ios": "https://dc.lft.to/lastmile_qr_scan", "android": "https://dc.lft.to/lastmile_qr_scan"}, "lon": -76.98369366666667, "bike_id": "bec3d6be9f0dbf8a31b0eb3484cfbd68", "type": "electric_scooter", "name": "bec3d6be9f0dbf8a31b0eb3484cfbd68"}, {"is_disabled": 0, "is_reserved": 0, "fusion_lat": 0.0, "lat": 38.916927333333334, "fusion_lon": 0.0, "rental_uris": {"ios": "https://dc.lft.to/lastmile_qr_scan", "android": "https://dc.lft.to/lastmile_qr_scan"}, "lon": -77.037184, "bike_id": "f273a72b5d3b2aab6df9af0043035175", "type": "electric_scooter", "name": "f273a72b5d3b2aab6df9af0043035175"}, {"is_disabled": 0, "is_reserved": 0, "fusion_lat": 0.0, "lat": 38.916851, "fusion_lon": 0.0, "rental_uris": {"ios": "https://dc.lft.to/lastmile_qr_scan", "android": "https://dc.lft.to/lastmile_qr_scan"}, "lon": -77.03436183333334, "bike_id": "eb6b8a5e8ed437de312492326ede952e", "type": "electric_scooter", "name": "eb6b8a5e8ed437de312492326ede952e"}, {"is_disabled": 0, "is_reserved": 0, "fusion_lat": 0.0, "lat": 38.9444835, "fusion_lon": 0.0, "rental_uris": {"ios": "https://dc.lft.to/lastmile_qr_scan", "android": "https://dc.lft.to/lastmile_qr_scan"}, "lon": -77.03281116666666, "bike_id": "67b3f4a0aee7fbef28cccd22ce27bbb7", "type": "electric_scooter", "name": "67b3f4a0aee7fbef28cccd22ce27bbb7"}, {"is_disabled": 0, "is_reserved": 0, "fusion_lat": 0.0, "lat": 38.9287595, "fusion_lon": 0.0, "rental_uris": {"ios": "https://dc.lft.to/lastmile_qr_scan", "android": "https://dc.lft.to/lastmile_qr_scan"}, "lon": -77.039925, "bike_id": "6e85a291e1877e15b5a25fb0e6057cff", "type": "electric_scooter", "name": "6e85a291e1877e15b5a25fb0e6057cff"}, {"is_disabled": 0, "is_reserved": 0, "fusion_lat": 0.0, "lat": 38.91954333333334, "fusion_lon": 0.0, "rental_uris": {"ios": "https://dc.lft.to/lastmile_qr_scan", "android": "https://dc.lft.to/lastmile_qr_scan"}, "lon": -77.02306916666667, "bike_id": "af0a17499d33b16804f4476500fe2c92", "type": "electric_scooter", "name": "af0a17499d33b16804f4476500fe2c92"}, {"is_disabled": 0, "is_reserved": 0, "fusion_lat": 0.0, "lat": 38.898416, "fusion_lon": 0.0, "rental_uris": {"ios": "https://dc.lft.to/lastmile_qr_scan", "android": "https://dc.lft.to/lastmile_qr_scan"}, "lon": -77.04906233333334, "bike_id": "19591f6fbd8dfe382c1ebdacf2d12d33", "type": "electric_scooter", "name": "19591f6fbd8dfe382c1ebdacf2d12d33"}, {"is_disabled": 0, "is_reserved": 0, "fusion_lat": 0.0, "lat": 38.86818316666667, "fusion_lon": 0.0, "rental_uris": {"ios": "https://dc.lft.to/lastmile_qr_scan", "android": "https://dc.lft.to/lastmile_qr_scan"}, "lon": -76.9802025, "bike_id": "90b319fb26e11a816b7794369d489c79", "type": "electric_bike", "name": "90b319fb26e11a816b7794369d489c79"}, {"is_disabled": 0, "is_reserved": 0, "fusion_lat": 0.0, "lat": 38.926983666666665, "fusion_lon": 0.0, "rental_uris": {"ios": "https://dc.lft.to/lastmile_qr_scan", "android": "https://dc.lft.to/lastmile_qr_scan"}, "lon": -77.02487583333334, "bike_id": "96c759d8f508d2e6b2add96a370c5ad9", "type": "electric_scooter", "name": "96c759d8f508d2e6b2add96a370c5ad9"}, {"is_disabled": 0, "is_reserved": 0, "fusion_lat": 0.0, "lat": 38.905962, "fusion_lon": 0.0, "rental_uris": {"ios": "https://dc.lft.to/lastmile_qr_scan", "android": "https://dc.lft.to/lastmile_qr_scan"}, "lon": -77.0432545, "bike_id": "b267b87c56c9081bb4b9de2d89302d17", "type": "electric_scooter", "name": "b267b87c56c9081bb4b9de2d89302d17"}, {"is_disabled": 0, "is_reserved": 0, "fusion_lat": 0.0, "lat": 38.9072555, "fusion_lon": 0.0, "rental_uris": {"ios": "https://dc.lft.to/lastmile_qr_scan", "android": "https://dc.lft.to/lastmile_qr_scan"}, "lon": -77.02503933333334, "bike_id": "d95bf255466b437c6407a3907e140274", "type": "electric_scooter", "name": "d95bf255466b437c6407a3907e140274"}, {"is_disabled": 0, "is_reserved": 0, "fusion_lat": 0.0, "lat": 38.900050666666665, "fusion_lon": 0.0, "rental_uris": {"ios": "https://dc.lft.to/lastmile_qr_scan", "android": "https://dc.lft.to/lastmile_qr_scan"}, "lon": -77.05259283333334, "bike_id": "f4b3ada333a673d4cf002b403a854f21", "type": "electric_scooter", "name": "f4b3ada333a673d4cf002b403a854f21"}, {"is_disabled": 0, "is_reserved": 0, "fusion_lat": 0.0, "lat": 38.91703483333333, "fusion_lon": 0.0, "rental_uris": {"ios": "https://dc.lft.to/lastmile_qr_scan", "android": "https://dc.lft.to/lastmile_qr_scan"}, "lon": -77.024069, "bike_id": "486238f7540a108ef0e9810db1accacc", "type": "electric_scooter", "name": "486238f7540a108ef0e9810db1accacc"}, {"is_disabled": 0, "is_reserved": 0, "fusion_lat": 0.0, "lat": 38.94295316666667, "fusion_lon": 0.0, "rental_uris": {"ios": "https://dc.lft.to/lastmile_qr_scan", "android": "https://dc.lft.to/lastmile_qr_scan"}, "lon": -76.9907225, "bike_id": "eb6f514edcc7ca22d7da14cc8a913dd9", "type": "electric_bike", "name": "eb6f514edcc7ca22d7da14cc8a913dd9"}, {"is_disabled": 0, "is_reserved": 0, "fusion_lat": 0.0, "lat": 38.918339333333336, "fusion_lon": 0.0, "rental_uris": {"ios": "https://dc.lft.to/lastmile_qr_scan", "android": "https://dc.lft.to/lastmile_qr_scan"}, "lon": -77.04172533333333, "bike_id": "608e25861f0cbed00f73bf64eb5cf26d", "type": "electric_scooter", "name": "608e25861f0cbed00f73bf64eb5cf26d"}, {"is_disabled": 0, "is_reserved": 0, "fusion_lat": 0.0, "lat": 38.919239, "fusion_lon": 0.0, "rental_uris": {"ios": "https://dc.lft.to/lastmile_qr_scan", "android": "https://dc.lft.to/lastmile_qr_scan"}, "lon": -77.03199133333334, "bike_id": "fd92185a6ce755962bb7e7e15394d5d2", "type": "electric_scooter", "name": "fd92185a6ce755962bb7e7e15394d5d2"}, {"is_disabled": 0, "is_reserved": 0, "fusion_lat": 0.0, "lat": 38.91783616666667, "fusion_lon": 0.0, "rental_uris": {"ios": "https://dc.lft.to/lastmile_qr_scan", "android": "https://dc.lft.to/lastmile_qr_scan"}, "lon": -77.041852, "bike_id": "c893c3d440b255189e98e5b9af8e91e0", "type": "electric_scooter", "name": "c893c3d440b255189e98e5b9af8e91e0"}, {"is_disabled": 0, "is_reserved": 0, "fusion_lat": 0.0, "lat": 38.8814115, "fusion_lon": 0.0, "rental_uris": {"ios": "https://dc.lft.to/lastmile_qr_scan", "android": "https://dc.lft.to/lastmile_qr_scan"}, "lon": -77.01310666666667, "bike_id": "36018848428eadc1748af47c62c79447", "type": "electric_scooter", "name": "36018848428eadc1748af47c62c79447"}, {"is_disabled": 0, "is_reserved": 0, "fusion_lat": 0.0, "lat": 38.9000505, "fusion_lon": 0.0, "rental_uris": {"ios": "https://dc.lft.to/lastmile_qr_scan", "android": "https://dc.lft.to/lastmile_qr_scan"}, "lon": -77.052295, "bike_id": "02e794b6ed2d8186c2111df020b8f1de", "type": "electric_scooter", "name": "02e794b6ed2d8186c2111df020b8f1de"}, {"is_disabled": 0, "is_reserved": 0, "fusion_lat": 0.0, "lat": 38.89830933333333, "fusion_lon": 0.0, "rental_uris": {"ios": "https://dc.lft.to/lastmile_qr_scan", "android": "https://dc.lft.to/lastmile_qr_scan"}, "lon": -77.04653866666666, "bike_id": "0a861059449327d189e20716bff158b9", "type": "electric_scooter", "name": "0a861059449327d189e20716bff158b9"}, {"is_disabled": 0, "is_reserved": 0, "fusion_lat": 0.0, "lat": 38.917059, "fusion_lon": 0.0, "rental_uris": {"ios": "https://dc.lft.to/lastmile_qr_scan", "android": "https://dc.lft.to/lastmile_qr_scan"}, "lon": -77.00192383333334, "bike_id": "929f454a1ee70afa2ded17f255fc9bbe", "type": "electric_bike", "name": "929f454a1ee70afa2ded17f255fc9bbe"}, {"is_disabled": 0, "is_reserved": 0, "fusion_lat": 0.0, "lat": 38.92484816666666, "fusion_lon": 0.0, "rental_uris": {"ios": "https://dc.lft.to/lastmile_qr_scan", "android": "https://dc.lft.to/lastmile_qr_scan"}, "lon": -77.0318585, "bike_id": "0055b9eebca3c294941b4cd7cc8e4c9f", "type": "electric_scooter", "name": "0055b9eebca3c294941b4cd7cc8e4c9f"}, {"is_disabled": 0, "is_reserved": 0, "fusion_lat": 0.0, "lat": 38.92082933333333, "fusion_lon": 0.0, "rental_uris": {"ios": "https://dc.lft.to/lastmile_qr_scan", "android": "https://dc.lft.to/lastmile_qr_scan"}, "lon": -77.0239165, "bike_id": "ee3e3e1c0acb722a66461caae48d59d6", "type": "electric_scooter", "name": "ee3e3e1c0acb722a66461caae48d59d6"}, {"is_disabled": 0, "is_reserved": 0, "fusion_lat": 0.0, "lat": 38.8850695, "fusion_lon": 0.0, "rental_uris": {"ios": "https://dc.lft.to/lastmile_qr_scan", "android": "https://dc.lft.to/lastmile_qr_scan"}, "lon": -76.99749133333333, "bike_id": "16ec8a27a1d7005a5205f8718e9a9762", "type": "electric_scooter", "name": "16ec8a27a1d7005a5205f8718e9a9762"}, {"is_disabled": 0, "is_reserved": 0, "fusion_lat": 0.0, "lat": 38.9220395, "fusion_lon": 0.0, "rental_uris": {"ios": "https://dc.lft.to/lastmile_qr_scan", "android": "https://dc.lft.to/lastmile_qr_scan"}, "lon": -76.99697916666666, "bike_id": "497456ee322b9fa23cd9e08aa1211921", "type": "electric_scooter", "name": "497456ee322b9fa23cd9e08aa1211921"}, {"is_disabled": 0, "is_reserved": 0, "fusion_lat": 0.0, "lat": 38.8580955, "fusion_lon": 0.0, "rental_uris": {"ios": "https://dc.lft.to/lastmile_qr_scan", "android": "https://dc.lft.to/lastmile_qr_scan"}, "lon": -76.98747283333333, "bike_id": "0cd85e7c20eaef1cf2902c741b2e192c", "type": "electric_bike", "name": "0cd85e7c20eaef1cf2902c741b2e192c"}, {"is_disabled": 0, "is_reserved": 0, "fusion_lat": 0.0, "lat": 38.901334, "fusion_lon": 0.0, "rental_uris": {"ios": "https://dc.lft.to/lastmile_qr_scan", "android": "https://dc.lft.to/lastmile_qr_scan"}, "lon": -76.99272383333333, "bike_id": "637af89b89b70a154a258d7311b61da2", "type": "electric_scooter", "name": "637af89b89b70a154a258d7311b61da2"}, {"is_disabled": 0, "is_reserved": 0, "fusion_lat": 0.0, "lat": 38.9003545, "fusion_lon": 0.0, "rental_uris": {"ios": "https://dc.lft.to/lastmile_qr_scan", "android": "https://dc.lft.to/lastmile_qr_scan"}, "lon": -77.03496883333334, "bike_id": "79ec0f8ff5646d8c4ba136528935d478", "type": "electric_scooter", "name": "79ec0f8ff5646d8c4ba136528935d478"}, {"is_disabled": 0, "is_reserved": 0, "fusion_lat": 0.0, "lat": 39.026224666666664, "fusion_lon": 0.0, "rental_uris": {"ios": "https://dc.lft.to/lastmile_qr_scan", "android": "https://dc.lft.to/lastmile_qr_scan"}, "lon": -77.03877583333333, "bike_id": "ff86cc557d80b3ea82c6cecc9e6c2887", "type": "electric_bike", "name": "ff86cc557d80b3ea82c6cecc9e6c2887"}, {"is_disabled": 0, "is_reserved": 0, "fusion_lat": 0.0, "lat": 38.938827833333335, "fusion_lon": 0.0, "rental_uris": {"ios": "https://dc.lft.to/lastmile_qr_scan", "android": "https://dc.lft.to/lastmile_qr_scan"}, "lon": -77.02828883333333, "bike_id": "5e2d8fc33feaac618b322221d0169118", "type": "electric_scooter", "name": "5e2d8fc33feaac618b322221d0169118"}, {"is_disabled": 0, "is_reserved": 0, "fusion_lat": 0.0, "lat": 38.8839965, "fusion_lon": 0.0, "rental_uris": {"ios": "https://dc.lft.to/lastmile_qr_scan", "android": "https://dc.lft.to/lastmile_qr_scan"}, "lon": -76.99512766666666, "bike_id": "42daac50464a1fce4d09fae1040770f0", "type": "electric_scooter", "name": "42daac50464a1fce4d09fae1040770f0"}, {"is_disabled": 0, "is_reserved": 0, "fusion_lat": 0.0, "lat": 38.84271533333333, "fusion_lon": 0.0, "rental_uris": {"ios": "https://dc.lft.to/lastmile_qr_scan", "android": "https://dc.lft.to/lastmile_qr_scan"}, "lon": -76.98838466666666, "bike_id": "7a900b20100cefb5d372e70aa7e95a6a", "type": "electric_scooter", "name": "7a900b20100cefb5d372e70aa7e95a6a"}, {"is_disabled": 0, "is_reserved": 0, "fusion_lat": 0.0, "lat": 38.92280566666667, "fusion_lon": 0.0, "rental_uris": {"ios": "https://dc.lft.to/lastmile_qr_scan", "android": "https://dc.lft.to/lastmile_qr_scan"}, "lon": -77.02965666666667, "bike_id": "0cfeda82c13fcc2efc6c312ada5f6998", "type": "electric_scooter", "name": "0cfeda82c13fcc2efc6c312ada5f6998"}, {"is_disabled": 0, "is_reserved": 0, "fusion_lat": 0.0, "lat": 38.9564635, "fusion_lon": 0.0, "rental_uris": {"ios": "https://dc.lft.to/lastmile_qr_scan", "android": "https://dc.lft.to/lastmile_qr_scan"}, "lon": -77.02817866666666, "bike_id": "ba632d06ef75889703c5eb1391d059ac", "type": "electric_scooter", "name": "ba632d06ef75889703c5eb1391d059ac"}, {"is_disabled": 0, "is_reserved": 0, "fusion_lat": 0.0, "lat": 38.9031455, "fusion_lon": 0.0, "rental_uris": {"ios": "https://dc.lft.to/lastmile_qr_scan", "android": "https://dc.lft.to/lastmile_qr_scan"}, "lon": -76.978023, "bike_id": "82a184c99e188aee59318feb10403605", "type": "electric_scooter", "name": "82a184c99e188aee59318feb10403605"}, {"is_disabled": 0, "is_reserved": 0, "fusion_lat": 0.0, "lat": 38.8765415, "fusion_lon": 0.0, "rental_uris": {"ios": "https://dc.lft.to/lastmile_qr_scan", "android": "https://dc.lft.to/lastmile_qr_scan"}, "lon": -77.00839333333333, "bike_id": "7ec2efb727a26a29143b0e04276e7524", "type": "electric_scooter", "name": "7ec2efb727a26a29143b0e04276e7524"}, {"is_disabled": 0, "is_reserved": 0, "fusion_lat": 0.0, "lat": 38.900524833333336, "fusion_lon": 0.0, "rental_uris": {"ios": "https://dc.lft.to/lastmile_qr_scan", "android": "https://dc.lft.to/lastmile_qr_scan"}, "lon": -76.99338133333333, "bike_id": "4f5a15005b1f3fce834f581be0f64973", "type": "electric_scooter", "name": "4f5a15005b1f3fce834f581be0f64973"}, {"is_disabled": 0, "is_reserved": 0, "fusion_lat": 0.0, "lat": 38.84673633333333, "fusion_lon": 0.0, "rental_uris": {"ios": "https://dc.lft.to/lastmile_qr_scan", "android": "https://dc.lft.to/lastmile_qr_scan"}, "lon": -77.13938666666667, "bike_id": "83778ff9099540d3040e47319e084bda", "type": "electric_bike", "name": "83778ff9099540d3040e47319e084bda"}, {"is_disabled": 0, "is_reserved": 0, "fusion_lat": 0.0, "lat": 38.8761765, "fusion_lon": 0.0, "rental_uris": {"ios": "https://dc.lft.to/lastmile_qr_scan", "android": "https://dc.lft.to/lastmile_qr_scan"}, "lon": -77.0059215, "bike_id": "f1a75a1243921584bf32f82aed47e2a0", "type": "electric_scooter", "name": "f1a75a1243921584bf32f82aed47e2a0"}, {"is_disabled": 0, "is_reserved": 0, "fusion_lat": 0.0, "lat": 38.871903, "fusion_lon": 0.0, "rental_uris": {"ios": "https://dc.lft.to/lastmile_qr_scan", "android": "https://dc.lft.to/lastmile_qr_scan"}, "lon": -77.0058655, "bike_id": "01a67e7411c8c0370a7749bdb3109b53", "type": "electric_scooter", "name": "01a67e7411c8c0370a7749bdb3109b53"}, {"is_disabled": 0, "is_reserved": 0, "fusion_lat": 0.0, "lat": 38.920958, "fusion_lon": 0.0, "rental_uris": {"ios": "https://dc.lft.to/lastmile_qr_scan", "android": "https://dc.lft.to/lastmile_qr_scan"}, "lon": -77.04105616666666, "bike_id": "2280a69021d97ff39d1c6d3e1ccd7c72", "type": "electric_scooter", "name": "2280a69021d97ff39d1c6d3e1ccd7c72"}, {"is_disabled": 0, "is_reserved": 0, "fusion_lat": 0.0, "lat": 38.91559916666667, "fusion_lon": 0.0, "rental_uris": {"ios": "https://dc.lft.to/lastmile_qr_scan", "android": "https://dc.lft.to/lastmile_qr_scan"}, "lon": -77.05106366666666, "bike_id": "e34a1d1ef8e0520eb8a01476ca454ca4", "type": "electric_scooter", "name": "e34a1d1ef8e0520eb8a01476ca454ca4"}, {"is_disabled": 0, "is_reserved": 0, "fusion_lat": 0.0, "lat": 38.89614516666666, "fusion_lon": 0.0, "rental_uris": {"ios": "https://dc.lft.to/lastmile_qr_scan", "android": "https://dc.lft.to/lastmile_qr_scan"}, "lon": -77.04116516666667, "bike_id": "ea9f46acf87650cc5bdbbd8445d8c26f", "type": "electric_scooter", "name": "ea9f46acf87650cc5bdbbd8445d8c26f"}, {"is_disabled": 0, "is_reserved": 0, "fusion_lat": 0.0, "lat": 38.917092, "fusion_lon": 0.0, "rental_uris": {"ios": "https://dc.lft.to/lastmile_qr_scan", "android": "https://dc.lft.to/lastmile_qr_scan"}, "lon": -77.0241685, "bike_id": "836a86fcde8b2c5395355f239d7b0ad8", "type": "electric_scooter", "name": "836a86fcde8b2c5395355f239d7b0ad8"}, {"is_disabled": 0, "is_reserved": 0, "fusion_lat": 0.0, "lat": 38.912569833333336, "fusion_lon": 0.0, "rental_uris": {"ios": "https://dc.lft.to/lastmile_qr_scan", "android": "https://dc.lft.to/lastmile_qr_scan"}, "lon": -76.98351766666667, "bike_id": "5797f8463324fc043122d613ce716d53", "type": "electric_scooter", "name": "5797f8463324fc043122d613ce716d53"}, {"is_disabled": 0, "is_reserved": 0, "fusion_lat": 0.0, "lat": 38.9045485, "fusion_lon": 0.0, "rental_uris": {"ios": "https://dc.lft.to/lastmile_qr_scan", "android": "https://dc.lft.to/lastmile_qr_scan"}, "lon": -76.93273233333333, "bike_id": "d748df8440069223834861970a466684", "type": "electric_scooter", "name": "d748df8440069223834861970a466684"}, {"is_disabled": 0, "is_reserved": 0, "fusion_lat": 0.0, "lat": 38.89846416666666, "fusion_lon": 0.0, "rental_uris": {"ios": "https://dc.lft.to/lastmile_qr_scan", "android": "https://dc.lft.to/lastmile_qr_scan"}, "lon": -77.0236915, "bike_id": "b944b946856e75ec7fdfe44cf2527556", "type": "electric_scooter", "name": "b944b946856e75ec7fdfe44cf2527556"}, {"is_disabled": 0, "is_reserved": 0, "fusion_lat": 0.0, "lat": 38.911182833333335, "fusion_lon": 0.0, "rental_uris": {"ios": "https://dc.lft.to/lastmile_qr_scan", "android": "https://dc.lft.to/lastmile_qr_scan"}, "lon": -77.03134533333333, "bike_id": "a72fa2f3de9380a3895b1a8722ce706e", "type": "electric_scooter", "name": "a72fa2f3de9380a3895b1a8722ce706e"}, {"is_disabled": 0, "is_reserved": 0, "fusion_lat": 0.0, "lat": 38.922106, "fusion_lon": 0.0, "rental_uris": {"ios": "https://dc.lft.to/lastmile_qr_scan", "android": "https://dc.lft.to/lastmile_qr_scan"}, "lon": -77.04312816666666, "bike_id": "438e810f89eafb99adb4d58f40948ca8", "type": "electric_scooter", "name": "438e810f89eafb99adb4d58f40948ca8"}, {"is_disabled": 0, "is_reserved": 0, "fusion_lat": 0.0, "lat": 38.89833816666667, "fusion_lon": 0.0, "rental_uris": {"ios": "https://dc.lft.to/lastmile_qr_scan", "android": "https://dc.lft.to/lastmile_qr_scan"}, "lon": -76.99017466666666, "bike_id": "2e8bcfd1c2bc540c51da1dd45b6717eb", "type": "electric_scooter", "name": "2e8bcfd1c2bc540c51da1dd45b6717eb"}, {"is_disabled": 0, "is_reserved": 0, "fusion_lat": 0.0, "lat": 38.914172, "fusion_lon": 0.0, "rental_uris": {"ios": "https://dc.lft.to/lastmile_qr_scan", "android": "https://dc.lft.to/lastmile_qr_scan"}, "lon": -77.0333805, "bike_id": "48cf99311b2f1d9b0a27771777d171e4", "type": "electric_scooter", "name": "48cf99311b2f1d9b0a27771777d171e4"}, {"is_disabled": 0, "is_reserved": 0, "fusion_lat": 0.0, "lat": 38.92209233333333, "fusion_lon": 0.0, "rental_uris": {"ios": "https://dc.lft.to/lastmile_qr_scan", "android": "https://dc.lft.to/lastmile_qr_scan"}, "lon": -77.01839533333333, "bike_id": "b217104be123058cee6b1f208407697a", "type": "electric_scooter", "name": "b217104be123058cee6b1f208407697a"}, {"is_disabled": 0, "is_reserved": 0, "fusion_lat": 0.0, "lat": 38.842774, "fusion_lon": 0.0, "rental_uris": {"ios": "https://dc.lft.to/lastmile_qr_scan", "android": "https://dc.lft.to/lastmile_qr_scan"}, "lon": -76.9883745, "bike_id": "c55c4977f4c7bb58a02dc5ab060a4d00", "type": "electric_scooter", "name": "c55c4977f4c7bb58a02dc5ab060a4d00"}, {"is_disabled": 0, "is_reserved": 0, "fusion_lat": 0.0, "lat": 38.88300066666667, "fusion_lon": 0.0, "rental_uris": {"ios": "https://dc.lft.to/lastmile_qr_scan", "android": "https://dc.lft.to/lastmile_qr_scan"}, "lon": -76.934867, "bike_id": "782a547a7acb8274ecdf725726dc3229", "type": "electric_scooter", "name": "782a547a7acb8274ecdf725726dc3229"}, {"is_disabled": 0, "is_reserved": 0, "fusion_lat": 0.0, "lat": 38.92425566666667, "fusion_lon": 0.0, "rental_uris": {"ios": "https://dc.lft.to/lastmile_qr_scan", "android": "https://dc.lft.to/lastmile_qr_scan"}, "lon": -77.02012133333334, "bike_id": "ab588c0f70a2c18b10b66f0177736fa4", "type": "electric_scooter", "name": "ab588c0f70a2c18b10b66f0177736fa4"}, {"is_disabled": 0, "is_reserved": 0, "fusion_lat": 0.0, "lat": 38.918096166666665, "fusion_lon": 0.0, "rental_uris": {"ios": "https://dc.lft.to/lastmile_qr_scan", "android": "https://dc.lft.to/lastmile_qr_scan"}, "lon": -77.03474783333333, "bike_id": "f3da97f85e8c9b5adf9c80ea36f8c3ff", "type": "electric_scooter", "name": "f3da97f85e8c9b5adf9c80ea36f8c3ff"}, {"is_disabled": 0, "is_reserved": 0, "fusion_lat": 0.0, "lat": 38.901481833333335, "fusion_lon": 0.0, "rental_uris": {"ios": "https://dc.lft.to/lastmile_qr_scan", "android": "https://dc.lft.to/lastmile_qr_scan"}, "lon": -76.9298525, "bike_id": "81cfe8eff6807136f763a5fd27e4f388", "type": "electric_scooter", "name": "81cfe8eff6807136f763a5fd27e4f388"}, {"is_disabled": 0, "is_reserved": 0, "fusion_lat": 0.0, "lat": 38.905458333333335, "fusion_lon": 0.0, "rental_uris": {"ios": "https://dc.lft.to/lastmile_qr_scan", "android": "https://dc.lft.to/lastmile_qr_scan"}, "lon": -76.986423, "bike_id": "a0642796444add46224ad238061413d4", "type": "electric_scooter", "name": "a0642796444add46224ad238061413d4"}, {"is_disabled": 0, "is_reserved": 0, "fusion_lat": 0.0, "lat": 38.94420366666667, "fusion_lon": 0.0, "rental_uris": {"ios": "https://dc.lft.to/lastmile_qr_scan", "android": "https://dc.lft.to/lastmile_qr_scan"}, "lon": -77.077461, "bike_id": "093e3206a3a5106fa98a2197a985a6de", "type": "electric_scooter", "name": "093e3206a3a5106fa98a2197a985a6de"}, {"is_disabled": 0, "is_reserved": 0, "fusion_lat": 0.0, "lat": 38.92420416666667, "fusion_lon": 0.0, "rental_uris": {"ios": "https://dc.lft.to/lastmile_qr_scan", "android": "https://dc.lft.to/lastmile_qr_scan"}, "lon": -77.0448035, "bike_id": "0a237cc13396d8f7dee198ecedf9033d", "type": "electric_scooter", "name": "0a237cc13396d8f7dee198ecedf9033d"}, {"is_disabled": 0, "is_reserved": 0, "fusion_lat": 0.0, "lat": 39.00648966666667, "fusion_lon": 0.0, "rental_uris": {"ios": "https://dc.lft.to/lastmile_qr_scan", "android": "https://dc.lft.to/lastmile_qr_scan"}, "lon": -76.900203, "bike_id": "64eb972168c8d9d0a66847d279c38945", "type": "electric_bike", "name": "64eb972168c8d9d0a66847d279c38945"}, {"is_disabled": 0, "is_reserved": 0, "fusion_lat": 0.0, "lat": 38.924712666666665, "fusion_lon": 0.0, "rental_uris": {"ios": "https://dc.lft.to/lastmile_qr_scan", "android": "https://dc.lft.to/lastmile_qr_scan"}, "lon": -77.02717416666667, "bike_id": "694b5d32a90e32caef627df79899456e", "type": "electric_scooter", "name": "694b5d32a90e32caef627df79899456e"}, {"is_disabled": 0, "is_reserved": 0, "fusion_lat": 0.0, "lat": 38.923211333333334, "fusion_lon": 0.0, "rental_uris": {"ios": "https://dc.lft.to/lastmile_qr_scan", "android": "https://dc.lft.to/lastmile_qr_scan"}, "lon": -77.02906866666666, "bike_id": "bf996658acb5f61be70f3ba095fdb8ef", "type": "electric_scooter", "name": "bf996658acb5f61be70f3ba095fdb8ef"}, {"is_disabled": 0, "is_reserved": 0, "fusion_lat": 0.0, "lat": 38.895084833333335, "fusion_lon": 0.0, "rental_uris": {"ios": "https://dc.lft.to/lastmile_qr_scan", "android": "https://dc.lft.to/lastmile_qr_scan"}, "lon": -77.02288916666667, "bike_id": "dae4eddd9dce8c04e93968ddd7196aa4", "type": "electric_scooter", "name": "dae4eddd9dce8c04e93968ddd7196aa4"}, {"is_disabled": 0, "is_reserved": 0, "fusion_lat": 0.0, "lat": 38.93783533333333, "fusion_lon": 0.0, "rental_uris": {"ios": "https://dc.lft.to/lastmile_qr_scan", "android": "https://dc.lft.to/lastmile_qr_scan"}, "lon": -77.02302083333333, "bike_id": "b6286c508abcebbf6b87fd495397bb1a", "type": "electric_scooter", "name": "b6286c508abcebbf6b87fd495397bb1a"}, {"is_disabled": 0, "is_reserved": 0, "fusion_lat": 0.0, "lat": 38.952207666666666, "fusion_lon": 0.0, "rental_uris": {"ios": "https://dc.lft.to/lastmile_qr_scan", "android": "https://dc.lft.to/lastmile_qr_scan"}, "lon": -77.0886935, "bike_id": "e2eed3108573e2839c72f0770b352ef9", "type": "electric_scooter", "name": "e2eed3108573e2839c72f0770b352ef9"}, {"is_disabled": 0, "is_reserved": 0, "fusion_lat": 0.0, "lat": 38.906437333333336, "fusion_lon": 0.0, "rental_uris": {"ios": "https://dc.lft.to/lastmile_qr_scan", "android": "https://dc.lft.to/lastmile_qr_scan"}, "lon": -77.04547216666667, "bike_id": "396dcce20069193a8aaa710aa339497c", "type": "electric_scooter", "name": "396dcce20069193a8aaa710aa339497c"}, {"is_disabled": 0, "is_reserved": 0, "fusion_lat": 0.0, "lat": 38.90272816666667, "fusion_lon": 0.0, "rental_uris": {"ios": "https://dc.lft.to/lastmile_qr_scan", "android": "https://dc.lft.to/lastmile_qr_scan"}, "lon": -77.018243, "bike_id": "a97bc5c941cc8e98d87db028effca704", "type": "electric_scooter", "name": "a97bc5c941cc8e98d87db028effca704"}, {"is_disabled": 0, "is_reserved": 0, "fusion_lat": 0.0, "lat": 38.89209133333333, "fusion_lon": 0.0, "rental_uris": {"ios": "https://dc.lft.to/lastmile_qr_scan", "android": "https://dc.lft.to/lastmile_qr_scan"}, "lon": -76.92921783333334, "bike_id": "79bef7f612ff9790bed75f94888f45e3", "type": "electric_scooter", "name": "79bef7f612ff9790bed75f94888f45e3"}, {"is_disabled": 0, "is_reserved": 0, "fusion_lat": 0.0, "lat": 38.94835633333334, "fusion_lon": 0.0, "rental_uris": {"ios": "https://dc.lft.to/lastmile_qr_scan", "android": "https://dc.lft.to/lastmile_qr_scan"}, "lon": -77.05428416666666, "bike_id": "dc708e247d85fac4f3d632c0869a1896", "type": "electric_bike", "name": "dc708e247d85fac4f3d632c0869a1896"}, {"is_disabled": 0, "is_reserved": 0, "fusion_lat": 0.0, "lat": 38.92611866666667, "fusion_lon": 0.0, "rental_uris": {"ios": "https://dc.lft.to/lastmile_qr_scan", "android": "https://dc.lft.to/lastmile_qr_scan"}, "lon": -77.02159366666666, "bike_id": "d0b319b386dde92fcd8959fca55a128a", "type": "electric_scooter", "name": "d0b319b386dde92fcd8959fca55a128a"}, {"is_disabled": 0, "is_reserved": 0, "fusion_lat": 0.0, "lat": 38.9167835, "fusion_lon": 0.0, "rental_uris": {"ios": "https://dc.lft.to/lastmile_qr_scan", "android": "https://dc.lft.to/lastmile_qr_scan"}, "lon": -77.036894, "bike_id": "ceb4db62a208f2b89b3fb0995c833d52", "type": "electric_scooter", "name": "ceb4db62a208f2b89b3fb0995c833d52"}, {"is_disabled": 0, "is_reserved": 0, "fusion_lat": 0.0, "lat": 38.905609166666665, "fusion_lon": 0.0, "rental_uris": {"ios": "https://dc.lft.to/lastmile_qr_scan", "android": "https://dc.lft.to/lastmile_qr_scan"}, "lon": -77.046702, "bike_id": "971e95c1c69ad6e696c3521a26f851da", "type": "electric_scooter", "name": "971e95c1c69ad6e696c3521a26f851da"}, {"is_disabled": 0, "is_reserved": 0, "fusion_lat": 0.0, "lat": 38.894001833333334, "fusion_lon": 0.0, "rental_uris": {"ios": "https://dc.lft.to/lastmile_qr_scan", "android": "https://dc.lft.to/lastmile_qr_scan"}, "lon": -77.02371016666666, "bike_id": "c033bb93b44eba555a242ac196946f19", "type": "electric_scooter", "name": "c033bb93b44eba555a242ac196946f19"}, {"is_disabled": 0, "is_reserved": 0, "fusion_lat": 0.0, "lat": 38.913871, "fusion_lon": 0.0, "rental_uris": {"ios": "https://dc.lft.to/lastmile_qr_scan", "android": "https://dc.lft.to/lastmile_qr_scan"}, "lon": -77.03208983333333, "bike_id": "22e0739a59be542f03417518e7cce534", "type": "electric_scooter", "name": "22e0739a59be542f03417518e7cce534"}, {"is_disabled": 0, "is_reserved": 0, "fusion_lat": 0.0, "lat": 38.889904, "fusion_lon": 0.0, "rental_uris": {"ios": "https://dc.lft.to/lastmile_qr_scan", "android": "https://dc.lft.to/lastmile_qr_scan"}, "lon": -76.9881375, "bike_id": "67c053f0f6ab8e945b2805f34c4bcbd2", "type": "electric_scooter", "name": "67c053f0f6ab8e945b2805f34c4bcbd2"}, {"is_disabled": 0, "is_reserved": 0, "fusion_lat": 0.0, "lat": 38.90043283333333, "fusion_lon": 0.0, "rental_uris": {"ios": "https://dc.lft.to/lastmile_qr_scan", "android": "https://dc.lft.to/lastmile_qr_scan"}, "lon": -76.99146916666666, "bike_id": "d321f362b086f7aa1624bc57a99e08ef", "type": "electric_bike", "name": "d321f362b086f7aa1624bc57a99e08ef"}, {"is_disabled": 0, "is_reserved": 0, "fusion_lat": 0.0, "lat": 38.92033833333333, "fusion_lon": 0.0, "rental_uris": {"ios": "https://dc.lft.to/lastmile_qr_scan", "android": "https://dc.lft.to/lastmile_qr_scan"}, "lon": -77.038518, "bike_id": "bcef1a5da6e70cf24ef3531322acd54a", "type": "electric_scooter", "name": "bcef1a5da6e70cf24ef3531322acd54a"}, {"is_disabled": 0, "is_reserved": 0, "fusion_lat": 0.0, "lat": 38.92720533333333, "fusion_lon": 0.0, "rental_uris": {"ios": "https://dc.lft.to/lastmile_qr_scan", "android": "https://dc.lft.to/lastmile_qr_scan"}, "lon": -77.05143, "bike_id": "d1ca9dba72d6b90c1d28a6bc16866307", "type": "electric_scooter", "name": "d1ca9dba72d6b90c1d28a6bc16866307"}, {"is_disabled": 0, "is_reserved": 0, "fusion_lat": 0.0, "lat": 38.89697916666667, "fusion_lon": 0.0, "rental_uris": {"ios": "https://dc.lft.to/lastmile_qr_scan", "android": "https://dc.lft.to/lastmile_qr_scan"}, "lon": -77.04340966666666, "bike_id": "e423bcc95ec9b8f74313da1826461f34", "type": "electric_scooter", "name": "e423bcc95ec9b8f74313da1826461f34"}, {"is_disabled": 0, "is_reserved": 0, "fusion_lat": 0.0, "lat": 38.90403216666667, "fusion_lon": 0.0, "rental_uris": {"ios": "https://dc.lft.to/lastmile_qr_scan", "android": "https://dc.lft.to/lastmile_qr_scan"}, "lon": -77.065069, "bike_id": "107d2108dadfcc4255fde95a26a4f740", "type": "electric_scooter", "name": "107d2108dadfcc4255fde95a26a4f740"}, {"is_disabled": 0, "is_reserved": 0, "fusion_lat": 0.0, "lat": 38.9185435, "fusion_lon": 0.0, "rental_uris": {"ios": "https://dc.lft.to/lastmile_qr_scan", "android": "https://dc.lft.to/lastmile_qr_scan"}, "lon": -77.04108016666666, "bike_id": "d59e633054c280108e7f717442e10107", "type": "electric_scooter", "name": "d59e633054c280108e7f717442e10107"}, {"is_disabled": 0, "is_reserved": 0, "fusion_lat": 0.0, "lat": 38.91544, "fusion_lon": 0.0, "rental_uris": {"ios": "https://dc.lft.to/lastmile_qr_scan", "android": "https://dc.lft.to/lastmile_qr_scan"}, "lon": -77.03851683333333, "bike_id": "c72b6734837bb839087bb9c79b1fbc87", "type": "electric_scooter", "name": "c72b6734837bb839087bb9c79b1fbc87"}, {"is_disabled": 0, "is_reserved": 0, "fusion_lat": 0.0, "lat": 38.905852, "fusion_lon": 0.0, "rental_uris": {"ios": "https://dc.lft.to/lastmile_qr_scan", "android": "https://dc.lft.to/lastmile_qr_scan"}, "lon": -77.04434983333333, "bike_id": "690c75983d047476ce0a37e1b5c2a9b6", "type": "electric_scooter", "name": "690c75983d047476ce0a37e1b5c2a9b6"}, {"is_disabled": 0, "is_reserved": 0, "fusion_lat": 0.0, "lat": 38.8988015, "fusion_lon": 0.0, "rental_uris": {"ios": "https://dc.lft.to/lastmile_qr_scan", "android": "https://dc.lft.to/lastmile_qr_scan"}, "lon": -76.931789, "bike_id": "30e3a10f342914d916fec92ff00d0349", "type": "electric_scooter", "name": "30e3a10f342914d916fec92ff00d0349"}, {"is_disabled": 0, "is_reserved": 0, "fusion_lat": 0.0, "lat": 38.88008166666667, "fusion_lon": 0.0, "rental_uris": {"ios": "https://dc.lft.to/lastmile_qr_scan", "android": "https://dc.lft.to/lastmile_qr_scan"}, "lon": -76.99741933333334, "bike_id": "81e6c056e590e616972c4043c0655a10", "type": "electric_scooter", "name": "81e6c056e590e616972c4043c0655a10"}, {"is_disabled": 0, "is_reserved": 0, "fusion_lat": 0.0, "lat": 38.863707166666664, "fusion_lon": 0.0, "rental_uris": {"ios": "https://dc.lft.to/lastmile_qr_scan", "android": "https://dc.lft.to/lastmile_qr_scan"}, "lon": -77.0136365, "bike_id": "43ddb6faf567bb4e948af166af808e44", "type": "electric_scooter", "name": "43ddb6faf567bb4e948af166af808e44"}, {"is_disabled": 0, "is_reserved": 0, "fusion_lat": 0.0, "lat": 38.9008325, "fusion_lon": 0.0, "rental_uris": {"ios": "https://dc.lft.to/lastmile_qr_scan", "android": "https://dc.lft.to/lastmile_qr_scan"}, "lon": -77.04996483333333, "bike_id": "64c6c53e8c8ee0d40a21ba9f9d6f3487", "type": "electric_scooter", "name": "64c6c53e8c8ee0d40a21ba9f9d6f3487"}, {"is_disabled": 0, "is_reserved": 0, "fusion_lat": 0.0, "lat": 38.910330333333334, "fusion_lon": 0.0, "rental_uris": {"ios": "https://dc.lft.to/lastmile_qr_scan", "android": "https://dc.lft.to/lastmile_qr_scan"}, "lon": -76.92334, "bike_id": "2b135cb7745267b920cb360c1c8684b9", "type": "electric_bike", "name": "2b135cb7745267b920cb360c1c8684b9"}, {"is_disabled": 0, "is_reserved": 0, "fusion_lat": 0.0, "lat": 38.89997116666667, "fusion_lon": 0.0, "rental_uris": {"ios": "https://dc.lft.to/lastmile_qr_scan", "android": "https://dc.lft.to/lastmile_qr_scan"}, "lon": -77.00699, "bike_id": "3932fce0a97f47a39b5737316c499973", "type": "electric_scooter", "name": "3932fce0a97f47a39b5737316c499973"}, {"is_disabled": 0, "is_reserved": 0, "fusion_lat": 0.0, "lat": 38.913521333333335, "fusion_lon": 0.0, "rental_uris": {"ios": "https://dc.lft.to/lastmile_qr_scan", "android": "https://dc.lft.to/lastmile_qr_scan"}, "lon": -76.97138566666666, "bike_id": "274e1d8b61319a4ff2b31c6b13c19b78", "type": "electric_scooter", "name": "274e1d8b61319a4ff2b31c6b13c19b78"}, {"is_disabled": 0, "is_reserved": 0, "fusion_lat": 0.0, "lat": 38.929820166666666, "fusion_lon": 0.0, "rental_uris": {"ios": "https://dc.lft.to/lastmile_qr_scan", "android": "https://dc.lft.to/lastmile_qr_scan"}, "lon": -77.03887633333333, "bike_id": "0059c35ef45d98fd3da554c8b3fd8b3d", "type": "electric_scooter", "name": "0059c35ef45d98fd3da554c8b3fd8b3d"}, {"is_disabled": 0, "is_reserved": 0, "fusion_lat": 0.0, "lat": 38.8994015, "fusion_lon": 0.0, "rental_uris": {"ios": "https://dc.lft.to/lastmile_qr_scan", "android": "https://dc.lft.to/lastmile_qr_scan"}, "lon": -77.0152075, "bike_id": "e0265df1632b683d9412a0aa737db49b", "type": "electric_scooter", "name": "e0265df1632b683d9412a0aa737db49b"}, {"is_disabled": 0, "is_reserved": 0, "fusion_lat": 0.0, "lat": 38.90915733333333, "fusion_lon": 0.0, "rental_uris": {"ios": "https://dc.lft.to/lastmile_qr_scan", "android": "https://dc.lft.to/lastmile_qr_scan"}, "lon": -77.04939033333333, "bike_id": "c3d68df48682bda3b9ea90bc9b48a19e", "type": "electric_scooter", "name": "c3d68df48682bda3b9ea90bc9b48a19e"}, {"is_disabled": 0, "is_reserved": 0, "fusion_lat": 0.0, "lat": 38.897352833333336, "fusion_lon": 0.0, "rental_uris": {"ios": "https://dc.lft.to/lastmile_qr_scan", "android": "https://dc.lft.to/lastmile_qr_scan"}, "lon": -77.04416766666667, "bike_id": "940d6c117d2728a0b407be4c2ae4fa6b", "type": "electric_scooter", "name": "940d6c117d2728a0b407be4c2ae4fa6b"}, {"is_disabled": 0, "is_reserved": 0, "fusion_lat": 0.0, "lat": 38.903656, "fusion_lon": 0.0, "rental_uris": {"ios": "https://dc.lft.to/lastmile_qr_scan", "android": "https://dc.lft.to/lastmile_qr_scan"}, "lon": -77.025873, "bike_id": "61fa74f674ea513b39cfca93c89e3077", "type": "electric_scooter", "name": "61fa74f674ea513b39cfca93c89e3077"}, {"is_disabled": 0, "is_reserved": 0, "fusion_lat": 0.0, "lat": 38.928115, "fusion_lon": 0.0, "rental_uris": {"ios": "https://dc.lft.to/lastmile_qr_scan", "android": "https://dc.lft.to/lastmile_qr_scan"}, "lon": -77.03612216666667, "bike_id": "58480753f5ae2dcc5219630a38a839d5", "type": "electric_scooter", "name": "58480753f5ae2dcc5219630a38a839d5"}, {"is_disabled": 0, "is_reserved": 0, "fusion_lat": 0.0, "lat": 38.934101, "fusion_lon": 0.0, "rental_uris": {"ios": "https://dc.lft.to/lastmile_qr_scan", "android": "https://dc.lft.to/lastmile_qr_scan"}, "lon": -77.0455175, "bike_id": "3c496a241d050542f99513607446174b", "type": "electric_scooter", "name": "3c496a241d050542f99513607446174b"}, {"is_disabled": 0, "is_reserved": 0, "fusion_lat": 0.0, "lat": 38.956326833333335, "fusion_lon": 0.0, "rental_uris": {"ios": "https://dc.lft.to/lastmile_qr_scan", "android": "https://dc.lft.to/lastmile_qr_scan"}, "lon": -77.02210683333334, "bike_id": "48f749fd1787ff9641e1d008279209b0", "type": "electric_scooter", "name": "48f749fd1787ff9641e1d008279209b0"}, {"is_disabled": 0, "is_reserved": 0, "fusion_lat": 0.0, "lat": 38.92259633333333, "fusion_lon": 0.0, "rental_uris": {"ios": "https://dc.lft.to/lastmile_qr_scan", "android": "https://dc.lft.to/lastmile_qr_scan"}, "lon": -77.03664033333334, "bike_id": "b591df999d83c10f0e55720cd2785b09", "type": "electric_scooter", "name": "b591df999d83c10f0e55720cd2785b09"}, {"is_disabled": 0, "is_reserved": 0, "fusion_lat": 0.0, "lat": 38.898945166666664, "fusion_lon": 0.0, "rental_uris": {"ios": "https://dc.lft.to/lastmile_qr_scan", "android": "https://dc.lft.to/lastmile_qr_scan"}, "lon": -77.04996233333334, "bike_id": "777cdd3b95a79aac73a0af49a07c41ca", "type": "electric_scooter", "name": "777cdd3b95a79aac73a0af49a07c41ca"}, {"is_disabled": 0, "is_reserved": 0, "fusion_lat": 0.0, "lat": 38.9205195, "fusion_lon": 0.0, "rental_uris": {"ios": "https://dc.lft.to/lastmile_qr_scan", "android": "https://dc.lft.to/lastmile_qr_scan"}, "lon": -77.01668083333334, "bike_id": "66faab130d2cf6c1656f433e01e633fd", "type": "electric_scooter", "name": "66faab130d2cf6c1656f433e01e633fd"}, {"is_disabled": 0, "is_reserved": 0, "fusion_lat": 0.0, "lat": 38.92019583333333, "fusion_lon": 0.0, "rental_uris": {"ios": "https://dc.lft.to/lastmile_qr_scan", "android": "https://dc.lft.to/lastmile_qr_scan"}, "lon": -77.0170755, "bike_id": "a0bc70f3f365f7d97bd021e7fb4b9611", "type": "electric_scooter", "name": "a0bc70f3f365f7d97bd021e7fb4b9611"}, {"is_disabled": 0, "is_reserved": 0, "fusion_lat": 0.0, "lat": 38.9386665, "fusion_lon": 0.0, "rental_uris": {"ios": "https://dc.lft.to/lastmile_qr_scan", "android": "https://dc.lft.to/lastmile_qr_scan"}, "lon": -77.0723495, "bike_id": "966c7b5f187792ac9fc2ad88e7ccd0b3", "type": "electric_scooter", "name": "966c7b5f187792ac9fc2ad88e7ccd0b3"}, {"is_disabled": 0, "is_reserved": 0, "fusion_lat": 0.0, "lat": 38.939328, "fusion_lon": 0.0, "rental_uris": {"ios": "https://dc.lft.to/lastmile_qr_scan", "android": "https://dc.lft.to/lastmile_qr_scan"}, "lon": -77.07249416666667, "bike_id": "a59698fe3af530dd20266eb402abf887", "type": "electric_scooter", "name": "a59698fe3af530dd20266eb402abf887"}, {"is_disabled": 0, "is_reserved": 0, "fusion_lat": 0.0, "lat": 38.9009265, "fusion_lon": 0.0, "rental_uris": {"ios": "https://dc.lft.to/lastmile_qr_scan", "android": "https://dc.lft.to/lastmile_qr_scan"}, "lon": -77.05003516666666, "bike_id": "efe7744a5b1fd1204aba17aa44f08109", "type": "electric_scooter", "name": "efe7744a5b1fd1204aba17aa44f08109"}, {"is_disabled": 0, "is_reserved": 0, "fusion_lat": 0.0, "lat": 38.92265366666667, "fusion_lon": 0.0, "rental_uris": {"ios": "https://dc.lft.to/lastmile_qr_scan", "android": "https://dc.lft.to/lastmile_qr_scan"}, "lon": -77.04226333333334, "bike_id": "2abee2db5c3a3749f2ca7c8f17e24570", "type": "electric_scooter", "name": "2abee2db5c3a3749f2ca7c8f17e24570"}, {"is_disabled": 0, "is_reserved": 0, "fusion_lat": 0.0, "lat": 38.902759, "fusion_lon": 0.0, "rental_uris": {"ios": "https://dc.lft.to/lastmile_qr_scan", "android": "https://dc.lft.to/lastmile_qr_scan"}, "lon": -77.02770016666666, "bike_id": "509f1d573a55812432bd035396a2e759", "type": "electric_scooter", "name": "509f1d573a55812432bd035396a2e759"}, {"is_disabled": 0, "is_reserved": 0, "fusion_lat": 0.0, "lat": 38.92061316666667, "fusion_lon": 0.0, "rental_uris": {"ios": "https://dc.lft.to/lastmile_qr_scan", "android": "https://dc.lft.to/lastmile_qr_scan"}, "lon": -77.025587, "bike_id": "980631752ac39fbc06b3dc0ff449e2d4", "type": "electric_scooter", "name": "980631752ac39fbc06b3dc0ff449e2d4"}, {"is_disabled": 0, "is_reserved": 0, "fusion_lat": 0.0, "lat": 38.9008625, "fusion_lon": 0.0, "rental_uris": {"ios": "https://dc.lft.to/lastmile_qr_scan", "android": "https://dc.lft.to/lastmile_qr_scan"}, "lon": -77.04995166666667, "bike_id": "6665de82dc2bb7c8232f24207872d61c", "type": "electric_scooter", "name": "6665de82dc2bb7c8232f24207872d61c"}, {"is_disabled": 0, "is_reserved": 0, "fusion_lat": 0.0, "lat": 38.87667183333333, "fusion_lon": 0.0, "rental_uris": {"ios": "https://dc.lft.to/lastmile_qr_scan", "android": "https://dc.lft.to/lastmile_qr_scan"}, "lon": -77.00887283333333, "bike_id": "e562476f44a0ba32fc6d924d90c5a5cd", "type": "electric_scooter", "name": "e562476f44a0ba32fc6d924d90c5a5cd"}, {"is_disabled": 0, "is_reserved": 0, "fusion_lat": 0.0, "lat": 38.921753333333335, "fusion_lon": 0.0, "rental_uris": {"ios": "https://dc.lft.to/lastmile_qr_scan", "android": "https://dc.lft.to/lastmile_qr_scan"}, "lon": -77.038301, "bike_id": "b53a643a7d30b848d780650472aaf79a", "type": "electric_scooter", "name": "b53a643a7d30b848d780650472aaf79a"}, {"is_disabled": 0, "is_reserved": 0, "fusion_lat": 0.0, "lat": 38.868875833333334, "fusion_lon": 0.0, "rental_uris": {"ios": "https://dc.lft.to/lastmile_qr_scan", "android": "https://dc.lft.to/lastmile_qr_scan"}, "lon": -76.99000933333333, "bike_id": "86a1756c758d2494f126f2fbcdfaaed2", "type": "electric_scooter", "name": "86a1756c758d2494f126f2fbcdfaaed2"}, {"is_disabled": 0, "is_reserved": 0, "fusion_lat": 0.0, "lat": 38.91817316666667, "fusion_lon": 0.0, "rental_uris": {"ios": "https://dc.lft.to/lastmile_qr_scan", "android": "https://dc.lft.to/lastmile_qr_scan"}, "lon": -77.03187016666666, "bike_id": "b46d36990d54b7d8b5d3298584e245a4", "type": "electric_scooter", "name": "b46d36990d54b7d8b5d3298584e245a4"}, {"is_disabled": 0, "is_reserved": 0, "fusion_lat": 0.0, "lat": 38.88121183333333, "fusion_lon": 0.0, "rental_uris": {"ios": "https://dc.lft.to/lastmile_qr_scan", "android": "https://dc.lft.to/lastmile_qr_scan"}, "lon": -77.014811, "bike_id": "a3d03b8cc0d35888326fc83cf57fe005", "type": "electric_scooter", "name": "a3d03b8cc0d35888326fc83cf57fe005"}, {"is_disabled": 0, "is_reserved": 0, "fusion_lat": 0.0, "lat": 38.9017425, "fusion_lon": 0.0, "rental_uris": {"ios": "https://dc.lft.to/lastmile_qr_scan", "android": "https://dc.lft.to/lastmile_qr_scan"}, "lon": -76.99837633333334, "bike_id": "7f5b1487c8145626d8dd992c1ba3fefb", "type": "electric_scooter", "name": "7f5b1487c8145626d8dd992c1ba3fefb"}, {"is_disabled": 0, "is_reserved": 0, "fusion_lat": 0.0, "lat": 38.85635, "fusion_lon": 0.0, "rental_uris": {"ios": "https://dc.lft.to/lastmile_qr_scan", "android": "https://dc.lft.to/lastmile_qr_scan"}, "lon": -77.06841833333333, "bike_id": "5f45746cc058ecc4f6d33b7d6dfbab12", "type": "electric_bike", "name": "5f45746cc058ecc4f6d33b7d6dfbab12"}, {"is_disabled": 0, "is_reserved": 0, "fusion_lat": 0.0, "lat": 38.885819833333336, "fusion_lon": 0.0, "rental_uris": {"ios": "https://dc.lft.to/lastmile_qr_scan", "android": "https://dc.lft.to/lastmile_qr_scan"}, "lon": -77.01225583333333, "bike_id": "44be74a547bb9803b4508d70214e5444", "type": "electric_scooter", "name": "44be74a547bb9803b4508d70214e5444"}, {"is_disabled": 0, "is_reserved": 0, "fusion_lat": 0.0, "lat": 38.899973333333335, "fusion_lon": 0.0, "rental_uris": {"ios": "https://dc.lft.to/lastmile_qr_scan", "android": "https://dc.lft.to/lastmile_qr_scan"}, "lon": -77.00390883333333, "bike_id": "4d815e8685654af2c21ef9af7f515dd5", "type": "electric_scooter", "name": "4d815e8685654af2c21ef9af7f515dd5"}, {"is_disabled": 0, "is_reserved": 0, "fusion_lat": 0.0, "lat": 38.929455833333336, "fusion_lon": 0.0, "rental_uris": {"ios": "https://dc.lft.to/lastmile_qr_scan", "android": "https://dc.lft.to/lastmile_qr_scan"}, "lon": -77.05480183333333, "bike_id": "e2885630a60b2b0dd5660a944d75ed08", "type": "electric_scooter", "name": "e2885630a60b2b0dd5660a944d75ed08"}, {"is_disabled": 0, "is_reserved": 0, "fusion_lat": 0.0, "lat": 38.8761905, "fusion_lon": 0.0, "rental_uris": {"ios": "https://dc.lft.to/lastmile_qr_scan", "android": "https://dc.lft.to/lastmile_qr_scan"}, "lon": -77.005689, "bike_id": "c49cd47a88a61f9b5e897ecd8f27e954", "type": "electric_scooter", "name": "c49cd47a88a61f9b5e897ecd8f27e954"}, {"is_disabled": 0, "is_reserved": 0, "fusion_lat": 0.0, "lat": 38.865602333333335, "fusion_lon": 0.0, "rental_uris": {"ios": "https://dc.lft.to/lastmile_qr_scan", "android": "https://dc.lft.to/lastmile_qr_scan"}, "lon": -76.97475, "bike_id": "6a0208ca75d09c549cdc8519e4a1f1c6", "type": "electric_bike", "name": "6a0208ca75d09c549cdc8519e4a1f1c6"}, {"is_disabled": 0, "is_reserved": 0, "fusion_lat": 0.0, "lat": 38.9226225, "fusion_lon": 0.0, "rental_uris": {"ios": "https://dc.lft.to/lastmile_qr_scan", "android": "https://dc.lft.to/lastmile_qr_scan"}, "lon": -77.036646, "bike_id": "25f3af3b0e847ff706ed6ea2e1b16532", "type": "electric_scooter", "name": "25f3af3b0e847ff706ed6ea2e1b16532"}, {"is_disabled": 0, "is_reserved": 0, "fusion_lat": 0.0, "lat": 38.824302833333334, "fusion_lon": 0.0, "rental_uris": {"ios": "https://dc.lft.to/lastmile_qr_scan", "android": "https://dc.lft.to/lastmile_qr_scan"}, "lon": -77.12038583333333, "bike_id": "a887a6c419ba8409adc0f2f557522828", "type": "electric_bike", "name": "a887a6c419ba8409adc0f2f557522828"}, {"is_disabled": 0, "is_reserved": 0, "fusion_lat": 0.0, "lat": 38.912646333333335, "fusion_lon": 0.0, "rental_uris": {"ios": "https://dc.lft.to/lastmile_qr_scan", "android": "https://dc.lft.to/lastmile_qr_scan"}, "lon": -77.047885, "bike_id": "800b83a8890cadc9a3e2eb62ab8465f4", "type": "electric_scooter", "name": "800b83a8890cadc9a3e2eb62ab8465f4"}, {"is_disabled": 0, "is_reserved": 0, "fusion_lat": 0.0, "lat": 38.901775, "fusion_lon": 0.0, "rental_uris": {"ios": "https://dc.lft.to/lastmile_qr_scan", "android": "https://dc.lft.to/lastmile_qr_scan"}, "lon": -77.00204616666667, "bike_id": "ae331eb824649e65d6b449415ba1e879", "type": "electric_scooter", "name": "ae331eb824649e65d6b449415ba1e879"}, {"is_disabled": 0, "is_reserved": 0, "fusion_lat": 0.0, "lat": 38.9260965, "fusion_lon": 0.0, "rental_uris": {"ios": "https://dc.lft.to/lastmile_qr_scan", "android": "https://dc.lft.to/lastmile_qr_scan"}, "lon": -77.02159216666666, "bike_id": "2374741cff38d68d9d5158f2924d5ee8", "type": "electric_scooter", "name": "2374741cff38d68d9d5158f2924d5ee8"}, {"is_disabled": 0, "is_reserved": 0, "fusion_lat": 0.0, "lat": 38.93969116666667, "fusion_lon": 0.0, "rental_uris": {"ios": "https://dc.lft.to/lastmile_qr_scan", "android": "https://dc.lft.to/lastmile_qr_scan"}, "lon": -77.03250683333333, "bike_id": "74c43489aa1f7436f8b1c9f099ab41ee", "type": "electric_scooter", "name": "74c43489aa1f7436f8b1c9f099ab41ee"}, {"is_disabled": 0, "is_reserved": 0, "fusion_lat": 0.0, "lat": 38.9153775, "fusion_lon": 0.0, "rental_uris": {"ios": "https://dc.lft.to/lastmile_qr_scan", "android": "https://dc.lft.to/lastmile_qr_scan"}, "lon": -77.07541283333333, "bike_id": "231191e0b4217a1837003003dae1d49e", "type": "electric_scooter", "name": "231191e0b4217a1837003003dae1d49e"}, {"is_disabled": 0, "is_reserved": 0, "fusion_lat": 0.0, "lat": 38.893606, "fusion_lon": 0.0, "rental_uris": {"ios": "https://dc.lft.to/lastmile_qr_scan", "android": "https://dc.lft.to/lastmile_qr_scan"}, "lon": -77.044695, "bike_id": "146c5e017a0fe04a49eedd3ff3e28e3e", "type": "electric_scooter", "name": "146c5e017a0fe04a49eedd3ff3e28e3e"}, {"is_disabled": 0, "is_reserved": 0, "fusion_lat": 0.0, "lat": 39.00026, "fusion_lon": 0.0, "rental_uris": {"ios": "https://dc.lft.to/lastmile_qr_scan", "android": "https://dc.lft.to/lastmile_qr_scan"}, "lon": -76.91062266666667, "bike_id": "6dc0b9ba52a90cac627c65c211e32a6d", "type": "electric_bike", "name": "6dc0b9ba52a90cac627c65c211e32a6d"}, {"is_disabled": 0, "is_reserved": 0, "fusion_lat": 0.0, "lat": 38.927752, "fusion_lon": 0.0, "rental_uris": {"ios": "https://dc.lft.to/lastmile_qr_scan", "android": "https://dc.lft.to/lastmile_qr_scan"}, "lon": -77.052592, "bike_id": "e31a4fdda71e7a9db2be199f86bea261", "type": "electric_scooter", "name": "e31a4fdda71e7a9db2be199f86bea261"}, {"is_disabled": 0, "is_reserved": 0, "fusion_lat": 0.0, "lat": 38.939826333333336, "fusion_lon": 0.0, "rental_uris": {"ios": "https://dc.lft.to/lastmile_qr_scan", "android": "https://dc.lft.to/lastmile_qr_scan"}, "lon": -77.01907516666667, "bike_id": "e004c9badb1256e31c9fc4a4a77bc23e", "type": "electric_scooter", "name": "e004c9badb1256e31c9fc4a4a77bc23e"}, {"is_disabled": 0, "is_reserved": 0, "fusion_lat": 0.0, "lat": 38.914689, "fusion_lon": 0.0, "rental_uris": {"ios": "https://dc.lft.to/lastmile_qr_scan", "android": "https://dc.lft.to/lastmile_qr_scan"}, "lon": -77.00206883333334, "bike_id": "34b05b42992a963737a644471039f72c", "type": "electric_scooter", "name": "34b05b42992a963737a644471039f72c"}, {"is_disabled": 0, "is_reserved": 0, "fusion_lat": 0.0, "lat": 38.9416415, "fusion_lon": 0.0, "rental_uris": {"ios": "https://dc.lft.to/lastmile_qr_scan", "android": "https://dc.lft.to/lastmile_qr_scan"}, "lon": -76.99411016666667, "bike_id": "166385b7b3f4616d13150a4d1b10dda6", "type": "electric_bike", "name": "166385b7b3f4616d13150a4d1b10dda6"}, {"is_disabled": 0, "is_reserved": 0, "fusion_lat": 0.0, "lat": 38.95743616666667, "fusion_lon": 0.0, "rental_uris": {"ios": "https://dc.lft.to/lastmile_qr_scan", "android": "https://dc.lft.to/lastmile_qr_scan"}, "lon": -77.02322516666666, "bike_id": "128d1a2380360ee72ca1da5015677287", "type": "electric_scooter", "name": "128d1a2380360ee72ca1da5015677287"}, {"is_disabled": 0, "is_reserved": 0, "fusion_lat": 0.0, "lat": 38.875673166666665, "fusion_lon": 0.0, "rental_uris": {"ios": "https://dc.lft.to/lastmile_qr_scan", "android": "https://dc.lft.to/lastmile_qr_scan"}, "lon": -77.00596533333334, "bike_id": "cd8e9a3f3d739e445d0dfede1f71cc86", "type": "electric_scooter", "name": "cd8e9a3f3d739e445d0dfede1f71cc86"}, {"is_disabled": 0, "is_reserved": 0, "fusion_lat": 0.0, "lat": 38.92611266666667, "fusion_lon": 0.0, "rental_uris": {"ios": "https://dc.lft.to/lastmile_qr_scan", "android": "https://dc.lft.to/lastmile_qr_scan"}, "lon": -77.00652583333333, "bike_id": "8f3825a65070561b926bfbf78c7ee351", "type": "electric_scooter", "name": "8f3825a65070561b926bfbf78c7ee351"}, {"is_disabled": 0, "is_reserved": 0, "fusion_lat": 0.0, "lat": 38.9053875, "fusion_lon": 0.0, "rental_uris": {"ios": "https://dc.lft.to/lastmile_qr_scan", "android": "https://dc.lft.to/lastmile_qr_scan"}, "lon": -77.057023, "bike_id": "1f04dd428adf9f0ebfc0dd824849bf40", "type": "electric_scooter", "name": "1f04dd428adf9f0ebfc0dd824849bf40"}, {"is_disabled": 0, "is_reserved": 0, "fusion_lat": 0.0, "lat": 38.92212333333333, "fusion_lon": 0.0, "rental_uris": {"ios": "https://dc.lft.to/lastmile_qr_scan", "android": "https://dc.lft.to/lastmile_qr_scan"}, "lon": -77.04262616666666, "bike_id": "4cef863d49c88edea29305cd4ecd8120", "type": "electric_scooter", "name": "4cef863d49c88edea29305cd4ecd8120"}, {"is_disabled": 0, "is_reserved": 0, "fusion_lat": 0.0, "lat": 38.915606, "fusion_lon": 0.0, "rental_uris": {"ios": "https://dc.lft.to/lastmile_qr_scan", "android": "https://dc.lft.to/lastmile_qr_scan"}, "lon": -77.03139416666667, "bike_id": "b9f1e807f1ce6f487ab91f53e90abad4", "type": "electric_scooter", "name": "b9f1e807f1ce6f487ab91f53e90abad4"}, {"is_disabled": 0, "is_reserved": 0, "fusion_lat": 0.0, "lat": 38.897446333333335, "fusion_lon": 0.0, "rental_uris": {"ios": "https://dc.lft.to/lastmile_qr_scan", "android": "https://dc.lft.to/lastmile_qr_scan"}, "lon": -77.01050333333333, "bike_id": "ef65cd3c562abe8068f91fda0f83aa8f", "type": "electric_scooter", "name": "ef65cd3c562abe8068f91fda0f83aa8f"}, {"is_disabled": 0, "is_reserved": 0, "fusion_lat": 0.0, "lat": 38.91349016666667, "fusion_lon": 0.0, "rental_uris": {"ios": "https://dc.lft.to/lastmile_qr_scan", "android": "https://dc.lft.to/lastmile_qr_scan"}, "lon": -77.04410983333334, "bike_id": "bdc7cc60ecbfbee1553d0d2dc9218342", "type": "electric_scooter", "name": "bdc7cc60ecbfbee1553d0d2dc9218342"}, {"is_disabled": 0, "is_reserved": 0, "fusion_lat": 0.0, "lat": 38.9073525, "fusion_lon": 0.0, "rental_uris": {"ios": "https://dc.lft.to/lastmile_qr_scan", "android": "https://dc.lft.to/lastmile_qr_scan"}, "lon": -77.00358583333333, "bike_id": "c062bd04dbe735ade381c89b3a4b58c6", "type": "electric_scooter", "name": "c062bd04dbe735ade381c89b3a4b58c6"}, {"is_disabled": 0, "is_reserved": 0, "fusion_lat": 0.0, "lat": 38.919244, "fusion_lon": 0.0, "rental_uris": {"ios": "https://dc.lft.to/lastmile_qr_scan", "android": "https://dc.lft.to/lastmile_qr_scan"}, "lon": -77.009755, "bike_id": "38d90ed1a3530133e198f9bf5f3168b4", "type": "electric_scooter", "name": "38d90ed1a3530133e198f9bf5f3168b4"}, {"is_disabled": 0, "is_reserved": 0, "fusion_lat": 0.0, "lat": 38.900817833333335, "fusion_lon": 0.0, "rental_uris": {"ios": "https://dc.lft.to/lastmile_qr_scan", "android": "https://dc.lft.to/lastmile_qr_scan"}, "lon": -77.01760766666666, "bike_id": "b5b807733fd28a0a3d3e345bf7f4115a", "type": "electric_scooter", "name": "b5b807733fd28a0a3d3e345bf7f4115a"}, {"is_disabled": 0, "is_reserved": 0, "fusion_lat": 0.0, "lat": 38.907852166666665, "fusion_lon": 0.0, "rental_uris": {"ios": "https://dc.lft.to/lastmile_qr_scan", "android": "https://dc.lft.to/lastmile_qr_scan"}, "lon": -77.0683845, "bike_id": "6c12456a6b19689397d1fe4ea887fc9c", "type": "electric_scooter", "name": "6c12456a6b19689397d1fe4ea887fc9c"}, {"is_disabled": 0, "is_reserved": 0, "fusion_lat": 0.0, "lat": 38.895413833333336, "fusion_lon": 0.0, "rental_uris": {"ios": "https://dc.lft.to/lastmile_qr_scan", "android": "https://dc.lft.to/lastmile_qr_scan"}, "lon": -77.0397035, "bike_id": "29dfbd4d65397acad71749259c135daa", "type": "electric_scooter", "name": "29dfbd4d65397acad71749259c135daa"}, {"is_disabled": 0, "is_reserved": 0, "fusion_lat": 0.0, "lat": 38.8937145, "fusion_lon": 0.0, "rental_uris": {"ios": "https://dc.lft.to/lastmile_qr_scan", "android": "https://dc.lft.to/lastmile_qr_scan"}, "lon": -77.01155983333334, "bike_id": "3717b45dc1c2742d8295ef13b1d34cc5", "type": "electric_scooter", "name": "3717b45dc1c2742d8295ef13b1d34cc5"}, {"is_disabled": 0, "is_reserved": 0, "fusion_lat": 0.0, "lat": 38.923793333333336, "fusion_lon": 0.0, "rental_uris": {"ios": "https://dc.lft.to/lastmile_qr_scan", "android": "https://dc.lft.to/lastmile_qr_scan"}, "lon": -77.0202945, "bike_id": "608c4dd22eeaca0c1f57da3f1ff62dd0", "type": "electric_scooter", "name": "608c4dd22eeaca0c1f57da3f1ff62dd0"}, {"is_disabled": 0, "is_reserved": 0, "fusion_lat": 0.0, "lat": 38.94315866666667, "fusion_lon": 0.0, "rental_uris": {"ios": "https://dc.lft.to/lastmile_qr_scan", "android": "https://dc.lft.to/lastmile_qr_scan"}, "lon": -77.017274, "bike_id": "a81aa7a00ce0193a3924c304416dbf8c", "type": "electric_scooter", "name": "a81aa7a00ce0193a3924c304416dbf8c"}, {"is_disabled": 0, "is_reserved": 0, "fusion_lat": 0.0, "lat": 38.896128166666664, "fusion_lon": 0.0, "rental_uris": {"ios": "https://dc.lft.to/lastmile_qr_scan", "android": "https://dc.lft.to/lastmile_qr_scan"}, "lon": -77.0265975, "bike_id": "686d19b0b1a5bdb5e82648c0a512a5ab", "type": "electric_scooter", "name": "686d19b0b1a5bdb5e82648c0a512a5ab"}, {"is_disabled": 0, "is_reserved": 0, "fusion_lat": 0.0, "lat": 38.9542705, "fusion_lon": 0.0, "rental_uris": {"ios": "https://dc.lft.to/lastmile_qr_scan", "android": "https://dc.lft.to/lastmile_qr_scan"}, "lon": -77.01850516666667, "bike_id": "25dc98239afb0da284ef492f2068f215", "type": "electric_scooter", "name": "25dc98239afb0da284ef492f2068f215"}, {"is_disabled": 0, "is_reserved": 0, "fusion_lat": 0.0, "lat": 38.98368166666667, "fusion_lon": 0.0, "rental_uris": {"ios": "https://dc.lft.to/lastmile_qr_scan", "android": "https://dc.lft.to/lastmile_qr_scan"}, "lon": -76.98847983333333, "bike_id": "0194220ab01ea4c39041058c4b8bce91", "type": "electric_bike", "name": "0194220ab01ea4c39041058c4b8bce91"}, {"is_disabled": 0, "is_reserved": 0, "fusion_lat": 0.0, "lat": 38.88773233333333, "fusion_lon": 0.0, "rental_uris": {"ios": "https://dc.lft.to/lastmile_qr_scan", "android": "https://dc.lft.to/lastmile_qr_scan"}, "lon": -76.93262783333333, "bike_id": "a971597272305aec7a6ab9f618486163", "type": "electric_scooter", "name": "a971597272305aec7a6ab9f618486163"}, {"is_disabled": 0, "is_reserved": 0, "fusion_lat": 0.0, "lat": 38.9104435, "fusion_lon": 0.0, "rental_uris": {"ios": "https://dc.lft.to/lastmile_qr_scan", "android": "https://dc.lft.to/lastmile_qr_scan"}, "lon": -77.04283366666667, "bike_id": "7b90deb433f3a0491d4f861e3f0861f0", "type": "electric_scooter", "name": "7b90deb433f3a0491d4f861e3f0861f0"}, {"is_disabled": 0, "is_reserved": 0, "fusion_lat": 0.0, "lat": 38.911333, "fusion_lon": 0.0, "rental_uris": {"ios": "https://dc.lft.to/lastmile_qr_scan", "android": "https://dc.lft.to/lastmile_qr_scan"}, "lon": -77.02809483333333, "bike_id": "d0129e13bc22f9ec349578afe9435dbd", "type": "electric_scooter", "name": "d0129e13bc22f9ec349578afe9435dbd"}, {"is_disabled": 0, "is_reserved": 0, "fusion_lat": 0.0, "lat": 38.8843765, "fusion_lon": 0.0, "rental_uris": {"ios": "https://dc.lft.to/lastmile_qr_scan", "android": "https://dc.lft.to/lastmile_qr_scan"}, "lon": -77.03032716666667, "bike_id": "0dea127a3ec261d50cabddfda31b8c74", "type": "electric_scooter", "name": "0dea127a3ec261d50cabddfda31b8c74"}, {"is_disabled": 0, "is_reserved": 0, "fusion_lat": 0.0, "lat": 38.90038233333333, "fusion_lon": 0.0, "rental_uris": {"ios": "https://dc.lft.to/lastmile_qr_scan", "android": "https://dc.lft.to/lastmile_qr_scan"}, "lon": -77.05564183333334, "bike_id": "0dcb1153e5ae1b5a52076b59265fd5c8", "type": "electric_bike", "name": "0dcb1153e5ae1b5a52076b59265fd5c8"}, {"is_disabled": 0, "is_reserved": 0, "fusion_lat": 0.0, "lat": 38.84225683333333, "fusion_lon": 0.0, "rental_uris": {"ios": "https://dc.lft.to/lastmile_qr_scan", "android": "https://dc.lft.to/lastmile_qr_scan"}, "lon": -76.94892333333334, "bike_id": "4eb1c18fbb1b36e43c38e86a143875cf", "type": "electric_bike", "name": "4eb1c18fbb1b36e43c38e86a143875cf"}, {"is_disabled": 0, "is_reserved": 0, "fusion_lat": 0.0, "lat": 38.918325833333334, "fusion_lon": 0.0, "rental_uris": {"ios": "https://dc.lft.to/lastmile_qr_scan", "android": "https://dc.lft.to/lastmile_qr_scan"}, "lon": -77.04169183333333, "bike_id": "cda0ecd31a0d0cf479e105122e7b40aa", "type": "electric_scooter", "name": "cda0ecd31a0d0cf479e105122e7b40aa"}, {"is_disabled": 0, "is_reserved": 0, "fusion_lat": 0.0, "lat": 38.9099185, "fusion_lon": 0.0, "rental_uris": {"ios": "https://dc.lft.to/lastmile_qr_scan", "android": "https://dc.lft.to/lastmile_qr_scan"}, "lon": -77.031923, "bike_id": "31a336ab538eb98f9ffad5bb6d3162ac", "type": "electric_scooter", "name": "31a336ab538eb98f9ffad5bb6d3162ac"}, {"is_disabled": 0, "is_reserved": 0, "fusion_lat": 0.0, "lat": 38.939744, "fusion_lon": 0.0, "rental_uris": {"ios": "https://dc.lft.to/lastmile_qr_scan", "android": "https://dc.lft.to/lastmile_qr_scan"}, "lon": -77.02893616666667, "bike_id": "d0586afaab9d59f0933509c1f86b024f", "type": "electric_scooter", "name": "d0586afaab9d59f0933509c1f86b024f"}, {"is_disabled": 0, "is_reserved": 0, "fusion_lat": 0.0, "lat": 38.9167665, "fusion_lon": 0.0, "rental_uris": {"ios": "https://dc.lft.to/lastmile_qr_scan", "android": "https://dc.lft.to/lastmile_qr_scan"}, "lon": -77.03685116666666, "bike_id": "c48df030b20ae8bbcdc02e330d4ba5f4", "type": "electric_scooter", "name": "c48df030b20ae8bbcdc02e330d4ba5f4"}, {"is_disabled": 0, "is_reserved": 0, "fusion_lat": 0.0, "lat": 38.9178135, "fusion_lon": 0.0, "rental_uris": {"ios": "https://dc.lft.to/lastmile_qr_scan", "android": "https://dc.lft.to/lastmile_qr_scan"}, "lon": -77.03206216666666, "bike_id": "b500e873e1ed879c7eae0ca137b54d72", "type": "electric_scooter", "name": "b500e873e1ed879c7eae0ca137b54d72"}, {"is_disabled": 0, "is_reserved": 0, "fusion_lat": 0.0, "lat": 38.930866333333334, "fusion_lon": 0.0, "rental_uris": {"ios": "https://dc.lft.to/lastmile_qr_scan", "android": "https://dc.lft.to/lastmile_qr_scan"}, "lon": -77.0322165, "bike_id": "8bfca0dde1b5d05e3a100322a5b10bcc", "type": "electric_scooter", "name": "8bfca0dde1b5d05e3a100322a5b10bcc"}, {"is_disabled": 0, "is_reserved": 0, "fusion_lat": 0.0, "lat": 38.902846, "fusion_lon": 0.0, "rental_uris": {"ios": "https://dc.lft.to/lastmile_qr_scan", "android": "https://dc.lft.to/lastmile_qr_scan"}, "lon": -77.03648683333333, "bike_id": "2ff049acd95f22fe9ebbde9e5b662c3d", "type": "electric_scooter", "name": "2ff049acd95f22fe9ebbde9e5b662c3d"}, {"is_disabled": 0, "is_reserved": 0, "fusion_lat": 0.0, "lat": 38.9050235, "fusion_lon": 0.0, "rental_uris": {"ios": "https://dc.lft.to/lastmile_qr_scan", "android": "https://dc.lft.to/lastmile_qr_scan"}, "lon": -77.062802, "bike_id": "7c02a41442d1678744fdb6f8126358c6", "type": "electric_scooter", "name": "7c02a41442d1678744fdb6f8126358c6"}, {"is_disabled": 0, "is_reserved": 0, "fusion_lat": 0.0, "lat": 38.90267166666667, "fusion_lon": 0.0, "rental_uris": {"ios": "https://dc.lft.to/lastmile_qr_scan", "android": "https://dc.lft.to/lastmile_qr_scan"}, "lon": -77.061612, "bike_id": "80cac5290bc8d25d7261f9bf123d48aa", "type": "electric_scooter", "name": "80cac5290bc8d25d7261f9bf123d48aa"}, {"is_disabled": 0, "is_reserved": 0, "fusion_lat": 0.0, "lat": 38.919706166666664, "fusion_lon": 0.0, "rental_uris": {"ios": "https://dc.lft.to/lastmile_qr_scan", "android": "https://dc.lft.to/lastmile_qr_scan"}, "lon": -77.07122133333333, "bike_id": "aafa86f5d2d994223fe6c664ede75df5", "type": "electric_scooter", "name": "aafa86f5d2d994223fe6c664ede75df5"}, {"is_disabled": 0, "is_reserved": 0, "fusion_lat": 0.0, "lat": 38.9317885, "fusion_lon": 0.0, "rental_uris": {"ios": "https://dc.lft.to/lastmile_qr_scan", "android": "https://dc.lft.to/lastmile_qr_scan"}, "lon": -77.02347433333334, "bike_id": "1361933247d2cca0b78e90b85422a0f4", "type": "electric_scooter", "name": "1361933247d2cca0b78e90b85422a0f4"}, {"is_disabled": 0, "is_reserved": 0, "fusion_lat": 0.0, "lat": 38.90126716666666, "fusion_lon": 0.0, "rental_uris": {"ios": "https://dc.lft.to/lastmile_qr_scan", "android": "https://dc.lft.to/lastmile_qr_scan"}, "lon": -77.00359116666667, "bike_id": "4257527ee0f8d11151c07b8a2b871224", "type": "electric_scooter", "name": "4257527ee0f8d11151c07b8a2b871224"}, {"is_disabled": 0, "is_reserved": 0, "fusion_lat": 0.0, "lat": 38.98148116666667, "fusion_lon": 0.0, "rental_uris": {"ios": "https://dc.lft.to/lastmile_qr_scan", "android": "https://dc.lft.to/lastmile_qr_scan"}, "lon": -77.00774983333334, "bike_id": "cf6283fcca9d9f025d4db585ab5549a0", "type": "electric_bike", "name": "cf6283fcca9d9f025d4db585ab5549a0"}, {"is_disabled": 0, "is_reserved": 0, "fusion_lat": 0.0, "lat": 39.01067366666667, "fusion_lon": 0.0, "rental_uris": {"ios": "https://dc.lft.to/lastmile_qr_scan", "android": "https://dc.lft.to/lastmile_qr_scan"}, "lon": -76.9224665, "bike_id": "646f002b0447a7bdde0e3a4555649644", "type": "electric_bike", "name": "646f002b0447a7bdde0e3a4555649644"}, {"is_disabled": 0, "is_reserved": 0, "fusion_lat": 0.0, "lat": 38.9003755, "fusion_lon": 0.0, "rental_uris": {"ios": "https://dc.lft.to/lastmile_qr_scan", "android": "https://dc.lft.to/lastmile_qr_scan"}, "lon": -77.01185133333334, "bike_id": "4de9b2d106d9855822d10f7ed306fb11", "type": "electric_scooter", "name": "4de9b2d106d9855822d10f7ed306fb11"}, {"is_disabled": 0, "is_reserved": 0, "fusion_lat": 0.0, "lat": 38.916896666666666, "fusion_lon": 0.0, "rental_uris": {"ios": "https://dc.lft.to/lastmile_qr_scan", "android": "https://dc.lft.to/lastmile_qr_scan"}, "lon": -77.04173666666667, "bike_id": "7e5e56354e325cd335aed5b9797126c3", "type": "electric_scooter", "name": "7e5e56354e325cd335aed5b9797126c3"}, {"is_disabled": 0, "is_reserved": 0, "fusion_lat": 0.0, "lat": 38.901493, "fusion_lon": 0.0, "rental_uris": {"ios": "https://dc.lft.to/lastmile_qr_scan", "android": "https://dc.lft.to/lastmile_qr_scan"}, "lon": -76.98560433333333, "bike_id": "ea5cfe863d09e0aa8a80cd375022af26", "type": "electric_scooter", "name": "ea5cfe863d09e0aa8a80cd375022af26"}, {"is_disabled": 0, "is_reserved": 0, "fusion_lat": 0.0, "lat": 38.918058333333335, "fusion_lon": 0.0, "rental_uris": {"ios": "https://dc.lft.to/lastmile_qr_scan", "android": "https://dc.lft.to/lastmile_qr_scan"}, "lon": -77.02495, "bike_id": "c0e17206a416e7670d7342707ddc8edc", "type": "electric_scooter", "name": "c0e17206a416e7670d7342707ddc8edc"}, {"is_disabled": 0, "is_reserved": 0, "fusion_lat": 0.0, "lat": 38.874419, "fusion_lon": 0.0, "rental_uris": {"ios": "https://dc.lft.to/lastmile_qr_scan", "android": "https://dc.lft.to/lastmile_qr_scan"}, "lon": -77.00920066666667, "bike_id": "287f6299615c865e43d4829272306e11", "type": "electric_scooter", "name": "287f6299615c865e43d4829272306e11"}, {"is_disabled": 0, "is_reserved": 0, "fusion_lat": 0.0, "lat": 38.91927033333333, "fusion_lon": 0.0, "rental_uris": {"ios": "https://dc.lft.to/lastmile_qr_scan", "android": "https://dc.lft.to/lastmile_qr_scan"}, "lon": -77.0344015, "bike_id": "8d2959880eab5687567ac28c48211501", "type": "electric_scooter", "name": "8d2959880eab5687567ac28c48211501"}, {"is_disabled": 0, "is_reserved": 0, "fusion_lat": 0.0, "lat": 38.878440499999996, "fusion_lon": 0.0, "rental_uris": {"ios": "https://dc.lft.to/lastmile_qr_scan", "android": "https://dc.lft.to/lastmile_qr_scan"}, "lon": -76.93124483333334, "bike_id": "42a9028e07d13856b5c5d11383439ca4", "type": "electric_scooter", "name": "42a9028e07d13856b5c5d11383439ca4"}, {"is_disabled": 0, "is_reserved": 0, "fusion_lat": 0.0, "lat": 38.936632833333334, "fusion_lon": 0.0, "rental_uris": {"ios": "https://dc.lft.to/lastmile_qr_scan", "android": "https://dc.lft.to/lastmile_qr_scan"}, "lon": -77.0660915, "bike_id": "0ccb7ff906d1c919408bbd3db788f4c7", "type": "electric_scooter", "name": "0ccb7ff906d1c919408bbd3db788f4c7"}, {"is_disabled": 0, "is_reserved": 0, "fusion_lat": 0.0, "lat": 38.91301133333333, "fusion_lon": 0.0, "rental_uris": {"ios": "https://dc.lft.to/lastmile_qr_scan", "android": "https://dc.lft.to/lastmile_qr_scan"}, "lon": -77.01965666666666, "bike_id": "af6cc0efca3ad1b00639cfe0789d693b", "type": "electric_scooter", "name": "af6cc0efca3ad1b00639cfe0789d693b"}, {"is_disabled": 0, "is_reserved": 0, "fusion_lat": 0.0, "lat": 38.91784216666667, "fusion_lon": 0.0, "rental_uris": {"ios": "https://dc.lft.to/lastmile_qr_scan", "android": "https://dc.lft.to/lastmile_qr_scan"}, "lon": -77.02373233333333, "bike_id": "6b35fbaf0d7757c2fb55c908f44091df", "type": "electric_scooter", "name": "6b35fbaf0d7757c2fb55c908f44091df"}, {"is_disabled": 0, "is_reserved": 0, "fusion_lat": 0.0, "lat": 38.964346166666665, "fusion_lon": 0.0, "rental_uris": {"ios": "https://dc.lft.to/lastmile_qr_scan", "android": "https://dc.lft.to/lastmile_qr_scan"}, "lon": -77.031834, "bike_id": "6aab1521d1046e6ed27acb6f69656ce9", "type": "electric_bike", "name": "6aab1521d1046e6ed27acb6f69656ce9"}, {"is_disabled": 0, "is_reserved": 0, "fusion_lat": 0.0, "lat": 38.9283065, "fusion_lon": 0.0, "rental_uris": {"ios": "https://dc.lft.to/lastmile_qr_scan", "android": "https://dc.lft.to/lastmile_qr_scan"}, "lon": -77.03706283333334, "bike_id": "5f5984563ee60ddd094e319896bc519b", "type": "electric_scooter", "name": "5f5984563ee60ddd094e319896bc519b"}, {"is_disabled": 0, "is_reserved": 0, "fusion_lat": 0.0, "lat": 38.928943333333336, "fusion_lon": 0.0, "rental_uris": {"ios": "https://dc.lft.to/lastmile_qr_scan", "android": "https://dc.lft.to/lastmile_qr_scan"}, "lon": -77.01941316666667, "bike_id": "864e036153682a181e10604d98bc6d94", "type": "electric_scooter", "name": "864e036153682a181e10604d98bc6d94"}, {"is_disabled": 0, "is_reserved": 0, "fusion_lat": 0.0, "lat": 38.89505283333333, "fusion_lon": 0.0, "rental_uris": {"ios": "https://dc.lft.to/lastmile_qr_scan", "android": "https://dc.lft.to/lastmile_qr_scan"}, "lon": -77.02287233333334, "bike_id": "7f8c2238d7af3e2d13d05a7be10315cd", "type": "electric_scooter", "name": "7f8c2238d7af3e2d13d05a7be10315cd"}, {"is_disabled": 0, "is_reserved": 0, "fusion_lat": 0.0, "lat": 38.9186105, "fusion_lon": 0.0, "rental_uris": {"ios": "https://dc.lft.to/lastmile_qr_scan", "android": "https://dc.lft.to/lastmile_qr_scan"}, "lon": -76.96547683333333, "bike_id": "1a9ad472939e200c62de994c288c4ad5", "type": "electric_scooter", "name": "1a9ad472939e200c62de994c288c4ad5"}, {"is_disabled": 0, "is_reserved": 0, "fusion_lat": 0.0, "lat": 38.88396133333333, "fusion_lon": 0.0, "rental_uris": {"ios": "https://dc.lft.to/lastmile_qr_scan", "android": "https://dc.lft.to/lastmile_qr_scan"}, "lon": -76.99511383333333, "bike_id": "5feaeb6a60382351aeaeb6fcf364889f", "type": "electric_scooter", "name": "5feaeb6a60382351aeaeb6fcf364889f"}, {"is_disabled": 0, "is_reserved": 0, "fusion_lat": 0.0, "lat": 38.87699466666667, "fusion_lon": 0.0, "rental_uris": {"ios": "https://dc.lft.to/lastmile_qr_scan", "android": "https://dc.lft.to/lastmile_qr_scan"}, "lon": -77.00734483333333, "bike_id": "9eef63b74b9e5b063a21ca57d89127bd", "type": "electric_scooter", "name": "9eef63b74b9e5b063a21ca57d89127bd"}, {"is_disabled": 0, "is_reserved": 0, "fusion_lat": 0.0, "lat": 38.93007433333333, "fusion_lon": 0.0, "rental_uris": {"ios": "https://dc.lft.to/lastmile_qr_scan", "android": "https://dc.lft.to/lastmile_qr_scan"}, "lon": -77.02114933333333, "bike_id": "bc9929c080c45883903f4cf270294d7f", "type": "electric_scooter", "name": "bc9929c080c45883903f4cf270294d7f"}, {"is_disabled": 0, "is_reserved": 0, "fusion_lat": 0.0, "lat": 38.899363666666666, "fusion_lon": 0.0, "rental_uris": {"ios": "https://dc.lft.to/lastmile_qr_scan", "android": "https://dc.lft.to/lastmile_qr_scan"}, "lon": -76.93759816666666, "bike_id": "8258a1f5a6d556c7ac9da52e6b23fd76", "type": "electric_scooter", "name": "8258a1f5a6d556c7ac9da52e6b23fd76"}, {"is_disabled": 0, "is_reserved": 0, "fusion_lat": 0.0, "lat": 38.880086166666665, "fusion_lon": 0.0, "rental_uris": {"ios": "https://dc.lft.to/lastmile_qr_scan", "android": "https://dc.lft.to/lastmile_qr_scan"}, "lon": -76.998344, "bike_id": "b4830803e66d4c5c435eee65fbd3b129", "type": "electric_scooter", "name": "b4830803e66d4c5c435eee65fbd3b129"}, {"is_disabled": 0, "is_reserved": 0, "fusion_lat": 0.0, "lat": 38.90175883333333, "fusion_lon": 0.0, "rental_uris": {"ios": "https://dc.lft.to/lastmile_qr_scan", "android": "https://dc.lft.to/lastmile_qr_scan"}, "lon": -77.00209716666667, "bike_id": "8864b838d362c4df7e37f0d98627e2a6", "type": "electric_scooter", "name": "8864b838d362c4df7e37f0d98627e2a6"}, {"is_disabled": 0, "is_reserved": 0, "fusion_lat": 0.0, "lat": 39.03477383333333, "fusion_lon": 0.0, "rental_uris": {"ios": "https://dc.lft.to/lastmile_qr_scan", "android": "https://dc.lft.to/lastmile_qr_scan"}, "lon": -77.04105533333333, "bike_id": "3a911d3a9d5389b0aebf33c06574cebf", "type": "electric_bike", "name": "3a911d3a9d5389b0aebf33c06574cebf"}, {"is_disabled": 0, "is_reserved": 0, "fusion_lat": 0.0, "lat": 38.9075345, "fusion_lon": 0.0, "rental_uris": {"ios": "https://dc.lft.to/lastmile_qr_scan", "android": "https://dc.lft.to/lastmile_qr_scan"}, "lon": -76.99875833333333, "bike_id": "4e0b6bd71280026e7fa3f4c68249bc3c", "type": "electric_scooter", "name": "4e0b6bd71280026e7fa3f4c68249bc3c"}, {"is_disabled": 0, "is_reserved": 0, "fusion_lat": 0.0, "lat": 38.901933666666665, "fusion_lon": 0.0, "rental_uris": {"ios": "https://dc.lft.to/lastmile_qr_scan", "android": "https://dc.lft.to/lastmile_qr_scan"}, "lon": -76.97672533333333, "bike_id": "ae054b3dca73d100d162888c50dcccc1", "type": "electric_scooter", "name": "ae054b3dca73d100d162888c50dcccc1"}, {"is_disabled": 0, "is_reserved": 0, "fusion_lat": 0.0, "lat": 38.9055725, "fusion_lon": 0.0, "rental_uris": {"ios": "https://dc.lft.to/lastmile_qr_scan", "android": "https://dc.lft.to/lastmile_qr_scan"}, "lon": -77.057096, "bike_id": "2d773de41d7eac3315b2bf749d184beb", "type": "electric_bike", "name": "2d773de41d7eac3315b2bf749d184beb"}, {"is_disabled": 0, "is_reserved": 0, "fusion_lat": 0.0, "lat": 38.9103855, "fusion_lon": 0.0, "rental_uris": {"ios": "https://dc.lft.to/lastmile_qr_scan", "android": "https://dc.lft.to/lastmile_qr_scan"}, "lon": -76.93834833333334, "bike_id": "fd125689b5b1a221342349c5515fbd5c", "type": "electric_scooter", "name": "fd125689b5b1a221342349c5515fbd5c"}, {"is_disabled": 0, "is_reserved": 0, "fusion_lat": 0.0, "lat": 38.899091166666665, "fusion_lon": 0.0, "rental_uris": {"ios": "https://dc.lft.to/lastmile_qr_scan", "android": "https://dc.lft.to/lastmile_qr_scan"}, "lon": -76.98036283333333, "bike_id": "2a59ef527a5237ac8737b99c0ec09bba", "type": "electric_scooter", "name": "2a59ef527a5237ac8737b99c0ec09bba"}, {"is_disabled": 0, "is_reserved": 0, "fusion_lat": 0.0, "lat": 38.908528, "fusion_lon": 0.0, "rental_uris": {"ios": "https://dc.lft.to/lastmile_qr_scan", "android": "https://dc.lft.to/lastmile_qr_scan"}, "lon": -76.99964633333333, "bike_id": "78153ede8fb01aa7c4ba7a137517fb90", "type": "electric_scooter", "name": "78153ede8fb01aa7c4ba7a137517fb90"}, {"is_disabled": 0, "is_reserved": 0, "fusion_lat": 0.0, "lat": 38.9480205, "fusion_lon": 0.0, "rental_uris": {"ios": "https://dc.lft.to/lastmile_qr_scan", "android": "https://dc.lft.to/lastmile_qr_scan"}, "lon": -77.079172, "bike_id": "8221653d6fe4809f084361590dc63b86", "type": "electric_scooter", "name": "8221653d6fe4809f084361590dc63b86"}, {"is_disabled": 0, "is_reserved": 0, "fusion_lat": 0.0, "lat": 38.820356833333335, "fusion_lon": 0.0, "rental_uris": {"ios": "https://dc.lft.to/lastmile_qr_scan", "android": "https://dc.lft.to/lastmile_qr_scan"}, "lon": -77.05457433333333, "bike_id": "4a8ffb0d0e6362ae7842766ed1a6ebb5", "type": "electric_bike", "name": "4a8ffb0d0e6362ae7842766ed1a6ebb5"}, {"is_disabled": 0, "is_reserved": 0, "fusion_lat": 0.0, "lat": 38.921542, "fusion_lon": 0.0, "rental_uris": {"ios": "https://dc.lft.to/lastmile_qr_scan", "android": "https://dc.lft.to/lastmile_qr_scan"}, "lon": -77.03384516666667, "bike_id": "60dd34929b7f52ef9e97a48807941e5b", "type": "electric_scooter", "name": "60dd34929b7f52ef9e97a48807941e5b"}, {"is_disabled": 0, "is_reserved": 0, "fusion_lat": 0.0, "lat": 38.93859533333333, "fusion_lon": 0.0, "rental_uris": {"ios": "https://dc.lft.to/lastmile_qr_scan", "android": "https://dc.lft.to/lastmile_qr_scan"}, "lon": -77.024581, "bike_id": "a947a298f9cdfa06d7800d7f88eddbb2", "type": "electric_scooter", "name": "a947a298f9cdfa06d7800d7f88eddbb2"}, {"is_disabled": 0, "is_reserved": 0, "fusion_lat": 0.0, "lat": 38.94679283333333, "fusion_lon": 0.0, "rental_uris": {"ios": "https://dc.lft.to/lastmile_qr_scan", "android": "https://dc.lft.to/lastmile_qr_scan"}, "lon": -77.03278683333333, "bike_id": "35a618edc889a44f8602ea94d5c40e8a", "type": "electric_scooter", "name": "35a618edc889a44f8602ea94d5c40e8a"}, {"is_disabled": 0, "is_reserved": 0, "fusion_lat": 0.0, "lat": 38.91685316666667, "fusion_lon": 0.0, "rental_uris": {"ios": "https://dc.lft.to/lastmile_qr_scan", "android": "https://dc.lft.to/lastmile_qr_scan"}, "lon": -77.02968933333334, "bike_id": "95ab8b8ea1b6d3918ce1b6fe9b3ccb45", "type": "electric_scooter", "name": "95ab8b8ea1b6d3918ce1b6fe9b3ccb45"}, {"is_disabled": 0, "is_reserved": 0, "fusion_lat": 0.0, "lat": 38.89842466666666, "fusion_lon": 0.0, "rental_uris": {"ios": "https://dc.lft.to/lastmile_qr_scan", "android": "https://dc.lft.to/lastmile_qr_scan"}, "lon": -77.02869, "bike_id": "18f6d86eaab1f1eff3ce2bb2c909e581", "type": "electric_scooter", "name": "18f6d86eaab1f1eff3ce2bb2c909e581"}, {"is_disabled": 0, "is_reserved": 0, "fusion_lat": 0.0, "lat": 38.892214833333334, "fusion_lon": 0.0, "rental_uris": {"ios": "https://dc.lft.to/lastmile_qr_scan", "android": "https://dc.lft.to/lastmile_qr_scan"}, "lon": -77.04461933333333, "bike_id": "8ae6c800e269672f1bbd7ceb9fb329b3", "type": "electric_scooter", "name": "8ae6c800e269672f1bbd7ceb9fb329b3"}, {"is_disabled": 0, "is_reserved": 0, "fusion_lat": 0.0, "lat": 38.900414, "fusion_lon": 0.0, "rental_uris": {"ios": "https://dc.lft.to/lastmile_qr_scan", "android": "https://dc.lft.to/lastmile_qr_scan"}, "lon": -76.9901295, "bike_id": "9fcee6e93899be238301967e4efa033e", "type": "electric_bike", "name": "9fcee6e93899be238301967e4efa033e"}, {"is_disabled": 0, "is_reserved": 0, "fusion_lat": 0.0, "lat": 38.8844805, "fusion_lon": 0.0, "rental_uris": {"ios": "https://dc.lft.to/lastmile_qr_scan", "android": "https://dc.lft.to/lastmile_qr_scan"}, "lon": -76.95095033333334, "bike_id": "538c1405fe6bae469f4d11d6915250f0", "type": "electric_scooter", "name": "538c1405fe6bae469f4d11d6915250f0"}, {"is_disabled": 0, "is_reserved": 0, "fusion_lat": 0.0, "lat": 38.88135616666667, "fusion_lon": 0.0, "rental_uris": {"ios": "https://dc.lft.to/lastmile_qr_scan", "android": "https://dc.lft.to/lastmile_qr_scan"}, "lon": -77.02272166666667, "bike_id": "c1baa3229e83834dcbf3c21ecd83d11c", "type": "electric_scooter", "name": "c1baa3229e83834dcbf3c21ecd83d11c"}, {"is_disabled": 0, "is_reserved": 0, "fusion_lat": 0.0, "lat": 38.8447405, "fusion_lon": 0.0, "rental_uris": {"ios": "https://dc.lft.to/lastmile_qr_scan", "android": "https://dc.lft.to/lastmile_qr_scan"}, "lon": -76.99585033333334, "bike_id": "87f68ff6a790eeccd3acd2f574975fe2", "type": "electric_bike", "name": "87f68ff6a790eeccd3acd2f574975fe2"}, {"is_disabled": 0, "is_reserved": 0, "fusion_lat": 0.0, "lat": 38.91810433333333, "fusion_lon": 0.0, "rental_uris": {"ios": "https://dc.lft.to/lastmile_qr_scan", "android": "https://dc.lft.to/lastmile_qr_scan"}, "lon": -77.03474166666666, "bike_id": "f68e5913738cd61219ea82dc390c1889", "type": "electric_scooter", "name": "f68e5913738cd61219ea82dc390c1889"}, {"is_disabled": 0, "is_reserved": 0, "fusion_lat": 0.0, "lat": 38.898323, "fusion_lon": 0.0, "rental_uris": {"ios": "https://dc.lft.to/lastmile_qr_scan", "android": "https://dc.lft.to/lastmile_qr_scan"}, "lon": -76.94273316666667, "bike_id": "8ef9209e5168b2d17fd5026dc7680def", "type": "electric_bike", "name": "8ef9209e5168b2d17fd5026dc7680def"}, {"is_disabled": 0, "is_reserved": 0, "fusion_lat": 0.0, "lat": 38.876958, "fusion_lon": 0.0, "rental_uris": {"ios": "https://dc.lft.to/lastmile_qr_scan", "android": "https://dc.lft.to/lastmile_qr_scan"}, "lon": -76.99622516666666, "bike_id": "ca9e0948fe6b59160e43a42cd0e4acb9", "type": "electric_scooter", "name": "ca9e0948fe6b59160e43a42cd0e4acb9"}, {"is_disabled": 0, "is_reserved": 0, "fusion_lat": 0.0, "lat": 38.938849166666664, "fusion_lon": 0.0, "rental_uris": {"ios": "https://dc.lft.to/lastmile_qr_scan", "android": "https://dc.lft.to/lastmile_qr_scan"}, "lon": -77.029259, "bike_id": "3e97b0509ca08c2eb9caae33db1d7cb8", "type": "electric_scooter", "name": "3e97b0509ca08c2eb9caae33db1d7cb8"}, {"is_disabled": 0, "is_reserved": 0, "fusion_lat": 0.0, "lat": 38.9222385, "fusion_lon": 0.0, "rental_uris": {"ios": "https://dc.lft.to/lastmile_qr_scan", "android": "https://dc.lft.to/lastmile_qr_scan"}, "lon": -77.03898816666667, "bike_id": "c97eb281ae699c2b8815549fde37db54", "type": "electric_scooter", "name": "c97eb281ae699c2b8815549fde37db54"}, {"is_disabled": 0, "is_reserved": 0, "fusion_lat": 0.0, "lat": 38.881187, "fusion_lon": 0.0, "rental_uris": {"ios": "https://dc.lft.to/lastmile_qr_scan", "android": "https://dc.lft.to/lastmile_qr_scan"}, "lon": -77.01662866666666, "bike_id": "5cac28f0a04d913a82c7fb594011b191", "type": "electric_bike", "name": "5cac28f0a04d913a82c7fb594011b191"}, {"is_disabled": 0, "is_reserved": 0, "fusion_lat": 0.0, "lat": 38.87445816666666, "fusion_lon": 0.0, "rental_uris": {"ios": "https://dc.lft.to/lastmile_qr_scan", "android": "https://dc.lft.to/lastmile_qr_scan"}, "lon": -77.0028785, "bike_id": "d4bc7383fee3c38a1a2b7417ca3ea933", "type": "electric_scooter", "name": "d4bc7383fee3c38a1a2b7417ca3ea933"}, {"is_disabled": 0, "is_reserved": 0, "fusion_lat": 0.0, "lat": 38.89877533333333, "fusion_lon": 0.0, "rental_uris": {"ios": "https://dc.lft.to/lastmile_qr_scan", "android": "https://dc.lft.to/lastmile_qr_scan"},