{"data": {"bikes": [{"rental_uris": {"android": "https://dc.lft.to/lastmile_qr_scan", "ios": "https://dc.lft.to/lastmile_qr_scan"}, "type": "electric_scooter", "lon": -77.02501183333334, "name": "c67d99d46310eda4dcb35b052d529fd3", "bike_id": "c67d99d46310eda4dcb35b052d529fd3", "fusion_lat": 0.0, "is_reserved": 0, "lat": 38.90960783333333, "fusion_lon": 0.0, "is_disabled": 0}, {"rental_uris": {"android": "https://dc.lft.to/lastmile_qr_scan", "ios": "https://dc.lft.to/lastmile_qr_scan"}, "type": "electric_bike", "lon": -76.874958, "name": "d27515c2b96e5bc4418c3320d1ce9dd9", "bike_id": "d27515c2b96e5bc4418c3320d1ce9dd9", "fusion_lat": 0.0, "is_reserved": 0, "lat": 38.990884, "fusion_lon": 0.0, "is_disabled": 0}, {"rental_uris": {"android": "https://dc.lft.to/lastmile_qr_scan", "ios": "https://dc.lft.to/lastmile_qr_scan"}, "type": "electric_scooter", "lon": -77.0196525, "name": "283f0d465cd28ee25f5db1e0f97bc1b7", "bike_id": "283f0d465cd28ee25f5db1e0f97bc1b7", "fusion_lat": 0.0, "is_reserved": 0, "lat": 38.901929333333335, "fusion_lon": 0.0, "is_disabled": 0}, {"rental_uris": {"android": "https://dc.lft.to/lastmile_qr_scan", "ios": "https://dc.lft.to/lastmile_qr_scan"}, "type": "electric_scooter", "lon": -76.93160266666666, "name": "b2ee04a9c97343d5f3d68737b025a0d6", "bike_id": "b2ee04a9c97343d5f3d68737b025a0d6", "fusion_lat": 0.0, "is_reserved": 0, "lat": 38.89881166666667, "fusion_lon": 0.0, "is_disabled": 0}, {"rental_uris": {"android": "https://dc.lft.to/lastmile_qr_scan", "ios": "https://dc.lft.to/lastmile_qr_scan"}, "type": "electric_scooter", "lon": -77.0157605, "name": "a50f6814f0e23b97790057d0cbbed515", "bike_id": "a50f6814f0e23b97790057d0cbbed515", "fusion_lat": 0.0, "is_reserved": 0, "lat": 38.876468833333334, "fusion_lon": 0.0, "is_disabled": 0}, {"rental_uris": {"android": "https://dc.lft.to/lastmile_qr_scan", "ios": "https://dc.lft.to/lastmile_qr_scan"}, "type": "electric_bike", "lon": -77.11220483333334, "name": "a61dac6ecc52cc900cb36ecfafa439ee", "bike_id": "a61dac6ecc52cc900cb36ecfafa439ee", "fusion_lat": 0.0, "is_reserved": 0, "lat": 38.828672833333336, "fusion_lon": 0.0, "is_disabled": 0}, {"rental_uris": {"android": "https://dc.lft.to/lastmile_qr_scan", "ios": "https://dc.lft.to/lastmile_qr_scan"}, "type": "electric_scooter", "lon": -76.94216683333333, "name": "87a476b8e97966702cb4b543a26b91ad", "bike_id": "87a476b8e97966702cb4b543a26b91ad", "fusion_lat": 0.0, "is_reserved": 0, "lat": 38.896728833333334, "fusion_lon": 0.0, "is_disabled": 0}, {"rental_uris": {"android": "https://dc.lft.to/lastmile_qr_scan", "ios": "https://dc.lft.to/lastmile_qr_scan"}, "type": "electric_scooter", "lon": -77.03846133333333, "name": "ef58ad7343b6401ba1620f9614436129", "bike_id": "ef58ad7343b6401ba1620f9614436129", "fusion_lat": 0.0, "is_reserved": 0, "lat": 38.912073666666664, "fusion_lon": 0.0, "is_disabled": 0}, {"rental_uris": {"android": "https://dc.lft.to/lastmile_qr_scan", "ios": "https://dc.lft.to/lastmile_qr_scan"}, "type": "electric_scooter", "lon": -77.00956816666667, "name": "7c3b1028bca9320952fb83db58b80687", "bike_id": "7c3b1028bca9320952fb83db58b80687", "fusion_lat": 0.0, "is_reserved": 0, "lat": 38.921369, "fusion_lon": 0.0, "is_disabled": 0}, {"rental_uris": {"android": "https://dc.lft.to/lastmile_qr_scan", "ios": "https://dc.lft.to/lastmile_qr_scan"}, "type": "electric_scooter", "lon": -77.02714416666667, "name": "35bbcc0bc9ba86a54cbaf3ad05accaa8", "bike_id": "35bbcc0bc9ba86a54cbaf3ad05accaa8", "fusion_lat": 0.0, "is_reserved": 0, "lat": 38.9066675, "fusion_lon": 0.0, "is_disabled": 0}, {"rental_uris": {"android": "https://dc.lft.to/lastmile_qr_scan", "ios": "https://dc.lft.to/lastmile_qr_scan"}, "type": "electric_scooter", "lon": -76.93537416666666, "name": "9678de38f70d12a2b6b7e3d25b7623bf", "bike_id": "9678de38f70d12a2b6b7e3d25b7623bf", "fusion_lat": 0.0, "is_reserved": 0, "lat": 38.896833666666666, "fusion_lon": 0.0, "is_disabled": 0}, {"rental_uris": {"android": "https://dc.lft.to/lastmile_qr_scan", "ios": "https://dc.lft.to/lastmile_qr_scan"}, "type": "electric_scooter", "lon": -77.02288833333333, "name": "9debcfb3f0979e864c71377fc0e38c70", "bike_id": "9debcfb3f0979e864c71377fc0e38c70", "fusion_lat": 0.0, "is_reserved": 0, "lat": 38.924190833333334, "fusion_lon": 0.0, "is_disabled": 0}, {"rental_uris": {"android": "https://dc.lft.to/lastmile_qr_scan", "ios": "https://dc.lft.to/lastmile_qr_scan"}, "type": "electric_bike", "lon": -77.17845016666666, "name": "44f0a00c8c1fce761438c8324f8475c4", "bike_id": "44f0a00c8c1fce761438c8324f8475c4", "fusion_lat": 0.0, "is_reserved": 0, "lat": 39.088989166666664, "fusion_lon": 0.0, "is_disabled": 0}, {"rental_uris": {"android": "https://dc.lft.to/lastmile_qr_scan", "ios": "https://dc.lft.to/lastmile_qr_scan"}, "type": "electric_scooter", "lon": -77.02704283333334, "name": "7dd9303c2a3e27638b17848743700928", "bike_id": "7dd9303c2a3e27638b17848743700928", "fusion_lat": 0.0, "is_reserved": 0, "lat": 38.94998966666667, "fusion_lon": 0.0, "is_disabled": 0}, {"rental_uris": {"android": "https://dc.lft.to/lastmile_qr_scan", "ios": "https://dc.lft.to/lastmile_qr_scan"}, "type": "electric_scooter", "lon": -77.031759, "name": "beba1186418bf04dd348dde3b964f8d6", "bike_id": "beba1186418bf04dd348dde3b964f8d6", "fusion_lat": 0.0, "is_reserved": 0, "lat": 38.919149, "fusion_lon": 0.0, "is_disabled": 0}, {"rental_uris": {"android": "https://dc.lft.to/lastmile_qr_scan", "ios": "https://dc.lft.to/lastmile_qr_scan"}, "type": "electric_bike", "lon": -77.04306733333334, "name": "3da965aca259904857f6cee2f933cda4", "bike_id": "3da965aca259904857f6cee2f933cda4", "fusion_lat": 0.0, "is_reserved": 0, "lat": 39.054454166666666, "fusion_lon": 0.0, "is_disabled": 0}, {"rental_uris": {"android": "https://dc.lft.to/lastmile_qr_scan", "ios": "https://dc.lft.to/lastmile_qr_scan"}, "type": "electric_scooter", "lon": -77.01527283333333, "name": "cf6d57d166830b587c3285a1107491ec", "bike_id": "cf6d57d166830b587c3285a1107491ec", "fusion_lat": 0.0, "is_reserved": 0, "lat": 38.91352833333333, "fusion_lon": 0.0, "is_disabled": 0}, {"rental_uris": {"android": "https://dc.lft.to/lastmile_qr_scan", "ios": "https://dc.lft.to/lastmile_qr_scan"}, "type": "electric_scooter", "lon": -77.02408716666666, "name": "bc8e187c00cdf1d246029e970abed497", "bike_id": "bc8e187c00cdf1d246029e970abed497", "fusion_lat": 0.0, "is_reserved": 0, "lat": 38.913415, "fusion_lon": 0.0, "is_disabled": 0}, {"rental_uris": {"android": "https://dc.lft.to/lastmile_qr_scan", "ios": "https://dc.lft.to/lastmile_qr_scan"}, "type": "electric_scooter", "lon": -77.050007, "name": "bb41d03bfb0f073f84788e9b41f23a3b", "bike_id": "bb41d03bfb0f073f84788e9b41f23a3b", "fusion_lat": 0.0, "is_reserved": 0, "lat": 38.89902166666667, "fusion_lon": 0.0, "is_disabled": 0}, {"rental_uris": {"android": "https://dc.lft.to/lastmile_qr_scan", "ios": "https://dc.lft.to/lastmile_qr_scan"}, "type": "electric_scooter", "lon": -77.00965283333333, "name": "d61e5215a1a406546159f2cfb2e1d14f", "bike_id": "d61e5215a1a406546159f2cfb2e1d14f", "fusion_lat": 0.0, "is_reserved": 0, "lat": 38.88128183333333, "fusion_lon": 0.0, "is_disabled": 0}, {"rental_uris": {"android": "https://dc.lft.to/lastmile_qr_scan", "ios": "https://dc.lft.to/lastmile_qr_scan"}, "type": "electric_scooter", "lon": -77.0333725, "name": "97c6124e1f85e647b382db25da3f24ea", "bike_id": "97c6124e1f85e647b382db25da3f24ea", "fusion_lat": 0.0, "is_reserved": 0, "lat": 38.902244333333336, "fusion_lon": 0.0, "is_disabled": 0}, {"rental_uris": {"android": "https://dc.lft.to/lastmile_qr_scan", "ios": "https://dc.lft.to/lastmile_qr_scan"}, "type": "electric_scooter", "lon": -77.03266816666667, "name": "19da18463deb938cc7e1413b957090ee", "bike_id": "19da18463deb938cc7e1413b957090ee", "fusion_lat": 0.0, "is_reserved": 0, "lat": 38.93527233333333, "fusion_lon": 0.0, "is_disabled": 0}, {"rental_uris": {"android": "https://dc.lft.to/lastmile_qr_scan", "ios": "https://dc.lft.to/lastmile_qr_scan"}, "type": "electric_scooter", "lon": -77.0436485, "name": "3e078e8e258e8fc7d5fbc3ce353e6631", "bike_id": "3e078e8e258e8fc7d5fbc3ce353e6631", "fusion_lat": 0.0, "is_reserved": 0, "lat": 38.902710666666664, "fusion_lon": 0.0, "is_disabled": 0}, {"rental_uris": {"android": "https://dc.lft.to/lastmile_qr_scan", "ios": "https://dc.lft.to/lastmile_qr_scan"}, "type": "electric_scooter", "lon": -76.99062566666667, "name": "192f58a883901450d553b31715f495d6", "bike_id": "192f58a883901450d553b31715f495d6", "fusion_lat": 0.0, "is_reserved": 0, "lat": 38.929454666666665, "fusion_lon": 0.0, "is_disabled": 0}, {"rental_uris": {"android": "https://dc.lft.to/lastmile_qr_scan", "ios": "https://dc.lft.to/lastmile_qr_scan"}, "type": "electric_scooter", "lon": -77.028062, "name": "7bd881d25994f3158010331883daea48", "bike_id": "7bd881d25994f3158010331883daea48", "fusion_lat": 0.0, "is_reserved": 0, "lat": 38.96145883333333, "fusion_lon": 0.0, "is_disabled": 0}, {"rental_uris": {"android": "https://dc.lft.to/lastmile_qr_scan", "ios": "https://dc.lft.to/lastmile_qr_scan"}, "type": "electric_scooter", "lon": -77.03700966666666, "name": "a90286428154fc4908927120055c5372", "bike_id": "a90286428154fc4908927120055c5372", "fusion_lat": 0.0, "is_reserved": 0, "lat": 38.92641583333333, "fusion_lon": 0.0, "is_disabled": 0}, {"rental_uris": {"android": "https://dc.lft.to/lastmile_qr_scan", "ios": "https://dc.lft.to/lastmile_qr_scan"}, "type": "electric_scooter", "lon": -77.06781283333333, "name": "0faa26feb18c44fcb816c1669b2c353d", "bike_id": "0faa26feb18c44fcb816c1669b2c353d", "fusion_lat": 0.0, "is_reserved": 0, "lat": 38.9521325, "fusion_lon": 0.0, "is_disabled": 0}, {"rental_uris": {"android": "https://dc.lft.to/lastmile_qr_scan", "ios": "https://dc.lft.to/lastmile_qr_scan"}, "type": "electric_scooter", "lon": -77.00738566666666, "name": "983ce619eaf28d02b5639bebcb5380f9", "bike_id": "983ce619eaf28d02b5639bebcb5380f9", "fusion_lat": 0.0, "is_reserved": 0, "lat": 38.95523933333333, "fusion_lon": 0.0, "is_disabled": 0}, {"rental_uris": {"android": "https://dc.lft.to/lastmile_qr_scan", "ios": "https://dc.lft.to/lastmile_qr_scan"}, "type": "electric_scooter", "lon": -77.0200705, "name": "f161169faba681796f777f1fc83bc63c", "bike_id": "f161169faba681796f777f1fc83bc63c", "fusion_lat": 0.0, "is_reserved": 0, "lat": 38.924208166666666, "fusion_lon": 0.0, "is_disabled": 0}, {"rental_uris": {"android": "https://dc.lft.to/lastmile_qr_scan", "ios": "https://dc.lft.to/lastmile_qr_scan"}, "type": "electric_scooter", "lon": -77.021808, "name": "cf8ee48242f43c3884d21e90bd6e8bb8", "bike_id": "cf8ee48242f43c3884d21e90bd6e8bb8", "fusion_lat": 0.0, "is_reserved": 0, "lat": 38.89230033333333, "fusion_lon": 0.0, "is_disabled": 0}, {"rental_uris": {"android": "https://dc.lft.to/lastmile_qr_scan", "ios": "https://dc.lft.to/lastmile_qr_scan"}, "type": "electric_scooter", "lon": -77.0217915, "name": "105c24c45b9a8085bf5c3381b47810d0", "bike_id": "105c24c45b9a8085bf5c3381b47810d0", "fusion_lat": 0.0, "is_reserved": 0, "lat": 38.892267833333335, "fusion_lon": 0.0, "is_disabled": 0}, {"rental_uris": {"android": "https://dc.lft.to/lastmile_qr_scan", "ios": "https://dc.lft.to/lastmile_qr_scan"}, "type": "electric_scooter", "lon": -77.01795833333334, "name": "7a1b795262d2de2612608dc8d0a468fd", "bike_id": "7a1b795262d2de2612608dc8d0a468fd", "fusion_lat": 0.0, "is_reserved": 0, "lat": 38.90640283333333, "fusion_lon": 0.0, "is_disabled": 0}, {"rental_uris": {"android": "https://dc.lft.to/lastmile_qr_scan", "ios": "https://dc.lft.to/lastmile_qr_scan"}, "type": "electric_scooter", "lon": -77.02545033333334, "name": "34ff89d5024a1440fce80d17424787b3", "bike_id": "34ff89d5024a1440fce80d17424787b3", "fusion_lat": 0.0, "is_reserved": 0, "lat": 38.92738116666666, "fusion_lon": 0.0, "is_disabled": 0}, {"rental_uris": {"android": "https://dc.lft.to/lastmile_qr_scan", "ios": "https://dc.lft.to/lastmile_qr_scan"}, "type": "electric_bike", "lon": -76.98832516666667, "name": "a0d95030176fecdcafc5441f837e64e2", "bike_id": "a0d95030176fecdcafc5441f837e64e2", "fusion_lat": 0.0, "is_reserved": 0, "lat": 38.985581833333335, "fusion_lon": 0.0, "is_disabled": 0}, {"rental_uris": {"android": "https://dc.lft.to/lastmile_qr_scan", "ios": "https://dc.lft.to/lastmile_qr_scan"}, "type": "electric_scooter", "lon": -77.023484, "name": "efe09cd072b599847332ec6a99130c37", "bike_id": "efe09cd072b599847332ec6a99130c37", "fusion_lat": 0.0, "is_reserved": 0, "lat": 38.92991633333333, "fusion_lon": 0.0, "is_disabled": 0}, {"rental_uris": {"android": "https://dc.lft.to/lastmile_qr_scan", "ios": "https://dc.lft.to/lastmile_qr_scan"}, "type": "electric_bike", "lon": -77.099652, "name": "ed38f29f0cf79397173b731b270df993", "bike_id": "ed38f29f0cf79397173b731b270df993", "fusion_lat": 0.0, "is_reserved": 0, "lat": 38.8578795, "fusion_lon": 0.0, "is_disabled": 0}, {"rental_uris": {"android": "https://dc.lft.to/lastmile_qr_scan", "ios": "https://dc.lft.to/lastmile_qr_scan"}, "type": "electric_scooter", "lon": -77.00611483333333, "name": "1b7af6d44a0dafbde5ec77b7754d1c63", "bike_id": "1b7af6d44a0dafbde5ec77b7754d1c63", "fusion_lat": 0.0, "is_reserved": 0, "lat": 38.87456916666667, "fusion_lon": 0.0, "is_disabled": 0}, {"rental_uris": {"android": "https://dc.lft.to/lastmile_qr_scan", "ios": "https://dc.lft.to/lastmile_qr_scan"}, "type": "electric_scooter", "lon": -77.00604916666667, "name": "fb3ffdc75be562a686c34215ef27a771", "bike_id": "fb3ffdc75be562a686c34215ef27a771", "fusion_lat": 0.0, "is_reserved": 0, "lat": 38.874591333333335, "fusion_lon": 0.0, "is_disabled": 0}, {"rental_uris": {"android": "https://dc.lft.to/lastmile_qr_scan", "ios": "https://dc.lft.to/lastmile_qr_scan"}, "type": "electric_scooter", "lon": -77.04585416666667, "name": "0f6c702814c4f80d31d6d4f7dcb6187a", "bike_id": "0f6c702814c4f80d31d6d4f7dcb6187a", "fusion_lat": 0.0, "is_reserved": 0, "lat": 38.92148483333333, "fusion_lon": 0.0, "is_disabled": 0}, {"rental_uris": {"android": "https://dc.lft.to/lastmile_qr_scan", "ios": "https://dc.lft.to/lastmile_qr_scan"}, "type": "electric_bike", "lon": -77.039886, "name": "9982e93aa7d725c57e35c1e0314a599f", "bike_id": "9982e93aa7d725c57e35c1e0314a599f", "fusion_lat": 0.0, "is_reserved": 0, "lat": 38.90606366666667, "fusion_lon": 0.0, "is_disabled": 0}, {"rental_uris": {"android": "https://dc.lft.to/lastmile_qr_scan", "ios": "https://dc.lft.to/lastmile_qr_scan"}, "type": "electric_scooter", "lon": -77.05004766666667, "name": "27e0ebb53a9d4b5832b8353b1eb368e8", "bike_id": "27e0ebb53a9d4b5832b8353b1eb368e8", "fusion_lat": 0.0, "is_reserved": 0, "lat": 38.892306166666664, "fusion_lon": 0.0, "is_disabled": 0}, {"rental_uris": {"android": "https://dc.lft.to/lastmile_qr_scan", "ios": "https://dc.lft.to/lastmile_qr_scan"}, "type": "electric_scooter", "lon": -77.02547366666667, "name": "01f09ba0df76662d6d9bf13bf20994ea", "bike_id": "01f09ba0df76662d6d9bf13bf20994ea", "fusion_lat": 0.0, "is_reserved": 0, "lat": 38.935157, "fusion_lon": 0.0, "is_disabled": 0}, {"rental_uris": {"android": "https://dc.lft.to/lastmile_qr_scan", "ios": "https://dc.lft.to/lastmile_qr_scan"}, "type": "electric_scooter", "lon": -77.04633483333333, "name": "b215c6d7d1dd391fa9c17a281aa1680d", "bike_id": "b215c6d7d1dd391fa9c17a281aa1680d", "fusion_lat": 0.0, "is_reserved": 0, "lat": 38.900671, "fusion_lon": 0.0, "is_disabled": 0}, {"rental_uris": {"android": "https://dc.lft.to/lastmile_qr_scan", "ios": "https://dc.lft.to/lastmile_qr_scan"}, "type": "electric_scooter", "lon": -77.02349383333333, "name": "3371b186def3603837e6856faca633f7", "bike_id": "3371b186def3603837e6856faca633f7", "fusion_lat": 0.0, "is_reserved": 0, "lat": 38.933247333333334, "fusion_lon": 0.0, "is_disabled": 0}, {"rental_uris": {"android": "https://dc.lft.to/lastmile_qr_scan", "ios": "https://dc.lft.to/lastmile_qr_scan"}, "type": "electric_scooter", "lon": -77.03271083333334, "name": "8abb451286f53cb005c93ebc732055f0", "bike_id": "8abb451286f53cb005c93ebc732055f0", "fusion_lat": 0.0, "is_reserved": 0, "lat": 38.924566, "fusion_lon": 0.0, "is_disabled": 0}, {"rental_uris": {"android": "https://dc.lft.to/lastmile_qr_scan", "ios": "https://dc.lft.to/lastmile_qr_scan"}, "type": "electric_scooter", "lon": -77.0083685, "name": "7b8a8b444eb53181f19e8a28fd90e5f1", "bike_id": "7b8a8b444eb53181f19e8a28fd90e5f1", "fusion_lat": 0.0, "is_reserved": 0, "lat": 38.91556966666667, "fusion_lon": 0.0, "is_disabled": 0}, {"rental_uris": {"android": "https://dc.lft.to/lastmile_qr_scan", "ios": "https://dc.lft.to/lastmile_qr_scan"}, "type": "electric_scooter", "lon": -77.02831266666666, "name": "911edb4fd95e8430814065b7bf8b7751", "bike_id": "911edb4fd95e8430814065b7bf8b7751", "fusion_lat": 0.0, "is_reserved": 0, "lat": 38.9329135, "fusion_lon": 0.0, "is_disabled": 0}, {"rental_uris": {"android": "https://dc.lft.to/lastmile_qr_scan", "ios": "https://dc.lft.to/lastmile_qr_scan"}, "type": "electric_scooter", "lon": -77.032492, "name": "13d81e23d12f9f785efd86462fe3c8fc", "bike_id": "13d81e23d12f9f785efd86462fe3c8fc", "fusion_lat": 0.0, "is_reserved": 0, "lat": 38.90146983333333, "fusion_lon": 0.0, "is_disabled": 0}, {"rental_uris": {"android": "https://dc.lft.to/lastmile_qr_scan", "ios": "https://dc.lft.to/lastmile_qr_scan"}, "type": "electric_scooter", "lon": -77.040625, "name": "e4e4c866f211ec85d028f787ece68a2c", "bike_id": "e4e4c866f211ec85d028f787ece68a2c", "fusion_lat": 0.0, "is_reserved": 0, "lat": 38.926521666666666, "fusion_lon": 0.0, "is_disabled": 0}, {"rental_uris": {"android": "https://dc.lft.to/lastmile_qr_scan", "ios": "https://dc.lft.to/lastmile_qr_scan"}, "type": "electric_scooter", "lon": -77.03247383333333, "name": "b0cf75ab1c086ccca29a6cb6dcecacbf", "bike_id": "b0cf75ab1c086ccca29a6cb6dcecacbf", "fusion_lat": 0.0, "is_reserved": 0, "lat": 38.928681833333336, "fusion_lon": 0.0, "is_disabled": 0}, {"rental_uris": {"android": "https://dc.lft.to/lastmile_qr_scan", "ios": "https://dc.lft.to/lastmile_qr_scan"}, "type": "electric_scooter", "lon": -77.02620716666667, "name": "8e3cc54211b6655ad00593ea4a04f14f", "bike_id": "8e3cc54211b6655ad00593ea4a04f14f", "fusion_lat": 0.0, "is_reserved": 0, "lat": 38.89299183333333, "fusion_lon": 0.0, "is_disabled": 0}, {"rental_uris": {"android": "https://dc.lft.to/lastmile_qr_scan", "ios": "https://dc.lft.to/lastmile_qr_scan"}, "type": "electric_scooter", "lon": -77.04342816666667, "name": "2450847a3d84ea9df34f6fdb45b82f52", "bike_id": "2450847a3d84ea9df34f6fdb45b82f52", "fusion_lat": 0.0, "is_reserved": 0, "lat": 38.90892733333333, "fusion_lon": 0.0, "is_disabled": 0}, {"rental_uris": {"android": "https://dc.lft.to/lastmile_qr_scan", "ios": "https://dc.lft.to/lastmile_qr_scan"}, "type": "electric_bike", "lon": -76.90535016666666, "name": "d0e148e5fdc09d9e27f19f36dc8ceef3", "bike_id": "d0e148e5fdc09d9e27f19f36dc8ceef3", "fusion_lat": 0.0, "is_reserved": 0, "lat": 38.897334, "fusion_lon": 0.0, "is_disabled": 0}, {"rental_uris": {"android": "https://dc.lft.to/lastmile_qr_scan", "ios": "https://dc.lft.to/lastmile_qr_scan"}, "type": "electric_scooter", "lon": -77.02527, "name": "9c185496dad131652085eea0462c21a1", "bike_id": "9c185496dad131652085eea0462c21a1", "fusion_lat": 0.0, "is_reserved": 0, "lat": 38.901003, "fusion_lon": 0.0, "is_disabled": 0}, {"rental_uris": {"android": "https://dc.lft.to/lastmile_qr_scan", "ios": "https://dc.lft.to/lastmile_qr_scan"}, "type": "electric_scooter", "lon": -77.02399016666666, "name": "062904452498d9387b5baf14a8ea4b71", "bike_id": "062904452498d9387b5baf14a8ea4b71", "fusion_lat": 0.0, "is_reserved": 0, "lat": 38.937016666666665, "fusion_lon": 0.0, "is_disabled": 0}, {"rental_uris": {"android": "https://dc.lft.to/lastmile_qr_scan", "ios": "https://dc.lft.to/lastmile_qr_scan"}, "type": "electric_scooter", "lon": -77.05517716666667, "name": "c82eb2c8dc8f3cb96d55010a44e2dbbb", "bike_id": "c82eb2c8dc8f3cb96d55010a44e2dbbb", "fusion_lat": 0.0, "is_reserved": 0, "lat": 38.94409566666667, "fusion_lon": 0.0, "is_disabled": 0}, {"rental_uris": {"android": "https://dc.lft.to/lastmile_qr_scan", "ios": "https://dc.lft.to/lastmile_qr_scan"}, "type": "electric_scooter", "lon": -77.0241495, "name": "6ecbc7b9ed8219f639f6980c52c82e7e", "bike_id": "6ecbc7b9ed8219f639f6980c52c82e7e", "fusion_lat": 0.0, "is_reserved": 0, "lat": 38.9095155, "fusion_lon": 0.0, "is_disabled": 0}, {"rental_uris": {"android": "https://dc.lft.to/lastmile_qr_scan", "ios": "https://dc.lft.to/lastmile_qr_scan"}, "type": "electric_scooter", "lon": -77.0326305, "name": "cd8ff30a002b6d6779145699d23f7f03", "bike_id": "cd8ff30a002b6d6779145699d23f7f03", "fusion_lat": 0.0, "is_reserved": 0, "lat": 38.90271, "fusion_lon": 0.0, "is_disabled": 0}, {"rental_uris": {"android": "https://dc.lft.to/lastmile_qr_scan", "ios": "https://dc.lft.to/lastmile_qr_scan"}, "type": "electric_scooter", "lon": -77.02170266666667, "name": "267e34d589c06233c9ed29c8768a4724", "bike_id": "267e34d589c06233c9ed29c8768a4724", "fusion_lat": 0.0, "is_reserved": 0, "lat": 38.88747166666667, "fusion_lon": 0.0, "is_disabled": 0}, {"rental_uris": {"android": "https://dc.lft.to/lastmile_qr_scan", "ios": "https://dc.lft.to/lastmile_qr_scan"}, "type": "electric_scooter", "lon": -77.0525435, "name": "36345a90f8183d81559a0138d786f986", "bike_id": "36345a90f8183d81559a0138d786f986", "fusion_lat": 0.0, "is_reserved": 0, "lat": 38.923738166666666, "fusion_lon": 0.0, "is_disabled": 0}, {"rental_uris": {"android": "https://dc.lft.to/lastmile_qr_scan", "ios": "https://dc.lft.to/lastmile_qr_scan"}, "type": "electric_bike", "lon": -76.9323175, "name": "69751ea92c824ed136de4f45d277c448", "bike_id": "69751ea92c824ed136de4f45d277c448", "fusion_lat": 0.0, "is_reserved": 0, "lat": 38.86593416666667, "fusion_lon": 0.0, "is_disabled": 0}, {"rental_uris": {"android": "https://dc.lft.to/lastmile_qr_scan", "ios": "https://dc.lft.to/lastmile_qr_scan"}, "type": "electric_scooter", "lon": -76.9951705, "name": "f124286e579a382b1b4cf21c98346238", "bike_id": "f124286e579a382b1b4cf21c98346238", "fusion_lat": 0.0, "is_reserved": 0, "lat": 38.89484266666667, "fusion_lon": 0.0, "is_disabled": 0}, {"rental_uris": {"android": "https://dc.lft.to/lastmile_qr_scan", "ios": "https://dc.lft.to/lastmile_qr_scan"}, "type": "electric_scooter", "lon": -77.00223716666666, "name": "985c987031affed2772be4e3559f6d98", "bike_id": "985c987031affed2772be4e3559f6d98", "fusion_lat": 0.0, "is_reserved": 0, "lat": 38.9572495, "fusion_lon": 0.0, "is_disabled": 0}, {"rental_uris": {"android": "https://dc.lft.to/lastmile_qr_scan", "ios": "https://dc.lft.to/lastmile_qr_scan"}, "type": "electric_scooter", "lon": -77.03423983333333, "name": "00b56030ed76050f1094add22b161c1e", "bike_id": "00b56030ed76050f1094add22b161c1e", "fusion_lat": 0.0, "is_reserved": 0, "lat": 38.919246, "fusion_lon": 0.0, "is_disabled": 0}, {"rental_uris": {"android": "https://dc.lft.to/lastmile_qr_scan", "ios": "https://dc.lft.to/lastmile_qr_scan"}, "type": "electric_scooter", "lon": -77.025531, "name": "9c995138c8f05a47409b05093a8ccca2", "bike_id": "9c995138c8f05a47409b05093a8ccca2", "fusion_lat": 0.0, "is_reserved": 0, "lat": 38.91704033333333, "fusion_lon": 0.0, "is_disabled": 0}, {"rental_uris": {"android": "https://dc.lft.to/lastmile_qr_scan", "ios": "https://dc.lft.to/lastmile_qr_scan"}, "type": "electric_scooter", "lon": -77.00614116666667, "name": "fa055971952a25d765315fa781578158", "bike_id": "fa055971952a25d765315fa781578158", "fusion_lat": 0.0, "is_reserved": 0, "lat": 38.874605, "fusion_lon": 0.0, "is_disabled": 0}, {"rental_uris": {"android": "https://dc.lft.to/lastmile_qr_scan", "ios": "https://dc.lft.to/lastmile_qr_scan"}, "type": "electric_scooter", "lon": -77.04550916666666, "name": "60dec7f4c222194217e4afc53f4dddff", "bike_id": "60dec7f4c222194217e4afc53f4dddff", "fusion_lat": 0.0, "is_reserved": 0, "lat": 38.9085665, "fusion_lon": 0.0, "is_disabled": 0}, {"rental_uris": {"android": "https://dc.lft.to/lastmile_qr_scan", "ios": "https://dc.lft.to/lastmile_qr_scan"}, "type": "electric_scooter", "lon": -77.04566116666666, "name": "09562e30cfd37d52a2e84300c2fcf94b", "bike_id": "09562e30cfd37d52a2e84300c2fcf94b", "fusion_lat": 0.0, "is_reserved": 0, "lat": 38.914949, "fusion_lon": 0.0, "is_disabled": 0}, {"rental_uris": {"android": "https://dc.lft.to/lastmile_qr_scan", "ios": "https://dc.lft.to/lastmile_qr_scan"}, "type": "electric_scooter", "lon": -77.026889, "name": "b74368cef6d459661c809cc0ceeab3b4", "bike_id": "b74368cef6d459661c809cc0ceeab3b4", "fusion_lat": 0.0, "is_reserved": 0, "lat": 38.8964365, "fusion_lon": 0.0, "is_disabled": 0}, {"rental_uris": {"android": "https://dc.lft.to/lastmile_qr_scan", "ios": "https://dc.lft.to/lastmile_qr_scan"}, "type": "electric_scooter", "lon": -77.02651166666666, "name": "99a7b880262a7674202fc058167a80fa", "bike_id": "99a7b880262a7674202fc058167a80fa", "fusion_lat": 0.0, "is_reserved": 0, "lat": 38.89758916666667, "fusion_lon": 0.0, "is_disabled": 0}, {"rental_uris": {"android": "https://dc.lft.to/lastmile_qr_scan", "ios": "https://dc.lft.to/lastmile_qr_scan"}, "type": "electric_scooter", "lon": -77.03175516666667, "name": "764a6997c0417300c593e36d33884ca8", "bike_id": "764a6997c0417300c593e36d33884ca8", "fusion_lat": 0.0, "is_reserved": 0, "lat": 38.91304916666667, "fusion_lon": 0.0, "is_disabled": 0}, {"rental_uris": {"android": "https://dc.lft.to/lastmile_qr_scan", "ios": "https://dc.lft.to/lastmile_qr_scan"}, "type": "electric_scooter", "lon": -77.00929466666666, "name": "45117e8053a9d0f7926a451ad62e300f", "bike_id": "45117e8053a9d0f7926a451ad62e300f", "fusion_lat": 0.0, "is_reserved": 0, "lat": 38.9125245, "fusion_lon": 0.0, "is_disabled": 0}, {"rental_uris": {"android": "https://dc.lft.to/lastmile_qr_scan", "ios": "https://dc.lft.to/lastmile_qr_scan"}, "type": "electric_bike", "lon": -77.12963866666666, "name": "b9eaeee6387d3999e07945d121f33ebb", "bike_id": "b9eaeee6387d3999e07945d121f33ebb", "fusion_lat": 0.0, "is_reserved": 0, "lat": 38.8521625, "fusion_lon": 0.0, "is_disabled": 0}, {"rental_uris": {"android": "https://dc.lft.to/lastmile_qr_scan", "ios": "https://dc.lft.to/lastmile_qr_scan"}, "type": "electric_scooter", "lon": -77.00574216666666, "name": "5ab178573af4c02d47b62a253f9a0cd8", "bike_id": "5ab178573af4c02d47b62a253f9a0cd8", "fusion_lat": 0.0, "is_reserved": 0, "lat": 38.90562766666667, "fusion_lon": 0.0, "is_disabled": 0}, {"rental_uris": {"android": "https://dc.lft.to/lastmile_qr_scan", "ios": "https://dc.lft.to/lastmile_qr_scan"}, "type": "electric_scooter", "lon": -77.073244, "name": "4a2ec2af824afce919fc3f4315843eed", "bike_id": "4a2ec2af824afce919fc3f4315843eed", "fusion_lat": 0.0, "is_reserved": 0, "lat": 38.93349516666667, "fusion_lon": 0.0, "is_disabled": 0}, {"rental_uris": {"android": "https://dc.lft.to/lastmile_qr_scan", "ios": "https://dc.lft.to/lastmile_qr_scan"}, "type": "electric_scooter", "lon": -77.07318333333333, "name": "587208c67bd95ceaab3de2cb6a51a943", "bike_id": "587208c67bd95ceaab3de2cb6a51a943", "fusion_lat": 0.0, "is_reserved": 0, "lat": 38.9119965, "fusion_lon": 0.0, "is_disabled": 0}, {"rental_uris": {"android": "https://dc.lft.to/lastmile_qr_scan", "ios": "https://dc.lft.to/lastmile_qr_scan"}, "type": "electric_scooter", "lon": -76.99228066666667, "name": "a880fbe267c609a213620a56909ef4e7", "bike_id": "a880fbe267c609a213620a56909ef4e7", "fusion_lat": 0.0, "is_reserved": 0, "lat": 38.898833833333335, "fusion_lon": 0.0, "is_disabled": 0}, {"rental_uris": {"android": "https://dc.lft.to/lastmile_qr_scan", "ios": "https://dc.lft.to/lastmile_qr_scan"}, "type": "electric_scooter", "lon": -77.027118, "name": "e902e0ceaf077a4986e378d491c670cc", "bike_id": "e902e0ceaf077a4986e378d491c670cc", "fusion_lat": 0.0, "is_reserved": 0, "lat": 38.8813375, "fusion_lon": 0.0, "is_disabled": 0}, {"rental_uris": {"android": "https://dc.lft.to/lastmile_qr_scan", "ios": "https://dc.lft.to/lastmile_qr_scan"}, "type": "electric_scooter", "lon": -77.0034825, "name": "4a0cdddecf9e0e667554104d89034c14", "bike_id": "4a0cdddecf9e0e667554104d89034c14", "fusion_lat": 0.0, "is_reserved": 0, "lat": 38.891600333333336, "fusion_lon": 0.0, "is_disabled": 0}, {"rental_uris": {"android": "https://dc.lft.to/lastmile_qr_scan", "ios": "https://dc.lft.to/lastmile_qr_scan"}, "type": "electric_scooter", "lon": -77.02327066666666, "name": "86468c6d670195c970dffc5724ead566", "bike_id": "86468c6d670195c970dffc5724ead566", "fusion_lat": 0.0, "is_reserved": 0, "lat": 38.927063, "fusion_lon": 0.0, "is_disabled": 0}, {"rental_uris": {"android": "https://dc.lft.to/lastmile_qr_scan", "ios": "https://dc.lft.to/lastmile_qr_scan"}, "type": "electric_scooter", "lon": -77.04891733333334, "name": "ebf997196cb1522d45413b78ac04e192", "bike_id": "ebf997196cb1522d45413b78ac04e192", "fusion_lat": 0.0, "is_reserved": 0, "lat": 38.905792, "fusion_lon": 0.0, "is_disabled": 0}, {"rental_uris": {"android": "https://dc.lft.to/lastmile_qr_scan", "ios": "https://dc.lft.to/lastmile_qr_scan"}, "type": "electric_bike", "lon": -77.09022433333334, "name": "999c87be6af5b7c7bf2d858d3bc7b919", "bike_id": "999c87be6af5b7c7bf2d858d3bc7b919", "fusion_lat": 0.0, "is_reserved": 0, "lat": 38.84116316666667, "fusion_lon": 0.0, "is_disabled": 0}, {"rental_uris": {"android": "https://dc.lft.to/lastmile_qr_scan", "ios": "https://dc.lft.to/lastmile_qr_scan"}, "type": "electric_scooter", "lon": -77.03188616666667, "name": "a742cc9de045370aa3b36b225452cc06", "bike_id": "a742cc9de045370aa3b36b225452cc06", "fusion_lat": 0.0, "is_reserved": 0, "lat": 38.893860833333335, "fusion_lon": 0.0, "is_disabled": 0}, {"rental_uris": {"android": "https://dc.lft.to/lastmile_qr_scan", "ios": "https://dc.lft.to/lastmile_qr_scan"}, "type": "electric_bike", "lon": -77.19906583333334, "name": "71b466cec0f6c694e7c464113cfe6585", "bike_id": "71b466cec0f6c694e7c464113cfe6585", "fusion_lat": 0.0, "is_reserved": 0, "lat": 38.87529583333333, "fusion_lon": 0.0, "is_disabled": 0}, {"rental_uris": {"android": "https://dc.lft.to/lastmile_qr_scan", "ios": "https://dc.lft.to/lastmile_qr_scan"}, "type": "electric_scooter", "lon": -77.04089166666667, "name": "7f2784cddca92dc062e679b5e837baa8", "bike_id": "7f2784cddca92dc062e679b5e837baa8", "fusion_lat": 0.0, "is_reserved": 0, "lat": 38.91115966666667, "fusion_lon": 0.0, "is_disabled": 0}, {"rental_uris": {"android": "https://dc.lft.to/lastmile_qr_scan", "ios": "https://dc.lft.to/lastmile_qr_scan"}, "type": "electric_scooter", "lon": -77.03892416666666, "name": "cdcddeab5fb6847dc9e3fc754a0f482f", "bike_id": "cdcddeab5fb6847dc9e3fc754a0f482f", "fusion_lat": 0.0, "is_reserved": 0, "lat": 38.934078666666665, "fusion_lon": 0.0, "is_disabled": 0}, {"rental_uris": {"android": "https://dc.lft.to/lastmile_qr_scan", "ios": "https://dc.lft.to/lastmile_qr_scan"}, "type": "electric_bike", "lon": -77.14987883333333, "name": "3419d3fd5a47a49cde65b1d8e5dfe7a3", "bike_id": "3419d3fd5a47a49cde65b1d8e5dfe7a3", "fusion_lat": 0.0, "is_reserved": 0, "lat": 39.09459916666667, "fusion_lon": 0.0, "is_disabled": 0}, {"rental_uris": {"android": "https://dc.lft.to/lastmile_qr_scan", "ios": "https://dc.lft.to/lastmile_qr_scan"}, "type": "electric_scooter", "lon": -77.00519033333333, "name": "f5bbec7d743d6eae67c98cafaf3233c3", "bike_id": "f5bbec7d743d6eae67c98cafaf3233c3", "fusion_lat": 0.0, "is_reserved": 0, "lat": 38.92598916666667, "fusion_lon": 0.0, "is_disabled": 0}, {"rental_uris": {"android": "https://dc.lft.to/lastmile_qr_scan", "ios": "https://dc.lft.to/lastmile_qr_scan"}, "type": "electric_scooter", "lon": -77.0081325, "name": "64908d2a4becb3783876603e9130099a", "bike_id": "64908d2a4becb3783876603e9130099a", "fusion_lat": 0.0, "is_reserved": 0, "lat": 38.876524, "fusion_lon": 0.0, "is_disabled": 0}, {"rental_uris": {"android": "https://dc.lft.to/lastmile_qr_scan", "ios": "https://dc.lft.to/lastmile_qr_scan"}, "type": "electric_scooter", "lon": -77.03210283333334, "name": "0b032630bf6eb6c85fee677a8b02bcbe", "bike_id": "0b032630bf6eb6c85fee677a8b02bcbe", "fusion_lat": 0.0, "is_reserved": 0, "lat": 38.918655666666666, "fusion_lon": 0.0, "is_disabled": 0}, {"rental_uris": {"android": "https://dc.lft.to/lastmile_qr_scan", "ios": "https://dc.lft.to/lastmile_qr_scan"}, "type": "electric_scooter", "lon": -77.02501716666667, "name": "cdc3390cab63aafe96c8a10fe5ce3cdf", "bike_id": "cdc3390cab63aafe96c8a10fe5ce3cdf", "fusion_lat": 0.0, "is_reserved": 0, "lat": 38.941996333333336, "fusion_lon": 0.0, "is_disabled": 0}, {"rental_uris": {"android": "https://dc.lft.to/lastmile_qr_scan", "ios": "https://dc.lft.to/lastmile_qr_scan"}, "type": "electric_scooter", "lon": -76.98263783333333, "name": "c39c0344c09259aba099cbfc03f75b0a", "bike_id": "c39c0344c09259aba099cbfc03f75b0a", "fusion_lat": 0.0, "is_reserved": 0, "lat": 38.863504, "fusion_lon": 0.0, "is_disabled": 0}, {"rental_uris": {"android": "https://dc.lft.to/lastmile_qr_scan", "ios": "https://dc.lft.to/lastmile_qr_scan"}, "type": "electric_scooter", "lon": -77.02759633333334, "name": "70120d43ea518bd929d6b2de6a83a7d1", "bike_id": "70120d43ea518bd929d6b2de6a83a7d1", "fusion_lat": 0.0, "is_reserved": 0, "lat": 38.953938, "fusion_lon": 0.0, "is_disabled": 0}, {"rental_uris": {"android": "https://dc.lft.to/lastmile_qr_scan", "ios": "https://dc.lft.to/lastmile_qr_scan"}, "type": "electric_scooter", "lon": -77.05522616666667, "name": "3ac3d16fd1ab1bb4c1d76809b199b0b4", "bike_id": "3ac3d16fd1ab1bb4c1d76809b199b0b4", "fusion_lat": 0.0, "is_reserved": 0, "lat": 38.929626, "fusion_lon": 0.0, "is_disabled": 0}, {"rental_uris": {"android": "https://dc.lft.to/lastmile_qr_scan", "ios": "https://dc.lft.to/lastmile_qr_scan"}, "type": "electric_scooter", "lon": -77.04108516666666, "name": "59ac835c35816e2a9fd406b609defbc5", "bike_id": "59ac835c35816e2a9fd406b609defbc5", "fusion_lat": 0.0, "is_reserved": 0, "lat": 38.916982, "fusion_lon": 0.0, "is_disabled": 0}, {"rental_uris": {"android": "https://dc.lft.to/lastmile_qr_scan", "ios": "https://dc.lft.to/lastmile_qr_scan"}, "type": "electric_scooter", "lon": -76.98471966666666, "name": "168b53d832a3d609ff3f89c0f179e9f3", "bike_id": "168b53d832a3d609ff3f89c0f179e9f3", "fusion_lat": 0.0, "is_reserved": 0, "lat": 38.9289705, "fusion_lon": 0.0, "is_disabled": 0}, {"rental_uris": {"android": "https://dc.lft.to/lastmile_qr_scan", "ios": "https://dc.lft.to/lastmile_qr_scan"}, "type": "electric_bike", "lon": -76.9546565, "name": "7c375c7c2c698a35861f2a735e65444a", "bike_id": "7c375c7c2c698a35861f2a735e65444a", "fusion_lat": 0.0, "is_reserved": 0, "lat": 38.93566383333334, "fusion_lon": 0.0, "is_disabled": 0}, {"rental_uris": {"android": "https://dc.lft.to/lastmile_qr_scan", "ios": "https://dc.lft.to/lastmile_qr_scan"}, "type": "electric_scooter", "lon": -76.97619216666666, "name": "19d1484f994c95ee3496a0d9be5eed15", "bike_id": "19d1484f994c95ee3496a0d9be5eed15", "fusion_lat": 0.0, "is_reserved": 0, "lat": 38.931382166666666, "fusion_lon": 0.0, "is_disabled": 0}, {"rental_uris": {"android": "https://dc.lft.to/lastmile_qr_scan", "ios": "https://dc.lft.to/lastmile_qr_scan"}, "type": "electric_scooter", "lon": -76.98533683333333, "name": "e1b25d66c9392bbcd30b67a6bb062b90", "bike_id": "e1b25d66c9392bbcd30b67a6bb062b90", "fusion_lat": 0.0, "is_reserved": 0, "lat": 38.880801, "fusion_lon": 0.0, "is_disabled": 0}, {"rental_uris": {"android": "https://dc.lft.to/lastmile_qr_scan", "ios": "https://dc.lft.to/lastmile_qr_scan"}, "type": "electric_bike", "lon": -77.0290195, "name": "a5fa065fe661fb17709e1d7ba29816cb", "bike_id": "a5fa065fe661fb17709e1d7ba29816cb", "fusion_lat": 0.0, "is_reserved": 0, "lat": 38.891961, "fusion_lon": 0.0, "is_disabled": 0}, {"rental_uris": {"android": "https://dc.lft.to/lastmile_qr_scan", "ios": "https://dc.lft.to/lastmile_qr_scan"}, "type": "electric_bike", "lon": -76.9567825, "name": "f9918ae02f032ee0d407b4e41e09fddb", "bike_id": "f9918ae02f032ee0d407b4e41e09fddb", "fusion_lat": 0.0, "is_reserved": 0, "lat": 38.9472705, "fusion_lon": 0.0, "is_disabled": 0}, {"rental_uris": {"android": "https://dc.lft.to/lastmile_qr_scan", "ios": "https://dc.lft.to/lastmile_qr_scan"}, "type": "electric_scooter", "lon": -77.0030745, "name": "845ca60f56d957b93180881aa6ddeeae", "bike_id": "845ca60f56d957b93180881aa6ddeeae", "fusion_lat": 0.0, "is_reserved": 0, "lat": 38.892258166666664, "fusion_lon": 0.0, "is_disabled": 0}, {"rental_uris": {"android": "https://dc.lft.to/lastmile_qr_scan", "ios": "https://dc.lft.to/lastmile_qr_scan"}, "type": "electric_scooter", "lon": -76.95107183333333, "name": "ad21439dea2e5fdf036291a31a9776cd", "bike_id": "ad21439dea2e5fdf036291a31a9776cd", "fusion_lat": 0.0, "is_reserved": 0, "lat": 38.88790183333333, "fusion_lon": 0.0, "is_disabled": 0}, {"rental_uris": {"android": "https://dc.lft.to/lastmile_qr_scan", "ios": "https://dc.lft.to/lastmile_qr_scan"}, "type": "electric_scooter", "lon": -77.00600116666666, "name": "22df4d0cbc8cb820dca493ac75a37816", "bike_id": "22df4d0cbc8cb820dca493ac75a37816", "fusion_lat": 0.0, "is_reserved": 0, "lat": 38.905537333333335, "fusion_lon": 0.0, "is_disabled": 0}, {"rental_uris": {"android": "https://dc.lft.to/lastmile_qr_scan", "ios": "https://dc.lft.to/lastmile_qr_scan"}, "type": "electric_scooter", "lon": -76.98473133333333, "name": "7fb59090cf9ae6713ad8c68c4da11441", "bike_id": "7fb59090cf9ae6713ad8c68c4da11441", "fusion_lat": 0.0, "is_reserved": 0, "lat": 38.90858716666666, "fusion_lon": 0.0, "is_disabled": 0}, {"rental_uris": {"android": "https://dc.lft.to/lastmile_qr_scan", "ios": "https://dc.lft.to/lastmile_qr_scan"}, "type": "electric_scooter", "lon": -77.01870633333333, "name": "03258fe89d00056c918a3b2bda49538e", "bike_id": "03258fe89d00056c918a3b2bda49538e", "fusion_lat": 0.0, "is_reserved": 0, "lat": 38.89974216666667, "fusion_lon": 0.0, "is_disabled": 0}, {"rental_uris": {"android": "https://dc.lft.to/lastmile_qr_scan", "ios": "https://dc.lft.to/lastmile_qr_scan"}, "type": "electric_scooter", "lon": -77.03217316666667, "name": "b6193e60ad75b5038eed3ced642b6b41", "bike_id": "b6193e60ad75b5038eed3ced642b6b41", "fusion_lat": 0.0, "is_reserved": 0, "lat": 38.904445, "fusion_lon": 0.0, "is_disabled": 0}, {"rental_uris": {"android": "https://dc.lft.to/lastmile_qr_scan", "ios": "https://dc.lft.to/lastmile_qr_scan"}, "type": "electric_scooter", "lon": -77.01951783333334, "name": "d03077c30d59c9c7b04ed0104ecc4b7b", "bike_id": "d03077c30d59c9c7b04ed0104ecc4b7b", "fusion_lat": 0.0, "is_reserved": 0, "lat": 38.92250333333333, "fusion_lon": 0.0, "is_disabled": 0}, {"rental_uris": {"android": "https://dc.lft.to/lastmile_qr_scan", "ios": "https://dc.lft.to/lastmile_qr_scan"}, "type": "electric_scooter", "lon": -77.02976183333334, "name": "a9c25051136ae6a32a8bc22ddf330661", "bike_id": "a9c25051136ae6a32a8bc22ddf330661", "fusion_lat": 0.0, "is_reserved": 0, "lat": 38.905100166666664, "fusion_lon": 0.0, "is_disabled": 0}, {"rental_uris": {"android": "https://dc.lft.to/lastmile_qr_scan", "ios": "https://dc.lft.to/lastmile_qr_scan"}, "type": "electric_scooter", "lon": -77.021734, "name": "df8db240a322b5cf8c2294f4919ef4b0", "bike_id": "df8db240a322b5cf8c2294f4919ef4b0", "fusion_lat": 0.0, "is_reserved": 0, "lat": 38.8961925, "fusion_lon": 0.0, "is_disabled": 0}, {"rental_uris": {"android": "https://dc.lft.to/lastmile_qr_scan", "ios": "https://dc.lft.to/lastmile_qr_scan"}, "type": "electric_scooter", "lon": -77.03163, "name": "ab3b2a33d9e0025eaac551dd09346f92", "bike_id": "ab3b2a33d9e0025eaac551dd09346f92", "fusion_lat": 0.0, "is_reserved": 0, "lat": 38.8996615, "fusion_lon": 0.0, "is_disabled": 0}, {"rental_uris": {"android": "https://dc.lft.to/lastmile_qr_scan", "ios": "https://dc.lft.to/lastmile_qr_scan"}, "type": "electric_scooter", "lon": -77.04336883333333, "name": "acc6be69f6850fe2ee3100740f8bf6b6", "bike_id": "acc6be69f6850fe2ee3100740f8bf6b6", "fusion_lat": 0.0, "is_reserved": 0, "lat": 38.90498316666667, "fusion_lon": 0.0, "is_disabled": 0}, {"rental_uris": {"android": "https://dc.lft.to/lastmile_qr_scan", "ios": "https://dc.lft.to/lastmile_qr_scan"}, "type": "electric_scooter", "lon": -76.994589, "name": "0c173981bafed9bed053968128620aaf", "bike_id": "0c173981bafed9bed053968128620aaf", "fusion_lat": 0.0, "is_reserved": 0, "lat": 38.851632333333335, "fusion_lon": 0.0, "is_disabled": 0}, {"rental_uris": {"android": "https://dc.lft.to/lastmile_qr_scan", "ios": "https://dc.lft.to/lastmile_qr_scan"}, "type": "electric_bike", "lon": -76.9816095, "name": "517c4bf9037d70a6a0d7714736a9a431", "bike_id": "517c4bf9037d70a6a0d7714736a9a431", "fusion_lat": 0.0, "is_reserved": 0, "lat": 38.95962266666667, "fusion_lon": 0.0, "is_disabled": 0}, {"rental_uris": {"android": "https://dc.lft.to/lastmile_qr_scan", "ios": "https://dc.lft.to/lastmile_qr_scan"}, "type": "electric_scooter", "lon": -77.00365133333334, "name": "a01c9c27a4113954c865828200094e06", "bike_id": "a01c9c27a4113954c865828200094e06", "fusion_lat": 0.0, "is_reserved": 0, "lat": 38.91754733333333, "fusion_lon": 0.0, "is_disabled": 0}, {"rental_uris": {"android": "https://dc.lft.to/lastmile_qr_scan", "ios": "https://dc.lft.to/lastmile_qr_scan"}, "type": "electric_scooter", "lon": -77.03285166666667, "name": "c78000a396f30831de55e38c5582ecc9", "bike_id": "c78000a396f30831de55e38c5582ecc9", "fusion_lat": 0.0, "is_reserved": 0, "lat": 38.92835316666667, "fusion_lon": 0.0, "is_disabled": 0}, {"rental_uris": {"android": "https://dc.lft.to/lastmile_qr_scan", "ios": "https://dc.lft.to/lastmile_qr_scan"}, "type": "electric_scooter", "lon": -76.93262483333334, "name": "a7de727c25fafd1bb90b71226688fab6", "bike_id": "a7de727c25fafd1bb90b71226688fab6", "fusion_lat": 0.0, "is_reserved": 0, "lat": 38.887715, "fusion_lon": 0.0, "is_disabled": 0}, {"rental_uris": {"android": "https://dc.lft.to/lastmile_qr_scan", "ios": "https://dc.lft.to/lastmile_qr_scan"}, "type": "electric_bike", "lon": -77.08044783333334, "name": "219ef1d3a066e344732ed1cbeae5219b", "bike_id": "219ef1d3a066e344732ed1cbeae5219b", "fusion_lat": 0.0, "is_reserved": 0, "lat": 38.84846066666667, "fusion_lon": 0.0, "is_disabled": 0}, {"rental_uris": {"android": "https://dc.lft.to/lastmile_qr_scan", "ios": "https://dc.lft.to/lastmile_qr_scan"}, "type": "electric_scooter", "lon": -76.98611616666666, "name": "d88e01e9265aafd3280456522751560d", "bike_id": "d88e01e9265aafd3280456522751560d", "fusion_lat": 0.0, "is_reserved": 0, "lat": 38.906913333333335, "fusion_lon": 0.0, "is_disabled": 0}, {"rental_uris": {"android": "https://dc.lft.to/lastmile_qr_scan", "ios": "https://dc.lft.to/lastmile_qr_scan"}, "type": "electric_scooter", "lon": -77.04667933333333, "name": "9ad75a43be2554205d0a79e13bd8fd96", "bike_id": "9ad75a43be2554205d0a79e13bd8fd96", "fusion_lat": 0.0, "is_reserved": 0, "lat": 38.8991255, "fusion_lon": 0.0, "is_disabled": 0}, {"rental_uris": {"android": "https://dc.lft.to/lastmile_qr_scan", "ios": "https://dc.lft.to/lastmile_qr_scan"}, "type": "electric_scooter", "lon": -77.01111716666666, "name": "3101aae6dd9d3b4139b04b3b6598a213", "bike_id": "3101aae6dd9d3b4139b04b3b6598a213", "fusion_lat": 0.0, "is_reserved": 0, "lat": 38.87085166666667, "fusion_lon": 0.0, "is_disabled": 0}, {"rental_uris": {"android": "https://dc.lft.to/lastmile_qr_scan", "ios": "https://dc.lft.to/lastmile_qr_scan"}, "type": "electric_scooter", "lon": -77.01522666666666, "name": "e350e50289af5fa51d8280ee9a19dabd", "bike_id": "e350e50289af5fa51d8280ee9a19dabd", "fusion_lat": 0.0, "is_reserved": 0, "lat": 38.913584166666666, "fusion_lon": 0.0, "is_disabled": 0}, {"rental_uris": {"android": "https://dc.lft.to/lastmile_qr_scan", "ios": "https://dc.lft.to/lastmile_qr_scan"}, "type": "electric_scooter", "lon": -77.03899516666667, "name": "2882e7331801827fe262a12168cbd524", "bike_id": "2882e7331801827fe262a12168cbd524", "fusion_lat": 0.0, "is_reserved": 0, "lat": 38.93239333333333, "fusion_lon": 0.0, "is_disabled": 0}, {"rental_uris": {"android": "https://dc.lft.to/lastmile_qr_scan", "ios": "https://dc.lft.to/lastmile_qr_scan"}, "type": "electric_scooter", "lon": -77.024002, "name": "ef5065e9aa1332c16d81b4383aacde53", "bike_id": "ef5065e9aa1332c16d81b4383aacde53", "fusion_lat": 0.0, "is_reserved": 0, "lat": 38.907135333333336, "fusion_lon": 0.0, "is_disabled": 0}, {"rental_uris": {"android": "https://dc.lft.to/lastmile_qr_scan", "ios": "https://dc.lft.to/lastmile_qr_scan"}, "type": "electric_scooter", "lon": -77.02117033333333, "name": "874b908eddfaf2851f16d0db02b7d37c", "bike_id": "874b908eddfaf2851f16d0db02b7d37c", "fusion_lat": 0.0, "is_reserved": 0, "lat": 38.9301395, "fusion_lon": 0.0, "is_disabled": 0}, {"rental_uris": {"android": "https://dc.lft.to/lastmile_qr_scan", "ios": "https://dc.lft.to/lastmile_qr_scan"}, "type": "electric_scooter", "lon": -77.04347433333334, "name": "a9c45d91970c54618a2e225bbe82bd9a", "bike_id": "a9c45d91970c54618a2e225bbe82bd9a", "fusion_lat": 0.0, "is_reserved": 0, "lat": 38.91041116666667, "fusion_lon": 0.0, "is_disabled": 0}, {"rental_uris": {"android": "https://dc.lft.to/lastmile_qr_scan", "ios": "https://dc.lft.to/lastmile_qr_scan"}, "type": "electric_scooter", "lon": -77.043253, "name": "300d134cf3a8895f602ba083091848a8", "bike_id": "300d134cf3a8895f602ba083091848a8", "fusion_lat": 0.0, "is_reserved": 0, "lat": 38.90371966666667, "fusion_lon": 0.0, "is_disabled": 0}, {"rental_uris": {"android": "https://dc.lft.to/lastmile_qr_scan", "ios": "https://dc.lft.to/lastmile_qr_scan"}, "type": "electric_scooter", "lon": -77.03876283333334, "name": "0f6389cc362dda7b8d89f73ec1c60548", "bike_id": "0f6389cc362dda7b8d89f73ec1c60548", "fusion_lat": 0.0, "is_reserved": 0, "lat": 38.93431366666667, "fusion_lon": 0.0, "is_disabled": 0}, {"rental_uris": {"android": "https://dc.lft.to/lastmile_qr_scan", "ios": "https://dc.lft.to/lastmile_qr_scan"}, "type": "electric_scooter", "lon": -77.05016833333333, "name": "b9a70d6209653dc9c4e992b519a46600", "bike_id": "b9a70d6209653dc9c4e992b519a46600", "fusion_lat": 0.0, "is_reserved": 0, "lat": 38.90768166666667, "fusion_lon": 0.0, "is_disabled": 0}, {"rental_uris": {"android": "https://dc.lft.to/lastmile_qr_scan", "ios": "https://dc.lft.to/lastmile_qr_scan"}, "type": "electric_scooter", "lon": -77.00595933333334, "name": "5aaae80daa0de156b96f3fb5e0c10597", "bike_id": "5aaae80daa0de156b96f3fb5e0c10597", "fusion_lat": 0.0, "is_reserved": 0, "lat": 38.885163666666664, "fusion_lon": 0.0, "is_disabled": 0}, {"rental_uris": {"android": "https://dc.lft.to/lastmile_qr_scan", "ios": "https://dc.lft.to/lastmile_qr_scan"}, "type": "electric_bike", "lon": -77.05114683333333, "name": "626a81295830bc38801c13404bd4c0ce", "bike_id": "626a81295830bc38801c13404bd4c0ce", "fusion_lat": 0.0, "is_reserved": 0, "lat": 38.94553583333333, "fusion_lon": 0.0, "is_disabled": 0}, {"rental_uris": {"android": "https://dc.lft.to/lastmile_qr_scan", "ios": "https://dc.lft.to/lastmile_qr_scan"}, "type": "electric_scooter", "lon": -77.03449083333334, "name": "2fd4dc50b468ac11ed6f151f3c8a2f2f", "bike_id": "2fd4dc50b468ac11ed6f151f3c8a2f2f", "fusion_lat": 0.0, "is_reserved": 0, "lat": 38.904358, "fusion_lon": 0.0, "is_disabled": 0}, {"rental_uris": {"android": "https://dc.lft.to/lastmile_qr_scan", "ios": "https://dc.lft.to/lastmile_qr_scan"}, "type": "electric_scooter", "lon": -77.02828733333334, "name": "24a72f7998222b88a216c4378864139e", "bike_id": "24a72f7998222b88a216c4378864139e", "fusion_lat": 0.0, "is_reserved": 0, "lat": 38.95083866666667, "fusion_lon": 0.0, "is_disabled": 0}, {"rental_uris": {"android": "https://dc.lft.to/lastmile_qr_scan", "ios": "https://dc.lft.to/lastmile_qr_scan"}, "type": "electric_bike", "lon": -77.069869, "name": "a5f7d3142c2dcdf597a4e8276a3df348", "bike_id": "a5f7d3142c2dcdf597a4e8276a3df348", "fusion_lat": 0.0, "is_reserved": 0, "lat": 38.95273666666667, "fusion_lon": 0.0, "is_disabled": 0}, {"rental_uris": {"android": "https://dc.lft.to/lastmile_qr_scan", "ios": "https://dc.lft.to/lastmile_qr_scan"}, "type": "electric_scooter", "lon": -76.99658916666667, "name": "c905cc349c403a9ab4a28ec86a4893c7", "bike_id": "c905cc349c403a9ab4a28ec86a4893c7", "fusion_lat": 0.0, "is_reserved": 0, "lat": 38.89881716666667, "fusion_lon": 0.0, "is_disabled": 0}, {"rental_uris": {"android": "https://dc.lft.to/lastmile_qr_scan", "ios": "https://dc.lft.to/lastmile_qr_scan"}, "type": "electric_bike", "lon": -76.99059916666667, "name": "da1fc3d69e10a55415ec2d3084eb6ca9", "bike_id": "da1fc3d69e10a55415ec2d3084eb6ca9", "fusion_lat": 0.0, "is_reserved": 0, "lat": 38.9369175, "fusion_lon": 0.0, "is_disabled": 0}, {"rental_uris": {"android": "https://dc.lft.to/lastmile_qr_scan", "ios": "https://dc.lft.to/lastmile_qr_scan"}, "type": "electric_scooter", "lon": -77.034392, "name": "7abe55e0a4a64c5dac3edb0b0d569712", "bike_id": "7abe55e0a4a64c5dac3edb0b0d569712", "fusion_lat": 0.0, "is_reserved": 0, "lat": 38.9065715, "fusion_lon": 0.0, "is_disabled": 0}, {"rental_uris": {"android": "https://dc.lft.to/lastmile_qr_scan", "ios": "https://dc.lft.to/lastmile_qr_scan"}, "type": "electric_scooter", "lon": -77.02467283333333, "name": "f57d6cc7952cf593e2b8762b0403f2c0", "bike_id": "f57d6cc7952cf593e2b8762b0403f2c0", "fusion_lat": 0.0, "is_reserved": 0, "lat": 38.93872133333333, "fusion_lon": 0.0, "is_disabled": 0}, {"rental_uris": {"android": "https://dc.lft.to/lastmile_qr_scan", "ios": "https://dc.lft.to/lastmile_qr_scan"}, "type": "electric_scooter", "lon": -77.01754766666667, "name": "a945fe0ee1c00feb5862e72a7ca8fce8", "bike_id": "a945fe0ee1c00feb5862e72a7ca8fce8", "fusion_lat": 0.0, "is_reserved": 0, "lat": 38.9135505, "fusion_lon": 0.0, "is_disabled": 0}, {"rental_uris": {"android": "https://dc.lft.to/lastmile_qr_scan", "ios": "https://dc.lft.to/lastmile_qr_scan"}, "type": "electric_scooter", "lon": -77.02700983333334, "name": "cec859f03a8180f1bfb7c54c793ee0c9", "bike_id": "cec859f03a8180f1bfb7c54c793ee0c9", "fusion_lat": 0.0, "is_reserved": 0, "lat": 38.918122, "fusion_lon": 0.0, "is_disabled": 0}, {"rental_uris": {"android": "https://dc.lft.to/lastmile_qr_scan", "ios": "https://dc.lft.to/lastmile_qr_scan"}, "type": "electric_scooter", "lon": -77.045074, "name": "30cdfd4698132556d21835c89825a00e", "bike_id": "30cdfd4698132556d21835c89825a00e", "fusion_lat": 0.0, "is_reserved": 0, "lat": 38.892205, "fusion_lon": 0.0, "is_disabled": 0}, {"rental_uris": {"android": "https://dc.lft.to/lastmile_qr_scan", "ios": "https://dc.lft.to/lastmile_qr_scan"}, "type": "electric_scooter", "lon": -77.00885, "name": "7390966d0154f3f7ea91f7727cd33945", "bike_id": "7390966d0154f3f7ea91f7727cd33945", "fusion_lat": 0.0, "is_reserved": 0, "lat": 38.873606, "fusion_lon": 0.0, "is_disabled": 0}, {"rental_uris": {"android": "https://dc.lft.to/lastmile_qr_scan", "ios": "https://dc.lft.to/lastmile_qr_scan"}, "type": "electric_scooter", "lon": -77.04832016666667, "name": "7f9d90fa46310df1a3f271cacbb4c020", "bike_id": "7f9d90fa46310df1a3f271cacbb4c020", "fusion_lat": 0.0, "is_reserved": 0, "lat": 38.911393833333335, "fusion_lon": 0.0, "is_disabled": 0}, {"rental_uris": {"android": "https://dc.lft.to/lastmile_qr_scan", "ios": "https://dc.lft.to/lastmile_qr_scan"}, "type": "electric_scooter", "lon": -77.03214566666666, "name": "21e99d8d2c2c5ad7dd3ab138bba06774", "bike_id": "21e99d8d2c2c5ad7dd3ab138bba06774", "fusion_lat": 0.0, "is_reserved": 0, "lat": 38.91384, "fusion_lon": 0.0, "is_disabled": 0}, {"rental_uris": {"android": "https://dc.lft.to/lastmile_qr_scan", "ios": "https://dc.lft.to/lastmile_qr_scan"}, "type": "electric_scooter", "lon": -77.0382245, "name": "5580e96384d6c1019248cdaf5ec667ac", "bike_id": "5580e96384d6c1019248cdaf5ec667ac", "fusion_lat": 0.0, "is_reserved": 0, "lat": 38.92056083333333, "fusion_lon": 0.0, "is_disabled": 0}, {"rental_uris": {"android": "https://dc.lft.to/lastmile_qr_scan", "ios": "https://dc.lft.to/lastmile_qr_scan"}, "type": "electric_scooter", "lon": -77.03671466666667, "name": "ed4df64a631615e24a7403500650f7b3", "bike_id": "ed4df64a631615e24a7403500650f7b3", "fusion_lat": 0.0, "is_reserved": 0, "lat": 38.93167116666667, "fusion_lon": 0.0, "is_disabled": 0}, {"rental_uris": {"android": "https://dc.lft.to/lastmile_qr_scan", "ios": "https://dc.lft.to/lastmile_qr_scan"}, "type": "electric_scooter", "lon": -77.02807133333333, "name": "21c5a02f502f4ccb375dde5766945880", "bike_id": "21c5a02f502f4ccb375dde5766945880", "fusion_lat": 0.0, "is_reserved": 0, "lat": 38.93056833333333, "fusion_lon": 0.0, "is_disabled": 0}, {"rental_uris": {"android": "https://dc.lft.to/lastmile_qr_scan", "ios": "https://dc.lft.to/lastmile_qr_scan"}, "type": "electric_scooter", "lon": -77.012115, "name": "12938d72177c046fc4fe7351cf2d2f49", "bike_id": "12938d72177c046fc4fe7351cf2d2f49", "fusion_lat": 0.0, "is_reserved": 0, "lat": 38.896234666666665, "fusion_lon": 0.0, "is_disabled": 0}, {"rental_uris": {"android": "https://dc.lft.to/lastmile_qr_scan", "ios": "https://dc.lft.to/lastmile_qr_scan"}, "type": "electric_scooter", "lon": -77.03337033333334, "name": "2fe3d769232e4e24c745b72f9eb108cb", "bike_id": "2fe3d769232e4e24c745b72f9eb108cb", "fusion_lat": 0.0, "is_reserved": 0, "lat": 38.9224935, "fusion_lon": 0.0, "is_disabled": 0}, {"rental_uris": {"android": "https://dc.lft.to/lastmile_qr_scan", "ios": "https://dc.lft.to/lastmile_qr_scan"}, "type": "electric_bike", "lon": -77.00598516666666, "name": "5a4fc97ebf6f6a63502c717554320712", "bike_id": "5a4fc97ebf6f6a63502c717554320712", "fusion_lat": 0.0, "is_reserved": 0, "lat": 38.89809133333333, "fusion_lon": 0.0, "is_disabled": 0}, {"rental_uris": {"android": "https://dc.lft.to/lastmile_qr_scan", "ios": "https://dc.lft.to/lastmile_qr_scan"}, "type": "electric_scooter", "lon": -77.0037875, "name": "571ee3694fe33762e7397cfe0b7f694b", "bike_id": "571ee3694fe33762e7397cfe0b7f694b", "fusion_lat": 0.0, "is_reserved": 0, "lat": 38.879296333333336, "fusion_lon": 0.0, "is_disabled": 0}, {"rental_uris": {"android": "https://dc.lft.to/lastmile_qr_scan", "ios": "https://dc.lft.to/lastmile_qr_scan"}, "type": "electric_scooter", "lon": -77.04707616666667, "name": "bcc02c0cca325d48e0282516f1aea152", "bike_id": "bcc02c0cca325d48e0282516f1aea152", "fusion_lat": 0.0, "is_reserved": 0, "lat": 38.912603, "fusion_lon": 0.0, "is_disabled": 0}, {"rental_uris": {"android": "https://dc.lft.to/lastmile_qr_scan", "ios": "https://dc.lft.to/lastmile_qr_scan"}, "type": "electric_scooter", "lon": -77.03204983333333, "name": "5db862f16e5fa2de8799eec6cb5d1615", "bike_id": "5db862f16e5fa2de8799eec6cb5d1615", "fusion_lat": 0.0, "is_reserved": 0, "lat": 38.91267333333333, "fusion_lon": 0.0, "is_disabled": 0}, {"rental_uris": {"android": "https://dc.lft.to/lastmile_qr_scan", "ios": "https://dc.lft.to/lastmile_qr_scan"}, "type": "electric_scooter", "lon": -76.9192375, "name": "2d5c259c8819edfed301969fe7ae56e4", "bike_id": "2d5c259c8819edfed301969fe7ae56e4", "fusion_lat": 0.0, "is_reserved": 0, "lat": 38.89073033333333, "fusion_lon": 0.0, "is_disabled": 0}, {"rental_uris": {"android": "https://dc.lft.to/lastmile_qr_scan", "ios": "https://dc.lft.to/lastmile_qr_scan"}, "type": "electric_scooter", "lon": -77.05299616666667, "name": "7f1689556b601844808fbde7f4dc775b", "bike_id": "7f1689556b601844808fbde7f4dc775b", "fusion_lat": 0.0, "is_reserved": 0, "lat": 38.91700266666667, "fusion_lon": 0.0, "is_disabled": 0}, {"rental_uris": {"android": "https://dc.lft.to/lastmile_qr_scan", "ios": "https://dc.lft.to/lastmile_qr_scan"}, "type": "electric_scooter", "lon": -77.0059105, "name": "0db56df5233f190253168e729dc94e2a", "bike_id": "0db56df5233f190253168e729dc94e2a", "fusion_lat": 0.0, "is_reserved": 0, "lat": 38.915695666666664, "fusion_lon": 0.0, "is_disabled": 0}, {"rental_uris": {"android": "https://dc.lft.to/lastmile_qr_scan", "ios": "https://dc.lft.to/lastmile_qr_scan"}, "type": "electric_scooter", "lon": -77.0354405, "name": "35a224c0b567525a4e036985438dd26d", "bike_id": "35a224c0b567525a4e036985438dd26d", "fusion_lat": 0.0, "is_reserved": 0, "lat": 38.9037455, "fusion_lon": 0.0, "is_disabled": 0}, {"rental_uris": {"android": "https://dc.lft.to/lastmile_qr_scan", "ios": "https://dc.lft.to/lastmile_qr_scan"}, "type": "electric_scooter", "lon": -77.026956, "name": "f6fa9490d2ac4dcc51a8e89f2c08f80d", "bike_id": "f6fa9490d2ac4dcc51a8e89f2c08f80d", "fusion_lat": 0.0, "is_reserved": 0, "lat": 38.906892166666665, "fusion_lon": 0.0, "is_disabled": 0}, {"rental_uris": {"android": "https://dc.lft.to/lastmile_qr_scan", "ios": "https://dc.lft.to/lastmile_qr_scan"}, "type": "electric_scooter", "lon": -77.0176355, "name": "a12461eb28a161e3c99669217757f633", "bike_id": "a12461eb28a161e3c99669217757f633", "fusion_lat": 0.0, "is_reserved": 0, "lat": 38.90274683333333, "fusion_lon": 0.0, "is_disabled": 0}, {"rental_uris": {"android": "https://dc.lft.to/lastmile_qr_scan", "ios": "https://dc.lft.to/lastmile_qr_scan"}, "type": "electric_bike", "lon": -77.0067215, "name": "26131edda54e772f42f30947eb1758dd", "bike_id": "26131edda54e772f42f30947eb1758dd", "fusion_lat": 0.0, "is_reserved": 0, "lat": 38.945111833333335, "fusion_lon": 0.0, "is_disabled": 0}, {"rental_uris": {"android": "https://dc.lft.to/lastmile_qr_scan", "ios": "https://dc.lft.to/lastmile_qr_scan"}, "type": "electric_scooter", "lon": -76.93839, "name": "898f706df25d0feec6d1d3ad8f04f386", "bike_id": "898f706df25d0feec6d1d3ad8f04f386", "fusion_lat": 0.0, "is_reserved": 0, "lat": 38.890087333333334, "fusion_lon": 0.0, "is_disabled": 0}, {"rental_uris": {"android": "https://dc.lft.to/lastmile_qr_scan", "ios": "https://dc.lft.to/lastmile_qr_scan"}, "type": "electric_scooter", "lon": -76.99486583333334, "name": "ad5c74428d8a01a79f079862beb58aad", "bike_id": "ad5c74428d8a01a79f079862beb58aad", "fusion_lat": 0.0, "is_reserved": 0, "lat": 38.86237666666667, "fusion_lon": 0.0, "is_disabled": 0}, {"rental_uris": {"android": "https://dc.lft.to/lastmile_qr_scan", "ios": "https://dc.lft.to/lastmile_qr_scan"}, "type": "electric_scooter", "lon": -77.02347316666666, "name": "7cdca3ca5dc020c42d10666f98cfe20b", "bike_id": "7cdca3ca5dc020c42d10666f98cfe20b", "fusion_lat": 0.0, "is_reserved": 0, "lat": 38.929839, "fusion_lon": 0.0, "is_disabled": 0}, {"rental_uris": {"android": "https://dc.lft.to/lastmile_qr_scan", "ios": "https://dc.lft.to/lastmile_qr_scan"}, "type": "electric_scooter", "lon": -77.02342516666667, "name": "bd49e1d2fedafe90897c8e9fc44ceb05", "bike_id": "bd49e1d2fedafe90897c8e9fc44ceb05", "fusion_lat": 0.0, "is_reserved": 0, "lat": 38.962034333333335, "fusion_lon": 0.0, "is_disabled": 0}, {"rental_uris": {"android": "https://dc.lft.to/lastmile_qr_scan", "ios": "https://dc.lft.to/lastmile_qr_scan"}, "type": "electric_scooter", "lon": -77.07864766666667, "name": "96af3985f00c0283cf700318ccd8ce71", "bike_id": "96af3985f00c0283cf700318ccd8ce71", "fusion_lat": 0.0, "is_reserved": 0, "lat": 38.919099833333334, "fusion_lon": 0.0, "is_disabled": 0}, {"rental_uris": {"android": "https://dc.lft.to/lastmile_qr_scan", "ios": "https://dc.lft.to/lastmile_qr_scan"}, "type": "electric_scooter", "lon": -77.03699166666667, "name": "adb9ad83de42a8e978477658952fa8bd", "bike_id": "adb9ad83de42a8e978477658952fa8bd", "fusion_lat": 0.0, "is_reserved": 0, "lat": 38.926405, "fusion_lon": 0.0, "is_disabled": 0}, {"rental_uris": {"android": "https://dc.lft.to/lastmile_qr_scan", "ios": "https://dc.lft.to/lastmile_qr_scan"}, "type": "electric_scooter", "lon": -77.02960983333334, "name": "b7e0529b9851e0dcf63350adb25658e4", "bike_id": "b7e0529b9851e0dcf63350adb25658e4", "fusion_lat": 0.0, "is_reserved": 0, "lat": 38.92316566666667, "fusion_lon": 0.0, "is_disabled": 0}, {"rental_uris": {"android": "https://dc.lft.to/lastmile_qr_scan", "ios": "https://dc.lft.to/lastmile_qr_scan"}, "type": "electric_scooter", "lon": -77.04379533333334, "name": "cb5dc4efa2966f0085ee3262ca9a96b1", "bike_id": "cb5dc4efa2966f0085ee3262ca9a96b1", "fusion_lat": 0.0, "is_reserved": 0, "lat": 38.921214166666665, "fusion_lon": 0.0, "is_disabled": 0}, {"rental_uris": {"android": "https://dc.lft.to/lastmile_qr_scan", "ios": "https://dc.lft.to/lastmile_qr_scan"}, "type": "electric_scooter", "lon": -77.03703216666666, "name": "1283aaace1ff9f150322eb0b2b6c3a97", "bike_id": "1283aaace1ff9f150322eb0b2b6c3a97", "fusion_lat": 0.0, "is_reserved": 0, "lat": 38.9264325, "fusion_lon": 0.0, "is_disabled": 0}, {"rental_uris": {"android": "https://dc.lft.to/lastmile_qr_scan", "ios": "https://dc.lft.to/lastmile_qr_scan"}, "type": "electric_scooter", "lon": -77.0430065, "name": "400f68c9cf27805ce994a9304e0dec15", "bike_id": "400f68c9cf27805ce994a9304e0dec15", "fusion_lat": 0.0, "is_reserved": 0, "lat": 38.92646883333333, "fusion_lon": 0.0, "is_disabled": 0}, {"rental_uris": {"android": "https://dc.lft.to/lastmile_qr_scan", "ios": "https://dc.lft.to/lastmile_qr_scan"}, "type": "electric_bike", "lon": -77.12503066666666, "name": "60d1e6f3c7875605c5fb0526f642b8b7", "bike_id": "60d1e6f3c7875605c5fb0526f642b8b7", "fusion_lat": 0.0, "is_reserved": 0, "lat": 39.02416933333333, "fusion_lon": 0.0, "is_disabled": 0}, {"rental_uris": {"android": "https://dc.lft.to/lastmile_qr_scan", "ios": "https://dc.lft.to/lastmile_qr_scan"}, "type": "electric_scooter", "lon": -77.0457815, "name": "dd62b32965244e42c86d6295f7a94df9", "bike_id": "dd62b32965244e42c86d6295f7a94df9", "fusion_lat": 0.0, "is_reserved": 0, "lat": 38.900161833333335, "fusion_lon": 0.0, "is_disabled": 0}, {"rental_uris": {"android": "https://dc.lft.to/lastmile_qr_scan", "ios": "https://dc.lft.to/lastmile_qr_scan"}, "type": "electric_scooter", "lon": -77.02426166666666, "name": "ad48a6810f23ded7e141483a94e6ec9a", "bike_id": "ad48a6810f23ded7e141483a94e6ec9a", "fusion_lat": 0.0, "is_reserved": 0, "lat": 38.8955075, "fusion_lon": 0.0, "is_disabled": 0}, {"rental_uris": {"android": "https://dc.lft.to/lastmile_qr_scan", "ios": "https://dc.lft.to/lastmile_qr_scan"}, "type": "electric_scooter", "lon": -77.04128933333334, "name": "a9cedd42ee00bfe1406f3becdbbbcc19", "bike_id": "a9cedd42ee00bfe1406f3becdbbbcc19", "fusion_lat": 0.0, "is_reserved": 0, "lat": 38.909741333333336, "fusion_lon": 0.0, "is_disabled": 0}, {"rental_uris": {"android": "https://dc.lft.to/lastmile_qr_scan", "ios": "https://dc.lft.to/lastmile_qr_scan"}, "type": "electric_scooter", "lon": -77.05028233333333, "name": "86c006359f44c9ff35ef3ee1bfad1a12", "bike_id": "86c006359f44c9ff35ef3ee1bfad1a12", "fusion_lat": 0.0, "is_reserved": 0, "lat": 38.923627833333335, "fusion_lon": 0.0, "is_disabled": 0}, {"rental_uris": {"android": "https://dc.lft.to/lastmile_qr_scan", "ios": "https://dc.lft.to/lastmile_qr_scan"}, "type": "electric_scooter", "lon": -77.07843333333334, "name": "c5d29c4fb8b96492b1d46719f03ba554", "bike_id": "c5d29c4fb8b96492b1d46719f03ba554", "fusion_lat": 0.0, "is_reserved": 0, "lat": 38.93147883333334, "fusion_lon": 0.0, "is_disabled": 0}, {"rental_uris": {"android": "https://dc.lft.to/lastmile_qr_scan", "ios": "https://dc.lft.to/lastmile_qr_scan"}, "type": "electric_scooter", "lon": -77.0296525, "name": "a2cec67a210116e57eebb454ee0eabcf", "bike_id": "a2cec67a210116e57eebb454ee0eabcf", "fusion_lat": 0.0, "is_reserved": 0, "lat": 38.92460233333333, "fusion_lon": 0.0, "is_disabled": 0}, {"rental_uris": {"android": "https://dc.lft.to/lastmile_qr_scan", "ios": "https://dc.lft.to/lastmile_qr_scan"}, "type": "electric_scooter", "lon": -77.02291283333334, "name": "95ddb03b7fc269562696c0c063da91d3", "bike_id": "95ddb03b7fc269562696c0c063da91d3", "fusion_lat": 0.0, "is_reserved": 0, "lat": 38.91827683333333, "fusion_lon": 0.0, "is_disabled": 0}, {"rental_uris": {"android": "https://dc.lft.to/lastmile_qr_scan", "ios": "https://dc.lft.to/lastmile_qr_scan"}, "type": "electric_scooter", "lon": -77.038607, "name": "9acade040afa7b6b93d67e094d99699a", "bike_id": "9acade040afa7b6b93d67e094d99699a", "fusion_lat": 0.0, "is_reserved": 0, "lat": 38.90577116666667, "fusion_lon": 0.0, "is_disabled": 0}, {"rental_uris": {"android": "https://dc.lft.to/lastmile_qr_scan", "ios": "https://dc.lft.to/lastmile_qr_scan"}, "type": "electric_scooter", "lon": -76.992921, "name": "f2a5e6728eec34f0a7b9adb17a69cb7d", "bike_id": "f2a5e6728eec34f0a7b9adb17a69cb7d", "fusion_lat": 0.0, "is_reserved": 0, "lat": 38.90007633333333, "fusion_lon": 0.0, "is_disabled": 0}, {"rental_uris": {"android": "https://dc.lft.to/lastmile_qr_scan", "ios": "https://dc.lft.to/lastmile_qr_scan"}, "type": "electric_scooter", "lon": -76.9747675, "name": "317f16fd9022463c68d7bc6b85d18ac0", "bike_id": "317f16fd9022463c68d7bc6b85d18ac0", "fusion_lat": 0.0, "is_reserved": 0, "lat": 38.903513, "fusion_lon": 0.0, "is_disabled": 0}, {"rental_uris": {"android": "https://dc.lft.to/lastmile_qr_scan", "ios": "https://dc.lft.to/lastmile_qr_scan"}, "type": "electric_scooter", "lon": -77.0592525, "name": "e62a86d9930dfbb8d9f31b4cbf410682", "bike_id": "e62a86d9930dfbb8d9f31b4cbf410682", "fusion_lat": 0.0, "is_reserved": 0, "lat": 38.93652083333333, "fusion_lon": 0.0, "is_disabled": 0}, {"rental_uris": {"android": "https://dc.lft.to/lastmile_qr_scan", "ios": "https://dc.lft.to/lastmile_qr_scan"}, "type": "electric_scooter", "lon": -77.0057515, "name": "c6e962f5fd2c7e6935409af22fc9c040", "bike_id": "c6e962f5fd2c7e6935409af22fc9c040", "fusion_lat": 0.0, "is_reserved": 0, "lat": 38.906405, "fusion_lon": 0.0, "is_disabled": 0}, {"rental_uris": {"android": "https://dc.lft.to/lastmile_qr_scan", "ios": "https://dc.lft.to/lastmile_qr_scan"}, "type": "electric_scooter", "lon": -77.0327055, "name": "44402f78c91c7d04da8fbf2ae50163a4", "bike_id": "44402f78c91c7d04da8fbf2ae50163a4", "fusion_lat": 0.0, "is_reserved": 0, "lat": 38.933353333333336, "fusion_lon": 0.0, "is_disabled": 0}, {"rental_uris": {"android": "https://dc.lft.to/lastmile_qr_scan", "ios": "https://dc.lft.to/lastmile_qr_scan"}, "type": "electric_scooter", "lon": -77.02709533333334, "name": "6fbf548111a706c8b00f0fa0c81c88cc", "bike_id": "6fbf548111a706c8b00f0fa0c81c88cc", "fusion_lat": 0.0, "is_reserved": 0, "lat": 38.9499735, "fusion_lon": 0.0, "is_disabled": 0}, {"rental_uris": {"android": "https://dc.lft.to/lastmile_qr_scan", "ios": "https://dc.lft.to/lastmile_qr_scan"}, "type": "electric_scooter", "lon": -77.01250583333334, "name": "eb7ca919aef8389047225b80637d0519", "bike_id": "eb7ca919aef8389047225b80637d0519", "fusion_lat": 0.0, "is_reserved": 0, "lat": 38.90865616666667, "fusion_lon": 0.0, "is_disabled": 0}, {"rental_uris": {"android": "https://dc.lft.to/lastmile_qr_scan", "ios": "https://dc.lft.to/lastmile_qr_scan"}, "type": "electric_scooter", "lon": -76.96520066666666, "name": "35043872c74c4fcfe982d029926cfc9c", "bike_id": "35043872c74c4fcfe982d029926cfc9c", "fusion_lat": 0.0, "is_reserved": 0, "lat": 38.87479233333333, "fusion_lon": 0.0, "is_disabled": 0}, {"rental_uris": {"android": "https://dc.lft.to/lastmile_qr_scan", "ios": "https://dc.lft.to/lastmile_qr_scan"}, "type": "electric_bike", "lon": -77.006114, "name": "0f55b080ed37f2ca820640ddf24b7dff", "bike_id": "0f55b080ed37f2ca820640ddf24b7dff", "fusion_lat": 0.0, "is_reserved": 0, "lat": 38.9024865, "fusion_lon": 0.0, "is_disabled": 0}, {"rental_uris": {"android": "https://dc.lft.to/lastmile_qr_scan", "ios": "https://dc.lft.to/lastmile_qr_scan"}, "type": "electric_scooter", "lon": -76.99213316666666, "name": "409bfc8d6f58098af9e34614b9b20a6e", "bike_id": "409bfc8d6f58098af9e34614b9b20a6e", "fusion_lat": 0.0, "is_reserved": 0, "lat": 38.90475383333333, "fusion_lon": 0.0, "is_disabled": 0}, {"rental_uris": {"android": "https://dc.lft.to/lastmile_qr_scan", "ios": "https://dc.lft.to/lastmile_qr_scan"}, "type": "electric_scooter", "lon": -76.94843483333334, "name": "10fe0962491ed452e7557e7dffca2d0f", "bike_id": "10fe0962491ed452e7557e7dffca2d0f", "fusion_lat": 0.0, "is_reserved": 0, "lat": 38.894836833333336, "fusion_lon": 0.0, "is_disabled": 0}, {"rental_uris": {"android": "https://dc.lft.to/lastmile_qr_scan", "ios": "https://dc.lft.to/lastmile_qr_scan"}, "type": "electric_scooter", "lon": -77.08213916666666, "name": "4341f6de342f0ef92b5dcd0268943fc7", "bike_id": "4341f6de342f0ef92b5dcd0268943fc7", "fusion_lat": 0.0, "is_reserved": 0, "lat": 38.935622333333335, "fusion_lon": 0.0, "is_disabled": 0}, {"rental_uris": {"android": "https://dc.lft.to/lastmile_qr_scan", "ios": "https://dc.lft.to/lastmile_qr_scan"}, "type": "electric_scooter", "lon": -76.9841325, "name": "361115ffffd3b9e8ee952d79287fd9e6", "bike_id": "361115ffffd3b9e8ee952d79287fd9e6", "fusion_lat": 0.0, "is_reserved": 0, "lat": 38.91394116666667, "fusion_lon": 0.0, "is_disabled": 0}, {"rental_uris": {"android": "https://dc.lft.to/lastmile_qr_scan", "ios": "https://dc.lft.to/lastmile_qr_scan"}, "type": "electric_scooter", "lon": -77.0028945, "name": "ffca7c2543a7babd4cb21292d81e4fcd", "bike_id": "ffca7c2543a7babd4cb21292d81e4fcd", "fusion_lat": 0.0, "is_reserved": 0, "lat": 38.88983283333334, "fusion_lon": 0.0, "is_disabled": 0}, {"rental_uris": {"android": "https://dc.lft.to/lastmile_qr_scan", "ios": "https://dc.lft.to/lastmile_qr_scan"}, "type": "electric_scooter", "lon": -77.003458, "name": "dee3ba85100cbae5b774247522e792ea", "bike_id": "dee3ba85100cbae5b774247522e792ea", "fusion_lat": 0.0, "is_reserved": 0, "lat": 38.913447166666664, "fusion_lon": 0.0, "is_disabled": 0}, {"rental_uris": {"android": "https://dc.lft.to/lastmile_qr_scan", "ios": "https://dc.lft.to/lastmile_qr_scan"}, "type": "electric_scooter", "lon": -77.00918366666667, "name": "193740de8437f1b5da1aab9d12fb04ea", "bike_id": "193740de8437f1b5da1aab9d12fb04ea", "fusion_lat": 0.0, "is_reserved": 0, "lat": 38.91050233333333, "fusion_lon": 0.0, "is_disabled": 0}, {"rental_uris": {"android": "https://dc.lft.to/lastmile_qr_scan", "ios": "https://dc.lft.to/lastmile_qr_scan"}, "type": "electric_scooter", "lon": -77.0433595, "name": "5fc8b4c719cb884d40f3356512afeb9f", "bike_id": "5fc8b4c719cb884d40f3356512afeb9f", "fusion_lat": 0.0, "is_reserved": 0, "lat": 38.9001815, "fusion_lon": 0.0, "is_disabled": 0}, {"rental_uris": {"android": "https://dc.lft.to/lastmile_qr_scan", "ios": "https://dc.lft.to/lastmile_qr_scan"}, "type": "electric_scooter", "lon": -77.03055733333333, "name": "2ca5d63455237ec1609dcdabbe05825c", "bike_id": "2ca5d63455237ec1609dcdabbe05825c", "fusion_lat": 0.0, "is_reserved": 0, "lat": 38.919199666666664, "fusion_lon": 0.0, "is_disabled": 0}, {"rental_uris": {"android": "https://dc.lft.to/lastmile_qr_scan", "ios": "https://dc.lft.to/lastmile_qr_scan"}, "type": "electric_scooter", "lon": -76.9382705, "name": "5826fb41f236770e264c7a97c07339fc", "bike_id": "5826fb41f236770e264c7a97c07339fc", "fusion_lat": 0.0, "is_reserved": 0, "lat": 38.897581333333335, "fusion_lon": 0.0, "is_disabled": 0}, {"rental_uris": {"android": "https://dc.lft.to/lastmile_qr_scan", "ios": "https://dc.lft.to/lastmile_qr_scan"}, "type": "electric_scooter", "lon": -77.0281045, "name": "263453d706435f9e3069d72e12700d82", "bike_id": "263453d706435f9e3069d72e12700d82", "fusion_lat": 0.0, "is_reserved": 0, "lat": 38.9445945, "fusion_lon": 0.0, "is_disabled": 0}, {"rental_uris": {"android": "https://dc.lft.to/lastmile_qr_scan", "ios": "https://dc.lft.to/lastmile_qr_scan"}, "type": "electric_scooter", "lon": -77.04318433333333, "name": "b131fb3cdca84d8afce5b8fe579318c1", "bike_id": "b131fb3cdca84d8afce5b8fe579318c1", "fusion_lat": 0.0, "is_reserved": 0, "lat": 38.91110283333333, "fusion_lon": 0.0, "is_disabled": 0}, {"rental_uris": {"android": "https://dc.lft.to/lastmile_qr_scan", "ios": "https://dc.lft.to/lastmile_qr_scan"}, "type": "electric_scooter", "lon": -77.0315105, "name": "1aa9737d16b8f7a6768666544210cd75", "bike_id": "1aa9737d16b8f7a6768666544210cd75", "fusion_lat": 0.0, "is_reserved": 0, "lat": 38.887658, "fusion_lon": 0.0, "is_disabled": 0}, {"rental_uris": {"android": "https://dc.lft.to/lastmile_qr_scan", "ios": "https://dc.lft.to/lastmile_qr_scan"}, "type": "electric_scooter", "lon": -77.05293866666666, "name": "36e9e7334ae545957072ddbf8b88baab", "bike_id": "36e9e7334ae545957072ddbf8b88baab", "fusion_lat": 0.0, "is_reserved": 0, "lat": 38.9261925, "fusion_lon": 0.0, "is_disabled": 0}, {"rental_uris": {"android": "https://dc.lft.to/lastmile_qr_scan", "ios": "https://dc.lft.to/lastmile_qr_scan"}, "type": "electric_scooter", "lon": -77.02387983333334, "name": "8066b499084b66145046a2f66ac4984a", "bike_id": "8066b499084b66145046a2f66ac4984a", "fusion_lat": 0.0, "is_reserved": 0, "lat": 38.893875333333334, "fusion_lon": 0.0, "is_disabled": 0}, {"rental_uris": {"android": "https://dc.lft.to/lastmile_qr_scan", "ios": "https://dc.lft.to/lastmile_qr_scan"}, "type": "electric_scooter", "lon": -77.05510083333333, "name": "2408fa1bad4c18ba0b0d1fb1914aec75", "bike_id": "2408fa1bad4c18ba0b0d1fb1914aec75", "fusion_lat": 0.0, "is_reserved": 0, "lat": 38.9441515, "fusion_lon": 0.0, "is_disabled": 0}, {"rental_uris": {"android": "https://dc.lft.to/lastmile_qr_scan", "ios": "https://dc.lft.to/lastmile_qr_scan"}, "type": "electric_scooter", "lon": -77.03573416666667, "name": "913afd8e47f8e945f586e96ece4f6b42", "bike_id": "913afd8e47f8e945f586e96ece4f6b42", "fusion_lat": 0.0, "is_reserved": 0, "lat": 38.903854333333335, "fusion_lon": 0.0, "is_disabled": 0}, {"rental_uris": {"android": "https://dc.lft.to/lastmile_qr_scan", "ios": "https://dc.lft.to/lastmile_qr_scan"}, "type": "electric_scooter", "lon": -76.94840866666667, "name": "6e7a114b71fa4df49ad97772e032a198", "bike_id": "6e7a114b71fa4df49ad97772e032a198", "fusion_lat": 0.0, "is_reserved": 0, "lat": 38.89485366666667, "fusion_lon": 0.0, "is_disabled": 0}, {"rental_uris": {"android": "https://dc.lft.to/lastmile_qr_scan", "ios": "https://dc.lft.to/lastmile_qr_scan"}, "type": "electric_scooter", "lon": -77.0344915, "name": "d16fa21d129f00a57a94f512a79eaabd", "bike_id": "d16fa21d129f00a57a94f512a79eaabd", "fusion_lat": 0.0, "is_reserved": 0, "lat": 38.902550833333336, "fusion_lon": 0.0, "is_disabled": 0}, {"rental_uris": {"android": "https://dc.lft.to/lastmile_qr_scan", "ios": "https://dc.lft.to/lastmile_qr_scan"}, "type": "electric_scooter", "lon": -77.0010765, "name": "198ce320bba96470f87d57312acd6bd4", "bike_id": "198ce320bba96470f87d57312acd6bd4", "fusion_lat": 0.0, "is_reserved": 0, "lat": 38.916302, "fusion_lon": 0.0, "is_disabled": 0}, {"rental_uris": {"android": "https://dc.lft.to/lastmile_qr_scan", "ios": "https://dc.lft.to/lastmile_qr_scan"}, "type": "electric_scooter", "lon": -76.9860485, "name": "904fc3bbb34fef9033a46c20c15a0916", "bike_id": "904fc3bbb34fef9033a46c20c15a0916", "fusion_lat": 0.0, "is_reserved": 0, "lat": 38.854435333333335, "fusion_lon": 0.0, "is_disabled": 0}, {"rental_uris": {"android": "https://dc.lft.to/lastmile_qr_scan", "ios": "https://dc.lft.to/lastmile_qr_scan"}, "type": "electric_bike", "lon": -76.99399116666666, "name": "286f424f74cad4ac5f6717e6f8bf7f4b", "bike_id": "286f424f74cad4ac5f6717e6f8bf7f4b", "fusion_lat": 0.0, "is_reserved": 0, "lat": 38.92266433333333, "fusion_lon": 0.0, "is_disabled": 0}, {"rental_uris": {"android": "https://dc.lft.to/lastmile_qr_scan", "ios": "https://dc.lft.to/lastmile_qr_scan"}, "type": "electric_scooter", "lon": -77.04575083333333, "name": "2e381bba24fa8e396cfbf104b8b6d7d2", "bike_id": "2e381bba24fa8e396cfbf104b8b6d7d2", "fusion_lat": 0.0, "is_reserved": 0, "lat": 38.92128916666667, "fusion_lon": 0.0, "is_disabled": 0}, {"rental_uris": {"android": "https://dc.lft.to/lastmile_qr_scan", "ios": "https://dc.lft.to/lastmile_qr_scan"}, "type": "electric_bike", "lon": -76.9906185, "name": "daac56887b0331ae003fb1b05384e6ad", "bike_id": "daac56887b0331ae003fb1b05384e6ad", "fusion_lat": 0.0, "is_reserved": 0, "lat": 38.93690216666667, "fusion_lon": 0.0, "is_disabled": 0}, {"rental_uris": {"android": "https://dc.lft.to/lastmile_qr_scan", "ios": "https://dc.lft.to/lastmile_qr_scan"}, "type": "electric_scooter", "lon": -76.94855883333334, "name": "4adb20cb175bdb74e9a8e062e67941d0", "bike_id": "4adb20cb175bdb74e9a8e062e67941d0", "fusion_lat": 0.0, "is_reserved": 0, "lat": 38.883051333333334, "fusion_lon": 0.0, "is_disabled": 0}, {"rental_uris": {"android": "https://dc.lft.to/lastmile_qr_scan", "ios": "https://dc.lft.to/lastmile_qr_scan"}, "type": "electric_scooter", "lon": -76.995159, "name": "14a5600bec0fb8b7c4dfa14ebe77988b", "bike_id": "14a5600bec0fb8b7c4dfa14ebe77988b", "fusion_lat": 0.0, "is_reserved": 0, "lat": 38.894835666666665, "fusion_lon": 0.0, "is_disabled": 0}, {"rental_uris": {"android": "https://dc.lft.to/lastmile_qr_scan", "ios": "https://dc.lft.to/lastmile_qr_scan"}, "type": "electric_scooter", "lon": -77.0410785, "name": "4c5669fd44065b479aa91745f06873ff", "bike_id": "4c5669fd44065b479aa91745f06873ff", "fusion_lat": 0.0, "is_reserved": 0, "lat": 38.920781, "fusion_lon": 0.0, "is_disabled": 0}, {"rental_uris": {"android": "https://dc.lft.to/lastmile_qr_scan", "ios": "https://dc.lft.to/lastmile_qr_scan"}, "type": "electric_scooter", "lon": -77.0244415, "name": "4d19cce56c2eef711dd9729f692f0012", "bike_id": "4d19cce56c2eef711dd9729f692f0012", "fusion_lat": 0.0, "is_reserved": 0, "lat": 38.93714666666666, "fusion_lon": 0.0, "is_disabled": 0}, {"rental_uris": {"android": "https://dc.lft.to/lastmile_qr_scan", "ios": "https://dc.lft.to/lastmile_qr_scan"}, "type": "electric_bike", "lon": -76.98162483333333, "name": "c8c05f98ce53d97f71e88c987b012fbc", "bike_id": "c8c05f98ce53d97f71e88c987b012fbc", "fusion_lat": 0.0, "is_reserved": 0, "lat": 38.959573, "fusion_lon": 0.0, "is_disabled": 0}, {"rental_uris": {"android": "https://dc.lft.to/lastmile_qr_scan", "ios": "https://dc.lft.to/lastmile_qr_scan"}, "type": "electric_scooter", "lon": -77.00346633333334, "name": "a3bdcb1d629f455ee617ff3e45a9bb15", "bike_id": "a3bdcb1d629f455ee617ff3e45a9bb15", "fusion_lat": 0.0, "is_reserved": 0, "lat": 38.8946585, "fusion_lon": 0.0, "is_disabled": 0}, {"rental_uris": {"android": "https://dc.lft.to/lastmile_qr_scan", "ios": "https://dc.lft.to/lastmile_qr_scan"}, "type": "electric_scooter", "lon": -77.00010116666667, "name": "37ffa4ca0223e723c0d3add8475ebea8", "bike_id": "37ffa4ca0223e723c0d3add8475ebea8", "fusion_lat": 0.0, "is_reserved": 0, "lat": 38.900181, "fusion_lon": 0.0, "is_disabled": 0}, {"rental_uris": {"android": "https://dc.lft.to/lastmile_qr_scan", "ios": "https://dc.lft.to/lastmile_qr_scan"}, "type": "electric_scooter", "lon": -77.03182316666667, "name": "c01fb9a365c4a2b79a39b2569e460cf8", "bike_id": "c01fb9a365c4a2b79a39b2569e460cf8", "fusion_lat": 0.0, "is_reserved": 0, "lat": 38.91923466666667, "fusion_lon": 0.0, "is_disabled": 0}, {"rental_uris": {"android": "https://dc.lft.to/lastmile_qr_scan", "ios": "https://dc.lft.to/lastmile_qr_scan"}, "type": "electric_scooter", "lon": -77.00222266666667, "name": "6aee5734ab67feb48703fe12092f831e", "bike_id": "6aee5734ab67feb48703fe12092f831e", "fusion_lat": 0.0, "is_reserved": 0, "lat": 38.9572715, "fusion_lon": 0.0, "is_disabled": 0}, {"rental_uris": {"android": "https://dc.lft.to/lastmile_qr_scan", "ios": "https://dc.lft.to/lastmile_qr_scan"}, "type": "electric_scooter", "lon": -77.01185383333333, "name": "a32d38226cd3c1cf7a05afe662d5b59c", "bike_id": "a32d38226cd3c1cf7a05afe662d5b59c", "fusion_lat": 0.0, "is_reserved": 0, "lat": 38.90040166666667, "fusion_lon": 0.0, "is_disabled": 0}, {"rental_uris": {"android": "https://dc.lft.to/lastmile_qr_scan", "ios": "https://dc.lft.to/lastmile_qr_scan"}, "type": "electric_scooter", "lon": -77.018691, "name": "56dfa19cf86b5fe804f7553bc4277b2a", "bike_id": "56dfa19cf86b5fe804f7553bc4277b2a", "fusion_lat": 0.0, "is_reserved": 0, "lat": 38.94893366666667, "fusion_lon": 0.0, "is_disabled": 0}, {"rental_uris": {"android": "https://dc.lft.to/lastmile_qr_scan", "ios": "https://dc.lft.to/lastmile_qr_scan"}, "type": "electric_scooter", "lon": -77.00937283333333, "name": "947c0d4c02ea47adf3ae4584ef0fbdb1", "bike_id": "947c0d4c02ea47adf3ae4584ef0fbdb1", "fusion_lat": 0.0, "is_reserved": 0, "lat": 38.87627716666667, "fusion_lon": 0.0, "is_disabled": 0}, {"rental_uris": {"android": "https://dc.lft.to/lastmile_qr_scan", "ios": "https://dc.lft.to/lastmile_qr_scan"}, "type": "electric_scooter", "lon": -77.02928166666666, "name": "441cf811c7f5c798b1a9fc1194bb666c", "bike_id": "441cf811c7f5c798b1a9fc1194bb666c", "fusion_lat": 0.0, "is_reserved": 0, "lat": 38.882253, "fusion_lon": 0.0, "is_disabled": 0}, {"rental_uris": {"android": "https://dc.lft.to/lastmile_qr_scan", "ios": "https://dc.lft.to/lastmile_qr_scan"}, "type": "electric_bike", "lon": -77.0242065, "name": "262731dba0f8471bbba768f242fbffec", "bike_id": "262731dba0f8471bbba768f242fbffec", "fusion_lat": 0.0, "is_reserved": 0, "lat": 38.94915316666667, "fusion_lon": 0.0, "is_disabled": 0}, {"rental_uris": {"android": "https://dc.lft.to/lastmile_qr_scan", "ios": "https://dc.lft.to/lastmile_qr_scan"}, "type": "electric_bike", "lon": -76.91126216666666, "name": "1f84757e79a07fe555545580dc8bc848", "bike_id": "1f84757e79a07fe555545580dc8bc848", "fusion_lat": 0.0, "is_reserved": 0, "lat": 39.010357, "fusion_lon": 0.0, "is_disabled": 0}, {"rental_uris": {"android": "https://dc.lft.to/lastmile_qr_scan", "ios": "https://dc.lft.to/lastmile_qr_scan"}, "type": "electric_scooter", "lon": -77.0104285, "name": "f89b38b13de942aec4a79202e3df628e", "bike_id": "f89b38b13de942aec4a79202e3df628e", "fusion_lat": 0.0, "is_reserved": 0, "lat": 38.88450366666667, "fusion_lon": 0.0, "is_disabled": 0}, {"rental_uris": {"android": "https://dc.lft.to/lastmile_qr_scan", "ios": "https://dc.lft.to/lastmile_qr_scan"}, "type": "electric_scooter", "lon": -76.9791075, "name": "f14d2a705eb62d25073b067e94012e33", "bike_id": "f14d2a705eb62d25073b067e94012e33", "fusion_lat": 0.0, "is_reserved": 0, "lat": 38.90384783333333, "fusion_lon": 0.0, "is_disabled": 0}, {"rental_uris": {"android": "https://dc.lft.to/lastmile_qr_scan", "ios": "https://dc.lft.to/lastmile_qr_scan"}, "type": "electric_scooter", "lon": -77.0135255, "name": "48d7606eabfb48640f7c84732d3473ba", "bike_id": "48d7606eabfb48640f7c84732d3473ba", "fusion_lat": 0.0, "is_reserved": 0, "lat": 38.90385216666667, "fusion_lon": 0.0, "is_disabled": 0}, {"rental_uris": {"android": "https://dc.lft.to/lastmile_qr_scan", "ios": "https://dc.lft.to/lastmile_qr_scan"}, "type": "electric_scooter", "lon": -76.94289583333334, "name": "3a08548ad4d3e0ee58e7ad578a7a453e", "bike_id": "3a08548ad4d3e0ee58e7ad578a7a453e", "fusion_lat": 0.0, "is_reserved": 0, "lat": 38.89098416666667, "fusion_lon": 0.0, "is_disabled": 0}, {"rental_uris": {"android": "https://dc.lft.to/lastmile_qr_scan", "ios": "https://dc.lft.to/lastmile_qr_scan"}, "type": "electric_scooter", "lon": -77.038674, "name": "30b6a973bbd3011596a36486106cb618", "bike_id": "30b6a973bbd3011596a36486106cb618", "fusion_lat": 0.0, "is_reserved": 0, "lat": 38.911936833333336, "fusion_lon": 0.0, "is_disabled": 0}, {"rental_uris": {"android": "https://dc.lft.to/lastmile_qr_scan", "ios": "https://dc.lft.to/lastmile_qr_scan"}, "type": "electric_scooter", "lon": -77.03189066666667, "name": "7c6fd38e1a0bd7fef1652e9463667ec7", "bike_id": "7c6fd38e1a0bd7fef1652e9463667ec7", "fusion_lat": 0.0, "is_reserved": 0, "lat": 38.91887766666667, "fusion_lon": 0.0, "is_disabled": 0}, {"rental_uris": {"android": "https://dc.lft.to/lastmile_qr_scan", "ios": "https://dc.lft.to/lastmile_qr_scan"}, "type": "electric_scooter", "lon": -77.02975616666667, "name": "a50a23b7cafdcb4adc32563d8c62eac6", "bike_id": "a50a23b7cafdcb4adc32563d8c62eac6", "fusion_lat": 0.0, "is_reserved": 0, "lat": 38.90048766666666, "fusion_lon": 0.0, "is_disabled": 0}, {"rental_uris": {"android": "https://dc.lft.to/lastmile_qr_scan", "ios": "https://dc.lft.to/lastmile_qr_scan"}, "type": "electric_scooter", "lon": -76.99959333333334, "name": "015f3ce5b75173241a17d77a9cb1cf23", "bike_id": "015f3ce5b75173241a17d77a9cb1cf23", "fusion_lat": 0.0, "is_reserved": 0, "lat": 38.8899465, "fusion_lon": 0.0, "is_disabled": 0}, {"rental_uris": {"android": "https://dc.lft.to/lastmile_qr_scan", "ios": "https://dc.lft.to/lastmile_qr_scan"}, "type": "electric_scooter", "lon": -77.04164616666667, "name": "8aafb6b784507f40f2e2e4aa2f353011", "bike_id": "8aafb6b784507f40f2e2e4aa2f353011", "fusion_lat": 0.0, "is_reserved": 0, "lat": 38.919824166666665, "fusion_lon": 0.0, "is_disabled": 0}, {"rental_uris": {"android": "https://dc.lft.to/lastmile_qr_scan", "ios": "https://dc.lft.to/lastmile_qr_scan"}, "type": "electric_scooter", "lon": -77.04341066666667, "name": "124bf75c621b1b019e81bebd2ed041d5", "bike_id": "124bf75c621b1b019e81bebd2ed041d5", "fusion_lat": 0.0, "is_reserved": 0, "lat": 38.91379366666666, "fusion_lon": 0.0, "is_disabled": 0}, {"rental_uris": {"android": "https://dc.lft.to/lastmile_qr_scan", "ios": "https://dc.lft.to/lastmile_qr_scan"}, "type": "electric_scooter", "lon": -76.99010616666666, "name": "15e1ec4d4afef32dbb6e42638e8fe9e5", "bike_id": "15e1ec4d4afef32dbb6e42638e8fe9e5", "fusion_lat": 0.0, "is_reserved": 0, "lat": 38.911376, "fusion_lon": 0.0, "is_disabled": 0}, {"rental_uris": {"android": "https://dc.lft.to/lastmile_qr_scan", "ios": "https://dc.lft.to/lastmile_qr_scan"}, "type": "electric_scooter", "lon": -77.0238855, "name": "62127255aab62bc4d2d040ed1ce48976", "bike_id": "62127255aab62bc4d2d040ed1ce48976", "fusion_lat": 0.0, "is_reserved": 0, "lat": 38.90713783333333, "fusion_lon": 0.0, "is_disabled": 0}, {"rental_uris": {"android": "https://dc.lft.to/lastmile_qr_scan", "ios": "https://dc.lft.to/lastmile_qr_scan"}, "type": "electric_scooter", "lon": -77.0431995, "name": "bc8415908885cb86135348bdde114380", "bike_id": "bc8415908885cb86135348bdde114380", "fusion_lat": 0.0, "is_reserved": 0, "lat": 38.89223833333333, "fusion_lon": 0.0, "is_disabled": 0}, {"rental_uris": {"android": "https://dc.lft.to/lastmile_qr_scan", "ios": "https://dc.lft.to/lastmile_qr_scan"}, "type": "electric_bike", "lon": -77.0050815, "name": "b5b85b2426ed76f3e42d6605e0a576f6", "bike_id": "b5b85b2426ed76f3e42d6605e0a576f6", "fusion_lat": 0.0, "is_reserved": 0, "lat": 38.875381833333336, "fusion_lon": 0.0, "is_disabled": 0}, {"rental_uris": {"android": "https://dc.lft.to/lastmile_qr_scan", "ios": "https://dc.lft.to/lastmile_qr_scan"}, "type": "electric_scooter", "lon": -76.99613133333334, "name": "41501f77accf914cc0bc557ca98dd36b", "bike_id": "41501f77accf914cc0bc557ca98dd36b", "fusion_lat": 0.0, "is_reserved": 0, "lat": 38.89766183333333, "fusion_lon": 0.0, "is_disabled": 0}, {"rental_uris": {"android": "https://dc.lft.to/lastmile_qr_scan", "ios": "https://dc.lft.to/lastmile_qr_scan"}, "type": "electric_scooter", "lon": -77.02206866666667, "name": "ad3a9de905fc948a121f75e75b209418", "bike_id": "ad3a9de905fc948a121f75e75b209418", "fusion_lat": 0.0, "is_reserved": 0, "lat": 38.89634366666667, "fusion_lon": 0.0, "is_disabled": 0}, {"rental_uris": {"android": "https://dc.lft.to/lastmile_qr_scan", "ios": "https://dc.lft.to/lastmile_qr_scan"}, "type": "electric_scooter", "lon": -77.03079633333333, "name": "04400c0cd8c2fcf84a498bb43d54070f", "bike_id": "04400c0cd8c2fcf84a498bb43d54070f", "fusion_lat": 0.0, "is_reserved": 0, "lat": 38.92724483333333, "fusion_lon": 0.0, "is_disabled": 0}, {"rental_uris": {"android": "https://dc.lft.to/lastmile_qr_scan", "ios": "https://dc.lft.to/lastmile_qr_scan"}, "type": "electric_scooter", "lon": -76.996812, "name": "1cb148e377ffad9f9f5ed88fbc7ed636", "bike_id": "1cb148e377ffad9f9f5ed88fbc7ed636", "fusion_lat": 0.0, "is_reserved": 0, "lat": 38.886996833333335, "fusion_lon": 0.0, "is_disabled": 0}, {"rental_uris": {"android": "https://dc.lft.to/lastmile_qr_scan", "ios": "https://dc.lft.to/lastmile_qr_scan"}, "type": "electric_scooter", "lon": -77.02167733333333, "name": "7b4ccef8787fa658ba880009a90b609e", "bike_id": "7b4ccef8787fa658ba880009a90b609e", "fusion_lat": 0.0, "is_reserved": 0, "lat": 38.88746366666667, "fusion_lon": 0.0, "is_disabled": 0}, {"rental_uris": {"android": "https://dc.lft.to/lastmile_qr_scan", "ios": "https://dc.lft.to/lastmile_qr_scan"}, "type": "electric_bike", "lon": -76.94569916666667, "name": "90deda0786da02786f8c7b06ac00f1c1", "bike_id": "90deda0786da02786f8c7b06ac00f1c1", "fusion_lat": 0.0, "is_reserved": 0, "lat": 38.86620533333333, "fusion_lon": 0.0, "is_disabled": 0}, {"rental_uris": {"android": "https://dc.lft.to/lastmile_qr_scan", "ios": "https://dc.lft.to/lastmile_qr_scan"}, "type": "electric_scooter", "lon": -77.061234, "name": "27dca56e05a283f25d532d9fb6423e97", "bike_id": "27dca56e05a283f25d532d9fb6423e97", "fusion_lat": 0.0, "is_reserved": 0, "lat": 38.90443616666667, "fusion_lon": 0.0, "is_disabled": 0}, {"rental_uris": {"android": "https://dc.lft.to/lastmile_qr_scan", "ios": "https://dc.lft.to/lastmile_qr_scan"}, "type": "electric_scooter", "lon": -77.06890783333333, "name": "60821a7beb9d1280d1070362aced8bc2", "bike_id": "60821a7beb9d1280d1070362aced8bc2", "fusion_lat": 0.0, "is_reserved": 0, "lat": 38.905059666666666, "fusion_lon": 0.0, "is_disabled": 0}, {"rental_uris": {"android": "https://dc.lft.to/lastmile_qr_scan", "ios": "https://dc.lft.to/lastmile_qr_scan"}, "type": "electric_scooter", "lon": -76.99502633333333, "name": "611747b982eba4f45bf8e5d229bb5f01", "bike_id": "611747b982eba4f45bf8e5d229bb5f01", "fusion_lat": 0.0, "is_reserved": 0, "lat": 38.8446975, "fusion_lon": 0.0, "is_disabled": 0}, {"rental_uris": {"android": "https://dc.lft.to/lastmile_qr_scan", "ios": "https://dc.lft.to/lastmile_qr_scan"}, "type": "electric_scooter", "lon": -77.0061815, "name": "e0badf65e37e7e0cd61a05d56dc4faee", "bike_id": "e0badf65e37e7e0cd61a05d56dc4faee", "fusion_lat": 0.0, "is_reserved": 0, "lat": 38.915636, "fusion_lon": 0.0, "is_disabled": 0}, {"rental_uris": {"android": "https://dc.lft.to/lastmile_qr_scan", "ios": "https://dc.lft.to/lastmile_qr_scan"}, "type": "electric_scooter", "lon": -77.04267933333334, "name": "e8fe39c936fbee5edfdcb22b4e9ff75c", "bike_id": "e8fe39c936fbee5edfdcb22b4e9ff75c", "fusion_lat": 0.0, "is_reserved": 0, "lat": 38.91015433333333, "fusion_lon": 0.0, "is_disabled": 0}, {"rental_uris": {"android": "https://dc.lft.to/lastmile_qr_scan", "ios": "https://dc.lft.to/lastmile_qr_scan"}, "type": "electric_scooter", "lon": -77.03319766666667, "name": "ef5932e705120939348f56634176d01b", "bike_id": "ef5932e705120939348f56634176d01b", "fusion_lat": 0.0, "is_reserved": 0, "lat": 38.892345166666665, "fusion_lon": 0.0, "is_disabled": 0}, {"rental_uris": {"android": "https://dc.lft.to/lastmile_qr_scan", "ios": "https://dc.lft.to/lastmile_qr_scan"}, "type": "electric_scooter", "lon": -76.93739866666667, "name": "e4bcc1fbec25b63ecdf80d4b7a860cf4", "bike_id": "e4bcc1fbec25b63ecdf80d4b7a860cf4", "fusion_lat": 0.0, "is_reserved": 0, "lat": 38.890061333333335, "fusion_lon": 0.0, "is_disabled": 0}, {"rental_uris": {"android": "https://dc.lft.to/lastmile_qr_scan", "ios": "https://dc.lft.to/lastmile_qr_scan"}, "type": "electric_scooter", "lon": -77.01882033333334, "name": "b035371bbce9d1fa4ed126159ef106ae", "bike_id": "b035371bbce9d1fa4ed126159ef106ae", "fusion_lat": 0.0, "is_reserved": 0, "lat": 38.91769633333333, "fusion_lon": 0.0, "is_disabled": 0}, {"rental_uris": {"android": "https://dc.lft.to/lastmile_qr_scan", "ios": "https://dc.lft.to/lastmile_qr_scan"}, "type": "electric_bike", "lon": -77.03987466666666, "name": "694bc8a071308069a813cfa693091d6c", "bike_id": "694bc8a071308069a813cfa693091d6c", "fusion_lat": 0.0, "is_reserved": 0, "lat": 38.802929, "fusion_lon": 0.0, "is_disabled": 0}, {"rental_uris": {"android": "https://dc.lft.to/lastmile_qr_scan", "ios": "https://dc.lft.to/lastmile_qr_scan"}, "type": "electric_scooter", "lon": -77.00498583333334, "name": "5ee64565508243cf6ca13cc7fc0217ff", "bike_id": "5ee64565508243cf6ca13cc7fc0217ff", "fusion_lat": 0.0, "is_reserved": 0, "lat": 38.896739, "fusion_lon": 0.0, "is_disabled": 0}, {"rental_uris": {"android": "https://dc.lft.to/lastmile_qr_scan", "ios": "https://dc.lft.to/lastmile_qr_scan"}, "type": "electric_scooter", "lon": -77.03289933333333, "name": "11e7cb29ab8620460a45a80f07dcf418", "bike_id": "11e7cb29ab8620460a45a80f07dcf418", "fusion_lat": 0.0, "is_reserved": 0, "lat": 38.956501833333334, "fusion_lon": 0.0, "is_disabled": 0}, {"rental_uris": {"android": "https://dc.lft.to/lastmile_qr_scan", "ios": "https://dc.lft.to/lastmile_qr_scan"}, "type": "electric_scooter", "lon": -77.00374133333334, "name": "a5e9a10540ed5f12628d06794c96f008", "bike_id": "a5e9a10540ed5f12628d06794c96f008", "fusion_lat": 0.0, "is_reserved": 0, "lat": 38.90605133333333, "fusion_lon": 0.0, "is_disabled": 0}, {"rental_uris": {"android": "https://dc.lft.to/lastmile_qr_scan", "ios": "https://dc.lft.to/lastmile_qr_scan"}, "type": "electric_scooter", "lon": -76.9962605, "name": "b60c1ace85f78a23e889d0763456c03e", "bike_id": "b60c1ace85f78a23e889d0763456c03e", "fusion_lat": 0.0, "is_reserved": 0, "lat": 38.880257, "fusion_lon": 0.0, "is_disabled": 0}, {"rental_uris": {"android": "https://dc.lft.to/lastmile_qr_scan", "ios": "https://dc.lft.to/lastmile_qr_scan"}, "type": "electric_scooter", "lon": -77.04117266666667, "name": "f229340328786f3bd10056ca041be765", "bike_id": "f229340328786f3bd10056ca041be765", "fusion_lat": 0.0, "is_reserved": 0, "lat": 38.92531533333333, "fusion_lon": 0.0, "is_disabled": 0}, {"rental_uris": {"android": "https://dc.lft.to/lastmile_qr_scan", "ios": "https://dc.lft.to/lastmile_qr_scan"}, "type": "electric_scooter", "lon": -77.02301716666666, "name": "73511576b266fcdf04876c46836e7fde", "bike_id": "73511576b266fcdf04876c46836e7fde", "fusion_lat": 0.0, "is_reserved": 0, "lat": 38.92694916666667, "fusion_lon": 0.0, "is_disabled": 0}, {"rental_uris": {"android": "https://dc.lft.to/lastmile_qr_scan", "ios": "https://dc.lft.to/lastmile_qr_scan"}, "type": "electric_scooter", "lon": -76.99094233333334, "name": "e8063546e49604b280acf3c59ef64c48", "bike_id": "e8063546e49604b280acf3c59ef64c48", "fusion_lat": 0.0, "is_reserved": 0, "lat": 38.9295205, "fusion_lon": 0.0, "is_disabled": 0}, {"rental_uris": {"android": "https://dc.lft.to/lastmile_qr_scan", "ios": "https://dc.lft.to/lastmile_qr_scan"}, "type": "electric_scooter", "lon": -76.98931533333334, "name": "ec80e5ff105c36d7fdca5e9dcd8055db", "bike_id": "ec80e5ff105c36d7fdca5e9dcd8055db", "fusion_lat": 0.0, "is_reserved": 0, "lat": 38.86588716666667, "fusion_lon": 0.0, "is_disabled": 0}, {"rental_uris": {"android": "https://dc.lft.to/lastmile_qr_scan", "ios": "https://dc.lft.to/lastmile_qr_scan"}, "type": "electric_scooter", "lon": -77.03871633333333, "name": "8263cfa53c984e32e98753b413b61517", "bike_id": "8263cfa53c984e32e98753b413b61517", "fusion_lat": 0.0, "is_reserved": 0, "lat": 38.91268816666667, "fusion_lon": 0.0, "is_disabled": 0}, {"rental_uris": {"android": "https://dc.lft.to/lastmile_qr_scan", "ios": "https://dc.lft.to/lastmile_qr_scan"}, "type": "electric_scooter", "lon": -77.04887783333334, "name": "1717c0507f326c60700fdb97d0a54c96", "bike_id": "1717c0507f326c60700fdb97d0a54c96", "fusion_lat": 0.0, "is_reserved": 0, "lat": 38.902945833333334, "fusion_lon": 0.0, "is_disabled": 0}, {"rental_uris": {"android": "https://dc.lft.to/lastmile_qr_scan", "ios": "https://dc.lft.to/lastmile_qr_scan"}, "type": "electric_scooter", "lon": -77.04150866666667, "name": "ba1bc7fc5f01c9282c26ba1863e45115", "bike_id": "ba1bc7fc5f01c9282c26ba1863e45115", "fusion_lat": 0.0, "is_reserved": 0, "lat": 38.92351333333333, "fusion_lon": 0.0, "is_disabled": 0}, {"rental_uris": {"android": "https://dc.lft.to/lastmile_qr_scan", "ios": "https://dc.lft.to/lastmile_qr_scan"}, "type": "electric_scooter", "lon": -77.02923616666666, "name": "93e5cda6a6e867f353c9aed82be97cff", "bike_id": "93e5cda6a6e867f353c9aed82be97cff", "fusion_lat": 0.0, "is_reserved": 0, "lat": 38.9037315, "fusion_lon": 0.0, "is_disabled": 0}, {"rental_uris": {"android": "https://dc.lft.to/lastmile_qr_scan", "ios": "https://dc.lft.to/lastmile_qr_scan"}, "type": "electric_scooter", "lon": -77.013808, "name": "b3bcbeae679b69c3e15bdf2f2afb813b", "bike_id": "b3bcbeae679b69c3e15bdf2f2afb813b", "fusion_lat": 0.0, "is_reserved": 0, "lat": 38.92864, "fusion_lon": 0.0, "is_disabled": 0}, {"rental_uris": {"android": "https://dc.lft.to/lastmile_qr_scan", "ios": "https://dc.lft.to/lastmile_qr_scan"}, "type": "electric_scooter", "lon": -77.03281983333333, "name": "7f59d557c3157d706b3437a611516d61", "bike_id": "7f59d557c3157d706b3437a611516d61", "fusion_lat": 0.0, "is_reserved": 0, "lat": 38.928444, "fusion_lon": 0.0, "is_disabled": 0}, {"rental_uris": {"android": "https://dc.lft.to/lastmile_qr_scan", "ios": "https://dc.lft.to/lastmile_qr_scan"}, "type": "electric_bike", "lon": -76.94624083333333, "name": "56abcb07d596d0e35fc9ad8a8bf568e8", "bike_id": "56abcb07d596d0e35fc9ad8a8bf568e8", "fusion_lat": 0.0, "is_reserved": 0, "lat": 38.8323115, "fusion_lon": 0.0, "is_disabled": 0}, {"rental_uris": {"android": "https://dc.lft.to/lastmile_qr_scan", "ios": "https://dc.lft.to/lastmile_qr_scan"}, "type": "electric_scooter", "lon": -77.027277, "name": "533edcc6aeea521bcd7c61d246c9f4a0", "bike_id": "533edcc6aeea521bcd7c61d246c9f4a0", "fusion_lat": 0.0, "is_reserved": 0, "lat": 38.951256, "fusion_lon": 0.0, "is_disabled": 0}, {"rental_uris": {"android": "https://dc.lft.to/lastmile_qr_scan", "ios": "https://dc.lft.to/lastmile_qr_scan"}, "type": "electric_scooter", "lon": -77.02580733333333, "name": "9441532f2f023a43a9ddf7921be5c72f", "bike_id": "9441532f2f023a43a9ddf7921be5c72f", "fusion_lat": 0.0, "is_reserved": 0, "lat": 38.92503583333333, "fusion_lon": 0.0, "is_disabled": 0}, {"rental_uris": {"android": "https://dc.lft.to/lastmile_qr_scan", "ios": "https://dc.lft.to/lastmile_qr_scan"}, "type": "electric_scooter", "lon": -77.03791266666667, "name": "a951a9a75e4612811f00d062d4e29ea0", "bike_id": "a951a9a75e4612811f00d062d4e29ea0", "fusion_lat": 0.0, "is_reserved": 0, "lat": 38.93319533333333, "fusion_lon": 0.0, "is_disabled": 0}, {"rental_uris": {"android": "https://dc.lft.to/lastmile_qr_scan", "ios": "https://dc.lft.to/lastmile_qr_scan"}, "type": "electric_scooter", "lon": -77.04679266666666, "name": "ee7159c038368be0ca59b0b32a960a89", "bike_id": "ee7159c038368be0ca59b0b32a960a89", "fusion_lat": 0.0, "is_reserved": 0, "lat": 38.895059333333336, "fusion_lon": 0.0, "is_disabled": 0}, {"rental_uris": {"android": "https://dc.lft.to/lastmile_qr_scan", "ios": "https://dc.lft.to/lastmile_qr_scan"}, "type": "electric_scooter", "lon": -76.98771016666667, "name": "051157374216c4ea8d9aa7fb12e25304", "bike_id": "051157374216c4ea8d9aa7fb12e25304", "fusion_lat": 0.0, "is_reserved": 0, "lat": 38.883134166666665, "fusion_lon": 0.0, "is_disabled": 0}, {"rental_uris": {"android": "https://dc.lft.to/lastmile_qr_scan", "ios": "https://dc.lft.to/lastmile_qr_scan"}, "type": "electric_scooter", "lon": -77.0450305, "name": "a8bc1f404ac6c5366fe98dff699d2c91", "bike_id": "a8bc1f404ac6c5366fe98dff699d2c91", "fusion_lat": 0.0, "is_reserved": 0, "lat": 38.90256316666667, "fusion_lon": 0.0, "is_disabled": 0}, {"rental_uris": {"android": "https://dc.lft.to/lastmile_qr_scan", "ios": "https://dc.lft.to/lastmile_qr_scan"}, "type": "electric_scooter", "lon": -76.97407933333334, "name": "a47fe6bf7ef90fe8c3ec0b37422f4f54", "bike_id": "a47fe6bf7ef90fe8c3ec0b37422f4f54", "fusion_lat": 0.0, "is_reserved": 0, "lat": 38.865611, "fusion_lon": 0.0, "is_disabled": 0}, {"rental_uris": {"android": "https://dc.lft.to/lastmile_qr_scan", "ios": "https://dc.lft.to/lastmile_qr_scan"}, "type": "electric_scooter", "lon": -77.02377733333333, "name": "ff5f60dd43b438623e35735241cbb600", "bike_id": "ff5f60dd43b438623e35735241cbb600", "fusion_lat": 0.0, "is_reserved": 0, "lat": 38.9020615, "fusion_lon": 0.0, "is_disabled": 0}, {"rental_uris": {"android": "https://dc.lft.to/lastmile_qr_scan", "ios": "https://dc.lft.to/lastmile_qr_scan"}, "type": "electric_scooter", "lon": -77.03942, "name": "8488bc6953b343db0174a487feeca91c", "bike_id": "8488bc6953b343db0174a487feeca91c", "fusion_lat": 0.0, "is_reserved": 0, "lat": 38.908100833333336, "fusion_lon": 0.0, "is_disabled": 0}, {"rental_uris": {"android": "https://dc.lft.to/lastmile_qr_scan", "ios": "https://dc.lft.to/lastmile_qr_scan"}, "type": "electric_scooter", "lon": -77.032934, "name": "38938641aa4cb85370ceb229c694ddda", "bike_id": "38938641aa4cb85370ceb229c694ddda", "fusion_lat": 0.0, "is_reserved": 0, "lat": 38.908356166666664, "fusion_lon": 0.0, "is_disabled": 0}, {"rental_uris": {"android": "https://dc.lft.to/lastmile_qr_scan", "ios": "https://dc.lft.to/lastmile_qr_scan"}, "type": "electric_scooter", "lon": -77.0511985, "name": "a9f7a9bbd88a958f45681b892434f87b", "bike_id": "a9f7a9bbd88a958f45681b892434f87b", "fusion_lat": 0.0, "is_reserved": 0, "lat": 38.923453, "fusion_lon": 0.0, "is_disabled": 0}, {"rental_uris": {"android": "https://dc.lft.to/lastmile_qr_scan", "ios": "https://dc.lft.to/lastmile_qr_scan"},