{"data": {"bikes": [{"rental_uris": {"ios": "https://dc.lft.to/lastmile_qr_scan", "android": "https://dc.lft.to/lastmile_qr_scan"}, "type": "electric_scooter", "name": "4f12b68dfe70ce60429f0201e715d1b7", "is_reserved": 0, "lon": -77.03974016666666, "is_disabled": 0, "fusion_lat": 0.0, "lat": 38.9097455, "bike_id": "4f12b68dfe70ce60429f0201e715d1b7", "fusion_lon": 0.0}, {"rental_uris": {"ios": "https://dc.lft.to/lastmile_qr_scan", "android": "https://dc.lft.to/lastmile_qr_scan"}, "type": "electric_scooter", "name": "09dcb976a4dc138c02c8571bb8081275", "is_reserved": 0, "lon": -77.032299, "is_disabled": 0, "fusion_lat": 0.0, "lat": 38.905095833333334, "bike_id": "09dcb976a4dc138c02c8571bb8081275", "fusion_lon": 0.0}, {"rental_uris": {"ios": "https://dc.lft.to/lastmile_qr_scan", "android": "https://dc.lft.to/lastmile_qr_scan"}, "type": "electric_scooter", "name": "8b837e9c1e127cae0af61a3bc7117a30", "is_reserved": 0, "lon": -77.00203783333333, "is_disabled": 0, "fusion_lat": 0.0, "lat": 38.90153333333333, "bike_id": "8b837e9c1e127cae0af61a3bc7117a30", "fusion_lon": 0.0}, {"rental_uris": {"ios": "https://dc.lft.to/lastmile_qr_scan", "android": "https://dc.lft.to/lastmile_qr_scan"}, "type": "electric_scooter", "name": "f2a695c3dcb7b7535870d2f267171282", "is_reserved": 0, "lon": -77.01755766666666, "is_disabled": 0, "fusion_lat": 0.0, "lat": 38.90272683333333, "bike_id": "f2a695c3dcb7b7535870d2f267171282", "fusion_lon": 0.0}, {"rental_uris": {"ios": "https://dc.lft.to/lastmile_qr_scan", "android": "https://dc.lft.to/lastmile_qr_scan"}, "type": "electric_scooter", "name": "5b175883fdcb2a9105de3102cda94a64", "is_reserved": 0, "lon": -77.01607983333334, "is_disabled": 0, "fusion_lat": 0.0, "lat": 38.910762166666665, "bike_id": "5b175883fdcb2a9105de3102cda94a64", "fusion_lon": 0.0}, {"rental_uris": {"ios": "https://dc.lft.to/lastmile_qr_scan", "android": "https://dc.lft.to/lastmile_qr_scan"}, "type": "electric_scooter", "name": "44ba04a24d8c384d940ffa14f9e516e6", "is_reserved": 0, "lon": -77.01100883333334, "is_disabled": 0, "fusion_lat": 0.0, "lat": 38.885402, "bike_id": "44ba04a24d8c384d940ffa14f9e516e6", "fusion_lon": 0.0}, {"rental_uris": {"ios": "https://dc.lft.to/lastmile_qr_scan", "android": "https://dc.lft.to/lastmile_qr_scan"}, "type": "electric_scooter", "name": "c97d895aac1234f2587829ae986e7105", "is_reserved": 0, "lon": -77.06812033333334, "is_disabled": 0, "fusion_lat": 0.0, "lat": 38.952177666666664, "bike_id": "c97d895aac1234f2587829ae986e7105", "fusion_lon": 0.0}, {"rental_uris": {"ios": "https://dc.lft.to/lastmile_qr_scan", "android": "https://dc.lft.to/lastmile_qr_scan"}, "type": "electric_scooter", "name": "c1d6e64573aa54bad9720714f9f0439b", "is_reserved": 0, "lon": -77.04648166666666, "is_disabled": 0, "fusion_lat": 0.0, "lat": 38.9006695, "bike_id": "c1d6e64573aa54bad9720714f9f0439b", "fusion_lon": 0.0}, {"rental_uris": {"ios": "https://dc.lft.to/lastmile_qr_scan", "android": "https://dc.lft.to/lastmile_qr_scan"}, "type": "electric_bike", "name": "14e80e119d338ed7a78eff906405f9c0", "is_reserved": 0, "lon": -76.96097233333333, "is_disabled": 0, "fusion_lat": 0.0, "lat": 38.949647, "bike_id": "14e80e119d338ed7a78eff906405f9c0", "fusion_lon": 0.0}, {"rental_uris": {"ios": "https://dc.lft.to/lastmile_qr_scan", "android": "https://dc.lft.to/lastmile_qr_scan"}, "type": "electric_scooter", "name": "311fa40e697db9afca88a1bb38016061", "is_reserved": 0, "lon": -77.04086316666667, "is_disabled": 0, "fusion_lat": 0.0, "lat": 38.93063566666667, "bike_id": "311fa40e697db9afca88a1bb38016061", "fusion_lon": 0.0}, {"rental_uris": {"ios": "https://dc.lft.to/lastmile_qr_scan", "android": "https://dc.lft.to/lastmile_qr_scan"}, "type": "electric_scooter", "name": "c57d10d7dbea4811bd37b054d5fa69ea", "is_reserved": 0, "lon": -77.0175145, "is_disabled": 0, "fusion_lat": 0.0, "lat": 38.887306, "bike_id": "c57d10d7dbea4811bd37b054d5fa69ea", "fusion_lon": 0.0}, {"rental_uris": {"ios": "https://dc.lft.to/lastmile_qr_scan", "android": "https://dc.lft.to/lastmile_qr_scan"}, "type": "electric_scooter", "name": "8e6e64a38c6eaac9dd07347d5952b657", "is_reserved": 0, "lon": -77.0207085, "is_disabled": 0, "fusion_lat": 0.0, "lat": 38.91258583333333, "bike_id": "8e6e64a38c6eaac9dd07347d5952b657", "fusion_lon": 0.0}, {"rental_uris": {"ios": "https://dc.lft.to/lastmile_qr_scan", "android": "https://dc.lft.to/lastmile_qr_scan"}, "type": "electric_scooter", "name": "8241353bbbe2ccf93bc409e4a05ebb6f", "is_reserved": 0, "lon": -77.03538133333333, "is_disabled": 0, "fusion_lat": 0.0, "lat": 38.923358666666665, "bike_id": "8241353bbbe2ccf93bc409e4a05ebb6f", "fusion_lon": 0.0}, {"rental_uris": {"ios": "https://dc.lft.to/lastmile_qr_scan", "android": "https://dc.lft.to/lastmile_qr_scan"}, "type": "electric_bike", "name": "7877cfbe7c36692b672f93daf2ebe1ba", "is_reserved": 0, "lon": -76.98141066666666, "is_disabled": 0, "fusion_lat": 0.0, "lat": 38.9349315, "bike_id": "7877cfbe7c36692b672f93daf2ebe1ba", "fusion_lon": 0.0}, {"rental_uris": {"ios": "https://dc.lft.to/lastmile_qr_scan", "android": "https://dc.lft.to/lastmile_qr_scan"}, "type": "electric_scooter", "name": "afca965392b0c958219eaa7a307194a6", "is_reserved": 0, "lon": -77.00727183333333, "is_disabled": 0, "fusion_lat": 0.0, "lat": 38.87844333333334, "bike_id": "afca965392b0c958219eaa7a307194a6", "fusion_lon": 0.0}, {"rental_uris": {"ios": "https://dc.lft.to/lastmile_qr_scan", "android": "https://dc.lft.to/lastmile_qr_scan"}, "type": "electric_scooter", "name": "c87852ef12e2193998021d2459e850f2", "is_reserved": 0, "lon": -77.05882383333334, "is_disabled": 0, "fusion_lat": 0.0, "lat": 38.904400333333335, "bike_id": "c87852ef12e2193998021d2459e850f2", "fusion_lon": 0.0}, {"rental_uris": {"ios": "https://dc.lft.to/lastmile_qr_scan", "android": "https://dc.lft.to/lastmile_qr_scan"}, "type": "electric_scooter", "name": "1406c27c7fee1bc8e0d07b2961c6a733", "is_reserved": 0, "lon": -77.03148616666667, "is_disabled": 0, "fusion_lat": 0.0, "lat": 38.887476166666666, "bike_id": "1406c27c7fee1bc8e0d07b2961c6a733", "fusion_lon": 0.0}, {"rental_uris": {"ios": "https://dc.lft.to/lastmile_qr_scan", "android": "https://dc.lft.to/lastmile_qr_scan"}, "type": "electric_scooter", "name": "0bc8acf23e87b09ed85ce1114c716f9d", "is_reserved": 0, "lon": -77.035034, "is_disabled": 0, "fusion_lat": 0.0, "lat": 38.9187635, "bike_id": "0bc8acf23e87b09ed85ce1114c716f9d", "fusion_lon": 0.0}, {"rental_uris": {"ios": "https://dc.lft.to/lastmile_qr_scan", "android": "https://dc.lft.to/lastmile_qr_scan"}, "type": "electric_scooter", "name": "a748d5bd7ee32101f62f1c6d3d124157", "is_reserved": 0, "lon": -77.05517366666666, "is_disabled": 0, "fusion_lat": 0.0, "lat": 38.92841716666667, "bike_id": "a748d5bd7ee32101f62f1c6d3d124157", "fusion_lon": 0.0}, {"rental_uris": {"ios": "https://dc.lft.to/lastmile_qr_scan", "android": "https://dc.lft.to/lastmile_qr_scan"}, "type": "electric_scooter", "name": "fb93a618f62ff41e8d6788916858f1ad", "is_reserved": 0, "lon": -77.03931916666667, "is_disabled": 0, "fusion_lat": 0.0, "lat": 38.898591, "bike_id": "fb93a618f62ff41e8d6788916858f1ad", "fusion_lon": 0.0}, {"rental_uris": {"ios": "https://dc.lft.to/lastmile_qr_scan", "android": "https://dc.lft.to/lastmile_qr_scan"}, "type": "electric_scooter", "name": "bca786973e4d9e4e3170cbebc8f75e60", "is_reserved": 0, "lon": -77.03211566666667, "is_disabled": 0, "fusion_lat": 0.0, "lat": 38.89856233333333, "bike_id": "bca786973e4d9e4e3170cbebc8f75e60", "fusion_lon": 0.0}, {"rental_uris": {"ios": "https://dc.lft.to/lastmile_qr_scan", "android": "https://dc.lft.to/lastmile_qr_scan"}, "type": "electric_bike", "name": "499a9f96ae89aa9370c339a0239e40c5", "is_reserved": 0, "lon": -77.00132416666666, "is_disabled": 0, "fusion_lat": 0.0, "lat": 38.99499433333333, "bike_id": "499a9f96ae89aa9370c339a0239e40c5", "fusion_lon": 0.0}, {"rental_uris": {"ios": "https://dc.lft.to/lastmile_qr_scan", "android": "https://dc.lft.to/lastmile_qr_scan"}, "type": "electric_scooter", "name": "55055f0b0eee6d97543e275c74032929", "is_reserved": 0, "lon": -76.93747716666667, "is_disabled": 0, "fusion_lat": 0.0, "lat": 38.89009383333333, "bike_id": "55055f0b0eee6d97543e275c74032929", "fusion_lon": 0.0}, {"rental_uris": {"ios": "https://dc.lft.to/lastmile_qr_scan", "android": "https://dc.lft.to/lastmile_qr_scan"}, "type": "electric_scooter", "name": "679805ea91926e89ba02f8e43c2d3de7", "is_reserved": 0, "lon": -77.02380266666667, "is_disabled": 0, "fusion_lat": 0.0, "lat": 38.9353925, "bike_id": "679805ea91926e89ba02f8e43c2d3de7", "fusion_lon": 0.0}, {"rental_uris": {"ios": "https://dc.lft.to/lastmile_qr_scan", "android": "https://dc.lft.to/lastmile_qr_scan"}, "type": "electric_bike", "name": "aa0fd793be9c76df3bf4b616e0aef48c", "is_reserved": 0, "lon": -76.95793583333334, "is_disabled": 0, "fusion_lat": 0.0, "lat": 38.980511166666666, "bike_id": "aa0fd793be9c76df3bf4b616e0aef48c", "fusion_lon": 0.0}, {"rental_uris": {"ios": "https://dc.lft.to/lastmile_qr_scan", "android": "https://dc.lft.to/lastmile_qr_scan"}, "type": "electric_scooter", "name": "f1d5dff70a8e291a34c2b6b332888e35", "is_reserved": 0, "lon": -77.07336483333333, "is_disabled": 0, "fusion_lat": 0.0, "lat": 38.960943, "bike_id": "f1d5dff70a8e291a34c2b6b332888e35", "fusion_lon": 0.0}, {"rental_uris": {"ios": "https://dc.lft.to/lastmile_qr_scan", "android": "https://dc.lft.to/lastmile_qr_scan"}, "type": "electric_scooter", "name": "c10d037310ec8ddbe213f126c80013e5", "is_reserved": 0, "lon": -76.99792516666666, "is_disabled": 0, "fusion_lat": 0.0, "lat": 38.87632333333333, "bike_id": "c10d037310ec8ddbe213f126c80013e5", "fusion_lon": 0.0}, {"rental_uris": {"ios": "https://dc.lft.to/lastmile_qr_scan", "android": "https://dc.lft.to/lastmile_qr_scan"}, "type": "electric_bike", "name": "995f71ca050c472a520fedfb99bba7e9", "is_reserved": 0, "lon": -76.99246516666666, "is_disabled": 0, "fusion_lat": 0.0, "lat": 38.96073066666666, "bike_id": "995f71ca050c472a520fedfb99bba7e9", "fusion_lon": 0.0}, {"rental_uris": {"ios": "https://dc.lft.to/lastmile_qr_scan", "android": "https://dc.lft.to/lastmile_qr_scan"}, "type": "electric_scooter", "name": "142b2103143ec830d3e3abd589cc3566", "is_reserved": 0, "lon": -77.060902, "is_disabled": 0, "fusion_lat": 0.0, "lat": 38.93992466666667, "bike_id": "142b2103143ec830d3e3abd589cc3566", "fusion_lon": 0.0}, {"rental_uris": {"ios": "https://dc.lft.to/lastmile_qr_scan", "android": "https://dc.lft.to/lastmile_qr_scan"}, "type": "electric_scooter", "name": "bb3d3c669653ae78d601ff2b844ae178", "is_reserved": 0, "lon": -76.9756665, "is_disabled": 0, "fusion_lat": 0.0, "lat": 38.944241833333336, "bike_id": "bb3d3c669653ae78d601ff2b844ae178", "fusion_lon": 0.0}, {"rental_uris": {"ios": "https://dc.lft.to/lastmile_qr_scan", "android": "https://dc.lft.to/lastmile_qr_scan"}, "type": "electric_scooter", "name": "cf79627dff8b907e1b35d36dfc4b2b75", "is_reserved": 0, "lon": -77.05674766666667, "is_disabled": 0, "fusion_lat": 0.0, "lat": 38.90614566666667, "bike_id": "cf79627dff8b907e1b35d36dfc4b2b75", "fusion_lon": 0.0}, {"rental_uris": {"ios": "https://dc.lft.to/lastmile_qr_scan", "android": "https://dc.lft.to/lastmile_qr_scan"}, "type": "electric_scooter", "name": "182d780436edc1b893320ceccf97e568", "is_reserved": 0, "lon": -77.0231505, "is_disabled": 0, "fusion_lat": 0.0, "lat": 38.920768333333335, "bike_id": "182d780436edc1b893320ceccf97e568", "fusion_lon": 0.0}, {"rental_uris": {"ios": "https://dc.lft.to/lastmile_qr_scan", "android": "https://dc.lft.to/lastmile_qr_scan"}, "type": "electric_scooter", "name": "7c7b5458715d57eb407d2ada4d9c2870", "is_reserved": 0, "lon": -76.99411616666667, "is_disabled": 0, "fusion_lat": 0.0, "lat": 38.87786533333333, "bike_id": "7c7b5458715d57eb407d2ada4d9c2870", "fusion_lon": 0.0}, {"rental_uris": {"ios": "https://dc.lft.to/lastmile_qr_scan", "android": "https://dc.lft.to/lastmile_qr_scan"}, "type": "electric_scooter", "name": "5a52ec0cab6d8bac04a7390fa0140e4c", "is_reserved": 0, "lon": -77.03475016666667, "is_disabled": 0, "fusion_lat": 0.0, "lat": 38.930237166666664, "bike_id": "5a52ec0cab6d8bac04a7390fa0140e4c", "fusion_lon": 0.0}, {"rental_uris": {"ios": "https://dc.lft.to/lastmile_qr_scan", "android": "https://dc.lft.to/lastmile_qr_scan"}, "type": "electric_scooter", "name": "f8956224a44f73b7980bfd48a135caa0", "is_reserved": 0, "lon": -77.035179, "is_disabled": 0, "fusion_lat": 0.0, "lat": 38.92221216666667, "bike_id": "f8956224a44f73b7980bfd48a135caa0", "fusion_lon": 0.0}, {"rental_uris": {"ios": "https://dc.lft.to/lastmile_qr_scan", "android": "https://dc.lft.to/lastmile_qr_scan"}, "type": "electric_scooter", "name": "8b30d14cf931d07edf4110e43d01c0f7", "is_reserved": 0, "lon": -77.02875883333333, "is_disabled": 0, "fusion_lat": 0.0, "lat": 38.907224, "bike_id": "8b30d14cf931d07edf4110e43d01c0f7", "fusion_lon": 0.0}, {"rental_uris": {"ios": "https://dc.lft.to/lastmile_qr_scan", "android": "https://dc.lft.to/lastmile_qr_scan"}, "type": "electric_scooter", "name": "e1327cce0fbbe575d0b22335de0672ac", "is_reserved": 0, "lon": -77.0505965, "is_disabled": 0, "fusion_lat": 0.0, "lat": 38.92356983333333, "bike_id": "e1327cce0fbbe575d0b22335de0672ac", "fusion_lon": 0.0}, {"rental_uris": {"ios": "https://dc.lft.to/lastmile_qr_scan", "android": "https://dc.lft.to/lastmile_qr_scan"}, "type": "electric_bike", "name": "fe87862d8940cefc40a2d9b347bc6511", "is_reserved": 0, "lon": -76.903039, "is_disabled": 0, "fusion_lat": 0.0, "lat": 39.0029645, "bike_id": "fe87862d8940cefc40a2d9b347bc6511", "fusion_lon": 0.0}, {"rental_uris": {"ios": "https://dc.lft.to/lastmile_qr_scan", "android": "https://dc.lft.to/lastmile_qr_scan"}, "type": "electric_scooter", "name": "f418b65f52422d56bcc7a9fd4185908f", "is_reserved": 0, "lon": -77.008701, "is_disabled": 0, "fusion_lat": 0.0, "lat": 38.91256716666667, "bike_id": "f418b65f52422d56bcc7a9fd4185908f", "fusion_lon": 0.0}, {"rental_uris": {"ios": "https://dc.lft.to/lastmile_qr_scan", "android": "https://dc.lft.to/lastmile_qr_scan"}, "type": "electric_scooter", "name": "32a45b4473d5e266f888bc2afff0c5dc", "is_reserved": 0, "lon": -76.998395, "is_disabled": 0, "fusion_lat": 0.0, "lat": 38.90300083333333, "bike_id": "32a45b4473d5e266f888bc2afff0c5dc", "fusion_lon": 0.0}, {"rental_uris": {"ios": "https://dc.lft.to/lastmile_qr_scan", "android": "https://dc.lft.to/lastmile_qr_scan"}, "type": "electric_scooter", "name": "2866feddfee0954974c8e8f499bf5c51", "is_reserved": 0, "lon": -77.0054085, "is_disabled": 0, "fusion_lat": 0.0, "lat": 38.909066833333334, "bike_id": "2866feddfee0954974c8e8f499bf5c51", "fusion_lon": 0.0}, {"rental_uris": {"ios": "https://dc.lft.to/lastmile_qr_scan", "android": "https://dc.lft.to/lastmile_qr_scan"}, "type": "electric_scooter", "name": "2b17ece350859dc6a9820771915ba881", "is_reserved": 0, "lon": -77.037239, "is_disabled": 0, "fusion_lat": 0.0, "lat": 38.92653116666666, "bike_id": "2b17ece350859dc6a9820771915ba881", "fusion_lon": 0.0}, {"rental_uris": {"ios": "https://dc.lft.to/lastmile_qr_scan", "android": "https://dc.lft.to/lastmile_qr_scan"}, "type": "electric_scooter", "name": "1292a79cdfb269aae7ce647e2d18594b", "is_reserved": 0, "lon": -76.99705683333333, "is_disabled": 0, "fusion_lat": 0.0, "lat": 38.887651166666664, "bike_id": "1292a79cdfb269aae7ce647e2d18594b", "fusion_lon": 0.0}, {"rental_uris": {"ios": "https://dc.lft.to/lastmile_qr_scan", "android": "https://dc.lft.to/lastmile_qr_scan"}, "type": "electric_scooter", "name": "be48569f1c123a66e566e1ea2c7a1c01", "is_reserved": 0, "lon": -77.0748135, "is_disabled": 0, "fusion_lat": 0.0, "lat": 38.96209733333333, "bike_id": "be48569f1c123a66e566e1ea2c7a1c01", "fusion_lon": 0.0}, {"rental_uris": {"ios": "https://dc.lft.to/lastmile_qr_scan", "android": "https://dc.lft.to/lastmile_qr_scan"}, "type": "electric_scooter", "name": "df452423c2395ff2cdd9eb9cf1bbc6b9", "is_reserved": 0, "lon": -77.03617733333333, "is_disabled": 0, "fusion_lat": 0.0, "lat": 38.90374533333333, "bike_id": "df452423c2395ff2cdd9eb9cf1bbc6b9", "fusion_lon": 0.0}, {"rental_uris": {"ios": "https://dc.lft.to/lastmile_qr_scan", "android": "https://dc.lft.to/lastmile_qr_scan"}, "type": "electric_scooter", "name": "0fce27e02ee3b438bbc3611a7e265d56", "is_reserved": 0, "lon": -77.0320695, "is_disabled": 0, "fusion_lat": 0.0, "lat": 38.90829883333333, "bike_id": "0fce27e02ee3b438bbc3611a7e265d56", "fusion_lon": 0.0}, {"rental_uris": {"ios": "https://dc.lft.to/lastmile_qr_scan", "android": "https://dc.lft.to/lastmile_qr_scan"}, "type": "electric_scooter", "name": "ce71f3946c8ecffb078209baf55eef36", "is_reserved": 0, "lon": -77.01988516666667, "is_disabled": 0, "fusion_lat": 0.0, "lat": 38.899611, "bike_id": "ce71f3946c8ecffb078209baf55eef36", "fusion_lon": 0.0}, {"rental_uris": {"ios": "https://dc.lft.to/lastmile_qr_scan", "android": "https://dc.lft.to/lastmile_qr_scan"}, "type": "electric_scooter", "name": "c899566a77a8d653253bf2d5ac7c1223", "is_reserved": 0, "lon": -77.034376, "is_disabled": 0, "fusion_lat": 0.0, "lat": 38.908320833333335, "bike_id": "c899566a77a8d653253bf2d5ac7c1223", "fusion_lon": 0.0}, {"rental_uris": {"ios": "https://dc.lft.to/lastmile_qr_scan", "android": "https://dc.lft.to/lastmile_qr_scan"}, "type": "electric_scooter", "name": "ef4ca874f7c302851ce27f4cbe741f25", "is_reserved": 0, "lon": -77.034632, "is_disabled": 0, "fusion_lat": 0.0, "lat": 38.9092605, "bike_id": "ef4ca874f7c302851ce27f4cbe741f25", "fusion_lon": 0.0}, {"rental_uris": {"ios": "https://dc.lft.to/lastmile_qr_scan", "android": "https://dc.lft.to/lastmile_qr_scan"}, "type": "electric_scooter", "name": "34402f7226c7f1c136a0a892a9cd3fa5", "is_reserved": 0, "lon": -76.99855316666667, "is_disabled": 0, "fusion_lat": 0.0, "lat": 38.90027533333333, "bike_id": "34402f7226c7f1c136a0a892a9cd3fa5", "fusion_lon": 0.0}, {"rental_uris": {"ios": "https://dc.lft.to/lastmile_qr_scan", "android": "https://dc.lft.to/lastmile_qr_scan"}, "type": "electric_scooter", "name": "014bf37dcb30dd0a873b4150ec507e60", "is_reserved": 0, "lon": -77.02602816666666, "is_disabled": 0, "fusion_lat": 0.0, "lat": 38.908172666666665, "bike_id": "014bf37dcb30dd0a873b4150ec507e60", "fusion_lon": 0.0}, {"rental_uris": {"ios": "https://dc.lft.to/lastmile_qr_scan", "android": "https://dc.lft.to/lastmile_qr_scan"}, "type": "electric_bike", "name": "bfc985f78bc56aac193aaef1269c9fb2", "is_reserved": 0, "lon": -77.01090083333334, "is_disabled": 0, "fusion_lat": 0.0, "lat": 38.873016666666665, "bike_id": "bfc985f78bc56aac193aaef1269c9fb2", "fusion_lon": 0.0}, {"rental_uris": {"ios": "https://dc.lft.to/lastmile_qr_scan", "android": "https://dc.lft.to/lastmile_qr_scan"}, "type": "electric_scooter", "name": "b548b2168938b52c9b100332e32d4b85", "is_reserved": 0, "lon": -77.07451816666666, "is_disabled": 0, "fusion_lat": 0.0, "lat": 38.93785733333333, "bike_id": "b548b2168938b52c9b100332e32d4b85", "fusion_lon": 0.0}, {"rental_uris": {"ios": "https://dc.lft.to/lastmile_qr_scan", "android": "https://dc.lft.to/lastmile_qr_scan"}, "type": "electric_scooter", "name": "d0616c6a2d56c7e5ce6e916d56755447", "is_reserved": 0, "lon": -77.02908933333333, "is_disabled": 0, "fusion_lat": 0.0, "lat": 38.9529605, "bike_id": "d0616c6a2d56c7e5ce6e916d56755447", "fusion_lon": 0.0}, {"rental_uris": {"ios": "https://dc.lft.to/lastmile_qr_scan", "android": "https://dc.lft.to/lastmile_qr_scan"}, "type": "electric_scooter", "name": "72815f5c76a4b41e0876173168377d7d", "is_reserved": 0, "lon": -77.03455566666666, "is_disabled": 0, "fusion_lat": 0.0, "lat": 38.90847683333333, "bike_id": "72815f5c76a4b41e0876173168377d7d", "fusion_lon": 0.0}, {"rental_uris": {"ios": "https://dc.lft.to/lastmile_qr_scan", "android": "https://dc.lft.to/lastmile_qr_scan"}, "type": "electric_scooter", "name": "131a5000278ce75a491fa6d0d846758b", "is_reserved": 0, "lon": -77.02300683333333, "is_disabled": 0, "fusion_lat": 0.0, "lat": 38.9612415, "bike_id": "131a5000278ce75a491fa6d0d846758b", "fusion_lon": 0.0}, {"rental_uris": {"ios": "https://dc.lft.to/lastmile_qr_scan", "android": "https://dc.lft.to/lastmile_qr_scan"}, "type": "electric_bike", "name": "ca725b76265d698cdf6a152af8b607fb", "is_reserved": 0, "lon": -77.00207433333334, "is_disabled": 0, "fusion_lat": 0.0, "lat": 38.98848016666667, "bike_id": "ca725b76265d698cdf6a152af8b607fb", "fusion_lon": 0.0}, {"rental_uris": {"ios": "https://dc.lft.to/lastmile_qr_scan", "android": "https://dc.lft.to/lastmile_qr_scan"}, "type": "electric_scooter", "name": "c912e82e419eb3bdd6dc6c1df9df49e7", "is_reserved": 0, "lon": -77.01792183333333, "is_disabled": 0, "fusion_lat": 0.0, "lat": 38.90266183333333, "bike_id": "c912e82e419eb3bdd6dc6c1df9df49e7", "fusion_lon": 0.0}, {"rental_uris": {"ios": "https://dc.lft.to/lastmile_qr_scan", "android": "https://dc.lft.to/lastmile_qr_scan"}, "type": "electric_scooter", "name": "e994ea0c7836d00ba1b7584ed3c2824e", "is_reserved": 0, "lon": -77.0240455, "is_disabled": 0, "fusion_lat": 0.0, "lat": 38.91710716666667, "bike_id": "e994ea0c7836d00ba1b7584ed3c2824e", "fusion_lon": 0.0}, {"rental_uris": {"ios": "https://dc.lft.to/lastmile_qr_scan", "android": "https://dc.lft.to/lastmile_qr_scan"}, "type": "electric_scooter", "name": "9e9a025d75947bc24388ab5663b9cc92", "is_reserved": 0, "lon": -77.03366166666666, "is_disabled": 0, "fusion_lat": 0.0, "lat": 38.910444166666665, "bike_id": "9e9a025d75947bc24388ab5663b9cc92", "fusion_lon": 0.0}, {"rental_uris": {"ios": "https://dc.lft.to/lastmile_qr_scan", "android": "https://dc.lft.to/lastmile_qr_scan"}, "type": "electric_bike", "name": "fae722412bc31e4ad5868fe04a6c3649", "is_reserved": 0, "lon": -77.01310066666667, "is_disabled": 0, "fusion_lat": 0.0, "lat": 38.900452666666666, "bike_id": "fae722412bc31e4ad5868fe04a6c3649", "fusion_lon": 0.0}, {"rental_uris": {"ios": "https://dc.lft.to/lastmile_qr_scan", "android": "https://dc.lft.to/lastmile_qr_scan"}, "type": "electric_scooter", "name": "bbb3cb482bf131f3baaee05ba015d9d5", "is_reserved": 0, "lon": -77.0281095, "is_disabled": 0, "fusion_lat": 0.0, "lat": 38.95640516666667, "bike_id": "bbb3cb482bf131f3baaee05ba015d9d5", "fusion_lon": 0.0}, {"rental_uris": {"ios": "https://dc.lft.to/lastmile_qr_scan", "android": "https://dc.lft.to/lastmile_qr_scan"}, "type": "electric_scooter", "name": "405028f28f51b1a033e89ad22ebc4729", "is_reserved": 0, "lon": -77.04423533333333, "is_disabled": 0, "fusion_lat": 0.0, "lat": 38.897430166666666, "bike_id": "405028f28f51b1a033e89ad22ebc4729", "fusion_lon": 0.0}, {"rental_uris": {"ios": "https://dc.lft.to/lastmile_qr_scan", "android": "https://dc.lft.to/lastmile_qr_scan"}, "type": "electric_scooter", "name": "b7f8403559572b8a74ced9fa212ea76c", "is_reserved": 0, "lon": -77.00594366666667, "is_disabled": 0, "fusion_lat": 0.0, "lat": 38.875696166666664, "bike_id": "b7f8403559572b8a74ced9fa212ea76c", "fusion_lon": 0.0}, {"rental_uris": {"ios": "https://dc.lft.to/lastmile_qr_scan", "android": "https://dc.lft.to/lastmile_qr_scan"}, "type": "electric_scooter", "name": "36f175bd034732c7ef7bf9ffe4506f50", "is_reserved": 0, "lon": -77.03337066666667, "is_disabled": 0, "fusion_lat": 0.0, "lat": 38.902586166666666, "bike_id": "36f175bd034732c7ef7bf9ffe4506f50", "fusion_lon": 0.0}, {"rental_uris": {"ios": "https://dc.lft.to/lastmile_qr_scan", "android": "https://dc.lft.to/lastmile_qr_scan"}, "type": "electric_scooter", "name": "06f78d6e10ec4b2257636b514ba738fd", "is_reserved": 0, "lon": -77.03216966666666, "is_disabled": 0, "fusion_lat": 0.0, "lat": 38.89227016666667, "bike_id": "06f78d6e10ec4b2257636b514ba738fd", "fusion_lon": 0.0}, {"rental_uris": {"ios": "https://dc.lft.to/lastmile_qr_scan", "android": "https://dc.lft.to/lastmile_qr_scan"}, "type": "electric_scooter", "name": "95c8cb7acee5702f94758b7337075769", "is_reserved": 0, "lon": -77.02109766666666, "is_disabled": 0, "fusion_lat": 0.0, "lat": 38.906000166666665, "bike_id": "95c8cb7acee5702f94758b7337075769", "fusion_lon": 0.0}, {"rental_uris": {"ios": "https://dc.lft.to/lastmile_qr_scan", "android": "https://dc.lft.to/lastmile_qr_scan"}, "type": "electric_scooter", "name": "c9973a8f022de262d814803a2a35bb7f", "is_reserved": 0, "lon": -76.9884065, "is_disabled": 0, "fusion_lat": 0.0, "lat": 38.84292816666667, "bike_id": "c9973a8f022de262d814803a2a35bb7f", "fusion_lon": 0.0}, {"rental_uris": {"ios": "https://dc.lft.to/lastmile_qr_scan", "android": "https://dc.lft.to/lastmile_qr_scan"}, "type": "electric_scooter", "name": "c24f911c728dde96897a2918c88f966a", "is_reserved": 0, "lon": -77.023874, "is_disabled": 0, "fusion_lat": 0.0, "lat": 38.920765833333334, "bike_id": "c24f911c728dde96897a2918c88f966a", "fusion_lon": 0.0}, {"rental_uris": {"ios": "https://dc.lft.to/lastmile_qr_scan", "android": "https://dc.lft.to/lastmile_qr_scan"}, "type": "electric_scooter", "name": "d1866b97d4d4fe6bc5a5da4655275968", "is_reserved": 0, "lon": -77.026884, "is_disabled": 0, "fusion_lat": 0.0, "lat": 38.925687333333336, "bike_id": "d1866b97d4d4fe6bc5a5da4655275968", "fusion_lon": 0.0}, {"rental_uris": {"ios": "https://dc.lft.to/lastmile_qr_scan", "android": "https://dc.lft.to/lastmile_qr_scan"}, "type": "electric_scooter", "name": "cfcf4767b673a1fa780ae0a590df6a4e", "is_reserved": 0, "lon": -77.03428433333333, "is_disabled": 0, "fusion_lat": 0.0, "lat": 38.919158833333334, "bike_id": "cfcf4767b673a1fa780ae0a590df6a4e", "fusion_lon": 0.0}, {"rental_uris": {"ios": "https://dc.lft.to/lastmile_qr_scan", "android": "https://dc.lft.to/lastmile_qr_scan"}, "type": "electric_scooter", "name": "1e11ef523d17cbefd2a5476a3d8ae37b", "is_reserved": 0, "lon": -76.983703, "is_disabled": 0, "fusion_lat": 0.0, "lat": 38.86032316666667, "bike_id": "1e11ef523d17cbefd2a5476a3d8ae37b", "fusion_lon": 0.0}, {"rental_uris": {"ios": "https://dc.lft.to/lastmile_qr_scan", "android": "https://dc.lft.to/lastmile_qr_scan"}, "type": "electric_scooter", "name": "6ab37cd74201cb87b1658efac36e0b56", "is_reserved": 0, "lon": -77.03908766666666, "is_disabled": 0, "fusion_lat": 0.0, "lat": 38.914218, "bike_id": "6ab37cd74201cb87b1658efac36e0b56", "fusion_lon": 0.0}, {"rental_uris": {"ios": "https://dc.lft.to/lastmile_qr_scan", "android": "https://dc.lft.to/lastmile_qr_scan"}, "type": "electric_scooter", "name": "b0858cc54b785c93ad197cd0ec53a5a5", "is_reserved": 0, "lon": -77.036641, "is_disabled": 0, "fusion_lat": 0.0, "lat": 38.936323, "bike_id": "b0858cc54b785c93ad197cd0ec53a5a5", "fusion_lon": 0.0}, {"rental_uris": {"ios": "https://dc.lft.to/lastmile_qr_scan", "android": "https://dc.lft.to/lastmile_qr_scan"}, "type": "electric_scooter", "name": "fd7d46c02428401934c9e01d97d75b8a", "is_reserved": 0, "lon": -77.02408516666667, "is_disabled": 0, "fusion_lat": 0.0, "lat": 38.935558, "bike_id": "fd7d46c02428401934c9e01d97d75b8a", "fusion_lon": 0.0}, {"rental_uris": {"ios": "https://dc.lft.to/lastmile_qr_scan", "android": "https://dc.lft.to/lastmile_qr_scan"}, "type": "electric_scooter", "name": "120432bb0f29a7570186eddf81c17fe4", "is_reserved": 0, "lon": -77.032218, "is_disabled": 0, "fusion_lat": 0.0, "lat": 38.90481466666667, "bike_id": "120432bb0f29a7570186eddf81c17fe4", "fusion_lon": 0.0}, {"rental_uris": {"ios": "https://dc.lft.to/lastmile_qr_scan", "android": "https://dc.lft.to/lastmile_qr_scan"}, "type": "electric_scooter", "name": "756c6ce92707b2962aae5f9313c1aec7", "is_reserved": 0, "lon": -77.02150816666666, "is_disabled": 0, "fusion_lat": 0.0, "lat": 38.887475333333335, "bike_id": "756c6ce92707b2962aae5f9313c1aec7", "fusion_lon": 0.0}, {"rental_uris": {"ios": "https://dc.lft.to/lastmile_qr_scan", "android": "https://dc.lft.to/lastmile_qr_scan"}, "type": "electric_scooter", "name": "daf414f2739047239b3310ddd459bc54", "is_reserved": 0, "lon": -77.02195666666667, "is_disabled": 0, "fusion_lat": 0.0, "lat": 38.91129316666667, "bike_id": "daf414f2739047239b3310ddd459bc54", "fusion_lon": 0.0}, {"rental_uris": {"ios": "https://dc.lft.to/lastmile_qr_scan", "android": "https://dc.lft.to/lastmile_qr_scan"}, "type": "electric_scooter", "name": "3a176119f92f681f5360d1fd2a8cb075", "is_reserved": 0, "lon": -77.02226633333333, "is_disabled": 0, "fusion_lat": 0.0, "lat": 38.892214, "bike_id": "3a176119f92f681f5360d1fd2a8cb075", "fusion_lon": 0.0}, {"rental_uris": {"ios": "https://dc.lft.to/lastmile_qr_scan", "android": "https://dc.lft.to/lastmile_qr_scan"}, "type": "electric_scooter", "name": "4a3ce638b6101143575a823d778b14d3", "is_reserved": 0, "lon": -77.03869233333333, "is_disabled": 0, "fusion_lat": 0.0, "lat": 38.91561333333333, "bike_id": "4a3ce638b6101143575a823d778b14d3", "fusion_lon": 0.0}, {"rental_uris": {"ios": "https://dc.lft.to/lastmile_qr_scan", "android": "https://dc.lft.to/lastmile_qr_scan"}, "type": "electric_scooter", "name": "869c6f320f56d17ed6f2024cb9781873", "is_reserved": 0, "lon": -76.99035733333334, "is_disabled": 0, "fusion_lat": 0.0, "lat": 38.89853016666667, "bike_id": "869c6f320f56d17ed6f2024cb9781873", "fusion_lon": 0.0}, {"rental_uris": {"ios": "https://dc.lft.to/lastmile_qr_scan", "android": "https://dc.lft.to/lastmile_qr_scan"}, "type": "electric_scooter", "name": "26e1ff8ba48feb9c56e0130fabb9a474", "is_reserved": 0, "lon": -77.02124933333333, "is_disabled": 0, "fusion_lat": 0.0, "lat": 38.924088166666664, "bike_id": "26e1ff8ba48feb9c56e0130fabb9a474", "fusion_lon": 0.0}, {"rental_uris": {"ios": "https://dc.lft.to/lastmile_qr_scan", "android": "https://dc.lft.to/lastmile_qr_scan"}, "type": "electric_scooter", "name": "a76efb035df1496cce01e9f8f5f83158", "is_reserved": 0, "lon": -77.0365685, "is_disabled": 0, "fusion_lat": 0.0, "lat": 38.92287866666667, "bike_id": "a76efb035df1496cce01e9f8f5f83158", "fusion_lon": 0.0}, {"rental_uris": {"ios": "https://dc.lft.to/lastmile_qr_scan", "android": "https://dc.lft.to/lastmile_qr_scan"}, "type": "electric_bike", "name": "27032f65208b78518372a1e5061d0eb3", "is_reserved": 0, "lon": -77.07013633333334, "is_disabled": 0, "fusion_lat": 0.0, "lat": 38.84106, "bike_id": "27032f65208b78518372a1e5061d0eb3", "fusion_lon": 0.0}, {"rental_uris": {"ios": "https://dc.lft.to/lastmile_qr_scan", "android": "https://dc.lft.to/lastmile_qr_scan"}, "type": "electric_scooter", "name": "5f51c73397680b4b4e3acba3c07c1efb", "is_reserved": 0, "lon": -76.9525835, "is_disabled": 0, "fusion_lat": 0.0, "lat": 38.89272616666667, "bike_id": "5f51c73397680b4b4e3acba3c07c1efb", "fusion_lon": 0.0}, {"rental_uris": {"ios": "https://dc.lft.to/lastmile_qr_scan", "android": "https://dc.lft.to/lastmile_qr_scan"}, "type": "electric_scooter", "name": "a37228a61fa5341210c2bfd09b3a70df", "is_reserved": 0, "lon": -76.94381483333333, "is_disabled": 0, "fusion_lat": 0.0, "lat": 38.891108833333334, "bike_id": "a37228a61fa5341210c2bfd09b3a70df", "fusion_lon": 0.0}, {"rental_uris": {"ios": "https://dc.lft.to/lastmile_qr_scan", "android": "https://dc.lft.to/lastmile_qr_scan"}, "type": "electric_scooter", "name": "3a3a3c9a363c0c79074c5f858c7bcdeb", "is_reserved": 0, "lon": -77.03617566666667, "is_disabled": 0, "fusion_lat": 0.0, "lat": 38.923371833333334, "bike_id": "3a3a3c9a363c0c79074c5f858c7bcdeb", "fusion_lon": 0.0}, {"rental_uris": {"ios": "https://dc.lft.to/lastmile_qr_scan", "android": "https://dc.lft.to/lastmile_qr_scan"}, "type": "electric_scooter", "name": "026d0d334969487b9036cb2284b36b1b", "is_reserved": 0, "lon": -77.028116, "is_disabled": 0, "fusion_lat": 0.0, "lat": 38.89368916666667, "bike_id": "026d0d334969487b9036cb2284b36b1b", "fusion_lon": 0.0}, {"rental_uris": {"ios": "https://dc.lft.to/lastmile_qr_scan", "android": "https://dc.lft.to/lastmile_qr_scan"}, "type": "electric_scooter", "name": "cee70fd51ea1942a74ef314f357e6d32", "is_reserved": 0, "lon": -76.9464985, "is_disabled": 0, "fusion_lat": 0.0, "lat": 38.89826733333334, "bike_id": "cee70fd51ea1942a74ef314f357e6d32", "fusion_lon": 0.0}, {"rental_uris": {"ios": "https://dc.lft.to/lastmile_qr_scan", "android": "https://dc.lft.to/lastmile_qr_scan"}, "type": "electric_scooter", "name": "11003c4a9a724428701809dd4b015d47", "is_reserved": 0, "lon": -77.024743, "is_disabled": 0, "fusion_lat": 0.0, "lat": 38.918167333333336, "bike_id": "11003c4a9a724428701809dd4b015d47", "fusion_lon": 0.0}, {"rental_uris": {"ios": "https://dc.lft.to/lastmile_qr_scan", "android": "https://dc.lft.to/lastmile_qr_scan"}, "type": "electric_scooter", "name": "d05563d4862b493afc5d7906fecfdf1d", "is_reserved": 0, "lon": -76.97549516666666, "is_disabled": 0, "fusion_lat": 0.0, "lat": 38.87574766666667, "bike_id": "d05563d4862b493afc5d7906fecfdf1d", "fusion_lon": 0.0}, {"rental_uris": {"ios": "https://dc.lft.to/lastmile_qr_scan", "android": "https://dc.lft.to/lastmile_qr_scan"}, "type": "electric_scooter", "name": "adfb45ef14c8619688197727e121bd73", "is_reserved": 0, "lon": -77.038573, "is_disabled": 0, "fusion_lat": 0.0, "lat": 38.910948166666664, "bike_id": "adfb45ef14c8619688197727e121bd73", "fusion_lon": 0.0}, {"rental_uris": {"ios": "https://dc.lft.to/lastmile_qr_scan", "android": "https://dc.lft.to/lastmile_qr_scan"}, "type": "electric_scooter", "name": "0ba172e183739137f8f66601fed3a1ee", "is_reserved": 0, "lon": -77.06506616666667, "is_disabled": 0, "fusion_lat": 0.0, "lat": 38.90525366666667, "bike_id": "0ba172e183739137f8f66601fed3a1ee", "fusion_lon": 0.0}, {"rental_uris": {"ios": "https://dc.lft.to/lastmile_qr_scan", "android": "https://dc.lft.to/lastmile_qr_scan"}, "type": "electric_scooter", "name": "4f1c2caffbccbdd554d070d6c71a4578", "is_reserved": 0, "lon": -77.03394733333333, "is_disabled": 0, "fusion_lat": 0.0, "lat": 38.899842, "bike_id": "4f1c2caffbccbdd554d070d6c71a4578", "fusion_lon": 0.0}, {"rental_uris": {"ios": "https://dc.lft.to/lastmile_qr_scan", "android": "https://dc.lft.to/lastmile_qr_scan"}, "type": "electric_scooter", "name": "68d32d876b8b1c25e71b5c7ce0a7f0fc", "is_reserved": 0, "lon": -77.03277983333334, "is_disabled": 0, "fusion_lat": 0.0, "lat": 38.91994066666667, "bike_id": "68d32d876b8b1c25e71b5c7ce0a7f0fc", "fusion_lon": 0.0}, {"rental_uris": {"ios": "https://dc.lft.to/lastmile_qr_scan", "android": "https://dc.lft.to/lastmile_qr_scan"}, "type": "electric_scooter", "name": "be1aae996e129cc6d1e742b3da371af1", "is_reserved": 0, "lon": -77.04812416666667, "is_disabled": 0, "fusion_lat": 0.0, "lat": 38.920307333333334, "bike_id": "be1aae996e129cc6d1e742b3da371af1", "fusion_lon": 0.0}, {"rental_uris": {"ios": "https://dc.lft.to/lastmile_qr_scan", "android": "https://dc.lft.to/lastmile_qr_scan"}, "type": "electric_scooter", "name": "87340de35f27c64b7326df1b26892253", "is_reserved": 0, "lon": -77.03296033333334, "is_disabled": 0, "fusion_lat": 0.0, "lat": 38.917219333333335, "bike_id": "87340de35f27c64b7326df1b26892253", "fusion_lon": 0.0}, {"rental_uris": {"ios": "https://dc.lft.to/lastmile_qr_scan", "android": "https://dc.lft.to/lastmile_qr_scan"}, "type": "electric_bike", "name": "ba18e905c8ca0f673f8a8b942622b87b", "is_reserved": 0, "lon": -77.03232033333333, "is_disabled": 0, "fusion_lat": 0.0, "lat": 38.96161416666666, "bike_id": "ba18e905c8ca0f673f8a8b942622b87b", "fusion_lon": 0.0}, {"rental_uris": {"ios": "https://dc.lft.to/lastmile_qr_scan", "android": "https://dc.lft.to/lastmile_qr_scan"}, "type": "electric_bike", "name": "3956d3bf348ee16bfe5006e0ac2f4b7f", "is_reserved": 0, "lon": -77.00765883333334, "is_disabled": 0, "fusion_lat": 0.0, "lat": 38.98130916666667, "bike_id": "3956d3bf348ee16bfe5006e0ac2f4b7f", "fusion_lon": 0.0}, {"rental_uris": {"ios": "https://dc.lft.to/lastmile_qr_scan", "android": "https://dc.lft.to/lastmile_qr_scan"}, "type": "electric_scooter", "name": "1c2a09c37493d2b1516bb9a2ea657413", "is_reserved": 0, "lon": -76.96562383333334, "is_disabled": 0, "fusion_lat": 0.0, "lat": 38.918718, "bike_id": "1c2a09c37493d2b1516bb9a2ea657413", "fusion_lon": 0.0}, {"rental_uris": {"ios": "https://dc.lft.to/lastmile_qr_scan", "android": "https://dc.lft.to/lastmile_qr_scan"}, "type": "electric_scooter", "name": "ba14bc5330f9e7bd851277f99a5915c9", "is_reserved": 0, "lon": -77.03163483333333, "is_disabled": 0, "fusion_lat": 0.0, "lat": 38.95932633333334, "bike_id": "ba14bc5330f9e7bd851277f99a5915c9", "fusion_lon": 0.0}, {"rental_uris": {"ios": "https://dc.lft.to/lastmile_qr_scan", "android": "https://dc.lft.to/lastmile_qr_scan"}, "type": "electric_scooter", "name": "19fe3f6a45af81dabd55653509f2f9cb", "is_reserved": 0, "lon": -77.04802583333333, "is_disabled": 0, "fusion_lat": 0.0, "lat": 38.8995125, "bike_id": "19fe3f6a45af81dabd55653509f2f9cb", "fusion_lon": 0.0}, {"rental_uris": {"ios": "https://dc.lft.to/lastmile_qr_scan", "android": "https://dc.lft.to/lastmile_qr_scan"}, "type": "electric_scooter", "name": "0f55de9ae640196b0a189645aa5ea507", "is_reserved": 0, "lon": -76.99068066666666, "is_disabled": 0, "fusion_lat": 0.0, "lat": 38.904207166666666, "bike_id": "0f55de9ae640196b0a189645aa5ea507", "fusion_lon": 0.0}, {"rental_uris": {"ios": "https://dc.lft.to/lastmile_qr_scan", "android": "https://dc.lft.to/lastmile_qr_scan"}, "type": "electric_scooter", "name": "b182de8b8fe3497fbc200f33aede0204", "is_reserved": 0, "lon": -77.012329, "is_disabled": 0, "fusion_lat": 0.0, "lat": 38.91583333333333, "bike_id": "b182de8b8fe3497fbc200f33aede0204", "fusion_lon": 0.0}, {"rental_uris": {"ios": "https://dc.lft.to/lastmile_qr_scan", "android": "https://dc.lft.to/lastmile_qr_scan"}, "type": "electric_bike", "name": "b3558f4190b481cfe55b98052c22ab8e", "is_reserved": 0, "lon": -76.98878216666667, "is_disabled": 0, "fusion_lat": 0.0, "lat": 38.92117116666667, "bike_id": "b3558f4190b481cfe55b98052c22ab8e", "fusion_lon": 0.0}, {"rental_uris": {"ios": "https://dc.lft.to/lastmile_qr_scan", "android": "https://dc.lft.to/lastmile_qr_scan"}, "type": "electric_scooter", "name": "1febae3cf87b7011e2739746443b7817", "is_reserved": 0, "lon": -77.04381333333333, "is_disabled": 0, "fusion_lat": 0.0, "lat": 38.934237833333334, "bike_id": "1febae3cf87b7011e2739746443b7817", "fusion_lon": 0.0}, {"rental_uris": {"ios": "https://dc.lft.to/lastmile_qr_scan", "android": "https://dc.lft.to/lastmile_qr_scan"}, "type": "electric_scooter", "name": "b113986e83c598d7ba9d6393a688342e", "is_reserved": 0, "lon": -76.98334316666667, "is_disabled": 0, "fusion_lat": 0.0, "lat": 38.9008885, "bike_id": "b113986e83c598d7ba9d6393a688342e", "fusion_lon": 0.0}, {"rental_uris": {"ios": "https://dc.lft.to/lastmile_qr_scan", "android": "https://dc.lft.to/lastmile_qr_scan"}, "type": "electric_scooter", "name": "f5c294f44e93ab0823f3e96f8a4f703d", "is_reserved": 0, "lon": -77.02276016666667, "is_disabled": 0, "fusion_lat": 0.0, "lat": 38.9096265, "bike_id": "f5c294f44e93ab0823f3e96f8a4f703d", "fusion_lon": 0.0}, {"rental_uris": {"ios": "https://dc.lft.to/lastmile_qr_scan", "android": "https://dc.lft.to/lastmile_qr_scan"}, "type": "electric_scooter", "name": "e3e3b6203bcc5b66738cef148d766514", "is_reserved": 0, "lon": -77.01883033333333, "is_disabled": 0, "fusion_lat": 0.0, "lat": 38.897490833333336, "bike_id": "e3e3b6203bcc5b66738cef148d766514", "fusion_lon": 0.0}, {"rental_uris": {"ios": "https://dc.lft.to/lastmile_qr_scan", "android": "https://dc.lft.to/lastmile_qr_scan"}, "type": "electric_scooter", "name": "b68fcbec83e5ead1e06bb61c747efbfb", "is_reserved": 0, "lon": -77.03660066666667, "is_disabled": 0, "fusion_lat": 0.0, "lat": 38.9238705, "bike_id": "b68fcbec83e5ead1e06bb61c747efbfb", "fusion_lon": 0.0}, {"rental_uris": {"ios": "https://dc.lft.to/lastmile_qr_scan", "android": "https://dc.lft.to/lastmile_qr_scan"}, "type": "electric_bike", "name": "a960f7a00bab0f0733676c2d2e6b5cce", "is_reserved": 0, "lon": -77.00153316666666, "is_disabled": 0, "fusion_lat": 0.0, "lat": 38.94166033333333, "bike_id": "a960f7a00bab0f0733676c2d2e6b5cce", "fusion_lon": 0.0}, {"rental_uris": {"ios": "https://dc.lft.to/lastmile_qr_scan", "android": "https://dc.lft.to/lastmile_qr_scan"}, "type": "electric_scooter", "name": "41b49cabd431f47e921c9f00ae0945a6", "is_reserved": 0, "lon": -77.0305055, "is_disabled": 0, "fusion_lat": 0.0, "lat": 38.9072185, "bike_id": "41b49cabd431f47e921c9f00ae0945a6", "fusion_lon": 0.0}, {"rental_uris": {"ios": "https://dc.lft.to/lastmile_qr_scan", "android": "https://dc.lft.to/lastmile_qr_scan"}, "type": "electric_scooter", "name": "b851e87bdd1074f363a25ed4ef6618b5", "is_reserved": 0, "lon": -77.05813833333333, "is_disabled": 0, "fusion_lat": 0.0, "lat": 38.93519916666666, "bike_id": "b851e87bdd1074f363a25ed4ef6618b5", "fusion_lon": 0.0}, {"rental_uris": {"ios": "https://dc.lft.to/lastmile_qr_scan", "android": "https://dc.lft.to/lastmile_qr_scan"}, "type": "electric_bike", "name": "05230ff48c577fc19d72853783e807df", "is_reserved": 0, "lon": -77.12732816666667, "is_disabled": 0, "fusion_lat": 0.0, "lat": 38.89564333333333, "bike_id": "05230ff48c577fc19d72853783e807df", "fusion_lon": 0.0}, {"rental_uris": {"ios": "https://dc.lft.to/lastmile_qr_scan", "android": "https://dc.lft.to/lastmile_qr_scan"}, "type": "electric_scooter", "name": "4c44a33318d18ea4306fb8546cd09bbf", "is_reserved": 0, "lon": -77.03250166666666, "is_disabled": 0, "fusion_lat": 0.0, "lat": 38.91124683333334, "bike_id": "4c44a33318d18ea4306fb8546cd09bbf", "fusion_lon": 0.0}, {"rental_uris": {"ios": "https://dc.lft.to/lastmile_qr_scan", "android": "https://dc.lft.to/lastmile_qr_scan"}, "type": "electric_scooter", "name": "4b00eb33c50cd5577196752561bbdb36", "is_reserved": 0, "lon": -76.94652533333333, "is_disabled": 0, "fusion_lat": 0.0, "lat": 38.898268, "bike_id": "4b00eb33c50cd5577196752561bbdb36", "fusion_lon": 0.0}, {"rental_uris": {"ios": "https://dc.lft.to/lastmile_qr_scan", "android": "https://dc.lft.to/lastmile_qr_scan"}, "type": "electric_scooter", "name": "785c908cdb3bf0c8798a15e55131ac8b", "is_reserved": 0, "lon": -77.04871983333334, "is_disabled": 0, "fusion_lat": 0.0, "lat": 38.90073133333333, "bike_id": "785c908cdb3bf0c8798a15e55131ac8b", "fusion_lon": 0.0}, {"rental_uris": {"ios": "https://dc.lft.to/lastmile_qr_scan", "android": "https://dc.lft.to/lastmile_qr_scan"}, "type": "electric_scooter", "name": "1bb4dd1596b558d4d59669afd92eba29", "is_reserved": 0, "lon": -77.04166116666667, "is_disabled": 0, "fusion_lat": 0.0, "lat": 38.918329, "bike_id": "1bb4dd1596b558d4d59669afd92eba29", "fusion_lon": 0.0}, {"rental_uris": {"ios": "https://dc.lft.to/lastmile_qr_scan", "android": "https://dc.lft.to/lastmile_qr_scan"}, "type": "electric_scooter", "name": "0be7db13053b61e0432f369d574827e8", "is_reserved": 0, "lon": -77.04688266666666, "is_disabled": 0, "fusion_lat": 0.0, "lat": 38.903098666666665, "bike_id": "0be7db13053b61e0432f369d574827e8", "fusion_lon": 0.0}, {"rental_uris": {"ios": "https://dc.lft.to/lastmile_qr_scan", "android": "https://dc.lft.to/lastmile_qr_scan"}, "type": "electric_scooter", "name": "bef2d48cf6dcfcf93cee64201a405f03", "is_reserved": 0, "lon": -77.066754, "is_disabled": 0, "fusion_lat": 0.0, "lat": 38.95012916666667, "bike_id": "bef2d48cf6dcfcf93cee64201a405f03", "fusion_lon": 0.0}, {"rental_uris": {"ios": "https://dc.lft.to/lastmile_qr_scan", "android": "https://dc.lft.to/lastmile_qr_scan"}, "type": "electric_scooter", "name": "83af54c55c4bb472a7fb755acdcb57fa", "is_reserved": 0, "lon": -77.038033, "is_disabled": 0, "fusion_lat": 0.0, "lat": 38.9104435, "bike_id": "83af54c55c4bb472a7fb755acdcb57fa", "fusion_lon": 0.0}, {"rental_uris": {"ios": "https://dc.lft.to/lastmile_qr_scan", "android": "https://dc.lft.to/lastmile_qr_scan"}, "type": "electric_scooter", "name": "7e13fc3ba0ba8871c1fa4454ef3d057f", "is_reserved": 0, "lon": -77.04362383333333, "is_disabled": 0, "fusion_lat": 0.0, "lat": 38.91663116666667, "bike_id": "7e13fc3ba0ba8871c1fa4454ef3d057f", "fusion_lon": 0.0}, {"rental_uris": {"ios": "https://dc.lft.to/lastmile_qr_scan", "android": "https://dc.lft.to/lastmile_qr_scan"}, "type": "electric_scooter", "name": "04c8ef3f095ec522efb290659e4725cd", "is_reserved": 0, "lon": -77.02277716666667, "is_disabled": 0, "fusion_lat": 0.0, "lat": 38.91677083333333, "bike_id": "04c8ef3f095ec522efb290659e4725cd", "fusion_lon": 0.0}, {"rental_uris": {"ios": "https://dc.lft.to/lastmile_qr_scan", "android": "https://dc.lft.to/lastmile_qr_scan"}, "type": "electric_scooter", "name": "7e766e537a1909381af8f8a12c373713", "is_reserved": 0, "lon": -77.09344716666666, "is_disabled": 0, "fusion_lat": 0.0, "lat": 38.8840295, "bike_id": "7e766e537a1909381af8f8a12c373713", "fusion_lon": 0.0}, {"rental_uris": {"ios": "https://dc.lft.to/lastmile_qr_scan", "android": "https://dc.lft.to/lastmile_qr_scan"}, "type": "electric_scooter", "name": "23b1cefb5f6e2ca9339c4eb35db6742f", "is_reserved": 0, "lon": -77.02884616666667, "is_disabled": 0, "fusion_lat": 0.0, "lat": 38.90719466666667, "bike_id": "23b1cefb5f6e2ca9339c4eb35db6742f", "fusion_lon": 0.0}, {"rental_uris": {"ios": "https://dc.lft.to/lastmile_qr_scan", "android": "https://dc.lft.to/lastmile_qr_scan"}, "type": "electric_scooter", "name": "d9253cd32617def6ca8a52fdaef0c68d", "is_reserved": 0, "lon": -77.01886416666666, "is_disabled": 0, "fusion_lat": 0.0, "lat": 38.8974735, "bike_id": "d9253cd32617def6ca8a52fdaef0c68d", "fusion_lon": 0.0}, {"rental_uris": {"ios": "https://dc.lft.to/lastmile_qr_scan", "android": "https://dc.lft.to/lastmile_qr_scan"}, "type": "electric_scooter", "name": "3ae2e489d73f869c41eb0f998d49da76", "is_reserved": 0, "lon": -77.02198866666667, "is_disabled": 0, "fusion_lat": 0.0, "lat": 38.91127133333333, "bike_id": "3ae2e489d73f869c41eb0f998d49da76", "fusion_lon": 0.0}, {"rental_uris": {"ios": "https://dc.lft.to/lastmile_qr_scan", "android": "https://dc.lft.to/lastmile_qr_scan"}, "type": "electric_scooter", "name": "3b86f08fa0546e67e54e5036fac69cae", "is_reserved": 0, "lon": -77.034625, "is_disabled": 0, "fusion_lat": 0.0, "lat": 38.90809683333333, "bike_id": "3b86f08fa0546e67e54e5036fac69cae", "fusion_lon": 0.0}, {"rental_uris": {"ios": "https://dc.lft.to/lastmile_qr_scan", "android": "https://dc.lft.to/lastmile_qr_scan"}, "type": "electric_bike", "name": "6adc51c8b7215e07ee631972e0231878", "is_reserved": 0, "lon": -76.94974933333333, "is_disabled": 0, "fusion_lat": 0.0, "lat": 38.88301633333333, "bike_id": "6adc51c8b7215e07ee631972e0231878", "fusion_lon": 0.0}, {"rental_uris": {"ios": "https://dc.lft.to/lastmile_qr_scan", "android": "https://dc.lft.to/lastmile_qr_scan"}, "type": "electric_scooter", "name": "1e6957a009314c0012cfc93539bc638e", "is_reserved": 0, "lon": -77.029075, "is_disabled": 0, "fusion_lat": 0.0, "lat": 38.9404455, "bike_id": "1e6957a009314c0012cfc93539bc638e", "fusion_lon": 0.0}, {"rental_uris": {"ios": "https://dc.lft.to/lastmile_qr_scan", "android": "https://dc.lft.to/lastmile_qr_scan"}, "type": "electric_scooter", "name": "25f3519ed2a639ecc0c3262559ed3f1f", "is_reserved": 0, "lon": -77.03629483333333, "is_disabled": 0, "fusion_lat": 0.0, "lat": 38.92662033333333, "bike_id": "25f3519ed2a639ecc0c3262559ed3f1f", "fusion_lon": 0.0}, {"rental_uris": {"ios": "https://dc.lft.to/lastmile_qr_scan", "android": "https://dc.lft.to/lastmile_qr_scan"}, "type": "electric_scooter", "name": "c4d35f92e399baa30615c011db8598ca", "is_reserved": 0, "lon": -77.01916316666667, "is_disabled": 0, "fusion_lat": 0.0, "lat": 38.905652833333335, "bike_id": "c4d35f92e399baa30615c011db8598ca", "fusion_lon": 0.0}, {"rental_uris": {"ios": "https://dc.lft.to/lastmile_qr_scan", "android": "https://dc.lft.to/lastmile_qr_scan"}, "type": "electric_scooter", "name": "cbbdbbec5100f94bba9c739a674f0e5f", "is_reserved": 0, "lon": -76.99610766666666, "is_disabled": 0, "fusion_lat": 0.0, "lat": 38.8862485, "bike_id": "cbbdbbec5100f94bba9c739a674f0e5f", "fusion_lon": 0.0}, {"rental_uris": {"ios": "https://dc.lft.to/lastmile_qr_scan", "android": "https://dc.lft.to/lastmile_qr_scan"}, "type": "electric_scooter", "name": "1e026c4249bf00c8eb7ace4d6db29a2f", "is_reserved": 0, "lon": -77.0507665, "is_disabled": 0, "fusion_lat": 0.0, "lat": 38.897202, "bike_id": "1e026c4249bf00c8eb7ace4d6db29a2f", "fusion_lon": 0.0}, {"rental_uris": {"ios": "https://dc.lft.to/lastmile_qr_scan", "android": "https://dc.lft.to/lastmile_qr_scan"}, "type": "electric_scooter", "name": "3057e9911529b0bce170c7b5eb93c51f", "is_reserved": 0, "lon": -77.04166916666667, "is_disabled": 0, "fusion_lat": 0.0, "lat": 38.91832266666667, "bike_id": "3057e9911529b0bce170c7b5eb93c51f", "fusion_lon": 0.0}, {"rental_uris": {"ios": "https://dc.lft.to/lastmile_qr_scan", "android": "https://dc.lft.to/lastmile_qr_scan"}, "type": "electric_scooter", "name": "811938dce68a572f640988045e194837", "is_reserved": 0, "lon": -77.00355116666667, "is_disabled": 0, "fusion_lat": 0.0, "lat": 38.89938, "bike_id": "811938dce68a572f640988045e194837", "fusion_lon": 0.0}, {"rental_uris": {"ios": "https://dc.lft.to/lastmile_qr_scan", "android": "https://dc.lft.to/lastmile_qr_scan"}, "type": "electric_scooter", "name": "395bbba9ac79d66059d65318ba71fe55", "is_reserved": 0, "lon": -77.00388516666666, "is_disabled": 0, "fusion_lat": 0.0, "lat": 38.90563266666667, "bike_id": "395bbba9ac79d66059d65318ba71fe55", "fusion_lon": 0.0}, {"rental_uris": {"ios": "https://dc.lft.to/lastmile_qr_scan", "android": "https://dc.lft.to/lastmile_qr_scan"}, "type": "electric_bike", "name": "22e82b1d26c79f8cfef272a3d7d7b04d", "is_reserved": 0, "lon": -77.22188416666667, "is_disabled": 0, "fusion_lat": 0.0, "lat": 38.87175516666667, "bike_id": "22e82b1d26c79f8cfef272a3d7d7b04d", "fusion_lon": 0.0}, {"rental_uris": {"ios": "https://dc.lft.to/lastmile_qr_scan", "android": "https://dc.lft.to/lastmile_qr_scan"}, "type": "electric_scooter", "name": "3c88cd2b99d7d137e379ca47eebc7086", "is_reserved": 0, "lon": -77.018827, "is_disabled": 0, "fusion_lat": 0.0, "lat": 38.87714366666667, "bike_id": "3c88cd2b99d7d137e379ca47eebc7086", "fusion_lon": 0.0}, {"rental_uris": {"ios": "https://dc.lft.to/lastmile_qr_scan", "android": "https://dc.lft.to/lastmile_qr_scan"}, "type": "electric_scooter", "name": "c53fdc34d8b9e978c56efb69adcf0279", "is_reserved": 0, "lon": -77.02557033333333, "is_disabled": 0, "fusion_lat": 0.0, "lat": 38.920351, "bike_id": "c53fdc34d8b9e978c56efb69adcf0279", "fusion_lon": 0.0}, {"rental_uris": {"ios": "https://dc.lft.to/lastmile_qr_scan", "android": "https://dc.lft.to/lastmile_qr_scan"}, "type": "electric_scooter", "name": "66ec8825a8f70a10dcc9f80b6e102e43", "is_reserved": 0, "lon": -77.05028583333333, "is_disabled": 0, "fusion_lat": 0.0, "lat": 38.896556833333335, "bike_id": "66ec8825a8f70a10dcc9f80b6e102e43", "fusion_lon": 0.0}, {"rental_uris": {"ios": "https://dc.lft.to/lastmile_qr_scan", "android": "https://dc.lft.to/lastmile_qr_scan"}, "type": "electric_scooter", "name": "47dab1f2554c1f12b829c5808ad5068a", "is_reserved": 0, "lon": -77.00740416666666, "is_disabled": 0, "fusion_lat": 0.0, "lat": 38.87832933333333, "bike_id": "47dab1f2554c1f12b829c5808ad5068a", "fusion_lon": 0.0}, {"rental_uris": {"ios": "https://dc.lft.to/lastmile_qr_scan", "android": "https://dc.lft.to/lastmile_qr_scan"}, "type": "electric_bike", "name": "edab28c6eda6ca20803975ba4983fbda", "is_reserved": 0, "lon": -76.99543916666667, "is_disabled": 0, "fusion_lat": 0.0, "lat": 38.86215966666666, "bike_id": "edab28c6eda6ca20803975ba4983fbda", "fusion_lon": 0.0}, {"rental_uris": {"ios": "https://dc.lft.to/lastmile_qr_scan", "android": "https://dc.lft.to/lastmile_qr_scan"}, "type": "electric_scooter", "name": "7d20e2429168e816b6fb025feb461158", "is_reserved": 0, "lon": -77.0257805, "is_disabled": 0, "fusion_lat": 0.0, "lat": 38.8871695, "bike_id": "7d20e2429168e816b6fb025feb461158", "fusion_lon": 0.0}, {"rental_uris": {"ios": "https://dc.lft.to/lastmile_qr_scan", "android": "https://dc.lft.to/lastmile_qr_scan"}, "type": "electric_scooter", "name": "7ca2ffe5271533db2e6b0aba91088bcf", "is_reserved": 0, "lon": -77.020121, "is_disabled": 0, "fusion_lat": 0.0, "lat": 38.911118333333334, "bike_id": "7ca2ffe5271533db2e6b0aba91088bcf", "fusion_lon": 0.0}, {"rental_uris": {"ios": "https://dc.lft.to/lastmile_qr_scan", "android": "https://dc.lft.to/lastmile_qr_scan"}, "type": "electric_bike", "name": "6cb800b68a7f30e8e43a55df9f824afa", "is_reserved": 0, "lon": -76.90741316666667, "is_disabled": 0, "fusion_lat": 0.0, "lat": 38.896192, "bike_id": "6cb800b68a7f30e8e43a55df9f824afa", "fusion_lon": 0.0}, {"rental_uris": {"ios": "https://dc.lft.to/lastmile_qr_scan", "android": "https://dc.lft.to/lastmile_qr_scan"}, "type": "electric_scooter", "name": "45697358398fc3452491c6622d6eb349", "is_reserved": 0, "lon": -77.02180283333334, "is_disabled": 0, "fusion_lat": 0.0, "lat": 38.911253, "bike_id": "45697358398fc3452491c6622d6eb349", "fusion_lon": 0.0}, {"rental_uris": {"ios": "https://dc.lft.to/lastmile_qr_scan", "android": "https://dc.lft.to/lastmile_qr_scan"}, "type": "electric_scooter", "name": "bf646709502603a5e17804034e330568", "is_reserved": 0, "lon": -77.0301935, "is_disabled": 0, "fusion_lat": 0.0, "lat": 38.87846583333334, "bike_id": "bf646709502603a5e17804034e330568", "fusion_lon": 0.0}, {"rental_uris": {"ios": "https://dc.lft.to/lastmile_qr_scan", "android": "https://dc.lft.to/lastmile_qr_scan"}, "type": "electric_scooter", "name": "bd19b7758dd691fdd994b5e8386f3c57", "is_reserved": 0, "lon": -77.00729333333334, "is_disabled": 0, "fusion_lat": 0.0, "lat": 38.8989195, "bike_id": "bd19b7758dd691fdd994b5e8386f3c57", "fusion_lon": 0.0}, {"rental_uris": {"ios": "https://dc.lft.to/lastmile_qr_scan", "android": "https://dc.lft.to/lastmile_qr_scan"}, "type": "electric_scooter", "name": "460fb0a84c9763bfcac35f815ac02727", "is_reserved": 0, "lon": -77.05763233333333, "is_disabled": 0, "fusion_lat": 0.0, "lat": 38.92508316666667, "bike_id": "460fb0a84c9763bfcac35f815ac02727", "fusion_lon": 0.0}, {"rental_uris": {"ios": "https://dc.lft.to/lastmile_qr_scan", "android": "https://dc.lft.to/lastmile_qr_scan"}, "type": "electric_bike", "name": "7a46a6425ac787b909c728f1754e4815", "is_reserved": 0, "lon": -76.99803266666666, "is_disabled": 0, "fusion_lat": 0.0, "lat": 38.908537, "bike_id": "7a46a6425ac787b909c728f1754e4815", "fusion_lon": 0.0}, {"rental_uris": {"ios": "https://dc.lft.to/lastmile_qr_scan", "android": "https://dc.lft.to/lastmile_qr_scan"}, "type": "electric_scooter", "name": "edb84b2056b646fdea3cf5bfbb97c926", "is_reserved": 0, "lon": -77.04585033333333, "is_disabled": 0, "fusion_lat": 0.0, "lat": 38.90585516666667, "bike_id": "edb84b2056b646fdea3cf5bfbb97c926", "fusion_lon": 0.0}, {"rental_uris": {"ios": "https://dc.lft.to/lastmile_qr_scan", "android": "https://dc.lft.to/lastmile_qr_scan"}, "type": "electric_scooter", "name": "394fc0d2f758a46de74bdc9e50eb98fb", "is_reserved": 0, "lon": -77.022048, "is_disabled": 0, "fusion_lat": 0.0, "lat": 38.95156, "bike_id": "394fc0d2f758a46de74bdc9e50eb98fb", "fusion_lon": 0.0}, {"rental_uris": {"ios": "https://dc.lft.to/lastmile_qr_scan", "android": "https://dc.lft.to/lastmile_qr_scan"}, "type": "electric_bike", "name": "f977e685b52b73086bb19f61bfdbaf2f", "is_reserved": 0, "lon": -77.08566316666666, "is_disabled": 0, "fusion_lat": 0.0, "lat": 38.87420933333333, "bike_id": "f977e685b52b73086bb19f61bfdbaf2f", "fusion_lon": 0.0}, {"rental_uris": {"ios": "https://dc.lft.to/lastmile_qr_scan", "android": "https://dc.lft.to/lastmile_qr_scan"}, "type": "electric_scooter", "name": "49faff5b1cc8fe72e88a15cfc51b2980", "is_reserved": 0, "lon": -77.04397033333333, "is_disabled": 0, "fusion_lat": 0.0, "lat": 38.9203885, "bike_id": "49faff5b1cc8fe72e88a15cfc51b2980", "fusion_lon": 0.0}, {"rental_uris": {"ios": "https://dc.lft.to/lastmile_qr_scan", "android": "https://dc.lft.to/lastmile_qr_scan"}, "type": "electric_scooter", "name": "870f0addb422bd79d06ab699143e367e", "is_reserved": 0, "lon": -76.92922333333334, "is_disabled": 0, "fusion_lat": 0.0, "lat": 38.8927515, "bike_id": "870f0addb422bd79d06ab699143e367e", "fusion_lon": 0.0}, {"rental_uris": {"ios": "https://dc.lft.to/lastmile_qr_scan", "android": "https://dc.lft.to/lastmile_qr_scan"}, "type": "electric_scooter", "name": "c42060f98daf8dc5eff579c3ee77318c", "is_reserved": 0, "lon": -77.0384365, "is_disabled": 0, "fusion_lat": 0.0, "lat": 38.91664316666667, "bike_id": "c42060f98daf8dc5eff579c3ee77318c", "fusion_lon": 0.0}, {"rental_uris": {"ios": "https://dc.lft.to/lastmile_qr_scan", "android": "https://dc.lft.to/lastmile_qr_scan"}, "type": "electric_scooter", "name": "7cb0370bb499b37590b881ea8ada5a0a", "is_reserved": 0, "lon": -77.01827283333333, "is_disabled": 0, "fusion_lat": 0.0, "lat": 38.92254166666667, "bike_id": "7cb0370bb499b37590b881ea8ada5a0a", "fusion_lon": 0.0}, {"rental_uris": {"ios": "https://dc.lft.to/lastmile_qr_scan", "android": "https://dc.lft.to/lastmile_qr_scan"}, "type": "electric_bike", "name": "52e1c15dd651d02b5265a2992df0fcb8", "is_reserved": 0, "lon": -77.09452183333333, "is_disabled": 0, "fusion_lat": 0.0, "lat": 38.80755583333333, "bike_id": "52e1c15dd651d02b5265a2992df0fcb8", "fusion_lon": 0.0}, {"rental_uris": {"ios": "https://dc.lft.to/lastmile_qr_scan", "android": "https://dc.lft.to/lastmile_qr_scan"}, "type": "electric_scooter", "name": "187b056898630510e5e17d7e1a2a98cd", "is_reserved": 0, "lon": -77.01458783333334, "is_disabled": 0, "fusion_lat": 0.0, "lat": 38.87936233333333, "bike_id": "187b056898630510e5e17d7e1a2a98cd", "fusion_lon": 0.0}, {"rental_uris": {"ios": "https://dc.lft.to/lastmile_qr_scan", "android": "https://dc.lft.to/lastmile_qr_scan"}, "type": "electric_scooter", "name": "dd396abea6e0b860a7092836f8eb1c3d", "is_reserved": 0, "lon": -77.04227566666667, "is_disabled": 0, "fusion_lat": 0.0, "lat": 38.92165983333334, "bike_id": "dd396abea6e0b860a7092836f8eb1c3d", "fusion_lon": 0.0}, {"rental_uris": {"ios": "https://dc.lft.to/lastmile_qr_scan", "android": "https://dc.lft.to/lastmile_qr_scan"}, "type": "electric_scooter", "name": "8fcdedbaaf82e3376bc231fc8e2af247", "is_reserved": 0, "lon": -76.972124, "is_disabled": 0, "fusion_lat": 0.0, "lat": 38.917169, "bike_id": "8fcdedbaaf82e3376bc231fc8e2af247", "fusion_lon": 0.0}, {"rental_uris": {"ios": "https://dc.lft.to/lastmile_qr_scan", "android": "https://dc.lft.to/lastmile_qr_scan"}, "type": "electric_scooter", "name": "77dd2c0fbd843d029ab96779b23621dd", "is_reserved": 0, "lon": -77.038691, "is_disabled": 0, "fusion_lat": 0.0, "lat": 38.932305666666664, "bike_id": "77dd2c0fbd843d029ab96779b23621dd", "fusion_lon": 0.0}, {"rental_uris": {"ios": "https://dc.lft.to/lastmile_qr_scan", "android": "https://dc.lft.to/lastmile_qr_scan"}, "type": "electric_scooter", "name": "e2aec953d9b4552b8ec372cfd64890b8", "is_reserved": 0, "lon": -77.0198005, "is_disabled": 0, "fusion_lat": 0.0, "lat": 38.905055, "bike_id": "e2aec953d9b4552b8ec372cfd64890b8", "fusion_lon": 0.0}, {"rental_uris": {"ios": "https://dc.lft.to/lastmile_qr_scan", "android": "https://dc.lft.to/lastmile_qr_scan"}, "type": "electric_scooter", "name": "b0ef4b3d42515b0b958a348b7e9005ef", "is_reserved": 0, "lon": -77.0211105, "is_disabled": 0, "fusion_lat": 0.0, "lat": 38.90937366666667, "bike_id": "b0ef4b3d42515b0b958a348b7e9005ef", "fusion_lon": 0.0}, {"rental_uris": {"ios": "https://dc.lft.to/lastmile_qr_scan", "android": "https://dc.lft.to/lastmile_qr_scan"}, "type": "electric_scooter", "name": "f3f9d9968c0c41f036744db2b338d288", "is_reserved": 0, "lon": -77.026068, "is_disabled": 0, "fusion_lat": 0.0, "lat": 38.9011625, "bike_id": "f3f9d9968c0c41f036744db2b338d288", "fusion_lon": 0.0}, {"rental_uris": {"ios": "https://dc.lft.to/lastmile_qr_scan", "android": "https://dc.lft.to/lastmile_qr_scan"}, "type": "electric_scooter", "name": "72a6f4d6004e107f7346690638a89ac5", "is_reserved": 0, "lon": -77.04403483333333, "is_disabled": 0, "fusion_lat": 0.0, "lat": 38.89589516666667, "bike_id": "72a6f4d6004e107f7346690638a89ac5", "fusion_lon": 0.0}, {"rental_uris": {"ios": "https://dc.lft.to/lastmile_qr_scan", "android": "https://dc.lft.to/lastmile_qr_scan"}, "type": "electric_scooter", "name": "62ace2e11ba6dff944b60a13e5a9b149", "is_reserved": 0, "lon": -77.05814283333333, "is_disabled": 0, "fusion_lat": 0.0, "lat": 38.935199833333336, "bike_id": "62ace2e11ba6dff944b60a13e5a9b149", "fusion_lon": 0.0}, {"rental_uris": {"ios": "https://dc.lft.to/lastmile_qr_scan", "android": "https://dc.lft.to/lastmile_qr_scan"}, "type": "electric_scooter", "name": "5b35afa61bf6c76c46f54576f3f30130", "is_reserved": 0, "lon": -77.02478516666666, "is_disabled": 0, "fusion_lat": 0.0, "lat": 38.90416166666667, "bike_id": "5b35afa61bf6c76c46f54576f3f30130", "fusion_lon": 0.0}, {"rental_uris": {"ios": "https://dc.lft.to/lastmile_qr_scan", "android": "https://dc.lft.to/lastmile_qr_scan"}, "type": "electric_scooter", "name": "706ddbf023f0d8a2d85363e3012907a3", "is_reserved": 0, "lon": -77.022207, "is_disabled": 0, "fusion_lat": 0.0, "lat": 38.920706, "bike_id": "706ddbf023f0d8a2d85363e3012907a3", "fusion_lon": 0.0}, {"rental_uris": {"ios": "https://dc.lft.to/lastmile_qr_scan", "android": "https://dc.lft.to/lastmile_qr_scan"}, "type": "electric_scooter", "name": "a147454026e936f35c0c81a3bd099cc1", "is_reserved": 0, "lon": -77.01846783333333, "is_disabled": 0, "fusion_lat": 0.0, "lat": 38.899541, "bike_id": "a147454026e936f35c0c81a3bd099cc1", "fusion_lon": 0.0}, {"rental_uris": {"ios": "https://dc.lft.to/lastmile_qr_scan", "android": "https://dc.lft.to/lastmile_qr_scan"}, "type": "electric_bike", "name": "d09090e0cb6f8e419f4f551cb2da861e", "is_reserved": 0, "lon": -77.1072735, "is_disabled": 0, "fusion_lat": 0.0, "lat": 38.855434, "bike_id": "d09090e0cb6f8e419f4f551cb2da861e", "fusion_lon": 0.0}, {"rental_uris": {"ios": "https://dc.lft.to/lastmile_qr_scan", "android": "https://dc.lft.to/lastmile_qr_scan"}, "type": "electric_bike", "name": "fed02d9fa2bd13321388a91c869e3491", "is_reserved": 0, "lon": -76.99076233333334, "is_disabled": 0, "fusion_lat": 0.0, "lat": 38.834563, "bike_id": "fed02d9fa2bd13321388a91c869e3491", "fusion_lon": 0.0}, {"rental_uris": {"ios": "https://dc.lft.to/lastmile_qr_scan", "android": "https://dc.lft.to/lastmile_qr_scan"}, "type": "electric_scooter", "name": "fc73123da9b3f4d3da5367640cba3cfe", "is_reserved": 0, "lon": -77.030615, "is_disabled": 0, "fusion_lat": 0.0, "lat": 38.9266345, "bike_id": "fc73123da9b3f4d3da5367640cba3cfe", "fusion_lon": 0.0}, {"rental_uris": {"ios": "https://dc.lft.to/lastmile_qr_scan", "android": "https://dc.lft.to/lastmile_qr_scan"}, "type": "electric_scooter", "name": "55827a8afb41db5eb2c9d7d2092dbf06", "is_reserved": 0, "lon": -77.04857933333334, "is_disabled": 0, "fusion_lat": 0.0, "lat": 38.90563216666666, "bike_id": "55827a8afb41db5eb2c9d7d2092dbf06", "fusion_lon": 0.0}, {"rental_uris": {"ios": "https://dc.lft.to/lastmile_qr_scan", "android": "https://dc.lft.to/lastmile_qr_scan"}, "type": "electric_scooter", "name": "4e0063a9a834b4ecaedb0203493dc65c", "is_reserved": 0, "lon": -77.037585, "is_disabled": 0, "fusion_lat": 0.0, "lat": 38.929058833333336, "bike_id": "4e0063a9a834b4ecaedb0203493dc65c", "fusion_lon": 0.0}, {"rental_uris": {"ios": "https://dc.lft.to/lastmile_qr_scan", "android": "https://dc.lft.to/lastmile_qr_scan"}, "type": "electric_scooter", "name": "7ce1a7b7150f1f99fcb4f84f50aed25d", "is_reserved": 0, "lon": -77.04227233333333, "is_disabled": 0, "fusion_lat": 0.0, "lat": 38.921478, "bike_id": "7ce1a7b7150f1f99fcb4f84f50aed25d", "fusion_lon": 0.0}, {"rental_uris": {"ios": "https://dc.lft.to/lastmile_qr_scan", "android": "https://dc.lft.to/lastmile_qr_scan"}, "type": "electric_scooter", "name": "ad89d40a8656f2da9896b144b80e7fd0", "is_reserved": 0, "lon": -77.02405733333333, "is_disabled": 0, "fusion_lat": 0.0, "lat": 38.927033333333334, "bike_id": "ad89d40a8656f2da9896b144b80e7fd0", "fusion_lon": 0.0}, {"rental_uris": {"ios": "https://dc.lft.to/lastmile_qr_scan", "android": "https://dc.lft.to/lastmile_qr_scan"}, "type": "electric_scooter", "name": "33a4e19c62d450169711fa8979a74dac", "is_reserved": 0, "lon": -76.9573905, "is_disabled": 0, "fusion_lat": 0.0, "lat": 38.88392483333333, "bike_id": "33a4e19c62d450169711fa8979a74dac", "fusion_lon": 0.0}, {"rental_uris": {"ios": "https://dc.lft.to/lastmile_qr_scan", "android": "https://dc.lft.to/lastmile_qr_scan"}, "type": "electric_scooter", "name": "7a6062bef27d3056e4f91ea5d0f9cd11", "is_reserved": 0, "lon": -76.94897516666667, "is_disabled": 0, "fusion_lat": 0.0, "lat": 38.89524133333333, "bike_id": "7a6062bef27d3056e4f91ea5d0f9cd11", "fusion_lon": 0.0}, {"rental_uris": {"ios": "https://dc.lft.to/lastmile_qr_scan", "android": "https://dc.lft.to/lastmile_qr_scan"}, "type": "electric_scooter", "name": "75f922c52a03d774fde67e6559d47521", "is_reserved": 0, "lon": -77.01767033333333, "is_disabled": 0, "fusion_lat": 0.0, "lat": 38.920443, "bike_id": "75f922c52a03d774fde67e6559d47521", "fusion_lon": 0.0}, {"rental_uris": {"ios": "https://dc.lft.to/lastmile_qr_scan", "android": "https://dc.lft.to/lastmile_qr_scan"}, "type": "electric_scooter", "name": "9731e0ce9d63b7557b1fae0eef0a5621", "is_reserved": 0, "lon": -77.043388, "is_disabled": 0, "fusion_lat": 0.0, "lat": 38.9081225, "bike_id": "9731e0ce9d63b7557b1fae0eef0a5621", "fusion_lon": 0.0}, {"rental_uris": {"ios": "https://dc.lft.to/lastmile_qr_scan", "android": "https://dc.lft.to/lastmile_qr_scan"}, "type": "electric_scooter", "name": "d560b3cbf3956a880f9c95fc167a44fb", "is_reserved": 0, "lon": -77.02693333333333, "is_disabled": 0, "fusion_lat": 0.0, "lat": 38.92596266666666, "bike_id": "d560b3cbf3956a880f9c95fc167a44fb", "fusion_lon": 0.0}, {"rental_uris": {"ios": "https://dc.lft.to/lastmile_qr_scan", "android": "https://dc.lft.to/lastmile_qr_scan"}, "type": "electric_scooter", "name": "06dfcbb74936790dcf8b0594d8c43e83", "is_reserved": 0, "lon": -77.07170266666667, "is_disabled": 0, "fusion_lat": 0.0, "lat": 38.907772333333334, "bike_id": "06dfcbb74936790dcf8b0594d8c43e83", "fusion_lon": 0.0}, {"rental_uris": {"ios": "https://dc.lft.to/lastmile_qr_scan", "android": "https://dc.lft.to/lastmile_qr_scan"}, "type": "electric_scooter", "name": "cde4ba1ffb79791507d2e7241e31f9c5", "is_reserved": 0, "lon": -77.05427833333333, "is_disabled": 0, "fusion_lat": 0.0, "lat": 38.928511, "bike_id": "cde4ba1ffb79791507d2e7241e31f9c5", "fusion_lon": 0.0}, {"rental_uris": {"ios": "https://dc.lft.to/lastmile_qr_scan", "android": "https://dc.lft.to/lastmile_qr_scan"}, "type": "electric_scooter", "name": "7a5eaf6120e8bd7314e79046d1a18fc1", "is_reserved": 0, "lon": -77.02680633333334, "is_disabled": 0, "fusion_lat": 0.0, "lat": 38.92479633333333, "bike_id": "7a5eaf6120e8bd7314e79046d1a18fc1", "fusion_lon": 0.0}, {"rental_uris": {"ios": "https://dc.lft.to/lastmile_qr_scan", "android": "https://dc.lft.to/lastmile_qr_scan"}, "type": "electric_scooter", "name": "65e1875d11c62735266db14a00fa27b0", "is_reserved": 0, "lon": -77.026562, "is_disabled": 0, "fusion_lat": 0.0, "lat": 38.924808666666664, "bike_id": "65e1875d11c62735266db14a00fa27b0", "fusion_lon": 0.0}, {"rental_uris": {"ios": "https://dc.lft.to/lastmile_qr_scan", "android": "https://dc.lft.to/lastmile_qr_scan"}, "type": "electric_scooter", "name": "4c54b008f942ef6fd9987aa9c60ec4a0", "is_reserved": 0, "lon": -77.04154783333334, "is_disabled": 0, "fusion_lat": 0.0, "lat": 38.90574466666666, "bike_id": "4c54b008f942ef6fd9987aa9c60ec4a0", "fusion_lon": 0.0}, {"rental_uris": {"ios": "https://dc.lft.to/lastmile_qr_scan", "android": "https://dc.lft.to/lastmile_qr_scan"}, "type": "electric_scooter", "name": "07e1e94edea71eea87162ff20ccfc969", "is_reserved": 0, "lon": -76.965511, "is_disabled": 0, "fusion_lat": 0.0, "lat": 38.91850816666667, "bike_id": "07e1e94edea71eea87162ff20ccfc969", "fusion_lon": 0.0}, {"rental_uris": {"ios": "https://dc.lft.to/lastmile_qr_scan", "android": "https://dc.lft.to/lastmile_qr_scan"}, "type": "electric_scooter", "name": "2cecdba2b28e0e8640cd1ff6d8a64222", "is_reserved": 0, "lon": -77.04892516666666, "is_disabled": 0, "fusion_lat": 0.0, "lat": 38.919444666666664, "bike_id": "2cecdba2b28e0e8640cd1ff6d8a64222", "fusion_lon": 0.0}, {"rental_uris": {"ios": "https://dc.lft.to/lastmile_qr_scan", "android": "https://dc.lft.to/lastmile_qr_scan"}, "type": "electric_scooter", "name": "89d7049db6548860b2b89178c10ab4b0", "is_reserved": 0, "lon": -77.0404995, "is_disabled": 0, "fusion_lat": 0.0, "lat": 38.9301565, "bike_id": "89d7049db6548860b2b89178c10ab4b0", "fusion_lon": 0.0}, {"rental_uris": {"ios": "https://dc.lft.to/lastmile_qr_scan", "android": "https://dc.lft.to/lastmile_qr_scan"}, "type": "electric_scooter", "name": "43292038fe2cfc3e4a3bb85e017920e6", "is_reserved": 0, "lon": -77.02975683333334, "is_disabled": 0, "fusion_lat": 0.0, "lat": 38.921935833333336, "bike_id": "43292038fe2cfc3e4a3bb85e017920e6", "fusion_lon": 0.0}, {"rental_uris": {"ios": "https://dc.lft.to/lastmile_qr_scan", "android": "https://dc.lft.to/lastmile_qr_scan"}, "type": "electric_scooter", "name": "c00ab0e5ce30097a599ef9b75083257c", "is_reserved": 0, "lon": -77.023134, "is_disabled": 0, "fusion_lat": 0.0, "lat": 38.9207785, "bike_id": "c00ab0e5ce30097a599ef9b75083257c", "fusion_lon": 0.0}, {"rental_uris": {"ios": "https://dc.lft.to/lastmile_qr_scan", "android": "https://dc.lft.to/lastmile_qr_scan"}, "type": "electric_scooter", "name": "8a7f438320457600befc736e95e5b430", "is_reserved": 0, "lon": -77.0325465, "is_disabled": 0, "fusion_lat": 0.0, "lat": 38.92885016666666, "bike_id": "8a7f438320457600befc736e95e5b430", "fusion_lon": 0.0}, {"rental_uris": {"ios": "https://dc.lft.to/lastmile_qr_scan", "android": "https://dc.lft.to/lastmile_qr_scan"}, "type": "electric_scooter", "name": "57a154c08a34bc1c5e8bd227fedec2b2", "is_reserved": 0, "lon": -77.08397733333334, "is_disabled": 0, "fusion_lat": 0.0, "lat": 38.90804266666667, "bike_id": "57a154c08a34bc1c5e8bd227fedec2b2", "fusion_lon": 0.0}, {"rental_uris": {"ios": "https://dc.lft.to/lastmile_qr_scan", "android": "https://dc.lft.to/lastmile_qr_scan"}, "type": "electric_bike", "name": "cd0f219d901514f0bfccd80c0bb3202f", "is_reserved": 0, "lon": -76.94555466666667, "is_disabled": 0, "fusion_lat": 0.0, "lat": 38.9830745, "bike_id": "cd0f219d901514f0bfccd80c0bb3202f", "fusion_lon": 0.0}, {"rental_uris": {"ios": "https://dc.lft.to/lastmile_qr_scan", "android": "https://dc.lft.to/lastmile_qr_scan"}, "type": "electric_scooter", "name": "93dcd1e86ffd6d5ce02e5abf605fb75d", "is_reserved": 0, "lon": -77.033576, "is_disabled": 0, "fusion_lat": 0.0, "lat": 38.8997015, "bike_id": "93dcd1e86ffd6d5ce02e5abf605fb75d", "fusion_lon": 0.0}, {"rental_uris": {"ios": "https://dc.lft.to/lastmile_qr_scan", "android": "https://dc.lft.to/lastmile_qr_scan"}, "type": "electric_scooter", "name": "93f0d7e35e9b471b093d3af99ccaaa45", "is_reserved": 0, "lon": -77.03899666666666, "is_disabled": 0, "fusion_lat": 0.0, "lat": 38.922486166666665, "bike_id": "93f0d7e35e9b471b093d3af99ccaaa45", "fusion_lon": 0.0}, {"rental_uris": {"ios": "https://dc.lft.to/lastmile_qr_scan", "android": "https://dc.lft.to/lastmile_qr_scan"}, "type": "electric_bike", "name": "4e4f6403614b1299cab46f890f60b9a3", "is_reserved": 0, "lon": -77.00760083333333, "is_disabled": 0, "fusion_lat": 0.0, "lat": 38.997823833333335, "bike_id": "4e4f6403614b1299cab46f890f60b9a3", "fusion_lon": 0.0}, {"rental_uris": {"ios": "https://dc.lft.to/lastmile_qr_scan", "android": "https://dc.lft.to/lastmile_qr_scan"}, "type": "electric_scooter", "name": "0bfd8a0731fc6f45451ba4419f37d322", "is_reserved": 0, "lon": -77.00344883333334, "is_disabled": 0, "fusion_lat": 0.0, "lat": 38.87720133333333, "bike_id": "0bfd8a0731fc6f45451ba4419f37d322", "fusion_lon": 0.0}, {"rental_uris": {"ios": "https://dc.lft.to/lastmile_qr_scan", "android": "https://dc.lft.to/lastmile_qr_scan"}, "type": "electric_scooter", "name": "65f9e24a2fe50423285b7cd3ce51abd8", "is_reserved": 0, "lon": -77.03951066666667, "is_disabled": 0, "fusion_lat": 0.0, "lat": 38.898235666666665, "bike_id": "65f9e24a2fe50423285b7cd3ce51abd8", "fusion_lon": 0.0}, {"rental_uris": {"ios": "https://dc.lft.to/lastmile_qr_scan", "android": "https://dc.lft.to/lastmile_qr_scan"}, "type": "electric_bike", "name": "c8c2192963366f5c79b120c4c2a16833", "is_reserved": 0, "lon": -76.95241916666667, "is_disabled": 0, "fusion_lat": 0.0, "lat": 38.88466366666667, "bike_id": "c8c2192963366f5c79b120c4c2a16833", "fusion_lon": 0.0}, {"rental_uris": {"ios": "https://dc.lft.to/lastmile_qr_scan", "android": "https://dc.lft.to/lastmile_qr_scan"}, "type": "electric_scooter", "name": "347113ae1223b2dadf5ada284bbe611e", "is_reserved": 0, "lon": -77.00055366666666, "is_disabled": 0, "fusion_lat": 0.0, "lat": 38.876905666666666, "bike_id": "347113ae1223b2dadf5ada284bbe611e", "fusion_lon": 0.0}, {"rental_uris": {"ios": "https://dc.lft.to/lastmile_qr_scan", "android": "https://dc.lft.to/lastmile_qr_scan"}, "type": "electric_scooter", "name": "da71be44cbd77de3cb20d6ce46783f40", "is_reserved": 0, "lon": -77.01760783333333, "is_disabled": 0, "fusion_lat": 0.0, "lat": 38.87688466666667, "bike_id": "da71be44cbd77de3cb20d6ce46783f40", "fusion_lon": 0.0}, {"rental_uris": {"ios": "https://dc.lft.to/lastmile_qr_scan", "android": "https://dc.lft.to/lastmile_qr_scan"}, "type": "electric_scooter", "name": "2e0ea0a156588f1baab668e38c83d62f", "is_reserved": 0, "lon": -77.02603433333333, "is_disabled": 0, "fusion_lat": 0.0, "lat": 38.9169405, "bike_id": "2e0ea0a156588f1baab668e38c83d62f", "fusion_lon": 0.0}, {"rental_uris": {"ios": "https://dc.lft.to/lastmile_qr_scan", "android": "https://dc.lft.to/lastmile_qr_scan"}, "type": "electric_scooter", "name": "78640a0b708e25118f78003b830a5bc7", "is_reserved": 0, "lon": -77.04006933333334, "is_disabled": 0, "fusion_lat": 0.0, "lat": 38.918256166666666, "bike_id": "78640a0b708e25118f78003b830a5bc7", "fusion_lon": 0.0}, {"rental_uris": {"ios": "https://dc.lft.to/lastmile_qr_scan", "android": "https://dc.lft.to/lastmile_qr_scan"}, "type": "electric_scooter", "name": "3a60e3b116112d5c650e3b24ae34aa72", "is_reserved": 0, "lon": -77.02192266666667, "is_disabled": 0, "fusion_lat": 0.0, "lat": 38.91461266666666, "bike_id": "3a60e3b116112d5c650e3b24ae34aa72", "fusion_lon": 0.0}, {"rental_uris": {"ios": "https://dc.lft.to/lastmile_qr_scan", "android": "https://dc.lft.to/lastmile_qr_scan"}, "type": "electric_scooter", "name": "d861016c23396468e3f30645e8fdfdce", "is_reserved": 0, "lon": -77.03659716666667, "is_disabled": 0, "fusion_lat": 0.0, "lat": 38.922891666666665, "bike_id": "d861016c23396468e3f30645e8fdfdce", "fusion_lon": 0.0}, {"rental_uris": {"ios": "https://dc.lft.to/lastmile_qr_scan", "android": "https://dc.lft.to/lastmile_qr_scan"}, "type": "electric_scooter", "name": "243b8d8596fcae4ec11c25991354755a", "is_reserved": 0, "lon": -77.01524883333333, "is_disabled": 0, "fusion_lat": 0.0, "lat": 38.9015085, "bike_id": "243b8d8596fcae4ec11c25991354755a", "fusion_lon": 0.0}, {"rental_uris": {"ios": "https://dc.lft.to/lastmile_qr_scan", "android": "https://dc.lft.to/lastmile_qr_scan"}, "type": "electric_scooter", "name": "81139a5cacc421bf8d83f289cc59971d", "is_reserved": 0, "lon": -77.037805, "is_disabled": 0, "fusion_lat": 0.0, "lat": 38.92565316666666, "bike_id": "81139a5cacc421bf8d83f289cc59971d", "fusion_lon": 0.0}, {"rental_uris": {"ios": "https://dc.lft.to/lastmile_qr_scan", "android": "https://dc.lft.to/lastmile_qr_scan"}, "type": "electric_scooter", "name": "24165a00fc8bb0fb5846eecc740ee9af", "is_reserved": 0, "lon": -77.01916416666667, "is_disabled": 0, "fusion_lat": 0.0, "lat": 38.902489333333335, "bike_id": "24165a00fc8bb0fb5846eecc740ee9af", "fusion_lon": 0.0}, {"rental_uris": {"ios": "https://dc.lft.to/lastmile_qr_scan", "android": "https://dc.lft.to/lastmile_qr_scan"}, "type": "electric_scooter", "name": "c2ac17f10770d4635886e7c84d52a004", "is_reserved": 0, "lon": -77.0320945, "is_disabled": 0, "fusion_lat": 0.0, "lat": 38.9249555, "bike_id": "c2ac17f10770d4635886e7c84d52a004", "fusion_lon": 0.0}, {"rental_uris": {"ios": "https://dc.lft.to/lastmile_qr_scan", "android": "https://dc.lft.to/lastmile_qr_scan"}, "type": "electric_scooter", "name": "0bb1d2337ec2bde7c3053c63052ab77c", "is_reserved": 0, "lon": -77.0441165, "is_disabled": 0, "fusion_lat": 0.0, "lat": 38.9259105, "bike_id": "0bb1d2337ec2bde7c3053c63052ab77c", "fusion_lon": 0.0}, {"rental_uris": {"ios": "https://dc.lft.to/lastmile_qr_scan", "android": "https://dc.lft.to/lastmile_qr_scan"}, "type": "electric_scooter", "name": "fde2df8d07a2c93877677cc1608516a4", "is_reserved": 0, "lon": -77.0533425, "is_disabled": 0, "fusion_lat": 0.0, "lat": 38.898763833333334, "bike_id": "fde2df8d07a2c93877677cc1608516a4", "fusion_lon": 0.0}, {"rental_uris": {"ios": "https://dc.lft.to/lastmile_qr_scan", "android": "https://dc.lft.to/lastmile_qr_scan"}, "type": "electric_scooter", "name": "5cb3c2338f7b3e508bb93d5490803c38", "is_reserved": 0, "lon": -77.042418, "is_disabled": 0, "fusion_lat": 0.0, "lat": 38.9105465, "bike_id": "5cb3c2338f7b3e508bb93d5490803c38", "fusion_lon": 0.0}, {"rental_uris": {"ios": "https://dc.lft.to/lastmile_qr_scan", "android": "https://dc.lft.to/lastmile_qr_scan"}, "type": "electric_bike", "name": "d64c60fb57f17a64c83fde0835005c40", "is_reserved": 0, "lon": -77.07236683333333, "is_disabled": 0, "fusion_lat": 0.0, "lat": 38.8136095, "bike_id": "d64c60fb57f17a64c83fde0835005c40", "fusion_lon": 0.0}, {"rental_uris": {"ios": "https://dc.lft.to/lastmile_qr_scan", "android": "https://dc.lft.to/lastmile_qr_scan"}, "type": "electric_scooter", "name": "1e08b0b219abfde6c7dd7e9b1dea1285", "is_reserved": 0, "lon": -76.99007383333333, "is_disabled": 0, "fusion_lat": 0.0, "lat": 38.903895166666665, "bike_id": "1e08b0b219abfde6c7dd7e9b1dea1285", "fusion_lon": 0.0}, {"rental_uris": {"ios": "https://dc.lft.to/lastmile_qr_scan", "android": "https://dc.lft.to/lastmile_qr_scan"}, "type": "electric_scooter", "name": "2a5ef935ef2888fc8c1d2a03aba9c197", "is_reserved": 0, "lon": -77.03721833333333, "is_disabled": 0, "fusion_lat": 0.0, "lat": 38.92651566666667, "bike_id": "2a5ef935ef2888fc8c1d2a03aba9c197", "fusion_lon": 0.0}, {"rental_uris": {"ios": "https://dc.lft.to/lastmile_qr_scan", "android": "https://dc.lft.to/lastmile_qr_scan"}, "type": "electric_scooter", "name": "266afa4925a4bc49110af60627c39dd9", "is_reserved": 0, "lon": -77.000552, "is_disabled": 0, "fusion_lat": 0.0, "lat": 38.876916333333334, "bike_id": "266afa4925a4bc49110af60627c39dd9", "fusion_lon": 0.0}, {"rental_uris": {"ios": "https://dc.lft.to/lastmile_qr_scan", "android": "https://dc.lft.to/lastmile_qr_scan"}, "type": "electric_scooter", "name": "11144806b847886b7519a9b1953df387", "is_reserved": 0, "lon": -77.042442, "is_disabled": 0, "fusion_lat": 0.0, "lat": 38.922822333333336, "bike_id": "11144806b847886b7519a9b1953df387", "fusion_lon": 0.0}, {"rental_uris": {"ios": "https://dc.lft.to/lastmile_qr_scan", "android": "https://dc.lft.to/lastmile_qr_scan"}, "type": "electric_bike", "name": "84fdf3809fef53dfda3a6251a903b9e0", "is_reserved": 0, "lon": -77.03366683333333, "is_disabled": 0, "fusion_lat": 0.0, "lat": 38.9287195, "bike_id": "84fdf3809fef53dfda3a6251a903b9e0", "fusion_lon": 0.0}, {"rental_uris": {"ios": "https://dc.lft.to/lastmile_qr_scan", "android": "https://dc.lft.to/lastmile_qr_scan"}, "type": "electric_scooter", "name": "1e137e13adff6cdb3c3a1afa6fa13e0e", "is_reserved": 0, "lon": -77.02094216666667, "is_disabled": 0, "fusion_lat": 0.0, "lat": 38.93121383333333, "bike_id": "1e137e13adff6cdb3c3a1afa6fa13e0e", "fusion_lon": 0.0}, {"rental_uris": {"ios": "https://dc.lft.to/lastmile_qr_scan", "android": "https://dc.lft.to/lastmile_qr_scan"}, "type": "electric_scooter", "name": "3b776b5443dc5dc82109c9ada4db3de8", "is_reserved": 0, "lon": -77.02071133333334, "is_disabled": 0, "fusion_lat": 0.0, "lat": 38.9302085, "bike_id": "3b776b5443dc5dc82109c9ada4db3de8", "fusion_lon": 0.0}, {"rental_uris": {"ios": "https://dc.lft.to/lastmile_qr_scan", "android": "https://dc.lft.to/lastmile_qr_scan"}, "type": "electric_scooter", "name": "11de5bcbad8c24419b7b6de8f439b63c", "is_reserved": 0, "lon": -77.038514, "is_disabled": 0, "fusion_lat": 0.0, "lat": 38.9119515, "bike_id": "11de5bcbad8c24419b7b6de8f439b63c", "fusion_lon": 0.0}, {"rental_uris": {"ios": "https://dc.lft.to/lastmile_qr_scan", "android": "https://dc.lft.to/lastmile_qr_scan"}, "type": "electric_bike", "name": "564d8561f4f3044a3232111286221381", "is_reserved": 0, "lon": -77.08139716666666, "is_disabled": 0, "fusion_lat": 0.0, "lat": 38.822981, "bike_id": "564d8561f4f3044a3232111286221381", "fusion_lon": 0.0}, {"rental_uris": {"ios": "https://dc.lft.to/lastmile_qr_scan", "android": "https://dc.lft.to/lastmile_qr_scan"}, "type": "electric_scooter", "name": "917f5e72ef97a6ec93da9a141ddf6191", "is_reserved": 0, "lon": -76.9856385, "is_disabled": 0, "fusion_lat": 0.0, "lat": 38.900286666666666, "bike_id": "917f5e72ef97a6ec93da9a141ddf6191", "fusion_lon": 0.0}, {"rental_uris": {"ios": "https://dc.lft.to/lastmile_qr_scan", "android": "https://dc.lft.to/lastmile_qr_scan"}, "type": "electric_bike", "name": "3320a5093d4deade81bb42a82600b2f9", "is_reserved": 0, "lon": -76.96322616666667, "is_disabled": 0, "fusion_lat": 0.0, "lat": 38.9389755, "bike_id": "3320a5093d4deade81bb42a82600b2f9", "fusion_lon": 0.0}, {"rental_uris": {"ios": "https://dc.lft.to/lastmile_qr_scan", "android": "https://dc.lft.to/lastmile_qr_scan"}, "type": "electric_scooter", "name": "2cfdbcf16c08af6de3d8845a77456d09", "is_reserved": 0, "lon": -77.02837933333333, "is_disabled": 0, "fusion_lat": 0.0, "lat": 38.88729883333333, "bike_id": "2cfdbcf16c08af6de3d8845a77456d09", "fusion_lon": 0.0}, {"rental_uris": {"ios": "https://dc.lft.to/lastmile_qr_scan", "android": "https://dc.lft.to/lastmile_qr_scan"}, "type": "electric_scooter", "name": "7012f735c1bfe21361ff1f6a7b554d24", "is_reserved": 0, "lon": -77.00192616666666, "is_disabled": 0, "fusion_lat": 0.0, "lat": 38.9077775, "bike_id": "7012f735c1bfe21361ff1f6a7b554d24", "fusion_lon": 0.0}, {"rental_uris": {"ios": "https://dc.lft.to/lastmile_qr_scan", "android": "https://dc.lft.to/lastmile_qr_scan"}, "type": "electric_scooter", "name": "321be613708db38e5b6b3d54e5887689", "is_reserved": 0, "lon": -77.02736116666667, "is_disabled": 0, "fusion_lat": 0.0, "lat": 38.92967466666666, "bike_id": "321be613708db38e5b6b3d54e5887689", "fusion_lon": 0.0}, {"rental_uris": {"ios": "https://dc.lft.to/lastmile_qr_scan", "android": "https://dc.lft.to/lastmile_qr_scan"}, "type": "electric_scooter", "name": "ab01f6a2d04f9b4e1cc21d52804fc0d1", "is_reserved": 0, "lon": -77.01617783333333, "is_disabled": 0, "fusion_lat": 0.0, "lat": 38.902686, "bike_id": "ab01f6a2d04f9b4e1cc21d52804fc0d1", "fusion_lon": 0.0}, {"rental_uris": {"ios": "https://dc.lft.to/lastmile_qr_scan", "android": "https://dc.lft.to/lastmile_qr_scan"}, "type": "electric_scooter", "name": "5eacc62386a4aa8a5e09d6f273e9498f", "is_reserved": 0, "lon": -77.04125716666667, "is_disabled": 0, "fusion_lat": 0.0, "lat": 38.934037333333336, "bike_id": "5eacc62386a4aa8a5e09d6f273e9498f", "fusion_lon": 0.0}, {"rental_uris": {"ios": "https://dc.lft.to/lastmile_qr_scan", "android": "https://dc.lft.to/lastmile_qr_scan"}, "type": "electric_scooter", "name": "596a083a2f1d57499f09617bb84fa156", "is_reserved": 0, "lon": -77.05942933333333, "is_disabled": 0, "fusion_lat": 0.0, "lat": 38.9021365, "bike_id": "596a083a2f1d57499f09617bb84fa156", "fusion_lon": 0.0}, {"rental_uris": {"ios": "https://dc.lft.to/lastmile_qr_scan", "android": "https://dc.lft.to/lastmile_qr_scan"}, "type": "electric_scooter", "name": "95c5c153b9d26a9874596f12b395faf8", "is_reserved": 0, "lon": -77.006015, "is_disabled": 0, "fusion_lat": 0.0, "lat": 38.9056365, "bike_id": "95c5c153b9d26a9874596f12b395faf8", "fusion_lon": 0.0}, {"rental_uris": {"ios": "https://dc.lft.to/lastmile_qr_scan", "android": "https://dc.lft.to/lastmile_qr_scan"}, "type": "electric_scooter", "name": "6634682147f839a52c329e58b549b174", "is_reserved": 0, "lon": -77.02309566666666, "is_disabled": 0, "fusion_lat": 0.0, "lat": 38.92785416666667, "bike_id": "6634682147f839a52c329e58b549b174", "fusion_lon": 0.0}, {"rental_uris": {"ios": "https://dc.lft.to/lastmile_qr_scan", "android": "https://dc.lft.to/lastmile_qr_scan"}, "type": "electric_scooter", "name": "9496816520d675d148654adf48927979", "is_reserved": 0, "lon": -77.0249535, "is_disabled": 0, "fusion_lat": 0.0, "lat": 38.940437333333335, "bike_id": "9496816520d675d148654adf48927979", "fusion_lon": 0.0}, {"rental_uris": {"ios": "https://dc.lft.to/lastmile_qr_scan", "android": "https://dc.lft.to/lastmile_qr_scan"}, "type": "electric_scooter", "name": "a67a94b5b99c9a0cffad8f743d2d8a0c", "is_reserved": 0, "lon": -77.07692166666666, "is_disabled": 0, "fusion_lat": 0.0, "lat": 38.893405666666666, "bike_id": "a67a94b5b99c9a0cffad8f743d2d8a0c", "fusion_lon": 0.0}, {"rental_uris": {"ios": "https://dc.lft.to/lastmile_qr_scan", "android": "https://dc.lft.to/lastmile_qr_scan"}, "type": "electric_scooter", "name": "16da0022a02523adf903394e4072517a", "is_reserved": 0, "lon": -77.01805183333333, "is_disabled": 0, "fusion_lat": 0.0, "lat": 38.921245666666664, "bike_id": "16da0022a02523adf903394e4072517a", "fusion_lon": 0.0}, {"rental_uris": {"ios": "https://dc.lft.to/lastmile_qr_scan", "android": "https://dc.lft.to/lastmile_qr_scan"}, "type": "electric_scooter", "name": "2edd39b1efa839864ca4e61b9a57a7ba", "is_reserved": 0, "lon": -77.03342933333333, "is_disabled": 0, "fusion_lat": 0.0, "lat": 38.9321755, "bike_id": "2edd39b1efa839864ca4e61b9a57a7ba", "fusion_lon": 0.0}, {"rental_uris": {"ios": "https://dc.lft.to/lastmile_qr_scan", "android": "https://dc.lft.to/lastmile_qr_scan"}, "type": "electric_scooter", "name": "42ea53e318c1e255c74c1d2a48414799", "is_reserved": 0, "lon": -76.98211566666667, "is_disabled": 0, "fusion_lat": 0.0, "lat": 38.886427166666664, "bike_id": "42ea53e318c1e255c74c1d2a48414799", "fusion_lon": 0.0}, {"rental_uris": {"ios": "https://dc.lft.to/lastmile_qr_scan", "android": "https://dc.lft.to/lastmile_qr_scan"}, "type": "electric_scooter", "name": "4c9315900a0b1a20d8820b18ba25f378", "is_reserved": 0, "lon": -77.065988, "is_disabled": 0, "fusion_lat": 0.0, "lat": 38.903971166666665, "bike_id": "4c9315900a0b1a20d8820b18ba25f378", "fusion_lon": 0.0}, {"rental_uris": {"ios": "https://dc.lft.to/lastmile_qr_scan", "android": "https://dc.lft.to/lastmile_qr_scan"}, "type": "electric_scooter", "name": "6e8fbbe773cfafa89ce081cdfa9a692e", "is_reserved": 0, "lon": -77.01781366666667, "is_disabled": 0, "fusion_lat": 0.0, "lat": 38.90039516666667, "bike_id": "6e8fbbe773cfafa89ce081cdfa9a692e", "fusion_lon": 0.0}, {"rental_uris": {"ios": "https://dc.lft.to/lastmile_qr_scan", "android": "https://dc.lft.to/lastmile_qr_scan"}, "type": "electric_scooter", "name": "281d11611cd19d711c7f4809f570254b", "is_reserved": 0, "lon": -77.07830616666666, "is_disabled": 0, "fusion_lat": 0.0, "lat": 38.9457005, "bike_id": "281d11611cd19d711c7f4809f570254b", "fusion_lon": 0.0}, {"rental_uris": {"ios": "https://dc.lft.to/lastmile_qr_scan", "android": "https://dc.lft.to/lastmile_qr_scan"}, "type": "electric_scooter", "name": "f1da22b4cd169e49e78290db34bacb7b", "is_reserved": 0, "lon": -77.00285, "is_disabled": 0, "fusion_lat": 0.0, "lat": 38.8461255, "bike_id": "f1da22b4cd169e49e78290db34bacb7b", "fusion_lon": 0.0}, {"rental_uris": {"ios": "https://dc.lft.to/lastmile_qr_scan", "android": "https://dc.lft.to/lastmile_qr_scan"}, "type": "electric_scooter", "name": "466572cce6da0863d13005bb87835e76", "is_reserved": 0, "lon": -76.965445, "is_disabled": 0, "fusion_lat": 0.0, "lat": 38.918558833333336, "bike_id": "466572cce6da0863d13005bb87835e76", "fusion_lon": 0.0}, {"rental_uris": {"ios": "https://dc.lft.to/lastmile_qr_scan", "android": "https://dc.lft.to/lastmile_qr_scan"}, "type": "electric_scooter", "name": "a613757d83e2587bd330535bf36bf555", "is_reserved": 0, "lon": -77.03987916666667, "is_disabled": 0, "fusion_lat": 0.0, "lat": 38.902605, "bike_id": "a613757d83e2587bd330535bf36bf555", "fusion_lon": 0.0}, {"rental_uris": {"ios": "https://dc.lft.to/lastmile_qr_scan", "android": "https://dc.lft.to/lastmile_qr_scan"}, "type": "electric_scooter", "name": "cd3d7ad2810f21a67f1dda909839ef4e", "is_reserved": 0, "lon": -77.04587833333333, "is_disabled": 0, "fusion_lat": 0.0, "lat": 38.9056895, "bike_id": "cd3d7ad2810f21a67f1dda909839ef4e", "fusion_lon": 0.0}, {"rental_uris": {"ios": "https://dc.lft.to/lastmile_qr_scan", "android": "https://dc.lft.to/lastmile_qr_scan"}, "type": "electric_scooter", "name": "f10c1bce1448d10e38127e578eb5bdca", "is_reserved": 0, "lon": -77.04660616666666, "is_disabled": 0, "fusion_lat": 0.0, "lat": 38.917967833333336, "bike_id": "f10c1bce1448d10e38127e578eb5bdca", "fusion_lon": 0.0}, {"rental_uris": {"ios": "https://dc.lft.to/lastmile_qr_scan", "android": "https://dc.lft.to/lastmile_qr_scan"}, "type": "electric_scooter", "name": "576cbf9161f174ae9dd732ddbfc142ac", "is_reserved": 0, "lon": -77.07922966666666, "is_disabled": 0, "fusion_lat": 0.0, "lat": 38.945641333333334, "bike_id": "576cbf9161f174ae9dd732ddbfc142ac", "fusion_lon": 0.0}, {"rental_uris": {"ios": "https://dc.lft.to/lastmile_qr_scan", "android": "https://dc.lft.to/lastmile_qr_scan"}, "type": "electric_scooter", "name": "88f18538d927286d427d31570aa13cae", "is_reserved": 0, "lon": -77.00332566666667, "is_disabled": 0, "fusion_lat": 0.0, "lat": 38.87726116666666, "bike_id": "88f18538d927286d427d31570aa13cae", "fusion_lon": 0.0}, {"rental_uris": {"ios": "https://dc.lft.to/lastmile_qr_scan", "android": "https://dc.lft.to/lastmile_qr_scan"}, "type": "electric_scooter", "name": "93ce256d034972b983437ceeae005c8f", "is_reserved": 0, "lon": -77.01888633333333, "is_disabled": 0, "fusion_lat": 0.0, "lat": 38.897492, "bike_id": "93ce256d034972b983437ceeae005c8f", "fusion_lon": 0.0}, {"rental_uris": {"ios": "https://dc.lft.to/lastmile_qr_scan", "android": "https://dc.lft.to/lastmile_qr_scan"}, "type": "electric_scooter", "name": "2e1ae6fc2b55b455bc492f9641515e9c", "is_reserved": 0, "lon": -76.99611733333333, "is_disabled": 0, "fusion_lat": 0.0, "lat": 38.90323333333333, "bike_id": "2e1ae6fc2b55b455bc492f9641515e9c", "fusion_lon": 0.0}, {"rental_uris": {"ios": "https://dc.lft.to/lastmile_qr_scan", "android": "https://dc.lft.to/lastmile_qr_scan"}, "type": "electric_scooter", "name": "ab83792d1bd37c66e8b8e88cc44b3348", "is_reserved": 0, "lon": -76.986976, "is_disabled": 0, "fusion_lat": 0.0, "lat": 38.88839866666667, "bike_id": "ab83792d1bd37c66e8b8e88cc44b3348", "fusion_lon": 0.0}, {"rental_uris": {"ios": "https://dc.lft.to/lastmile_qr_scan", "android": "https://dc.lft.to/lastmile_qr_scan"}, "type": "electric_scooter", "name": "1eda01c852e027d7ba4b54e117a36fa1", "is_reserved": 0, "lon": -76.979397, "is_disabled": 0, "fusion_lat": 0.0, "lat": 38.916017333333336, "bike_id": "1eda01c852e027d7ba4b54e117a36fa1", "fusion_lon": 0.0}, {"rental_uris": {"ios": "https://dc.lft.to/lastmile_qr_scan", "android": "https://dc.lft.to/lastmile_qr_scan"}, "type": "electric_scooter", "name": "1f0bed8827ad74d134dbf17d326c3e1d", "is_reserved": 0, "lon": -76.98560116666667, "is_disabled": 0, "fusion_lat": 0.0, "lat": 38.900296, "bike_id": "1f0bed8827ad74d134dbf17d326c3e1d", "fusion_lon": 0.0}, {"rental_uris": {"ios": "https://dc.lft.to/lastmile_qr_scan", "android": "https://dc.lft.to/lastmile_qr_scan"}, "type": "electric_scooter", "name": "56c769c27d18c0f27ea529430ad38133", "is_reserved": 0, "lon": -77.0633715, "is_disabled": 0, "fusion_lat": 0.0, "lat": 38.943638, "bike_id": "56c769c27d18c0f27ea529430ad38133", "fusion_lon": 0.0}, {"rental_uris": {"ios": "https://dc.lft.to/lastmile_qr_scan", "android": "https://dc.lft.to/lastmile_qr_scan"}, "type": "electric_scooter", "name": "54e84ec78bb5bbab6c0089ab8ae64b32", "is_reserved": 0, "lon": -77.02636683333333, "is_disabled": 0, "fusion_lat": 0.0, "lat": 38.896118666666666, "bike_id": "54e84ec78bb5bbab6c0089ab8ae64b32", "fusion_lon": 0.0}, {"rental_uris": {"ios": "https://dc.lft.to/lastmile_qr_scan", "android": "https://dc.lft.to/lastmile_qr_scan"}, "type": "electric_scooter", "name": "ef86548fb67847f2d8fa8627246cd8db", "is_reserved": 0, "lon": -77.013408, "is_disabled": 0, "fusion_lat": 0.0, "lat": 38.91917, "bike_id": "ef86548fb67847f2d8fa8627246cd8db", "fusion_lon": 0.0}, {"rental_uris": {"ios": "https://dc.lft.to/lastmile_qr_scan", "android": "https://dc.lft.to/lastmile_qr_scan"}, "type": "electric_bike", "name": "a48e02fc8c5aa4dc55be9b2ffd2564c3", "is_reserved": 0, "lon": -77.09954733333333, "is_disabled": 0, "fusion_lat": 0.0, "lat": 38.857928, "bike_id": "a48e02fc8c5aa4dc55be9b2ffd2564c3", "fusion_lon": 0.0}, {"rental_uris": {"ios": "https://dc.lft.to/lastmile_qr_scan", "android": "https://dc.lft.to/lastmile_qr_scan"}, "type": "electric_scooter", "name": "a45d6171b53fd5b472adbe771a83c400", "is_reserved": 0, "lon": -77.03781066666667, "is_disabled": 0, "fusion_lat": 0.0, "lat": 38.916949333333335, "bike_id": "a45d6171b53fd5b472adbe771a83c400", "fusion_lon": 0.0}, {"rental_uris": {"ios": "https://dc.lft.to/lastmile_qr_scan", "android": "https://dc.lft.to/lastmile_qr_scan"}, "type": "electric_bike", "name": "90d3fcdb2b1692ad2ad162ecbebab120", "is_reserved": 0, "lon": -77.0888035, "is_disabled": 0, "fusion_lat": 0.0, "lat": 38.93887133333333, "bike_id": "90d3fcdb2b1692ad2ad162ecbebab120", "fusion_lon": 0.0}, {"rental_uris": {"ios": "https://dc.lft.to/lastmile_qr_scan", "android": "https://dc.lft.to/lastmile_qr_scan"}, "type": "electric_scooter", "name": "58d7b1c3ec9834bb57d68159222facab", "is_reserved": 0, "lon": -77.00936683333333, "is_disabled": 0, "fusion_lat": 0.0, "lat": 38.912718166666664, "bike_id": "58d7b1c3ec9834bb57d68159222facab", "fusion_lon": 0.0}, {"rental_uris": {"ios": "https://dc.lft.to/lastmile_qr_scan", "android": "https://dc.lft.to/lastmile_qr_scan"}, "type": "electric_scooter", "name": "91792c2135205d7355f7b715c7bd31cd", "is_reserved": 0, "lon": -77.00569916666667, "is_disabled": 0, "fusion_lat": 0.0, "lat": 38.8745615, "bike_id": "91792c2135205d7355f7b715c7bd31cd", "fusion_lon": 0.0}, {"rental_uris": {"ios": "https://dc.lft.to/lastmile_qr_scan", "android": "https://dc.lft.to/lastmile_qr_scan"}, "type": "electric_bike", "name": "c62802a424dc2ec54d6b0914ef262ae7", "is_reserved": 0, "lon": -76.9785635, "is_disabled": 0, "fusion_lat": 0.0, "lat": 38.983838666666664, "bike_id": "c62802a424dc2ec54d6b0914ef262ae7", "fusion_lon": 0.0}, {"rental_uris": {"ios": "https://dc.lft.to/lastmile_qr_scan", "android": "https://dc.lft.to/lastmile_qr_scan"}, "type": "electric_scooter", "name": "c27d069832d7e4eb94e221427b6e13fa", "is_reserved": 0, "lon": -77.04205666666667, "is_disabled": 0, "fusion_lat": 0.0, "lat": 38.91707816666667, "bike_id": "c27d069832d7e4eb94e221427b6e13fa", "fusion_lon": 0.0}, {"rental_uris": {"ios": "https://dc.lft.to/lastmile_qr_scan", "android": "https://dc.lft.to/lastmile_qr_scan"}, "type": "electric_scooter", "name": "e1c126db88cd326a9d7c32c22ac5d639", "is_reserved": 0, "lon": -77.03272483333333, "is_disabled": 0, "fusion_lat": 0.0, "lat": 38.919995666666665, "bike_id": "e1c126db88cd326a9d7c32c22ac5d639", "fusion_lon": 0.0}, {"rental_uris": {"ios": "https://dc.lft.to/lastmile_qr_scan", "android": "https://dc.lft.to/lastmile_qr_scan"}, "type": "electric_scooter", "name": "3453b8992dbc3a115900786253efde50", "is_reserved": 0, "lon": -76.99046116666666, "is_disabled": 0, "fusion_lat": 0.0, "lat": 38.92477433333333, "bike_id": "3453b8992dbc3a115900786253efde50", "fusion_lon": 0.0}, {"rental_uris": {"ios": "https://dc.lft.to/lastmile_qr_scan", "android": "https://dc.lft.to/lastmile_qr_scan"}, "type": "electric_bike", "name": "b2a272348b7b08effe2e41a3459fbf74", "is_reserved": 0, "lon": -77.0764895, "is_disabled": 0, "fusion_lat": 0.0, "lat": 38.888475166666666, "bike_id": "b2a272348b7b08effe2e41a3459fbf74", "fusion_lon": 0.0}, {"rental_uris": {"ios": "https://dc.lft.to/lastmile_qr_scan", "android": "https://dc.lft.to/lastmile_qr_scan"}, "type": "electric_scooter", "name": "f3e181b6a6ed5efb2b18310734aca1c4", "is_reserved": 0, "lon": -77.02823066666667, "is_disabled": 0, "fusion_lat": 0.0, "lat": 38.911245666666666, "bike_id": "f3e181b6a6ed5efb2b18310734aca1c4", "fusion_lon": 0.0}, {"rental_uris": {"ios": "https://dc.lft.to/lastmile_qr_scan", "android": "https://dc.lft.to/lastmile_qr_scan"}, "type": "electric_scooter", "name": "c7778a6d428070ddcef9e85d9eae9ed7", "is_reserved": 0, "lon": -77.03455433333333, "is_disabled": 0, "fusion_lat": 0.0, "lat": 38.912644, "bike_id": "c7778a6d428070ddcef9e85d9eae9ed7", "fusion_lon": 0.0}, {"rental_uris": {"ios": "https://dc.lft.to/lastmile_qr_scan", "android": "https://dc.lft.to/lastmile_qr_scan"}, "type": "electric_scooter", "name": "6faf914054cdcd6256f525347f05e5da", "is_reserved": 0, "lon": -77.0211625, "is_disabled": 0, "fusion_lat": 0.0, "lat": 38.9141865, "bike_id": "6faf914054cdcd6256f525347f05e5da", "fusion_lon": 0.0}, {"rental_uris": {"ios": "https://dc.lft.to/lastmile_qr_scan", "android": "https://dc.lft.to/lastmile_qr_scan"}, "type": "electric_scooter", "name": "05bf2e57a8fe4e4363b2e17ba291a2b0", "is_reserved": 0, "lon": -77.02983283333333, "is_disabled": 0, "fusion_lat": 0.0, "lat": 38.92427933333333, "bike_id": "05bf2e57a8fe4e4363b2e17ba291a2b0", "fusion_lon": 0.0}, {"rental_uris": {"ios": "https://dc.lft.to/lastmile_qr_scan", "android": "https://dc.lft.to/lastmile_qr_scan"}, "type": "electric_scooter", "name": "59aab9ab3dcfffda1e7ebe646caa6493", "is_reserved": 0, "lon": -77.01867566666667, "is_disabled": 0, "fusion_lat": 0.0, "lat": 38.951523, "bike_id": "59aab9ab3dcfffda1e7ebe646caa6493", "fusion_lon": 0.0}, {"rental_uris": {"ios": "https://dc.lft.to/lastmile_qr_scan", "android": "https://dc.lft.to/lastmile_qr_scan"}, "type": "electric_scooter", "name": "3ebd5541ec46d0dc97b4e0226acd575c", "is_reserved": 0, "lon": -77.04127916666667, "is_disabled": 0, "fusion_lat": 0.0, "lat": 38.914057666666665, "bike_id": "3ebd5541ec46d0dc97b4e0226acd575c", "fusion_lon": 0.0}, {"rental_uris": {"ios": "https://dc.lft.to/lastmile_qr_scan", "android": "https://dc.lft.to/lastmile_qr_scan"}, "type": "electric_scooter", "name": "24cb8dc19e115ff1be8dd6eb92109d65", "is_reserved": 0, "lon": -77.006197, "is_disabled": 0, "fusion_lat": 0.0, "lat": 38.8784305, "bike_id": "24cb8dc19e115ff1be8dd6eb92109d65", "fusion_lon": 0.0}, {"rental_uris": {"ios": "https://dc.lft.to/lastmile_qr_scan", "android": "https://dc.lft.to/lastmile_qr_scan"}, "type": "electric_scooter", "name": "de63a15a8978a15a82afe8a05679acf4", "is_reserved": 0, "lon": -77.02816333333334, "is_disabled": 0, "fusion_lat": 0.0, "lat": 38.892361333333334, "bike_id": "de63a15a8978a15a82afe8a05679acf4", "fusion_lon": 0.0}, {"rental_uris": {"ios": "https://dc.lft.to/lastmile_qr_scan", "android": "https://dc.lft.to/lastmile_qr_scan"}, "type": "electric_bike", "name": "22eaa4425bb26f461714ac7926d9d046", "is_reserved": 0, "lon": -76.96305033333333, "is_disabled": 0, "fusion_lat": 0.0, "lat": 38.89699916666667, "bike_id": "22eaa4425bb26f461714ac7926d9d046", "fusion_lon": 0.0}, {"rental_uris": {"ios": "https://dc.lft.to/lastmile_qr_scan", "android": "https://dc.lft.to/lastmile_qr_scan"}, "type": "electric_scooter", "name": "a707e962057658e393e033357788e0ae", "is_reserved": 0, "lon": -77.015842, "is_disabled": 0, "fusion_lat": 0.0, "lat": 38.87221566666667, "bike_id": "a707e962057658e393e033357788e0ae", "fusion_lon": 0.0}, {"rental_uris": {"ios": "https://dc.lft.to/lastmile_qr_scan", "android": "https://dc.lft.to/lastmile_qr_scan"}, "type": "electric_scooter", "name": "aecbeb3481bc4d38cab8c78bd8b37c8b", "is_reserved": 0, "lon": -77.04019466666666, "is_disabled": 0, "fusion_lat": 0.0, "lat": 38.92248416666666, "bike_id": "aecbeb3481bc4d38cab8c78bd8b37c8b", "fusion_lon": 0.0}, {"rental_uris": {"ios": "https://dc.lft.to/lastmile_qr_scan", "android": "https://dc.lft.to/lastmile_qr_scan"}, "type": "electric_scooter", "name": "28e7bab1b13073c81dcc0a042a25a6d1", "is_reserved": 0, "lon": -77.071633, "is_disabled": 0, "fusion_lat": 0.0, "lat": 38.907629, "bike_id": "28e7bab1b13073c81dcc0a042a25a6d1", "fusion_lon": 0.0}, {"rental_uris": {"ios": "https://dc.lft.to/lastmile_qr_scan", "android": "https://dc.lft.to/lastmile_qr_scan"}, "type": "electric_scooter", "name": "55670c5e247c320586c880bf374e8ec6", "is_reserved": 0, "lon": -77.024778, "is_disabled": 0, "fusion_lat": 0.0, "lat": 38.923950833333336, "bike_id": "55670c5e247c320586c880bf374e8ec6", "fusion_lon": 0.0}, {"rental_uris": {"ios": "https://dc.lft.to/lastmile_qr_scan", "android": "https://dc.lft.to/lastmile_qr_scan"}, "type": "electric_scooter", "name": "7c39c2ee87e7dde94938abc91452a331", "is_reserved": 0, "lon": -76.92951983333333, "is_disabled": 0, "fusion_lat": 0.0, "lat": 38.90336416666667, "bike_id": "7c39c2ee87e7dde94938abc91452a331", "fusion_lon": 0.0}, {"rental_uris": {"ios": "https://dc.lft.to/lastmile_qr_scan", "android": "https://dc.lft.to/lastmile_qr_scan"},