{"data": {"bikes": [{"rental_uris": {"ios": "https://dc.lft.to/lastmile_qr_scan", "android": "https://dc.lft.to/lastmile_qr_scan"}, "type": "electric_scooter", "name": "61cfb62c5bd23683f516029120a6168a", "is_reserved": 0, "lon": -77.03817633333334, "is_disabled": 0, "fusion_lat": 0.0, "lat": 38.915524166666664, "bike_id": "61cfb62c5bd23683f516029120a6168a", "fusion_lon": 0.0}, {"rental_uris": {"ios": "https://dc.lft.to/lastmile_qr_scan", "android": "https://dc.lft.to/lastmile_qr_scan"}, "type": "electric_scooter", "name": "09dadc2adb17b7ad7ca8e45a50b859d1", "is_reserved": 0, "lon": -76.98507433333333, "is_disabled": 0, "fusion_lat": 0.0, "lat": 38.90696466666667, "bike_id": "09dadc2adb17b7ad7ca8e45a50b859d1", "fusion_lon": 0.0}, {"rental_uris": {"ios": "https://dc.lft.to/lastmile_qr_scan", "android": "https://dc.lft.to/lastmile_qr_scan"}, "type": "electric_scooter", "name": "3daba007000c7da2a4ce5605d061f243", "is_reserved": 0, "lon": -77.0454905, "is_disabled": 0, "fusion_lat": 0.0, "lat": 38.9328745, "bike_id": "3daba007000c7da2a4ce5605d061f243", "fusion_lon": 0.0}, {"rental_uris": {"ios": "https://dc.lft.to/lastmile_qr_scan", "android": "https://dc.lft.to/lastmile_qr_scan"}, "type": "electric_scooter", "name": "28b882217323f425e7f6601738758b83", "is_reserved": 0, "lon": -77.0189285, "is_disabled": 0, "fusion_lat": 0.0, "lat": 38.92327983333333, "bike_id": "28b882217323f425e7f6601738758b83", "fusion_lon": 0.0}, {"rental_uris": {"ios": "https://dc.lft.to/lastmile_qr_scan", "android": "https://dc.lft.to/lastmile_qr_scan"}, "type": "electric_bike", "name": "3632305c3a1faa5206f7f720052cffa1", "is_reserved": 0, "lon": -76.9753285, "is_disabled": 0, "fusion_lat": 0.0, "lat": 38.9032865, "bike_id": "3632305c3a1faa5206f7f720052cffa1", "fusion_lon": 0.0}, {"rental_uris": {"ios": "https://dc.lft.to/lastmile_qr_scan", "android": "https://dc.lft.to/lastmile_qr_scan"}, "type": "electric_scooter", "name": "b577d7c6ab8d2b5e856f61982f951816", "is_reserved": 0, "lon": -77.0056995, "is_disabled": 0, "fusion_lat": 0.0, "lat": 38.87457883333333, "bike_id": "b577d7c6ab8d2b5e856f61982f951816", "fusion_lon": 0.0}, {"rental_uris": {"ios": "https://dc.lft.to/lastmile_qr_scan", "android": "https://dc.lft.to/lastmile_qr_scan"}, "type": "electric_scooter", "name": "aef0a3ef41afa4f86bf8ba4416f48a0a", "is_reserved": 0, "lon": -76.99031433333333, "is_disabled": 0, "fusion_lat": 0.0, "lat": 38.888714666666665, "bike_id": "aef0a3ef41afa4f86bf8ba4416f48a0a", "fusion_lon": 0.0}, {"rental_uris": {"ios": "https://dc.lft.to/lastmile_qr_scan", "android": "https://dc.lft.to/lastmile_qr_scan"}, "type": "electric_scooter", "name": "ac93663cce817b9aabab22706461f22a", "is_reserved": 0, "lon": -76.9569165, "is_disabled": 0, "fusion_lat": 0.0, "lat": 38.89203333333333, "bike_id": "ac93663cce817b9aabab22706461f22a", "fusion_lon": 0.0}, {"rental_uris": {"ios": "https://dc.lft.to/lastmile_qr_scan", "android": "https://dc.lft.to/lastmile_qr_scan"}, "type": "electric_scooter", "name": "592285a5c531599bc298a6787e754446", "is_reserved": 0, "lon": -77.0114265, "is_disabled": 0, "fusion_lat": 0.0, "lat": 38.9146715, "bike_id": "592285a5c531599bc298a6787e754446", "fusion_lon": 0.0}, {"rental_uris": {"ios": "https://dc.lft.to/lastmile_qr_scan", "android": "https://dc.lft.to/lastmile_qr_scan"}, "type": "electric_bike", "name": "88f8690f8c61373dca409f26cf9db2a8", "is_reserved": 0, "lon": -77.02203616666667, "is_disabled": 0, "fusion_lat": 0.0, "lat": 38.9515085, "bike_id": "88f8690f8c61373dca409f26cf9db2a8", "fusion_lon": 0.0}, {"rental_uris": {"ios": "https://dc.lft.to/lastmile_qr_scan", "android": "https://dc.lft.to/lastmile_qr_scan"}, "type": "electric_scooter", "name": "dc2ebb83d5b7c6372cef486bc5491516", "is_reserved": 0, "lon": -77.043448, "is_disabled": 0, "fusion_lat": 0.0, "lat": 38.901178, "bike_id": "dc2ebb83d5b7c6372cef486bc5491516", "fusion_lon": 0.0}, {"rental_uris": {"ios": "https://dc.lft.to/lastmile_qr_scan", "android": "https://dc.lft.to/lastmile_qr_scan"}, "type": "electric_scooter", "name": "00dadbcd68bca1c69180b741c44e356e", "is_reserved": 0, "lon": -77.01764466666667, "is_disabled": 0, "fusion_lat": 0.0, "lat": 38.87724683333333, "bike_id": "00dadbcd68bca1c69180b741c44e356e", "fusion_lon": 0.0}, {"rental_uris": {"ios": "https://dc.lft.to/lastmile_qr_scan", "android": "https://dc.lft.to/lastmile_qr_scan"}, "type": "electric_scooter", "name": "244488cd1f4662eb937e3e757ceb210d", "is_reserved": 0, "lon": -77.01767733333334, "is_disabled": 0, "fusion_lat": 0.0, "lat": 38.92118816666667, "bike_id": "244488cd1f4662eb937e3e757ceb210d", "fusion_lon": 0.0}, {"rental_uris": {"ios": "https://dc.lft.to/lastmile_qr_scan", "android": "https://dc.lft.to/lastmile_qr_scan"}, "type": "electric_scooter", "name": "0938c0e68698c3b552bd44bc1aa19356", "is_reserved": 0, "lon": -77.00927783333333, "is_disabled": 0, "fusion_lat": 0.0, "lat": 38.912554666666665, "bike_id": "0938c0e68698c3b552bd44bc1aa19356", "fusion_lon": 0.0}, {"rental_uris": {"ios": "https://dc.lft.to/lastmile_qr_scan", "android": "https://dc.lft.to/lastmile_qr_scan"}, "type": "electric_scooter", "name": "03363eb1a349e65424049a5af6d29870", "is_reserved": 0, "lon": -77.0040405, "is_disabled": 0, "fusion_lat": 0.0, "lat": 38.8748505, "bike_id": "03363eb1a349e65424049a5af6d29870", "fusion_lon": 0.0}, {"rental_uris": {"ios": "https://dc.lft.to/lastmile_qr_scan", "android": "https://dc.lft.to/lastmile_qr_scan"}, "type": "electric_scooter", "name": "e200870f2be0eecabda4ab7150115eec", "is_reserved": 0, "lon": -77.02214983333333, "is_disabled": 0, "fusion_lat": 0.0, "lat": 38.92463816666667, "bike_id": "e200870f2be0eecabda4ab7150115eec", "fusion_lon": 0.0}, {"rental_uris": {"ios": "https://dc.lft.to/lastmile_qr_scan", "android": "https://dc.lft.to/lastmile_qr_scan"}, "type": "electric_scooter", "name": "0d2e52e58e807865bc10a08b41da5f04", "is_reserved": 0, "lon": -77.05058933333333, "is_disabled": 0, "fusion_lat": 0.0, "lat": 38.92587283333334, "bike_id": "0d2e52e58e807865bc10a08b41da5f04", "fusion_lon": 0.0}, {"rental_uris": {"ios": "https://dc.lft.to/lastmile_qr_scan", "android": "https://dc.lft.to/lastmile_qr_scan"}, "type": "electric_scooter", "name": "bc15066091607691eee1cdc9ed67e869", "is_reserved": 0, "lon": -77.00657033333333, "is_disabled": 0, "fusion_lat": 0.0, "lat": 38.9000165, "bike_id": "bc15066091607691eee1cdc9ed67e869", "fusion_lon": 0.0}, {"rental_uris": {"ios": "https://dc.lft.to/lastmile_qr_scan", "android": "https://dc.lft.to/lastmile_qr_scan"}, "type": "electric_scooter", "name": "8a8dde64ddf4c97fb1636318207c5112", "is_reserved": 0, "lon": -77.03637616666667, "is_disabled": 0, "fusion_lat": 0.0, "lat": 38.924368333333334, "bike_id": "8a8dde64ddf4c97fb1636318207c5112", "fusion_lon": 0.0}, {"rental_uris": {"ios": "https://dc.lft.to/lastmile_qr_scan", "android": "https://dc.lft.to/lastmile_qr_scan"}, "type": "electric_scooter", "name": "d2e1179cf9381e5b80c293bc23e95dae", "is_reserved": 0, "lon": -77.03959383333333, "is_disabled": 0, "fusion_lat": 0.0, "lat": 38.9082895, "bike_id": "d2e1179cf9381e5b80c293bc23e95dae", "fusion_lon": 0.0}, {"rental_uris": {"ios": "https://dc.lft.to/lastmile_qr_scan", "android": "https://dc.lft.to/lastmile_qr_scan"}, "type": "electric_scooter", "name": "785a9968ea8dd24b2ad30abcbb09c75f", "is_reserved": 0, "lon": -77.04066033333334, "is_disabled": 0, "fusion_lat": 0.0, "lat": 38.927681166666666, "bike_id": "785a9968ea8dd24b2ad30abcbb09c75f", "fusion_lon": 0.0}, {"rental_uris": {"ios": "https://dc.lft.to/lastmile_qr_scan", "android": "https://dc.lft.to/lastmile_qr_scan"}, "type": "electric_scooter", "name": "33469b4c4fb569c697ee9d524b852d7f", "is_reserved": 0, "lon": -76.97409866666666, "is_disabled": 0, "fusion_lat": 0.0, "lat": 38.901427166666664, "bike_id": "33469b4c4fb569c697ee9d524b852d7f", "fusion_lon": 0.0}, {"rental_uris": {"ios": "https://dc.lft.to/lastmile_qr_scan", "android": "https://dc.lft.to/lastmile_qr_scan"}, "type": "electric_scooter", "name": "654aa741d4afb5e0c4577aa939733b83", "is_reserved": 0, "lon": -76.9930465, "is_disabled": 0, "fusion_lat": 0.0, "lat": 38.9357475, "bike_id": "654aa741d4afb5e0c4577aa939733b83", "fusion_lon": 0.0}, {"rental_uris": {"ios": "https://dc.lft.to/lastmile_qr_scan", "android": "https://dc.lft.to/lastmile_qr_scan"}, "type": "electric_scooter", "name": "f5aa3da758f621c541b4b29815f01f0f", "is_reserved": 0, "lon": -77.04505966666666, "is_disabled": 0, "fusion_lat": 0.0, "lat": 38.91414983333333, "bike_id": "f5aa3da758f621c541b4b29815f01f0f", "fusion_lon": 0.0}, {"rental_uris": {"ios": "https://dc.lft.to/lastmile_qr_scan", "android": "https://dc.lft.to/lastmile_qr_scan"}, "type": "electric_scooter", "name": "f34abe16280e66dc1dda1d62d1f4478c", "is_reserved": 0, "lon": -76.92991333333333, "is_disabled": 0, "fusion_lat": 0.0, "lat": 38.8929515, "bike_id": "f34abe16280e66dc1dda1d62d1f4478c", "fusion_lon": 0.0}, {"rental_uris": {"ios": "https://dc.lft.to/lastmile_qr_scan", "android": "https://dc.lft.to/lastmile_qr_scan"}, "type": "electric_scooter", "name": "27443844371ebf7a56d9bbe34f3bd0fb", "is_reserved": 0, "lon": -76.977986, "is_disabled": 0, "fusion_lat": 0.0, "lat": 38.9031175, "bike_id": "27443844371ebf7a56d9bbe34f3bd0fb", "fusion_lon": 0.0}, {"rental_uris": {"ios": "https://dc.lft.to/lastmile_qr_scan", "android": "https://dc.lft.to/lastmile_qr_scan"}, "type": "electric_scooter", "name": "daceeb70116d6dd87280c7441de9c1f7", "is_reserved": 0, "lon": -77.01222583333333, "is_disabled": 0, "fusion_lat": 0.0, "lat": 38.91685433333333, "bike_id": "daceeb70116d6dd87280c7441de9c1f7", "fusion_lon": 0.0}, {"rental_uris": {"ios": "https://dc.lft.to/lastmile_qr_scan", "android": "https://dc.lft.to/lastmile_qr_scan"}, "type": "electric_scooter", "name": "9d518ec1c1927d4fe8e372502a9af558", "is_reserved": 0, "lon": -77.02760233333333, "is_disabled": 0, "fusion_lat": 0.0, "lat": 38.923804833333335, "bike_id": "9d518ec1c1927d4fe8e372502a9af558", "fusion_lon": 0.0}, {"rental_uris": {"ios": "https://dc.lft.to/lastmile_qr_scan", "android": "https://dc.lft.to/lastmile_qr_scan"}, "type": "electric_scooter", "name": "c1f55fe6657aeb3a7013309e5d672060", "is_reserved": 0, "lon": -77.03331633333333, "is_disabled": 0, "fusion_lat": 0.0, "lat": 38.89632116666667, "bike_id": "c1f55fe6657aeb3a7013309e5d672060", "fusion_lon": 0.0}, {"rental_uris": {"ios": "https://dc.lft.to/lastmile_qr_scan", "android": "https://dc.lft.to/lastmile_qr_scan"}, "type": "electric_scooter", "name": "0eee9c74632d7a43bc8e0833168f1bcd", "is_reserved": 0, "lon": -76.96981183333334, "is_disabled": 0, "fusion_lat": 0.0, "lat": 38.8740205, "bike_id": "0eee9c74632d7a43bc8e0833168f1bcd", "fusion_lon": 0.0}, {"rental_uris": {"ios": "https://dc.lft.to/lastmile_qr_scan", "android": "https://dc.lft.to/lastmile_qr_scan"}, "type": "electric_scooter", "name": "2627398df22337c7da2305e05575c837", "is_reserved": 0, "lon": -76.961565, "is_disabled": 0, "fusion_lat": 0.0, "lat": 38.883599833333335, "bike_id": "2627398df22337c7da2305e05575c837", "fusion_lon": 0.0}, {"rental_uris": {"ios": "https://dc.lft.to/lastmile_qr_scan", "android": "https://dc.lft.to/lastmile_qr_scan"}, "type": "electric_scooter", "name": "157984db11559989cf1bdc7a49722646", "is_reserved": 0, "lon": -77.03088316666667, "is_disabled": 0, "fusion_lat": 0.0, "lat": 38.9316405, "bike_id": "157984db11559989cf1bdc7a49722646", "fusion_lon": 0.0}, {"rental_uris": {"ios": "https://dc.lft.to/lastmile_qr_scan", "android": "https://dc.lft.to/lastmile_qr_scan"}, "type": "electric_scooter", "name": "c4bffb4b23c0aa5dc1222eb852a555a7", "is_reserved": 0, "lon": -77.04386066666666, "is_disabled": 0, "fusion_lat": 0.0, "lat": 38.91659716666667, "bike_id": "c4bffb4b23c0aa5dc1222eb852a555a7", "fusion_lon": 0.0}, {"rental_uris": {"ios": "https://dc.lft.to/lastmile_qr_scan", "android": "https://dc.lft.to/lastmile_qr_scan"}, "type": "electric_scooter", "name": "761498d4c8e9224fe212731082b5fe48", "is_reserved": 0, "lon": -77.0655865, "is_disabled": 0, "fusion_lat": 0.0, "lat": 38.905127, "bike_id": "761498d4c8e9224fe212731082b5fe48", "fusion_lon": 0.0}, {"rental_uris": {"ios": "https://dc.lft.to/lastmile_qr_scan", "android": "https://dc.lft.to/lastmile_qr_scan"}, "type": "electric_scooter", "name": "b3b1e642e4b8b0aa59920046749e57d7", "is_reserved": 0, "lon": -76.92644933333334, "is_disabled": 0, "fusion_lat": 0.0, "lat": 38.8837715, "bike_id": "b3b1e642e4b8b0aa59920046749e57d7", "fusion_lon": 0.0}, {"rental_uris": {"ios": "https://dc.lft.to/lastmile_qr_scan", "android": "https://dc.lft.to/lastmile_qr_scan"}, "type": "electric_scooter", "name": "7a973448d9eb05f74283dc0947f17c64", "is_reserved": 0, "lon": -77.050205, "is_disabled": 0, "fusion_lat": 0.0, "lat": 38.9105505, "bike_id": "7a973448d9eb05f74283dc0947f17c64", "fusion_lon": 0.0}, {"rental_uris": {"ios": "https://dc.lft.to/lastmile_qr_scan", "android": "https://dc.lft.to/lastmile_qr_scan"}, "type": "electric_scooter", "name": "4e1da764c5f5ee18ce77189cb7502ba5", "is_reserved": 0, "lon": -77.01743716666667, "is_disabled": 0, "fusion_lat": 0.0, "lat": 38.883332, "bike_id": "4e1da764c5f5ee18ce77189cb7502ba5", "fusion_lon": 0.0}, {"rental_uris": {"ios": "https://dc.lft.to/lastmile_qr_scan", "android": "https://dc.lft.to/lastmile_qr_scan"}, "type": "electric_scooter", "name": "917c098a627b1f6e491f07b110023917", "is_reserved": 0, "lon": -77.01978966666667, "is_disabled": 0, "fusion_lat": 0.0, "lat": 38.952157, "bike_id": "917c098a627b1f6e491f07b110023917", "fusion_lon": 0.0}, {"rental_uris": {"ios": "https://dc.lft.to/lastmile_qr_scan", "android": "https://dc.lft.to/lastmile_qr_scan"}, "type": "electric_scooter", "name": "a009181cea7285b5bbf7af40f951beca", "is_reserved": 0, "lon": -77.04675366666666, "is_disabled": 0, "fusion_lat": 0.0, "lat": 38.89237683333333, "bike_id": "a009181cea7285b5bbf7af40f951beca", "fusion_lon": 0.0}, {"rental_uris": {"ios": "https://dc.lft.to/lastmile_qr_scan", "android": "https://dc.lft.to/lastmile_qr_scan"}, "type": "electric_scooter", "name": "6e7cacb5ee9937861b0f8a0cf5eb170c", "is_reserved": 0, "lon": -77.01990466666666, "is_disabled": 0, "fusion_lat": 0.0, "lat": 38.901577833333334, "bike_id": "6e7cacb5ee9937861b0f8a0cf5eb170c", "fusion_lon": 0.0}, {"rental_uris": {"ios": "https://dc.lft.to/lastmile_qr_scan", "android": "https://dc.lft.to/lastmile_qr_scan"}, "type": "electric_scooter", "name": "2e80040878790a2a568e766e31bf612b", "is_reserved": 0, "lon": -77.03728883333333, "is_disabled": 0, "fusion_lat": 0.0, "lat": 38.92883966666667, "bike_id": "2e80040878790a2a568e766e31bf612b", "fusion_lon": 0.0}, {"rental_uris": {"ios": "https://dc.lft.to/lastmile_qr_scan", "android": "https://dc.lft.to/lastmile_qr_scan"}, "type": "electric_scooter", "name": "c27b9f57484e85b98e5b16e04b2d4c50", "is_reserved": 0, "lon": -77.0317765, "is_disabled": 0, "fusion_lat": 0.0, "lat": 38.91546616666667, "bike_id": "c27b9f57484e85b98e5b16e04b2d4c50", "fusion_lon": 0.0}, {"rental_uris": {"ios": "https://dc.lft.to/lastmile_qr_scan", "android": "https://dc.lft.to/lastmile_qr_scan"}, "type": "electric_scooter", "name": "ecb5d7d49d57c8c3f5134f3b5c34c8ac", "is_reserved": 0, "lon": -77.00887516666667, "is_disabled": 0, "fusion_lat": 0.0, "lat": 38.917148, "bike_id": "ecb5d7d49d57c8c3f5134f3b5c34c8ac", "fusion_lon": 0.0}, {"rental_uris": {"ios": "https://dc.lft.to/lastmile_qr_scan", "android": "https://dc.lft.to/lastmile_qr_scan"}, "type": "electric_scooter", "name": "7976a9165b92f4c70cbd25848ca9acbd", "is_reserved": 0, "lon": -76.93702233333333, "is_disabled": 0, "fusion_lat": 0.0, "lat": 38.890199333333335, "bike_id": "7976a9165b92f4c70cbd25848ca9acbd", "fusion_lon": 0.0}, {"rental_uris": {"ios": "https://dc.lft.to/lastmile_qr_scan", "android": "https://dc.lft.to/lastmile_qr_scan"}, "type": "electric_scooter", "name": "a46cd22b51f571f55217349a77b57878", "is_reserved": 0, "lon": -77.02227233333333, "is_disabled": 0, "fusion_lat": 0.0, "lat": 38.92092783333333, "bike_id": "a46cd22b51f571f55217349a77b57878", "fusion_lon": 0.0}, {"rental_uris": {"ios": "https://dc.lft.to/lastmile_qr_scan", "android": "https://dc.lft.to/lastmile_qr_scan"}, "type": "electric_scooter", "name": "eb756f19100cd50a07dfd116cd2af192", "is_reserved": 0, "lon": -77.03198283333333, "is_disabled": 0, "fusion_lat": 0.0, "lat": 38.908288166666665, "bike_id": "eb756f19100cd50a07dfd116cd2af192", "fusion_lon": 0.0}, {"rental_uris": {"ios": "https://dc.lft.to/lastmile_qr_scan", "android": "https://dc.lft.to/lastmile_qr_scan"}, "type": "electric_scooter", "name": "bf9bc28bdd2d671fd1feeb9ccf6e95dc", "is_reserved": 0, "lon": -77.03069016666667, "is_disabled": 0, "fusion_lat": 0.0, "lat": 38.93448633333333, "bike_id": "bf9bc28bdd2d671fd1feeb9ccf6e95dc", "fusion_lon": 0.0}, {"rental_uris": {"ios": "https://dc.lft.to/lastmile_qr_scan", "android": "https://dc.lft.to/lastmile_qr_scan"}, "type": "electric_scooter", "name": "d98d1be32a6693a46e5100fd12862c57", "is_reserved": 0, "lon": -77.02071433333333, "is_disabled": 0, "fusion_lat": 0.0, "lat": 38.931137666666665, "bike_id": "d98d1be32a6693a46e5100fd12862c57", "fusion_lon": 0.0}, {"rental_uris": {"ios": "https://dc.lft.to/lastmile_qr_scan", "android": "https://dc.lft.to/lastmile_qr_scan"}, "type": "electric_scooter", "name": "08659063dc14a34c4aa57d7d3fd9c1f0", "is_reserved": 0, "lon": -77.06412433333334, "is_disabled": 0, "fusion_lat": 0.0, "lat": 38.91392466666667, "bike_id": "08659063dc14a34c4aa57d7d3fd9c1f0", "fusion_lon": 0.0}, {"rental_uris": {"ios": "https://dc.lft.to/lastmile_qr_scan", "android": "https://dc.lft.to/lastmile_qr_scan"}, "type": "electric_scooter", "name": "73a8221d62db0c26ac100c7248f0551d", "is_reserved": 0, "lon": -77.009906, "is_disabled": 0, "fusion_lat": 0.0, "lat": 38.905656666666665, "bike_id": "73a8221d62db0c26ac100c7248f0551d", "fusion_lon": 0.0}, {"rental_uris": {"ios": "https://dc.lft.to/lastmile_qr_scan", "android": "https://dc.lft.to/lastmile_qr_scan"}, "type": "electric_scooter", "name": "71ea3e05e8e72c95b21702e653a5ac18", "is_reserved": 0, "lon": -77.00552983333333, "is_disabled": 0, "fusion_lat": 0.0, "lat": 38.874695833333334, "bike_id": "71ea3e05e8e72c95b21702e653a5ac18", "fusion_lon": 0.0}, {"rental_uris": {"ios": "https://dc.lft.to/lastmile_qr_scan", "android": "https://dc.lft.to/lastmile_qr_scan"}, "type": "electric_scooter", "name": "f6fc69e43ed5bc17325f542f00266d2f", "is_reserved": 0, "lon": -77.02475083333333, "is_disabled": 0, "fusion_lat": 0.0, "lat": 38.9181625, "bike_id": "f6fc69e43ed5bc17325f542f00266d2f", "fusion_lon": 0.0}, {"rental_uris": {"ios": "https://dc.lft.to/lastmile_qr_scan", "android": "https://dc.lft.to/lastmile_qr_scan"}, "type": "electric_bike", "name": "78ee3988d9c95962d437702e925177e8", "is_reserved": 0, "lon": -76.99916283333333, "is_disabled": 0, "fusion_lat": 0.0, "lat": 38.864539666666666, "bike_id": "78ee3988d9c95962d437702e925177e8", "fusion_lon": 0.0}, {"rental_uris": {"ios": "https://dc.lft.to/lastmile_qr_scan", "android": "https://dc.lft.to/lastmile_qr_scan"}, "type": "electric_scooter", "name": "804dd53338723b1e1ad6e226d464577b", "is_reserved": 0, "lon": -77.04078283333334, "is_disabled": 0, "fusion_lat": 0.0, "lat": 38.947797666666666, "bike_id": "804dd53338723b1e1ad6e226d464577b", "fusion_lon": 0.0}, {"rental_uris": {"ios": "https://dc.lft.to/lastmile_qr_scan", "android": "https://dc.lft.to/lastmile_qr_scan"}, "type": "electric_scooter", "name": "ec73d4fd6421bd5ec549f52de5788c91", "is_reserved": 0, "lon": -77.03960616666667, "is_disabled": 0, "fusion_lat": 0.0, "lat": 38.892490333333335, "bike_id": "ec73d4fd6421bd5ec549f52de5788c91", "fusion_lon": 0.0}, {"rental_uris": {"ios": "https://dc.lft.to/lastmile_qr_scan", "android": "https://dc.lft.to/lastmile_qr_scan"}, "type": "electric_scooter", "name": "2203ddf17e24cdcd5c2d55e2d41b690c", "is_reserved": 0, "lon": -77.04935, "is_disabled": 0, "fusion_lat": 0.0, "lat": 38.9008075, "bike_id": "2203ddf17e24cdcd5c2d55e2d41b690c", "fusion_lon": 0.0}, {"rental_uris": {"ios": "https://dc.lft.to/lastmile_qr_scan", "android": "https://dc.lft.to/lastmile_qr_scan"}, "type": "electric_scooter", "name": "8a1e7f84969f82489ee372ebd91c2c96", "is_reserved": 0, "lon": -77.0072905, "is_disabled": 0, "fusion_lat": 0.0, "lat": 38.89709783333333, "bike_id": "8a1e7f84969f82489ee372ebd91c2c96", "fusion_lon": 0.0}, {"rental_uris": {"ios": "https://dc.lft.to/lastmile_qr_scan", "android": "https://dc.lft.to/lastmile_qr_scan"}, "type": "electric_scooter", "name": "2acbbe045cdd06ffa04d0ef7b975da2c", "is_reserved": 0, "lon": -77.03170516666667, "is_disabled": 0, "fusion_lat": 0.0, "lat": 38.921077833333335, "bike_id": "2acbbe045cdd06ffa04d0ef7b975da2c", "fusion_lon": 0.0}, {"rental_uris": {"ios": "https://dc.lft.to/lastmile_qr_scan", "android": "https://dc.lft.to/lastmile_qr_scan"}, "type": "electric_scooter", "name": "216f11539a583b9d50f63dd1b582fd3e", "is_reserved": 0, "lon": -77.03435233333333, "is_disabled": 0, "fusion_lat": 0.0, "lat": 38.905801333333336, "bike_id": "216f11539a583b9d50f63dd1b582fd3e", "fusion_lon": 0.0}, {"rental_uris": {"ios": "https://dc.lft.to/lastmile_qr_scan", "android": "https://dc.lft.to/lastmile_qr_scan"}, "type": "electric_scooter", "name": "4a1df0cb733063dcd578bf432eb61d5d", "is_reserved": 0, "lon": -77.01968816666667, "is_disabled": 0, "fusion_lat": 0.0, "lat": 38.95649483333333, "bike_id": "4a1df0cb733063dcd578bf432eb61d5d", "fusion_lon": 0.0}, {"rental_uris": {"ios": "https://dc.lft.to/lastmile_qr_scan", "android": "https://dc.lft.to/lastmile_qr_scan"}, "type": "electric_bike", "name": "20a03f1d82c64646ec5b384969a810ea", "is_reserved": 0, "lon": -77.02584783333333, "is_disabled": 0, "fusion_lat": 0.0, "lat": 38.978762333333336, "bike_id": "20a03f1d82c64646ec5b384969a810ea", "fusion_lon": 0.0}, {"rental_uris": {"ios": "https://dc.lft.to/lastmile_qr_scan", "android": "https://dc.lft.to/lastmile_qr_scan"}, "type": "electric_scooter", "name": "e0febebe66ef17bdb8489504b69cd69f", "is_reserved": 0, "lon": -77.00715833333334, "is_disabled": 0, "fusion_lat": 0.0, "lat": 38.872133166666664, "bike_id": "e0febebe66ef17bdb8489504b69cd69f", "fusion_lon": 0.0}, {"rental_uris": {"ios": "https://dc.lft.to/lastmile_qr_scan", "android": "https://dc.lft.to/lastmile_qr_scan"}, "type": "electric_scooter", "name": "1f229bd8ed4297ead6ee3ef32492d04b", "is_reserved": 0, "lon": -77.03656283333333, "is_disabled": 0, "fusion_lat": 0.0, "lat": 38.9182545, "bike_id": "1f229bd8ed4297ead6ee3ef32492d04b", "fusion_lon": 0.0}, {"rental_uris": {"ios": "https://dc.lft.to/lastmile_qr_scan", "android": "https://dc.lft.to/lastmile_qr_scan"}, "type": "electric_scooter", "name": "31d2af9679911edaff1e26e78fad97dc", "is_reserved": 0, "lon": -76.97833966666667, "is_disabled": 0, "fusion_lat": 0.0, "lat": 38.872102, "bike_id": "31d2af9679911edaff1e26e78fad97dc", "fusion_lon": 0.0}, {"rental_uris": {"ios": "https://dc.lft.to/lastmile_qr_scan", "android": "https://dc.lft.to/lastmile_qr_scan"}, "type": "electric_scooter", "name": "9b66c848c8c071a585c558be54c52fd7", "is_reserved": 0, "lon": -77.0230705, "is_disabled": 0, "fusion_lat": 0.0, "lat": 38.911092333333336, "bike_id": "9b66c848c8c071a585c558be54c52fd7", "fusion_lon": 0.0}, {"rental_uris": {"ios": "https://dc.lft.to/lastmile_qr_scan", "android": "https://dc.lft.to/lastmile_qr_scan"}, "type": "electric_scooter", "name": "985a5bba51bd23d047968d2becafbb33", "is_reserved": 0, "lon": -76.96507283333334, "is_disabled": 0, "fusion_lat": 0.0, "lat": 38.8765045, "bike_id": "985a5bba51bd23d047968d2becafbb33", "fusion_lon": 0.0}, {"rental_uris": {"ios": "https://dc.lft.to/lastmile_qr_scan", "android": "https://dc.lft.to/lastmile_qr_scan"}, "type": "electric_bike", "name": "2aed1171faca9a8331eb1705d8b8b897", "is_reserved": 0, "lon": -77.06637183333333, "is_disabled": 0, "fusion_lat": 0.0, "lat": 38.9497765, "bike_id": "2aed1171faca9a8331eb1705d8b8b897", "fusion_lon": 0.0}, {"rental_uris": {"ios": "https://dc.lft.to/lastmile_qr_scan", "android": "https://dc.lft.to/lastmile_qr_scan"}, "type": "electric_scooter", "name": "208d0e6ab3196f2930ddc4660d5a6c3d", "is_reserved": 0, "lon": -77.02202666666666, "is_disabled": 0, "fusion_lat": 0.0, "lat": 38.91370666666667, "bike_id": "208d0e6ab3196f2930ddc4660d5a6c3d", "fusion_lon": 0.0}, {"rental_uris": {"ios": "https://dc.lft.to/lastmile_qr_scan", "android": "https://dc.lft.to/lastmile_qr_scan"}, "type": "electric_scooter", "name": "5e15d3316035449253a02407de670c35", "is_reserved": 0, "lon": -76.95439633333334, "is_disabled": 0, "fusion_lat": 0.0, "lat": 38.89077833333333, "bike_id": "5e15d3316035449253a02407de670c35", "fusion_lon": 0.0}, {"rental_uris": {"ios": "https://dc.lft.to/lastmile_qr_scan", "android": "https://dc.lft.to/lastmile_qr_scan"}, "type": "electric_scooter", "name": "d5ee7973b32f73fdad8821c639b2ea31", "is_reserved": 0, "lon": -77.032103, "is_disabled": 0, "fusion_lat": 0.0, "lat": 38.90894616666667, "bike_id": "d5ee7973b32f73fdad8821c639b2ea31", "fusion_lon": 0.0}, {"rental_uris": {"ios": "https://dc.lft.to/lastmile_qr_scan", "android": "https://dc.lft.to/lastmile_qr_scan"}, "type": "electric_scooter", "name": "150b6b7d8d063fd44761e95dfd2838e9", "is_reserved": 0, "lon": -77.04593916666667, "is_disabled": 0, "fusion_lat": 0.0, "lat": 38.914256333333334, "bike_id": "150b6b7d8d063fd44761e95dfd2838e9", "fusion_lon": 0.0}, {"rental_uris": {"ios": "https://dc.lft.to/lastmile_qr_scan", "android": "https://dc.lft.to/lastmile_qr_scan"}, "type": "electric_scooter", "name": "0ac19e75c1e1371972fb1f2fa2d46345", "is_reserved": 0, "lon": -77.043562, "is_disabled": 0, "fusion_lat": 0.0, "lat": 38.907177, "bike_id": "0ac19e75c1e1371972fb1f2fa2d46345", "fusion_lon": 0.0}, {"rental_uris": {"ios": "https://dc.lft.to/lastmile_qr_scan", "android": "https://dc.lft.to/lastmile_qr_scan"}, "type": "electric_scooter", "name": "9eec98a906e090a10d2ba44b84b669c1", "is_reserved": 0, "lon": -77.02752616666666, "is_disabled": 0, "fusion_lat": 0.0, "lat": 38.91202466666667, "bike_id": "9eec98a906e090a10d2ba44b84b669c1", "fusion_lon": 0.0}, {"rental_uris": {"ios": "https://dc.lft.to/lastmile_qr_scan", "android": "https://dc.lft.to/lastmile_qr_scan"}, "type": "electric_scooter", "name": "4df8bb26e1c572209a74828eb77eba6d", "is_reserved": 0, "lon": -77.02802583333333, "is_disabled": 0, "fusion_lat": 0.0, "lat": 38.9061225, "bike_id": "4df8bb26e1c572209a74828eb77eba6d", "fusion_lon": 0.0}, {"rental_uris": {"ios": "https://dc.lft.to/lastmile_qr_scan", "android": "https://dc.lft.to/lastmile_qr_scan"}, "type": "electric_scooter", "name": "70f46c44b0404f4fc27acc19c101cecf", "is_reserved": 0, "lon": -77.04564866666666, "is_disabled": 0, "fusion_lat": 0.0, "lat": 38.91778933333333, "bike_id": "70f46c44b0404f4fc27acc19c101cecf", "fusion_lon": 0.0}, {"rental_uris": {"ios": "https://dc.lft.to/lastmile_qr_scan", "android": "https://dc.lft.to/lastmile_qr_scan"}, "type": "electric_scooter", "name": "a8be72951584a4fc8960f887daa89173", "is_reserved": 0, "lon": -77.02025, "is_disabled": 0, "fusion_lat": 0.0, "lat": 38.93643383333333, "bike_id": "a8be72951584a4fc8960f887daa89173", "fusion_lon": 0.0}, {"rental_uris": {"ios": "https://dc.lft.to/lastmile_qr_scan", "android": "https://dc.lft.to/lastmile_qr_scan"}, "type": "electric_scooter", "name": "65077e2ab4429c1427f675c0155456f7", "is_reserved": 0, "lon": -76.98608766666666, "is_disabled": 0, "fusion_lat": 0.0, "lat": 38.878365333333335, "bike_id": "65077e2ab4429c1427f675c0155456f7", "fusion_lon": 0.0}, {"rental_uris": {"ios": "https://dc.lft.to/lastmile_qr_scan", "android": "https://dc.lft.to/lastmile_qr_scan"}, "type": "electric_scooter", "name": "3bff8eff34383b25df55a513859154b7", "is_reserved": 0, "lon": -77.03459083333334, "is_disabled": 0, "fusion_lat": 0.0, "lat": 38.907194833333335, "bike_id": "3bff8eff34383b25df55a513859154b7", "fusion_lon": 0.0}, {"rental_uris": {"ios": "https://dc.lft.to/lastmile_qr_scan", "android": "https://dc.lft.to/lastmile_qr_scan"}, "type": "electric_scooter", "name": "9ccae96107559b343274d2495ca87a41", "is_reserved": 0, "lon": -77.00877633333333, "is_disabled": 0, "fusion_lat": 0.0, "lat": 38.912646333333335, "bike_id": "9ccae96107559b343274d2495ca87a41", "fusion_lon": 0.0}, {"rental_uris": {"ios": "https://dc.lft.to/lastmile_qr_scan", "android": "https://dc.lft.to/lastmile_qr_scan"}, "type": "electric_scooter", "name": "dfa74dd5c51bceb8592cc5df48e93f55", "is_reserved": 0, "lon": -77.02463216666666, "is_disabled": 0, "fusion_lat": 0.0, "lat": 38.925028833333336, "bike_id": "dfa74dd5c51bceb8592cc5df48e93f55", "fusion_lon": 0.0}, {"rental_uris": {"ios": "https://dc.lft.to/lastmile_qr_scan", "android": "https://dc.lft.to/lastmile_qr_scan"}, "type": "electric_scooter", "name": "b5b4f1add81d20b3bb8af291d5ebcc64", "is_reserved": 0, "lon": -77.02053883333333, "is_disabled": 0, "fusion_lat": 0.0, "lat": 38.922479, "bike_id": "b5b4f1add81d20b3bb8af291d5ebcc64", "fusion_lon": 0.0}, {"rental_uris": {"ios": "https://dc.lft.to/lastmile_qr_scan", "android": "https://dc.lft.to/lastmile_qr_scan"}, "type": "electric_scooter", "name": "57da10562d9488a45043def6cb0ef57e", "is_reserved": 0, "lon": -76.99408816666667, "is_disabled": 0, "fusion_lat": 0.0, "lat": 38.877844833333334, "bike_id": "57da10562d9488a45043def6cb0ef57e", "fusion_lon": 0.0}, {"rental_uris": {"ios": "https://dc.lft.to/lastmile_qr_scan", "android": "https://dc.lft.to/lastmile_qr_scan"}, "type": "electric_scooter", "name": "fd056f92dabd2b407680218150b890d5", "is_reserved": 0, "lon": -77.00935766666667, "is_disabled": 0, "fusion_lat": 0.0, "lat": 38.876724833333334, "bike_id": "fd056f92dabd2b407680218150b890d5", "fusion_lon": 0.0}, {"rental_uris": {"ios": "https://dc.lft.to/lastmile_qr_scan", "android": "https://dc.lft.to/lastmile_qr_scan"}, "type": "electric_scooter", "name": "c216323481bba908528e6f2b8fcf7113", "is_reserved": 0, "lon": -77.03957483333333, "is_disabled": 0, "fusion_lat": 0.0, "lat": 38.8924845, "bike_id": "c216323481bba908528e6f2b8fcf7113", "fusion_lon": 0.0}, {"rental_uris": {"ios": "https://dc.lft.to/lastmile_qr_scan", "android": "https://dc.lft.to/lastmile_qr_scan"}, "type": "electric_scooter", "name": "4f164f8d1a2f75547ffd728b25498cb0", "is_reserved": 0, "lon": -77.031265, "is_disabled": 0, "fusion_lat": 0.0, "lat": 38.917966166666666, "bike_id": "4f164f8d1a2f75547ffd728b25498cb0", "fusion_lon": 0.0}, {"rental_uris": {"ios": "https://dc.lft.to/lastmile_qr_scan", "android": "https://dc.lft.to/lastmile_qr_scan"}, "type": "electric_scooter", "name": "c3b2b12588dc01ab98d6923b2c4d31b4", "is_reserved": 0, "lon": -76.98405316666667, "is_disabled": 0, "fusion_lat": 0.0, "lat": 38.92523466666667, "bike_id": "c3b2b12588dc01ab98d6923b2c4d31b4", "fusion_lon": 0.0}, {"rental_uris": {"ios": "https://dc.lft.to/lastmile_qr_scan", "android": "https://dc.lft.to/lastmile_qr_scan"}, "type": "electric_bike", "name": "0044a53f5139150dabe9868e8cfaa0db", "is_reserved": 0, "lon": -76.88973, "is_disabled": 0, "fusion_lat": 0.0, "lat": 39.007731166666666, "bike_id": "0044a53f5139150dabe9868e8cfaa0db", "fusion_lon": 0.0}, {"rental_uris": {"ios": "https://dc.lft.to/lastmile_qr_scan", "android": "https://dc.lft.to/lastmile_qr_scan"}, "type": "electric_scooter", "name": "e0a3254d1a3ca6211ff74b1ee4281fa5", "is_reserved": 0, "lon": -77.04734766666667, "is_disabled": 0, "fusion_lat": 0.0, "lat": 38.91253316666667, "bike_id": "e0a3254d1a3ca6211ff74b1ee4281fa5", "fusion_lon": 0.0}, {"rental_uris": {"ios": "https://dc.lft.to/lastmile_qr_scan", "android": "https://dc.lft.to/lastmile_qr_scan"}, "type": "electric_bike", "name": "9d4a8c9c38daefbc4708f6b894c1ff4f", "is_reserved": 0, "lon": -76.98343533333333, "is_disabled": 0, "fusion_lat": 0.0, "lat": 38.86270916666667, "bike_id": "9d4a8c9c38daefbc4708f6b894c1ff4f", "fusion_lon": 0.0}, {"rental_uris": {"ios": "https://dc.lft.to/lastmile_qr_scan", "android": "https://dc.lft.to/lastmile_qr_scan"}, "type": "electric_scooter", "name": "545eeb188afb8b71e0b91b3bc218013b", "is_reserved": 0, "lon": -77.03467083333334, "is_disabled": 0, "fusion_lat": 0.0, "lat": 38.93019783333333, "bike_id": "545eeb188afb8b71e0b91b3bc218013b", "fusion_lon": 0.0}, {"rental_uris": {"ios": "https://dc.lft.to/lastmile_qr_scan", "android": "https://dc.lft.to/lastmile_qr_scan"}, "type": "electric_scooter", "name": "ae7aec176a95f3bbfd7790aa830a7cf6", "is_reserved": 0, "lon": -77.01937116666667, "is_disabled": 0, "fusion_lat": 0.0, "lat": 38.876650166666664, "bike_id": "ae7aec176a95f3bbfd7790aa830a7cf6", "fusion_lon": 0.0}, {"rental_uris": {"ios": "https://dc.lft.to/lastmile_qr_scan", "android": "https://dc.lft.to/lastmile_qr_scan"}, "type": "electric_scooter", "name": "6f7e87d6a68f71aa0241f0f384423d1c", "is_reserved": 0, "lon": -77.02707566666666, "is_disabled": 0, "fusion_lat": 0.0, "lat": 38.90576816666667, "bike_id": "6f7e87d6a68f71aa0241f0f384423d1c", "fusion_lon": 0.0}, {"rental_uris": {"ios": "https://dc.lft.to/lastmile_qr_scan", "android": "https://dc.lft.to/lastmile_qr_scan"}, "type": "electric_scooter", "name": "00706e2ba2a4de88be703ac7ffaa635e", "is_reserved": 0, "lon": -77.02972933333334, "is_disabled": 0, "fusion_lat": 0.0, "lat": 38.91727066666667, "bike_id": "00706e2ba2a4de88be703ac7ffaa635e", "fusion_lon": 0.0}, {"rental_uris": {"ios": "https://dc.lft.to/lastmile_qr_scan", "android": "https://dc.lft.to/lastmile_qr_scan"}, "type": "electric_scooter", "name": "96dc4434f21e341f8ad6289d24bbeb52", "is_reserved": 0, "lon": -77.02191366666666, "is_disabled": 0, "fusion_lat": 0.0, "lat": 38.91478733333334, "bike_id": "96dc4434f21e341f8ad6289d24bbeb52", "fusion_lon": 0.0}, {"rental_uris": {"ios": "https://dc.lft.to/lastmile_qr_scan", "android": "https://dc.lft.to/lastmile_qr_scan"}, "type": "electric_scooter", "name": "cea763adeb7a6c64e15a2e6196718702", "is_reserved": 0, "lon": -77.01127583333333, "is_disabled": 0, "fusion_lat": 0.0, "lat": 38.916160833333336, "bike_id": "cea763adeb7a6c64e15a2e6196718702", "fusion_lon": 0.0}, {"rental_uris": {"ios": "https://dc.lft.to/lastmile_qr_scan", "android": "https://dc.lft.to/lastmile_qr_scan"}, "type": "electric_scooter", "name": "584155f3cefbc8bb99667532cdc28cf1", "is_reserved": 0, "lon": -77.05476966666667, "is_disabled": 0, "fusion_lat": 0.0, "lat": 38.89731233333333, "bike_id": "584155f3cefbc8bb99667532cdc28cf1", "fusion_lon": 0.0}, {"rental_uris": {"ios": "https://dc.lft.to/lastmile_qr_scan", "android": "https://dc.lft.to/lastmile_qr_scan"}, "type": "electric_scooter", "name": "e7d2d5017826327fdd6c07ed348e0271", "is_reserved": 0, "lon": -77.0347, "is_disabled": 0, "fusion_lat": 0.0, "lat": 38.912657, "bike_id": "e7d2d5017826327fdd6c07ed348e0271", "fusion_lon": 0.0}, {"rental_uris": {"ios": "https://dc.lft.to/lastmile_qr_scan", "android": "https://dc.lft.to/lastmile_qr_scan"}, "type": "electric_scooter", "name": "134a36cc5239c837f17996011be437a2", "is_reserved": 0, "lon": -77.00947233333333, "is_disabled": 0, "fusion_lat": 0.0, "lat": 38.89498833333333, "bike_id": "134a36cc5239c837f17996011be437a2", "fusion_lon": 0.0}, {"rental_uris": {"ios": "https://dc.lft.to/lastmile_qr_scan", "android": "https://dc.lft.to/lastmile_qr_scan"}, "type": "electric_scooter", "name": "33eb53ccf560bdc817647c2b53855511", "is_reserved": 0, "lon": -77.02262083333333, "is_disabled": 0, "fusion_lat": 0.0, "lat": 38.9282345, "bike_id": "33eb53ccf560bdc817647c2b53855511", "fusion_lon": 0.0}, {"rental_uris": {"ios": "https://dc.lft.to/lastmile_qr_scan", "android": "https://dc.lft.to/lastmile_qr_scan"}, "type": "electric_scooter", "name": "8487ac2f81659bdd3201d161c4168464", "is_reserved": 0, "lon": -77.0390885, "is_disabled": 0, "fusion_lat": 0.0, "lat": 38.92237016666667, "bike_id": "8487ac2f81659bdd3201d161c4168464", "fusion_lon": 0.0}, {"rental_uris": {"ios": "https://dc.lft.to/lastmile_qr_scan", "android": "https://dc.lft.to/lastmile_qr_scan"}, "type": "electric_scooter", "name": "a2a37625f489d672c4610f49f41e02d0", "is_reserved": 0, "lon": -77.01351716666667, "is_disabled": 0, "fusion_lat": 0.0, "lat": 38.9193875, "bike_id": "a2a37625f489d672c4610f49f41e02d0", "fusion_lon": 0.0}, {"rental_uris": {"ios": "https://dc.lft.to/lastmile_qr_scan", "android": "https://dc.lft.to/lastmile_qr_scan"}, "type": "electric_scooter", "name": "733dc5c89eb4632d15f04ae5af2c9ed7", "is_reserved": 0, "lon": -77.03697483333333, "is_disabled": 0, "fusion_lat": 0.0, "lat": 38.93283066666667, "bike_id": "733dc5c89eb4632d15f04ae5af2c9ed7", "fusion_lon": 0.0}, {"rental_uris": {"ios": "https://dc.lft.to/lastmile_qr_scan", "android": "https://dc.lft.to/lastmile_qr_scan"}, "type": "electric_scooter", "name": "9eb9204539a26b50075cad87d9fc0dbd", "is_reserved": 0, "lon": -77.023535, "is_disabled": 0, "fusion_lat": 0.0, "lat": 38.93532016666666, "bike_id": "9eb9204539a26b50075cad87d9fc0dbd", "fusion_lon": 0.0}, {"rental_uris": {"ios": "https://dc.lft.to/lastmile_qr_scan", "android": "https://dc.lft.to/lastmile_qr_scan"}, "type": "electric_scooter", "name": "105e5ce03ba35f7b6656dab98d1ca74b", "is_reserved": 0, "lon": -77.0101805, "is_disabled": 0, "fusion_lat": 0.0, "lat": 38.91406883333333, "bike_id": "105e5ce03ba35f7b6656dab98d1ca74b", "fusion_lon": 0.0}, {"rental_uris": {"ios": "https://dc.lft.to/lastmile_qr_scan", "android": "https://dc.lft.to/lastmile_qr_scan"}, "type": "electric_scooter", "name": "048d505177466f87059e78bdc98f8504", "is_reserved": 0, "lon": -77.06517833333334, "is_disabled": 0, "fusion_lat": 0.0, "lat": 38.905891833333335, "bike_id": "048d505177466f87059e78bdc98f8504", "fusion_lon": 0.0}, {"rental_uris": {"ios": "https://dc.lft.to/lastmile_qr_scan", "android": "https://dc.lft.to/lastmile_qr_scan"}, "type": "electric_scooter", "name": "9896c893fe494ccb272cd5356978cc65", "is_reserved": 0, "lon": -77.03185966666666, "is_disabled": 0, "fusion_lat": 0.0, "lat": 38.908709333333334, "bike_id": "9896c893fe494ccb272cd5356978cc65", "fusion_lon": 0.0}, {"rental_uris": {"ios": "https://dc.lft.to/lastmile_qr_scan", "android": "https://dc.lft.to/lastmile_qr_scan"}, "type": "electric_scooter", "name": "7aadd6209e48f999ed7b7043578ea1c5", "is_reserved": 0, "lon": -77.04262033333333, "is_disabled": 0, "fusion_lat": 0.0, "lat": 38.922086666666665, "bike_id": "7aadd6209e48f999ed7b7043578ea1c5", "fusion_lon": 0.0}, {"rental_uris": {"ios": "https://dc.lft.to/lastmile_qr_scan", "android": "https://dc.lft.to/lastmile_qr_scan"}, "type": "electric_scooter", "name": "76d6ceee84fb66ce17d3ccfd8d9c91f0", "is_reserved": 0, "lon": -77.02274316666667, "is_disabled": 0, "fusion_lat": 0.0, "lat": 38.924207833333334, "bike_id": "76d6ceee84fb66ce17d3ccfd8d9c91f0", "fusion_lon": 0.0}, {"rental_uris": {"ios": "https://dc.lft.to/lastmile_qr_scan", "android": "https://dc.lft.to/lastmile_qr_scan"}, "type": "electric_scooter", "name": "9df259c0908b1414caef38eb1c6c5c04", "is_reserved": 0, "lon": -77.02099266666667, "is_disabled": 0, "fusion_lat": 0.0, "lat": 38.91334066666667, "bike_id": "9df259c0908b1414caef38eb1c6c5c04", "fusion_lon": 0.0}, {"rental_uris": {"ios": "https://dc.lft.to/lastmile_qr_scan", "android": "https://dc.lft.to/lastmile_qr_scan"}, "type": "electric_scooter", "name": "017d03e287c21fc9ebb6bb94e922ef86", "is_reserved": 0, "lon": -77.03128866666667, "is_disabled": 0, "fusion_lat": 0.0, "lat": 38.92374433333333, "bike_id": "017d03e287c21fc9ebb6bb94e922ef86", "fusion_lon": 0.0}, {"rental_uris": {"ios": "https://dc.lft.to/lastmile_qr_scan", "android": "https://dc.lft.to/lastmile_qr_scan"}, "type": "electric_scooter", "name": "a34b35e0350f664645c8e81b0cbe2d1e", "is_reserved": 0, "lon": -77.03659516666667, "is_disabled": 0, "fusion_lat": 0.0, "lat": 38.91009966666667, "bike_id": "a34b35e0350f664645c8e81b0cbe2d1e", "fusion_lon": 0.0}, {"rental_uris": {"ios": "https://dc.lft.to/lastmile_qr_scan", "android": "https://dc.lft.to/lastmile_qr_scan"}, "type": "electric_scooter", "name": "94e1d2dcb1a771c2f7e60a9197aa9556", "is_reserved": 0, "lon": -77.044933, "is_disabled": 0, "fusion_lat": 0.0, "lat": 38.91519233333333, "bike_id": "94e1d2dcb1a771c2f7e60a9197aa9556", "fusion_lon": 0.0}, {"rental_uris": {"ios": "https://dc.lft.to/lastmile_qr_scan", "android": "https://dc.lft.to/lastmile_qr_scan"}, "type": "electric_scooter", "name": "0588e83ec510a40c312c3010f521fe04", "is_reserved": 0, "lon": -77.03295566666667, "is_disabled": 0, "fusion_lat": 0.0, "lat": 38.924689, "bike_id": "0588e83ec510a40c312c3010f521fe04", "fusion_lon": 0.0}, {"rental_uris": {"ios": "https://dc.lft.to/lastmile_qr_scan", "android": "https://dc.lft.to/lastmile_qr_scan"}, "type": "electric_scooter", "name": "010231d8a8eb5c744a33636f76e21c24", "is_reserved": 0, "lon": -77.039781, "is_disabled": 0, "fusion_lat": 0.0, "lat": 38.92463683333333, "bike_id": "010231d8a8eb5c744a33636f76e21c24", "fusion_lon": 0.0}, {"rental_uris": {"ios": "https://dc.lft.to/lastmile_qr_scan", "android": "https://dc.lft.to/lastmile_qr_scan"}, "type": "electric_scooter", "name": "f8470b34a2f5fe332baad1b4485a76a1", "is_reserved": 0, "lon": -77.046496, "is_disabled": 0, "fusion_lat": 0.0, "lat": 38.89750466666667, "bike_id": "f8470b34a2f5fe332baad1b4485a76a1", "fusion_lon": 0.0}, {"rental_uris": {"ios": "https://dc.lft.to/lastmile_qr_scan", "android": "https://dc.lft.to/lastmile_qr_scan"}, "type": "electric_bike", "name": "da83c8010051f1a7de6ec24a8843ecce", "is_reserved": 0, "lon": -77.2341485, "is_disabled": 0, "fusion_lat": 0.0, "lat": 38.875808166666665, "bike_id": "da83c8010051f1a7de6ec24a8843ecce", "fusion_lon": 0.0}, {"rental_uris": {"ios": "https://dc.lft.to/lastmile_qr_scan", "android": "https://dc.lft.to/lastmile_qr_scan"}, "type": "electric_scooter", "name": "481f9d11a580f12485e0bb8a306aa685", "is_reserved": 0, "lon": -77.00055233333333, "is_disabled": 0, "fusion_lat": 0.0, "lat": 38.96131666666667, "bike_id": "481f9d11a580f12485e0bb8a306aa685", "fusion_lon": 0.0}, {"rental_uris": {"ios": "https://dc.lft.to/lastmile_qr_scan", "android": "https://dc.lft.to/lastmile_qr_scan"}, "type": "electric_scooter", "name": "c57d9feabee7722fc608f56cc3f6955d", "is_reserved": 0, "lon": -76.97625533333333, "is_disabled": 0, "fusion_lat": 0.0, "lat": 38.9057235, "bike_id": "c57d9feabee7722fc608f56cc3f6955d", "fusion_lon": 0.0}, {"rental_uris": {"ios": "https://dc.lft.to/lastmile_qr_scan", "android": "https://dc.lft.to/lastmile_qr_scan"}, "type": "electric_scooter", "name": "782532fe5a74382952ee1cf93c234dd1", "is_reserved": 0, "lon": -77.0348965, "is_disabled": 0, "fusion_lat": 0.0, "lat": 38.9327765, "bike_id": "782532fe5a74382952ee1cf93c234dd1", "fusion_lon": 0.0}, {"rental_uris": {"ios": "https://dc.lft.to/lastmile_qr_scan", "android": "https://dc.lft.to/lastmile_qr_scan"}, "type": "electric_scooter", "name": "cdbb45d5db8b14fb03efab8bda4a13df", "is_reserved": 0, "lon": -77.05523783333334, "is_disabled": 0, "fusion_lat": 0.0, "lat": 38.897285833333335, "bike_id": "cdbb45d5db8b14fb03efab8bda4a13df", "fusion_lon": 0.0}, {"rental_uris": {"ios": "https://dc.lft.to/lastmile_qr_scan", "android": "https://dc.lft.to/lastmile_qr_scan"}, "type": "electric_scooter", "name": "9729d4db3a70bbbd735f893102f95388", "is_reserved": 0, "lon": -77.02096983333334, "is_disabled": 0, "fusion_lat": 0.0, "lat": 38.9119885, "bike_id": "9729d4db3a70bbbd735f893102f95388", "fusion_lon": 0.0}, {"rental_uris": {"ios": "https://dc.lft.to/lastmile_qr_scan", "android": "https://dc.lft.to/lastmile_qr_scan"}, "type": "electric_scooter", "name": "599ec4ddaa407deeab7832bb9eef540f", "is_reserved": 0, "lon": -77.0494475, "is_disabled": 0, "fusion_lat": 0.0, "lat": 38.92023016666667, "bike_id": "599ec4ddaa407deeab7832bb9eef540f", "fusion_lon": 0.0}, {"rental_uris": {"ios": "https://dc.lft.to/lastmile_qr_scan", "android": "https://dc.lft.to/lastmile_qr_scan"}, "type": "electric_scooter", "name": "d6edc4fa9e6b761c90c74c4e7e4060ab", "is_reserved": 0, "lon": -77.02965016666667, "is_disabled": 0, "fusion_lat": 0.0, "lat": 38.92262233333334, "bike_id": "d6edc4fa9e6b761c90c74c4e7e4060ab", "fusion_lon": 0.0}, {"rental_uris": {"ios": "https://dc.lft.to/lastmile_qr_scan", "android": "https://dc.lft.to/lastmile_qr_scan"}, "type": "electric_scooter", "name": "c659fc75e2c65eb0af3bcd9a1e640471", "is_reserved": 0, "lon": -76.9893755, "is_disabled": 0, "fusion_lat": 0.0, "lat": 38.90393516666666, "bike_id": "c659fc75e2c65eb0af3bcd9a1e640471", "fusion_lon": 0.0}, {"rental_uris": {"ios": "https://dc.lft.to/lastmile_qr_scan", "android": "https://dc.lft.to/lastmile_qr_scan"}, "type": "electric_scooter", "name": "cb3b773b79b685f0a39d370fdd53c8bc", "is_reserved": 0, "lon": -77.041391, "is_disabled": 0, "fusion_lat": 0.0, "lat": 38.903857333333335, "bike_id": "cb3b773b79b685f0a39d370fdd53c8bc", "fusion_lon": 0.0}, {"rental_uris": {"ios": "https://dc.lft.to/lastmile_qr_scan", "android": "https://dc.lft.to/lastmile_qr_scan"}, "type": "electric_scooter", "name": "e99b0dd36f81cb1f86eaefe91b8fa937", "is_reserved": 0, "lon": -77.04868766666667, "is_disabled": 0, "fusion_lat": 0.0, "lat": 38.904714, "bike_id": "e99b0dd36f81cb1f86eaefe91b8fa937", "fusion_lon": 0.0}, {"rental_uris": {"ios": "https://dc.lft.to/lastmile_qr_scan", "android": "https://dc.lft.to/lastmile_qr_scan"}, "type": "electric_bike", "name": "de7864c8c7af8acf0be4e295777e74d3", "is_reserved": 0, "lon": -77.1273165, "is_disabled": 0, "fusion_lat": 0.0, "lat": 38.8956295, "bike_id": "de7864c8c7af8acf0be4e295777e74d3", "fusion_lon": 0.0}, {"rental_uris": {"ios": "https://dc.lft.to/lastmile_qr_scan", "android": "https://dc.lft.to/lastmile_qr_scan"}, "type": "electric_scooter", "name": "0ada88884dc40b7428efe1cb0ce9f6f9", "is_reserved": 0, "lon": -76.93478133333333, "is_disabled": 0, "fusion_lat": 0.0, "lat": 38.895042333333336, "bike_id": "0ada88884dc40b7428efe1cb0ce9f6f9", "fusion_lon": 0.0}, {"rental_uris": {"ios": "https://dc.lft.to/lastmile_qr_scan", "android": "https://dc.lft.to/lastmile_qr_scan"}, "type": "electric_scooter", "name": "550e5d2f0a538b0d0f35bce781d2c049", "is_reserved": 0, "lon": -77.03664016666667, "is_disabled": 0, "fusion_lat": 0.0, "lat": 38.939508333333336, "bike_id": "550e5d2f0a538b0d0f35bce781d2c049", "fusion_lon": 0.0}, {"rental_uris": {"ios": "https://dc.lft.to/lastmile_qr_scan", "android": "https://dc.lft.to/lastmile_qr_scan"}, "type": "electric_scooter", "name": "698061af666a55644da485a9ac24398c", "is_reserved": 0, "lon": -77.01063566666667, "is_disabled": 0, "fusion_lat": 0.0, "lat": 38.916477, "bike_id": "698061af666a55644da485a9ac24398c", "fusion_lon": 0.0}, {"rental_uris": {"ios": "https://dc.lft.to/lastmile_qr_scan", "android": "https://dc.lft.to/lastmile_qr_scan"}, "type": "electric_scooter", "name": "bc46c7bb0d954d2ce3126afc7d49d1ee", "is_reserved": 0, "lon": -77.04674533333333, "is_disabled": 0, "fusion_lat": 0.0, "lat": 38.9028335, "bike_id": "bc46c7bb0d954d2ce3126afc7d49d1ee", "fusion_lon": 0.0}, {"rental_uris": {"ios": "https://dc.lft.to/lastmile_qr_scan", "android": "https://dc.lft.to/lastmile_qr_scan"}, "type": "electric_scooter", "name": "80f04893e99eec3b86029a2afdf67ee6", "is_reserved": 0, "lon": -77.0061755, "is_disabled": 0, "fusion_lat": 0.0, "lat": 38.905651, "bike_id": "80f04893e99eec3b86029a2afdf67ee6", "fusion_lon": 0.0}, {"rental_uris": {"ios": "https://dc.lft.to/lastmile_qr_scan", "android": "https://dc.lft.to/lastmile_qr_scan"}, "type": "electric_bike", "name": "8c4bb171d1739b7b070d291838650ff3", "is_reserved": 0, "lon": -77.01227416666667, "is_disabled": 0, "fusion_lat": 0.0, "lat": 38.950880833333336, "bike_id": "8c4bb171d1739b7b070d291838650ff3", "fusion_lon": 0.0}, {"rental_uris": {"ios": "https://dc.lft.to/lastmile_qr_scan", "android": "https://dc.lft.to/lastmile_qr_scan"}, "type": "electric_scooter", "name": "94542baef270c61f4f59f60ee9dda88e", "is_reserved": 0, "lon": -76.934265, "is_disabled": 0, "fusion_lat": 0.0, "lat": 38.8991745, "bike_id": "94542baef270c61f4f59f60ee9dda88e", "fusion_lon": 0.0}, {"rental_uris": {"ios": "https://dc.lft.to/lastmile_qr_scan", "android": "https://dc.lft.to/lastmile_qr_scan"}, "type": "electric_scooter", "name": "41daf696ced4479a97e70f4b4f453415", "is_reserved": 0, "lon": -76.99494566666667, "is_disabled": 0, "fusion_lat": 0.0, "lat": 38.8622115, "bike_id": "41daf696ced4479a97e70f4b4f453415", "fusion_lon": 0.0}, {"rental_uris": {"ios": "https://dc.lft.to/lastmile_qr_scan", "android": "https://dc.lft.to/lastmile_qr_scan"}, "type": "electric_scooter", "name": "54ff7cd878de57f5c3216082e77791f9", "is_reserved": 0, "lon": -77.02904783333334, "is_disabled": 0, "fusion_lat": 0.0, "lat": 38.91712783333333, "bike_id": "54ff7cd878de57f5c3216082e77791f9", "fusion_lon": 0.0}, {"rental_uris": {"ios": "https://dc.lft.to/lastmile_qr_scan", "android": "https://dc.lft.to/lastmile_qr_scan"}, "type": "electric_scooter", "name": "e593b4a51dc1dbd1f557b4013da720ef", "is_reserved": 0, "lon": -76.99912833333333, "is_disabled": 0, "fusion_lat": 0.0, "lat": 38.92459566666667, "bike_id": "e593b4a51dc1dbd1f557b4013da720ef", "fusion_lon": 0.0}, {"rental_uris": {"ios": "https://dc.lft.to/lastmile_qr_scan", "android": "https://dc.lft.to/lastmile_qr_scan"}, "type": "electric_scooter", "name": "86bfa796c7d632e963e7f9cdaf17dc5b", "is_reserved": 0, "lon": -77.01861483333333, "is_disabled": 0, "fusion_lat": 0.0, "lat": 38.89464916666667, "bike_id": "86bfa796c7d632e963e7f9cdaf17dc5b", "fusion_lon": 0.0}, {"rental_uris": {"ios": "https://dc.lft.to/lastmile_qr_scan", "android": "https://dc.lft.to/lastmile_qr_scan"}, "type": "electric_scooter", "name": "95365c56e19ff82157642b1efc04c420", "is_reserved": 0, "lon": -76.99843683333333, "is_disabled": 0, "fusion_lat": 0.0, "lat": 38.92337116666667, "bike_id": "95365c56e19ff82157642b1efc04c420", "fusion_lon": 0.0}, {"rental_uris": {"ios": "https://dc.lft.to/lastmile_qr_scan", "android": "https://dc.lft.to/lastmile_qr_scan"}, "type": "electric_bike", "name": "56329338c7464982f5aa1526542aacc8", "is_reserved": 0, "lon": -77.00756683333333, "is_disabled": 0, "fusion_lat": 0.0, "lat": 38.997798833333334, "bike_id": "56329338c7464982f5aa1526542aacc8", "fusion_lon": 0.0}, {"rental_uris": {"ios": "https://dc.lft.to/lastmile_qr_scan", "android": "https://dc.lft.to/lastmile_qr_scan"}, "type": "electric_scooter", "name": "302bb32e8e16603ef892b279593b5de4", "is_reserved": 0, "lon": -77.01041083333334, "is_disabled": 0, "fusion_lat": 0.0, "lat": 38.9110885, "bike_id": "302bb32e8e16603ef892b279593b5de4", "fusion_lon": 0.0}, {"rental_uris": {"ios": "https://dc.lft.to/lastmile_qr_scan", "android": "https://dc.lft.to/lastmile_qr_scan"}, "type": "electric_scooter", "name": "3a3933ec89075e391fd2e0a9967238d2", "is_reserved": 0, "lon": -77.00203366666666, "is_disabled": 0, "fusion_lat": 0.0, "lat": 38.8929455, "bike_id": "3a3933ec89075e391fd2e0a9967238d2", "fusion_lon": 0.0}, {"rental_uris": {"ios": "https://dc.lft.to/lastmile_qr_scan", "android": "https://dc.lft.to/lastmile_qr_scan"}, "type": "electric_scooter", "name": "2f7ff3bc6e8143f93a09696ce2034e6d", "is_reserved": 0, "lon": -77.0425255, "is_disabled": 0, "fusion_lat": 0.0, "lat": 38.905833, "bike_id": "2f7ff3bc6e8143f93a09696ce2034e6d", "fusion_lon": 0.0}, {"rental_uris": {"ios": "https://dc.lft.to/lastmile_qr_scan", "android": "https://dc.lft.to/lastmile_qr_scan"}, "type": "electric_bike", "name": "729757795bd9c3b1e1821f6eeb2da41e", "is_reserved": 0, "lon": -76.93747816666666, "is_disabled": 0, "fusion_lat": 0.0, "lat": 38.871461, "bike_id": "729757795bd9c3b1e1821f6eeb2da41e", "fusion_lon": 0.0}, {"rental_uris": {"ios": "https://dc.lft.to/lastmile_qr_scan", "android": "https://dc.lft.to/lastmile_qr_scan"}, "type": "electric_scooter", "name": "c3ed9953845a4c544f1fed49a1ef2856", "is_reserved": 0, "lon": -77.0322285, "is_disabled": 0, "fusion_lat": 0.0, "lat": 38.92080166666667, "bike_id": "c3ed9953845a4c544f1fed49a1ef2856", "fusion_lon": 0.0}, {"rental_uris": {"ios": "https://dc.lft.to/lastmile_qr_scan", "android": "https://dc.lft.to/lastmile_qr_scan"}, "type": "electric_scooter", "name": "b178eea4636c3b98d5883a4fd951cd6f", "is_reserved": 0, "lon": -77.04251666666667, "is_disabled": 0, "fusion_lat": 0.0, "lat": 38.90429133333333, "bike_id": "b178eea4636c3b98d5883a4fd951cd6f", "fusion_lon": 0.0}, {"rental_uris": {"ios": "https://dc.lft.to/lastmile_qr_scan", "android": "https://dc.lft.to/lastmile_qr_scan"}, "type": "electric_scooter", "name": "4d8c87f08d28b437e8f64ab56160898e", "is_reserved": 0, "lon": -77.01359083333334, "is_disabled": 0, "fusion_lat": 0.0, "lat": 38.89587933333333, "bike_id": "4d8c87f08d28b437e8f64ab56160898e", "fusion_lon": 0.0}, {"rental_uris": {"ios": "https://dc.lft.to/lastmile_qr_scan", "android": "https://dc.lft.to/lastmile_qr_scan"}, "type": "electric_scooter", "name": "0ba5c47bd90700a5884d33381c407f9a", "is_reserved": 0, "lon": -77.03045533333334, "is_disabled": 0, "fusion_lat": 0.0, "lat": 38.9247565, "bike_id": "0ba5c47bd90700a5884d33381c407f9a", "fusion_lon": 0.0}, {"rental_uris": {"ios": "https://dc.lft.to/lastmile_qr_scan", "android": "https://dc.lft.to/lastmile_qr_scan"}, "type": "electric_scooter", "name": "483f8145481cbc5460ed30b2987cb3e3", "is_reserved": 0, "lon": -77.04650833333334, "is_disabled": 0, "fusion_lat": 0.0, "lat": 38.91186316666667, "bike_id": "483f8145481cbc5460ed30b2987cb3e3", "fusion_lon": 0.0}, {"rental_uris": {"ios": "https://dc.lft.to/lastmile_qr_scan", "android": "https://dc.lft.to/lastmile_qr_scan"}, "type": "electric_scooter", "name": "08a730d8a1cbf51882e2f5e9867d331e", "is_reserved": 0, "lon": -77.01792216666666, "is_disabled": 0, "fusion_lat": 0.0, "lat": 38.9198815, "bike_id": "08a730d8a1cbf51882e2f5e9867d331e", "fusion_lon": 0.0}, {"rental_uris": {"ios": "https://dc.lft.to/lastmile_qr_scan", "android": "https://dc.lft.to/lastmile_qr_scan"}, "type": "electric_scooter", "name": "d2bb420961c9e600a79c9acff212b578", "is_reserved": 0, "lon": -77.0554845, "is_disabled": 0, "fusion_lat": 0.0, "lat": 38.899910166666665, "bike_id": "d2bb420961c9e600a79c9acff212b578", "fusion_lon": 0.0}, {"rental_uris": {"ios": "https://dc.lft.to/lastmile_qr_scan", "android": "https://dc.lft.to/lastmile_qr_scan"}, "type": "electric_scooter", "name": "da75dc03b2750e9bec51873969f717eb", "is_reserved": 0, "lon": -76.9520145, "is_disabled": 0, "fusion_lat": 0.0, "lat": 38.90513216666667, "bike_id": "da75dc03b2750e9bec51873969f717eb", "fusion_lon": 0.0}, {"rental_uris": {"ios": "https://dc.lft.to/lastmile_qr_scan", "android": "https://dc.lft.to/lastmile_qr_scan"}, "type": "electric_scooter", "name": "15db5f4103d8ee514565674379d0cef3", "is_reserved": 0, "lon": -76.99930333333333, "is_disabled": 0, "fusion_lat": 0.0, "lat": 38.9575935, "bike_id": "15db5f4103d8ee514565674379d0cef3", "fusion_lon": 0.0}, {"rental_uris": {"ios": "https://dc.lft.to/lastmile_qr_scan", "android": "https://dc.lft.to/lastmile_qr_scan"}, "type": "electric_scooter", "name": "e7408f2e64247cd38cf39debd89d3834", "is_reserved": 0, "lon": -77.03280733333334, "is_disabled": 0, "fusion_lat": 0.0, "lat": 38.90426383333333, "bike_id": "e7408f2e64247cd38cf39debd89d3834", "fusion_lon": 0.0}, {"rental_uris": {"ios": "https://dc.lft.to/lastmile_qr_scan", "android": "https://dc.lft.to/lastmile_qr_scan"}, "type": "electric_scooter", "name": "491cfd865065df0c754553509630dc51", "is_reserved": 0, "lon": -77.00783183333333, "is_disabled": 0, "fusion_lat": 0.0, "lat": 38.89737233333334, "bike_id": "491cfd865065df0c754553509630dc51", "fusion_lon": 0.0}, {"rental_uris": {"ios": "https://dc.lft.to/lastmile_qr_scan", "android": "https://dc.lft.to/lastmile_qr_scan"}, "type": "electric_scooter", "name": "58f4e2394eb837c33769557491fddd08", "is_reserved": 0, "lon": -77.03659366666666, "is_disabled": 0, "fusion_lat": 0.0, "lat": 38.936356833333335, "bike_id": "58f4e2394eb837c33769557491fddd08", "fusion_lon": 0.0}, {"rental_uris": {"ios": "https://dc.lft.to/lastmile_qr_scan", "android": "https://dc.lft.to/lastmile_qr_scan"}, "type": "electric_scooter", "name": "7236fd2cc7720ef18d48cd7bad87c5c7", "is_reserved": 0, "lon": -77.04732933333334, "is_disabled": 0, "fusion_lat": 0.0, "lat": 38.8955045, "bike_id": "7236fd2cc7720ef18d48cd7bad87c5c7", "fusion_lon": 0.0}, {"rental_uris": {"ios": "https://dc.lft.to/lastmile_qr_scan", "android": "https://dc.lft.to/lastmile_qr_scan"}, "type": "electric_scooter", "name": "978f3ebe6121a9a3b97538f4405f90b8", "is_reserved": 0, "lon": -77.05952983333333, "is_disabled": 0, "fusion_lat": 0.0, "lat": 38.937073, "bike_id": "978f3ebe6121a9a3b97538f4405f90b8", "fusion_lon": 0.0}, {"rental_uris": {"ios": "https://dc.lft.to/lastmile_qr_scan", "android": "https://dc.lft.to/lastmile_qr_scan"}, "type": "electric_scooter", "name": "f446ccc1fa2f5f8e8d38eb4a3f3e59bf", "is_reserved": 0, "lon": -77.02094116666666, "is_disabled": 0, "fusion_lat": 0.0, "lat": 38.92910116666667, "bike_id": "f446ccc1fa2f5f8e8d38eb4a3f3e59bf", "fusion_lon": 0.0}, {"rental_uris": {"ios": "https://dc.lft.to/lastmile_qr_scan", "android": "https://dc.lft.to/lastmile_qr_scan"}, "type": "electric_scooter", "name": "97f202eb5ca0edb00950d9d4e3ccc6b5", "is_reserved": 0, "lon": -77.01853016666666, "is_disabled": 0, "fusion_lat": 0.0, "lat": 38.905357, "bike_id": "97f202eb5ca0edb00950d9d4e3ccc6b5", "fusion_lon": 0.0}, {"rental_uris": {"ios": "https://dc.lft.to/lastmile_qr_scan", "android": "https://dc.lft.to/lastmile_qr_scan"}, "type": "electric_scooter", "name": "3149fb92317eb1248b31a9093ad5e32c", "is_reserved": 0, "lon": -77.03181766666667, "is_disabled": 0, "fusion_lat": 0.0, "lat": 38.92009566666667, "bike_id": "3149fb92317eb1248b31a9093ad5e32c", "fusion_lon": 0.0}, {"rental_uris": {"ios": "https://dc.lft.to/lastmile_qr_scan", "android": "https://dc.lft.to/lastmile_qr_scan"}, "type": "electric_scooter", "name": "4461c3f48a919aa8d5eeef85a7dc9d2d", "is_reserved": 0, "lon": -77.04532583333334, "is_disabled": 0, "fusion_lat": 0.0, "lat": 38.9180945, "bike_id": "4461c3f48a919aa8d5eeef85a7dc9d2d", "fusion_lon": 0.0}, {"rental_uris": {"ios": "https://dc.lft.to/lastmile_qr_scan", "android": "https://dc.lft.to/lastmile_qr_scan"}, "type": "electric_scooter", "name": "0c1613fdbecaf66c759756935c079159", "is_reserved": 0, "lon": -77.0259945, "is_disabled": 0, "fusion_lat": 0.0, "lat": 38.893148, "bike_id": "0c1613fdbecaf66c759756935c079159", "fusion_lon": 0.0}, {"rental_uris": {"ios": "https://dc.lft.to/lastmile_qr_scan", "android": "https://dc.lft.to/lastmile_qr_scan"}, "type": "electric_scooter", "name": "270eb2f2ae2d1229bd87c42753c5b7df", "is_reserved": 0, "lon": -76.99423366666667, "is_disabled": 0, "fusion_lat": 0.0, "lat": 38.91687, "bike_id": "270eb2f2ae2d1229bd87c42753c5b7df", "fusion_lon": 0.0}, {"rental_uris": {"ios": "https://dc.lft.to/lastmile_qr_scan", "android": "https://dc.lft.to/lastmile_qr_scan"}, "type": "electric_scooter", "name": "b7b1786d536fed5a35db26d61ce85a1c", "is_reserved": 0, "lon": -77.03795416666667, "is_disabled": 0, "fusion_lat": 0.0, "lat": 38.91533166666667, "bike_id": "b7b1786d536fed5a35db26d61ce85a1c", "fusion_lon": 0.0}, {"rental_uris": {"ios": "https://dc.lft.to/lastmile_qr_scan", "android": "https://dc.lft.to/lastmile_qr_scan"}, "type": "electric_scooter", "name": "35fb3733404e1c6c699407510e7045d3", "is_reserved": 0, "lon": -77.024283, "is_disabled": 0, "fusion_lat": 0.0, "lat": 38.9032015, "bike_id": "35fb3733404e1c6c699407510e7045d3", "fusion_lon": 0.0}, {"rental_uris": {"ios": "https://dc.lft.to/lastmile_qr_scan", "android": "https://dc.lft.to/lastmile_qr_scan"}, "type": "electric_scooter", "name": "76240f0871c0a63a13656901b47e0ced", "is_reserved": 0, "lon": -77.03661466666667, "is_disabled": 0, "fusion_lat": 0.0, "lat": 38.913871666666665, "bike_id": "76240f0871c0a63a13656901b47e0ced", "fusion_lon": 0.0}, {"rental_uris": {"ios": "https://dc.lft.to/lastmile_qr_scan", "android": "https://dc.lft.to/lastmile_qr_scan"}, "type": "electric_scooter", "name": "051770b0d5282fb7b2f360f6bfb4103a", "is_reserved": 0, "lon": -77.04188366666666, "is_disabled": 0, "fusion_lat": 0.0, "lat": 38.92203333333333, "bike_id": "051770b0d5282fb7b2f360f6bfb4103a", "fusion_lon": 0.0}, {"rental_uris": {"ios": "https://dc.lft.to/lastmile_qr_scan", "android": "https://dc.lft.to/lastmile_qr_scan"}, "type": "electric_scooter", "name": "e64605f52b4f6df15a4ae38361f247fb", "is_reserved": 0, "lon": -77.05871516666667, "is_disabled": 0, "fusion_lat": 0.0, "lat": 38.942405, "bike_id": "e64605f52b4f6df15a4ae38361f247fb", "fusion_lon": 0.0}, {"rental_uris": {"ios": "https://dc.lft.to/lastmile_qr_scan", "android": "https://dc.lft.to/lastmile_qr_scan"}, "type": "electric_scooter", "name": "25a705de9efd043bc06952c38cc8be98", "is_reserved": 0, "lon": -77.029744, "is_disabled": 0, "fusion_lat": 0.0, "lat": 38.91721033333334, "bike_id": "25a705de9efd043bc06952c38cc8be98", "fusion_lon": 0.0}, {"rental_uris": {"ios": "https://dc.lft.to/lastmile_qr_scan", "android": "https://dc.lft.to/lastmile_qr_scan"}, "type": "electric_scooter", "name": "37ce8b7fbbab11ebaa471ebde9ef83d0", "is_reserved": 0, "lon": -77.036558, "is_disabled": 0, "fusion_lat": 0.0, "lat": 38.936312, "bike_id": "37ce8b7fbbab11ebaa471ebde9ef83d0", "fusion_lon": 0.0}, {"rental_uris": {"ios": "https://dc.lft.to/lastmile_qr_scan", "android": "https://dc.lft.to/lastmile_qr_scan"}, "type": "electric_scooter", "name": "6c4562a1c1b1ed8e6410735ad7a76783", "is_reserved": 0, "lon": -77.067782, "is_disabled": 0, "fusion_lat": 0.0, "lat": 38.904157833333336, "bike_id": "6c4562a1c1b1ed8e6410735ad7a76783", "fusion_lon": 0.0}, {"rental_uris": {"ios": "https://dc.lft.to/lastmile_qr_scan", "android": "https://dc.lft.to/lastmile_qr_scan"}, "type": "electric_scooter", "name": "63459f5bf21c4b55ef4f1b7397bd57da", "is_reserved": 0, "lon": -76.92918683333333, "is_disabled": 0, "fusion_lat": 0.0, "lat": 38.886585833333335, "bike_id": "63459f5bf21c4b55ef4f1b7397bd57da", "fusion_lon": 0.0}, {"rental_uris": {"ios": "https://dc.lft.to/lastmile_qr_scan", "android": "https://dc.lft.to/lastmile_qr_scan"}, "type": "electric_scooter", "name": "f47922f5c1c32a03444e94ce9061c321", "is_reserved": 0, "lon": -77.02403733333334, "is_disabled": 0, "fusion_lat": 0.0, "lat": 38.95732616666667, "bike_id": "f47922f5c1c32a03444e94ce9061c321", "fusion_lon": 0.0}, {"rental_uris": {"ios": "https://dc.lft.to/lastmile_qr_scan", "android": "https://dc.lft.to/lastmile_qr_scan"}, "type": "electric_scooter", "name": "10801905af094fbaa354f98bf69cfe02", "is_reserved": 0, "lon": -77.03909316666666, "is_disabled": 0, "fusion_lat": 0.0, "lat": 38.9245325, "bike_id": "10801905af094fbaa354f98bf69cfe02", "fusion_lon": 0.0}, {"rental_uris": {"ios": "https://dc.lft.to/lastmile_qr_scan", "android": "https://dc.lft.to/lastmile_qr_scan"}, "type": "electric_scooter", "name": "615d68ae6edcaff4551c640f421e75cb", "is_reserved": 0, "lon": -77.0221295, "is_disabled": 0, "fusion_lat": 0.0, "lat": 38.9247235, "bike_id": "615d68ae6edcaff4551c640f421e75cb", "fusion_lon": 0.0}, {"rental_uris": {"ios": "https://dc.lft.to/lastmile_qr_scan", "android": "https://dc.lft.to/lastmile_qr_scan"}, "type": "electric_scooter", "name": "52b3dcfe854527ac7ef83cb0d2189681", "is_reserved": 0, "lon": -76.97040083333333, "is_disabled": 0, "fusion_lat": 0.0, "lat": 38.86332433333333, "bike_id": "52b3dcfe854527ac7ef83cb0d2189681", "fusion_lon": 0.0}, {"rental_uris": {"ios": "https://dc.lft.to/lastmile_qr_scan", "android": "https://dc.lft.to/lastmile_qr_scan"}, "type": "electric_scooter", "name": "e90f57c7e4feaa92583ea13d5a2570ab", "is_reserved": 0, "lon": -76.995568, "is_disabled": 0, "fusion_lat": 0.0, "lat": 38.9267585, "bike_id": "e90f57c7e4feaa92583ea13d5a2570ab", "fusion_lon": 0.0}, {"rental_uris": {"ios": "https://dc.lft.to/lastmile_qr_scan", "android": "https://dc.lft.to/lastmile_qr_scan"}, "type": "electric_scooter", "name": "b4c123d76a7169c190c98096a1045619", "is_reserved": 0, "lon": -76.9860015, "is_disabled": 0, "fusion_lat": 0.0, "lat": 38.878421333333335, "bike_id": "b4c123d76a7169c190c98096a1045619", "fusion_lon": 0.0}, {"rental_uris": {"ios": "https://dc.lft.to/lastmile_qr_scan", "android": "https://dc.lft.to/lastmile_qr_scan"}, "type": "electric_scooter", "name": "ba2898c2e1a3c836acf30e008dd818d4", "is_reserved": 0, "lon": -76.97055766666666, "is_disabled": 0, "fusion_lat": 0.0, "lat": 38.87326783333334, "bike_id": "ba2898c2e1a3c836acf30e008dd818d4", "fusion_lon": 0.0}, {"rental_uris": {"ios": "https://dc.lft.to/lastmile_qr_scan", "android": "https://dc.lft.to/lastmile_qr_scan"}, "type": "electric_scooter", "name": "c0fe1ac8e943bfa21b639cc19ac9494b", "is_reserved": 0, "lon": -77.01898666666666, "is_disabled": 0, "fusion_lat": 0.0, "lat": 38.89797133333333, "bike_id": "c0fe1ac8e943bfa21b639cc19ac9494b", "fusion_lon": 0.0}, {"rental_uris": {"ios": "https://dc.lft.to/lastmile_qr_scan", "android": "https://dc.lft.to/lastmile_qr_scan"}, "type": "electric_scooter", "name": "494ca7600032572a271b9cd6a3a844a6", "is_reserved": 0, "lon": -77.05215716666666, "is_disabled": 0, "fusion_lat": 0.0, "lat": 38.92431666666667, "bike_id": "494ca7600032572a271b9cd6a3a844a6", "fusion_lon": 0.0}, {"rental_uris": {"ios": "https://dc.lft.to/lastmile_qr_scan", "android": "https://dc.lft.to/lastmile_qr_scan"}, "type": "electric_scooter", "name": "42c662d13ddeaec015223bf829b6c6a2", "is_reserved": 0, "lon": -77.03038916666667, "is_disabled": 0, "fusion_lat": 0.0, "lat": 38.922548666666664, "bike_id": "42c662d13ddeaec015223bf829b6c6a2", "fusion_lon": 0.0}, {"rental_uris": {"ios": "https://dc.lft.to/lastmile_qr_scan", "android": "https://dc.lft.to/lastmile_qr_scan"}, "type": "electric_scooter", "name": "f6cd441fa502ab254f64366d63240d55", "is_reserved": 0, "lon": -77.00220583333333, "is_disabled": 0, "fusion_lat": 0.0, "lat": 38.90016466666667, "bike_id": "f6cd441fa502ab254f64366d63240d55", "fusion_lon": 0.0}, {"rental_uris": {"ios": "https://dc.lft.to/lastmile_qr_scan", "android": "https://dc.lft.to/lastmile_qr_scan"}, "type": "electric_bike", "name": "78c9fef94cd3229a14d6cce5b4482e37", "is_reserved": 0, "lon": -77.0669855, "is_disabled": 0, "fusion_lat": 0.0, "lat": 38.83170416666667, "bike_id": "78c9fef94cd3229a14d6cce5b4482e37", "fusion_lon": 0.0}, {"rental_uris": {"ios": "https://dc.lft.to/lastmile_qr_scan", "android": "https://dc.lft.to/lastmile_qr_scan"}, "type": "electric_scooter", "name": "e091a653e95386e6fe475e074b209642", "is_reserved": 0, "lon": -77.0262465, "is_disabled": 0, "fusion_lat": 0.0, "lat": 38.89217433333334, "bike_id": "e091a653e95386e6fe475e074b209642", "fusion_lon": 0.0}, {"rental_uris": {"ios": "https://dc.lft.to/lastmile_qr_scan", "android": "https://dc.lft.to/lastmile_qr_scan"}, "type": "electric_scooter", "name": "2a1db64f1dabb297f6bc9584d42bd078", "is_reserved": 0, "lon": -77.039595, "is_disabled": 0, "fusion_lat": 0.0, "lat": 38.89242766666667, "bike_id": "2a1db64f1dabb297f6bc9584d42bd078", "fusion_lon": 0.0}, {"rental_uris": {"ios": "https://dc.lft.to/lastmile_qr_scan", "android": "https://dc.lft.to/lastmile_qr_scan"}, "type": "electric_scooter", "name": "1bd6d3ffe32cf46889b5a986177b0131", "is_reserved": 0, "lon": -77.02905433333333, "is_disabled": 0, "fusion_lat": 0.0, "lat": 38.94041, "bike_id": "1bd6d3ffe32cf46889b5a986177b0131", "fusion_lon": 0.0}, {"rental_uris": {"ios": "https://dc.lft.to/lastmile_qr_scan", "android": "https://dc.lft.to/lastmile_qr_scan"}, "type": "electric_bike", "name": "00940e926c749b5b3009677c3aa96934", "is_reserved": 0, "lon": -77.09458116666667, "is_disabled": 0, "fusion_lat": 0.0, "lat": 38.80757283333333, "bike_id": "00940e926c749b5b3009677c3aa96934", "fusion_lon": 0.0}, {"rental_uris": {"ios": "https://dc.lft.to/lastmile_qr_scan", "android": "https://dc.lft.to/lastmile_qr_scan"}, "type": "electric_scooter", "name": "2ee16e36510cedcce265c40b1adab448", "is_reserved": 0, "lon": -77.00173183333334, "is_disabled": 0, "fusion_lat": 0.0, "lat": 38.874953833333336, "bike_id": "2ee16e36510cedcce265c40b1adab448", "fusion_lon": 0.0}, {"rental_uris": {"ios": "https://dc.lft.to/lastmile_qr_scan", "android": "https://dc.lft.to/lastmile_qr_scan"}, "type": "electric_scooter", "name": "f797a119fad59ff71278b60abd1c475f", "is_reserved": 0, "lon": -77.07883716666667, "is_disabled": 0, "fusion_lat": 0.0, "lat": 38.9461335, "bike_id": "f797a119fad59ff71278b60abd1c475f", "fusion_lon": 0.0}, {"rental_uris": {"ios": "https://dc.lft.to/lastmile_qr_scan", "android": "https://dc.lft.to/lastmile_qr_scan"}, "type": "electric_scooter", "name": "694f2e7cb8a19fbeefbbba23c5e6b6f2", "is_reserved": 0, "lon": -77.02401016666667, "is_disabled": 0, "fusion_lat": 0.0, "lat": 38.9571165, "bike_id": "694f2e7cb8a19fbeefbbba23c5e6b6f2", "fusion_lon": 0.0}, {"rental_uris": {"ios": "https://dc.lft.to/lastmile_qr_scan", "android": "https://dc.lft.to/lastmile_qr_scan"}, "type": "electric_scooter", "name": "66fa761ad343278ed175da39340bb379", "is_reserved": 0, "lon": -77.02569083333333, "is_disabled": 0, "fusion_lat": 0.0, "lat": 38.923860166666664, "bike_id": "66fa761ad343278ed175da39340bb379", "fusion_lon": 0.0}, {"rental_uris": {"ios": "https://dc.lft.to/lastmile_qr_scan", "android": "https://dc.lft.to/lastmile_qr_scan"}, "type": "electric_scooter", "name": "96b6d0e560b100ae0eaa7e1fde7f06dc", "is_reserved": 0, "lon": -77.02155883333333, "is_disabled": 0, "fusion_lat": 0.0, "lat": 38.9260565, "bike_id": "96b6d0e560b100ae0eaa7e1fde7f06dc", "fusion_lon": 0.0}, {"rental_uris": {"ios": "https://dc.lft.to/lastmile_qr_scan", "android": "https://dc.lft.to/lastmile_qr_scan"}, "type": "electric_scooter", "name": "7821a3361d5153a726d8cb2f7922d43c", "is_reserved": 0, "lon": -77.002514, "is_disabled": 0, "fusion_lat": 0.0, "lat": 38.908724, "bike_id": "7821a3361d5153a726d8cb2f7922d43c", "fusion_lon": 0.0}, {"rental_uris": {"ios": "https://dc.lft.to/lastmile_qr_scan", "android": "https://dc.lft.to/lastmile_qr_scan"}, "type": "electric_scooter", "name": "4f0c3927b2af49380260984600cfd00e", "is_reserved": 0, "lon": -76.99598399999999, "is_disabled": 0, "fusion_lat": 0.0, "lat": 38.90032516666667, "bike_id": "4f0c3927b2af49380260984600cfd00e", "fusion_lon": 0.0}, {"rental_uris": {"ios": "https://dc.lft.to/lastmile_qr_scan", "android": "https://dc.lft.to/lastmile_qr_scan"}, "type": "electric_scooter", "name": "70cd80e6c8019086417ecedc3dbda215", "is_reserved": 0, "lon": -77.0314315, "is_disabled": 0, "fusion_lat": 0.0, "lat": 38.88734266666667, "bike_id": "70cd80e6c8019086417ecedc3dbda215", "fusion_lon": 0.0}, {"rental_uris": {"ios": "https://dc.lft.to/lastmile_qr_scan", "android": "https://dc.lft.to/lastmile_qr_scan"}, "type": "electric_scooter", "name": "3a1767e6ada684374fe57f8e0a05527b", "is_reserved": 0, "lon": -77.01783633333334, "is_disabled": 0, "fusion_lat": 0.0, "lat": 38.874757833333334, "bike_id": "3a1767e6ada684374fe57f8e0a05527b", "fusion_lon": 0.0}, {"rental_uris": {"ios": "https://dc.lft.to/lastmile_qr_scan", "android": "https://dc.lft.to/lastmile_qr_scan"}, "type": "electric_scooter", "name": "7e31acd4bef311bcea6d0f28d8d25f66", "is_reserved": 0, "lon": -77.01226316666667, "is_disabled": 0, "fusion_lat": 0.0, "lat": 38.916671666666666, "bike_id": "7e31acd4bef311bcea6d0f28d8d25f66", "fusion_lon": 0.0}, {"rental_uris": {"ios": "https://dc.lft.to/lastmile_qr_scan", "android": "https://dc.lft.to/lastmile_qr_scan"}, "type": "electric_scooter", "name": "851d039255b83e35b1adf897873f31a9", "is_reserved": 0, "lon": -77.02532583333333, "is_disabled": 0, "fusion_lat": 0.0, "lat": 38.945357666666666, "bike_id": "851d039255b83e35b1adf897873f31a9", "fusion_lon": 0.0}, {"rental_uris": {"ios": "https://dc.lft.to/lastmile_qr_scan", "android": "https://dc.lft.to/lastmile_qr_scan"}, "type": "electric_bike", "name": "f75b447e66da61207c09a9feeb5f6363", "is_reserved": 0, "lon": -76.995733, "is_disabled": 0, "fusion_lat": 0.0, "lat": 38.8315955, "bike_id": "f75b447e66da61207c09a9feeb5f6363", "fusion_lon": 0.0}, {"rental_uris": {"ios": "https://dc.lft.to/lastmile_qr_scan", "android": "https://dc.lft.to/lastmile_qr_scan"}, "type": "electric_scooter", "name": "b20780208f8283cebe8444a85c52b3b7", "is_reserved": 0, "lon": -76.99664816666666, "is_disabled": 0, "fusion_lat": 0.0, "lat": 38.892328666666664, "bike_id": "b20780208f8283cebe8444a85c52b3b7", "fusion_lon": 0.0}, {"rental_uris": {"ios": "https://dc.lft.to/lastmile_qr_scan", "android": "https://dc.lft.to/lastmile_qr_scan"}, "type": "electric_scooter", "name": "ef096b15d9c5f6c78b984159f83b40e1", "is_reserved": 0, "lon": -76.99714983333334, "is_disabled": 0, "fusion_lat": 0.0, "lat": 38.89742233333333, "bike_id": "ef096b15d9c5f6c78b984159f83b40e1", "fusion_lon": 0.0}, {"rental_uris": {"ios": "https://dc.lft.to/lastmile_qr_scan", "android": "https://dc.lft.to/lastmile_qr_scan"}, "type": "electric_bike", "name": "1caab0e1202b5968fa51bb5868382567", "is_reserved": 0, "lon": -77.1135765, "is_disabled": 0, "fusion_lat": 0.0, "lat": 38.841907, "bike_id": "1caab0e1202b5968fa51bb5868382567", "fusion_lon": 0.0}, {"rental_uris": {"ios": "https://dc.lft.to/lastmile_qr_scan", "android": "https://dc.lft.to/lastmile_qr_scan"}, "type": "electric_scooter", "name": "ebbad2849867df1556d2b4a3fdf3e5ad", "is_reserved": 0, "lon": -76.981121, "is_disabled": 0, "fusion_lat": 0.0, "lat": 38.902660166666664, "bike_id": "ebbad2849867df1556d2b4a3fdf3e5ad", "fusion_lon": 0.0}, {"rental_uris": {"ios": "https://dc.lft.to/lastmile_qr_scan", "android": "https://dc.lft.to/lastmile_qr_scan"}, "type": "electric_scooter", "name": "79b98796b7329dc53ddbed4560944af3", "is_reserved": 0, "lon": -77.00322416666667, "is_disabled": 0, "fusion_lat": 0.0, "lat": 38.91896, "bike_id": "79b98796b7329dc53ddbed4560944af3", "fusion_lon": 0.0}, {"rental_uris": {"ios": "https://dc.lft.to/lastmile_qr_scan", "android": "https://dc.lft.to/lastmile_qr_scan"}, "type": "electric_scooter", "name": "55d26977bfec94dfb3889b600f68c1c2", "is_reserved": 0, "lon": -77.0464365, "is_disabled": 0, "fusion_lat": 0.0, "lat": 38.89747966666667, "bike_id": "55d26977bfec94dfb3889b600f68c1c2", "fusion_lon": 0.0}, {"rental_uris": {"ios": "https://dc.lft.to/lastmile_qr_scan", "android": "https://dc.lft.to/lastmile_qr_scan"}, "type": "electric_scooter", "name": "fe9f109a58a0b22a4b449f3b2bfe8861", "is_reserved": 0, "lon": -76.993446, "is_disabled": 0, "fusion_lat": 0.0, "lat": 38.876928, "bike_id": "fe9f109a58a0b22a4b449f3b2bfe8861", "fusion_lon": 0.0}, {"rental_uris": {"ios": "https://dc.lft.to/lastmile_qr_scan", "android": "https://dc.lft.to/lastmile_qr_scan"}, "type": "electric_scooter", "name": "2cc85043933abd31f764ab9dd270aef2", "is_reserved": 0, "lon": -77.03202916666666, "is_disabled": 0, "fusion_lat": 0.0, "lat": 38.912099833333336, "bike_id": "2cc85043933abd31f764ab9dd270aef2", "fusion_lon": 0.0}, {"rental_uris": {"ios": "https://dc.lft.to/lastmile_qr_scan", "android": "https://dc.lft.to/lastmile_qr_scan"}, "type": "electric_scooter", "name": "369a6c35a3e5c8d03d96ce02d7ca6429", "is_reserved": 0, "lon": -77.017669, "is_disabled": 0, "fusion_lat": 0.0, "lat": 38.900288, "bike_id": "369a6c35a3e5c8d03d96ce02d7ca6429", "fusion_lon": 0.0}, {"rental_uris": {"ios": "https://dc.lft.to/lastmile_qr_scan", "android": "https://dc.lft.to/lastmile_qr_scan"}, "type": "electric_bike", "name": "960b8dc05a8639cd6012494ec61471f4", "is_reserved": 0, "lon": -77.04310083333333, "is_disabled": 0, "fusion_lat": 0.0, "lat": 39.03415066666667, "bike_id": "960b8dc05a8639cd6012494ec61471f4", "fusion_lon": 0.0}, {"rental_uris": {"ios": "https://dc.lft.to/lastmile_qr_scan", "android": "https://dc.lft.to/lastmile_qr_scan"}, "type": "electric_scooter", "name": "19eb5e4e9489ce32790c37d63c540ee3", "is_reserved": 0, "lon": -77.04268916666666, "is_disabled": 0, "fusion_lat": 0.0, "lat": 38.9073995, "bike_id": "19eb5e4e9489ce32790c37d63c540ee3", "fusion_lon": 0.0}, {"rental_uris": {"ios": "https://dc.lft.to/lastmile_qr_scan", "android": "https://dc.lft.to/lastmile_qr_scan"}, "type": "electric_scooter", "name": "d9f754c9da893d5fc6c22262cb280c4e", "is_reserved": 0, "lon": -77.03185266666667, "is_disabled": 0, "fusion_lat": 0.0, "lat": 38.88708666666667, "bike_id": "d9f754c9da893d5fc6c22262cb280c4e", "fusion_lon": 0.0}, {"rental_uris": {"ios": "https://dc.lft.to/lastmile_qr_scan", "android": "https://dc.lft.to/lastmile_qr_scan"}, "type": "electric_scooter", "name": "26cc2a75321b575fa9dce996828f6037", "is_reserved": 0, "lon": -77.03064216666667, "is_disabled": 0, "fusion_lat": 0.0, "lat": 38.9224955, "bike_id": "26cc2a75321b575fa9dce996828f6037", "fusion_lon": 0.0}, {"rental_uris": {"ios": "https://dc.lft.to/lastmile_qr_scan", "android": "https://dc.lft.to/lastmile_qr_scan"}, "type": "electric_scooter", "name": "1f716e05602ac9aa71fddb8f36268c4d", "is_reserved": 0, "lon": -76.98928716666667, "is_disabled": 0, "fusion_lat": 0.0, "lat": 38.878644, "bike_id": "1f716e05602ac9aa71fddb8f36268c4d", "fusion_lon": 0.0}, {"rental_uris": {"ios": "https://dc.lft.to/lastmile_qr_scan", "android": "https://dc.lft.to/lastmile_qr_scan"}, "type": "electric_scooter", "name": "66ecc394001ca394339573b2648c297d", "is_reserved": 0, "lon": -77.04130016666667, "is_disabled": 0, "fusion_lat": 0.0, "lat": 38.93271516666667, "bike_id": "66ecc394001ca394339573b2648c297d", "fusion_lon": 0.0}, {"rental_uris": {"ios": "https://dc.lft.to/lastmile_qr_scan", "android": "https://dc.lft.to/lastmile_qr_scan"}, "type": "electric_scooter", "name": "4a8619207711146f9e4310db2c868dc8", "is_reserved": 0, "lon": -77.008422, "is_disabled": 0, "fusion_lat": 0.0, "lat": 38.879596666666664, "bike_id": "4a8619207711146f9e4310db2c868dc8", "fusion_lon": 0.0}, {"rental_uris": {"ios": "https://dc.lft.to/lastmile_qr_scan", "android": "https://dc.lft.to/lastmile_qr_scan"}, "type": "electric_scooter", "name": "f5c0b910bf9573c971bfde57a8a872d2", "is_reserved": 0, "lon": -77.03124633333333, "is_disabled": 0, "fusion_lat": 0.0, "lat": 38.915538166666664, "bike_id": "f5c0b910bf9573c971bfde57a8a872d2", "fusion_lon": 0.0}, {"rental_uris": {"ios": "https://dc.lft.to/lastmile_qr_scan", "android": "https://dc.lft.to/lastmile_qr_scan"}, "type": "electric_scooter", "name": "50da7ae26624871ef1f86ca53e4fd080", "is_reserved": 0, "lon": -77.05626583333333, "is_disabled": 0, "fusion_lat": 0.0, "lat": 38.906893, "bike_id": "50da7ae26624871ef1f86ca53e4fd080", "fusion_lon": 0.0}, {"rental_uris": {"ios": "https://dc.lft.to/lastmile_qr_scan", "android": "https://dc.lft.to/lastmile_qr_scan"}, "type": "electric_scooter", "name": "ef79ee700946c177e214250a466f06f6", "is_reserved": 0, "lon": -77.0271685, "is_disabled": 0, "fusion_lat": 0.0, "lat": 38.91216416666666, "bike_id": "ef79ee700946c177e214250a466f06f6", "fusion_lon": 0.0}, {"rental_uris": {"ios": "https://dc.lft.to/lastmile_qr_scan", "android": "https://dc.lft.to/lastmile_qr_scan"}, "type": "electric_scooter", "name": "abc634b5e51efbc8a43de303f4a05f61", "is_reserved": 0, "lon": -77.0278405, "is_disabled": 0, "fusion_lat": 0.0, "lat": 38.9277375, "bike_id": "abc634b5e51efbc8a43de303f4a05f61", "fusion_lon": 0.0}, {"rental_uris": {"ios": "https://dc.lft.to/lastmile_qr_scan", "android": "https://dc.lft.to/lastmile_qr_scan"}, "type": "electric_scooter", "name": "205d8831c936ec2a4be1e5234fa19db9", "is_reserved": 0, "lon": -77.03343533333333, "is_disabled": 0, "fusion_lat": 0.0, "lat": 38.89736166666667, "bike_id": "205d8831c936ec2a4be1e5234fa19db9", "fusion_lon": 0.0}, {"rental_uris": {"ios": "https://dc.lft.to/lastmile_qr_scan", "android": "https://dc.lft.to/lastmile_qr_scan"}, "type": "electric_scooter", "name": "034cf412d18ceb849f6cdda46503d9fc", "is_reserved": 0, "lon": -77.0386615, "is_disabled": 0, "fusion_lat": 0.0, "lat": 38.91110316666666, "bike_id": "034cf412d18ceb849f6cdda46503d9fc", "fusion_lon": 0.0}, {"rental_uris": {"ios": "https://dc.lft.to/lastmile_qr_scan", "android": "https://dc.lft.to/lastmile_qr_scan"}, "type": "electric_bike", "name": "c77fde26ac23f64086274697a9e97e18", "is_reserved": 0, "lon": -76.95741133333334, "is_disabled": 0, "fusion_lat": 0.0, "lat": 38.88860366666667, "bike_id": "c77fde26ac23f64086274697a9e97e18", "fusion_lon": 0.0}, {"rental_uris": {"ios": "https://dc.lft.to/lastmile_qr_scan", "android": "https://dc.lft.to/lastmile_qr_scan"}, "type": "electric_scooter", "name": "cf05dec6a1ea57d0991f1d5bd1f07e76", "is_reserved": 0, "lon": -77.03134416666667, "is_disabled": 0, "fusion_lat": 0.0, "lat": 38.91819533333334, "bike_id": "cf05dec6a1ea57d0991f1d5bd1f07e76", "fusion_lon": 0.0}, {"rental_uris": {"ios": "https://dc.lft.to/lastmile_qr_scan", "android": "https://dc.lft.to/lastmile_qr_scan"}, "type": "electric_scooter", "name": "7a947ddbd4ddf17b31d1f663c6397458", "is_reserved": 0, "lon": -77.04548716666666, "is_disabled": 0, "fusion_lat": 0.0, "lat": 38.909721166666664, "bike_id": "7a947ddbd4ddf17b31d1f663c6397458", "fusion_lon": 0.0}, {"rental_uris": {"ios": "https://dc.lft.to/lastmile_qr_scan", "android": "https://dc.lft.to/lastmile_qr_scan"}, "type": "electric_scooter", "name": "5c7b89b78d62fcafe99bc91e2bedbacb", "is_reserved": 0, "lon": -77.03957066666666, "is_disabled": 0, "fusion_lat": 0.0, "lat": 38.892529, "bike_id": "5c7b89b78d62fcafe99bc91e2bedbacb", "fusion_lon": 0.0}, {"rental_uris": {"ios": "https://dc.lft.to/lastmile_qr_scan", "android": "https://dc.lft.to/lastmile_qr_scan"}, "type": "electric_scooter", "name": "6fe1fae88b66185df6b529345aa91b3d", "is_reserved": 0, "lon": -76.9471705, "is_disabled": 0, "fusion_lat": 0.0, "lat": 38.89082533333333, "bike_id": "6fe1fae88b66185df6b529345aa91b3d", "fusion_lon": 0.0}, {"rental_uris": {"ios": "https://dc.lft.to/lastmile_qr_scan", "android": "https://dc.lft.to/lastmile_qr_scan"}, "type": "electric_scooter", "name": "2590f160bcb4d3c1dcbf7f7f9a8f77c1", "is_reserved": 0, "lon": -77.03747033333333, "is_disabled": 0, "fusion_lat": 0.0, "lat": 38.931998, "bike_id": "2590f160bcb4d3c1dcbf7f7f9a8f77c1", "fusion_lon": 0.0}, {"rental_uris": {"ios": "https://dc.lft.to/lastmile_qr_scan", "android": "https://dc.lft.to/lastmile_qr_scan"}, "type": "electric_scooter", "name": "3b33b3608284565f14ea2cc0bf065743", "is_reserved": 0, "lon": -77.06784516666667, "is_disabled": 0, "fusion_lat": 0.0, "lat": 38.908799333333334, "bike_id": "3b33b3608284565f14ea2cc0bf065743", "fusion_lon": 0.0}, {"rental_uris": {"ios": "https://dc.lft.to/lastmile_qr_scan", "android": "https://dc.lft.to/lastmile_qr_scan"}, "type": "electric_scooter", "name": "a4ab22dfd2e61aa8fa1ee055303ba04d", "is_reserved": 0, "lon": -77.04387766666666, "is_disabled": 0, "fusion_lat": 0.0, "lat": 38.917082, "bike_id": "a4ab22dfd2e61aa8fa1ee055303ba04d", "fusion_lon": 0.0}, {"rental_uris": {"ios": "https://dc.lft.to/lastmile_qr_scan", "android": "https://dc.lft.to/lastmile_qr_scan"}, "type": "electric_scooter", "name": "b52667e565d6ee7d35286f60712022c7", "is_reserved": 0, "lon": -77.04822833333333, "is_disabled": 0, "fusion_lat": 0.0, "lat": 38.909734, "bike_id": "b52667e565d6ee7d35286f60712022c7", "fusion_lon": 0.0}, {"rental_uris": {"ios": "https://dc.lft.to/lastmile_qr_scan", "android": "https://dc.lft.to/lastmile_qr_scan"}, "type": "electric_scooter", "name": "57df93c12152cf239d2d6b49a018bff7", "is_reserved": 0, "lon": -77.02037233333333, "is_disabled": 0, "fusion_lat": 0.0, "lat": 38.911111, "bike_id": "57df93c12152cf239d2d6b49a018bff7", "fusion_lon": 0.0}, {"rental_uris": {"ios": "https://dc.lft.to/lastmile_qr_scan", "android": "https://dc.lft.to/lastmile_qr_scan"}, "type": "electric_scooter", "name": "2ff25e88c8f90d80dd6d5ba53e66f830", "is_reserved": 0, "lon": -76.98565316666667, "is_disabled": 0, "fusion_lat": 0.0, "lat": 38.896154, "bike_id": "2ff25e88c8f90d80dd6d5ba53e66f830", "fusion_lon": 0.0}, {"rental_uris": {"ios": "https://dc.lft.to/lastmile_qr_scan", "android": "https://dc.lft.to/lastmile_qr_scan"}, "type": "electric_scooter", "name": "d0cf8c365931c663a077edeeff9c4a92", "is_reserved": 0, "lon": -77.0405035, "is_disabled": 0, "fusion_lat": 0.0, "lat": 38.924618833333334, "bike_id": "d0cf8c365931c663a077edeeff9c4a92", "fusion_lon": 0.0}, {"rental_uris": {"ios": "https://dc.lft.to/lastmile_qr_scan", "android": "https://dc.lft.to/lastmile_qr_scan"}, "type": "electric_scooter", "name": "39fcd61ab3fcd4cfdefebb52488c3c00", "is_reserved": 0, "lon": -77.044044, "is_disabled": 0, "fusion_lat": 0.0, "lat": 38.92581966666667, "bike_id": "39fcd61ab3fcd4cfdefebb52488c3c00", "fusion_lon": 0.0}, {"rental_uris": {"ios": "https://dc.lft.to/lastmile_qr_scan", "android": "https://dc.lft.to/lastmile_qr_scan"}, "type": "electric_bike", "name": "974de5e9ac8cc16f526bcfc5357eb2ee", "is_reserved": 0, "lon": -77.072438, "is_disabled": 0, "fusion_lat": 0.0, "lat": 38.813609666666665, "bike_id": "974de5e9ac8cc16f526bcfc5357eb2ee", "fusion_lon": 0.0}, {"rental_uris": {"ios": "https://dc.lft.to/lastmile_qr_scan", "android": "https://dc.lft.to/lastmile_qr_scan"}, "type": "electric_scooter", "name": "f8d63172ae91386424651f7c8b3c7b0b", "is_reserved": 0, "lon": -77.016402, "is_disabled": 0, "fusion_lat": 0.0, "lat": 38.902308, "bike_id": "f8d63172ae91386424651f7c8b3c7b0b", "fusion_lon": 0.0}, {"rental_uris": {"ios": "https://dc.lft.to/lastmile_qr_scan", "android": "https://dc.lft.to/lastmile_qr_scan"}, "type": "electric_scooter", "name": "cf325a288cde52a14652172cbc35a1e0", "is_reserved": 0, "lon": -77.02818966666666, "is_disabled": 0, "fusion_lat": 0.0, "lat": 38.91095983333334, "bike_id": "cf325a288cde52a14652172cbc35a1e0", "fusion_lon": 0.0}, {"rental_uris": {"ios": "https://dc.lft.to/lastmile_qr_scan", "android": "https://dc.lft.to/lastmile_qr_scan"}, "type": "electric_scooter", "name": "3227066d0857ffc2cdba65f3640fbbb7", "is_reserved": 0, "lon": -77.047217, "is_disabled": 0, "fusion_lat": 0.0, "lat": 38.90181183333333, "bike_id": "3227066d0857ffc2cdba65f3640fbbb7", "fusion_lon": 0.0}, {"rental_uris": {"ios": "https://dc.lft.to/lastmile_qr_scan", "android": "https://dc.lft.to/lastmile_qr_scan"}, "type": "electric_scooter", "name": "5464abab76edef5b05f95423a27d2eda", "is_reserved": 0, "lon": -76.94323416666667, "is_disabled": 0, "fusion_lat": 0.0, "lat": 38.8791795, "bike_id": "5464abab76edef5b05f95423a27d2eda", "fusion_lon": 0.0}, {"rental_uris": {"ios": "https://dc.lft.to/lastmile_qr_scan", "android": "https://dc.lft.to/lastmile_qr_scan"}, "type": "electric_scooter", "name": "9be2a4ec68a9b0c0b4f1a4c66ef72531", "is_reserved": 0, "lon": -77.02761783333334, "is_disabled": 0, "fusion_lat": 0.0, "lat": 38.91342616666667, "bike_id": "9be2a4ec68a9b0c0b4f1a4c66ef72531", "fusion_lon": 0.0}, {"rental_uris": {"ios": "https://dc.lft.to/lastmile_qr_scan", "android": "https://dc.lft.to/lastmile_qr_scan"}, "type": "electric_scooter", "name": "2face5525f020a8568aae91f3c447a3b", "is_reserved": 0, "lon": -77.05597383333334, "is_disabled": 0, "fusion_lat": 0.0, "lat": 38.937029333333335, "bike_id": "2face5525f020a8568aae91f3c447a3b", "fusion_lon": 0.0}, {"rental_uris": {"ios": "https://dc.lft.to/lastmile_qr_scan", "android": "https://dc.lft.to/lastmile_qr_scan"}, "type": "electric_bike", "name": "06de3e5d8336211c00e55013afd9991d", "is_reserved": 0, "lon": -76.997949, "is_disabled": 0, "fusion_lat": 0.0, "lat": 38.881232833333335, "bike_id": "06de3e5d8336211c00e55013afd9991d", "fusion_lon": 0.0}, {"rental_uris": {"ios": "https://dc.lft.to/lastmile_qr_scan", "android": "https://dc.lft.to/lastmile_qr_scan"}, "type": "electric_scooter", "name": "27f3a4abd5704e244c32eac2e3d02462", "is_reserved": 0, "lon": -77.0075665, "is_disabled": 0, "fusion_lat": 0.0, "lat": 38.926725, "bike_id": "27f3a4abd5704e244c32eac2e3d02462", "fusion_lon": 0.0}, {"rental_uris": {"ios": "https://dc.lft.to/lastmile_qr_scan", "android": "https://dc.lft.to/lastmile_qr_scan"}, "type": "electric_scooter", "name": "ead01c37649c25ff2ed01ba92bd2c581", "is_reserved": 0, "lon": -77.04500283333333, "is_disabled": 0, "fusion_lat": 0.0, "lat": 38.8925355, "bike_id": "ead01c37649c25ff2ed01ba92bd2c581", "fusion_lon": 0.0}, {"rental_uris": {"ios": "https://dc.lft.to/lastmile_qr_scan", "android": "https://dc.lft.to/lastmile_qr_scan"}, "type": "electric_scooter", "name": "ff7158fda72563e022864524794c32d4", "is_reserved": 0, "lon": -77.0366, "is_disabled": 0, "fusion_lat": 0.0, "lat": 38.91762666666666, "bike_id": "ff7158fda72563e022864524794c32d4", "fusion_lon": 0.0}, {"rental_uris": {"ios": "https://dc.lft.to/lastmile_qr_scan", "android": "https://dc.lft.to/lastmile_qr_scan"}, "type": "electric_scooter", "name": "b4e221d78d04d8dbb3d8ed3000d46469", "is_reserved": 0, "lon": -77.035502, "is_disabled": 0, "fusion_lat": 0.0, "lat": 38.90463616666667, "bike_id": "b4e221d78d04d8dbb3d8ed3000d46469", "fusion_lon": 0.0}, {"rental_uris": {"ios": "https://dc.lft.to/lastmile_qr_scan", "android": "https://dc.lft.to/lastmile_qr_scan"}, "type": "electric_scooter", "name": "dbc6ff4621b345e17d0c4a06c4559029", "is_reserved": 0, "lon": -77.00458366666666, "is_disabled": 0, "fusion_lat": 0.0, "lat": 38.92075783333333, "bike_id": "dbc6ff4621b345e17d0c4a06c4559029", "fusion_lon": 0.0}, {"rental_uris": {"ios": "https://dc.lft.to/lastmile_qr_scan", "android": "https://dc.lft.to/lastmile_qr_scan"}, "type": "electric_bike", "name": "73a95cdea1a79bf9a9fd52596567ddd4", "is_reserved": 0, "lon": -76.9734465, "is_disabled": 0, "fusion_lat": 0.0, "lat": 38.89725966666666, "bike_id": "73a95cdea1a79bf9a9fd52596567ddd4", "fusion_lon": 0.0}, {"rental_uris": {"ios": "https://dc.lft.to/lastmile_qr_scan", "android": "https://dc.lft.to/lastmile_qr_scan"}, "type": "electric_scooter", "name": "4229409d104cc6e50a9f0e1eb445d95d", "is_reserved": 0, "lon": -77.03831783333334, "is_disabled": 0, "fusion_lat": 0.0, "lat": 38.9107885, "bike_id": "4229409d104cc6e50a9f0e1eb445d95d", "fusion_lon": 0.0}, {"rental_uris": {"ios": "https://dc.lft.to/lastmile_qr_scan", "android": "https://dc.lft.to/lastmile_qr_scan"}, "type": "electric_scooter", "name": "b04a042fb7c18894a53c9b911ae84d6f", "is_reserved": 0, "lon": -77.05921083333334, "is_disabled": 0, "fusion_lat": 0.0, "lat": 38.94307933333333, "bike_id": "b04a042fb7c18894a53c9b911ae84d6f", "fusion_lon": 0.0}, {"rental_uris": {"ios": "https://dc.lft.to/lastmile_qr_scan", "android": "https://dc.lft.to/lastmile_qr_scan"}, "type": "electric_scooter", "name": "6babac52f91eb8aa0537df4880818f42", "is_reserved": 0, "lon": -77.01765566666667, "is_disabled": 0, "fusion_lat": 0.0, "lat": 38.883239333333336, "bike_id": "6babac52f91eb8aa0537df4880818f42", "fusion_lon": 0.0}, {"rental_uris": {"ios": "https://dc.lft.to/lastmile_qr_scan", "android": "https://dc.lft.to/lastmile_qr_scan"}, "type": "electric_scooter", "name": "ec92718218f0ea2928a15181688d48c2", "is_reserved": 0, "lon": -77.00711416666667, "is_disabled": 0, "fusion_lat": 0.0, "lat": 38.8849135, "bike_id": "ec92718218f0ea2928a15181688d48c2", "fusion_lon": 0.0}, {"rental_uris": {"ios": "https://dc.lft.to/lastmile_qr_scan", "android": "https://dc.lft.to/lastmile_qr_scan"}, "type": "electric_scooter", "name": "98cba94c717d0e7fad48a3277f5c4fe0", "is_reserved": 0, "lon": -77.0388595, "is_disabled": 0, "fusion_lat": 0.0, "lat": 38.93367716666667, "bike_id": "98cba94c717d0e7fad48a3277f5c4fe0", "fusion_lon": 0.0}, {"rental_uris": {"ios": "https://dc.lft.to/lastmile_qr_scan", "android": "https://dc.lft.to/lastmile_qr_scan"}, "type": "electric_scooter", "name": "7df1a2aa89cf0eae0c0c2367a0c999fe", "is_reserved": 0, "lon": -77.01084133333333, "is_disabled": 0, "fusion_lat": 0.0, "lat": 38.9033045, "bike_id": "7df1a2aa89cf0eae0c0c2367a0c999fe", "fusion_lon": 0.0}, {"rental_uris": {"ios": "https://dc.lft.to/lastmile_qr_scan", "android": "https://dc.lft.to/lastmile_qr_scan"}, "type": "electric_bike", "name": "4cb360d0310497e32e2729f2ab6fa717", "is_reserved": 0, "lon": -77.0227855, "is_disabled": 0, "fusion_lat": 0.0, "lat": 38.9271025, "bike_id": "4cb360d0310497e32e2729f2ab6fa717", "fusion_lon": 0.0}, {"rental_uris": {"ios": "https://dc.lft.to/lastmile_qr_scan", "android": "https://dc.lft.to/lastmile_qr_scan"}, "type": "electric_scooter", "name": "9c500141b2a9b8279da20c9a225a4406", "is_reserved": 0, "lon": -77.042769, "is_disabled": 0, "fusion_lat": 0.0, "lat": 38.91795583333333, "bike_id": "9c500141b2a9b8279da20c9a225a4406", "fusion_lon": 0.0}, {"rental_uris": {"ios": "https://dc.lft.to/lastmile_qr_scan", "android": "https://dc.lft.to/lastmile_qr_scan"}, "type": "electric_scooter", "name": "e8ed395d77bef553ee57e943701b91e2", "is_reserved": 0, "lon": -77.05151116666667, "is_disabled": 0, "fusion_lat": 0.0, "lat": 38.905142833333336, "bike_id": "e8ed395d77bef553ee57e943701b91e2", "fusion_lon": 0.0}, {"rental_uris": {"ios": "https://dc.lft.to/lastmile_qr_scan", "android": "https://dc.lft.to/lastmile_qr_scan"}, "type": "electric_scooter", "name": "35568061b174d5e56372c7b583e7772f", "is_reserved": 0, "lon": -76.98209516666667, "is_disabled": 0, "fusion_lat": 0.0, "lat": 38.89541333333333, "bike_id": "35568061b174d5e56372c7b583e7772f", "fusion_lon": 0.0}, {"rental_uris": {"ios": "https://dc.lft.to/lastmile_qr_scan", "android": "https://dc.lft.to/lastmile_qr_scan"}, "type": "electric_scooter", "name": "e48f4a732e7759bdfa56497c899cc138", "is_reserved": 0, "lon": -76.92627466666667, "is_disabled": 0, "fusion_lat": 0.0, "lat": 38.899602, "bike_id": "e48f4a732e7759bdfa56497c899cc138", "fusion_lon": 0.0}, {"rental_uris": {"ios": "https://dc.lft.to/lastmile_qr_scan", "android": "https://dc.lft.to/lastmile_qr_scan"}, "type": "electric_scooter", "name": "01a2d1e4ecce088ce68638b71e26961b", "is_reserved": 0, "lon": -77.00172666666667, "is_disabled": 0, "fusion_lat": 0.0, "lat": 38.91185816666667, "bike_id": "01a2d1e4ecce088ce68638b71e26961b", "fusion_lon": 0.0}, {"rental_uris": {"ios": "https://dc.lft.to/lastmile_qr_scan", "android": "https://dc.lft.to/lastmile_qr_scan"}, "type": "electric_scooter", "name": "c84884042217bc7ee535fb23e73d808d", "is_reserved": 0, "lon": -77.03866, "is_disabled": 0, "fusion_lat": 0.0, "lat": 38.91117166666667, "bike_id": "c84884042217bc7ee535fb23e73d808d", "fusion_lon": 0.0}, {"rental_uris": {"ios": "https://dc.lft.to/lastmile_qr_scan", "android": "https://dc.lft.to/lastmile_qr_scan"}, "type": "electric_scooter", "name": "15e55a10b1bff0672858db2a0002c01e", "is_reserved": 0, "lon": -77.08160816666667, "is_disabled": 0, "fusion_lat": 0.0, "lat": 38.919522, "bike_id": "15e55a10b1bff0672858db2a0002c01e", "fusion_lon": 0.0}, {"rental_uris": {"ios": "https://dc.lft.to/lastmile_qr_scan", "android": "https://dc.lft.to/lastmile_qr_scan"}, "type": "electric_scooter", "name": "c1ffdf18700d10d1450d52371fec674e", "is_reserved": 0, "lon": -77.03353633333333, "is_disabled": 0, "fusion_lat": 0.0, "lat": 38.95472983333333, "bike_id": "c1ffdf18700d10d1450d52371fec674e", "fusion_lon": 0.0}, {"rental_uris": {"ios": "https://dc.lft.to/lastmile_qr_scan", "android": "https://dc.lft.to/lastmile_qr_scan"}, "type": "electric_scooter", "name": "7b0c78c6e755ed9c71ec31911f4c2560", "is_reserved": 0, "lon": -77.012207, "is_disabled": 0, "fusion_lat": 0.0, "lat": 38.916827, "bike_id": "7b0c78c6e755ed9c71ec31911f4c2560", "fusion_lon": 0.0}, {"rental_uris": {"ios": "https://dc.lft.to/lastmile_qr_scan", "android": "https://dc.lft.to/lastmile_qr_scan"}, "type": "electric_scooter", "name": "49cc92060c9b4327597d80736dfcf732", "is_reserved": 0, "lon": -77.03343783333334, "is_disabled": 0, "fusion_lat": 0.0, "lat": 38.914065, "bike_id": "49cc92060c9b4327597d80736dfcf732", "fusion_lon": 0.0}, {"rental_uris": {"ios": "https://dc.lft.to/lastmile_qr_scan", "android": "https://dc.lft.to/lastmile_qr_scan"}, "type": "electric_scooter", "name": "57434ecdb5395cfc837b43109cb26013", "is_reserved": 0, "lon": -77.038607, "is_disabled": 0, "fusion_lat": 0.0, "lat": 38.912775833333335, "bike_id": "57434ecdb5395cfc837b43109cb26013", "fusion_lon": 0.0}, {"rental_uris": {"ios": "https://dc.lft.to/lastmile_qr_scan", "android": "https://dc.lft.to/lastmile_qr_scan"}, "type": "electric_scooter", "name": "b6efb2bfc8e3ba9351b70c52d75305c8", "is_reserved": 0, "lon": -76.928273, "is_disabled": 0, "fusion_lat": 0.0, "lat": 38.901783333333334, "bike_id": "b6efb2bfc8e3ba9351b70c52d75305c8", "fusion_lon": 0.0}, {"rental_uris": {"ios": "https://dc.lft.to/lastmile_qr_scan", "android": "https://dc.lft.to/lastmile_qr_scan"}, "type": "electric_scooter", "name": "a07134f2cde7c3ddd9fe6c895a49a6d7", "is_reserved": 0, "lon": -77.04627366666666, "is_disabled": 0, "fusion_lat": 0.0, "lat": 38.897429833333334, "bike_id": "a07134f2cde7c3ddd9fe6c895a49a6d7", "fusion_lon": 0.0}, {"rental_uris": {"ios": "https://dc.lft.to/lastmile_qr_scan", "android": "https://dc.lft.to/lastmile_qr_scan"}, "type": "electric_scooter", "name": "43d26f22f4abf7017b3054e21b2c2bc8", "is_reserved": 0, "lon": -76.94749383333334, "is_disabled": 0, "fusion_lat": 0.0, "lat": 38.89360716666667, "bike_id": "43d26f22f4abf7017b3054e21b2c2bc8", "fusion_lon": 0.0}, {"rental_uris": {"ios": "https://dc.lft.to/lastmile_qr_scan", "android": "https://dc.lft.to/lastmile_qr_scan"}, "type": "electric_bike", "name": "4ebc11e57a0d75bd20cccf8b7c3b633b", "is_reserved": 0, "lon": -76.99582933333333, "is_disabled": 0, "fusion_lat": 0.0, "lat": 38.862242333333334, "bike_id": "4ebc11e57a0d75bd20cccf8b7c3b633b", "fusion_lon": 0.0}, {"rental_uris": {"ios": "https://dc.lft.to/lastmile_qr_scan", "android": "https://dc.lft.to/lastmile_qr_scan"}, "type": "electric_scooter", "name": "e947604a3fff1b6ff48363ce59094240", "is_reserved": 0, "lon": -77.06374516666666, "is_disabled": 0, "fusion_lat": 0.0, "lat": 38.935599833333335, "bike_id": "e947604a3fff1b6ff48363ce59094240", "fusion_lon": 0.0}, {"rental_uris": {"ios": "https://dc.lft.to/lastmile_qr_scan", "android": "https://dc.lft.to/lastmile_qr_scan"}, "type": "electric_scooter", "name": "0f10e59e95404e9cfbff912660b95267", "is_reserved": 0, "lon": -77.02290466666666, "is_disabled": 0, "fusion_lat": 0.0, "lat": 38.899797, "bike_id": "0f10e59e95404e9cfbff912660b95267", "fusion_lon": 0.0}, {"rental_uris": {"ios": "https://dc.lft.to/lastmile_qr_scan", "android": "https://dc.lft.to/lastmile_qr_scan"}, "type": "electric_scooter", "name": "4ad15aa54073d4a3377b036ee522216e", "is_reserved": 0, "lon": -77.03350733333333, "is_disabled": 0, "fusion_lat": 0.0, "lat": 38.921554, "bike_id": "4ad15aa54073d4a3377b036ee522216e", "fusion_lon": 0.0}, {"rental_uris": {"ios": "https://dc.lft.to/lastmile_qr_scan", "android": "https://dc.lft.to/lastmile_qr_scan"}, "type": "electric_scooter", "name": "2d5f79458a76aaee33704c238bd683fc", "is_reserved": 0, "lon": -77.03802583333334, "is_disabled": 0, "fusion_lat": 0.0, "lat": 38.932191833333334, "bike_id": "2d5f79458a76aaee33704c238bd683fc", "fusion_lon": 0.0}, {"rental_uris": {"ios": "https://dc.lft.to/lastmile_qr_scan", "android": "https://dc.lft.to/lastmile_qr_scan"}, "type": "electric_scooter", "name": "95fde0859660468b848938ee7d49772c", "is_reserved": 0, "lon": -77.021239, "is_disabled": 0, "fusion_lat": 0.0, "lat": 38.9328755, "bike_id": "95fde0859660468b848938ee7d49772c", "fusion_lon": 0.0}, {"rental_uris": {"ios": "https://dc.lft.to/lastmile_qr_scan", "android": "https://dc.lft.to/lastmile_qr_scan"}, "type": "electric_scooter", "name": "9bf589ffee46bcc7cf632f7d81dc3158", "is_reserved": 0, "lon": -77.04874133333334, "is_disabled": 0, "fusion_lat": 0.0, "lat": 38.904746833333334, "bike_id": "9bf589ffee46bcc7cf632f7d81dc3158", "fusion_lon": 0.0}, {"rental_uris": {"ios": "https://dc.lft.to/lastmile_qr_scan", "android": "https://dc.lft.to/lastmile_qr_scan"}, "type": "electric_scooter", "name": "1492a96122752db33b292f2254195511", "is_reserved": 0, "lon": -77.01219583333334, "is_disabled": 0, "fusion_lat": 0.0, "lat": 38.9149585, "bike_id": "1492a96122752db33b292f2254195511", "fusion_lon": 0.0}, {"rental_uris": {"ios": "https://dc.lft.to/lastmile_qr_scan", "android": "https://dc.lft.to/lastmile_qr_scan"}, "type": "electric_bike", "name": "40ce2c7fa5759e155157f6db8612e214", "is_reserved": 0, "lon": -77.12648183333333, "is_disabled": 0, "fusion_lat": 0.0, "lat": 38.8190805, "bike_id": "40ce2c7fa5759e155157f6db8612e214", "fusion_lon": 0.0}, {"rental_uris": {"ios": "https://dc.lft.to/lastmile_qr_scan", "android": "https://dc.lft.to/lastmile_qr_scan"}, "type": "electric_scooter", "name": "f6eb07e176b6675b8e18146f3d7cd608", "is_reserved": 0, "lon": -77.031695, "is_disabled": 0, "fusion_lat": 0.0, "lat": 38.921133833333336, "bike_id": "f6eb07e176b6675b8e18146f3d7cd608", "fusion_lon": 0.0}, {"rental_uris": {"ios": "https://dc.lft.to/lastmile_qr_scan", "android": "https://dc.lft.to/lastmile_qr_scan"}, "type": "electric_scooter", "name": "782123db5de62b847c700ffc656a7ae3", "is_reserved": 0, "lon": -77.00873116666666, "is_disabled": 0, "fusion_lat": 0.0, "lat": 38.897462, "bike_id": "782123db5de62b847c700ffc656a7ae3", "fusion_lon": 0.0}, {"rental_uris": {"ios": "https://dc.lft.to/lastmile_qr_scan", "android": "https://dc.lft.to/lastmile_qr_scan"},