{"data": {"bikes": [{"name": "af76c027bff733bb77789d3ce6274819", "is_disabled": 0, "lat": 38.89284116666666, "rental_uris": {"ios": "https://dc.lft.to/lastmile_qr_scan", "android": "https://dc.lft.to/lastmile_qr_scan"}, "bike_id": "af76c027bff733bb77789d3ce6274819", "type": "electric_scooter", "lon": -77.0123135, "is_reserved": 0, "fusion_lat": 0.0, "fusion_lon": 0.0}, {"name": "7cd9f2aad837d8ba815fe2a083a09755", "is_disabled": 0, "lat": 38.8620795, "rental_uris": {"ios": "https://dc.lft.to/lastmile_qr_scan", "android": "https://dc.lft.to/lastmile_qr_scan"}, "bike_id": "7cd9f2aad837d8ba815fe2a083a09755", "type": "electric_bike", "lon": -77.05985033333333, "is_reserved": 0, "fusion_lat": 0.0, "fusion_lon": 0.0}, {"name": "23acba21810a7691b32ef5b333384476", "is_disabled": 0, "lat": 38.917756833333335, "rental_uris": {"ios": "https://dc.lft.to/lastmile_qr_scan", "android": "https://dc.lft.to/lastmile_qr_scan"}, "bike_id": "23acba21810a7691b32ef5b333384476", "type": "electric_scooter", "lon": -77.031927, "is_reserved": 0, "fusion_lat": 0.0, "fusion_lon": 0.0}, {"name": "6995e8682a60be7aed5800ee0b1c6af4", "is_disabled": 0, "lat": 38.85875216666667, "rental_uris": {"ios": "https://dc.lft.to/lastmile_qr_scan", "android": "https://dc.lft.to/lastmile_qr_scan"}, "bike_id": "6995e8682a60be7aed5800ee0b1c6af4", "type": "electric_bike", "lon": -77.09561883333333, "is_reserved": 0, "fusion_lat": 0.0, "fusion_lon": 0.0}, {"name": "33e51be66790ee103b41a3794f860f14", "is_disabled": 0, "lat": 38.90411533333334, "rental_uris": {"ios": "https://dc.lft.to/lastmile_qr_scan", "android": "https://dc.lft.to/lastmile_qr_scan"}, "bike_id": "33e51be66790ee103b41a3794f860f14", "type": "electric_scooter", "lon": -77.025797, "is_reserved": 0, "fusion_lat": 0.0, "fusion_lon": 0.0}, {"name": "e33e164563d9b6fab14d27efded61b2d", "is_disabled": 0, "lat": 38.892843166666665, "rental_uris": {"ios": "https://dc.lft.to/lastmile_qr_scan", "android": "https://dc.lft.to/lastmile_qr_scan"}, "bike_id": "e33e164563d9b6fab14d27efded61b2d", "type": "electric_scooter", "lon": -77.03181533333333, "is_reserved": 0, "fusion_lat": 0.0, "fusion_lon": 0.0}, {"name": "eca537eb67a19910af4a8dcc4f5bb717", "is_disabled": 0, "lat": 38.871642333333334, "rental_uris": {"ios": "https://dc.lft.to/lastmile_qr_scan", "android": "https://dc.lft.to/lastmile_qr_scan"}, "bike_id": "eca537eb67a19910af4a8dcc4f5bb717", "type": "electric_scooter", "lon": -77.00566883333333, "is_reserved": 0, "fusion_lat": 0.0, "fusion_lon": 0.0}, {"name": "1862c651178e4e413ea975aa7956b618", "is_disabled": 0, "lat": 38.8666365, "rental_uris": {"ios": "https://dc.lft.to/lastmile_qr_scan", "android": "https://dc.lft.to/lastmile_qr_scan"}, "bike_id": "1862c651178e4e413ea975aa7956b618", "type": "electric_scooter", "lon": -76.9890435, "is_reserved": 0, "fusion_lat": 0.0, "fusion_lon": 0.0}, {"name": "0a8a0aba4ff82df5db0b32db58a67c34", "is_disabled": 0, "lat": 38.924072333333335, "rental_uris": {"ios": "https://dc.lft.to/lastmile_qr_scan", "android": "https://dc.lft.to/lastmile_qr_scan"}, "bike_id": "0a8a0aba4ff82df5db0b32db58a67c34", "type": "electric_scooter", "lon": -77.03546966666667, "is_reserved": 0, "fusion_lat": 0.0, "fusion_lon": 0.0}, {"name": "32c835e669b24147e42518680be00971", "is_disabled": 0, "lat": 38.89971166666667, "rental_uris": {"ios": "https://dc.lft.to/lastmile_qr_scan", "android": "https://dc.lft.to/lastmile_qr_scan"}, "bike_id": "32c835e669b24147e42518680be00971", "type": "electric_scooter", "lon": -76.994878, "is_reserved": 0, "fusion_lat": 0.0, "fusion_lon": 0.0}, {"name": "6695284cdff894f9c21a9265b73e745d", "is_disabled": 0, "lat": 38.916859333333335, "rental_uris": {"ios": "https://dc.lft.to/lastmile_qr_scan", "android": "https://dc.lft.to/lastmile_qr_scan"}, "bike_id": "6695284cdff894f9c21a9265b73e745d", "type": "electric_scooter", "lon": -77.03854716666666, "is_reserved": 0, "fusion_lat": 0.0, "fusion_lon": 0.0}, {"name": "846e470af33a24fbbf5469745fc9c2e1", "is_disabled": 0, "lat": 38.909115, "rental_uris": {"ios": "https://dc.lft.to/lastmile_qr_scan", "android": "https://dc.lft.to/lastmile_qr_scan"}, "bike_id": "846e470af33a24fbbf5469745fc9c2e1", "type": "electric_scooter", "lon": -77.042096, "is_reserved": 0, "fusion_lat": 0.0, "fusion_lon": 0.0}, {"name": "6c6445225b41975452443199302e11de", "is_disabled": 0, "lat": 38.9021855, "rental_uris": {"ios": "https://dc.lft.to/lastmile_qr_scan", "android": "https://dc.lft.to/lastmile_qr_scan"}, "bike_id": "6c6445225b41975452443199302e11de", "type": "electric_scooter", "lon": -77.0532785, "is_reserved": 0, "fusion_lat": 0.0, "fusion_lon": 0.0}, {"name": "b634ad3349669b0bbc0c4cffd8870679", "is_disabled": 0, "lat": 38.8980045, "rental_uris": {"ios": "https://dc.lft.to/lastmile_qr_scan", "android": "https://dc.lft.to/lastmile_qr_scan"}, "bike_id": "b634ad3349669b0bbc0c4cffd8870679", "type": "electric_scooter", "lon": -76.9845605, "is_reserved": 0, "fusion_lat": 0.0, "fusion_lon": 0.0}, {"name": "338bb21a4ec6bac2bb3e703770900f71", "is_disabled": 0, "lat": 38.92987883333333, "rental_uris": {"ios": "https://dc.lft.to/lastmile_qr_scan", "android": "https://dc.lft.to/lastmile_qr_scan"}, "bike_id": "338bb21a4ec6bac2bb3e703770900f71", "type": "electric_scooter", "lon": -77.032336, "is_reserved": 0, "fusion_lat": 0.0, "fusion_lon": 0.0}, {"name": "a050efc2f2fc961c33ae1bcaa258c567", "is_disabled": 0, "lat": 38.917998, "rental_uris": {"ios": "https://dc.lft.to/lastmile_qr_scan", "android": "https://dc.lft.to/lastmile_qr_scan"}, "bike_id": "a050efc2f2fc961c33ae1bcaa258c567", "type": "electric_scooter", "lon": -77.034523, "is_reserved": 0, "fusion_lat": 0.0, "fusion_lon": 0.0}, {"name": "8838532fc126980ae3f0f84a87f7a572", "is_disabled": 0, "lat": 38.921510166666664, "rental_uris": {"ios": "https://dc.lft.to/lastmile_qr_scan", "android": "https://dc.lft.to/lastmile_qr_scan"}, "bike_id": "8838532fc126980ae3f0f84a87f7a572", "type": "electric_scooter", "lon": -77.0387155, "is_reserved": 0, "fusion_lat": 0.0, "fusion_lon": 0.0}, {"name": "c5b8c787e6d412c06d76f0a05f9e71e3", "is_disabled": 0, "lat": 38.8981785, "rental_uris": {"ios": "https://dc.lft.to/lastmile_qr_scan", "android": "https://dc.lft.to/lastmile_qr_scan"}, "bike_id": "c5b8c787e6d412c06d76f0a05f9e71e3", "type": "electric_scooter", "lon": -77.03037116666667, "is_reserved": 0, "fusion_lat": 0.0, "fusion_lon": 0.0}, {"name": "3d05308299c0669fb7840455fd214902", "is_disabled": 0, "lat": 38.91858833333333, "rental_uris": {"ios": "https://dc.lft.to/lastmile_qr_scan", "android": "https://dc.lft.to/lastmile_qr_scan"}, "bike_id": "3d05308299c0669fb7840455fd214902", "type": "electric_bike", "lon": -76.96090883333333, "is_reserved": 0, "fusion_lat": 0.0, "fusion_lon": 0.0}, {"name": "9fe28f3c635cbb25455a5cf35543abc0", "is_disabled": 0, "lat": 38.9154465, "rental_uris": {"ios": "https://dc.lft.to/lastmile_qr_scan", "android": "https://dc.lft.to/lastmile_qr_scan"}, "bike_id": "9fe28f3c635cbb25455a5cf35543abc0", "type": "electric_scooter", "lon": -77.01225833333334, "is_reserved": 0, "fusion_lat": 0.0, "fusion_lon": 0.0}, {"name": "8367b93f05779e4f0d7e102303373536", "is_disabled": 0, "lat": 38.87222333333333, "rental_uris": {"ios": "https://dc.lft.to/lastmile_qr_scan", "android": "https://dc.lft.to/lastmile_qr_scan"}, "bike_id": "8367b93f05779e4f0d7e102303373536", "type": "electric_scooter", "lon": -77.01763783333334, "is_reserved": 0, "fusion_lat": 0.0, "fusion_lon": 0.0}, {"name": "1510b44f922864fd448e133b7c0ce97f", "is_disabled": 0, "lat": 38.921600833333336, "rental_uris": {"ios": "https://dc.lft.to/lastmile_qr_scan", "android": "https://dc.lft.to/lastmile_qr_scan"}, "bike_id": "1510b44f922864fd448e133b7c0ce97f", "type": "electric_scooter", "lon": -77.020253, "is_reserved": 0, "fusion_lat": 0.0, "fusion_lon": 0.0}, {"name": "d4566e8980b71b27ade37ddd0b83c966", "is_disabled": 0, "lat": 38.89949816666667, "rental_uris": {"ios": "https://dc.lft.to/lastmile_qr_scan", "android": "https://dc.lft.to/lastmile_qr_scan"}, "bike_id": "d4566e8980b71b27ade37ddd0b83c966", "type": "electric_scooter", "lon": -77.01603083333333, "is_reserved": 0, "fusion_lat": 0.0, "fusion_lon": 0.0}, {"name": "1ba5ac10c731fe7f64d7b0006a94b4b6", "is_disabled": 0, "lat": 38.9068675, "rental_uris": {"ios": "https://dc.lft.to/lastmile_qr_scan", "android": "https://dc.lft.to/lastmile_qr_scan"}, "bike_id": "1ba5ac10c731fe7f64d7b0006a94b4b6", "type": "electric_scooter", "lon": -76.95193016666667, "is_reserved": 0, "fusion_lat": 0.0, "fusion_lon": 0.0}, {"name": "7b7f5f2916b8a3bbf99e7e990a01af5f", "is_disabled": 0, "lat": 38.887429833333336, "rental_uris": {"ios": "https://dc.lft.to/lastmile_qr_scan", "android": "https://dc.lft.to/lastmile_qr_scan"}, "bike_id": "7b7f5f2916b8a3bbf99e7e990a01af5f", "type": "electric_scooter", "lon": -77.02570433333334, "is_reserved": 0, "fusion_lat": 0.0, "fusion_lon": 0.0}, {"name": "4eb6b5187fa91d2628de8acd4c39e18f", "is_disabled": 0, "lat": 38.903807, "rental_uris": {"ios": "https://dc.lft.to/lastmile_qr_scan", "android": "https://dc.lft.to/lastmile_qr_scan"}, "bike_id": "4eb6b5187fa91d2628de8acd4c39e18f", "type": "electric_scooter", "lon": -77.0387205, "is_reserved": 0, "fusion_lat": 0.0, "fusion_lon": 0.0}, {"name": "44c3721c78b72206dc26942b95c5cff8", "is_disabled": 0, "lat": 38.907099, "rental_uris": {"ios": "https://dc.lft.to/lastmile_qr_scan", "android": "https://dc.lft.to/lastmile_qr_scan"}, "bike_id": "44c3721c78b72206dc26942b95c5cff8", "type": "electric_scooter", "lon": -77.02719683333333, "is_reserved": 0, "fusion_lat": 0.0, "fusion_lon": 0.0}, {"name": "172898c5f7998397281ac421ef9ff0df", "is_disabled": 0, "lat": 38.87180033333333, "rental_uris": {"ios": "https://dc.lft.to/lastmile_qr_scan", "android": "https://dc.lft.to/lastmile_qr_scan"}, "bike_id": "172898c5f7998397281ac421ef9ff0df", "type": "electric_scooter", "lon": -77.0057425, "is_reserved": 0, "fusion_lat": 0.0, "fusion_lon": 0.0}, {"name": "de7bfcb83e2ffe7df718c00201c64420", "is_disabled": 0, "lat": 38.92035083333333, "rental_uris": {"ios": "https://dc.lft.to/lastmile_qr_scan", "android": "https://dc.lft.to/lastmile_qr_scan"}, "bike_id": "de7bfcb83e2ffe7df718c00201c64420", "type": "electric_scooter", "lon": -77.04416666666667, "is_reserved": 0, "fusion_lat": 0.0, "fusion_lon": 0.0}, {"name": "b94507affb77f3c070e185389a30ae21", "is_disabled": 0, "lat": 38.9064185, "rental_uris": {"ios": "https://dc.lft.to/lastmile_qr_scan", "android": "https://dc.lft.to/lastmile_qr_scan"}, "bike_id": "b94507affb77f3c070e185389a30ae21", "type": "electric_scooter", "lon": -77.00965283333333, "is_reserved": 0, "fusion_lat": 0.0, "fusion_lon": 0.0}, {"name": "325b69b9c720abc1c49187b336ceb73b", "is_disabled": 0, "lat": 38.921271, "rental_uris": {"ios": "https://dc.lft.to/lastmile_qr_scan", "android": "https://dc.lft.to/lastmile_qr_scan"}, "bike_id": "325b69b9c720abc1c49187b336ceb73b", "type": "electric_scooter", "lon": -77.04223233333333, "is_reserved": 0, "fusion_lat": 0.0, "fusion_lon": 0.0}, {"name": "4896eee035798208079910784fea44a2", "is_disabled": 0, "lat": 38.897316833333335, "rental_uris": {"ios": "https://dc.lft.to/lastmile_qr_scan", "android": "https://dc.lft.to/lastmile_qr_scan"}, "bike_id": "4896eee035798208079910784fea44a2", "type": "electric_scooter", "lon": -77.04747866666666, "is_reserved": 0, "fusion_lat": 0.0, "fusion_lon": 0.0}, {"name": "3811e85a454e6c6be4dc1d88e8f157ae", "is_disabled": 0, "lat": 38.836252, "rental_uris": {"ios": "https://dc.lft.to/lastmile_qr_scan", "android": "https://dc.lft.to/lastmile_qr_scan"}, "bike_id": "3811e85a454e6c6be4dc1d88e8f157ae", "type": "electric_bike", "lon": -77.0694575, "is_reserved": 0, "fusion_lat": 0.0, "fusion_lon": 0.0}, {"name": "97d861aa0763210c169806ba151f2b3c", "is_disabled": 0, "lat": 38.934877166666666, "rental_uris": {"ios": "https://dc.lft.to/lastmile_qr_scan", "android": "https://dc.lft.to/lastmile_qr_scan"}, "bike_id": "97d861aa0763210c169806ba151f2b3c", "type": "electric_scooter", "lon": -77.0727715, "is_reserved": 0, "fusion_lat": 0.0, "fusion_lon": 0.0}, {"name": "146093bdc17875947bd39bf1d938377c", "is_disabled": 0, "lat": 38.905598499999996, "rental_uris": {"ios": "https://dc.lft.to/lastmile_qr_scan", "android": "https://dc.lft.to/lastmile_qr_scan"}, "bike_id": "146093bdc17875947bd39bf1d938377c", "type": "electric_scooter", "lon": -77.02097416666666, "is_reserved": 0, "fusion_lat": 0.0, "fusion_lon": 0.0}, {"name": "4f10dd0dfc4970b8d5a382016112c369", "is_disabled": 0, "lat": 38.899274166666665, "rental_uris": {"ios": "https://dc.lft.to/lastmile_qr_scan", "android": "https://dc.lft.to/lastmile_qr_scan"}, "bike_id": "4f10dd0dfc4970b8d5a382016112c369", "type": "electric_scooter", "lon": -77.01267866666667, "is_reserved": 0, "fusion_lat": 0.0, "fusion_lon": 0.0}, {"name": "848f87635e57e5c4312667ebcec75e6a", "is_disabled": 0, "lat": 38.91114566666667, "rental_uris": {"ios": "https://dc.lft.to/lastmile_qr_scan", "android": "https://dc.lft.to/lastmile_qr_scan"}, "bike_id": "848f87635e57e5c4312667ebcec75e6a", "type": "electric_scooter", "lon": -77.04457516666666, "is_reserved": 0, "fusion_lat": 0.0, "fusion_lon": 0.0}, {"name": "1516f58d6ce09913d2ffbb5be7ef3972", "is_disabled": 0, "lat": 38.874793333333336, "rental_uris": {"ios": "https://dc.lft.to/lastmile_qr_scan", "android": "https://dc.lft.to/lastmile_qr_scan"}, "bike_id": "1516f58d6ce09913d2ffbb5be7ef3972", "type": "electric_scooter", "lon": -77.00599416666667, "is_reserved": 0, "fusion_lat": 0.0, "fusion_lon": 0.0}, {"name": "115e2cc6f922c6e60d610b5a3123c6df", "is_disabled": 0, "lat": 38.93977833333334, "rental_uris": {"ios": "https://dc.lft.to/lastmile_qr_scan", "android": "https://dc.lft.to/lastmile_qr_scan"}, "bike_id": "115e2cc6f922c6e60d610b5a3123c6df", "type": "electric_scooter", "lon": -77.02896083333333, "is_reserved": 0, "fusion_lat": 0.0, "fusion_lon": 0.0}, {"name": "2c2ba30445080d6310793e2519dfd32e", "is_disabled": 0, "lat": 38.887383166666666, "rental_uris": {"ios": "https://dc.lft.to/lastmile_qr_scan", "android": "https://dc.lft.to/lastmile_qr_scan"}, "bike_id": "2c2ba30445080d6310793e2519dfd32e", "type": "electric_scooter", "lon": -77.03198566666667, "is_reserved": 0, "fusion_lat": 0.0, "fusion_lon": 0.0}, {"name": "4add0017d2c568216f8cc7d6467e8b8f", "is_disabled": 0, "lat": 38.88772566666667, "rental_uris": {"ios": "https://dc.lft.to/lastmile_qr_scan", "android": "https://dc.lft.to/lastmile_qr_scan"}, "bike_id": "4add0017d2c568216f8cc7d6467e8b8f", "type": "electric_scooter", "lon": -76.99164466666667, "is_reserved": 0, "fusion_lat": 0.0, "fusion_lon": 0.0}, {"name": "c3079db66ad09ef7ac594d8bcc56912f", "is_disabled": 0, "lat": 38.9234385, "rental_uris": {"ios": "https://dc.lft.to/lastmile_qr_scan", "android": "https://dc.lft.to/lastmile_qr_scan"}, "bike_id": "c3079db66ad09ef7ac594d8bcc56912f", "type": "electric_scooter", "lon": -77.05169783333334, "is_reserved": 0, "fusion_lat": 0.0, "fusion_lon": 0.0}, {"name": "ae5a9b5dc4f04b44fa6570e4353696a1", "is_disabled": 0, "lat": 38.978826833333336, "rental_uris": {"ios": "https://dc.lft.to/lastmile_qr_scan", "android": "https://dc.lft.to/lastmile_qr_scan"}, "bike_id": "ae5a9b5dc4f04b44fa6570e4353696a1", "type": "electric_bike", "lon": -77.06034283333334, "is_reserved": 0, "fusion_lat": 0.0, "fusion_lon": 0.0}, {"name": "82daa7375b8fb0073bc335c44e1d0382", "is_disabled": 0, "lat": 38.87764516666667, "rental_uris": {"ios": "https://dc.lft.to/lastmile_qr_scan", "android": "https://dc.lft.to/lastmile_qr_scan"}, "bike_id": "82daa7375b8fb0073bc335c44e1d0382", "type": "electric_bike", "lon": -77.01051616666666, "is_reserved": 0, "fusion_lat": 0.0, "fusion_lon": 0.0}, {"name": "9c878828e75cd2b9ccc7c96797088dd4", "is_disabled": 0, "lat": 38.9180865, "rental_uris": {"ios": "https://dc.lft.to/lastmile_qr_scan", "android": "https://dc.lft.to/lastmile_qr_scan"}, "bike_id": "9c878828e75cd2b9ccc7c96797088dd4", "type": "electric_scooter", "lon": -77.02498533333333, "is_reserved": 0, "fusion_lat": 0.0, "fusion_lon": 0.0}, {"name": "9f96c17dcb6a3f2bc6416aa127024c4f", "is_disabled": 0, "lat": 38.8989475, "rental_uris": {"ios": "https://dc.lft.to/lastmile_qr_scan", "android": "https://dc.lft.to/lastmile_qr_scan"}, "bike_id": "9f96c17dcb6a3f2bc6416aa127024c4f", "type": "electric_scooter", "lon": -77.03947883333333, "is_reserved": 0, "fusion_lat": 0.0, "fusion_lon": 0.0}, {"name": "1c8bc0811d9356b98f39474f43e976a2", "is_disabled": 0, "lat": 38.9214835, "rental_uris": {"ios": "https://dc.lft.to/lastmile_qr_scan", "android": "https://dc.lft.to/lastmile_qr_scan"}, "bike_id": "1c8bc0811d9356b98f39474f43e976a2", "type": "electric_scooter", "lon": -77.04356233333333, "is_reserved": 0, "fusion_lat": 0.0, "fusion_lon": 0.0}, {"name": "d01e4a0aa10e38d25701a3a0880ca2b8", "is_disabled": 0, "lat": 38.921343, "rental_uris": {"ios": "https://dc.lft.to/lastmile_qr_scan", "android": "https://dc.lft.to/lastmile_qr_scan"}, "bike_id": "d01e4a0aa10e38d25701a3a0880ca2b8", "type": "electric_scooter", "lon": -77.00401216666667, "is_reserved": 0, "fusion_lat": 0.0, "fusion_lon": 0.0}, {"name": "898d2259961f36255a7f9f5589688c7d", "is_disabled": 0, "lat": 38.90436566666666, "rental_uris": {"ios": "https://dc.lft.to/lastmile_qr_scan", "android": "https://dc.lft.to/lastmile_qr_scan"}, "bike_id": "898d2259961f36255a7f9f5589688c7d", "type": "electric_scooter", "lon": -77.03222933333333, "is_reserved": 0, "fusion_lat": 0.0, "fusion_lon": 0.0}, {"name": "940ae39bf636c0628072e150625a9323", "is_disabled": 0, "lat": 38.9018695, "rental_uris": {"ios": "https://dc.lft.to/lastmile_qr_scan", "android": "https://dc.lft.to/lastmile_qr_scan"}, "bike_id": "940ae39bf636c0628072e150625a9323", "type": "electric_scooter", "lon": -77.05058916666667, "is_reserved": 0, "fusion_lat": 0.0, "fusion_lon": 0.0}, {"name": "bcbbbd3032ad853ae6569226831060e3", "is_disabled": 0, "lat": 38.91709766666666, "rental_uris": {"ios": "https://dc.lft.to/lastmile_qr_scan", "android": "https://dc.lft.to/lastmile_qr_scan"}, "bike_id": "bcbbbd3032ad853ae6569226831060e3", "type": "electric_scooter", "lon": -77.02870166666666, "is_reserved": 0, "fusion_lat": 0.0, "fusion_lon": 0.0}, {"name": "5cd3e3b953f011e26031d8d6ac796501", "is_disabled": 0, "lat": 38.9180925, "rental_uris": {"ios": "https://dc.lft.to/lastmile_qr_scan", "android": "https://dc.lft.to/lastmile_qr_scan"}, "bike_id": "5cd3e3b953f011e26031d8d6ac796501", "type": "electric_scooter", "lon": -77.0249395, "is_reserved": 0, "fusion_lat": 0.0, "fusion_lon": 0.0}, {"name": "67cb83120792ae8b7f16b6eeeeb699a3", "is_disabled": 0, "lat": 38.9358395, "rental_uris": {"ios": "https://dc.lft.to/lastmile_qr_scan", "android": "https://dc.lft.to/lastmile_qr_scan"}, "bike_id": "67cb83120792ae8b7f16b6eeeeb699a3", "type": "electric_scooter", "lon": -77.02846733333334, "is_reserved": 0, "fusion_lat": 0.0, "fusion_lon": 0.0}, {"name": "a6ecd4053bef1115d43526f231cafea5", "is_disabled": 0, "lat": 38.902178166666666, "rental_uris": {"ios": "https://dc.lft.to/lastmile_qr_scan", "android": "https://dc.lft.to/lastmile_qr_scan"}, "bike_id": "a6ecd4053bef1115d43526f231cafea5", "type": "electric_scooter", "lon": -77.02213933333333, "is_reserved": 0, "fusion_lat": 0.0, "fusion_lon": 0.0}, {"name": "42a728ba13df8983a0e2d7df096d4d02", "is_disabled": 0, "lat": 38.9295325, "rental_uris": {"ios": "https://dc.lft.to/lastmile_qr_scan", "android": "https://dc.lft.to/lastmile_qr_scan"}, "bike_id": "42a728ba13df8983a0e2d7df096d4d02", "type": "electric_scooter", "lon": -77.03778883333334, "is_reserved": 0, "fusion_lat": 0.0, "fusion_lon": 0.0}, {"name": "f40bea1538119fe10ca1577e410f3e52", "is_disabled": 0, "lat": 38.876534666666664, "rental_uris": {"ios": "https://dc.lft.to/lastmile_qr_scan", "android": "https://dc.lft.to/lastmile_qr_scan"}, "bike_id": "f40bea1538119fe10ca1577e410f3e52", "type": "electric_scooter", "lon": -77.00312316666667, "is_reserved": 0, "fusion_lat": 0.0, "fusion_lon": 0.0}, {"name": "c528c2d482f60501212aaf9e82734eb8", "is_disabled": 0, "lat": 38.90705366666667, "rental_uris": {"ios": "https://dc.lft.to/lastmile_qr_scan", "android": "https://dc.lft.to/lastmile_qr_scan"}, "bike_id": "c528c2d482f60501212aaf9e82734eb8", "type": "electric_scooter", "lon": -77.03215283333333, "is_reserved": 0, "fusion_lat": 0.0, "fusion_lon": 0.0}, {"name": "cf05ff36c7f0bbb7cab07099aa76ba5c", "is_disabled": 0, "lat": 38.89849916666667, "rental_uris": {"ios": "https://dc.lft.to/lastmile_qr_scan", "android": "https://dc.lft.to/lastmile_qr_scan"}, "bike_id": "cf05ff36c7f0bbb7cab07099aa76ba5c", "type": "electric_scooter", "lon": -76.95042183333334, "is_reserved": 0, "fusion_lat": 0.0, "fusion_lon": 0.0}, {"name": "65848ed08295578d9a4acb7f9f091409", "is_disabled": 0, "lat": 38.915805166666665, "rental_uris": {"ios": "https://dc.lft.to/lastmile_qr_scan", "android": "https://dc.lft.to/lastmile_qr_scan"}, "bike_id": "65848ed08295578d9a4acb7f9f091409", "type": "electric_scooter", "lon": -76.98387916666667, "is_reserved": 0, "fusion_lat": 0.0, "fusion_lon": 0.0}, {"name": "6b2ff646e1e2b9eb372beabf845ed43c", "is_disabled": 0, "lat": 38.89909433333333, "rental_uris": {"ios": "https://dc.lft.to/lastmile_qr_scan", "android": "https://dc.lft.to/lastmile_qr_scan"}, "bike_id": "6b2ff646e1e2b9eb372beabf845ed43c", "type": "electric_scooter", "lon": -77.04025666666666, "is_reserved": 0, "fusion_lat": 0.0, "fusion_lon": 0.0}, {"name": "a15309d19578e7dc1c8356ee93928853", "is_disabled": 0, "lat": 38.905923666666666, "rental_uris": {"ios": "https://dc.lft.to/lastmile_qr_scan", "android": "https://dc.lft.to/lastmile_qr_scan"}, "bike_id": "a15309d19578e7dc1c8356ee93928853", "type": "electric_scooter", "lon": -77.04712466666666, "is_reserved": 0, "fusion_lat": 0.0, "fusion_lon": 0.0}, {"name": "ea5d9b37407d646932e13f7be310fafc", "is_disabled": 0, "lat": 38.903554, "rental_uris": {"ios": "https://dc.lft.to/lastmile_qr_scan", "android": "https://dc.lft.to/lastmile_qr_scan"}, "bike_id": "ea5d9b37407d646932e13f7be310fafc", "type": "electric_scooter", "lon": -77.02955266666666, "is_reserved": 0, "fusion_lat": 0.0, "fusion_lon": 0.0}, {"name": "f87c8813487c1553928f95d05818aec9", "is_disabled": 0, "lat": 38.88766783333333, "rental_uris": {"ios": "https://dc.lft.to/lastmile_qr_scan", "android": "https://dc.lft.to/lastmile_qr_scan"}, "bike_id": "f87c8813487c1553928f95d05818aec9", "type": "electric_scooter", "lon": -77.02367983333333, "is_reserved": 0, "fusion_lat": 0.0, "fusion_lon": 0.0}, {"name": "18fac7fb98352aafe51d1c8a6b134021", "is_disabled": 0, "lat": 38.921786166666664, "rental_uris": {"ios": "https://dc.lft.to/lastmile_qr_scan", "android": "https://dc.lft.to/lastmile_qr_scan"}, "bike_id": "18fac7fb98352aafe51d1c8a6b134021", "type": "electric_scooter", "lon": -77.021101, "is_reserved": 0, "fusion_lat": 0.0, "fusion_lon": 0.0}, {"name": "773a564205dc078dbea1027b3b2a74b2", "is_disabled": 0, "lat": 38.921218, "rental_uris": {"ios": "https://dc.lft.to/lastmile_qr_scan", "android": "https://dc.lft.to/lastmile_qr_scan"}, "bike_id": "773a564205dc078dbea1027b3b2a74b2", "type": "electric_bike", "lon": -77.23679166666666, "is_reserved": 0, "fusion_lat": 0.0, "fusion_lon": 0.0}, {"name": "1e0abd6e5657409fed8848e386cf4688", "is_disabled": 0, "lat": 38.94139083333334, "rental_uris": {"ios": "https://dc.lft.to/lastmile_qr_scan", "android": "https://dc.lft.to/lastmile_qr_scan"}, "bike_id": "1e0abd6e5657409fed8848e386cf4688", "type": "electric_scooter", "lon": -77.02500416666666, "is_reserved": 0, "fusion_lat": 0.0, "fusion_lon": 0.0}, {"name": "b9a07e1d954bd59ede72ef2010af05ef", "is_disabled": 0, "lat": 38.906438, "rental_uris": {"ios": "https://dc.lft.to/lastmile_qr_scan", "android": "https://dc.lft.to/lastmile_qr_scan"}, "bike_id": "b9a07e1d954bd59ede72ef2010af05ef", "type": "electric_scooter", "lon": -77.0315995, "is_reserved": 0, "fusion_lat": 0.0, "fusion_lon": 0.0}, {"name": "4c92a3c85adf1da94fa816af2411ea28", "is_disabled": 0, "lat": 38.924779, "rental_uris": {"ios": "https://dc.lft.to/lastmile_qr_scan", "android": "https://dc.lft.to/lastmile_qr_scan"}, "bike_id": "4c92a3c85adf1da94fa816af2411ea28", "type": "electric_scooter", "lon": -77.03046183333333, "is_reserved": 0, "fusion_lat": 0.0, "fusion_lon": 0.0}, {"name": "47bfe70abfcd73f64a1b6baf4779b098", "is_disabled": 0, "lat": 38.89909266666667, "rental_uris": {"ios": "https://dc.lft.to/lastmile_qr_scan", "android": "https://dc.lft.to/lastmile_qr_scan"}, "bike_id": "47bfe70abfcd73f64a1b6baf4779b098", "type": "electric_scooter", "lon": -77.02728033333334, "is_reserved": 0, "fusion_lat": 0.0, "fusion_lon": 0.0}, {"name": "8c5e3907789715d906b0164141477bca", "is_disabled": 0, "lat": 38.92670483333333, "rental_uris": {"ios": "https://dc.lft.to/lastmile_qr_scan", "android": "https://dc.lft.to/lastmile_qr_scan"}, "bike_id": "8c5e3907789715d906b0164141477bca", "type": "electric_scooter", "lon": -77.0302695, "is_reserved": 0, "fusion_lat": 0.0, "fusion_lon": 0.0}, {"name": "580ef0014bea3cf07f2996f11d861760", "is_disabled": 0, "lat": 38.9170185, "rental_uris": {"ios": "https://dc.lft.to/lastmile_qr_scan", "android": "https://dc.lft.to/lastmile_qr_scan"}, "bike_id": "580ef0014bea3cf07f2996f11d861760", "type": "electric_scooter", "lon": -77.04266666666666, "is_reserved": 0, "fusion_lat": 0.0, "fusion_lon": 0.0}, {"name": "17fead0596f226bb908d557fdb02abe2", "is_disabled": 0, "lat": 38.92533016666667, "rental_uris": {"ios": "https://dc.lft.to/lastmile_qr_scan", "android": "https://dc.lft.to/lastmile_qr_scan"}, "bike_id": "17fead0596f226bb908d557fdb02abe2", "type": "electric_scooter", "lon": -77.052498, "is_reserved": 0, "fusion_lat": 0.0, "fusion_lon": 0.0}, {"name": "4d0be45565d4146d863a5e400038902d", "is_disabled": 0, "lat": 38.860048166666665, "rental_uris": {"ios": "https://dc.lft.to/lastmile_qr_scan", "android": "https://dc.lft.to/lastmile_qr_scan"}, "bike_id": "4d0be45565d4146d863a5e400038902d", "type": "electric_scooter", "lon": -76.9851855, "is_reserved": 0, "fusion_lat": 0.0, "fusion_lon": 0.0}, {"name": "a1032d0d5c08f4776dc9336cca0f2cbb", "is_disabled": 0, "lat": 38.91628566666667, "rental_uris": {"ios": "https://dc.lft.to/lastmile_qr_scan", "android": "https://dc.lft.to/lastmile_qr_scan"}, "bike_id": "a1032d0d5c08f4776dc9336cca0f2cbb", "type": "electric_scooter", "lon": -77.04015816666667, "is_reserved": 0, "fusion_lat": 0.0, "fusion_lon": 0.0}, {"name": "4f79cdbb06fdf47f1df3846a5d3dc134", "is_disabled": 0, "lat": 38.895756, "rental_uris": {"ios": "https://dc.lft.to/lastmile_qr_scan", "android": "https://dc.lft.to/lastmile_qr_scan"}, "bike_id": "4f79cdbb06fdf47f1df3846a5d3dc134", "type": "electric_scooter", "lon": -76.98324816666667, "is_reserved": 0, "fusion_lat": 0.0, "fusion_lon": 0.0}, {"name": "3358a4db2c1f5e69e0f3b6c6c7249471", "is_disabled": 0, "lat": 38.959348, "rental_uris": {"ios": "https://dc.lft.to/lastmile_qr_scan", "android": "https://dc.lft.to/lastmile_qr_scan"}, "bike_id": "3358a4db2c1f5e69e0f3b6c6c7249471", "type": "electric_bike", "lon": -76.928417, "is_reserved": 0, "fusion_lat": 0.0, "fusion_lon": 0.0}, {"name": "55c4460e65c837313977709c2a1f56c1", "is_disabled": 0, "lat": 38.904647, "rental_uris": {"ios": "https://dc.lft.to/lastmile_qr_scan", "android": "https://dc.lft.to/lastmile_qr_scan"}, "bike_id": "55c4460e65c837313977709c2a1f56c1", "type": "electric_scooter", "lon": -77.02823783333334, "is_reserved": 0, "fusion_lat": 0.0, "fusion_lon": 0.0}, {"name": "2ad4de3f940a402cc552e0577ec10926", "is_disabled": 0, "lat": 38.922450833333336, "rental_uris": {"ios": "https://dc.lft.to/lastmile_qr_scan", "android": "https://dc.lft.to/lastmile_qr_scan"}, "bike_id": "2ad4de3f940a402cc552e0577ec10926", "type": "electric_scooter", "lon": -77.01953116666667, "is_reserved": 0, "fusion_lat": 0.0, "fusion_lon": 0.0}, {"name": "8c2f63c9ed9d241d050303eb4a5580d1", "is_disabled": 0, "lat": 38.92068716666667, "rental_uris": {"ios": "https://dc.lft.to/lastmile_qr_scan", "android": "https://dc.lft.to/lastmile_qr_scan"}, "bike_id": "8c2f63c9ed9d241d050303eb4a5580d1", "type": "electric_scooter", "lon": -77.04378566666666, "is_reserved": 0, "fusion_lat": 0.0, "fusion_lon": 0.0}, {"name": "bd0f654445b1647af52bf82b761d16eb", "is_disabled": 0, "lat": 38.91554633333333, "rental_uris": {"ios": "https://dc.lft.to/lastmile_qr_scan", "android": "https://dc.lft.to/lastmile_qr_scan"}, "bike_id": "bd0f654445b1647af52bf82b761d16eb", "type": "electric_scooter", "lon": -77.03866766666667, "is_reserved": 0, "fusion_lat": 0.0, "fusion_lon": 0.0}, {"name": "f50a3c7d004c6d2706074d5e678509fd", "is_disabled": 0, "lat": 38.902749, "rental_uris": {"ios": "https://dc.lft.to/lastmile_qr_scan", "android": "https://dc.lft.to/lastmile_qr_scan"}, "bike_id": "f50a3c7d004c6d2706074d5e678509fd", "type": "electric_scooter", "lon": -77.03462216666667, "is_reserved": 0, "fusion_lat": 0.0, "fusion_lon": 0.0}, {"name": "5df0870d2fc343498660dd635bf8de27", "is_disabled": 0, "lat": 38.907297666666665, "rental_uris": {"ios": "https://dc.lft.to/lastmile_qr_scan", "android": "https://dc.lft.to/lastmile_qr_scan"}, "bike_id": "5df0870d2fc343498660dd635bf8de27", "type": "electric_scooter", "lon": -77.04162933333333, "is_reserved": 0, "fusion_lat": 0.0, "fusion_lon": 0.0}, {"name": "4545967befe8f05516c96964d7fcdeb6", "is_disabled": 0, "lat": 38.911599833333334, "rental_uris": {"ios": "https://dc.lft.to/lastmile_qr_scan", "android": "https://dc.lft.to/lastmile_qr_scan"}, "bike_id": "4545967befe8f05516c96964d7fcdeb6", "type": "electric_scooter", "lon": -77.01068083333334, "is_reserved": 0, "fusion_lat": 0.0, "fusion_lon": 0.0}, {"name": "0ab3208b14dda8f33fa8163c9def764d", "is_disabled": 0, "lat": 38.89830233333333, "rental_uris": {"ios": "https://dc.lft.to/lastmile_qr_scan", "android": "https://dc.lft.to/lastmile_qr_scan"}, "bike_id": "0ab3208b14dda8f33fa8163c9def764d", "type": "electric_scooter", "lon": -76.9463115, "is_reserved": 0, "fusion_lat": 0.0, "fusion_lon": 0.0}, {"name": "92357e1d4634406d58cc07f80a99a8ac", "is_disabled": 0, "lat": 38.92329633333333, "rental_uris": {"ios": "https://dc.lft.to/lastmile_qr_scan", "android": "https://dc.lft.to/lastmile_qr_scan"}, "bike_id": "92357e1d4634406d58cc07f80a99a8ac", "type": "electric_scooter", "lon": -77.0195275, "is_reserved": 0, "fusion_lat": 0.0, "fusion_lon": 0.0}, {"name": "0cff177051b9aef145116c2506ac1dd2", "is_disabled": 0, "lat": 38.91402866666667, "rental_uris": {"ios": "https://dc.lft.to/lastmile_qr_scan", "android": "https://dc.lft.to/lastmile_qr_scan"}, "bike_id": "0cff177051b9aef145116c2506ac1dd2", "type": "electric_scooter", "lon": -77.03163433333333, "is_reserved": 0, "fusion_lat": 0.0, "fusion_lon": 0.0}, {"name": "5e33ffd926e1f90a395964dc47a1a2c9", "is_disabled": 0, "lat": 38.912599166666666, "rental_uris": {"ios": "https://dc.lft.to/lastmile_qr_scan", "android": "https://dc.lft.to/lastmile_qr_scan"}, "bike_id": "5e33ffd926e1f90a395964dc47a1a2c9", "type": "electric_scooter", "lon": -77.03502183333333, "is_reserved": 0, "fusion_lat": 0.0, "fusion_lon": 0.0}, {"name": "adf29d1037c0af74cfc05303bc00f631", "is_disabled": 0, "lat": 38.9028415, "rental_uris": {"ios": "https://dc.lft.to/lastmile_qr_scan", "android": "https://dc.lft.to/lastmile_qr_scan"}, "bike_id": "adf29d1037c0af74cfc05303bc00f631", "type": "electric_scooter", "lon": -77.038401, "is_reserved": 0, "fusion_lat": 0.0, "fusion_lon": 0.0}, {"name": "5dc8315adcbb699242adb5ce29048ccb", "is_disabled": 0, "lat": 38.90357216666666, "rental_uris": {"ios": "https://dc.lft.to/lastmile_qr_scan", "android": "https://dc.lft.to/lastmile_qr_scan"}, "bike_id": "5dc8315adcbb699242adb5ce29048ccb", "type": "electric_scooter", "lon": -77.0400335, "is_reserved": 0, "fusion_lat": 0.0, "fusion_lon": 0.0}, {"name": "2c30242f59007485c65ae733138ed0e4", "is_disabled": 0, "lat": 38.9131425, "rental_uris": {"ios": "https://dc.lft.to/lastmile_qr_scan", "android": "https://dc.lft.to/lastmile_qr_scan"}, "bike_id": "2c30242f59007485c65ae733138ed0e4", "type": "electric_scooter", "lon": -77.04164266666666, "is_reserved": 0, "fusion_lat": 0.0, "fusion_lon": 0.0}, {"name": "106cc8c0c58e3867fb03ee80837fffaf", "is_disabled": 0, "lat": 38.87847716666667, "rental_uris": {"ios": "https://dc.lft.to/lastmile_qr_scan", "android": "https://dc.lft.to/lastmile_qr_scan"}, "bike_id": "106cc8c0c58e3867fb03ee80837fffaf", "type": "electric_scooter", "lon": -77.00110933333333, "is_reserved": 0, "fusion_lat": 0.0, "fusion_lon": 0.0}, {"name": "c8780c9507ba82e26f7a5c900290ae53", "is_disabled": 0, "lat": 38.898915, "rental_uris": {"ios": "https://dc.lft.to/lastmile_qr_scan", "android": "https://dc.lft.to/lastmile_qr_scan"}, "bike_id": "c8780c9507ba82e26f7a5c900290ae53", "type": "electric_scooter", "lon": -77.0405165, "is_reserved": 0, "fusion_lat": 0.0, "fusion_lon": 0.0}, {"name": "9e5f3dc8179ded183b6283b6b35b30db", "is_disabled": 0, "lat": 38.928770166666666, "rental_uris": {"ios": "https://dc.lft.to/lastmile_qr_scan", "android": "https://dc.lft.to/lastmile_qr_scan"}, "bike_id": "9e5f3dc8179ded183b6283b6b35b30db", "type": "electric_scooter", "lon": -77.01368466666666, "is_reserved": 0, "fusion_lat": 0.0, "fusion_lon": 0.0}, {"name": "d21c11d1c9e4c0e836588d5ec6589846", "is_disabled": 0, "lat": 38.907175333333335, "rental_uris": {"ios": "https://dc.lft.to/lastmile_qr_scan", "android": "https://dc.lft.to/lastmile_qr_scan"}, "bike_id": "d21c11d1c9e4c0e836588d5ec6589846", "type": "electric_scooter", "lon": -77.03271983333333, "is_reserved": 0, "fusion_lat": 0.0, "fusion_lon": 0.0}, {"name": "0b9064a0441225843c6c47a0f12dcecb", "is_disabled": 0, "lat": 38.884331333333336, "rental_uris": {"ios": "https://dc.lft.to/lastmile_qr_scan", "android": "https://dc.lft.to/lastmile_qr_scan"}, "bike_id": "0b9064a0441225843c6c47a0f12dcecb", "type": "electric_scooter", "lon": -77.02592116666666, "is_reserved": 0, "fusion_lat": 0.0, "fusion_lon": 0.0}, {"name": "5a78f06064e65bb41ed5852849ad0342", "is_disabled": 0, "lat": 38.937135833333336, "rental_uris": {"ios": "https://dc.lft.to/lastmile_qr_scan", "android": "https://dc.lft.to/lastmile_qr_scan"}, "bike_id": "5a78f06064e65bb41ed5852849ad0342", "type": "electric_scooter", "lon": -77.024423, "is_reserved": 0, "fusion_lat": 0.0, "fusion_lon": 0.0}, {"name": "052cd586cf366916af25370906e970f3", "is_disabled": 0, "lat": 38.87468716666667, "rental_uris": {"ios": "https://dc.lft.to/lastmile_qr_scan", "android": "https://dc.lft.to/lastmile_qr_scan"}, "bike_id": "052cd586cf366916af25370906e970f3", "type": "electric_scooter", "lon": -77.00465816666667, "is_reserved": 0, "fusion_lat": 0.0, "fusion_lon": 0.0}, {"name": "af21d04718139c1d690f35bc7218a854", "is_disabled": 0, "lat": 38.88996983333333, "rental_uris": {"ios": "https://dc.lft.to/lastmile_qr_scan", "android": "https://dc.lft.to/lastmile_qr_scan"}, "bike_id": "af21d04718139c1d690f35bc7218a854", "type": "electric_scooter", "lon": -76.98372333333333, "is_reserved": 0, "fusion_lat": 0.0, "fusion_lon": 0.0}, {"name": "aa4023165efac047763c2f4db2b9804f", "is_disabled": 0, "lat": 38.92128483333333, "rental_uris": {"ios": "https://dc.lft.to/lastmile_qr_scan", "android": "https://dc.lft.to/lastmile_qr_scan"}, "bike_id": "aa4023165efac047763c2f4db2b9804f", "type": "electric_scooter", "lon": -77.02541983333333, "is_reserved": 0, "fusion_lat": 0.0, "fusion_lon": 0.0}, {"name": "b8a691e86ec52cc88b42ec8d63c2c42c", "is_disabled": 0, "lat": 38.922951166666664, "rental_uris": {"ios": "https://dc.lft.to/lastmile_qr_scan", "android": "https://dc.lft.to/lastmile_qr_scan"}, "bike_id": "b8a691e86ec52cc88b42ec8d63c2c42c", "type": "electric_bike", "lon": -76.99365083333333, "is_reserved": 0, "fusion_lat": 0.0, "fusion_lon": 0.0}, {"name": "7e41c9c4593db21c5694b0ca236ee3bf", "is_disabled": 0, "lat": 38.92257583333333, "rental_uris": {"ios": "https://dc.lft.to/lastmile_qr_scan", "android": "https://dc.lft.to/lastmile_qr_scan"}, "bike_id": "7e41c9c4593db21c5694b0ca236ee3bf", "type": "electric_scooter", "lon": -77.01928633333333, "is_reserved": 0, "fusion_lat": 0.0, "fusion_lon": 0.0}, {"name": "d8673a1500bb0a9135f0bacf7759779d", "is_disabled": 0, "lat": 38.886118833333335, "rental_uris": {"ios": "https://dc.lft.to/lastmile_qr_scan", "android": "https://dc.lft.to/lastmile_qr_scan"}, "bike_id": "d8673a1500bb0a9135f0bacf7759779d", "type": "electric_scooter", "lon": -76.9954325, "is_reserved": 0, "fusion_lat": 0.0, "fusion_lon": 0.0}, {"name": "79086cc47d7318ea1d4d5224be985f39", "is_disabled": 0, "lat": 38.90310066666667, "rental_uris": {"ios": "https://dc.lft.to/lastmile_qr_scan", "android": "https://dc.lft.to/lastmile_qr_scan"}, "bike_id": "79086cc47d7318ea1d4d5224be985f39", "type": "electric_scooter", "lon": -77.04893916666667, "is_reserved": 0, "fusion_lat": 0.0, "fusion_lon": 0.0}, {"name": "b675548e4e8e3f1804e612f2212ac6ed", "is_disabled": 0, "lat": 38.884155666666665, "rental_uris": {"ios": "https://dc.lft.to/lastmile_qr_scan", "android": "https://dc.lft.to/lastmile_qr_scan"}, "bike_id": "b675548e4e8e3f1804e612f2212ac6ed", "type": "electric_scooter", "lon": -76.9421155, "is_reserved": 0, "fusion_lat": 0.0, "fusion_lon": 0.0}, {"name": "44e6a8ad6f9009c77bba9abf469f03e3", "is_disabled": 0, "lat": 38.90528583333333, "rental_uris": {"ios": "https://dc.lft.to/lastmile_qr_scan", "android": "https://dc.lft.to/lastmile_qr_scan"}, "bike_id": "44e6a8ad6f9009c77bba9abf469f03e3", "type": "electric_scooter", "lon": -77.065132, "is_reserved": 0, "fusion_lat": 0.0, "fusion_lon": 0.0}, {"name": "d9bf04ef86bad8ce5c4e2184d60bbb69", "is_disabled": 0, "lat": 38.92342883333333, "rental_uris": {"ios": "https://dc.lft.to/lastmile_qr_scan", "android": "https://dc.lft.to/lastmile_qr_scan"}, "bike_id": "d9bf04ef86bad8ce5c4e2184d60bbb69", "type": "electric_scooter", "lon": -77.0517025, "is_reserved": 0, "fusion_lat": 0.0, "fusion_lon": 0.0}, {"name": "b2cec814987627eb617ce3bc01576f85", "is_disabled": 0, "lat": 38.875535166666666, "rental_uris": {"ios": "https://dc.lft.to/lastmile_qr_scan", "android": "https://dc.lft.to/lastmile_qr_scan"}, "bike_id": "b2cec814987627eb617ce3bc01576f85", "type": "electric_scooter", "lon": -77.00580116666667, "is_reserved": 0, "fusion_lat": 0.0, "fusion_lon": 0.0}, {"name": "66d7224c29843187bbcc2df663a23d53", "is_disabled": 0, "lat": 38.900362666666666, "rental_uris": {"ios": "https://dc.lft.to/lastmile_qr_scan", "android": "https://dc.lft.to/lastmile_qr_scan"}, "bike_id": "66d7224c29843187bbcc2df663a23d53", "type": "electric_scooter", "lon": -77.02605566666666, "is_reserved": 0, "fusion_lat": 0.0, "fusion_lon": 0.0}, {"name": "19584b327ed2b82e08b18072256aeee4", "is_disabled": 0, "lat": 38.89527, "rental_uris": {"ios": "https://dc.lft.to/lastmile_qr_scan", "android": "https://dc.lft.to/lastmile_qr_scan"}, "bike_id": "19584b327ed2b82e08b18072256aeee4", "type": "electric_scooter", "lon": -77.044824, "is_reserved": 0, "fusion_lat": 0.0, "fusion_lon": 0.0}, {"name": "a43e47075fe23fea76a866a9fd6ce073", "is_disabled": 0, "lat": 38.92150633333333, "rental_uris": {"ios": "https://dc.lft.to/lastmile_qr_scan", "android": "https://dc.lft.to/lastmile_qr_scan"}, "bike_id": "a43e47075fe23fea76a866a9fd6ce073", "type": "electric_scooter", "lon": -77.038743, "is_reserved": 0, "fusion_lat": 0.0, "fusion_lon": 0.0}, {"name": "3408daf6cf93c021ff622719983f4e8a", "is_disabled": 0, "lat": 38.905792166666664, "rental_uris": {"ios": "https://dc.lft.to/lastmile_qr_scan", "android": "https://dc.lft.to/lastmile_qr_scan"}, "bike_id": "3408daf6cf93c021ff622719983f4e8a", "type": "electric_bike", "lon": -77.00611233333333, "is_reserved": 0, "fusion_lat": 0.0, "fusion_lon": 0.0}, {"name": "48bfe281bf0335d5c1133a2355ff6219", "is_disabled": 0, "lat": 38.898875833333335, "rental_uris": {"ios": "https://dc.lft.to/lastmile_qr_scan", "android": "https://dc.lft.to/lastmile_qr_scan"}, "bike_id": "48bfe281bf0335d5c1133a2355ff6219", "type": "electric_scooter", "lon": -76.93175416666666, "is_reserved": 0, "fusion_lat": 0.0, "fusion_lon": 0.0}, {"name": "bf132af34442ecb7feb771a2458c84a0", "is_disabled": 0, "lat": 38.924201333333336, "rental_uris": {"ios": "https://dc.lft.to/lastmile_qr_scan", "android": "https://dc.lft.to/lastmile_qr_scan"}, "bike_id": "bf132af34442ecb7feb771a2458c84a0", "type": "electric_scooter", "lon": -77.01948733333333, "is_reserved": 0, "fusion_lat": 0.0, "fusion_lon": 0.0}, {"name": "d6368bb699d58ef5b6f7a13072a4a126", "is_disabled": 0, "lat": 38.92152383333333, "rental_uris": {"ios": "https://dc.lft.to/lastmile_qr_scan", "android": "https://dc.lft.to/lastmile_qr_scan"}, "bike_id": "d6368bb699d58ef5b6f7a13072a4a126", "type": "electric_scooter", "lon": -77.03871233333334, "is_reserved": 0, "fusion_lat": 0.0, "fusion_lon": 0.0}, {"name": "676a251460b055cb464c5264b8b4cc06", "is_disabled": 0, "lat": 39.036053333333335, "rental_uris": {"ios": "https://dc.lft.to/lastmile_qr_scan", "android": "https://dc.lft.to/lastmile_qr_scan"}, "bike_id": "676a251460b055cb464c5264b8b4cc06", "type": "electric_bike", "lon": -77.05545333333333, "is_reserved": 0, "fusion_lat": 0.0, "fusion_lon": 0.0}, {"name": "00e942df7b0b267f6f33d8bb2b45dc26", "is_disabled": 0, "lat": 38.91129633333333, "rental_uris": {"ios": "https://dc.lft.to/lastmile_qr_scan", "android": "https://dc.lft.to/lastmile_qr_scan"}, "bike_id": "00e942df7b0b267f6f33d8bb2b45dc26", "type": "electric_scooter", "lon": -77.03200966666667, "is_reserved": 0, "fusion_lat": 0.0, "fusion_lon": 0.0}, {"name": "2ede1e1442eb1e204ca240bfa069636e", "is_disabled": 0, "lat": 38.89220266666667, "rental_uris": {"ios": "https://dc.lft.to/lastmile_qr_scan", "android": "https://dc.lft.to/lastmile_qr_scan"}, "bike_id": "2ede1e1442eb1e204ca240bfa069636e", "type": "electric_scooter", "lon": -77.0409145, "is_reserved": 0, "fusion_lat": 0.0, "fusion_lon": 0.0}, {"name": "f68efe60a4de01e72e933b59d3de01b4", "is_disabled": 0, "lat": 38.905585, "rental_uris": {"ios": "https://dc.lft.to/lastmile_qr_scan", "android": "https://dc.lft.to/lastmile_qr_scan"}, "bike_id": "f68efe60a4de01e72e933b59d3de01b4", "type": "electric_scooter", "lon": -77.02425516666666, "is_reserved": 0, "fusion_lat": 0.0, "fusion_lon": 0.0}, {"name": "c7964e6fb85d23628b3ef56c1f39ac59", "is_disabled": 0, "lat": 38.92602183333333, "rental_uris": {"ios": "https://dc.lft.to/lastmile_qr_scan", "android": "https://dc.lft.to/lastmile_qr_scan"}, "bike_id": "c7964e6fb85d23628b3ef56c1f39ac59", "type": "electric_scooter", "lon": -77.02156883333333, "is_reserved": 0, "fusion_lat": 0.0, "fusion_lon": 0.0}, {"name": "32bbb7d573df07f43005171084fa947e", "is_disabled": 0, "lat": 38.91502, "rental_uris": {"ios": "https://dc.lft.to/lastmile_qr_scan", "android": "https://dc.lft.to/lastmile_qr_scan"}, "bike_id": "32bbb7d573df07f43005171084fa947e", "type": "electric_scooter", "lon": -77.012262, "is_reserved": 0, "fusion_lat": 0.0, "fusion_lon": 0.0}, {"name": "4fb09f9697211a248a30c064fdbad594", "is_disabled": 0, "lat": 38.90648616666667, "rental_uris": {"ios": "https://dc.lft.to/lastmile_qr_scan", "android": "https://dc.lft.to/lastmile_qr_scan"}, "bike_id": "4fb09f9697211a248a30c064fdbad594", "type": "electric_scooter", "lon": -77.00612016666666, "is_reserved": 0, "fusion_lat": 0.0, "fusion_lon": 0.0}, {"name": "c1d7fd1907adb5773225709ab3965c84", "is_disabled": 0, "lat": 38.902327166666666, "rental_uris": {"ios": "https://dc.lft.to/lastmile_qr_scan", "android": "https://dc.lft.to/lastmile_qr_scan"}, "bike_id": "c1d7fd1907adb5773225709ab3965c84", "type": "electric_scooter", "lon": -77.0327555, "is_reserved": 0, "fusion_lat": 0.0, "fusion_lon": 0.0}, {"name": "cbaf6b12a0b20a477eed13387c0c0ebd", "is_disabled": 0, "lat": 38.88627683333333, "rental_uris": {"ios": "https://dc.lft.to/lastmile_qr_scan", "android": "https://dc.lft.to/lastmile_qr_scan"}, "bike_id": "cbaf6b12a0b20a477eed13387c0c0ebd", "type": "electric_scooter", "lon": -77.02829866666667, "is_reserved": 0, "fusion_lat": 0.0, "fusion_lon": 0.0}, {"name": "79ba1d7ca9fd4859df412c0b4356ab37", "is_disabled": 0, "lat": 38.89222933333333, "rental_uris": {"ios": "https://dc.lft.to/lastmile_qr_scan", "android": "https://dc.lft.to/lastmile_qr_scan"}, "bike_id": "79ba1d7ca9fd4859df412c0b4356ab37", "type": "electric_scooter", "lon": -77.02224283333334, "is_reserved": 0, "fusion_lat": 0.0, "fusion_lon": 0.0}, {"name": "bf49a08f8190e8a1698462597a38f1b6", "is_disabled": 0, "lat": 38.91689433333333, "rental_uris": {"ios": "https://dc.lft.to/lastmile_qr_scan", "android": "https://dc.lft.to/lastmile_qr_scan"}, "bike_id": "bf49a08f8190e8a1698462597a38f1b6", "type": "electric_scooter", "lon": -77.02292866666667, "is_reserved": 0, "fusion_lat": 0.0, "fusion_lon": 0.0}, {"name": "31d498f27592af076e9eb504c5ccebf2", "is_disabled": 0, "lat": 38.988194666666665, "rental_uris": {"ios": "https://dc.lft.to/lastmile_qr_scan", "android": "https://dc.lft.to/lastmile_qr_scan"}, "bike_id": "31d498f27592af076e9eb504c5ccebf2", "type": "electric_bike", "lon": -77.02652383333333, "is_reserved": 0, "fusion_lat": 0.0, "fusion_lon": 0.0}, {"name": "209235bf2bd0a1db7b536787ffa1f6ab", "is_disabled": 0, "lat": 38.9167145, "rental_uris": {"ios": "https://dc.lft.to/lastmile_qr_scan", "android": "https://dc.lft.to/lastmile_qr_scan"}, "bike_id": "209235bf2bd0a1db7b536787ffa1f6ab", "type": "electric_scooter", "lon": -77.02719083333334, "is_reserved": 0, "fusion_lat": 0.0, "fusion_lon": 0.0}, {"name": "0c4f640df9506e46ebf524e43342d55a", "is_disabled": 0, "lat": 38.927989, "rental_uris": {"ios": "https://dc.lft.to/lastmile_qr_scan", "android": "https://dc.lft.to/lastmile_qr_scan"}, "bike_id": "0c4f640df9506e46ebf524e43342d55a", "type": "electric_scooter", "lon": -77.0229535, "is_reserved": 0, "fusion_lat": 0.0, "fusion_lon": 0.0}, {"name": "bd2d27bba110274898f5cb8238b58d00", "is_disabled": 0, "lat": 38.91402733333334, "rental_uris": {"ios": "https://dc.lft.to/lastmile_qr_scan", "android": "https://dc.lft.to/lastmile_qr_scan"}, "bike_id": "bd2d27bba110274898f5cb8238b58d00", "type": "electric_scooter", "lon": -77.031622, "is_reserved": 0, "fusion_lat": 0.0, "fusion_lon": 0.0}, {"name": "8fcb43e8c3b1a1650c868dc2911b1911", "is_disabled": 0, "lat": 38.993834666666665, "rental_uris": {"ios": "https://dc.lft.to/lastmile_qr_scan", "android": "https://dc.lft.to/lastmile_qr_scan"}, "bike_id": "8fcb43e8c3b1a1650c868dc2911b1911", "type": "electric_bike", "lon": -76.928833, "is_reserved": 0, "fusion_lat": 0.0, "fusion_lon": 0.0}, {"name": "13f968e43456e59a60781e6220d79b40", "is_disabled": 0, "lat": 38.8846, "rental_uris": {"ios": "https://dc.lft.to/lastmile_qr_scan", "android": "https://dc.lft.to/lastmile_qr_scan"}, "bike_id": "13f968e43456e59a60781e6220d79b40", "type": "electric_bike", "lon": -76.95237133333333, "is_reserved": 0, "fusion_lat": 0.0, "fusion_lon": 0.0}, {"name": "dd69140ed614d4b416186ec840c5a9d3", "is_disabled": 0, "lat": 38.898371833333336, "rental_uris": {"ios": "https://dc.lft.to/lastmile_qr_scan", "android": "https://dc.lft.to/lastmile_qr_scan"}, "bike_id": "dd69140ed614d4b416186ec840c5a9d3", "type": "electric_scooter", "lon": -77.02983016666667, "is_reserved": 0, "fusion_lat": 0.0, "fusion_lon": 0.0}, {"name": "118010b19741ea8fbc5a70e5533dacd3", "is_disabled": 0, "lat": 38.906039, "rental_uris": {"ios": "https://dc.lft.to/lastmile_qr_scan", "android": "https://dc.lft.to/lastmile_qr_scan"}, "bike_id": "118010b19741ea8fbc5a70e5533dacd3", "type": "electric_scooter", "lon": -77.0403575, "is_reserved": 0, "fusion_lat": 0.0, "fusion_lon": 0.0}, {"name": "d1ac087298529ddf4950880b31db0065", "is_disabled": 0, "lat": 38.90131433333333, "rental_uris": {"ios": "https://dc.lft.to/lastmile_qr_scan", "android": "https://dc.lft.to/lastmile_qr_scan"}, "bike_id": "d1ac087298529ddf4950880b31db0065", "type": "electric_scooter", "lon": -77.04487216666666, "is_reserved": 0, "fusion_lat": 0.0, "fusion_lon": 0.0}, {"name": "61de2bf770ac5200e763c42d22e1c7d6", "is_disabled": 0, "lat": 38.91655516666667, "rental_uris": {"ios": "https://dc.lft.to/lastmile_qr_scan", "android": "https://dc.lft.to/lastmile_qr_scan"}, "bike_id": "61de2bf770ac5200e763c42d22e1c7d6", "type": "electric_scooter", "lon": -77.022779, "is_reserved": 0, "fusion_lat": 0.0, "fusion_lon": 0.0}, {"name": "df2ac8b6f9cc3777f528e542fa3bf60b", "is_disabled": 0, "lat": 38.91692366666667, "rental_uris": {"ios": "https://dc.lft.to/lastmile_qr_scan", "android": "https://dc.lft.to/lastmile_qr_scan"}, "bike_id": "df2ac8b6f9cc3777f528e542fa3bf60b", "type": "electric_scooter", "lon": -77.02643983333333, "is_reserved": 0, "fusion_lat": 0.0, "fusion_lon": 0.0}, {"name": "0878e6db201578d68b034dc50437677f", "is_disabled": 0, "lat": 38.900774, "rental_uris": {"ios": "https://dc.lft.to/lastmile_qr_scan", "android": "https://dc.lft.to/lastmile_qr_scan"}, "bike_id": "0878e6db201578d68b034dc50437677f", "type": "electric_scooter", "lon": -77.0491545, "is_reserved": 0, "fusion_lat": 0.0, "fusion_lon": 0.0}, {"name": "4949e5e8b4c22be47529675492457109", "is_disabled": 0, "lat": 38.90190616666667, "rental_uris": {"ios": "https://dc.lft.to/lastmile_qr_scan", "android": "https://dc.lft.to/lastmile_qr_scan"}, "bike_id": "4949e5e8b4c22be47529675492457109", "type": "electric_scooter", "lon": -77.02366766666667, "is_reserved": 0, "fusion_lat": 0.0, "fusion_lon": 0.0}, {"name": "159ef2e249bf587471a208780b4143b4", "is_disabled": 0, "lat": 38.919634, "rental_uris": {"ios": "https://dc.lft.to/lastmile_qr_scan", "android": "https://dc.lft.to/lastmile_qr_scan"}, "bike_id": "159ef2e249bf587471a208780b4143b4", "type": "electric_scooter", "lon": -77.02359483333333, "is_reserved": 0, "fusion_lat": 0.0, "fusion_lon": 0.0}, {"name": "5cd9da089b86a59b51dd93d02367d49c", "is_disabled": 0, "lat": 38.923132, "rental_uris": {"ios": "https://dc.lft.to/lastmile_qr_scan", "android": "https://dc.lft.to/lastmile_qr_scan"}, "bike_id": "5cd9da089b86a59b51dd93d02367d49c", "type": "electric_scooter", "lon": -77.04044616666667, "is_reserved": 0, "fusion_lat": 0.0, "fusion_lon": 0.0}, {"name": "ab018613345477a0938e6d1bef0cd215", "is_disabled": 0, "lat": 38.92412233333334, "rental_uris": {"ios": "https://dc.lft.to/lastmile_qr_scan", "android": "https://dc.lft.to/lastmile_qr_scan"}, "bike_id": "ab018613345477a0938e6d1bef0cd215", "type": "electric_scooter", "lon": -77.03637666666667, "is_reserved": 0, "fusion_lat": 0.0, "fusion_lon": 0.0}, {"name": "5dc17559fd910439aeb759e010f11517", "is_disabled": 0, "lat": 38.892214333333335, "rental_uris": {"ios": "https://dc.lft.to/lastmile_qr_scan", "android": "https://dc.lft.to/lastmile_qr_scan"}, "bike_id": "5dc17559fd910439aeb759e010f11517", "type": "electric_scooter", "lon": -77.04504766666666, "is_reserved": 0, "fusion_lat": 0.0, "fusion_lon": 0.0}, {"name": "a9e35c4d48134333b2d1a9bd64d8df94", "is_disabled": 0, "lat": 38.917105, "rental_uris": {"ios": "https://dc.lft.to/lastmile_qr_scan", "android": "https://dc.lft.to/lastmile_qr_scan"}, "bike_id": "a9e35c4d48134333b2d1a9bd64d8df94", "type": "electric_scooter", "lon": -77.024343, "is_reserved": 0, "fusion_lat": 0.0, "fusion_lon": 0.0}, {"name": "0c3be2cf16a2c41fb697257f46801d48", "is_disabled": 0, "lat": 38.906185, "rental_uris": {"ios": "https://dc.lft.to/lastmile_qr_scan", "android": "https://dc.lft.to/lastmile_qr_scan"}, "bike_id": "0c3be2cf16a2c41fb697257f46801d48", "type": "electric_scooter", "lon": -77.014916, "is_reserved": 0, "fusion_lat": 0.0, "fusion_lon": 0.0}, {"name": "3713547bab7c2235773d0f9a02ff57b4", "is_disabled": 0, "lat": 38.93278933333333, "rental_uris": {"ios": "https://dc.lft.to/lastmile_qr_scan", "android": "https://dc.lft.to/lastmile_qr_scan"}, "bike_id": "3713547bab7c2235773d0f9a02ff57b4", "type": "electric_scooter", "lon": -77.02870633333333, "is_reserved": 0, "fusion_lat": 0.0, "fusion_lon": 0.0}, {"name": "442fd59764bbc2872666713b8801361f", "is_disabled": 0, "lat": 38.92244616666667, "rental_uris": {"ios": "https://dc.lft.to/lastmile_qr_scan", "android": "https://dc.lft.to/lastmile_qr_scan"}, "bike_id": "442fd59764bbc2872666713b8801361f", "type": "electric_scooter", "lon": -77.01945566666667, "is_reserved": 0, "fusion_lat": 0.0, "fusion_lon": 0.0}, {"name": "1ad1721aebc61b2caaf744879ca6d0e4", "is_disabled": 0, "lat": 38.90165916666667, "rental_uris": {"ios": "https://dc.lft.to/lastmile_qr_scan", "android": "https://dc.lft.to/lastmile_qr_scan"}, "bike_id": "1ad1721aebc61b2caaf744879ca6d0e4", "type": "electric_scooter", "lon": -77.025025, "is_reserved": 0, "fusion_lat": 0.0, "fusion_lon": 0.0}, {"name": "a8a3fdf90e17c8f4bcb781f3511edd9d", "is_disabled": 0, "lat": 38.900627, "rental_uris": {"ios": "https://dc.lft.to/lastmile_qr_scan", "android": "https://dc.lft.to/lastmile_qr_scan"}, "bike_id": "a8a3fdf90e17c8f4bcb781f3511edd9d", "type": "electric_scooter", "lon": -76.93384266666666, "is_reserved": 0, "fusion_lat": 0.0, "fusion_lon": 0.0}, {"name": "4771b99aba61f4dafe994cdebbb974ae", "is_disabled": 0, "lat": 38.8972425, "rental_uris": {"ios": "https://dc.lft.to/lastmile_qr_scan", "android": "https://dc.lft.to/lastmile_qr_scan"}, "bike_id": "4771b99aba61f4dafe994cdebbb974ae", "type": "electric_scooter", "lon": -77.0272975, "is_reserved": 0, "fusion_lat": 0.0, "fusion_lon": 0.0}, {"name": "9be53b016c8b1dc3fce6e2c990aff458", "is_disabled": 0, "lat": 38.919251333333335, "rental_uris": {"ios": "https://dc.lft.to/lastmile_qr_scan", "android": "https://dc.lft.to/lastmile_qr_scan"}, "bike_id": "9be53b016c8b1dc3fce6e2c990aff458", "type": "electric_scooter", "lon": -77.034208, "is_reserved": 0, "fusion_lat": 0.0, "fusion_lon": 0.0}, {"name": "b9fb311ccc2c8b83b4bcc3fb896d52a9", "is_disabled": 0, "lat": 38.905131, "rental_uris": {"ios": "https://dc.lft.to/lastmile_qr_scan", "android": "https://dc.lft.to/lastmile_qr_scan"}, "bike_id": "b9fb311ccc2c8b83b4bcc3fb896d52a9", "type": "electric_scooter", "lon": -77.04832616666667, "is_reserved": 0, "fusion_lat": 0.0, "fusion_lon": 0.0}, {"name": "658f6275df58c49243e5b9006a200fc8", "is_disabled": 0, "lat": 38.90240133333333, "rental_uris": {"ios": "https://dc.lft.to/lastmile_qr_scan", "android": "https://dc.lft.to/lastmile_qr_scan"}, "bike_id": "658f6275df58c49243e5b9006a200fc8", "type": "electric_scooter", "lon": -77.0162115, "is_reserved": 0, "fusion_lat": 0.0, "fusion_lon": 0.0}, {"name": "f175d69071b98f97f5929715e759d7bb", "is_disabled": 0, "lat": 38.87655266666667, "rental_uris": {"ios": "https://dc.lft.to/lastmile_qr_scan", "android": "https://dc.lft.to/lastmile_qr_scan"}, "bike_id": "f175d69071b98f97f5929715e759d7bb", "type": "electric_scooter", "lon": -77.0008575, "is_reserved": 0, "fusion_lat": 0.0, "fusion_lon": 0.0}, {"name": "fd7872909354a195f4f306d328d6d561", "is_disabled": 0, "lat": 38.903739333333334, "rental_uris": {"ios": "https://dc.lft.to/lastmile_qr_scan", "android": "https://dc.lft.to/lastmile_qr_scan"}, "bike_id": "fd7872909354a195f4f306d328d6d561", "type": "electric_scooter", "lon": -77.03209166666667, "is_reserved": 0, "fusion_lat": 0.0, "fusion_lon": 0.0}, {"name": "8185e44b991d5be51c518823c3dc9a5e", "is_disabled": 0, "lat": 38.90736483333333, "rental_uris": {"ios": "https://dc.lft.to/lastmile_qr_scan", "android": "https://dc.lft.to/lastmile_qr_scan"}, "bike_id": "8185e44b991d5be51c518823c3dc9a5e", "type": "electric_scooter", "lon": -77.04320666666666, "is_reserved": 0, "fusion_lat": 0.0, "fusion_lon": 0.0}, {"name": "8885d86c09ebaca3d73adffcaf0fbac3", "is_disabled": 0, "lat": 38.9175175, "rental_uris": {"ios": "https://dc.lft.to/lastmile_qr_scan", "android": "https://dc.lft.to/lastmile_qr_scan"}, "bike_id": "8885d86c09ebaca3d73adffcaf0fbac3", "type": "electric_scooter", "lon": -77.041607, "is_reserved": 0, "fusion_lat": 0.0, "fusion_lon": 0.0}, {"name": "c5a2ab9775e6c1e4f9a92b84ed480ed6", "is_disabled": 0, "lat": 38.89643683333333, "rental_uris": {"ios": "https://dc.lft.to/lastmile_qr_scan", "android": "https://dc.lft.to/lastmile_qr_scan"}, "bike_id": "c5a2ab9775e6c1e4f9a92b84ed480ed6", "type": "electric_scooter", "lon": -77.02582483333333, "is_reserved": 0, "fusion_lat": 0.0, "fusion_lon": 0.0}, {"name": "7cbe76803761281e74339d9fc2696687", "is_disabled": 0, "lat": 38.9036245, "rental_uris": {"ios": "https://dc.lft.to/lastmile_qr_scan", "android": "https://dc.lft.to/lastmile_qr_scan"}, "bike_id": "7cbe76803761281e74339d9fc2696687", "type": "electric_scooter", "lon": -77.0430685, "is_reserved": 0, "fusion_lat": 0.0, "fusion_lon": 0.0}, {"name": "63a12596685fc43a9f322a7c5179f574", "is_disabled": 0, "lat": 38.923779833333334, "rental_uris": {"ios": "https://dc.lft.to/lastmile_qr_scan", "android": "https://dc.lft.to/lastmile_qr_scan"}, "bike_id": "63a12596685fc43a9f322a7c5179f574", "type": "electric_scooter", "lon": -77.035397, "is_reserved": 0, "fusion_lat": 0.0, "fusion_lon": 0.0}, {"name": "00f576430e2ff4e9f5bd824fadc731b1", "is_disabled": 0, "lat": 38.877440666666665, "rental_uris": {"ios": "https://dc.lft.to/lastmile_qr_scan", "android": "https://dc.lft.to/lastmile_qr_scan"}, "bike_id": "00f576430e2ff4e9f5bd824fadc731b1", "type": "electric_scooter", "lon": -77.00604916666667, "is_reserved": 0, "fusion_lat": 0.0, "fusion_lon": 0.0}, {"name": "33677e2382ee035c561e03e1a36cce57", "is_disabled": 0, "lat": 38.92149116666667, "rental_uris": {"ios": "https://dc.lft.to/lastmile_qr_scan", "android": "https://dc.lft.to/lastmile_qr_scan"}, "bike_id": "33677e2382ee035c561e03e1a36cce57", "type": "electric_scooter", "lon": -76.993612, "is_reserved": 0, "fusion_lat": 0.0, "fusion_lon": 0.0}, {"name": "5d06ce969900fb0201b74e7529ab8502", "is_disabled": 0, "lat": 38.898331666666664, "rental_uris": {"ios": "https://dc.lft.to/lastmile_qr_scan", "android": "https://dc.lft.to/lastmile_qr_scan"}, "bike_id": "5d06ce969900fb0201b74e7529ab8502", "type": "electric_scooter", "lon": -76.9463715, "is_reserved": 0, "fusion_lat": 0.0, "fusion_lon": 0.0}, {"name": "e891e89346791436f0b9294b070f9108", "is_disabled": 0, "lat": 38.91996433333333, "rental_uris": {"ios": "https://dc.lft.to/lastmile_qr_scan", "android": "https://dc.lft.to/lastmile_qr_scan"}, "bike_id": "e891e89346791436f0b9294b070f9108", "type": "electric_scooter", "lon": -77.04761833333333, "is_reserved": 0, "fusion_lat": 0.0, "fusion_lon": 0.0}, {"name": "1ef8be993c65364e95b3ef90f629c70f", "is_disabled": 0, "lat": 38.90517083333334, "rental_uris": {"ios": "https://dc.lft.to/lastmile_qr_scan", "android": "https://dc.lft.to/lastmile_qr_scan"}, "bike_id": "1ef8be993c65364e95b3ef90f629c70f", "type": "electric_bike", "lon": -77.04159466666667, "is_reserved": 0, "fusion_lat": 0.0, "fusion_lon": 0.0}, {"name": "bf2e27da45337b5a5059e39224512b05", "is_disabled": 0, "lat": 38.863484666666665, "rental_uris": {"ios": "https://dc.lft.to/lastmile_qr_scan", "android": "https://dc.lft.to/lastmile_qr_scan"}, "bike_id": "bf2e27da45337b5a5059e39224512b05", "type": "electric_bike", "lon": -77.07722433333333, "is_reserved": 0, "fusion_lat": 0.0, "fusion_lon": 0.0}, {"name": "01fe2a0b51aaa8d3d0bc60447f972559", "is_disabled": 0, "lat": 38.905077666666664, "rental_uris": {"ios": "https://dc.lft.to/lastmile_qr_scan", "android": "https://dc.lft.to/lastmile_qr_scan"}, "bike_id": "01fe2a0b51aaa8d3d0bc60447f972559", "type": "electric_scooter", "lon": -77.06550966666667, "is_reserved": 0, "fusion_lat": 0.0, "fusion_lon": 0.0}, {"name": "76a3cc5d26fa054997bbf35523bff478", "is_disabled": 0, "lat": 38.93754033333333, "rental_uris": {"ios": "https://dc.lft.to/lastmile_qr_scan", "android": "https://dc.lft.to/lastmile_qr_scan"}, "bike_id": "76a3cc5d26fa054997bbf35523bff478", "type": "electric_bike", "lon": -76.95825133333334, "is_reserved": 0, "fusion_lat": 0.0, "fusion_lon": 0.0}, {"name": "b2246279f05ca5397bd664af686b051d", "is_disabled": 0, "lat": 38.907736666666665, "rental_uris": {"ios": "https://dc.lft.to/lastmile_qr_scan", "android": "https://dc.lft.to/lastmile_qr_scan"}, "bike_id": "b2246279f05ca5397bd664af686b051d", "type": "electric_scooter", "lon": -76.997129, "is_reserved": 0, "fusion_lat": 0.0, "fusion_lon": 0.0}, {"name": "633d241bfb541a6f9f71c9c71c3bb5bb", "is_disabled": 0, "lat": 38.944942, "rental_uris": {"ios": "https://dc.lft.to/lastmile_qr_scan", "android": "https://dc.lft.to/lastmile_qr_scan"}, "bike_id": "633d241bfb541a6f9f71c9c71c3bb5bb", "type": "electric_bike", "lon": -77.00684433333333, "is_reserved": 0, "fusion_lat": 0.0, "fusion_lon": 0.0}, {"name": "cb585ce27f7bfc4422de35d27d90d07a", "is_disabled": 0, "lat": 38.90391283333334, "rental_uris": {"ios": "https://dc.lft.to/lastmile_qr_scan", "android": "https://dc.lft.to/lastmile_qr_scan"}, "bike_id": "cb585ce27f7bfc4422de35d27d90d07a", "type": "electric_scooter", "lon": -77.00185516666667, "is_reserved": 0, "fusion_lat": 0.0, "fusion_lon": 0.0}, {"name": "c3b8d05af5c3f276673a5925f4158e38", "is_disabled": 0, "lat": 38.923637, "rental_uris": {"ios": "https://dc.lft.to/lastmile_qr_scan", "android": "https://dc.lft.to/lastmile_qr_scan"}, "bike_id": "c3b8d05af5c3f276673a5925f4158e38", "type": "electric_scooter", "lon": -77.02810166666667, "is_reserved": 0, "fusion_lat": 0.0, "fusion_lon": 0.0}, {"name": "770ed0bbc8f4ea7764e0ce73ecfc8e93", "is_disabled": 0, "lat": 38.86244033333333, "rental_uris": {"ios": "https://dc.lft.to/lastmile_qr_scan", "android": "https://dc.lft.to/lastmile_qr_scan"}, "bike_id": "770ed0bbc8f4ea7764e0ce73ecfc8e93", "type": "electric_scooter", "lon": -76.99494466666667, "is_reserved": 0, "fusion_lat": 0.0, "fusion_lon": 0.0}, {"name": "d1cf3661b7d39d437fcdaa2e6921dce0", "is_disabled": 0, "lat": 38.881406, "rental_uris": {"ios": "https://dc.lft.to/lastmile_qr_scan", "android": "https://dc.lft.to/lastmile_qr_scan"}, "bike_id": "d1cf3661b7d39d437fcdaa2e6921dce0", "type": "electric_scooter", "lon": -76.99617533333333, "is_reserved": 0, "fusion_lat": 0.0, "fusion_lon": 0.0}, {"name": "82e742ea2921b4086101079aa157a42a", "is_disabled": 0, "lat": 38.94108083333333, "rental_uris": {"ios": "https://dc.lft.to/lastmile_qr_scan", "android": "https://dc.lft.to/lastmile_qr_scan"}, "bike_id": "82e742ea2921b4086101079aa157a42a", "type": "electric_scooter", "lon": -77.0004595, "is_reserved": 0, "fusion_lat": 0.0, "fusion_lon": 0.0}, {"name": "05bdf028a2c9441b00faa42b32f7c10a", "is_disabled": 0, "lat": 38.9020015, "rental_uris": {"ios": "https://dc.lft.to/lastmile_qr_scan", "android": "https://dc.lft.to/lastmile_qr_scan"}, "bike_id": "05bdf028a2c9441b00faa42b32f7c10a", "type": "electric_scooter", "lon": -77.02371783333334, "is_reserved": 0, "fusion_lat": 0.0, "fusion_lon": 0.0}, {"name": "d5c06a9107736dc2df491a61702a216f", "is_disabled": 0, "lat": 38.890021, "rental_uris": {"ios": "https://dc.lft.to/lastmile_qr_scan", "android": "https://dc.lft.to/lastmile_qr_scan"}, "bike_id": "d5c06a9107736dc2df491a61702a216f", "type": "electric_scooter", "lon": -76.937439, "is_reserved": 0, "fusion_lat": 0.0, "fusion_lon": 0.0}, {"name": "c720f54083118a3e031906f6e03558ce", "is_disabled": 0, "lat": 38.91792266666667, "rental_uris": {"ios": "https://dc.lft.to/lastmile_qr_scan", "android": "https://dc.lft.to/lastmile_qr_scan"}, "bike_id": "c720f54083118a3e031906f6e03558ce", "type": "electric_scooter", "lon": -77.041668, "is_reserved": 0, "fusion_lat": 0.0, "fusion_lon": 0.0}, {"name": "c58e11c44c955dffcb7370f4ca5ee83f", "is_disabled": 0, "lat": 38.914029166666666, "rental_uris": {"ios": "https://dc.lft.to/lastmile_qr_scan", "android": "https://dc.lft.to/lastmile_qr_scan"}, "bike_id": "c58e11c44c955dffcb7370f4ca5ee83f", "type": "electric_scooter", "lon": -77.03163583333334, "is_reserved": 0, "fusion_lat": 0.0, "fusion_lon": 0.0}, {"name": "6360c6873e7a6c8930d6f181a889bdd0", "is_disabled": 0, "lat": 38.937736666666666, "rental_uris": {"ios": "https://dc.lft.to/lastmile_qr_scan", "android": "https://dc.lft.to/lastmile_qr_scan"}, "bike_id": "6360c6873e7a6c8930d6f181a889bdd0", "type": "electric_bike", "lon": -77.01913783333333, "is_reserved": 0, "fusion_lat": 0.0, "fusion_lon": 0.0}, {"name": "dd5ed730b0bdea2493580a9222613e7d", "is_disabled": 0, "lat": 38.926731833333335, "rental_uris": {"ios": "https://dc.lft.to/lastmile_qr_scan", "android": "https://dc.lft.to/lastmile_qr_scan"}, "bike_id": "dd5ed730b0bdea2493580a9222613e7d", "type": "electric_scooter", "lon": -77.03051333333333, "is_reserved": 0, "fusion_lat": 0.0, "fusion_lon": 0.0}, {"name": "be93d0fc4c036f40792e34547662ccab", "is_disabled": 0, "lat": 38.9008545, "rental_uris": {"ios": "https://dc.lft.to/lastmile_qr_scan", "android": "https://dc.lft.to/lastmile_qr_scan"}, "bike_id": "be93d0fc4c036f40792e34547662ccab", "type": "electric_scooter", "lon": -77.047584, "is_reserved": 0, "fusion_lat": 0.0, "fusion_lon": 0.0}, {"name": "9c157f4a665eb7562b00187141a40f0b", "is_disabled": 0, "lat": 39.014168166666664, "rental_uris": {"ios": "https://dc.lft.to/lastmile_qr_scan", "android": "https://dc.lft.to/lastmile_qr_scan"}, "bike_id": "9c157f4a665eb7562b00187141a40f0b", "type": "electric_bike", "lon": -77.04497533333333, "is_reserved": 0, "fusion_lat": 0.0, "fusion_lon": 0.0}, {"name": "c37bf66ab810fa36346c27285892e112", "is_disabled": 0, "lat": 38.88179566666667, "rental_uris": {"ios": "https://dc.lft.to/lastmile_qr_scan", "android": "https://dc.lft.to/lastmile_qr_scan"}, "bike_id": "c37bf66ab810fa36346c27285892e112", "type": "electric_scooter", "lon": -77.02764233333333, "is_reserved": 0, "fusion_lat": 0.0, "fusion_lon": 0.0}, {"name": "5d05429c03999ebb350f91051c3d94e6", "is_disabled": 0, "lat": 38.91549766666667, "rental_uris": {"ios": "https://dc.lft.to/lastmile_qr_scan", "android": "https://dc.lft.to/lastmile_qr_scan"}, "bike_id": "5d05429c03999ebb350f91051c3d94e6", "type": "electric_scooter", "lon": -77.03851683333333, "is_reserved": 0, "fusion_lat": 0.0, "fusion_lon": 0.0}, {"name": "37fb0961b53e335d348c15aa0656aa34", "is_disabled": 0, "lat": 38.88649566666667, "rental_uris": {"ios": "https://dc.lft.to/lastmile_qr_scan", "android": "https://dc.lft.to/lastmile_qr_scan"}, "bike_id": "37fb0961b53e335d348c15aa0656aa34", "type": "electric_bike", "lon": -77.16229816666667, "is_reserved": 0, "fusion_lat": 0.0, "fusion_lon": 0.0}, {"name": "ae3c605e657b7c4d39f35c6133323802", "is_disabled": 0, "lat": 38.90573783333333, "rental_uris": {"ios": "https://dc.lft.to/lastmile_qr_scan", "android": "https://dc.lft.to/lastmile_qr_scan"}, "bike_id": "ae3c605e657b7c4d39f35c6133323802", "type": "electric_scooter", "lon": -77.02212016666667, "is_reserved": 0, "fusion_lat": 0.0, "fusion_lon": 0.0}, {"name": "cacf66bb1b83f01bc1812eaf58a6086c", "is_disabled": 0, "lat": 38.873709, "rental_uris": {"ios": "https://dc.lft.to/lastmile_qr_scan", "android": "https://dc.lft.to/lastmile_qr_scan"}, "bike_id": "cacf66bb1b83f01bc1812eaf58a6086c", "type": "electric_scooter", "lon": -77.00137283333333, "is_reserved": 0, "fusion_lat": 0.0, "fusion_lon": 0.0}, {"name": "511ef63e4d4069bc5f8db16416676ac0", "is_disabled": 0, "lat": 38.8973135, "rental_uris": {"ios": "https://dc.lft.to/lastmile_qr_scan", "android": "https://dc.lft.to/lastmile_qr_scan"}, "bike_id": "511ef63e4d4069bc5f8db16416676ac0", "type": "electric_scooter", "lon": -77.01870583333333, "is_reserved": 0, "fusion_lat": 0.0, "fusion_lon": 0.0}, {"name": "b884c19203c6849967d361fa90ff6c5f", "is_disabled": 0, "lat": 38.873718333333336, "rental_uris": {"ios": "https://dc.lft.to/lastmile_qr_scan", "android": "https://dc.lft.to/lastmile_qr_scan"}, "bike_id": "b884c19203c6849967d361fa90ff6c5f", "type": "electric_scooter", "lon": -77.00170166666666, "is_reserved": 0, "fusion_lat": 0.0, "fusion_lon": 0.0}, {"name": "c254b246a51a3d616335d0b5976ca75e", "is_disabled": 0, "lat": 38.90415983333333, "rental_uris": {"ios": "https://dc.lft.to/lastmile_qr_scan", "android": "https://dc.lft.to/lastmile_qr_scan"}, "bike_id": "c254b246a51a3d616335d0b5976ca75e", "type": "electric_bike", "lon": -77.0238225, "is_reserved": 0, "fusion_lat": 0.0, "fusion_lon": 0.0}, {"name": "a6ff0ce38e2d977aebc84fc84f9aa632", "is_disabled": 0, "lat": 38.90228183333333, "rental_uris": {"ios": "https://dc.lft.to/lastmile_qr_scan", "android": "https://dc.lft.to/lastmile_qr_scan"}, "bike_id": "a6ff0ce38e2d977aebc84fc84f9aa632", "type": "electric_scooter", "lon": -77.02224716666667, "is_reserved": 0, "fusion_lat": 0.0, "fusion_lon": 0.0}, {"name": "f5b66288b208d35e498cc5ff451cebff", "is_disabled": 0, "lat": 38.90444466666667, "rental_uris": {"ios": "https://dc.lft.to/lastmile_qr_scan", "android": "https://dc.lft.to/lastmile_qr_scan"}, "bike_id": "f5b66288b208d35e498cc5ff451cebff", "type": "electric_scooter", "lon": -77.03643233333334, "is_reserved": 0, "fusion_lat": 0.0, "fusion_lon": 0.0}, {"name": "32e815019e6143eebd27a1e4596908dc", "is_disabled": 0, "lat": 38.912584, "rental_uris": {"ios": "https://dc.lft.to/lastmile_qr_scan", "android": "https://dc.lft.to/lastmile_qr_scan"}, "bike_id": "32e815019e6143eebd27a1e4596908dc", "type": "electric_scooter", "lon": -77.03057783333334, "is_reserved": 0, "fusion_lat": 0.0, "fusion_lon": 0.0}, {"name": "91f4ffd0238580cc20e0b68969726ee9", "is_disabled": 0, "lat": 38.955528666666666, "rental_uris": {"ios": "https://dc.lft.to/lastmile_qr_scan", "android": "https://dc.lft.to/lastmile_qr_scan"}, "bike_id": "91f4ffd0238580cc20e0b68969726ee9", "type": "electric_bike", "lon": -77.02446316666666, "is_reserved": 0, "fusion_lat": 0.0, "fusion_lon": 0.0}, {"name": "fa10ade9b0a184ac68ecf037a17ff426", "is_disabled": 0, "lat": 38.9440855, "rental_uris": {"ios": "https://dc.lft.to/lastmile_qr_scan", "android": "https://dc.lft.to/lastmile_qr_scan"}, "bike_id": "fa10ade9b0a184ac68ecf037a17ff426", "type": "electric_bike", "lon": -77.05519383333333, "is_reserved": 0, "fusion_lat": 0.0, "fusion_lon": 0.0}, {"name": "1423b62e08d6cdc80d3a10e8719e498a", "is_disabled": 0, "lat": 38.90130716666667, "rental_uris": {"ios": "https://dc.lft.to/lastmile_qr_scan", "android": "https://dc.lft.to/lastmile_qr_scan"}, "bike_id": "1423b62e08d6cdc80d3a10e8719e498a", "type": "electric_scooter", "lon": -77.00327983333334, "is_reserved": 0, "fusion_lat": 0.0, "fusion_lon": 0.0}, {"name": "8665813c9179b127ada8ee37671087e5", "is_disabled": 0, "lat": 38.90748833333333, "rental_uris": {"ios": "https://dc.lft.to/lastmile_qr_scan", "android": "https://dc.lft.to/lastmile_qr_scan"}, "bike_id": "8665813c9179b127ada8ee37671087e5", "type": "electric_scooter", "lon": -77.02394983333333, "is_reserved": 0, "fusion_lat": 0.0, "fusion_lon": 0.0}, {"name": "27947fee6e0bdb912a9106b87134a7cd", "is_disabled": 0, "lat": 38.89924383333334, "rental_uris": {"ios": "https://dc.lft.to/lastmile_qr_scan", "android": "https://dc.lft.to/lastmile_qr_scan"}, "bike_id": "27947fee6e0bdb912a9106b87134a7cd", "type": "electric_scooter", "lon": -77.03387516666666, "is_reserved": 0, "fusion_lat": 0.0, "fusion_lon": 0.0}, {"name": "2396943cb5beb18d8df54a250a6753ba", "is_disabled": 0, "lat": 38.818597, "rental_uris": {"ios": "https://dc.lft.to/lastmile_qr_scan", "android": "https://dc.lft.to/lastmile_qr_scan"}, "bike_id": "2396943cb5beb18d8df54a250a6753ba", "type": "electric_bike", "lon": -77.12707566666667, "is_reserved": 0, "fusion_lat": 0.0, "fusion_lon": 0.0}, {"name": "4220b3e6f03d81c9a36ab4797b5e89ca", "is_disabled": 0, "lat": 38.92445466666667, "rental_uris": {"ios": "https://dc.lft.to/lastmile_qr_scan", "android": "https://dc.lft.to/lastmile_qr_scan"}, "bike_id": "4220b3e6f03d81c9a36ab4797b5e89ca", "type": "electric_scooter", "lon": -77.0226075, "is_reserved": 0, "fusion_lat": 0.0, "fusion_lon": 0.0}, {"name": "c364afee1ee4b53aea712ca46c22e4d0", "is_disabled": 0, "lat": 38.917141, "rental_uris": {"ios": "https://dc.lft.to/lastmile_qr_scan", "android": "https://dc.lft.to/lastmile_qr_scan"}, "bike_id": "c364afee1ee4b53aea712ca46c22e4d0", "type": "electric_scooter", "lon": -77.02406116666667, "is_reserved": 0, "fusion_lat": 0.0, "fusion_lon": 0.0}, {"name": "d31e7ae2607333f86f3bd820620ae4ba", "is_disabled": 0, "lat": 38.9205935, "rental_uris": {"ios": "https://dc.lft.to/lastmile_qr_scan", "android": "https://dc.lft.to/lastmile_qr_scan"}, "bike_id": "d31e7ae2607333f86f3bd820620ae4ba", "type": "electric_scooter", "lon": -77.03395616666667, "is_reserved": 0, "fusion_lat": 0.0, "fusion_lon": 0.0}, {"name": "60160746bb90c5a2cf86bec5422eb24c", "is_disabled": 0, "lat": 38.878317833333334, "rental_uris": {"ios": "https://dc.lft.to/lastmile_qr_scan", "android": "https://dc.lft.to/lastmile_qr_scan"}, "bike_id": "60160746bb90c5a2cf86bec5422eb24c", "type": "electric_scooter", "lon": -76.963197, "is_reserved": 0, "fusion_lat": 0.0, "fusion_lon": 0.0}, {"name": "cc70de037bbb227dc5862ef5d58a2d25", "is_disabled": 0, "lat": 38.87386383333333, "rental_uris": {"ios": "https://dc.lft.to/lastmile_qr_scan", "android": "https://dc.lft.to/lastmile_qr_scan"}, "bike_id": "cc70de037bbb227dc5862ef5d58a2d25", "type": "electric_scooter", "lon": -77.000398, "is_reserved": 0, "fusion_lat": 0.0, "fusion_lon": 0.0}, {"name": "9a70712e27ae32826bdaaef3f1a57126", "is_disabled": 0, "lat": 38.94185133333333, "rental_uris": {"ios": "https://dc.lft.to/lastmile_qr_scan", "android": "https://dc.lft.to/lastmile_qr_scan"}, "bike_id": "9a70712e27ae32826bdaaef3f1a57126", "type": "electric_scooter", "lon": -77.02487583333334, "is_reserved": 0, "fusion_lat": 0.0, "fusion_lon": 0.0}, {"name": "bef53e942829dbea529413a319cbb22d", "is_disabled": 0, "lat": 38.914795833333336, "rental_uris": {"ios": "https://dc.lft.to/lastmile_qr_scan", "android": "https://dc.lft.to/lastmile_qr_scan"}, "bike_id": "bef53e942829dbea529413a319cbb22d", "type": "electric_bike", "lon": -77.02205983333333, "is_reserved": 0, "fusion_lat": 0.0, "fusion_lon": 0.0}, {"name": "d6baf5b55d0552b4f9b39cf523fc0e12", "is_disabled": 0, "lat": 38.9305215, "rental_uris": {"ios": "https://dc.lft.to/lastmile_qr_scan", "android": "https://dc.lft.to/lastmile_qr_scan"}, "bike_id": "d6baf5b55d0552b4f9b39cf523fc0e12", "type": "electric_scooter", "lon": -77.03215416666667, "is_reserved": 0, "fusion_lat": 0.0, "fusion_lon": 0.0}, {"name": "3dff996858fc89ce45ae072f01d7f431", "is_disabled": 0, "lat": 38.919164, "rental_uris": {"ios": "https://dc.lft.to/lastmile_qr_scan", "android": "https://dc.lft.to/lastmile_qr_scan"}, "bike_id": "3dff996858fc89ce45ae072f01d7f431", "type": "electric_scooter", "lon": -77.031082, "is_reserved": 0, "fusion_lat": 0.0, "fusion_lon": 0.0}, {"name": "67824fcb3e36b163e2e32df2d8ab5c09", "is_disabled": 0, "lat": 38.90248783333333, "rental_uris": {"ios": "https://dc.lft.to/lastmile_qr_scan", "android": "https://dc.lft.to/lastmile_qr_scan"}, "bike_id": "67824fcb3e36b163e2e32df2d8ab5c09", "type": "electric_scooter", "lon": -77.0388725, "is_reserved": 0, "fusion_lat": 0.0, "fusion_lon": 0.0}, {"name": "367cc3e8bdf8fe8153d6df6ae9a8e867", "is_disabled": 0, "lat": 38.9069135, "rental_uris": {"ios": "https://dc.lft.to/lastmile_qr_scan", "android": "https://dc.lft.to/lastmile_qr_scan"}, "bike_id": "367cc3e8bdf8fe8153d6df6ae9a8e867", "type": "electric_scooter", "lon": -77.041572, "is_reserved": 0, "fusion_lat": 0.0, "fusion_lon": 0.0}, {"name": "9430386ed23ed5dacb0ad130e915fa8b", "is_disabled": 0, "lat": 38.8707655, "rental_uris": {"ios": "https://dc.lft.to/lastmile_qr_scan", "android": "https://dc.lft.to/lastmile_qr_scan"}, "bike_id": "9430386ed23ed5dacb0ad130e915fa8b", "type": "electric_scooter", "lon": -76.97582766666666, "is_reserved": 0, "fusion_lat": 0.0, "fusion_lon": 0.0}, {"name": "dd331f1e0162f9a741164bcea5328f2d", "is_disabled": 0, "lat": 38.940777833333335, "rental_uris": {"ios": "https://dc.lft.to/lastmile_qr_scan", "android": "https://dc.lft.to/lastmile_qr_scan"}, "bike_id": "dd331f1e0162f9a741164bcea5328f2d", "type": "electric_scooter", "lon": -77.02639433333333, "is_reserved": 0, "fusion_lat": 0.0, "fusion_lon": 0.0}, {"name": "3689388e2e146874f02f8617dc6ef3fa", "is_disabled": 0, "lat": 38.91486066666667, "rental_uris": {"ios": "https://dc.lft.to/lastmile_qr_scan", "android": "https://dc.lft.to/lastmile_qr_scan"}, "bike_id": "3689388e2e146874f02f8617dc6ef3fa", "type": "electric_scooter", "lon": -77.04245733333333, "is_reserved": 0, "fusion_lat": 0.0, "fusion_lon": 0.0}, {"name": "d171fe43009cb3acd68ce274d194b377", "is_disabled": 0, "lat": 38.892209666666666, "rental_uris": {"ios": "https://dc.lft.to/lastmile_qr_scan", "android": "https://dc.lft.to/lastmile_qr_scan"}, "bike_id": "d171fe43009cb3acd68ce274d194b377", "type": "electric_scooter", "lon": -77.03983083333334, "is_reserved": 0, "fusion_lat": 0.0, "fusion_lon": 0.0}, {"name": "d31ecf6b214b8eb15018e53bcc4fa211", "is_disabled": 0, "lat": 38.925884833333335, "rental_uris": {"ios": "https://dc.lft.to/lastmile_qr_scan", "android": "https://dc.lft.to/lastmile_qr_scan"}, "bike_id": "d31ecf6b214b8eb15018e53bcc4fa211", "type": "electric_scooter", "lon": -77.05300466666667, "is_reserved": 0, "fusion_lat": 0.0, "fusion_lon": 0.0}, {"name": "da92c4ba3d9363897b4aeb22ef87a96e", "is_disabled": 0, "lat": 38.905658333333335, "rental_uris": {"ios": "https://dc.lft.to/lastmile_qr_scan", "android": "https://dc.lft.to/lastmile_qr_scan"}, "bike_id": "da92c4ba3d9363897b4aeb22ef87a96e", "type": "electric_scooter", "lon": -77.00583966666666, "is_reserved": 0, "fusion_lat": 0.0, "fusion_lon": 0.0}, {"name": "c5cf8d4b0ef3e791519d40983a35065e", "is_disabled": 0, "lat": 39.07070866666667, "rental_uris": {"ios": "https://dc.lft.to/lastmile_qr_scan", "android": "https://dc.lft.to/lastmile_qr_scan"}, "bike_id": "c5cf8d4b0ef3e791519d40983a35065e", "type": "electric_bike", "lon": -77.11519416666667, "is_reserved": 0, "fusion_lat": 0.0, "fusion_lon": 0.0}, {"name": "4bc3f429b2537006dee8b033e7ccda4c", "is_disabled": 0, "lat": 38.90577666666667, "rental_uris": {"ios": "https://dc.lft.to/lastmile_qr_scan", "android": "https://dc.lft.to/lastmile_qr_scan"}, "bike_id": "4bc3f429b2537006dee8b033e7ccda4c", "type": "electric_scooter", "lon": -77.00892466666667, "is_reserved": 0, "fusion_lat": 0.0, "fusion_lon": 0.0}, {"name": "5f56eccb15a22d59506fe5ac6e657768", "is_disabled": 0, "lat": 38.91237566666667, "rental_uris": {"ios": "https://dc.lft.to/lastmile_qr_scan", "android": "https://dc.lft.to/lastmile_qr_scan"}, "bike_id": "5f56eccb15a22d59506fe5ac6e657768", "type": "electric_scooter", "lon": -77.04887166666667, "is_reserved": 0, "fusion_lat": 0.0, "fusion_lon": 0.0}, {"name": "174489f7fd80df759deda3de81311f6e", "is_disabled": 0, "lat": 38.905117833333335, "rental_uris": {"ios": "https://dc.lft.to/lastmile_qr_scan", "android": "https://dc.lft.to/lastmile_qr_scan"}, "bike_id": "174489f7fd80df759deda3de81311f6e", "type": "electric_scooter", "lon": -77.06349833333333, "is_reserved": 0, "fusion_lat": 0.0, "fusion_lon": 0.0}, {"name": "8320de64b2b1873d7b5913235d0b8f6b", "is_disabled": 0, "lat": 38.92463016666667, "rental_uris": {"ios": "https://dc.lft.to/lastmile_qr_scan", "android": "https://dc.lft.to/lastmile_qr_scan"}, "bike_id": "8320de64b2b1873d7b5913235d0b8f6b", "type": "electric_scooter", "lon": -77.02214533333333, "is_reserved": 0, "fusion_lat": 0.0, "fusion_lon": 0.0}, {"name": "d26b7fd89bcdddad81209b224b65d086", "is_disabled": 0, "lat": 38.932446166666665, "rental_uris": {"ios": "https://dc.lft.to/lastmile_qr_scan", "android": "https://dc.lft.to/lastmile_qr_scan"}, "bike_id": "d26b7fd89bcdddad81209b224b65d086", "type": "electric_scooter", "lon": -76.99527766666667, "is_reserved": 0, "fusion_lat": 0.0, "fusion_lon": 0.0}, {"name": "1785b3aef99250c8b8d4b2e8e0251b46", "is_disabled": 0, "lat": 38.9157965, "rental_uris": {"ios": "https://dc.lft.to/lastmile_qr_scan", "android": "https://dc.lft.to/lastmile_qr_scan"}, "bike_id": "1785b3aef99250c8b8d4b2e8e0251b46", "type": "electric_scooter", "lon": -77.01233216666667, "is_reserved": 0, "fusion_lat": 0.0, "fusion_lon": 0.0}, {"name": "1af265dee268c16308e161dd143137ba", "is_disabled": 0, "lat": 38.899555666666664, "rental_uris": {"ios": "https://dc.lft.to/lastmile_qr_scan", "android": "https://dc.lft.to/lastmile_qr_scan"}, "bike_id": "1af265dee268c16308e161dd143137ba", "type": "electric_scooter", "lon": -77.0139885, "is_reserved": 0, "fusion_lat": 0.0, "fusion_lon": 0.0}, {"name": "1019698e0c7a039601314e58fd22d7fa", "is_disabled": 0, "lat": 38.89894833333334, "rental_uris": {"ios": "https://dc.lft.to/lastmile_qr_scan", "android": "https://dc.lft.to/lastmile_qr_scan"}, "bike_id": "1019698e0c7a039601314e58fd22d7fa", "type": "electric_scooter", "lon": -76.98065666666666, "is_reserved": 0, "fusion_lat": 0.0, "fusion_lon": 0.0}, {"name": "63d69c547fcce9ea8f945082f043e5dd", "is_disabled": 0, "lat": 38.923197333333334, "rental_uris": {"ios": "https://dc.lft.to/lastmile_qr_scan", "android": "https://dc.lft.to/lastmile_qr_scan"}, "bike_id": "63d69c547fcce9ea8f945082f043e5dd", "type": "electric_scooter", "lon": -77.0340245, "is_reserved": 0, "fusion_lat": 0.0, "fusion_lon": 0.0}, {"name": "d73c9f5eacb742b073ec6219bb7653d9", "is_disabled": 0, "lat": 38.89606333333333, "rental_uris": {"ios": "https://dc.lft.to/lastmile_qr_scan", "android": "https://dc.lft.to/lastmile_qr_scan"}, "bike_id": "d73c9f5eacb742b073ec6219bb7653d9", "type": "electric_scooter", "lon": -77.026837, "is_reserved": 0, "fusion_lat": 0.0, "fusion_lon": 0.0}, {"name": "49742f7cc23ee4caada72ff5549a1b03", "is_disabled": 0, "lat": 38.90229466666667, "rental_uris": {"ios": "https://dc.lft.to/lastmile_qr_scan", "android": "https://dc.lft.to/lastmile_qr_scan"}, "bike_id": "49742f7cc23ee4caada72ff5549a1b03", "type": "electric_scooter", "lon": -77.06147283333334, "is_reserved": 0, "fusion_lat": 0.0, "fusion_lon": 0.0}, {"name": "d9174c87f5e73b8c20584a9d83af4c1b", "is_disabled": 0, "lat": 38.899055, "rental_uris": {"ios": "https://dc.lft.to/lastmile_qr_scan", "android": "https://dc.lft.to/lastmile_qr_scan"}, "bike_id": "d9174c87f5e73b8c20584a9d83af4c1b", "type": "electric_scooter", "lon": -76.945566, "is_reserved": 0, "fusion_lat": 0.0, "fusion_lon": 0.0}, {"name": "6be2a5a7b2abb00c045b5a095b4d623b", "is_disabled": 0, "lat": 38.914015666666664, "rental_uris": {"ios": "https://dc.lft.to/lastmile_qr_scan", "android": "https://dc.lft.to/lastmile_qr_scan"}, "bike_id": "6be2a5a7b2abb00c045b5a095b4d623b", "type": "electric_scooter", "lon": -77.00846166666666, "is_reserved": 0, "fusion_lat": 0.0, "fusion_lon": 0.0}, {"name": "90fec9dbc30951b85c081eb691b66d62", "is_disabled": 0, "lat": 38.8924025, "rental_uris": {"ios": "https://dc.lft.to/lastmile_qr_scan", "android": "https://dc.lft.to/lastmile_qr_scan"}, "bike_id": "90fec9dbc30951b85c081eb691b66d62", "type": "electric_scooter", "lon": -77.0335215, "is_reserved": 0, "fusion_lat": 0.0, "fusion_lon": 0.0}, {"name": "518595ba2c6e4254c0e9dc357deb12ba", "is_disabled": 0, "lat": 38.90727, "rental_uris": {"ios": "https://dc.lft.to/lastmile_qr_scan", "android": "https://dc.lft.to/lastmile_qr_scan"}, "bike_id": "518595ba2c6e4254c0e9dc357deb12ba", "type": "electric_scooter", "lon": -77.04168733333333, "is_reserved": 0, "fusion_lat": 0.0, "fusion_lon": 0.0}, {"name": "0e8d97eff3a12d0773410c6d541d5e12", "is_disabled": 0, "lat": 38.94737816666667, "rental_uris": {"ios": "https://dc.lft.to/lastmile_qr_scan", "android": "https://dc.lft.to/lastmile_qr_scan"}, "bike_id": "0e8d97eff3a12d0773410c6d541d5e12", "type": "electric_scooter", "lon": -77.01617666666667, "is_reserved": 0, "fusion_lat": 0.0, "fusion_lon": 0.0}, {"name": "1057baad18612a6ffa299c1a286f3b60", "is_disabled": 0, "lat": 38.9097495, "rental_uris": {"ios": "https://dc.lft.to/lastmile_qr_scan", "android": "https://dc.lft.to/lastmile_qr_scan"}, "bike_id": "1057baad18612a6ffa299c1a286f3b60", "type": "electric_scooter", "lon": -77.03213983333333, "is_reserved": 0, "fusion_lat": 0.0, "fusion_lon": 0.0}, {"name": "f495867fbd0c88c72fcde128fccd891b", "is_disabled": 0, "lat": 38.94211933333333, "rental_uris": {"ios": "https://dc.lft.to/lastmile_qr_scan", "android": "https://dc.lft.to/lastmile_qr_scan"}, "bike_id": "f495867fbd0c88c72fcde128fccd891b", "type": "electric_scooter", "lon": -76.985551, "is_reserved": 0, "fusion_lat": 0.0, "fusion_lon": 0.0}, {"name": "2049566eee0ebafe9fc65f686d29d3ea", "is_disabled": 0, "lat": 38.892214833333334, "rental_uris": {"ios": "https://dc.lft.to/lastmile_qr_scan", "android": "https://dc.lft.to/lastmile_qr_scan"}, "bike_id": "2049566eee0ebafe9fc65f686d29d3ea", "type": "electric_scooter", "lon": -77.04866566666666, "is_reserved": 0, "fusion_lat": 0.0, "fusion_lon": 0.0}, {"name": "c55eb83f93ec588b7ea33b2ba21f885e", "is_disabled": 0, "lat": 38.903614166666664, "rental_uris": {"ios": "https://dc.lft.to/lastmile_qr_scan", "android": "https://dc.lft.to/lastmile_qr_scan"}, "bike_id": "c55eb83f93ec588b7ea33b2ba21f885e", "type": "electric_scooter", "lon": -77.03849283333334, "is_reserved": 0, "fusion_lat": 0.0, "fusion_lon": 0.0}, {"name": "f9d82cd94837264f7e852db995362857", "is_disabled": 0, "lat": 38.92223633333333, "rental_uris": {"ios": "https://dc.lft.to/lastmile_qr_scan", "android": "https://dc.lft.to/lastmile_qr_scan"}, "bike_id": "f9d82cd94837264f7e852db995362857", "type": "electric_scooter", "lon": -77.04243983333333, "is_reserved": 0, "fusion_lat": 0.0, "fusion_lon": 0.0}, {"name": "8af67b76cfdcff9b2e85da65d3c99703", "is_disabled": 0, "lat": 38.9047625, "rental_uris": {"ios": "https://dc.lft.to/lastmile_qr_scan", "android": "https://dc.lft.to/lastmile_qr_scan"}, "bike_id": "8af67b76cfdcff9b2e85da65d3c99703", "type": "electric_scooter", "lon": -77.00724783333334, "is_reserved": 0, "fusion_lat": 0.0, "fusion_lon": 0.0}, {"name": "f838f8c769ea9d900c7f1138088e8bc1", "is_disabled": 0, "lat": 38.92985216666667, "rental_uris": {"ios": "https://dc.lft.to/lastmile_qr_scan", "android": "https://dc.lft.to/lastmile_qr_scan"}, "bike_id": "f838f8c769ea9d900c7f1138088e8bc1", "type": "electric_scooter", "lon": -77.03268683333333, "is_reserved": 0, "fusion_lat": 0.0, "fusion_lon": 0.0}, {"name": "f5371f30ffb38e4572b38f9f2dd8cc79", "is_disabled": 0, "lat": 38.911892, "rental_uris": {"ios": "https://dc.lft.to/lastmile_qr_scan", "android": "https://dc.lft.to/lastmile_qr_scan"}, "bike_id": "f5371f30ffb38e4572b38f9f2dd8cc79", "type": "electric_scooter", "lon": -77.04130516666666, "is_reserved": 0, "fusion_lat": 0.0, "fusion_lon": 0.0}, {"name": "00f2e094175f9c20904c7a2c2c2f4e31", "is_disabled": 0, "lat": 38.892345, "rental_uris": {"ios": "https://dc.lft.to/lastmile_qr_scan", "android": "https://dc.lft.to/lastmile_qr_scan"}, "bike_id": "00f2e094175f9c20904c7a2c2c2f4e31", "type": "electric_scooter", "lon": -77.02384566666667, "is_reserved": 0, "fusion_lat": 0.0, "fusion_lon": 0.0}, {"name": "592d309f2d2be912eaf597218bcbcfa5", "is_disabled": 0, "lat": 38.84297433333333, "rental_uris": {"ios": "https://dc.lft.to/lastmile_qr_scan", "android": "https://dc.lft.to/lastmile_qr_scan"}, "bike_id": "592d309f2d2be912eaf597218bcbcfa5", "type": "electric_bike", "lon": -77.10868766666667, "is_reserved": 0, "fusion_lat": 0.0, "fusion_lon": 0.0}, {"name": "ee1d9544a572302ebab21fef437577fa", "is_disabled": 0, "lat": 38.912957166666665, "rental_uris": {"ios": "https://dc.lft.to/lastmile_qr_scan", "android": "https://dc.lft.to/lastmile_qr_scan"}, "bike_id": "ee1d9544a572302ebab21fef437577fa", "type": "electric_scooter", "lon": -77.02232016666666, "is_reserved": 0, "fusion_lat": 0.0, "fusion_lon": 0.0}, {"name": "bb4787c57510ca1104004178b57a765e", "is_disabled": 0, "lat": 38.822189333333334, "rental_uris": {"ios": "https://dc.lft.to/lastmile_qr_scan", "android": "https://dc.lft.to/lastmile_qr_scan"}, "bike_id": "bb4787c57510ca1104004178b57a765e", "type": "electric_bike", "lon": -77.00189866666666, "is_reserved": 0, "fusion_lat": 0.0, "fusion_lon": 0.0}, {"name": "820cdc2ce52a8f92289c08697a5f7e1d", "is_disabled": 0, "lat": 38.906773333333334, "rental_uris": {"ios": "https://dc.lft.to/lastmile_qr_scan", "android": "https://dc.lft.to/lastmile_qr_scan"}, "bike_id": "820cdc2ce52a8f92289c08697a5f7e1d", "type": "electric_scooter", "lon": -77.0384275, "is_reserved": 0, "fusion_lat": 0.0, "fusion_lon": 0.0}, {"name": "4e2b9f656ff273c9aec6a4a1254e0eaa", "is_disabled": 0, "lat": 38.934813166666665, "rental_uris": {"ios": "https://dc.lft.to/lastmile_qr_scan", "android": "https://dc.lft.to/lastmile_qr_scan"}, "bike_id": "4e2b9f656ff273c9aec6a4a1254e0eaa", "type": "electric_scooter", "lon": -77.0271715, "is_reserved": 0, "fusion_lat": 0.0, "fusion_lon": 0.0}, {"name": "9588c3013d992b8831b2c827690b1661", "is_disabled": 0, "lat": 38.82785783333333, "rental_uris": {"ios": "https://dc.lft.to/lastmile_qr_scan", "android": "https://dc.lft.to/lastmile_qr_scan"}, "bike_id": "9588c3013d992b8831b2c827690b1661", "type": "electric_bike", "lon": -77.12486833333334, "is_reserved": 0, "fusion_lat": 0.0, "fusion_lon": 0.0}, {"name": "38a01f86bf2a21a714189a4af4df464c", "is_disabled": 0, "lat": 38.8449565, "rental_uris": {"ios": "https://dc.lft.to/lastmile_qr_scan", "android": "https://dc.lft.to/lastmile_qr_scan"}, "bike_id": "38a01f86bf2a21a714189a4af4df464c", "type": "electric_scooter", "lon": -76.99597966666667, "is_reserved": 0, "fusion_lat": 0.0, "fusion_lon": 0.0}, {"name": "5cdff7b8454afd4a236c650ae178f4bd", "is_disabled": 0, "lat": 38.9396515, "rental_uris": {"ios": "https://dc.lft.to/lastmile_qr_scan", "android": "https://dc.lft.to/lastmile_qr_scan"}, "bike_id": "5cdff7b8454afd4a236c650ae178f4bd", "type": "electric_scooter", "lon": -77.03285833333334, "is_reserved": 0, "fusion_lat": 0.0, "fusion_lon": 0.0}, {"name": "10df21107e8a4bbb30eca8bb3fd810b3", "is_disabled": 0, "lat": 38.92141383333333, "rental_uris": {"ios": "https://dc.lft.to/lastmile_qr_scan", "android": "https://dc.lft.to/lastmile_qr_scan"}, "bike_id": "10df21107e8a4bbb30eca8bb3fd810b3", "type": "electric_scooter", "lon": -77.01221366666667, "is_reserved": 0, "fusion_lat": 0.0, "fusion_lon": 0.0}, {"name": "85e95888f21b15daa21a7174b7c92a46", "is_disabled": 0, "lat": 38.88765716666666, "rental_uris": {"ios": "https://dc.lft.to/lastmile_qr_scan", "android": "https://dc.lft.to/lastmile_qr_scan"}, "bike_id": "85e95888f21b15daa21a7174b7c92a46", "type": "electric_scooter", "lon": -77.01304766666667, "is_reserved": 0, "fusion_lat": 0.0, "fusion_lon": 0.0}, {"name": "2c14f3f2f6422228a35645b48e7de67e", "is_disabled": 0, "lat": 38.87397966666666, "rental_uris": {"ios": "https://dc.lft.to/lastmile_qr_scan", "android": "https://dc.lft.to/lastmile_qr_scan"}, "bike_id": "2c14f3f2f6422228a35645b48e7de67e", "type": "electric_scooter", "lon": -77.01456316666666, "is_reserved": 0, "fusion_lat": 0.0, "fusion_lon": 0.0}, {"name": "8f9acc4e74b144056e0349beb507a1a2", "is_disabled": 0, "lat": 38.893108166666664, "rental_uris": {"ios": "https://dc.lft.to/lastmile_qr_scan", "android": "https://dc.lft.to/lastmile_qr_scan"}, "bike_id": "8f9acc4e74b144056e0349beb507a1a2", "type": "electric_bike", "lon": -76.9509005, "is_reserved": 0, "fusion_lat": 0.0, "fusion_lon": 0.0}, {"name": "878c7f5a571bf7bfbd0bbb22d222a631", "is_disabled": 0, "lat": 38.900167833333334, "rental_uris": {"ios": "https://dc.lft.to/lastmile_qr_scan", "android": "https://dc.lft.to/lastmile_qr_scan"}, "bike_id": "878c7f5a571bf7bfbd0bbb22d222a631", "type": "electric_scooter", "lon": -76.99978766666666, "is_reserved": 0, "fusion_lat": 0.0, "fusion_lon": 0.0}, {"name": "e067bcfef1946e5de9ba7921702ec4b4", "is_disabled": 0, "lat": 38.92691533333333, "rental_uris": {"ios": "https://dc.lft.to/lastmile_qr_scan", "android": "https://dc.lft.to/lastmile_qr_scan"}, "bike_id": "e067bcfef1946e5de9ba7921702ec4b4", "type": "electric_scooter", "lon": -77.02184233333334, "is_reserved": 0, "fusion_lat": 0.0, "fusion_lon": 0.0}, {"name": "2e0022853121bf723581611c8b85b818", "is_disabled": 0, "lat": 38.91111183333334, "rental_uris": {"ios": "https://dc.lft.to/lastmile_qr_scan", "android": "https://dc.lft.to/lastmile_qr_scan"}, "bike_id": "2e0022853121bf723581611c8b85b818", "type": "electric_scooter", "lon": -77.04540266666666, "is_reserved": 0, "fusion_lat": 0.0, "fusion_lon": 0.0}, {"name": "f1fff61e63a459732d486d18b4173586", "is_disabled": 0, "lat": 38.908508166666664, "rental_uris": {"ios": "https://dc.lft.to/lastmile_qr_scan", "android": "https://dc.lft.to/lastmile_qr_scan"}, "bike_id": "f1fff61e63a459732d486d18b4173586", "type": "electric_scooter", "lon": -77.027202, "is_reserved": 0, "fusion_lat": 0.0, "fusion_lon": 0.0}, {"name": "53ec9a1fd6b2649d3a0d490c94815732", "is_disabled": 0, "lat": 38.9296115, "rental_uris": {"ios": "https://dc.lft.to/lastmile_qr_scan", "android": "https://dc.lft.to/lastmile_qr_scan"}, "bike_id": "53ec9a1fd6b2649d3a0d490c94815732", "type": "electric_scooter", "lon": -77.01146716666666, "is_reserved": 0, "fusion_lat": 0.0, "fusion_lon": 0.0}, {"name": "99bdd1c210ec1c3664dcf5241e6ce0e8", "is_disabled": 0, "lat": 38.89952816666667, "rental_uris": {"ios": "https://dc.lft.to/lastmile_qr_scan", "android": "https://dc.lft.to/lastmile_qr_scan"}, "bike_id": "99bdd1c210ec1c3664dcf5241e6ce0e8", "type": "electric_scooter", "lon": -77.03926783333333, "is_reserved": 0, "fusion_lat": 0.0, "fusion_lon": 0.0}, {"name": "0a7a719a0cc726909d1608d0334dac93", "is_disabled": 0, "lat": 38.89954183333333, "rental_uris": {"ios": "https://dc.lft.to/lastmile_qr_scan", "android": "https://dc.lft.to/lastmile_qr_scan"}, "bike_id": "0a7a719a0cc726909d1608d0334dac93", "type": "electric_scooter", "lon": -77.02193833333334, "is_reserved": 0, "fusion_lat": 0.0, "fusion_lon": 0.0}, {"name": "ba5b3607bf2fa3e789a1a33aba0d12da", "is_disabled": 0, "lat": 38.89215216666667, "rental_uris": {"ios": "https://dc.lft.to/lastmile_qr_scan", "android": "https://dc.lft.to/lastmile_qr_scan"}, "bike_id": "ba5b3607bf2fa3e789a1a33aba0d12da", "type": "electric_scooter", "lon": -77.02663066666666, "is_reserved": 0, "fusion_lat": 0.0, "fusion_lon": 0.0}, {"name": "9b83a4b438d2aa43e9122de11d3c7134", "is_disabled": 0, "lat": 38.92251533333334, "rental_uris": {"ios": "https://dc.lft.to/lastmile_qr_scan", "android": "https://dc.lft.to/lastmile_qr_scan"}, "bike_id": "9b83a4b438d2aa43e9122de11d3c7134", "type": "electric_scooter", "lon": -77.0425265, "is_reserved": 0, "fusion_lat": 0.0, "fusion_lon": 0.0}, {"name": "f41aaf69266b815bdf67d16782f2546c", "is_disabled": 0, "lat": 38.899316, "rental_uris": {"ios": "https://dc.lft.to/lastmile_qr_scan", "android": "https://dc.lft.to/lastmile_qr_scan"}, "bike_id": "f41aaf69266b815bdf67d16782f2546c", "type": "electric_scooter", "lon": -77.012784, "is_reserved": 0, "fusion_lat": 0.0, "fusion_lon": 0.0}, {"name": "5fee13825c216208c04bfd73a06eb4dd", "is_disabled": 0, "lat": 38.91776183333333, "rental_uris": {"ios": "https://dc.lft.to/lastmile_qr_scan", "android": "https://dc.lft.to/lastmile_qr_scan"}, "bike_id": "5fee13825c216208c04bfd73a06eb4dd", "type": "electric_scooter", "lon": -77.03857516666666, "is_reserved": 0, "fusion_lat": 0.0, "fusion_lon": 0.0}, {"name": "8d526fa683eefb97d19ea8ae54101db9", "is_disabled": 0, "lat": 38.874821, "rental_uris": {"ios": "https://dc.lft.to/lastmile_qr_scan", "android": "https://dc.lft.to/lastmile_qr_scan"}, "bike_id": "8d526fa683eefb97d19ea8ae54101db9", "type": "electric_scooter", "lon": -77.0002575, "is_reserved": 0, "fusion_lat": 0.0, "fusion_lon": 0.0}, {"name": "7b2e79b1acbea85f84e4c4ac6470e3e7", "is_disabled": 0, "lat": 38.900155166666664, "rental_uris": {"ios": "https://dc.lft.to/lastmile_qr_scan", "android": "https://dc.lft.to/lastmile_qr_scan"}, "bike_id": "7b2e79b1acbea85f84e4c4ac6470e3e7", "type": "electric_scooter", "lon": -77.00064533333334, "is_reserved": 0, "fusion_lat": 0.0, "fusion_lon": 0.0}, {"name": "629a09ebf073196a23f654652de1379e", "is_disabled": 0, "lat": 38.9095455, "rental_uris": {"ios": "https://dc.lft.to/lastmile_qr_scan", "android": "https://dc.lft.to/lastmile_qr_scan"}, "bike_id": "629a09ebf073196a23f654652de1379e", "type": "electric_scooter", "lon": -77.04039716666666, "is_reserved": 0, "fusion_lat": 0.0, "fusion_lon": 0.0}, {"name": "112018431414ce5f13bde65c14187ef9", "is_disabled": 0, "lat": 38.86535216666667, "rental_uris": {"ios": "https://dc.lft.to/lastmile_qr_scan", "android": "https://dc.lft.to/lastmile_qr_scan"}, "bike_id": "112018431414ce5f13bde65c14187ef9", "type": "electric_scooter", "lon": -76.987101, "is_reserved": 0, "fusion_lat": 0.0, "fusion_lon": 0.0}, {"name": "84670158d348795a3aa8bdea628734d6", "is_disabled": 0, "lat": 38.90504766666667, "rental_uris": {"ios": "https://dc.lft.to/lastmile_qr_scan", "android": "https://dc.lft.to/lastmile_qr_scan"}, "bike_id": "84670158d348795a3aa8bdea628734d6", "type": "electric_scooter", "lon": -77.04666183333333, "is_reserved": 0, "fusion_lat": 0.0, "fusion_lon": 0.0}, {"name": "4cd1e9c2e74effed13b87f37c2404095", "is_disabled": 0, "lat": 38.892209, "rental_uris": {"ios": "https://dc.lft.to/lastmile_qr_scan", "android": "https://dc.lft.to/lastmile_qr_scan"}, "bike_id": "4cd1e9c2e74effed13b87f37c2404095", "type": "electric_scooter", "lon": -77.04641666666667, "is_reserved": 0, "fusion_lat": 0.0, "fusion_lon": 0.0}, {"name": "7075a1e3b26137c6fa38f3d5ae648aa1", "is_disabled": 0, "lat": 38.93073233333333, "rental_uris": {"ios": "https://dc.lft.to/lastmile_qr_scan", "android": "https://dc.lft.to/lastmile_qr_scan"}, "bike_id": "7075a1e3b26137c6fa38f3d5ae648aa1", "type": "electric_scooter", "lon": -77.02161983333333, "is_reserved": 0, "fusion_lat": 0.0, "fusion_lon": 0.0}, {"name": "d523af3ca779606b0d4caa862bd4790e", "is_disabled": 0, "lat": 38.93448266666667, "rental_uris": {"ios": "https://dc.lft.to/lastmile_qr_scan", "android": "https://dc.lft.to/lastmile_qr_scan"}, "bike_id": "d523af3ca779606b0d4caa862bd4790e", "type": "electric_scooter", "lon": -77.02984383333333, "is_reserved": 0, "fusion_lat": 0.0, "fusion_lon": 0.0}, {"name": "4b783958290e68ef0b1cb8ec308bff31", "is_disabled": 0, "lat": 38.85084333333333, "rental_uris": {"ios": "https://dc.lft.to/lastmile_qr_scan", "android": "https://dc.lft.to/lastmile_qr_scan"}, "bike_id": "4b783958290e68ef0b1cb8ec308bff31", "type": "electric_bike", "lon": -76.95683033333333, "is_reserved": 0, "fusion_lat": 0.0, "fusion_lon": 0.0}, {"name": "fbd069782078e4217851391c06a420e8", "is_disabled": 0, "lat": 38.87821516666666, "rental_uris": {"ios": "https://dc.lft.to/lastmile_qr_scan", "android": "https://dc.lft.to/lastmile_qr_scan"}, "bike_id": "fbd069782078e4217851391c06a420e8", "type": "electric_scooter", "lon": -77.001347, "is_reserved": 0, "fusion_lat": 0.0, "fusion_lon": 0.0}, {"name": "44f38704c029f3f843321c81cf38e10c", "is_disabled": 0, "lat": 38.918438, "rental_uris": {"ios": "https://dc.lft.to/lastmile_qr_scan", "android": "https://dc.lft.to/lastmile_qr_scan"}, "bike_id": "44f38704c029f3f843321c81cf38e10c", "type": "electric_scooter", "lon": -77.040973, "is_reserved": 0, "fusion_lat": 0.0, "fusion_lon": 0.0}, {"name": "36d96bf159b934d232b0e4f347039c01", "is_disabled": 0, "lat": 38.8491075, "rental_uris": {"ios": "https://dc.lft.to/lastmile_qr_scan", "android": "https://dc.lft.to/lastmile_qr_scan"}, "bike_id": "36d96bf159b934d232b0e4f347039c01", "type": "electric_bike", "lon": -77.09981066666667, "is_reserved": 0, "fusion_lat": 0.0, "fusion_lon": 0.0}, {"name": "4fb8b0b7c249ec50c7c4302b7fa1a73a", "is_disabled": 0, "lat": 38.92619466666667, "rental_uris": {"ios": "https://dc.lft.to/lastmile_qr_scan", "android": "https://dc.lft.to/lastmile_qr_scan"}, "bike_id": "4fb8b0b7c249ec50c7c4302b7fa1a73a", "type": "electric_scooter", "lon": -77.041925, "is_reserved": 0, "fusion_lat": 0.0, "fusion_lon": 0.0}, {"name": "0cfbe71d7c133f00f565c7b7f16699bb", "is_disabled": 0, "lat": 38.887124, "rental_uris": {"ios": "https://dc.lft.to/lastmile_qr_scan", "android": "https://dc.lft.to/lastmile_qr_scan"}, "bike_id": "0cfbe71d7c133f00f565c7b7f16699bb", "type": "electric_scooter", "lon": -77.02580416666666, "is_reserved": 0, "fusion_lat": 0.0, "fusion_lon": 0.0}, {"name": "40fa9505bb1c7fdab9275293772d39b7", "is_disabled": 0, "lat": 38.931130333333336, "rental_uris": {"ios": "https://dc.lft.to/lastmile_qr_scan", "android": "https://dc.lft.to/lastmile_qr_scan"}, "bike_id": "40fa9505bb1c7fdab9275293772d39b7", "type": "electric_scooter", "lon": -77.03039183333334, "is_reserved": 0, "fusion_lat": 0.0, "fusion_lon": 0.0}, {"name": "5287704b3a8ef332d05b97f6b44fd2a3", "is_disabled": 0, "lat": 38.873787166666666, "rental_uris": {"ios": "https://dc.lft.to/lastmile_qr_scan", "android": "https://dc.lft.to/lastmile_qr_scan"}, "bike_id": "5287704b3a8ef332d05b97f6b44fd2a3", "type": "electric_scooter", "lon": -77.00165433333333, "is_reserved": 0, "fusion_lat": 0.0, "fusion_lon": 0.0}, {"name": "e37f1939b32e04c40da333f7ef564a2f", "is_disabled": 0, "lat": 38.9560265, "rental_uris": {"ios": "https://dc.lft.to/lastmile_qr_scan", "android": "https://dc.lft.to/lastmile_qr_scan"}, "bike_id": "e37f1939b32e04c40da333f7ef564a2f", "type": "electric_scooter", "lon": -77.033536, "is_reserved": 0, "fusion_lat": 0.0, "fusion_lon": 0.0},