{"data": {"bikes": [{"rental_uris": {"ios": "https://dc.lft.to/lastmile_qr_scan", "android": "https://dc.lft.to/lastmile_qr_scan"}, "lon": -77.03573116666666, "type": "electric_scooter", "fusion_lat": 0.0, "lat": 38.9076855, "name": "8ceee26bcad4de7efc356df52c55a9c7", "fusion_lon": 0.0, "bike_id": "8ceee26bcad4de7efc356df52c55a9c7", "is_disabled": 0, "is_reserved": 0}, {"rental_uris": {"ios": "https://dc.lft.to/lastmile_qr_scan", "android": "https://dc.lft.to/lastmile_qr_scan"}, "lon": -76.9535805, "type": "electric_bike", "fusion_lat": 0.0, "lat": 38.93954216666667, "name": "62654432b9529b1a762f52e6ee009767", "fusion_lon": 0.0, "bike_id": "62654432b9529b1a762f52e6ee009767", "is_disabled": 0, "is_reserved": 0}, {"rental_uris": {"ios": "https://dc.lft.to/lastmile_qr_scan", "android": "https://dc.lft.to/lastmile_qr_scan"}, "lon": -77.0019305, "type": "electric_scooter", "fusion_lat": 0.0, "lat": 38.900344, "name": "f521e170663a131b8aa0d2668adb92f5", "fusion_lon": 0.0, "bike_id": "f521e170663a131b8aa0d2668adb92f5", "is_disabled": 0, "is_reserved": 0}, {"rental_uris": {"ios": "https://dc.lft.to/lastmile_qr_scan", "android": "https://dc.lft.to/lastmile_qr_scan"}, "lon": -77.0326215, "type": "electric_scooter", "fusion_lat": 0.0, "lat": 38.927401833333334, "name": "8cdd74ed1de753888377567536928713", "fusion_lon": 0.0, "bike_id": "8cdd74ed1de753888377567536928713", "is_disabled": 0, "is_reserved": 0}, {"rental_uris": {"ios": "https://dc.lft.to/lastmile_qr_scan", "android": "https://dc.lft.to/lastmile_qr_scan"}, "lon": -77.04418533333333, "type": "electric_scooter", "fusion_lat": 0.0, "lat": 38.92230766666667, "name": "ff9aed84ed3b241591150a6866f56b23", "fusion_lon": 0.0, "bike_id": "ff9aed84ed3b241591150a6866f56b23", "is_disabled": 0, "is_reserved": 0}, {"rental_uris": {"ios": "https://dc.lft.to/lastmile_qr_scan", "android": "https://dc.lft.to/lastmile_qr_scan"}, "lon": -76.98901733333334, "type": "electric_scooter", "fusion_lat": 0.0, "lat": 38.86692883333333, "name": "a27fc04a923ff2474003bc5181d101f7", "fusion_lon": 0.0, "bike_id": "a27fc04a923ff2474003bc5181d101f7", "is_disabled": 0, "is_reserved": 0}, {"rental_uris": {"ios": "https://dc.lft.to/lastmile_qr_scan", "android": "https://dc.lft.to/lastmile_qr_scan"}, "lon": -77.04306616666666, "type": "electric_bike", "fusion_lat": 0.0, "lat": 39.054483, "name": "eade79c4d86900f27b96167582b55af4", "fusion_lon": 0.0, "bike_id": "eade79c4d86900f27b96167582b55af4", "is_disabled": 0, "is_reserved": 0}, {"rental_uris": {"ios": "https://dc.lft.to/lastmile_qr_scan", "android": "https://dc.lft.to/lastmile_qr_scan"}, "lon": -77.03489833333333, "type": "electric_scooter", "fusion_lat": 0.0, "lat": 38.91928033333333, "name": "39fe4f431c2c5ec52be21cc60ebebcbc", "fusion_lon": 0.0, "bike_id": "39fe4f431c2c5ec52be21cc60ebebcbc", "is_disabled": 0, "is_reserved": 0}, {"rental_uris": {"ios": "https://dc.lft.to/lastmile_qr_scan", "android": "https://dc.lft.to/lastmile_qr_scan"}, "lon": -77.17843833333333, "type": "electric_bike", "fusion_lat": 0.0, "lat": 39.088596333333335, "name": "c3ca08c62683a739688cd4697a19c37c", "fusion_lon": 0.0, "bike_id": "c3ca08c62683a739688cd4697a19c37c", "is_disabled": 0, "is_reserved": 0}, {"rental_uris": {"ios": "https://dc.lft.to/lastmile_qr_scan", "android": "https://dc.lft.to/lastmile_qr_scan"}, "lon": -77.03323766666666, "type": "electric_scooter", "fusion_lat": 0.0, "lat": 38.91913383333333, "name": "c98de89bafb62340aef72c580d511503", "fusion_lon": 0.0, "bike_id": "c98de89bafb62340aef72c580d511503", "is_disabled": 0, "is_reserved": 0}, {"rental_uris": {"ios": "https://dc.lft.to/lastmile_qr_scan", "android": "https://dc.lft.to/lastmile_qr_scan"}, "lon": -77.027054, "type": "electric_scooter", "fusion_lat": 0.0, "lat": 38.950024166666665, "name": "f7323798c96317012806d2d0b6ae728c", "fusion_lon": 0.0, "bike_id": "f7323798c96317012806d2d0b6ae728c", "is_disabled": 0, "is_reserved": 0}, {"rental_uris": {"ios": "https://dc.lft.to/lastmile_qr_scan", "android": "https://dc.lft.to/lastmile_qr_scan"}, "lon": -76.94795833333333, "type": "electric_scooter", "fusion_lat": 0.0, "lat": 38.89632866666667, "name": "8fd4c65929f06fb7d110af59558047f8", "fusion_lon": 0.0, "bike_id": "8fd4c65929f06fb7d110af59558047f8", "is_disabled": 0, "is_reserved": 0}, {"rental_uris": {"ios": "https://dc.lft.to/lastmile_qr_scan", "android": "https://dc.lft.to/lastmile_qr_scan"}, "lon": -77.02980416666666, "type": "electric_scooter", "fusion_lat": 0.0, "lat": 38.96232933333334, "name": "84aa2f45846d9e8f2c8782516fe4d463", "fusion_lon": 0.0, "bike_id": "84aa2f45846d9e8f2c8782516fe4d463", "is_disabled": 0, "is_reserved": 0}, {"rental_uris": {"ios": "https://dc.lft.to/lastmile_qr_scan", "android": "https://dc.lft.to/lastmile_qr_scan"}, "lon": -77.00140266666666, "type": "electric_scooter", "fusion_lat": 0.0, "lat": 38.90411566666667, "name": "60dd7916a1707384201aa36d89d303f4", "fusion_lon": 0.0, "bike_id": "60dd7916a1707384201aa36d89d303f4", "is_disabled": 0, "is_reserved": 0}, {"rental_uris": {"ios": "https://dc.lft.to/lastmile_qr_scan", "android": "https://dc.lft.to/lastmile_qr_scan"}, "lon": -77.10343983333334, "type": "electric_bike", "fusion_lat": 0.0, "lat": 38.852244666666664, "name": "2e0eae6ac534f73cceda870a5c557c95", "fusion_lon": 0.0, "bike_id": "2e0eae6ac534f73cceda870a5c557c95", "is_disabled": 0, "is_reserved": 0}, {"rental_uris": {"ios": "https://dc.lft.to/lastmile_qr_scan", "android": "https://dc.lft.to/lastmile_qr_scan"}, "lon": -77.00883083333333, "type": "electric_scooter", "fusion_lat": 0.0, "lat": 38.914019833333334, "name": "589b89a68b6c211ef39774dbb0dd91a2", "fusion_lon": 0.0, "bike_id": "589b89a68b6c211ef39774dbb0dd91a2", "is_disabled": 0, "is_reserved": 0}, {"rental_uris": {"ios": "https://dc.lft.to/lastmile_qr_scan", "android": "https://dc.lft.to/lastmile_qr_scan"}, "lon": -77.0366165, "type": "electric_scooter", "fusion_lat": 0.0, "lat": 38.9130715, "name": "9e681e6b9a9e830c4d6b8fd0480cb54a", "fusion_lon": 0.0, "bike_id": "9e681e6b9a9e830c4d6b8fd0480cb54a", "is_disabled": 0, "is_reserved": 0}, {"rental_uris": {"ios": "https://dc.lft.to/lastmile_qr_scan", "android": "https://dc.lft.to/lastmile_qr_scan"}, "lon": -77.05502383333334, "type": "electric_scooter", "fusion_lat": 0.0, "lat": 38.899877333333336, "name": "96d52a160e7453d38b69599f7b1807a4", "fusion_lon": 0.0, "bike_id": "96d52a160e7453d38b69599f7b1807a4", "is_disabled": 0, "is_reserved": 0}, {"rental_uris": {"ios": "https://dc.lft.to/lastmile_qr_scan", "android": "https://dc.lft.to/lastmile_qr_scan"}, "lon": -77.04544833333334, "type": "electric_scooter", "fusion_lat": 0.0, "lat": 38.89477216666667, "name": "c7be1fdf4be62643324311e0e1c69577", "fusion_lon": 0.0, "bike_id": "c7be1fdf4be62643324311e0e1c69577", "is_disabled": 0, "is_reserved": 0}, {"rental_uris": {"ios": "https://dc.lft.to/lastmile_qr_scan", "android": "https://dc.lft.to/lastmile_qr_scan"}, "lon": -77.02701433333333, "type": "electric_scooter", "fusion_lat": 0.0, "lat": 38.9094155, "name": "0d9fe1671d057655e3a32408e75aaef8", "fusion_lon": 0.0, "bike_id": "0d9fe1671d057655e3a32408e75aaef8", "is_disabled": 0, "is_reserved": 0}, {"rental_uris": {"ios": "https://dc.lft.to/lastmile_qr_scan", "android": "https://dc.lft.to/lastmile_qr_scan"}, "lon": -77.03194933333333, "type": "electric_scooter", "fusion_lat": 0.0, "lat": 38.89838833333334, "name": "ec8561c3fb74b4925236e4424b083515", "fusion_lon": 0.0, "bike_id": "ec8561c3fb74b4925236e4424b083515", "is_disabled": 0, "is_reserved": 0}, {"rental_uris": {"ios": "https://dc.lft.to/lastmile_qr_scan", "android": "https://dc.lft.to/lastmile_qr_scan"}, "lon": -76.983582, "type": "electric_scooter", "fusion_lat": 0.0, "lat": 38.91536933333333, "name": "611f905c0596a5e8d7188911b2de7185", "fusion_lon": 0.0, "bike_id": "611f905c0596a5e8d7188911b2de7185", "is_disabled": 0, "is_reserved": 0}, {"rental_uris": {"ios": "https://dc.lft.to/lastmile_qr_scan", "android": "https://dc.lft.to/lastmile_qr_scan"}, "lon": -77.02719966666666, "type": "electric_scooter", "fusion_lat": 0.0, "lat": 38.906776, "name": "e11aad141c92cb298365a550f7a71c15", "fusion_lon": 0.0, "bike_id": "e11aad141c92cb298365a550f7a71c15", "is_disabled": 0, "is_reserved": 0}, {"rental_uris": {"ios": "https://dc.lft.to/lastmile_qr_scan", "android": "https://dc.lft.to/lastmile_qr_scan"}, "lon": -77.0320335, "type": "electric_scooter", "fusion_lat": 0.0, "lat": 38.90036383333333, "name": "fd0b96d4070b7eb39241cfcbac86e582", "fusion_lon": 0.0, "bike_id": "fd0b96d4070b7eb39241cfcbac86e582", "is_disabled": 0, "is_reserved": 0}, {"rental_uris": {"ios": "https://dc.lft.to/lastmile_qr_scan", "android": "https://dc.lft.to/lastmile_qr_scan"}, "lon": -77.02648033333334, "type": "electric_scooter", "fusion_lat": 0.0, "lat": 38.881189666666664, "name": "431ad8b3fabb54065b4339f944e9f06f", "fusion_lon": 0.0, "bike_id": "431ad8b3fabb54065b4339f944e9f06f", "is_disabled": 0, "is_reserved": 0}, {"rental_uris": {"ios": "https://dc.lft.to/lastmile_qr_scan", "android": "https://dc.lft.to/lastmile_qr_scan"}, "lon": -77.028449, "type": "electric_scooter", "fusion_lat": 0.0, "lat": 38.934516333333335, "name": "cdcec50d5c9ad422fbf5608ed996f4ab", "fusion_lon": 0.0, "bike_id": "cdcec50d5c9ad422fbf5608ed996f4ab", "is_disabled": 0, "is_reserved": 0}, {"rental_uris": {"ios": "https://dc.lft.to/lastmile_qr_scan", "android": "https://dc.lft.to/lastmile_qr_scan"}, "lon": -77.07306, "type": "electric_scooter", "fusion_lat": 0.0, "lat": 38.936130666666664, "name": "caab1feaf2108f3c019141f2601deea1", "fusion_lon": 0.0, "bike_id": "caab1feaf2108f3c019141f2601deea1", "is_disabled": 0, "is_reserved": 0}, {"rental_uris": {"ios": "https://dc.lft.to/lastmile_qr_scan", "android": "https://dc.lft.to/lastmile_qr_scan"}, "lon": -77.0067745, "type": "electric_scooter", "fusion_lat": 0.0, "lat": 38.87635266666667, "name": "08478b75a8409caf86a223c5e0d34e19", "fusion_lon": 0.0, "bike_id": "08478b75a8409caf86a223c5e0d34e19", "is_disabled": 0, "is_reserved": 0}, {"rental_uris": {"ios": "https://dc.lft.to/lastmile_qr_scan", "android": "https://dc.lft.to/lastmile_qr_scan"}, "lon": -76.99063966666667, "type": "electric_scooter", "fusion_lat": 0.0, "lat": 38.863574166666666, "name": "732d1b550d958e3e4088cb0cb24a6c47", "fusion_lon": 0.0, "bike_id": "732d1b550d958e3e4088cb0cb24a6c47", "is_disabled": 0, "is_reserved": 0}, {"rental_uris": {"ios": "https://dc.lft.to/lastmile_qr_scan", "android": "https://dc.lft.to/lastmile_qr_scan"}, "lon": -77.03307516666666, "type": "electric_scooter", "fusion_lat": 0.0, "lat": 38.90909633333333, "name": "dec16a8c904f2deedb1f2c12232c5aaf", "fusion_lon": 0.0, "bike_id": "dec16a8c904f2deedb1f2c12232c5aaf", "is_disabled": 0, "is_reserved": 0}, {"rental_uris": {"ios": "https://dc.lft.to/lastmile_qr_scan", "android": "https://dc.lft.to/lastmile_qr_scan"}, "lon": -77.038536, "type": "electric_scooter", "fusion_lat": 0.0, "lat": 38.92644333333333, "name": "179823d3a718487bd17a0d8ec54efaf3", "fusion_lon": 0.0, "bike_id": "179823d3a718487bd17a0d8ec54efaf3", "is_disabled": 0, "is_reserved": 0}, {"rental_uris": {"ios": "https://dc.lft.to/lastmile_qr_scan", "android": "https://dc.lft.to/lastmile_qr_scan"}, "lon": -76.9759695, "type": "electric_scooter", "fusion_lat": 0.0, "lat": 38.90333483333333, "name": "d785f7b11114f5878ba59232d18beafb", "fusion_lon": 0.0, "bike_id": "d785f7b11114f5878ba59232d18beafb", "is_disabled": 0, "is_reserved": 0}, {"rental_uris": {"ios": "https://dc.lft.to/lastmile_qr_scan", "android": "https://dc.lft.to/lastmile_qr_scan"}, "lon": -76.946211, "type": "electric_bike", "fusion_lat": 0.0, "lat": 38.832394666666666, "name": "801957b13fa7a5133214a5437de765ab", "fusion_lon": 0.0, "bike_id": "801957b13fa7a5133214a5437de765ab", "is_disabled": 0, "is_reserved": 0}, {"rental_uris": {"ios": "https://dc.lft.to/lastmile_qr_scan", "android": "https://dc.lft.to/lastmile_qr_scan"}, "lon": -77.05146133333334, "type": "electric_scooter", "fusion_lat": 0.0, "lat": 38.89911383333333, "name": "24e22aaeb79ee2ffe12a8bc531801736", "fusion_lon": 0.0, "bike_id": "24e22aaeb79ee2ffe12a8bc531801736", "is_disabled": 0, "is_reserved": 0}, {"rental_uris": {"ios": "https://dc.lft.to/lastmile_qr_scan", "android": "https://dc.lft.to/lastmile_qr_scan"}, "lon": -77.00338366666666, "type": "electric_scooter", "fusion_lat": 0.0, "lat": 38.893582, "name": "97018d52f5b6ed5778f63350fbf1b972", "fusion_lon": 0.0, "bike_id": "97018d52f5b6ed5778f63350fbf1b972", "is_disabled": 0, "is_reserved": 0}, {"rental_uris": {"ios": "https://dc.lft.to/lastmile_qr_scan", "android": "https://dc.lft.to/lastmile_qr_scan"}, "lon": -77.0436425, "type": "electric_scooter", "fusion_lat": 0.0, "lat": 38.933352166666666, "name": "c7b29b22871fd6f63e65357303996ab9", "fusion_lon": 0.0, "bike_id": "c7b29b22871fd6f63e65357303996ab9", "is_disabled": 0, "is_reserved": 0}, {"rental_uris": {"ios": "https://dc.lft.to/lastmile_qr_scan", "android": "https://dc.lft.to/lastmile_qr_scan"}, "lon": -77.04188016666667, "type": "electric_scooter", "fusion_lat": 0.0, "lat": 38.911880833333335, "name": "b7debc1515762009a6be16fa05aa67d2", "fusion_lon": 0.0, "bike_id": "b7debc1515762009a6be16fa05aa67d2", "is_disabled": 0, "is_reserved": 0}, {"rental_uris": {"ios": "https://dc.lft.to/lastmile_qr_scan", "android": "https://dc.lft.to/lastmile_qr_scan"}, "lon": -77.04172766666667, "type": "electric_scooter", "fusion_lat": 0.0, "lat": 38.9026, "name": "b9dcba12e9280710ed3ad362786c7c37", "fusion_lon": 0.0, "bike_id": "b9dcba12e9280710ed3ad362786c7c37", "is_disabled": 0, "is_reserved": 0}, {"rental_uris": {"ios": "https://dc.lft.to/lastmile_qr_scan", "android": "https://dc.lft.to/lastmile_qr_scan"}, "lon": -77.0022655, "type": "electric_bike", "fusion_lat": 0.0, "lat": 38.908651, "name": "2ec02487b7e2623f5543ea0a5d27b192", "fusion_lon": 0.0, "bike_id": "2ec02487b7e2623f5543ea0a5d27b192", "is_disabled": 0, "is_reserved": 0}, {"rental_uris": {"ios": "https://dc.lft.to/lastmile_qr_scan", "android": "https://dc.lft.to/lastmile_qr_scan"}, "lon": -77.0259885, "type": "electric_scooter", "fusion_lat": 0.0, "lat": 38.88737883333334, "name": "60353e0346a273781a7eb21a0f073098", "fusion_lon": 0.0, "bike_id": "60353e0346a273781a7eb21a0f073098", "is_disabled": 0, "is_reserved": 0}, {"rental_uris": {"ios": "https://dc.lft.to/lastmile_qr_scan", "android": "https://dc.lft.to/lastmile_qr_scan"}, "lon": -77.02086716666666, "type": "electric_scooter", "fusion_lat": 0.0, "lat": 38.884965666666666, "name": "85e88bf86861b03b8c894ab706861e51", "fusion_lon": 0.0, "bike_id": "85e88bf86861b03b8c894ab706861e51", "is_disabled": 0, "is_reserved": 0}, {"rental_uris": {"ios": "https://dc.lft.to/lastmile_qr_scan", "android": "https://dc.lft.to/lastmile_qr_scan"}, "lon": -77.024064, "type": "electric_scooter", "fusion_lat": 0.0, "lat": 38.9159685, "name": "a9704903822334c1129331c5aec7bced", "fusion_lon": 0.0, "bike_id": "a9704903822334c1129331c5aec7bced", "is_disabled": 0, "is_reserved": 0}, {"rental_uris": {"ios": "https://dc.lft.to/lastmile_qr_scan", "android": "https://dc.lft.to/lastmile_qr_scan"}, "lon": -77.00194966666666, "type": "electric_scooter", "fusion_lat": 0.0, "lat": 38.9003635, "name": "d8df6134a8a736b90cfa145c041929e7", "fusion_lon": 0.0, "bike_id": "d8df6134a8a736b90cfa145c041929e7", "is_disabled": 0, "is_reserved": 0}, {"rental_uris": {"ios": "https://dc.lft.to/lastmile_qr_scan", "android": "https://dc.lft.to/lastmile_qr_scan"}, "lon": -77.00338483333333, "type": "electric_bike", "fusion_lat": 0.0, "lat": 38.91981466666667, "name": "0c1add627f3be0b4677b6b8aa2aa0504", "fusion_lon": 0.0, "bike_id": "0c1add627f3be0b4677b6b8aa2aa0504", "is_disabled": 0, "is_reserved": 0}, {"rental_uris": {"ios": "https://dc.lft.to/lastmile_qr_scan", "android": "https://dc.lft.to/lastmile_qr_scan"}, "lon": -77.01528833333333, "type": "electric_scooter", "fusion_lat": 0.0, "lat": 38.87261, "name": "131c7fb7cce59f0e8e6ce03c01004bb4", "fusion_lon": 0.0, "bike_id": "131c7fb7cce59f0e8e6ce03c01004bb4", "is_disabled": 0, "is_reserved": 0}, {"rental_uris": {"ios": "https://dc.lft.to/lastmile_qr_scan", "android": "https://dc.lft.to/lastmile_qr_scan"}, "lon": -77.03869966666667, "type": "electric_scooter", "fusion_lat": 0.0, "lat": 38.91258116666667, "name": "656dd69f63060689c6ba5cb35091dd84", "fusion_lon": 0.0, "bike_id": "656dd69f63060689c6ba5cb35091dd84", "is_disabled": 0, "is_reserved": 0}, {"rental_uris": {"ios": "https://dc.lft.to/lastmile_qr_scan", "android": "https://dc.lft.to/lastmile_qr_scan"}, "lon": -77.066727, "type": "electric_scooter", "fusion_lat": 0.0, "lat": 38.91404883333333, "name": "7c0977d027c719b7e952a691c8487d50", "fusion_lon": 0.0, "bike_id": "7c0977d027c719b7e952a691c8487d50", "is_disabled": 0, "is_reserved": 0}, {"rental_uris": {"ios": "https://dc.lft.to/lastmile_qr_scan", "android": "https://dc.lft.to/lastmile_qr_scan"}, "lon": -77.066063, "type": "electric_scooter", "fusion_lat": 0.0, "lat": 38.905244833333334, "name": "86c74f275554b04576e1bbea22e49be7", "fusion_lon": 0.0, "bike_id": "86c74f275554b04576e1bbea22e49be7", "is_disabled": 0, "is_reserved": 0}, {"rental_uris": {"ios": "https://dc.lft.to/lastmile_qr_scan", "android": "https://dc.lft.to/lastmile_qr_scan"}, "lon": -77.04394233333333, "type": "electric_scooter", "fusion_lat": 0.0, "lat": 38.91085233333333, "name": "a5741328a5fd282fde141172cc47d2b0", "fusion_lon": 0.0, "bike_id": "a5741328a5fd282fde141172cc47d2b0", "is_disabled": 0, "is_reserved": 0}, {"rental_uris": {"ios": "https://dc.lft.to/lastmile_qr_scan", "android": "https://dc.lft.to/lastmile_qr_scan"}, "lon": -77.05271166666667, "type": "electric_scooter", "fusion_lat": 0.0, "lat": 38.898403333333334, "name": "aa4e1a5c57d85ae64ee59efa899cd4d1", "fusion_lon": 0.0, "bike_id": "aa4e1a5c57d85ae64ee59efa899cd4d1", "is_disabled": 0, "is_reserved": 0}, {"rental_uris": {"ios": "https://dc.lft.to/lastmile_qr_scan", "android": "https://dc.lft.to/lastmile_qr_scan"}, "lon": -77.041426, "type": "electric_scooter", "fusion_lat": 0.0, "lat": 38.92350366666667, "name": "375f97d6bd48e8bf56c4c090e7f926df", "fusion_lon": 0.0, "bike_id": "375f97d6bd48e8bf56c4c090e7f926df", "is_disabled": 0, "is_reserved": 0}, {"rental_uris": {"ios": "https://dc.lft.to/lastmile_qr_scan", "android": "https://dc.lft.to/lastmile_qr_scan"}, "lon": -77.05003666666667, "type": "electric_scooter", "fusion_lat": 0.0, "lat": 38.89232616666666, "name": "efc28b314c62d7c1e35f3db31a31d5a0", "fusion_lon": 0.0, "bike_id": "efc28b314c62d7c1e35f3db31a31d5a0", "is_disabled": 0, "is_reserved": 0}, {"rental_uris": {"ios": "https://dc.lft.to/lastmile_qr_scan", "android": "https://dc.lft.to/lastmile_qr_scan"}, "lon": -77.01358133333333, "type": "electric_scooter", "fusion_lat": 0.0, "lat": 38.8711755, "name": "f89d17fee8a47843dbae22416765c68e", "fusion_lon": 0.0, "bike_id": "f89d17fee8a47843dbae22416765c68e", "is_disabled": 0, "is_reserved": 0}, {"rental_uris": {"ios": "https://dc.lft.to/lastmile_qr_scan", "android": "https://dc.lft.to/lastmile_qr_scan"}, "lon": -76.94929633333334, "type": "electric_scooter", "fusion_lat": 0.0, "lat": 38.894769333333336, "name": "f39f19bc74bcafd10234af0e9bc7cfa2", "fusion_lon": 0.0, "bike_id": "f39f19bc74bcafd10234af0e9bc7cfa2", "is_disabled": 0, "is_reserved": 0}, {"rental_uris": {"ios": "https://dc.lft.to/lastmile_qr_scan", "android": "https://dc.lft.to/lastmile_qr_scan"}, "lon": -77.03211583333334, "type": "electric_scooter", "fusion_lat": 0.0, "lat": 38.9201155, "name": "ab4aa472ce3d5e76fabeee42f7d61e65", "fusion_lon": 0.0, "bike_id": "ab4aa472ce3d5e76fabeee42f7d61e65", "is_disabled": 0, "is_reserved": 0}, {"rental_uris": {"ios": "https://dc.lft.to/lastmile_qr_scan", "android": "https://dc.lft.to/lastmile_qr_scan"}, "lon": -77.02327466666667, "type": "electric_scooter", "fusion_lat": 0.0, "lat": 38.893941166666664, "name": "37dcd9df1929f118338d63dd8d641ba0", "fusion_lon": 0.0, "bike_id": "37dcd9df1929f118338d63dd8d641ba0", "is_disabled": 0, "is_reserved": 0}, {"rental_uris": {"ios": "https://dc.lft.to/lastmile_qr_scan", "android": "https://dc.lft.to/lastmile_qr_scan"}, "lon": -77.013123, "type": "electric_scooter", "fusion_lat": 0.0, "lat": 38.89740233333333, "name": "cc6b0212b2d7555db9525efc24316d80", "fusion_lon": 0.0, "bike_id": "cc6b0212b2d7555db9525efc24316d80", "is_disabled": 0, "is_reserved": 0}, {"rental_uris": {"ios": "https://dc.lft.to/lastmile_qr_scan", "android": "https://dc.lft.to/lastmile_qr_scan"}, "lon": -77.0282185, "type": "electric_bike", "fusion_lat": 0.0, "lat": 38.965005, "name": "8fab2485be8dbfdd182b75a11b9f3252", "fusion_lon": 0.0, "bike_id": "8fab2485be8dbfdd182b75a11b9f3252", "is_disabled": 0, "is_reserved": 0}, {"rental_uris": {"ios": "https://dc.lft.to/lastmile_qr_scan", "android": "https://dc.lft.to/lastmile_qr_scan"}, "lon": -77.11214666666666, "type": "electric_bike", "fusion_lat": 0.0, "lat": 38.812197, "name": "ea59adcb7f31f165469ebad614b7b66a", "fusion_lon": 0.0, "bike_id": "ea59adcb7f31f165469ebad614b7b66a", "is_disabled": 0, "is_reserved": 0}, {"rental_uris": {"ios": "https://dc.lft.to/lastmile_qr_scan", "android": "https://dc.lft.to/lastmile_qr_scan"}, "lon": -77.01352016666667, "type": "electric_scooter", "fusion_lat": 0.0, "lat": 38.919911, "name": "87aa376559dcd5141a6f776b70943715", "fusion_lon": 0.0, "bike_id": "87aa376559dcd5141a6f776b70943715", "is_disabled": 0, "is_reserved": 0}, {"rental_uris": {"ios": "https://dc.lft.to/lastmile_qr_scan", "android": "https://dc.lft.to/lastmile_qr_scan"}, "lon": -77.02198966666667, "type": "electric_scooter", "fusion_lat": 0.0, "lat": 38.90833766666667, "name": "31b172b0e609466878b80c246c0e8cfe", "fusion_lon": 0.0, "bike_id": "31b172b0e609466878b80c246c0e8cfe", "is_disabled": 0, "is_reserved": 0}, {"rental_uris": {"ios": "https://dc.lft.to/lastmile_qr_scan", "android": "https://dc.lft.to/lastmile_qr_scan"}, "lon": -76.95243433333333, "type": "electric_bike", "fusion_lat": 0.0, "lat": 38.907037333333335, "name": "8459636bc8f287f9ad0e3cf6d1323a7f", "fusion_lon": 0.0, "bike_id": "8459636bc8f287f9ad0e3cf6d1323a7f", "is_disabled": 0, "is_reserved": 0}, {"rental_uris": {"ios": "https://dc.lft.to/lastmile_qr_scan", "android": "https://dc.lft.to/lastmile_qr_scan"}, "lon": -77.02199733333333, "type": "electric_scooter", "fusion_lat": 0.0, "lat": 38.93131733333333, "name": "9ee0829754afb6abbda2b4335f4b107f", "fusion_lon": 0.0, "bike_id": "9ee0829754afb6abbda2b4335f4b107f", "is_disabled": 0, "is_reserved": 0}, {"rental_uris": {"ios": "https://dc.lft.to/lastmile_qr_scan", "android": "https://dc.lft.to/lastmile_qr_scan"}, "lon": -77.02188766666667, "type": "electric_scooter", "fusion_lat": 0.0, "lat": 38.887321666666665, "name": "3dfd33e31eceaa4948ff0cde930e9d9a", "fusion_lon": 0.0, "bike_id": "3dfd33e31eceaa4948ff0cde930e9d9a", "is_disabled": 0, "is_reserved": 0}, {"rental_uris": {"ios": "https://dc.lft.to/lastmile_qr_scan", "android": "https://dc.lft.to/lastmile_qr_scan"}, "lon": -76.9807575, "type": "electric_bike", "fusion_lat": 0.0, "lat": 38.89976333333333, "name": "f6c19aee1f354128c95db334f505b671", "fusion_lon": 0.0, "bike_id": "f6c19aee1f354128c95db334f505b671", "is_disabled": 0, "is_reserved": 0}, {"rental_uris": {"ios": "https://dc.lft.to/lastmile_qr_scan", "android": "https://dc.lft.to/lastmile_qr_scan"}, "lon": -77.0726345, "type": "electric_scooter", "fusion_lat": 0.0, "lat": 38.93480683333333, "name": "55fb3c339290b20da15db716596a23b4", "fusion_lon": 0.0, "bike_id": "55fb3c339290b20da15db716596a23b4", "is_disabled": 0, "is_reserved": 0}, {"rental_uris": {"ios": "https://dc.lft.to/lastmile_qr_scan", "android": "https://dc.lft.to/lastmile_qr_scan"}, "lon": -77.04290666666667, "type": "electric_scooter", "fusion_lat": 0.0, "lat": 38.922625333333336, "name": "59d1f4114e8e496f5d25ba3c64c385e2", "fusion_lon": 0.0, "bike_id": "59d1f4114e8e496f5d25ba3c64c385e2", "is_disabled": 0, "is_reserved": 0}, {"rental_uris": {"ios": "https://dc.lft.to/lastmile_qr_scan", "android": "https://dc.lft.to/lastmile_qr_scan"}, "lon": -77.00110783333334, "type": "electric_scooter", "fusion_lat": 0.0, "lat": 38.907558, "name": "ac77ad7cd0274ecab06e01884b46eba6", "fusion_lon": 0.0, "bike_id": "ac77ad7cd0274ecab06e01884b46eba6", "is_disabled": 0, "is_reserved": 0}, {"rental_uris": {"ios": "https://dc.lft.to/lastmile_qr_scan", "android": "https://dc.lft.to/lastmile_qr_scan"}, "lon": -76.99007433333334, "type": "electric_scooter", "fusion_lat": 0.0, "lat": 38.8650915, "name": "5f31ce06c5035b68d3c40fa5840c45ca", "fusion_lon": 0.0, "bike_id": "5f31ce06c5035b68d3c40fa5840c45ca", "is_disabled": 0, "is_reserved": 0}, {"rental_uris": {"ios": "https://dc.lft.to/lastmile_qr_scan", "android": "https://dc.lft.to/lastmile_qr_scan"}, "lon": -77.04035033333334, "type": "electric_scooter", "fusion_lat": 0.0, "lat": 38.923469833333336, "name": "40c98db6eda8d44ca8ab04aae757eec1", "fusion_lon": 0.0, "bike_id": "40c98db6eda8d44ca8ab04aae757eec1", "is_disabled": 0, "is_reserved": 0}, {"rental_uris": {"ios": "https://dc.lft.to/lastmile_qr_scan", "android": "https://dc.lft.to/lastmile_qr_scan"}, "lon": -77.00259533333333, "type": "electric_scooter", "fusion_lat": 0.0, "lat": 38.9012885, "name": "41ea28796a36f3c6d02e1f5a1b3c2b16", "fusion_lon": 0.0, "bike_id": "41ea28796a36f3c6d02e1f5a1b3c2b16", "is_disabled": 0, "is_reserved": 0}, {"rental_uris": {"ios": "https://dc.lft.to/lastmile_qr_scan", "android": "https://dc.lft.to/lastmile_qr_scan"}, "lon": -76.99975816666667, "type": "electric_scooter", "fusion_lat": 0.0, "lat": 38.8383675, "name": "980cda6b464b9cc7181c1970829ce18b", "fusion_lon": 0.0, "bike_id": "980cda6b464b9cc7181c1970829ce18b", "is_disabled": 0, "is_reserved": 0}, {"rental_uris": {"ios": "https://dc.lft.to/lastmile_qr_scan", "android": "https://dc.lft.to/lastmile_qr_scan"}, "lon": -77.03417383333333, "type": "electric_scooter", "fusion_lat": 0.0, "lat": 38.91921516666667, "name": "2c9b24b1e0c03b74d322f3278d58844e", "fusion_lon": 0.0, "bike_id": "2c9b24b1e0c03b74d322f3278d58844e", "is_disabled": 0, "is_reserved": 0}, {"rental_uris": {"ios": "https://dc.lft.to/lastmile_qr_scan", "android": "https://dc.lft.to/lastmile_qr_scan"}, "lon": -77.03920316666667, "type": "electric_scooter", "fusion_lat": 0.0, "lat": 38.911098333333335, "name": "a2498c16dd30cad9e1e13424b16a0539", "fusion_lon": 0.0, "bike_id": "a2498c16dd30cad9e1e13424b16a0539", "is_disabled": 0, "is_reserved": 0}, {"rental_uris": {"ios": "https://dc.lft.to/lastmile_qr_scan", "android": "https://dc.lft.to/lastmile_qr_scan"}, "lon": -77.03463233333333, "type": "electric_scooter", "fusion_lat": 0.0, "lat": 38.909013, "name": "1b63373b43fa723422c699ec57e759aa", "fusion_lon": 0.0, "bike_id": "1b63373b43fa723422c699ec57e759aa", "is_disabled": 0, "is_reserved": 0}, {"rental_uris": {"ios": "https://dc.lft.to/lastmile_qr_scan", "android": "https://dc.lft.to/lastmile_qr_scan"}, "lon": -77.005916, "type": "electric_scooter", "fusion_lat": 0.0, "lat": 38.91566916666667, "name": "45ed52716934696bf86e67d882f0a0cd", "fusion_lon": 0.0, "bike_id": "45ed52716934696bf86e67d882f0a0cd", "is_disabled": 0, "is_reserved": 0}, {"rental_uris": {"ios": "https://dc.lft.to/lastmile_qr_scan", "android": "https://dc.lft.to/lastmile_qr_scan"}, "lon": -77.02293933333333, "type": "electric_scooter", "fusion_lat": 0.0, "lat": 38.915703666666666, "name": "4aa08fb6e5e9655ea915837cc05b861e", "fusion_lon": 0.0, "bike_id": "4aa08fb6e5e9655ea915837cc05b861e", "is_disabled": 0, "is_reserved": 0}, {"rental_uris": {"ios": "https://dc.lft.to/lastmile_qr_scan", "android": "https://dc.lft.to/lastmile_qr_scan"}, "lon": -77.222118, "type": "electric_bike", "fusion_lat": 0.0, "lat": 38.92079066666667, "name": "fdee98df4af0e5a19cc498cb6c6d0ab1", "fusion_lon": 0.0, "bike_id": "fdee98df4af0e5a19cc498cb6c6d0ab1", "is_disabled": 0, "is_reserved": 0}, {"rental_uris": {"ios": "https://dc.lft.to/lastmile_qr_scan", "android": "https://dc.lft.to/lastmile_qr_scan"}, "lon": -77.03893783333334, "type": "electric_scooter", "fusion_lat": 0.0, "lat": 38.92334366666667, "name": "976c4e94e6092fa0ea0818ada21e81bc", "fusion_lon": 0.0, "bike_id": "976c4e94e6092fa0ea0818ada21e81bc", "is_disabled": 0, "is_reserved": 0}, {"rental_uris": {"ios": "https://dc.lft.to/lastmile_qr_scan", "android": "https://dc.lft.to/lastmile_qr_scan"}, "lon": -77.0234415, "type": "electric_scooter", "fusion_lat": 0.0, "lat": 38.96206333333333, "name": "2fbba0ae0cef8552e655d90cb9644767", "fusion_lon": 0.0, "bike_id": "2fbba0ae0cef8552e655d90cb9644767", "is_disabled": 0, "is_reserved": 0}, {"rental_uris": {"ios": "https://dc.lft.to/lastmile_qr_scan", "android": "https://dc.lft.to/lastmile_qr_scan"}, "lon": -77.02959683333333, "type": "electric_scooter", "fusion_lat": 0.0, "lat": 38.907834, "name": "999d4973014b7ea3d10248d8ed6294ac", "fusion_lon": 0.0, "bike_id": "999d4973014b7ea3d10248d8ed6294ac", "is_disabled": 0, "is_reserved": 0}, {"rental_uris": {"ios": "https://dc.lft.to/lastmile_qr_scan", "android": "https://dc.lft.to/lastmile_qr_scan"}, "lon": -77.04208616666666, "type": "electric_scooter", "fusion_lat": 0.0, "lat": 38.907389333333334, "name": "857eb09bbc4bbd927a7ff1254fc31add", "fusion_lon": 0.0, "bike_id": "857eb09bbc4bbd927a7ff1254fc31add", "is_disabled": 0, "is_reserved": 0}, {"rental_uris": {"ios": "https://dc.lft.to/lastmile_qr_scan", "android": "https://dc.lft.to/lastmile_qr_scan"}, "lon": -77.02847566666667, "type": "electric_scooter", "fusion_lat": 0.0, "lat": 38.9307165, "name": "1bea0faddbec8d94231de5e8ccaf4b56", "fusion_lon": 0.0, "bike_id": "1bea0faddbec8d94231de5e8ccaf4b56", "is_disabled": 0, "is_reserved": 0}, {"rental_uris": {"ios": "https://dc.lft.to/lastmile_qr_scan", "android": "https://dc.lft.to/lastmile_qr_scan"}, "lon": -77.04387916666667, "type": "electric_scooter", "fusion_lat": 0.0, "lat": 38.929481, "name": "b508185fefad47bc3855958924a53f25", "fusion_lon": 0.0, "bike_id": "b508185fefad47bc3855958924a53f25", "is_disabled": 0, "is_reserved": 0}, {"rental_uris": {"ios": "https://dc.lft.to/lastmile_qr_scan", "android": "https://dc.lft.to/lastmile_qr_scan"}, "lon": -77.0307995, "type": "electric_scooter", "fusion_lat": 0.0, "lat": 38.92241033333333, "name": "71f82f107892c278bf690c84bd65659e", "fusion_lon": 0.0, "bike_id": "71f82f107892c278bf690c84bd65659e", "is_disabled": 0, "is_reserved": 0}, {"rental_uris": {"ios": "https://dc.lft.to/lastmile_qr_scan", "android": "https://dc.lft.to/lastmile_qr_scan"}, "lon": -77.12503, "type": "electric_bike", "fusion_lat": 0.0, "lat": 39.02424583333333, "name": "82dceb87a64d7a2955730f027e2bdd97", "fusion_lon": 0.0, "bike_id": "82dceb87a64d7a2955730f027e2bdd97", "is_disabled": 0, "is_reserved": 0}, {"rental_uris": {"ios": "https://dc.lft.to/lastmile_qr_scan", "android": "https://dc.lft.to/lastmile_qr_scan"}, "lon": -77.03010466666667, "type": "electric_scooter", "fusion_lat": 0.0, "lat": 38.9192455, "name": "3acb1d4d7e8a75bc45a02f4e03c57713", "fusion_lon": 0.0, "bike_id": "3acb1d4d7e8a75bc45a02f4e03c57713", "is_disabled": 0, "is_reserved": 0}, {"rental_uris": {"ios": "https://dc.lft.to/lastmile_qr_scan", "android": "https://dc.lft.to/lastmile_qr_scan"}, "lon": -76.98907416666667, "type": "electric_scooter", "fusion_lat": 0.0, "lat": 38.866971666666664, "name": "cef8f4985a3fd303de2605590b5a38a9", "fusion_lon": 0.0, "bike_id": "cef8f4985a3fd303de2605590b5a38a9", "is_disabled": 0, "is_reserved": 0}, {"rental_uris": {"ios": "https://dc.lft.to/lastmile_qr_scan", "android": "https://dc.lft.to/lastmile_qr_scan"}, "lon": -76.99517533333334, "type": "electric_scooter", "fusion_lat": 0.0, "lat": 38.883704333333334, "name": "4319f55516f38cf21f6e206fcff19b55", "fusion_lon": 0.0, "bike_id": "4319f55516f38cf21f6e206fcff19b55", "is_disabled": 0, "is_reserved": 0}, {"rental_uris": {"ios": "https://dc.lft.to/lastmile_qr_scan", "android": "https://dc.lft.to/lastmile_qr_scan"}, "lon": -76.92714883333333, "type": "electric_scooter", "fusion_lat": 0.0, "lat": 38.88769966666667, "name": "ba1b64a0dbd16cfded30aa9bf8eed94a", "fusion_lon": 0.0, "bike_id": "ba1b64a0dbd16cfded30aa9bf8eed94a", "is_disabled": 0, "is_reserved": 0}, {"rental_uris": {"ios": "https://dc.lft.to/lastmile_qr_scan", "android": "https://dc.lft.to/lastmile_qr_scan"}, "lon": -77.0663405, "type": "electric_scooter", "fusion_lat": 0.0, "lat": 38.92804116666667, "name": "abe34f5c5917f04f80978cc40c95674c", "fusion_lon": 0.0, "bike_id": "abe34f5c5917f04f80978cc40c95674c", "is_disabled": 0, "is_reserved": 0}, {"rental_uris": {"ios": "https://dc.lft.to/lastmile_qr_scan", "android": "https://dc.lft.to/lastmile_qr_scan"}, "lon": -77.01752833333333, "type": "electric_scooter", "fusion_lat": 0.0, "lat": 38.8820385, "name": "d19b5f85ad09284c2b60ca41105a0d73", "fusion_lon": 0.0, "bike_id": "d19b5f85ad09284c2b60ca41105a0d73", "is_disabled": 0, "is_reserved": 0}, {"rental_uris": {"ios": "https://dc.lft.to/lastmile_qr_scan", "android": "https://dc.lft.to/lastmile_qr_scan"}, "lon": -77.00534433333333, "type": "electric_scooter", "fusion_lat": 0.0, "lat": 38.88071166666667, "name": "2993d9fc34f273499f4599bb5b21c0f2", "fusion_lon": 0.0, "bike_id": "2993d9fc34f273499f4599bb5b21c0f2", "is_disabled": 0, "is_reserved": 0}, {"rental_uris": {"ios": "https://dc.lft.to/lastmile_qr_scan", "android": "https://dc.lft.to/lastmile_qr_scan"}, "lon": -77.05216316666667, "type": "electric_scooter", "fusion_lat": 0.0, "lat": 38.924372166666664, "name": "00ed3ed1c9c0eeb25794e7efa3ee678a", "fusion_lon": 0.0, "bike_id": "00ed3ed1c9c0eeb25794e7efa3ee678a", "is_disabled": 0, "is_reserved": 0}, {"rental_uris": {"ios": "https://dc.lft.to/lastmile_qr_scan", "android": "https://dc.lft.to/lastmile_qr_scan"}, "lon": -77.06642233333334, "type": "electric_scooter", "fusion_lat": 0.0, "lat": 38.92683, "name": "2ca2402330f7ce02c892ea5557c6200f", "fusion_lon": 0.0, "bike_id": "2ca2402330f7ce02c892ea5557c6200f", "is_disabled": 0, "is_reserved": 0}, {"rental_uris": {"ios": "https://dc.lft.to/lastmile_qr_scan", "android": "https://dc.lft.to/lastmile_qr_scan"}, "lon": -77.02340816666667, "type": "electric_scooter", "fusion_lat": 0.0, "lat": 38.9293795, "name": "6b11f9eee042c9c82997968aac5ab0ed", "fusion_lon": 0.0, "bike_id": "6b11f9eee042c9c82997968aac5ab0ed", "is_disabled": 0, "is_reserved": 0}, {"rental_uris": {"ios": "https://dc.lft.to/lastmile_qr_scan", "android": "https://dc.lft.to/lastmile_qr_scan"}, "lon": -77.10331583333334, "type": "electric_bike", "fusion_lat": 0.0, "lat": 38.965082, "name": "c87348c042a8fcdae350cded08529602", "fusion_lon": 0.0, "bike_id": "c87348c042a8fcdae350cded08529602", "is_disabled": 0, "is_reserved": 0}, {"rental_uris": {"ios": "https://dc.lft.to/lastmile_qr_scan", "android": "https://dc.lft.to/lastmile_qr_scan"}, "lon": -76.949142, "type": "electric_scooter", "fusion_lat": 0.0, "lat": 38.8955405, "name": "5905e5e094ca90d84bda7fb296a2dd6a", "fusion_lon": 0.0, "bike_id": "5905e5e094ca90d84bda7fb296a2dd6a", "is_disabled": 0, "is_reserved": 0}, {"rental_uris": {"ios": "https://dc.lft.to/lastmile_qr_scan", "android": "https://dc.lft.to/lastmile_qr_scan"}, "lon": -77.05505633333334, "type": "electric_scooter", "fusion_lat": 0.0, "lat": 38.8997955, "name": "7a6b04b738289c8af1f21502842f45e3", "fusion_lon": 0.0, "bike_id": "7a6b04b738289c8af1f21502842f45e3", "is_disabled": 0, "is_reserved": 0}, {"rental_uris": {"ios": "https://dc.lft.to/lastmile_qr_scan", "android": "https://dc.lft.to/lastmile_qr_scan"}, "lon": -77.04035783333333, "type": "electric_scooter", "fusion_lat": 0.0, "lat": 38.924341166666665, "name": "84364edd658ea75bb83c3f20d0e48e29", "fusion_lon": 0.0, "bike_id": "84364edd658ea75bb83c3f20d0e48e29", "is_disabled": 0, "is_reserved": 0}, {"rental_uris": {"ios": "https://dc.lft.to/lastmile_qr_scan", "android": "https://dc.lft.to/lastmile_qr_scan"}, "lon": -77.029291, "type": "electric_scooter", "fusion_lat": 0.0, "lat": 38.93332433333333, "name": "2b489b7e2c824b3c1c3de330a890a656", "fusion_lon": 0.0, "bike_id": "2b489b7e2c824b3c1c3de330a890a656", "is_disabled": 0, "is_reserved": 0}, {"rental_uris": {"ios": "https://dc.lft.to/lastmile_qr_scan", "android": "https://dc.lft.to/lastmile_qr_scan"}, "lon": -77.03528333333334, "type": "electric_scooter", "fusion_lat": 0.0, "lat": 38.923413833333335, "name": "b8b80ea3b406a823dc99d29a4730cece", "fusion_lon": 0.0, "bike_id": "b8b80ea3b406a823dc99d29a4730cece", "is_disabled": 0, "is_reserved": 0}, {"rental_uris": {"ios": "https://dc.lft.to/lastmile_qr_scan", "android": "https://dc.lft.to/lastmile_qr_scan"}, "lon": -77.04939016666667, "type": "electric_scooter", "fusion_lat": 0.0, "lat": 38.900741833333335, "name": "a90882cc7695a02aba31380cc57fb923", "fusion_lon": 0.0, "bike_id": "a90882cc7695a02aba31380cc57fb923", "is_disabled": 0, "is_reserved": 0}, {"rental_uris": {"ios": "https://dc.lft.to/lastmile_qr_scan", "android": "https://dc.lft.to/lastmile_qr_scan"}, "lon": -76.95184966666666, "type": "electric_scooter", "fusion_lat": 0.0, "lat": 38.891338, "name": "9f4f561b7dc615971b86f00c6b9d0b15", "fusion_lon": 0.0, "bike_id": "9f4f561b7dc615971b86f00c6b9d0b15", "is_disabled": 0, "is_reserved": 0}, {"rental_uris": {"ios": "https://dc.lft.to/lastmile_qr_scan", "android": "https://dc.lft.to/lastmile_qr_scan"}, "lon": -77.00894916666667, "type": "electric_scooter", "fusion_lat": 0.0, "lat": 38.905315, "name": "e8add827b4f3db1977d0749cb7f398a6", "fusion_lon": 0.0, "bike_id": "e8add827b4f3db1977d0749cb7f398a6", "is_disabled": 0, "is_reserved": 0}, {"rental_uris": {"ios": "https://dc.lft.to/lastmile_qr_scan", "android": "https://dc.lft.to/lastmile_qr_scan"}, "lon": -77.0165055, "type": "electric_scooter", "fusion_lat": 0.0, "lat": 38.9294105, "name": "30a7b0ee57ae53e74ff28bc94d449b0c", "fusion_lon": 0.0, "bike_id": "30a7b0ee57ae53e74ff28bc94d449b0c", "is_disabled": 0, "is_reserved": 0}, {"rental_uris": {"ios": "https://dc.lft.to/lastmile_qr_scan", "android": "https://dc.lft.to/lastmile_qr_scan"}, "lon": -77.02591033333333, "type": "electric_scooter", "fusion_lat": 0.0, "lat": 38.915163, "name": "eb6983af8fbf65fbf0a878c78c9f0385", "fusion_lon": 0.0, "bike_id": "eb6983af8fbf65fbf0a878c78c9f0385", "is_disabled": 0, "is_reserved": 0}, {"rental_uris": {"ios": "https://dc.lft.to/lastmile_qr_scan", "android": "https://dc.lft.to/lastmile_qr_scan"}, "lon": -77.03834583333334, "type": "electric_scooter", "fusion_lat": 0.0, "lat": 38.90748966666666, "name": "3d788c8cb0035a65379091e204d95c99", "fusion_lon": 0.0, "bike_id": "3d788c8cb0035a65379091e204d95c99", "is_disabled": 0, "is_reserved": 0}, {"rental_uris": {"ios": "https://dc.lft.to/lastmile_qr_scan", "android": "https://dc.lft.to/lastmile_qr_scan"}, "lon": -77.03265583333334, "type": "electric_scooter", "fusion_lat": 0.0, "lat": 38.91629916666667, "name": "8578f339a17c0c15536fd7c3db88051b", "fusion_lon": 0.0, "bike_id": "8578f339a17c0c15536fd7c3db88051b", "is_disabled": 0, "is_reserved": 0}, {"rental_uris": {"ios": "https://dc.lft.to/lastmile_qr_scan", "android": "https://dc.lft.to/lastmile_qr_scan"}, "lon": -77.04416116666667, "type": "electric_scooter", "fusion_lat": 0.0, "lat": 38.89219633333333, "name": "da4067066b47697fd9f82a5e48a4cabb", "fusion_lon": 0.0, "bike_id": "da4067066b47697fd9f82a5e48a4cabb", "is_disabled": 0, "is_reserved": 0}, {"rental_uris": {"ios": "https://dc.lft.to/lastmile_qr_scan", "android": "https://dc.lft.to/lastmile_qr_scan"}, "lon": -77.02628666666666, "type": "electric_bike", "fusion_lat": 0.0, "lat": 38.962234, "name": "e9081b9139ab8307956cacfad2ef5930", "fusion_lon": 0.0, "bike_id": "e9081b9139ab8307956cacfad2ef5930", "is_disabled": 0, "is_reserved": 0}, {"rental_uris": {"ios": "https://dc.lft.to/lastmile_qr_scan", "android": "https://dc.lft.to/lastmile_qr_scan"}, "lon": -77.0346355, "type": "electric_scooter", "fusion_lat": 0.0, "lat": 38.934541333333335, "name": "9aae2072ff69d668502baf082d00b49e", "fusion_lon": 0.0, "bike_id": "9aae2072ff69d668502baf082d00b49e", "is_disabled": 0, "is_reserved": 0}, {"rental_uris": {"ios": "https://dc.lft.to/lastmile_qr_scan", "android": "https://dc.lft.to/lastmile_qr_scan"}, "lon": -77.00727833333333, "type": "electric_scooter", "fusion_lat": 0.0, "lat": 38.8849355, "name": "0d7d8dd21634ec67322a54dc5667950d", "fusion_lon": 0.0, "bike_id": "0d7d8dd21634ec67322a54dc5667950d", "is_disabled": 0, "is_reserved": 0}, {"rental_uris": {"ios": "https://dc.lft.to/lastmile_qr_scan", "android": "https://dc.lft.to/lastmile_qr_scan"}, "lon": -77.0163785, "type": "electric_scooter", "fusion_lat": 0.0, "lat": 38.87216983333333, "name": "5dc948777468652bbacf2c55bb145720", "fusion_lon": 0.0, "bike_id": "5dc948777468652bbacf2c55bb145720", "is_disabled": 0, "is_reserved": 0}, {"rental_uris": {"ios": "https://dc.lft.to/lastmile_qr_scan", "android": "https://dc.lft.to/lastmile_qr_scan"}, "lon": -77.04785166666667, "type": "electric_scooter", "fusion_lat": 0.0, "lat": 38.892241166666665, "name": "125cafac7b22a5ea48135a36194184c5", "fusion_lon": 0.0, "bike_id": "125cafac7b22a5ea48135a36194184c5", "is_disabled": 0, "is_reserved": 0}, {"rental_uris": {"ios": "https://dc.lft.to/lastmile_qr_scan", "android": "https://dc.lft.to/lastmile_qr_scan"}, "lon": -77.00194366666666, "type": "electric_scooter", "fusion_lat": 0.0, "lat": 38.9003425, "name": "53b0d5593ab8c3f8236b799f3739c6d9", "fusion_lon": 0.0, "bike_id": "53b0d5593ab8c3f8236b799f3739c6d9", "is_disabled": 0, "is_reserved": 0}, {"rental_uris": {"ios": "https://dc.lft.to/lastmile_qr_scan", "android": "https://dc.lft.to/lastmile_qr_scan"}, "lon": -77.178391, "type": "electric_bike", "fusion_lat": 0.0, "lat": 39.088981, "name": "9e93f57d842ddaac598b42a5fb6aa02f", "fusion_lon": 0.0, "bike_id": "9e93f57d842ddaac598b42a5fb6aa02f", "is_disabled": 0, "is_reserved": 0}, {"rental_uris": {"ios": "https://dc.lft.to/lastmile_qr_scan", "android": "https://dc.lft.to/lastmile_qr_scan"}, "lon": -77.08540083333334, "type": "electric_bike", "fusion_lat": 0.0, "lat": 38.85615516666667, "name": "6697a6933107da8e1674b55c90b7a2a9", "fusion_lon": 0.0, "bike_id": "6697a6933107da8e1674b55c90b7a2a9", "is_disabled": 0, "is_reserved": 0}, {"rental_uris": {"ios": "https://dc.lft.to/lastmile_qr_scan", "android": "https://dc.lft.to/lastmile_qr_scan"}, "lon": -77.033566, "type": "electric_scooter", "fusion_lat": 0.0, "lat": 38.88505383333333, "name": "101ae0397afcc0b8681a2bc4dbf2d532", "fusion_lon": 0.0, "bike_id": "101ae0397afcc0b8681a2bc4dbf2d532", "is_disabled": 0, "is_reserved": 0}, {"rental_uris": {"ios": "https://dc.lft.to/lastmile_qr_scan", "android": "https://dc.lft.to/lastmile_qr_scan"}, "lon": -77.021003, "type": "electric_scooter", "fusion_lat": 0.0, "lat": 38.9311395, "name": "a5a666ea333361032c9d53380d988d83", "fusion_lon": 0.0, "bike_id": "a5a666ea333361032c9d53380d988d83", "is_disabled": 0, "is_reserved": 0}, {"rental_uris": {"ios": "https://dc.lft.to/lastmile_qr_scan", "android": "https://dc.lft.to/lastmile_qr_scan"}, "lon": -77.0382545, "type": "electric_scooter", "fusion_lat": 0.0, "lat": 38.911108666666664, "name": "c5c0c4e288c6b434f16455d846f9fdae", "fusion_lon": 0.0, "bike_id": "c5c0c4e288c6b434f16455d846f9fdae", "is_disabled": 0, "is_reserved": 0}, {"rental_uris": {"ios": "https://dc.lft.to/lastmile_qr_scan", "android": "https://dc.lft.to/lastmile_qr_scan"}, "lon": -77.02978883333333, "type": "electric_scooter", "fusion_lat": 0.0, "lat": 38.96230116666667, "name": "41e6f9f4971f6cd8d56f59a8d41456b1", "fusion_lon": 0.0, "bike_id": "41e6f9f4971f6cd8d56f59a8d41456b1", "is_disabled": 0, "is_reserved": 0}, {"rental_uris": {"ios": "https://dc.lft.to/lastmile_qr_scan", "android": "https://dc.lft.to/lastmile_qr_scan"}, "lon": -77.04104783333334, "type": "electric_scooter", "fusion_lat": 0.0, "lat": 38.918536, "name": "a655ee4444539742bd5a6aa3133efc6c", "fusion_lon": 0.0, "bike_id": "a655ee4444539742bd5a6aa3133efc6c", "is_disabled": 0, "is_reserved": 0}, {"rental_uris": {"ios": "https://dc.lft.to/lastmile_qr_scan", "android": "https://dc.lft.to/lastmile_qr_scan"}, "lon": -77.00456883333334, "type": "electric_scooter", "fusion_lat": 0.0, "lat": 38.911846833333335, "name": "d89109e50746aa6ca8d3ba4afa64a9a8", "fusion_lon": 0.0, "bike_id": "d89109e50746aa6ca8d3ba4afa64a9a8", "is_disabled": 0, "is_reserved": 0}, {"rental_uris": {"ios": "https://dc.lft.to/lastmile_qr_scan", "android": "https://dc.lft.to/lastmile_qr_scan"}, "lon": -77.06380266666666, "type": "electric_scooter", "fusion_lat": 0.0, "lat": 38.905067, "name": "945fd33ee70411a990f929714a670c12", "fusion_lon": 0.0, "bike_id": "945fd33ee70411a990f929714a670c12", "is_disabled": 0, "is_reserved": 0}, {"rental_uris": {"ios": "https://dc.lft.to/lastmile_qr_scan", "android": "https://dc.lft.to/lastmile_qr_scan"}, "lon": -77.04852466666667, "type": "electric_scooter", "fusion_lat": 0.0, "lat": 38.919714666666664, "name": "74e9bbcf34be1e62fd8ab2cd65be0c72", "fusion_lon": 0.0, "bike_id": "74e9bbcf34be1e62fd8ab2cd65be0c72", "is_disabled": 0, "is_reserved": 0}, {"rental_uris": {"ios": "https://dc.lft.to/lastmile_qr_scan", "android": "https://dc.lft.to/lastmile_qr_scan"}, "lon": -77.03890466666667, "type": "electric_scooter", "fusion_lat": 0.0, "lat": 38.908123333333336, "name": "88ad7a47ed83b7b5a297d38698399bab", "fusion_lon": 0.0, "bike_id": "88ad7a47ed83b7b5a297d38698399bab", "is_disabled": 0, "is_reserved": 0}, {"rental_uris": {"ios": "https://dc.lft.to/lastmile_qr_scan", "android": "https://dc.lft.to/lastmile_qr_scan"}, "lon": -77.0026595, "type": "electric_bike", "fusion_lat": 0.0, "lat": 38.911893666666664, "name": "1677a9281814e130a4e3e5ba92b405cf", "fusion_lon": 0.0, "bike_id": "1677a9281814e130a4e3e5ba92b405cf", "is_disabled": 0, "is_reserved": 0}, {"rental_uris": {"ios": "https://dc.lft.to/lastmile_qr_scan", "android": "https://dc.lft.to/lastmile_qr_scan"}, "lon": -77.03310333333333, "type": "electric_scooter", "fusion_lat": 0.0, "lat": 38.9015075, "name": "5dd743c51217acd470052cada6f766a5", "fusion_lon": 0.0, "bike_id": "5dd743c51217acd470052cada6f766a5", "is_disabled": 0, "is_reserved": 0}, {"rental_uris": {"ios": "https://dc.lft.to/lastmile_qr_scan", "android": "https://dc.lft.to/lastmile_qr_scan"}, "lon": -77.040108, "type": "electric_scooter", "fusion_lat": 0.0, "lat": 38.90028916666667, "name": "bd06833ff514d5ef8926c1396d1ecf11", "fusion_lon": 0.0, "bike_id": "bd06833ff514d5ef8926c1396d1ecf11", "is_disabled": 0, "is_reserved": 0}, {"rental_uris": {"ios": "https://dc.lft.to/lastmile_qr_scan", "android": "https://dc.lft.to/lastmile_qr_scan"}, "lon": -76.97817516666667, "type": "electric_scooter", "fusion_lat": 0.0, "lat": 38.8951735, "name": "580a343cdf0ed0b27e406f7af488f1ba", "fusion_lon": 0.0, "bike_id": "580a343cdf0ed0b27e406f7af488f1ba", "is_disabled": 0, "is_reserved": 0}, {"rental_uris": {"ios": "https://dc.lft.to/lastmile_qr_scan", "android": "https://dc.lft.to/lastmile_qr_scan"}, "lon": -76.99018366666667, "type": "electric_scooter", "fusion_lat": 0.0, "lat": 38.85869566666667, "name": "a8dcceb95f7ed6e9d808fb39bfd697a1", "fusion_lon": 0.0, "bike_id": "a8dcceb95f7ed6e9d808fb39bfd697a1", "is_disabled": 0, "is_reserved": 0}, {"rental_uris": {"ios": "https://dc.lft.to/lastmile_qr_scan", "android": "https://dc.lft.to/lastmile_qr_scan"}, "lon": -77.18295066666667, "type": "electric_bike", "fusion_lat": 0.0, "lat": 38.883435, "name": "064aa24ab841d2075c947dae821ddfa8", "fusion_lon": 0.0, "bike_id": "064aa24ab841d2075c947dae821ddfa8", "is_disabled": 0, "is_reserved": 0}, {"rental_uris": {"ios": "https://dc.lft.to/lastmile_qr_scan", "android": "https://dc.lft.to/lastmile_qr_scan"}, "lon": -77.01743966666666, "type": "electric_scooter", "fusion_lat": 0.0, "lat": 38.905628666666665, "name": "acc39c70e02f4178f1ece91232b22a71", "fusion_lon": 0.0, "bike_id": "acc39c70e02f4178f1ece91232b22a71", "is_disabled": 0, "is_reserved": 0}, {"rental_uris": {"ios": "https://dc.lft.to/lastmile_qr_scan", "android": "https://dc.lft.to/lastmile_qr_scan"}, "lon": -77.02587366666667, "type": "electric_scooter", "fusion_lat": 0.0, "lat": 38.920354833333334, "name": "ecef12780a39e2f8c307ca25c774df3f", "fusion_lon": 0.0, "bike_id": "ecef12780a39e2f8c307ca25c774df3f", "is_disabled": 0, "is_reserved": 0}, {"rental_uris": {"ios": "https://dc.lft.to/lastmile_qr_scan", "android": "https://dc.lft.to/lastmile_qr_scan"}, "lon": -77.01726866666667, "type": "electric_scooter", "fusion_lat": 0.0, "lat": 38.877259333333335, "name": "5a317616a558016bfdc104713bc5d9d8", "fusion_lon": 0.0, "bike_id": "5a317616a558016bfdc104713bc5d9d8", "is_disabled": 0, "is_reserved": 0}, {"rental_uris": {"ios": "https://dc.lft.to/lastmile_qr_scan", "android": "https://dc.lft.to/lastmile_qr_scan"}, "lon": -77.036143, "type": "electric_scooter", "fusion_lat": 0.0, "lat": 38.937363166666664, "name": "9ec4fdbec731eeb58712c16e8fb61c04", "fusion_lon": 0.0, "bike_id": "9ec4fdbec731eeb58712c16e8fb61c04", "is_disabled": 0, "is_reserved": 0}, {"rental_uris": {"ios": "https://dc.lft.to/lastmile_qr_scan", "android": "https://dc.lft.to/lastmile_qr_scan"}, "lon": -77.0186115, "type": "electric_scooter", "fusion_lat": 0.0, "lat": 38.892673, "name": "4edab5cdf0255c65e9190aab5577fc3e", "fusion_lon": 0.0, "bike_id": "4edab5cdf0255c65e9190aab5577fc3e", "is_disabled": 0, "is_reserved": 0}, {"rental_uris": {"ios": "https://dc.lft.to/lastmile_qr_scan", "android": "https://dc.lft.to/lastmile_qr_scan"}, "lon": -77.063577, "type": "electric_scooter", "fusion_lat": 0.0, "lat": 38.944502166666666, "name": "a52a4fd17b154ce857197f2d87ce025d", "fusion_lon": 0.0, "bike_id": "a52a4fd17b154ce857197f2d87ce025d", "is_disabled": 0, "is_reserved": 0}, {"rental_uris": {"ios": "https://dc.lft.to/lastmile_qr_scan", "android": "https://dc.lft.to/lastmile_qr_scan"}, "lon": -77.02543983333334, "type": "electric_scooter", "fusion_lat": 0.0, "lat": 38.89213516666667, "name": "06438721ff0ba3cab35a7f231d5c6c6b", "fusion_lon": 0.0, "bike_id": "06438721ff0ba3cab35a7f231d5c6c6b", "is_disabled": 0, "is_reserved": 0}, {"rental_uris": {"ios": "https://dc.lft.to/lastmile_qr_scan", "android": "https://dc.lft.to/lastmile_qr_scan"}, "lon": -76.965561, "type": "electric_bike", "fusion_lat": 0.0, "lat": 38.951004, "name": "c63439ed95929005af55ce080374fbb8", "fusion_lon": 0.0, "bike_id": "c63439ed95929005af55ce080374fbb8", "is_disabled": 0, "is_reserved": 0}, {"rental_uris": {"ios": "https://dc.lft.to/lastmile_qr_scan", "android": "https://dc.lft.to/lastmile_qr_scan"}, "lon": -77.0295925, "type": "electric_scooter", "fusion_lat": 0.0, "lat": 38.90501616666667, "name": "93f938a2950f7edb70328035221a3e89", "fusion_lon": 0.0, "bike_id": "93f938a2950f7edb70328035221a3e89", "is_disabled": 0, "is_reserved": 0}, {"rental_uris": {"ios": "https://dc.lft.to/lastmile_qr_scan", "android": "https://dc.lft.to/lastmile_qr_scan"}, "lon": -77.0006835, "type": "electric_scooter", "fusion_lat": 0.0, "lat": 38.90050733333333, "name": "36c0decff650f4b6192530b6842b3ef2", "fusion_lon": 0.0, "bike_id": "36c0decff650f4b6192530b6842b3ef2", "is_disabled": 0, "is_reserved": 0}, {"rental_uris": {"ios": "https://dc.lft.to/lastmile_qr_scan", "android": "https://dc.lft.to/lastmile_qr_scan"}, "lon": -77.05166333333334, "type": "electric_scooter", "fusion_lat": 0.0, "lat": 38.8977275, "name": "8adc231e5461fd963fdabbd6c1ca8e11", "fusion_lon": 0.0, "bike_id": "8adc231e5461fd963fdabbd6c1ca8e11", "is_disabled": 0, "is_reserved": 0}, {"rental_uris": {"ios": "https://dc.lft.to/lastmile_qr_scan", "android": "https://dc.lft.to/lastmile_qr_scan"}, "lon": -77.01374066666666, "type": "electric_scooter", "fusion_lat": 0.0, "lat": 38.9283665, "name": "bd59d024064cc3531dea90e2cdd3db31", "fusion_lon": 0.0, "bike_id": "bd59d024064cc3531dea90e2cdd3db31", "is_disabled": 0, "is_reserved": 0}, {"rental_uris": {"ios": "https://dc.lft.to/lastmile_qr_scan", "android": "https://dc.lft.to/lastmile_qr_scan"}, "lon": -77.0026515, "type": "electric_scooter", "fusion_lat": 0.0, "lat": 38.8774415, "name": "f2eb451965d58096a77135fb3eeabe4e", "fusion_lon": 0.0, "bike_id": "f2eb451965d58096a77135fb3eeabe4e", "is_disabled": 0, "is_reserved": 0}, {"rental_uris": {"ios": "https://dc.lft.to/lastmile_qr_scan", "android": "https://dc.lft.to/lastmile_qr_scan"}, "lon": -77.02176533333333, "type": "electric_scooter", "fusion_lat": 0.0, "lat": 38.880317, "name": "f31845b4e82d0cd2c04183fc948cbc40", "fusion_lon": 0.0, "bike_id": "f31845b4e82d0cd2c04183fc948cbc40", "is_disabled": 0, "is_reserved": 0}, {"rental_uris": {"ios": "https://dc.lft.to/lastmile_qr_scan", "android": "https://dc.lft.to/lastmile_qr_scan"}, "lon": -77.0032055, "type": "electric_scooter", "fusion_lat": 0.0, "lat": 38.90127733333333, "name": "aff3f7b9ac3e3a3185af485343621050", "fusion_lon": 0.0, "bike_id": "aff3f7b9ac3e3a3185af485343621050", "is_disabled": 0, "is_reserved": 0}, {"rental_uris": {"ios": "https://dc.lft.to/lastmile_qr_scan", "android": "https://dc.lft.to/lastmile_qr_scan"}, "lon": -77.1250775, "type": "electric_bike", "fusion_lat": 0.0, "lat": 39.0242575, "name": "09d692e45963db50dadd1704fe574030", "fusion_lon": 0.0, "bike_id": "09d692e45963db50dadd1704fe574030", "is_disabled": 0, "is_reserved": 0}, {"rental_uris": {"ios": "https://dc.lft.to/lastmile_qr_scan", "android": "https://dc.lft.to/lastmile_qr_scan"}, "lon": -77.03427416666666, "type": "electric_scooter", "fusion_lat": 0.0, "lat": 38.919165666666665, "name": "efe372388749d5e62dbf243c22d9662c", "fusion_lon": 0.0, "bike_id": "efe372388749d5e62dbf243c22d9662c", "is_disabled": 0, "is_reserved": 0}, {"rental_uris": {"ios": "https://dc.lft.to/lastmile_qr_scan", "android": "https://dc.lft.to/lastmile_qr_scan"}, "lon": -77.03709066666667, "type": "electric_scooter", "fusion_lat": 0.0, "lat": 38.92635416666667, "name": "2ed7e468ac7f3f8819cc45ab0b1bb744", "fusion_lon": 0.0, "bike_id": "2ed7e468ac7f3f8819cc45ab0b1bb744", "is_disabled": 0, "is_reserved": 0}, {"rental_uris": {"ios": "https://dc.lft.to/lastmile_qr_scan", "android": "https://dc.lft.to/lastmile_qr_scan"}, "lon": -77.04029883333334, "type": "electric_bike", "fusion_lat": 0.0, "lat": 38.923761166666665, "name": "6b073d1c848c30fd7fc31c6f3a3a3898", "fusion_lon": 0.0, "bike_id": "6b073d1c848c30fd7fc31c6f3a3a3898", "is_disabled": 0, "is_reserved": 0}, {"rental_uris": {"ios": "https://dc.lft.to/lastmile_qr_scan", "android": "https://dc.lft.to/lastmile_qr_scan"}, "lon": -77.0263955, "type": "electric_scooter", "fusion_lat": 0.0, "lat": 38.8983955, "name": "f9a76f4d51553878971470a3fa1f7719", "fusion_lon": 0.0, "bike_id": "f9a76f4d51553878971470a3fa1f7719", "is_disabled": 0, "is_reserved": 0}, {"rental_uris": {"ios": "https://dc.lft.to/lastmile_qr_scan", "android": "https://dc.lft.to/lastmile_qr_scan"}, "lon": -77.002271, "type": "electric_scooter", "fusion_lat": 0.0, "lat": 38.91335616666667, "name": "99013e02d42becb949629b840ee85c7e", "fusion_lon": 0.0, "bike_id": "99013e02d42becb949629b840ee85c7e", "is_disabled": 0, "is_reserved": 0}, {"rental_uris": {"ios": "https://dc.lft.to/lastmile_qr_scan", "android": "https://dc.lft.to/lastmile_qr_scan"}, "lon": -77.038206, "type": "electric_scooter", "fusion_lat": 0.0, "lat": 38.90776416666667, "name": "ea9f7cf58393a169bdb563f5cab8bfef", "fusion_lon": 0.0, "bike_id": "ea9f7cf58393a169bdb563f5cab8bfef", "is_disabled": 0, "is_reserved": 0}, {"rental_uris": {"ios": "https://dc.lft.to/lastmile_qr_scan", "android": "https://dc.lft.to/lastmile_qr_scan"}, "lon": -77.022236, "type": "electric_scooter", "fusion_lat": 0.0, "lat": 38.893542333333336, "name": "0792ab4d361d7233129800f11c0f8d83", "fusion_lon": 0.0, "bike_id": "0792ab4d361d7233129800f11c0f8d83", "is_disabled": 0, "is_reserved": 0}, {"rental_uris": {"ios": "https://dc.lft.to/lastmile_qr_scan", "android": "https://dc.lft.to/lastmile_qr_scan"}, "lon": -77.036867, "type": "electric_scooter", "fusion_lat": 0.0, "lat": 38.9226045, "name": "e98513ab94c33283f9c35e3fef85099b", "fusion_lon": 0.0, "bike_id": "e98513ab94c33283f9c35e3fef85099b", "is_disabled": 0, "is_reserved": 0}, {"rental_uris": {"ios": "https://dc.lft.to/lastmile_qr_scan", "android": "https://dc.lft.to/lastmile_qr_scan"}, "lon": -77.03898933333333, "type": "electric_scooter", "fusion_lat": 0.0, "lat": 38.92219516666667, "name": "177ef1808207f2ee38faa0f05402b8f3", "fusion_lon": 0.0, "bike_id": "177ef1808207f2ee38faa0f05402b8f3", "is_disabled": 0, "is_reserved": 0}, {"rental_uris": {"ios": "https://dc.lft.to/lastmile_qr_scan", "android": "https://dc.lft.to/lastmile_qr_scan"}, "lon": -77.03194866666666, "type": "electric_scooter", "fusion_lat": 0.0, "lat": 38.917714833333335, "name": "0a08748a3b981836ec26b98ca9f1558d", "fusion_lon": 0.0, "bike_id": "0a08748a3b981836ec26b98ca9f1558d", "is_disabled": 0, "is_reserved": 0}, {"rental_uris": {"ios": "https://dc.lft.to/lastmile_qr_scan", "android": "https://dc.lft.to/lastmile_qr_scan"}, "lon": -77.01700466666667, "type": "electric_scooter", "fusion_lat": 0.0, "lat": 38.9201925, "name": "8130de67d0f345f1f14bc32c7a314cb3", "fusion_lon": 0.0, "bike_id": "8130de67d0f345f1f14bc32c7a314cb3", "is_disabled": 0, "is_reserved": 0}, {"rental_uris": {"ios": "https://dc.lft.to/lastmile_qr_scan", "android": "https://dc.lft.to/lastmile_qr_scan"}, "lon": -76.99930783333333, "type": "electric_scooter", "fusion_lat": 0.0, "lat": 38.896192166666665, "name": "b39f4bcb16219f760d5d0286717cd29f", "fusion_lon": 0.0, "bike_id": "b39f4bcb16219f760d5d0286717cd29f", "is_disabled": 0, "is_reserved": 0}, {"rental_uris": {"ios": "https://dc.lft.to/lastmile_qr_scan", "android": "https://dc.lft.to/lastmile_qr_scan"}, "lon": -77.0454405, "type": "electric_scooter", "fusion_lat": 0.0, "lat": 38.91790683333333, "name": "7ab8b7897ebaa9e6d1ce76f0ab4e74c8", "fusion_lon": 0.0, "bike_id": "7ab8b7897ebaa9e6d1ce76f0ab4e74c8", "is_disabled": 0, "is_reserved": 0}, {"rental_uris": {"ios": "https://dc.lft.to/lastmile_qr_scan", "android": "https://dc.lft.to/lastmile_qr_scan"}, "lon": -77.012889, "type": "electric_scooter", "fusion_lat": 0.0, "lat": 38.9003715, "name": "87eccf54e15c444cd040e09707377ebd", "fusion_lon": 0.0, "bike_id": "87eccf54e15c444cd040e09707377ebd", "is_disabled": 0, "is_reserved": 0}, {"rental_uris": {"ios": "https://dc.lft.to/lastmile_qr_scan", "android": "https://dc.lft.to/lastmile_qr_scan"}, "lon": -77.02408283333334, "type": "electric_scooter", "fusion_lat": 0.0, "lat": 38.91108066666666, "name": "84313091f161098448c2810b95960591", "fusion_lon": 0.0, "bike_id": "84313091f161098448c2810b95960591", "is_disabled": 0, "is_reserved": 0}, {"rental_uris": {"ios": "https://dc.lft.to/lastmile_qr_scan", "android": "https://dc.lft.to/lastmile_qr_scan"}, "lon": -77.04569983333333, "type": "electric_scooter", "fusion_lat": 0.0, "lat": 38.910526833333336, "name": "f1ab4866272782e14116558c12abc463", "fusion_lon": 0.0, "bike_id": "f1ab4866272782e14116558c12abc463", "is_disabled": 0, "is_reserved": 0}, {"rental_uris": {"ios": "https://dc.lft.to/lastmile_qr_scan", "android": "https://dc.lft.to/lastmile_qr_scan"}, "lon": -77.028354, "type": "electric_scooter", "fusion_lat": 0.0, "lat": 38.887692333333334, "name": "842f124a2883cfa75e9da26666904dde", "fusion_lon": 0.0, "bike_id": "842f124a2883cfa75e9da26666904dde", "is_disabled": 0, "is_reserved": 0}, {"rental_uris": {"ios": "https://dc.lft.to/lastmile_qr_scan", "android": "https://dc.lft.to/lastmile_qr_scan"}, "lon": -77.038664, "type": "electric_scooter", "fusion_lat": 0.0, "lat": 38.932530666666665, "name": "3ceba19f2bad3648389a997739588f70", "fusion_lon": 0.0, "bike_id": "3ceba19f2bad3648389a997739588f70", "is_disabled": 0, "is_reserved": 0}, {"rental_uris": {"ios": "https://dc.lft.to/lastmile_qr_scan", "android": "https://dc.lft.to/lastmile_qr_scan"}, "lon": -77.01863466666667, "type": "electric_scooter", "fusion_lat": 0.0, "lat": 38.90082066666667, "name": "76a2bc11209d9fb6c93566a2f875f793", "fusion_lon": 0.0, "bike_id": "76a2bc11209d9fb6c93566a2f875f793", "is_disabled": 0, "is_reserved": 0}, {"rental_uris": {"ios": "https://dc.lft.to/lastmile_qr_scan", "android": "https://dc.lft.to/lastmile_qr_scan"}, "lon": -77.03170466666667, "type": "electric_scooter", "fusion_lat": 0.0, "lat": 38.886298, "name": "c4196ae040b5dd2f08c6f07be0c86927", "fusion_lon": 0.0, "bike_id": "c4196ae040b5dd2f08c6f07be0c86927", "is_disabled": 0, "is_reserved": 0}, {"rental_uris": {"ios": "https://dc.lft.to/lastmile_qr_scan", "android": "https://dc.lft.to/lastmile_qr_scan"}, "lon": -77.00207283333333, "type": "electric_scooter", "fusion_lat": 0.0, "lat": 38.902191333333334, "name": "751502758981e29fce23943454967be1", "fusion_lon": 0.0, "bike_id": "751502758981e29fce23943454967be1", "is_disabled": 0, "is_reserved": 0}, {"rental_uris": {"ios": "https://dc.lft.to/lastmile_qr_scan", "android": "https://dc.lft.to/lastmile_qr_scan"}, "lon": -77.04659816666667, "type": "electric_scooter", "fusion_lat": 0.0, "lat": 38.8933535, "name": "abc07594dc97a03170c2739462c43951", "fusion_lon": 0.0, "bike_id": "abc07594dc97a03170c2739462c43951", "is_disabled": 0, "is_reserved": 0}, {"rental_uris": {"ios": "https://dc.lft.to/lastmile_qr_scan", "android": "https://dc.lft.to/lastmile_qr_scan"}, "lon": -77.051613, "type": "electric_scooter", "fusion_lat": 0.0, "lat": 38.89769066666667, "name": "19c2cc3bf7f9df6439281a9f96b52cfd", "fusion_lon": 0.0, "bike_id": "19c2cc3bf7f9df6439281a9f96b52cfd", "is_disabled": 0, "is_reserved": 0}, {"rental_uris": {"ios": "https://dc.lft.to/lastmile_qr_scan", "android": "https://dc.lft.to/lastmile_qr_scan"}, "lon": -76.99461883333333, "type": "electric_bike", "fusion_lat": 0.0, "lat": 38.94068383333333, "name": "dfd683d89248fa57f43019d55fbc7265", "fusion_lon": 0.0, "bike_id": "dfd683d89248fa57f43019d55fbc7265", "is_disabled": 0, "is_reserved": 0}, {"rental_uris": {"ios": "https://dc.lft.to/lastmile_qr_scan", "android": "https://dc.lft.to/lastmile_qr_scan"}, "lon": -77.120409, "type": "electric_bike", "fusion_lat": 0.0, "lat": 38.85517566666667, "name": "f4e5048e15b4333e2fcd63b3c383f2e9", "fusion_lon": 0.0, "bike_id": "f4e5048e15b4333e2fcd63b3c383f2e9", "is_disabled": 0, "is_reserved": 0}, {"rental_uris": {"ios": "https://dc.lft.to/lastmile_qr_scan", "android": "https://dc.lft.to/lastmile_qr_scan"}, "lon": -76.93174266666666, "type": "electric_scooter", "fusion_lat": 0.0, "lat": 38.898856, "name": "af2c528b277fdad951332e6c0c29ed3e", "fusion_lon": 0.0, "bike_id": "af2c528b277fdad951332e6c0c29ed3e", "is_disabled": 0, "is_reserved": 0}, {"rental_uris": {"ios": "https://dc.lft.to/lastmile_qr_scan", "android": "https://dc.lft.to/lastmile_qr_scan"}, "lon": -76.9497075, "type": "electric_scooter", "fusion_lat": 0.0, "lat": 38.893688, "name": "eecadfcf33aaed0518fcf48130960129", "fusion_lon": 0.0, "bike_id": "eecadfcf33aaed0518fcf48130960129", "is_disabled": 0, "is_reserved": 0}, {"rental_uris": {"ios": "https://dc.lft.to/lastmile_qr_scan", "android": "https://dc.lft.to/lastmile_qr_scan"}, "lon": -77.03255816666666, "type": "electric_scooter", "fusion_lat": 0.0, "lat": 38.918173333333336, "name": "903b88a35ca2a5eb2996b4104f3eb0ac", "fusion_lon": 0.0, "bike_id": "903b88a35ca2a5eb2996b4104f3eb0ac", "is_disabled": 0, "is_reserved": 0}, {"rental_uris": {"ios": "https://dc.lft.to/lastmile_qr_scan", "android": "https://dc.lft.to/lastmile_qr_scan"}, "lon": -77.055911, "type": "electric_scooter", "fusion_lat": 0.0, "lat": 38.927748333333334, "name": "9b4c893fab9855463441504b322ba23a", "fusion_lon": 0.0, "bike_id": "9b4c893fab9855463441504b322ba23a", "is_disabled": 0, "is_reserved": 0}, {"rental_uris": {"ios": "https://dc.lft.to/lastmile_qr_scan", "android": "https://dc.lft.to/lastmile_qr_scan"}, "lon": -77.04520216666667, "type": "electric_scooter", "fusion_lat": 0.0, "lat": 38.909704166666664, "name": "3ebfbdad19ea7d3b6b96408aa440348c", "fusion_lon": 0.0, "bike_id": "3ebfbdad19ea7d3b6b96408aa440348c", "is_disabled": 0, "is_reserved": 0}, {"rental_uris": {"ios": "https://dc.lft.to/lastmile_qr_scan", "android": "https://dc.lft.to/lastmile_qr_scan"}, "lon": -77.03352366666667, "type": "electric_scooter", "fusion_lat": 0.0, "lat": 38.885079, "name": "2f4c507731574bde6f7f7d4b1f1f0e6a", "fusion_lon": 0.0, "bike_id": "2f4c507731574bde6f7f7d4b1f1f0e6a", "is_disabled": 0, "is_reserved": 0}, {"rental_uris": {"ios": "https://dc.lft.to/lastmile_qr_scan", "android": "https://dc.lft.to/lastmile_qr_scan"}, "lon": -77.03199166666667, "type": "electric_scooter", "fusion_lat": 0.0, "lat": 38.913122666666666, "name": "5631c35a8f10ff65c88a46003493a17a", "fusion_lon": 0.0, "bike_id": "5631c35a8f10ff65c88a46003493a17a", "is_disabled": 0, "is_reserved": 0}, {"rental_uris": {"ios": "https://dc.lft.to/lastmile_qr_scan", "android": "https://dc.lft.to/lastmile_qr_scan"}, "lon": -77.044589, "type": "electric_scooter", "fusion_lat": 0.0, "lat": 38.91887783333333, "name": "4ca0926bc2b6f50fe5e0fcb0c216ebac", "fusion_lon": 0.0, "bike_id": "4ca0926bc2b6f50fe5e0fcb0c216ebac", "is_disabled": 0, "is_reserved": 0}, {"rental_uris": {"ios": "https://dc.lft.to/lastmile_qr_scan", "android": "https://dc.lft.to/lastmile_qr_scan"}, "lon": -77.09525483333333, "type": "electric_bike", "fusion_lat": 0.0, "lat": 38.8381415, "name": "d201125da1bde234a1b0db134daa378e", "fusion_lon": 0.0, "bike_id": "d201125da1bde234a1b0db134daa378e", "is_disabled": 0, "is_reserved": 0}, {"rental_uris": {"ios": "https://dc.lft.to/lastmile_qr_scan", "android": "https://dc.lft.to/lastmile_qr_scan"}, "lon": -76.9948625, "type": "electric_scooter", "fusion_lat": 0.0, "lat": 38.8623785, "name": "d58781fc40d60017fe573c83c237f23f", "fusion_lon": 0.0, "bike_id": "d58781fc40d60017fe573c83c237f23f", "is_disabled": 0, "is_reserved": 0}, {"rental_uris": {"ios": "https://dc.lft.to/lastmile_qr_scan", "android": "https://dc.lft.to/lastmile_qr_scan"}, "lon": -77.04373666666666, "type": "electric_scooter", "fusion_lat": 0.0, "lat": 38.9026705, "name": "67792ef0990a563cd7a4598fbb21fa1c", "fusion_lon": 0.0, "bike_id": "67792ef0990a563cd7a4598fbb21fa1c", "is_disabled": 0, "is_reserved": 0}, {"rental_uris": {"ios": "https://dc.lft.to/lastmile_qr_scan", "android": "https://dc.lft.to/lastmile_qr_scan"}, "lon": -77.03830233333333, "type": "electric_scooter", "fusion_lat": 0.0, "lat": 38.92061966666667, "name": "289f1fad543c534154fffd0ac042574b", "fusion_lon": 0.0, "bike_id": "289f1fad543c534154fffd0ac042574b", "is_disabled": 0, "is_reserved": 0}, {"rental_uris": {"ios": "https://dc.lft.to/lastmile_qr_scan", "android": "https://dc.lft.to/lastmile_qr_scan"}, "lon": -77.040034, "type": "electric_scooter", "fusion_lat": 0.0, "lat": 38.88890033333333, "name": "ada837d96427d003266538dbacfc95a7", "fusion_lon": 0.0, "bike_id": "ada837d96427d003266538dbacfc95a7", "is_disabled": 0, "is_reserved": 0}, {"rental_uris": {"ios": "https://dc.lft.to/lastmile_qr_scan", "android": "https://dc.lft.to/lastmile_qr_scan"}, "lon": -77.02222266666666, "type": "electric_scooter", "fusion_lat": 0.0, "lat": 38.891969833333334, "name": "7a2df4837282746d1dc3d2c01f077cc4", "fusion_lon": 0.0, "bike_id": "7a2df4837282746d1dc3d2c01f077cc4", "is_disabled": 0, "is_reserved": 0}, {"rental_uris": {"ios": "https://dc.lft.to/lastmile_qr_scan", "android": "https://dc.lft.to/lastmile_qr_scan"}, "lon": -77.03572533333333, "type": "electric_scooter", "fusion_lat": 0.0, "lat": 38.918149666666665, "name": "6fff297fc189208566766edd463d256b", "fusion_lon": 0.0, "bike_id": "6fff297fc189208566766edd463d256b", "is_disabled": 0, "is_reserved": 0}, {"rental_uris": {"ios": "https://dc.lft.to/lastmile_qr_scan", "android": "https://dc.lft.to/lastmile_qr_scan"}, "lon": -77.028648, "type": "electric_scooter", "fusion_lat": 0.0, "lat": 38.89367433333334, "name": "dca9ee7cdb1529ecba0663ba25c7f2c0", "fusion_lon": 0.0, "bike_id": "dca9ee7cdb1529ecba0663ba25c7f2c0", "is_disabled": 0, "is_reserved": 0}, {"rental_uris": {"ios": "https://dc.lft.to/lastmile_qr_scan", "android": "https://dc.lft.to/lastmile_qr_scan"}, "lon": -77.03213866666667, "type": "electric_scooter", "fusion_lat": 0.0, "lat": 38.916949, "name": "5bdfa50339a083df43513ca7e2c47c1d", "fusion_lon": 0.0, "bike_id": "5bdfa50339a083df43513ca7e2c47c1d", "is_disabled": 0, "is_reserved": 0}, {"rental_uris": {"ios": "https://dc.lft.to/lastmile_qr_scan", "android": "https://dc.lft.to/lastmile_qr_scan"}, "lon": -77.03209633333333, "type": "electric_scooter", "fusion_lat": 0.0, "lat": 38.917426666666664, "name": "a7652c94f875d81a4dd98edea0a462f9", "fusion_lon": 0.0, "bike_id": "a7652c94f875d81a4dd98edea0a462f9", "is_disabled": 0, "is_reserved": 0}, {"rental_uris": {"ios": "https://dc.lft.to/lastmile_qr_scan", "android": "https://dc.lft.to/lastmile_qr_scan"}, "lon": -76.9581905, "type": "electric_scooter", "fusion_lat": 0.0, "lat": 38.890556833333335, "name": "435513533e40f93cc8426845f1aa9865", "fusion_lon": 0.0, "bike_id": "435513533e40f93cc8426845f1aa9865", "is_disabled": 0, "is_reserved": 0}, {"rental_uris": {"ios": "https://dc.lft.to/lastmile_qr_scan", "android": "https://dc.lft.to/lastmile_qr_scan"}, "lon": -76.99519783333334, "type": "electric_scooter", "fusion_lat": 0.0, "lat": 38.88373766666667, "name": "42c4fc11eb7b2886af4065edeab0bdb6", "fusion_lon": 0.0, "bike_id": "42c4fc11eb7b2886af4065edeab0bdb6", "is_disabled": 0, "is_reserved": 0}, {"rental_uris": {"ios": "https://dc.lft.to/lastmile_qr_scan", "android": "https://dc.lft.to/lastmile_qr_scan"}, "lon": -76.9914955, "type": "electric_scooter", "fusion_lat": 0.0, "lat": 38.89347766666667, "name": "cad397855ea86d762322ec20df06aad5", "fusion_lon": 0.0, "bike_id": "cad397855ea86d762322ec20df06aad5", "is_disabled": 0, "is_reserved": 0}, {"rental_uris": {"ios": "https://dc.lft.to/lastmile_qr_scan", "android": "https://dc.lft.to/lastmile_qr_scan"}, "lon": -77.01808083333333, "type": "electric_scooter", "fusion_lat": 0.0, "lat": 38.9044665, "name": "7d44bb6ba65fd9e34a45f97dd1e1b77f", "fusion_lon": 0.0, "bike_id": "7d44bb6ba65fd9e34a45f97dd1e1b77f", "is_disabled": 0, "is_reserved": 0}, {"rental_uris": {"ios": "https://dc.lft.to/lastmile_qr_scan", "android": "https://dc.lft.to/lastmile_qr_scan"}, "lon": -76.97343616666667, "type": "electric_scooter", "fusion_lat": 0.0, "lat": 38.90483233333333, "name": "c5b97875f49a130be9edae6b27098d17", "fusion_lon": 0.0, "bike_id": "c5b97875f49a130be9edae6b27098d17", "is_disabled": 0, "is_reserved": 0}, {"rental_uris": {"ios": "https://dc.lft.to/lastmile_qr_scan", "android": "https://dc.lft.to/lastmile_qr_scan"}, "lon": -77.02584933333333, "type": "electric_scooter", "fusion_lat": 0.0, "lat": 38.92038433333333, "name": "0634ee4873adba271536728ede77a471", "fusion_lon": 0.0, "bike_id": "0634ee4873adba271536728ede77a471", "is_disabled": 0, "is_reserved": 0}, {"rental_uris": {"ios": "https://dc.lft.to/lastmile_qr_scan", "android": "https://dc.lft.to/lastmile_qr_scan"}, "lon": -77.0013895, "type": "electric_scooter", "fusion_lat": 0.0, "lat": 38.90411533333334, "name": "aa87dfad80723941fd2fc84bd2d0f033", "fusion_lon": 0.0, "bike_id": "aa87dfad80723941fd2fc84bd2d0f033", "is_disabled": 0, "is_reserved": 0}, {"rental_uris": {"ios": "https://dc.lft.to/lastmile_qr_scan", "android": "https://dc.lft.to/lastmile_qr_scan"}, "lon": -77.03351966666666, "type": "electric_scooter", "fusion_lat": 0.0, "lat": 38.92890416666667, "name": "1bf0f2019e297d614d9ef5231c0cc134", "fusion_lon": 0.0, "bike_id": "1bf0f2019e297d614d9ef5231c0cc134", "is_disabled": 0, "is_reserved": 0}, {"rental_uris": {"ios": "https://dc.lft.to/lastmile_qr_scan", "android": "https://dc.lft.to/lastmile_qr_scan"}, "lon": -77.03790883333333, "type": "electric_scooter", "fusion_lat": 0.0, "lat": 38.930327, "name": "dd554ce30d1950a23c2082f331c14b92", "fusion_lon": 0.0, "bike_id": "dd554ce30d1950a23c2082f331c14b92", "is_disabled": 0, "is_reserved": 0}, {"rental_uris": {"ios": "https://dc.lft.to/lastmile_qr_scan", "android": "https://dc.lft.to/lastmile_qr_scan"}, "lon": -77.01109233333334, "type": "electric_bike", "fusion_lat": 0.0, "lat": 38.9630745, "name": "cc4c4d7cf085a21b8e9b16596841a15a", "fusion_lon": 0.0, "bike_id": "cc4c4d7cf085a21b8e9b16596841a15a", "is_disabled": 0, "is_reserved": 0}, {"rental_uris": {"ios": "https://dc.lft.to/lastmile_qr_scan", "android": "https://dc.lft.to/lastmile_qr_scan"}, "lon": -77.10895, "type": "electric_bike", "fusion_lat": 0.0, "lat": 38.830414166666664, "name": "f5d8e157b94ab6d5c6260bf7cc684bb2", "fusion_lon": 0.0, "bike_id": "f5d8e157b94ab6d5c6260bf7cc684bb2", "is_disabled": 0, "is_reserved": 0}, {"rental_uris": {"ios": "https://dc.lft.to/lastmile_qr_scan", "android": "https://dc.lft.to/lastmile_qr_scan"}, "lon": -77.048384, "type": "electric_scooter", "fusion_lat": 0.0, "lat": 38.9051625, "name": "abb85fcde03accb13911f0de21b868fb", "fusion_lon": 0.0, "bike_id": "abb85fcde03accb13911f0de21b868fb", "is_disabled": 0, "is_reserved": 0}, {"rental_uris": {"ios": "https://dc.lft.to/lastmile_qr_scan", "android": "https://dc.lft.to/lastmile_qr_scan"}, "lon": -77.00214033333333, "type": "electric_scooter", "fusion_lat": 0.0, "lat": 38.90511133333333, "name": "4a5d7555251d026364079d3ff8b8f822", "fusion_lon": 0.0, "bike_id": "4a5d7555251d026364079d3ff8b8f822", "is_disabled": 0, "is_reserved": 0}, {"rental_uris": {"ios": "https://dc.lft.to/lastmile_qr_scan", "android": "https://dc.lft.to/lastmile_qr_scan"}, "lon": -77.00251583333333, "type": "electric_scooter", "fusion_lat": 0.0, "lat": 38.90123916666667, "name": "64e294990abaefab640a85d06676e667", "fusion_lon": 0.0, "bike_id": "64e294990abaefab640a85d06676e667", "is_disabled": 0, "is_reserved": 0}, {"rental_uris": {"ios": "https://dc.lft.to/lastmile_qr_scan", "android": "https://dc.lft.to/lastmile_qr_scan"}, "lon": -77.02667083333333, "type": "electric_scooter", "fusion_lat": 0.0, "lat": 38.89994516666667, "name": "7e3582e0170563ace8d1f806d1babcc4", "fusion_lon": 0.0, "bike_id": "7e3582e0170563ace8d1f806d1babcc4", "is_disabled": 0, "is_reserved": 0}, {"rental_uris": {"ios": "https://dc.lft.to/lastmile_qr_scan", "android": "https://dc.lft.to/lastmile_qr_scan"}, "lon": -77.04163483333333, "type": "electric_scooter", "fusion_lat": 0.0, "lat": 38.910225, "name": "2b877df7a3bcbb674ae4758e6d2b5e23", "fusion_lon": 0.0, "bike_id": "2b877df7a3bcbb674ae4758e6d2b5e23", "is_disabled": 0, "is_reserved": 0}, {"rental_uris": {"ios": "https://dc.lft.to/lastmile_qr_scan", "android": "https://dc.lft.to/lastmile_qr_scan"}, "lon": -77.020795, "type": "electric_scooter", "fusion_lat": 0.0, "lat": 38.903784, "name": "ea4f09d315ea127aea70c80e3d73f6a4", "fusion_lon": 0.0, "bike_id": "ea4f09d315ea127aea70c80e3d73f6a4", "is_disabled": 0, "is_reserved": 0}, {"rental_uris": {"ios": "https://dc.lft.to/lastmile_qr_scan", "android": "https://dc.lft.to/lastmile_qr_scan"}, "lon": -77.03382416666666, "type": "electric_scooter", "fusion_lat": 0.0, "lat": 38.92147083333333, "name": "2e75937c5ee0cd62147562d7c90d29f5", "fusion_lon": 0.0, "bike_id": "2e75937c5ee0cd62147562d7c90d29f5", "is_disabled": 0, "is_reserved": 0}, {"rental_uris": {"ios": "https://dc.lft.to/lastmile_qr_scan", "android": "https://dc.lft.to/lastmile_qr_scan"}, "lon": -76.99075866666666, "type": "electric_scooter", "fusion_lat": 0.0, "lat": 38.904180333333336, "name": "f23f0ad230a43729d69541eb589d4fcf", "fusion_lon": 0.0, "bike_id": "f23f0ad230a43729d69541eb589d4fcf", "is_disabled": 0, "is_reserved": 0}, {"rental_uris": {"ios": "https://dc.lft.to/lastmile_qr_scan", "android": "https://dc.lft.to/lastmile_qr_scan"}, "lon": -77.0050455, "type": "electric_scooter", "fusion_lat": 0.0, "lat": 38.875331, "name": "ee3f73b681901c9a320b19a2170fb739", "fusion_lon": 0.0, "bike_id": "ee3f73b681901c9a320b19a2170fb739", "is_disabled": 0, "is_reserved": 0}, {"rental_uris": {"ios": "https://dc.lft.to/lastmile_qr_scan", "android": "https://dc.lft.to/lastmile_qr_scan"}, "lon": -77.015085, "type": "electric_scooter", "fusion_lat": 0.0, "lat": 38.910852166666665, "name": "4c1e910f7bdadc7d5aee107e1b36a8d4", "fusion_lon": 0.0, "bike_id": "4c1e910f7bdadc7d5aee107e1b36a8d4", "is_disabled": 0, "is_reserved": 0}, {"rental_uris": {"ios": "https://dc.lft.to/lastmile_qr_scan", "android": "https://dc.lft.to/lastmile_qr_scan"}, "lon": -77.034894, "type": "electric_scooter", "fusion_lat": 0.0, "lat": 38.919274333333334, "name": "93f74000c6c2f7ac73033436d23ffbb7", "fusion_lon": 0.0, "bike_id": "93f74000c6c2f7ac73033436d23ffbb7", "is_disabled": 0, "is_reserved": 0}, {"rental_uris": {"ios": "https://dc.lft.to/lastmile_qr_scan", "android": "https://dc.lft.to/lastmile_qr_scan"}, "lon": -77.03438533333333, "type": "electric_scooter", "fusion_lat": 0.0, "lat": 38.927431, "name": "3c1c755f6296786f193917c686b6aa59", "fusion_lon": 0.0, "bike_id": "3c1c755f6296786f193917c686b6aa59", "is_disabled": 0, "is_reserved": 0}, {"rental_uris": {"ios": "https://dc.lft.to/lastmile_qr_scan", "android": "https://dc.lft.to/lastmile_qr_scan"}, "lon": -76.99172366666667, "type": "electric_scooter", "fusion_lat": 0.0, "lat": 38.87931283333333, "name": "5e9afcea77ef2325eec11b974f0e6654", "fusion_lon": 0.0, "bike_id": "5e9afcea77ef2325eec11b974f0e6654", "is_disabled": 0, "is_reserved": 0}, {"rental_uris": {"ios": "https://dc.lft.to/lastmile_qr_scan", "android": "https://dc.lft.to/lastmile_qr_scan"}, "lon": -77.02499883333333, "type": "electric_scooter", "fusion_lat": 0.0, "lat": 38.94289916666666, "name": "0f126c95b850dfb4567f2f4003302f24", "fusion_lon": 0.0, "bike_id": "0f126c95b850dfb4567f2f4003302f24", "is_disabled": 0, "is_reserved": 0}, {"rental_uris": {"ios": "https://dc.lft.to/lastmile_qr_scan", "android": "https://dc.lft.to/lastmile_qr_scan"}, "lon": -77.06471416666666, "type": "electric_bike", "fusion_lat": 0.0, "lat": 38.973810666666665, "name": "6f203e4facc02682d594509d4277698d", "fusion_lon": 0.0, "bike_id": "6f203e4facc02682d594509d4277698d", "is_disabled": 0, "is_reserved": 0}, {"rental_uris": {"ios": "https://dc.lft.to/lastmile_qr_scan", "android": "https://dc.lft.to/lastmile_qr_scan"}, "lon": -77.00929783333333, "type": "electric_scooter", "fusion_lat": 0.0, "lat": 38.9170065, "name": "f353e01924a5b6f7a9d47c6a103ed6fb", "fusion_lon": 0.0, "bike_id": "f353e01924a5b6f7a9d47c6a103ed6fb", "is_disabled": 0, "is_reserved": 0}, {"rental_uris": {"ios": "https://dc.lft.to/lastmile_qr_scan", "android": "https://dc.lft.to/lastmile_qr_scan"}, "lon": -77.03838016666667, "type": "electric_scooter", "fusion_lat": 0.0, "lat": 38.90750383333334, "name": "7665a50515003242dc864330722df6a9", "fusion_lon": 0.0, "bike_id": "7665a50515003242dc864330722df6a9", "is_disabled": 0, "is_reserved": 0}, {"rental_uris": {"ios": "https://dc.lft.to/lastmile_qr_scan", "android": "https://dc.lft.to/lastmile_qr_scan"}, "lon": -77.07723133333333, "type": "electric_scooter", "fusion_lat": 0.0, "lat": 38.9470255, "name": "9e048084e59c6312eb6cd0fb2166ef26", "fusion_lon": 0.0, "bike_id": "9e048084e59c6312eb6cd0fb2166ef26", "is_disabled": 0, "is_reserved": 0}, {"rental_uris": {"ios": "https://dc.lft.to/lastmile_qr_scan", "android": "https://dc.lft.to/lastmile_qr_scan"}, "lon": -77.02789033333333, "type": "electric_scooter", "fusion_lat": 0.0, "lat": 38.953846, "name": "c38883bdb3d47ddaa35426b4c75ae504", "fusion_lon": 0.0, "bike_id": "c38883bdb3d47ddaa35426b4c75ae504", "is_disabled": 0, "is_reserved": 0}, {"rental_uris": {"ios": "https://dc.lft.to/lastmile_qr_scan", "android": "https://dc.lft.to/lastmile_qr_scan"}, "lon": -77.03214666666666, "type": "electric_scooter", "fusion_lat": 0.0, "lat": 38.920039, "name": "dc55828498373f76c7606b9d5a6ee3b6", "fusion_lon": 0.0, "bike_id": "dc55828498373f76c7606b9d5a6ee3b6", "is_disabled": 0, "is_reserved": 0}, {"rental_uris": {"ios": "https://dc.lft.to/lastmile_qr_scan", "android": "https://dc.lft.to/lastmile_qr_scan"}, "lon": -77.02539683333333, "type": "electric_scooter", "fusion_lat": 0.0, "lat": 38.9240535, "name": "020d88099d8a4cfc84dc22be78eceed5", "fusion_lon": 0.0, "bike_id": "020d88099d8a4cfc84dc22be78eceed5", "is_disabled": 0, "is_reserved": 0}, {"rental_uris": {"ios": "https://dc.lft.to/lastmile_qr_scan", "android": "https://dc.lft.to/lastmile_qr_scan"}, "lon": -76.97305683333333, "type": "electric_scooter", "fusion_lat": 0.0, "lat": 38.9199125, "name": "1bdd9c23c3a84fbed70f95ee31a383a4", "fusion_lon": 0.0, "bike_id": "1bdd9c23c3a84fbed70f95ee31a383a4", "is_disabled": 0, "is_reserved": 0}, {"rental_uris": {"ios": "https://dc.lft.to/lastmile_qr_scan", "android": "https://dc.lft.to/lastmile_qr_scan"}, "lon": -77.03465516666667, "type": "electric_scooter", "fusion_lat": 0.0, "lat": 38.92349466666667, "name": "746ed2f5b2b949a0b35fdfbd506a7084", "fusion_lon": 0.0, "bike_id": "746ed2f5b2b949a0b35fdfbd506a7084", "is_disabled": 0, "is_reserved": 0}, {"rental_uris": {"ios": "https://dc.lft.to/lastmile_qr_scan", "android": "https://dc.lft.to/lastmile_qr_scan"}, "lon": -77.03668133333333, "type": "electric_scooter", "fusion_lat": 0.0, "lat": 38.91815716666667, "name": "4948e23c11bfa5b2fa1b78fed600fd57", "fusion_lon": 0.0, "bike_id": "4948e23c11bfa5b2fa1b78fed600fd57", "is_disabled": 0, "is_reserved": 0}, {"rental_uris": {"ios": "https://dc.lft.to/lastmile_qr_scan", "android": "https://dc.lft.to/lastmile_qr_scan"}, "lon": -77.033625, "type": "electric_scooter", "fusion_lat": 0.0, "lat": 38.932246666666664, "name": "baf8af66158d3e53dc06d6ab84d56171", "fusion_lon": 0.0, "bike_id": "baf8af66158d3e53dc06d6ab84d56171", "is_disabled": 0, "is_reserved": 0}, {"rental_uris": {"ios": "https://dc.lft.to/lastmile_qr_scan", "android": "https://dc.lft.to/lastmile_qr_scan"}, "lon": -77.04808383333334, "type": "electric_scooter", "fusion_lat": 0.0, "lat": 38.8995525, "name": "9920007e2ddd100826a638fbe3af6b73", "fusion_lon": 0.0, "bike_id": "9920007e2ddd100826a638fbe3af6b73", "is_disabled": 0, "is_reserved": 0}, {"rental_uris": {"ios": "https://dc.lft.to/lastmile_qr_scan", "android": "https://dc.lft.to/lastmile_qr_scan"}, "lon": -77.00601483333334, "type": "electric_scooter", "fusion_lat": 0.0, "lat": 38.8849245, "name": "ba9d9583204a41d3ce3dce5bc9ad89dc", "fusion_lon": 0.0, "bike_id": "ba9d9583204a41d3ce3dce5bc9ad89dc", "is_disabled": 0, "is_reserved": 0}, {"rental_uris": {"ios": "https://dc.lft.to/lastmile_qr_scan", "android": "https://dc.lft.to/lastmile_qr_scan"}, "lon": -77.02174483333333, "type": "electric_scooter", "fusion_lat": 0.0, "lat": 38.880339166666666, "name": "0480b716cb728588edc7cf80465b4708", "fusion_lon": 0.0, "bike_id": "0480b716cb728588edc7cf80465b4708", "is_disabled": 0, "is_reserved": 0}, {"rental_uris": {"ios": "https://dc.lft.to/lastmile_qr_scan", "android": "https://dc.lft.to/lastmile_qr_scan"}, "lon": -77.07099116666667, "type": "electric_bike", "fusion_lat": 0.0, "lat": 38.91450366666667, "name": "651778471e9b07a2d2a03a386856fbc6", "fusion_lon": 0.0, "bike_id": "651778471e9b07a2d2a03a386856fbc6", "is_disabled": 0, "is_reserved": 0}, {"rental_uris": {"ios": "https://dc.lft.to/lastmile_qr_scan", "android": "https://dc.lft.to/lastmile_qr_scan"}, "lon": -77.0372945, "type": "electric_scooter", "fusion_lat": 0.0, "lat": 38.90691183333333, "name": "5c1b37d03286d3b94f040cb90ab5d8fc", "fusion_lon": 0.0, "bike_id": "5c1b37d03286d3b94f040cb90ab5d8fc", "is_disabled": 0, "is_reserved": 0}, {"rental_uris": {"ios": "https://dc.lft.to/lastmile_qr_scan", "android": "https://dc.lft.to/lastmile_qr_scan"}, "lon": -76.980935, "type": "electric_bike", "fusion_lat": 0.0, "lat": 38.88135116666667, "name": "0d519222963dafda9e02e54242b164a5", "fusion_lon": 0.0, "bike_id": "0d519222963dafda9e02e54242b164a5", "is_disabled": 0, "is_reserved": 0}, {"rental_uris": {"ios": "https://dc.lft.to/lastmile_qr_scan", "android": "https://dc.lft.to/lastmile_qr_scan"}, "lon": -77.00311233333333, "type": "electric_bike", "fusion_lat": 0.0, "lat": 38.87256633333333, "name": "a5ea9b906e2508c57494970a1c2ba776", "fusion_lon": 0.0, "bike_id": "a5ea9b906e2508c57494970a1c2ba776", "is_disabled": 0, "is_reserved": 0}, {"rental_uris": {"ios": "https://dc.lft.to/lastmile_qr_scan", "android": "https://dc.lft.to/lastmile_qr_scan"}, "lon": -77.03380333333334, "type": "electric_scooter", "fusion_lat": 0.0, "lat": 38.93837516666667, "name": "f27b8009f2d064e3ccd82c50d57fcea2", "fusion_lon": 0.0, "bike_id": "f27b8009f2d064e3ccd82c50d57fcea2", "is_disabled": 0, "is_reserved": 0}, {"rental_uris": {"ios": "https://dc.lft.to/lastmile_qr_scan", "android": "https://dc.lft.to/lastmile_qr_scan"}, "lon": -76.985532, "type": "electric_bike", "fusion_lat": 0.0, "lat": 38.89212716666667, "name": "29305de6500664045c4e2239cba4290d", "fusion_lon": 0.0, "bike_id": "29305de6500664045c4e2239cba4290d", "is_disabled": 0, "is_reserved": 0}, {"rental_uris": {"ios": "https://dc.lft.to/lastmile_qr_scan", "android": "https://dc.lft.to/lastmile_qr_scan"}, "lon": -77.01839733333334, "type": "electric_scooter", "fusion_lat": 0.0, "lat": 38.9087765, "name": "413bb7a25386b40a45d869c0d382ecf6", "fusion_lon": 0.0, "bike_id": "413bb7a25386b40a45d869c0d382ecf6", "is_disabled": 0, "is_reserved": 0}, {"rental_uris": {"ios": "https://dc.lft.to/lastmile_qr_scan", "android": "https://dc.lft.to/lastmile_qr_scan"}, "lon": -77.01120183333333, "type": "electric_scooter", "fusion_lat": 0.0, "lat": 38.90035116666667, "name": "d9ce7c64fea1b827045221bdbeda60e7", "fusion_lon": 0.0, "bike_id": "d9ce7c64fea1b827045221bdbeda60e7", "is_disabled": 0, "is_reserved": 0}, {"rental_uris": {"ios": "https://dc.lft.to/lastmile_qr_scan", "android": "https://dc.lft.to/lastmile_qr_scan"}, "lon": -76.98256733333334, "type": "electric_scooter", "fusion_lat": 0.0, "lat": 38.86352333333333, "name": "8af17d8121a03af9347f9881fb6d89c0", "fusion_lon": 0.0, "bike_id": "8af17d8121a03af9347f9881fb6d89c0", "is_disabled": 0, "is_reserved": 0}, {"rental_uris": {"ios": "https://dc.lft.to/lastmile_qr_scan", "android": "https://dc.lft.to/lastmile_qr_scan"}, "lon": -77.005204, "type": "electric_scooter", "fusion_lat": 0.0, "lat": 38.92889266666667, "name": "6c4e47d239ada98aefa738115c30ab2c", "fusion_lon": 0.0, "bike_id": "6c4e47d239ada98aefa738115c30ab2c", "is_disabled": 0, "is_reserved": 0}, {"rental_uris": {"ios": "https://dc.lft.to/lastmile_qr_scan", "android": "https://dc.lft.to/lastmile_qr_scan"}, "lon": -77.016528, "type": "electric_scooter", "fusion_lat": 0.0, "lat": 38.95328766666667, "name": "3a50506835f56c183f5ec7ddafefc71c", "fusion_lon": 0.0, "bike_id": "3a50506835f56c183f5ec7ddafefc71c", "is_disabled": 0, "is_reserved": 0}, {"rental_uris": {"ios": "https://dc.lft.to/lastmile_qr_scan", "android": "https://dc.lft.to/lastmile_qr_scan"}, "lon": -77.05441533333334, "type": "electric_scooter", "fusion_lat": 0.0, "lat": 38.8960745, "name": "2c178905ebd5a5dd97e8e16e753ebe83", "fusion_lon": 0.0, "bike_id": "2c178905ebd5a5dd97e8e16e753ebe83", "is_disabled": 0, "is_reserved": 0}, {"rental_uris": {"ios": "https://dc.lft.to/lastmile_qr_scan", "android": "https://dc.lft.to/lastmile_qr_scan"}, "lon": -77.03812766666667, "type": "electric_scooter", "fusion_lat": 0.0, "lat": 38.90977983333333, "name": "03b8e80423805c84f69690fa8b7c135a", "fusion_lon": 0.0, "bike_id": "03b8e80423805c84f69690fa8b7c135a", "is_disabled": 0, "is_reserved": 0}, {"rental_uris": {"ios": "https://dc.lft.to/lastmile_qr_scan", "android": "https://dc.lft.to/lastmile_qr_scan"}, "lon": -77.00261483333334, "type": "electric_scooter", "fusion_lat": 0.0, "lat": 38.8774715, "name": "8705a237a17eff0a27cde99313091d11", "fusion_lon": 0.0, "bike_id": "8705a237a17eff0a27cde99313091d11", "is_disabled": 0, "is_reserved": 0}, {"rental_uris": {"ios": "https://dc.lft.to/lastmile_qr_scan", "android": "https://dc.lft.to/lastmile_qr_scan"}, "lon": -77.047898, "type": "electric_scooter", "fusion_lat": 0.0, "lat": 38.89368116666667, "name": "aa74c41753d79d881215b3abf8f0a15f", "fusion_lon": 0.0, "bike_id": "aa74c41753d79d881215b3abf8f0a15f", "is_disabled": 0, "is_reserved": 0}, {"rental_uris": {"ios": "https://dc.lft.to/lastmile_qr_scan", "android": "https://dc.lft.to/lastmile_qr_scan"}, "lon": -77.02130216666667, "type": "electric_scooter", "fusion_lat": 0.0, "lat": 38.909743666666664, "name": "5d5a499aac7696851f6677d16a4e35af", "fusion_lon": 0.0, "bike_id": "5d5a499aac7696851f6677d16a4e35af", "is_disabled": 0, "is_reserved": 0}, {"rental_uris": {"ios": "https://dc.lft.to/lastmile_qr_scan", "android": "https://dc.lft.to/lastmile_qr_scan"}, "lon": -77.0441205, "type": "electric_scooter", "fusion_lat": 0.0, "lat": 38.90578166666667, "name": "5f64e2e82fd719867e26b7b92cbf79c0", "fusion_lon": 0.0, "bike_id": "5f64e2e82fd719867e26b7b92cbf79c0", "is_disabled": 0, "is_reserved": 0}, {"rental_uris": {"ios": "https://dc.lft.to/lastmile_qr_scan", "android": "https://dc.lft.to/lastmile_qr_scan"}, "lon": -77.03502566666667, "type": "electric_scooter", "fusion_lat": 0.0, "lat": 38.92343366666667, "name": "3455fd3f241116d0fbee70ea0b223e64", "fusion_lon": 0.0, "bike_id": "3455fd3f241116d0fbee70ea0b223e64", "is_disabled": 0, "is_reserved": 0}, {"rental_uris": {"ios": "https://dc.lft.to/lastmile_qr_scan", "android": "https://dc.lft.to/lastmile_qr_scan"}, "lon": -77.0386485, "type": "electric_scooter", "fusion_lat": 0.0, "lat": 38.91558366666667, "name": "809cc80a431d3ad1470d8038ab95a1f1", "fusion_lon": 0.0, "bike_id": "809cc80a431d3ad1470d8038ab95a1f1", "is_disabled": 0, "is_reserved": 0}, {"rental_uris": {"ios": "https://dc.lft.to/lastmile_qr_scan", "android": "https://dc.lft.to/lastmile_qr_scan"}, "lon": -77.0259825, "type": "electric_scooter", "fusion_lat": 0.0, "lat": 38.907563333333336, "name": "5fe25bb78b4d3cf5d4d0e80bb20da3c4", "fusion_lon": 0.0, "bike_id": "5fe25bb78b4d3cf5d4d0e80bb20da3c4", "is_disabled": 0, "is_reserved": 0}, {"rental_uris": {"ios": "https://dc.lft.to/lastmile_qr_scan", "android": "https://dc.lft.to/lastmile_qr_scan"}, "lon": -76.980921, "type": "electric_bike", "fusion_lat": 0.0, "lat": 38.9636055, "name": "a928bd9e7ee382a2d8a54681f4745c96", "fusion_lon": 0.0, "bike_id": "a928bd9e7ee382a2d8a54681f4745c96", "is_disabled": 0, "is_reserved": 0}, {"rental_uris": {"ios": "https://dc.lft.to/lastmile_qr_scan", "android": "https://dc.lft.to/lastmile_qr_scan"}, "lon": -77.04462133333334, "type": "electric_scooter", "fusion_lat": 0.0, "lat": 38.918775333333336, "name": "91e13618069af725c5e7b70ce3566813", "fusion_lon": 0.0, "bike_id": "91e13618069af725c5e7b70ce3566813", "is_disabled": 0, "is_reserved": 0}, {"rental_uris": {"ios": "https://dc.lft.to/lastmile_qr_scan", "android": "https://dc.lft.to/lastmile_qr_scan"}, "lon": -77.04398233333333, "type": "electric_scooter", "fusion_lat": 0.0, "lat": 38.905833333333334, "name": "08fff3117d562a19636100f89ed073ae", "fusion_lon": 0.0, "bike_id": "08fff3117d562a19636100f89ed073ae", "is_disabled": 0, "is_reserved": 0}, {"rental_uris": {"ios": "https://dc.lft.to/lastmile_qr_scan", "android": "https://dc.lft.to/lastmile_qr_scan"}, "lon": -77.03006366666666, "type": "electric_scooter", "fusion_lat": 0.0, "lat": 38.919303666666664, "name": "68dc0950c2ab99c13be891717912218f", "fusion_lon": 0.0, "bike_id": "68dc0950c2ab99c13be891717912218f", "is_disabled": 0, "is_reserved": 0}, {"rental_uris": {"ios": "https://dc.lft.to/lastmile_qr_scan", "android": "https://dc.lft.to/lastmile_qr_scan"}, "lon": -77.02715933333333, "type": "electric_scooter", "fusion_lat": 0.0, "lat": 38.918215333333336, "name": "cc9174baa2ff49d525d75078f5d82581", "fusion_lon": 0.0, "bike_id": "cc9174baa2ff49d525d75078f5d82581", "is_disabled": 0, "is_reserved": 0}, {"rental_uris": {"ios": "https://dc.lft.to/lastmile_qr_scan", "android": "https://dc.lft.to/lastmile_qr_scan"}, "lon": -77.0326255, "type": "electric_scooter", "fusion_lat": 0.0, "lat": 38.934461666666664, "name": "e8b579ecdde71ea2979343fcd174da36", "fusion_lon": 0.0, "bike_id": "e8b579ecdde71ea2979343fcd174da36", "is_disabled": 0, "is_reserved": 0}, {"rental_uris": {"ios": "https://dc.lft.to/lastmile_qr_scan", "android": "https://dc.lft.to/lastmile_qr_scan"}, "lon": -76.9963005, "type": "electric_scooter", "fusion_lat": 0.0, "lat": 38.8468425, "name": "c0d7c48e6282d50ac213a74ca6214ca7", "fusion_lon": 0.0, "bike_id": "c0d7c48e6282d50ac213a74ca6214ca7", "is_disabled": 0, "is_reserved": 0}, {"rental_uris": {"ios": "https://dc.lft.to/lastmile_qr_scan", "android": "https://dc.lft.to/lastmile_qr_scan"}, "lon": -77.05023866666667, "type": "electric_scooter", "fusion_lat": 0.0, "lat": 38.92356216666667, "name": "3b9bb8b6002e81b6d4854bd12a59acec", "fusion_lon": 0.0, "bike_id": "3b9bb8b6002e81b6d4854bd12a59acec", "is_disabled": 0, "is_reserved": 0}, {"rental_uris": {"ios": "https://dc.lft.to/lastmile_qr_scan", "android": "https://dc.lft.to/lastmile_qr_scan"}, "lon": -77.07168466666667, "type": "electric_scooter", "fusion_lat": 0.0, "lat": 38.9145375, "name": "9516ae088de153769a4f3b6ccf6156c5", "fusion_lon": 0.0, "bike_id": "9516ae088de153769a4f3b6ccf6156c5", "is_disabled": 0, "is_reserved": 0}, {"rental_uris": {"ios": "https://dc.lft.to/lastmile_qr_scan", "android": "https://dc.lft.to/lastmile_qr_scan"}, "lon": -77.03268216666666, "type": "electric_scooter", "fusion_lat": 0.0, "lat": 38.91985733333333, "name": "8f307d89aea4a5cc2eaafd29aa2397e3", "fusion_lon": 0.0, "bike_id": "8f307d89aea4a5cc2eaafd29aa2397e3", "is_disabled": 0, "is_reserved": 0}, {"rental_uris": {"ios": "https://dc.lft.to/lastmile_qr_scan", "android": "https://dc.lft.to/lastmile_qr_scan"}, "lon": -76.99273116666667, "type": "electric_scooter", "fusion_lat": 0.0, "lat": 38.89762866666667, "name": "b5bc1aef7810b2cdbc5ce8417c7a6b89", "fusion_lon": 0.0, "bike_id": "b5bc1aef7810b2cdbc5ce8417c7a6b89", "is_disabled": 0, "is_reserved": 0}, {"rental_uris": {"ios": "https://dc.lft.to/lastmile_qr_scan", "android": "https://dc.lft.to/lastmile_qr_scan"}, "lon": -77.03555966666667, "type": "electric_scooter", "fusion_lat": 0.0, "lat": 38.931398333333334, "name": "09168b70a3b080c483e7e5a68230747f", "fusion_lon": 0.0, "bike_id": "09168b70a3b080c483e7e5a68230747f", "is_disabled": 0, "is_reserved": 0}, {"rental_uris": {"ios": "https://dc.lft.to/lastmile_qr_scan", "android": "https://dc.lft.to/lastmile_qr_scan"}, "lon": -77.02414266666666, "type": "electric_scooter", "fusion_lat": 0.0, "lat": 38.91708066666666, "name": "8789dd8dbf2015e2e34ed676678e6081", "fusion_lon": 0.0, "bike_id": "8789dd8dbf2015e2e34ed676678e6081", "is_disabled": 0, "is_reserved": 0}, {"rental_uris": {"ios": "https://dc.lft.to/lastmile_qr_scan", "android": "https://dc.lft.to/lastmile_qr_scan"}, "lon": -76.98996533333333, "type": "electric_bike", "fusion_lat": 0.0, "lat": 38.863888833333334, "name": "eb089f8424c3a0212be259cf528bf236", "fusion_lon": 0.0, "bike_id": "eb089f8424c3a0212be259cf528bf236", "is_disabled": 0, "is_reserved": 0}, {"rental_uris": {"ios": "https://dc.lft.to/lastmile_qr_scan", "android": "https://dc.lft.to/lastmile_qr_scan"}, "lon": -77.03705733333334, "type": "electric_scooter", "fusion_lat": 0.0, "lat": 38.926369, "name": "e3ef9550147a98ab513395c2384dc6cf", "fusion_lon": 0.0, "bike_id": "e3ef9550147a98ab513395c2384dc6cf", "is_disabled": 0, "is_reserved": 0}, {"rental_uris": {"ios": "https://dc.lft.to/lastmile_qr_scan", "android": "https://dc.lft.to/lastmile_qr_scan"}, "lon": -77.0276735, "type": "electric_scooter", "fusion_lat": 0.0, "lat": 38.89199816666667, "name": "669e641288854ba213e818d1d7264e52", "fusion_lon": 0.0, "bike_id": "669e641288854ba213e818d1d7264e52", "is_disabled": 0, "is_reserved": 0}, {"rental_uris": {"ios": "https://dc.lft.to/lastmile_qr_scan", "android": "https://dc.lft.to/lastmile_qr_scan"}, "lon": -77.02072916666667, "type": "electric_scooter", "fusion_lat": 0.0, "lat": 38.93530966666667, "name": "e251a2a25b29a5f564a1e8f928f42901", "fusion_lon": 0.0, "bike_id": "e251a2a25b29a5f564a1e8f928f42901", "is_disabled": 0, "is_reserved": 0}, {"rental_uris": {"ios": "https://dc.lft.to/lastmile_qr_scan", "android": "https://dc.lft.to/lastmile_qr_scan"}, "lon": -77.04464766666666, "type": "electric_scooter", "fusion_lat": 0.0, "lat": 38.903207333333334, "name": "b8223f40d24860448212660b295114aa", "fusion_lon": 0.0, "bike_id": "b8223f40d24860448212660b295114aa", "is_disabled": 0, "is_reserved": 0}, {"rental_uris": {"ios": "https://dc.lft.to/lastmile_qr_scan", "android": "https://dc.lft.to/lastmile_qr_scan"}, "lon": -77.0107895, "type": "electric_bike", "fusion_lat": 0.0, "lat": 38.956537, "name": "cbc7ac3fb27aecdb861d5a8544d349b3", "fusion_lon": 0.0, "bike_id": "cbc7ac3fb27aecdb861d5a8544d349b3", "is_disabled": 0, "is_reserved": 0}, {"rental_uris": {"ios": "https://dc.lft.to/lastmile_qr_scan", "android": "https://dc.lft.to/lastmile_qr_scan"}, "lon": -77.04253316666667, "type": "electric_scooter", "fusion_lat": 0.0, "lat": 38.92057783333333, "name": "d371eb2b40281950b447a11b222bfb12", "fusion_lon": 0.0, "bike_id": "d371eb2b40281950b447a11b222bfb12", "is_disabled": 0, "is_reserved": 0}, {"rental_uris": {"ios": "https://dc.lft.to/lastmile_qr_scan", "android": "https://dc.lft.to/lastmile_qr_scan"}, "lon": -77.04487183333333, "type": "electric_scooter", "fusion_lat": 0.0, "lat": 38.9131365, "name": "964b1b5ae72feb1bec61d32516582d64", "fusion_lon": 0.0, "bike_id": "964b1b5ae72feb1bec61d32516582d64", "is_disabled": 0, "is_reserved": 0}, {"rental_uris": {"ios": "https://dc.lft.to/lastmile_qr_scan", "android": "https://dc.lft.to/lastmile_qr_scan"}, "lon": -77.00582533333333, "type": "electric_scooter", "fusion_lat": 0.0, "lat": 38.906074833333335, "name": "09c705b68c54e7016b0bce72199a1711", "fusion_lon": 0.0, "bike_id": "09c705b68c54e7016b0bce72199a1711", "is_disabled": 0, "is_reserved": 0}, {"rental_uris": {"ios": "https://dc.lft.to/lastmile_qr_scan", "android": "https://dc.lft.to/lastmile_qr_scan"}, "lon": -77.02838433333334, "type": "electric_scooter", "fusion_lat": 0.0, "lat": 38.924748666666666, "name": "a3176d59762c39933a6fc92bdac16390", "fusion_lon": 0.0, "bike_id": "a3176d59762c39933a6fc92bdac16390", "is_disabled": 0, "is_reserved": 0}, {"rental_uris": {"ios": "https://dc.lft.to/lastmile_qr_scan", "android": "https://dc.lft.to/lastmile_qr_scan"}, "lon": -77.0381765, "type": "electric_scooter", "fusion_lat": 0.0, "lat": 38.920625, "name": "a14710f1502aae61ef9d8f9eb692214a", "fusion_lon": 0.0, "bike_id": "a14710f1502aae61ef9d8f9eb692214a", "is_disabled": 0, "is_reserved": 0}, {"rental_uris": {"ios": "https://dc.lft.to/lastmile_qr_scan", "android": "https://dc.lft.to/lastmile_qr_scan"}, "lon": -77.0025975, "type": "electric_scooter", "fusion_lat": 0.0, "lat": 38.91186783333333, "name": "a33cad995a387ab8a8a2b13afaf04d52", "fusion_lon": 0.0, "bike_id": "a33cad995a387ab8a8a2b13afaf04d52", "is_disabled": 0, "is_reserved": 0}, {"rental_uris": {"ios": "https://dc.lft.to/lastmile_qr_scan", "android": "https://dc.lft.to/lastmile_qr_scan"}, "lon": -77.03054766666666, "type": "electric_scooter", "fusion_lat": 0.0, "lat": 38.884148333333336, "name": "ccbdd2f935a0c0dfda6ff0006e56c722", "fusion_lon": 0.0, "bike_id": "ccbdd2f935a0c0dfda6ff0006e56c722", "is_disabled": 0, "is_reserved": 0}, {"rental_uris": {"ios": "https://dc.lft.to/lastmile_qr_scan", "android": "https://dc.lft.to/lastmile_qr_scan"}, "lon": -77.04196983333334, "type": "electric_scooter", "fusion_lat": 0.0, "lat": 38.91871366666667, "name": "cef732addcdc52768c32b4134c2f4595", "fusion_lon": 0.0, "bike_id": "cef732addcdc52768c32b4134c2f4595", "is_disabled": 0, "is_reserved": 0}, {"rental_uris": {"ios": "https://dc.lft.to/lastmile_qr_scan", "android": "https://dc.lft.to/lastmile_qr_scan"}, "lon": -77.047852, "type": "electric_scooter", "fusion_lat": 0.0, "lat": 38.893645166666666, "name": "5ce6ff51d49ba783e2806527c15dd646", "fusion_lon": 0.0, "bike_id": "5ce6ff51d49ba783e2806527c15dd646", "is_disabled": 0, "is_reserved": 0}, {"rental_uris": {"ios": "https://dc.lft.to/lastmile_qr_scan", "android": "https://dc.lft.to/lastmile_qr_scan"}, "lon": -77.02353833333333, "type": "electric_scooter", "fusion_lat": 0.0, "lat": 38.9205375, "name": "265907b7964b07bff7990f7abf195ee0", "fusion_lon": 0.0, "bike_id": "265907b7964b07bff7990f7abf195ee0", "is_disabled": 0, "is_reserved": 0}, {"rental_uris": {"ios": "https://dc.lft.to/lastmile_qr_scan", "android": "https://dc.lft.to/lastmile_qr_scan"}, "lon": -76.99576833333333, "type": "electric_scooter", "fusion_lat": 0.0, "lat": 38.900305333333336, "name": "98954068401c123d053cdbcf88ae04bf", "fusion_lon": 0.0, "bike_id": "98954068401c123d053cdbcf88ae04bf", "is_disabled": 0, "is_reserved": 0}, {"rental_uris": {"ios": "https://dc.lft.to/lastmile_qr_scan", "android": "https://dc.lft.to/lastmile_qr_scan"}, "lon": -77.04465316666666, "type": "electric_scooter", "fusion_lat": 0.0, "lat": 38.9030695, "name": "582aca2120c229a8487cd1f065af669e", "fusion_lon": 0.0, "bike_id": "582aca2120c229a8487cd1f065af669e", "is_disabled": 0, "is_reserved": 0}, {"rental_uris": {"ios": "https://dc.lft.to/lastmile_qr_scan", "android": "https://dc.lft.to/lastmile_qr_scan"},