{"data": {"bikes": [{"bike_id": "a017e91613650b0f90191456efd72b8c", "is_reserved": 0, "name": "a017e91613650b0f90191456efd72b8c", "lat": 38.89876983333333, "fusion_lat": 0.0, "lon": -76.93179716666667, "is_disabled": 0, "fusion_lon": 0.0, "rental_uris": {"android": "https://dc.lft.to/lastmile_qr_scan", "ios": "https://dc.lft.to/lastmile_qr_scan"}, "type": "electric_scooter"}, {"bike_id": "f80ce7921f1d083fc83744419f9a0e77", "is_reserved": 0, "name": "f80ce7921f1d083fc83744419f9a0e77", "lat": 38.90551933333333, "fusion_lat": 0.0, "lon": -77.00522816666667, "is_disabled": 0, "fusion_lon": 0.0, "rental_uris": {"android": "https://dc.lft.to/lastmile_qr_scan", "ios": "https://dc.lft.to/lastmile_qr_scan"}, "type": "electric_scooter"}, {"bike_id": "a7d5db5435e232ac2ba43bbd2316cf11", "is_reserved": 0, "name": "a7d5db5435e232ac2ba43bbd2316cf11", "lat": 38.90302483333333, "fusion_lat": 0.0, "lon": -77.05814683333334, "is_disabled": 0, "fusion_lon": 0.0, "rental_uris": {"android": "https://dc.lft.to/lastmile_qr_scan", "ios": "https://dc.lft.to/lastmile_qr_scan"}, "type": "electric_scooter"}, {"bike_id": "eb27dd196d4a5b131102297199262664", "is_reserved": 0, "name": "eb27dd196d4a5b131102297199262664", "lat": 38.907176, "fusion_lat": 0.0, "lon": -77.0288945, "is_disabled": 0, "fusion_lon": 0.0, "rental_uris": {"android": "https://dc.lft.to/lastmile_qr_scan", "ios": "https://dc.lft.to/lastmile_qr_scan"}, "type": "electric_scooter"}, {"bike_id": "5d3ec1968eae972c157263ac71c42f33", "is_reserved": 0, "name": "5d3ec1968eae972c157263ac71c42f33", "lat": 38.91417233333333, "fusion_lat": 0.0, "lon": -77.0418175, "is_disabled": 0, "fusion_lon": 0.0, "rental_uris": {"android": "https://dc.lft.to/lastmile_qr_scan", "ios": "https://dc.lft.to/lastmile_qr_scan"}, "type": "electric_scooter"}, {"bike_id": "db15846df5d5e9ead77e391b5c52dd52", "is_reserved": 0, "name": "db15846df5d5e9ead77e391b5c52dd52", "lat": 38.92023016666667, "fusion_lat": 0.0, "lon": -77.01309433333333, "is_disabled": 0, "fusion_lon": 0.0, "rental_uris": {"android": "https://dc.lft.to/lastmile_qr_scan", "ios": "https://dc.lft.to/lastmile_qr_scan"}, "type": "electric_scooter"}, {"bike_id": "4c7ac8b7679782a99c7bbd0f3890ff50", "is_reserved": 0, "name": "4c7ac8b7679782a99c7bbd0f3890ff50", "lat": 38.8924895, "fusion_lat": 0.0, "lon": -77.03957716666666, "is_disabled": 0, "fusion_lon": 0.0, "rental_uris": {"android": "https://dc.lft.to/lastmile_qr_scan", "ios": "https://dc.lft.to/lastmile_qr_scan"}, "type": "electric_scooter"}, {"bike_id": "97fc34da3fd17d2bc1fac8df2d17fe16", "is_reserved": 0, "name": "97fc34da3fd17d2bc1fac8df2d17fe16", "lat": 38.94831683333334, "fusion_lat": 0.0, "lon": -77.0999395, "is_disabled": 0, "fusion_lon": 0.0, "rental_uris": {"android": "https://dc.lft.to/lastmile_qr_scan", "ios": "https://dc.lft.to/lastmile_qr_scan"}, "type": "electric_scooter"}, {"bike_id": "23364988cfa204d9ef95bac4fb8982dc", "is_reserved": 0, "name": "23364988cfa204d9ef95bac4fb8982dc", "lat": 38.883749333333334, "fusion_lat": 0.0, "lon": -76.9951275, "is_disabled": 0, "fusion_lon": 0.0, "rental_uris": {"android": "https://dc.lft.to/lastmile_qr_scan", "ios": "https://dc.lft.to/lastmile_qr_scan"}, "type": "electric_scooter"}, {"bike_id": "8160882044cdf267399592d3be834632", "is_reserved": 0, "name": "8160882044cdf267399592d3be834632", "lat": 38.9232305, "fusion_lat": 0.0, "lon": -77.0403135, "is_disabled": 0, "fusion_lon": 0.0, "rental_uris": {"android": "https://dc.lft.to/lastmile_qr_scan", "ios": "https://dc.lft.to/lastmile_qr_scan"}, "type": "electric_scooter"}, {"bike_id": "9b987d3af8b08b13cec2b2499e7cdd45", "is_reserved": 0, "name": "9b987d3af8b08b13cec2b2499e7cdd45", "lat": 38.893649833333335, "fusion_lat": 0.0, "lon": -77.003298, "is_disabled": 0, "fusion_lon": 0.0, "rental_uris": {"android": "https://dc.lft.to/lastmile_qr_scan", "ios": "https://dc.lft.to/lastmile_qr_scan"}, "type": "electric_scooter"}, {"bike_id": "8d125c7c1fb81ce6fec56d3d0939f2ac", "is_reserved": 0, "name": "8d125c7c1fb81ce6fec56d3d0939f2ac", "lat": 38.91214033333333, "fusion_lat": 0.0, "lon": -77.02962766666667, "is_disabled": 0, "fusion_lon": 0.0, "rental_uris": {"android": "https://dc.lft.to/lastmile_qr_scan", "ios": "https://dc.lft.to/lastmile_qr_scan"}, "type": "electric_scooter"}, {"bike_id": "750bba8b54aa412e3659c9862bacc4e7", "is_reserved": 0, "name": "750bba8b54aa412e3659c9862bacc4e7", "lat": 38.88746483333333, "fusion_lat": 0.0, "lon": -77.02567366666666, "is_disabled": 0, "fusion_lon": 0.0, "rental_uris": {"android": "https://dc.lft.to/lastmile_qr_scan", "ios": "https://dc.lft.to/lastmile_qr_scan"}, "type": "electric_scooter"}, {"bike_id": "384f411f6af5401de763a14d1c040708", "is_reserved": 0, "name": "384f411f6af5401de763a14d1c040708", "lat": 38.91461066666667, "fusion_lat": 0.0, "lon": -77.00209683333334, "is_disabled": 0, "fusion_lon": 0.0, "rental_uris": {"android": "https://dc.lft.to/lastmile_qr_scan", "ios": "https://dc.lft.to/lastmile_qr_scan"}, "type": "electric_scooter"}, {"bike_id": "806ead7fa6e80ee746aa2a0c6028a545", "is_reserved": 0, "name": "806ead7fa6e80ee746aa2a0c6028a545", "lat": 38.934800833333334, "fusion_lat": 0.0, "lon": -77.07270916666667, "is_disabled": 0, "fusion_lon": 0.0, "rental_uris": {"android": "https://dc.lft.to/lastmile_qr_scan", "ios": "https://dc.lft.to/lastmile_qr_scan"}, "type": "electric_scooter"}, {"bike_id": "409e88b9378ea63c5d511742de5e15e6", "is_reserved": 0, "name": "409e88b9378ea63c5d511742de5e15e6", "lat": 38.88690366666667, "fusion_lat": 0.0, "lon": -77.031844, "is_disabled": 0, "fusion_lon": 0.0, "rental_uris": {"android": "https://dc.lft.to/lastmile_qr_scan", "ios": "https://dc.lft.to/lastmile_qr_scan"}, "type": "electric_scooter"}, {"bike_id": "aa1e73049b9e23abdd57bdc73df5f249", "is_reserved": 0, "name": "aa1e73049b9e23abdd57bdc73df5f249", "lat": 38.90560633333333, "fusion_lat": 0.0, "lon": -77.02424316666666, "is_disabled": 0, "fusion_lon": 0.0, "rental_uris": {"android": "https://dc.lft.to/lastmile_qr_scan", "ios": "https://dc.lft.to/lastmile_qr_scan"}, "type": "electric_scooter"}, {"bike_id": "cc8b1ef67876e7e9f08c2bfe0e8af5ba", "is_reserved": 0, "name": "cc8b1ef67876e7e9f08c2bfe0e8af5ba", "lat": 38.8988965, "fusion_lat": 0.0, "lon": -76.93173483333334, "is_disabled": 0, "fusion_lon": 0.0, "rental_uris": {"android": "https://dc.lft.to/lastmile_qr_scan", "ios": "https://dc.lft.to/lastmile_qr_scan"}, "type": "electric_scooter"}, {"bike_id": "0056377182c4c48ea2c85f886c9415be", "is_reserved": 0, "name": "0056377182c4c48ea2c85f886c9415be", "lat": 38.89223283333333, "fusion_lat": 0.0, "lon": -77.02223533333333, "is_disabled": 0, "fusion_lon": 0.0, "rental_uris": {"android": "https://dc.lft.to/lastmile_qr_scan", "ios": "https://dc.lft.to/lastmile_qr_scan"}, "type": "electric_scooter"}, {"bike_id": "f767381edc3b756c9b6ce40d74c3a2af", "is_reserved": 0, "name": "f767381edc3b756c9b6ce40d74c3a2af", "lat": 38.91228516666666, "fusion_lat": 0.0, "lon": -76.9899425, "is_disabled": 0, "fusion_lon": 0.0, "rental_uris": {"android": "https://dc.lft.to/lastmile_qr_scan", "ios": "https://dc.lft.to/lastmile_qr_scan"}, "type": "electric_scooter"}, {"bike_id": "b03d30eb817045879c3164ff501f50db", "is_reserved": 0, "name": "b03d30eb817045879c3164ff501f50db", "lat": 38.934034833333335, "fusion_lat": 0.0, "lon": -77.03985733333333, "is_disabled": 0, "fusion_lon": 0.0, "rental_uris": {"android": "https://dc.lft.to/lastmile_qr_scan", "ios": "https://dc.lft.to/lastmile_qr_scan"}, "type": "electric_scooter"}, {"bike_id": "98f8e1bd85b78d72404601a004a626f3", "is_reserved": 0, "name": "98f8e1bd85b78d72404601a004a626f3", "lat": 38.88625283333333, "fusion_lat": 0.0, "lon": -77.02821183333333, "is_disabled": 0, "fusion_lon": 0.0, "rental_uris": {"android": "https://dc.lft.to/lastmile_qr_scan", "ios": "https://dc.lft.to/lastmile_qr_scan"}, "type": "electric_scooter"}, {"bike_id": "2d17b33130ed32dc40ab628010d0b54e", "is_reserved": 0, "name": "2d17b33130ed32dc40ab628010d0b54e", "lat": 39.036108166666665, "fusion_lat": 0.0, "lon": -77.05548416666667, "is_disabled": 0, "fusion_lon": 0.0, "rental_uris": {"android": "https://dc.lft.to/lastmile_qr_scan", "ios": "https://dc.lft.to/lastmile_qr_scan"}, "type": "electric_bike"}, {"bike_id": "b7ffb5c83c1bd8a5a0c8766f90b597fa", "is_reserved": 0, "name": "b7ffb5c83c1bd8a5a0c8766f90b597fa", "lat": 38.925511666666665, "fusion_lat": 0.0, "lon": -77.040639, "is_disabled": 0, "fusion_lon": 0.0, "rental_uris": {"android": "https://dc.lft.to/lastmile_qr_scan", "ios": "https://dc.lft.to/lastmile_qr_scan"}, "type": "electric_scooter"}, {"bike_id": "2157ac465dc5ab544a7ec9b624a2fe87", "is_reserved": 0, "name": "2157ac465dc5ab544a7ec9b624a2fe87", "lat": 38.92768216666666, "fusion_lat": 0.0, "lon": -77.02064766666666, "is_disabled": 0, "fusion_lon": 0.0, "rental_uris": {"android": "https://dc.lft.to/lastmile_qr_scan", "ios": "https://dc.lft.to/lastmile_qr_scan"}, "type": "electric_scooter"}, {"bike_id": "b351cacda41891bbca8a4f5236a3ada1", "is_reserved": 0, "name": "b351cacda41891bbca8a4f5236a3ada1", "lat": 38.924065666666664, "fusion_lat": 0.0, "lon": -77.0354995, "is_disabled": 0, "fusion_lon": 0.0, "rental_uris": {"android": "https://dc.lft.to/lastmile_qr_scan", "ios": "https://dc.lft.to/lastmile_qr_scan"}, "type": "electric_scooter"}, {"bike_id": "ac11e58b98fac40041c3ce16139d1527", "is_reserved": 0, "name": "ac11e58b98fac40041c3ce16139d1527", "lat": 38.921506, "fusion_lat": 0.0, "lon": -77.03870083333334, "is_disabled": 0, "fusion_lon": 0.0, "rental_uris": {"android": "https://dc.lft.to/lastmile_qr_scan", "ios": "https://dc.lft.to/lastmile_qr_scan"}, "type": "electric_scooter"}, {"bike_id": "ec70470cc8ce9060e807051c895dc706", "is_reserved": 0, "name": "ec70470cc8ce9060e807051c895dc706", "lat": 38.9040185, "fusion_lat": 0.0, "lon": -77.02582733333334, "is_disabled": 0, "fusion_lon": 0.0, "rental_uris": {"android": "https://dc.lft.to/lastmile_qr_scan", "ios": "https://dc.lft.to/lastmile_qr_scan"}, "type": "electric_scooter"}, {"bike_id": "f88fa2129d5d4d4db92ec1aea8cad271", "is_reserved": 0, "name": "f88fa2129d5d4d4db92ec1aea8cad271", "lat": 38.89836916666667, "fusion_lat": 0.0, "lon": -77.0302555, "is_disabled": 0, "fusion_lon": 0.0, "rental_uris": {"android": "https://dc.lft.to/lastmile_qr_scan", "ios": "https://dc.lft.to/lastmile_qr_scan"}, "type": "electric_scooter"}, {"bike_id": "5f04d479e688ab31756284ea7dd4fa55", "is_reserved": 0, "name": "5f04d479e688ab31756284ea7dd4fa55", "lat": 38.89974733333333, "fusion_lat": 0.0, "lon": -76.99486683333333, "is_disabled": 0, "fusion_lon": 0.0, "rental_uris": {"android": "https://dc.lft.to/lastmile_qr_scan", "ios": "https://dc.lft.to/lastmile_qr_scan"}, "type": "electric_scooter"}, {"bike_id": "6a4351357fa74730127a2dd185a04dc6", "is_reserved": 0, "name": "6a4351357fa74730127a2dd185a04dc6", "lat": 38.917986166666665, "fusion_lat": 0.0, "lon": -77.0344525, "is_disabled": 0, "fusion_lon": 0.0, "rental_uris": {"android": "https://dc.lft.to/lastmile_qr_scan", "ios": "https://dc.lft.to/lastmile_qr_scan"}, "type": "electric_scooter"}, {"bike_id": "bd561557c239a0322e6566196feb17c4", "is_reserved": 0, "name": "bd561557c239a0322e6566196feb17c4", "lat": 38.85731833333333, "fusion_lat": 0.0, "lon": -77.09811166666667, "is_disabled": 0, "fusion_lon": 0.0, "rental_uris": {"android": "https://dc.lft.to/lastmile_qr_scan", "ios": "https://dc.lft.to/lastmile_qr_scan"}, "type": "electric_bike"}, {"bike_id": "9e089f073a2c45e979e9487e1ed81638", "is_reserved": 0, "name": "9e089f073a2c45e979e9487e1ed81638", "lat": 38.866651833333336, "fusion_lat": 0.0, "lon": -76.98901266666667, "is_disabled": 0, "fusion_lon": 0.0, "rental_uris": {"android": "https://dc.lft.to/lastmile_qr_scan", "ios": "https://dc.lft.to/lastmile_qr_scan"}, "type": "electric_scooter"}, {"bike_id": "f6a61dffba9a7ac0e6ba4156f8183439", "is_reserved": 0, "name": "f6a61dffba9a7ac0e6ba4156f8183439", "lat": 38.871640666666664, "fusion_lat": 0.0, "lon": -77.005686, "is_disabled": 0, "fusion_lon": 0.0, "rental_uris": {"android": "https://dc.lft.to/lastmile_qr_scan", "ios": "https://dc.lft.to/lastmile_qr_scan"}, "type": "electric_scooter"}, {"bike_id": "e31beb7bf1aaee9f1aaf7856ffb4fdf6", "is_reserved": 0, "name": "e31beb7bf1aaee9f1aaf7856ffb4fdf6", "lat": 38.892887333333334, "fusion_lat": 0.0, "lon": -77.01239016666666, "is_disabled": 0, "fusion_lon": 0.0, "rental_uris": {"android": "https://dc.lft.to/lastmile_qr_scan", "ios": "https://dc.lft.to/lastmile_qr_scan"}, "type": "electric_scooter"}, {"bike_id": "bcec9236a57cafd7d5827d1e11ba753e", "is_reserved": 0, "name": "bcec9236a57cafd7d5827d1e11ba753e", "lat": 38.93061316666667, "fusion_lat": 0.0, "lon": -77.023221, "is_disabled": 0, "fusion_lon": 0.0, "rental_uris": {"android": "https://dc.lft.to/lastmile_qr_scan", "ios": "https://dc.lft.to/lastmile_qr_scan"}, "type": "electric_scooter"}, {"bike_id": "0508b7cc59c8dd736cbfeb83c018dd7f", "is_reserved": 0, "name": "0508b7cc59c8dd736cbfeb83c018dd7f", "lat": 38.934300666666665, "fusion_lat": 0.0, "lon": -77.04004216666667, "is_disabled": 0, "fusion_lon": 0.0, "rental_uris": {"android": "https://dc.lft.to/lastmile_qr_scan", "ios": "https://dc.lft.to/lastmile_qr_scan"}, "type": "electric_scooter"}, {"bike_id": "d3f77e04f6d63ca9fffe975717ee644f", "is_reserved": 0, "name": "d3f77e04f6d63ca9fffe975717ee644f", "lat": 38.916858833333336, "fusion_lat": 0.0, "lon": -77.03860216666666, "is_disabled": 0, "fusion_lon": 0.0, "rental_uris": {"android": "https://dc.lft.to/lastmile_qr_scan", "ios": "https://dc.lft.to/lastmile_qr_scan"}, "type": "electric_scooter"}, {"bike_id": "b2c9a4b34ba16a8c337b08db3359d1ca", "is_reserved": 0, "name": "b2c9a4b34ba16a8c337b08db3359d1ca", "lat": 38.88491466666667, "fusion_lat": 0.0, "lon": -76.98055383333333, "is_disabled": 0, "fusion_lon": 0.0, "rental_uris": {"android": "https://dc.lft.to/lastmile_qr_scan", "ios": "https://dc.lft.to/lastmile_qr_scan"}, "type": "electric_scooter"}, {"bike_id": "bfbd74c5d67bbe2c3182a20a1e4c74b0", "is_reserved": 0, "name": "bfbd74c5d67bbe2c3182a20a1e4c74b0", "lat": 38.930941833333335, "fusion_lat": 0.0, "lon": -77.03079183333334, "is_disabled": 0, "fusion_lon": 0.0, "rental_uris": {"android": "https://dc.lft.to/lastmile_qr_scan", "ios": "https://dc.lft.to/lastmile_qr_scan"}, "type": "electric_scooter"}, {"bike_id": "5a35e3d96689f43af628b4fd9755cbe0", "is_reserved": 0, "name": "5a35e3d96689f43af628b4fd9755cbe0", "lat": 38.90871166666667, "fusion_lat": 0.0, "lon": -77.02348666666667, "is_disabled": 0, "fusion_lon": 0.0, "rental_uris": {"android": "https://dc.lft.to/lastmile_qr_scan", "ios": "https://dc.lft.to/lastmile_qr_scan"}, "type": "electric_scooter"}, {"bike_id": "d1f2c0ff1fe53e9dff441213f72c478f", "is_reserved": 0, "name": "d1f2c0ff1fe53e9dff441213f72c478f", "lat": 38.91004566666667, "fusion_lat": 0.0, "lon": -77.03450383333333, "is_disabled": 0, "fusion_lon": 0.0, "rental_uris": {"android": "https://dc.lft.to/lastmile_qr_scan", "ios": "https://dc.lft.to/lastmile_qr_scan"}, "type": "electric_scooter"}, {"bike_id": "9c0ac548c82ed6760248ff6c7810e99a", "is_reserved": 0, "name": "9c0ac548c82ed6760248ff6c7810e99a", "lat": 38.895652, "fusion_lat": 0.0, "lon": -76.948713, "is_disabled": 0, "fusion_lon": 0.0, "rental_uris": {"android": "https://dc.lft.to/lastmile_qr_scan", "ios": "https://dc.lft.to/lastmile_qr_scan"}, "type": "electric_scooter"}, {"bike_id": "24fd160b8664cea4e1c9ea6b51b43f69", "is_reserved": 0, "name": "24fd160b8664cea4e1c9ea6b51b43f69", "lat": 38.965758666666666, "fusion_lat": 0.0, "lon": -77.00266283333333, "is_disabled": 0, "fusion_lon": 0.0, "rental_uris": {"android": "https://dc.lft.to/lastmile_qr_scan", "ios": "https://dc.lft.to/lastmile_qr_scan"}, "type": "electric_scooter"}, {"bike_id": "1ce5b4898235a26752fcaad78ad8f8c1", "is_reserved": 0, "name": "1ce5b4898235a26752fcaad78ad8f8c1", "lat": 38.89831366666667, "fusion_lat": 0.0, "lon": -77.03031533333333, "is_disabled": 0, "fusion_lon": 0.0, "rental_uris": {"android": "https://dc.lft.to/lastmile_qr_scan", "ios": "https://dc.lft.to/lastmile_qr_scan"}, "type": "electric_scooter"}, {"bike_id": "6861d8cb76bbccaeff57da8dd9e2f6b7", "is_reserved": 0, "name": "6861d8cb76bbccaeff57da8dd9e2f6b7", "lat": 38.961853166666664, "fusion_lat": 0.0, "lon": -77.052641, "is_disabled": 0, "fusion_lon": 0.0, "rental_uris": {"android": "https://dc.lft.to/lastmile_qr_scan", "ios": "https://dc.lft.to/lastmile_qr_scan"}, "type": "electric_bike"}, {"bike_id": "1fef99d17ecdd850a52b71f15f6ddfbe", "is_reserved": 0, "name": "1fef99d17ecdd850a52b71f15f6ddfbe", "lat": 38.90582466666667, "fusion_lat": 0.0, "lon": -77.02378733333333, "is_disabled": 0, "fusion_lon": 0.0, "rental_uris": {"android": "https://dc.lft.to/lastmile_qr_scan", "ios": "https://dc.lft.to/lastmile_qr_scan"}, "type": "electric_scooter"}, {"bike_id": "816c16006a3d6dfdb35ae6aef790acd8", "is_reserved": 0, "name": "816c16006a3d6dfdb35ae6aef790acd8", "lat": 38.86735616666667, "fusion_lat": 0.0, "lon": -76.987897, "is_disabled": 0, "fusion_lon": 0.0, "rental_uris": {"android": "https://dc.lft.to/lastmile_qr_scan", "ios": "https://dc.lft.to/lastmile_qr_scan"}, "type": "electric_scooter"}, {"bike_id": "7c6085e0ccab2d68d5a03d3c2d8ff657", "is_reserved": 0, "name": "7c6085e0ccab2d68d5a03d3c2d8ff657", "lat": 38.904858833333336, "fusion_lat": 0.0, "lon": -77.02111916666667, "is_disabled": 0, "fusion_lon": 0.0, "rental_uris": {"android": "https://dc.lft.to/lastmile_qr_scan", "ios": "https://dc.lft.to/lastmile_qr_scan"}, "type": "electric_scooter"}, {"bike_id": "56d85bd202b752047ff3968a69157ec7", "is_reserved": 0, "name": "56d85bd202b752047ff3968a69157ec7", "lat": 38.92418416666667, "fusion_lat": 0.0, "lon": -77.0574965, "is_disabled": 0, "fusion_lon": 0.0, "rental_uris": {"android": "https://dc.lft.to/lastmile_qr_scan", "ios": "https://dc.lft.to/lastmile_qr_scan"}, "type": "electric_scooter"}, {"bike_id": "02d9707beca3b31444e746b570aec334", "is_reserved": 0, "name": "02d9707beca3b31444e746b570aec334", "lat": 38.91716616666667, "fusion_lat": 0.0, "lon": -77.02702133333334, "is_disabled": 0, "fusion_lon": 0.0, "rental_uris": {"android": "https://dc.lft.to/lastmile_qr_scan", "ios": "https://dc.lft.to/lastmile_qr_scan"}, "type": "electric_scooter"}, {"bike_id": "92744176237091541ccefba7b715fbc8", "is_reserved": 0, "name": "92744176237091541ccefba7b715fbc8", "lat": 38.87374716666667, "fusion_lat": 0.0, "lon": -77.001308, "is_disabled": 0, "fusion_lon": 0.0, "rental_uris": {"android": "https://dc.lft.to/lastmile_qr_scan", "ios": "https://dc.lft.to/lastmile_qr_scan"}, "type": "electric_scooter"}, {"bike_id": "0e589008b3d8328dfb939e45b5bcb972", "is_reserved": 0, "name": "0e589008b3d8328dfb939e45b5bcb972", "lat": 38.903345, "fusion_lat": 0.0, "lon": -77.023942, "is_disabled": 0, "fusion_lon": 0.0, "rental_uris": {"android": "https://dc.lft.to/lastmile_qr_scan", "ios": "https://dc.lft.to/lastmile_qr_scan"}, "type": "electric_scooter"}, {"bike_id": "4a739f2a4c47d4da9250e3771a241af8", "is_reserved": 0, "name": "4a739f2a4c47d4da9250e3771a241af8", "lat": 38.89222483333333, "fusion_lat": 0.0, "lon": -77.026299, "is_disabled": 0, "fusion_lon": 0.0, "rental_uris": {"android": "https://dc.lft.to/lastmile_qr_scan", "ios": "https://dc.lft.to/lastmile_qr_scan"}, "type": "electric_scooter"}, {"bike_id": "99a4be0951eb71cc9b7d057affbcc2eb", "is_reserved": 0, "name": "99a4be0951eb71cc9b7d057affbcc2eb", "lat": 38.905927, "fusion_lat": 0.0, "lon": -77.046969, "is_disabled": 0, "fusion_lon": 0.0, "rental_uris": {"android": "https://dc.lft.to/lastmile_qr_scan", "ios": "https://dc.lft.to/lastmile_qr_scan"}, "type": "electric_scooter"}, {"bike_id": "cea94203ed4a86f59512456905e6e5a8", "is_reserved": 0, "name": "cea94203ed4a86f59512456905e6e5a8", "lat": 38.921226833333336, "fusion_lat": 0.0, "lon": -77.23671666666667, "is_disabled": 0, "fusion_lon": 0.0, "rental_uris": {"android": "https://dc.lft.to/lastmile_qr_scan", "ios": "https://dc.lft.to/lastmile_qr_scan"}, "type": "electric_bike"}, {"bike_id": "c362084c444b66257ee0ff6d4ca9b275", "is_reserved": 0, "name": "c362084c444b66257ee0ff6d4ca9b275", "lat": 38.87664216666667, "fusion_lat": 0.0, "lon": -77.00311733333334, "is_disabled": 0, "fusion_lon": 0.0, "rental_uris": {"android": "https://dc.lft.to/lastmile_qr_scan", "ios": "https://dc.lft.to/lastmile_qr_scan"}, "type": "electric_scooter"}, {"bike_id": "9a6fa822e39940b1934b4458324de39e", "is_reserved": 0, "name": "9a6fa822e39940b1934b4458324de39e", "lat": 38.892251, "fusion_lat": 0.0, "lon": -77.04893983333334, "is_disabled": 0, "fusion_lon": 0.0, "rental_uris": {"android": "https://dc.lft.to/lastmile_qr_scan", "ios": "https://dc.lft.to/lastmile_qr_scan"}, "type": "electric_scooter"}, {"bike_id": "f267a203a85117009e5936b8e3baf769", "is_reserved": 0, "name": "f267a203a85117009e5936b8e3baf769", "lat": 38.91572583333333, "fusion_lat": 0.0, "lon": -76.9838725, "is_disabled": 0, "fusion_lon": 0.0, "rental_uris": {"android": "https://dc.lft.to/lastmile_qr_scan", "ios": "https://dc.lft.to/lastmile_qr_scan"}, "type": "electric_scooter"}, {"bike_id": "a3f38af18f6fc1eb48d956dfe6707fa5", "is_reserved": 0, "name": "a3f38af18f6fc1eb48d956dfe6707fa5", "lat": 38.959067, "fusion_lat": 0.0, "lon": -77.022173, "is_disabled": 0, "fusion_lon": 0.0, "rental_uris": {"android": "https://dc.lft.to/lastmile_qr_scan", "ios": "https://dc.lft.to/lastmile_qr_scan"}, "type": "electric_scooter"}, {"bike_id": "e9e66db4dd4c367c08483749905f0051", "is_reserved": 0, "name": "e9e66db4dd4c367c08483749905f0051", "lat": 38.90349616666666, "fusion_lat": 0.0, "lon": -77.0294885, "is_disabled": 0, "fusion_lon": 0.0, "rental_uris": {"android": "https://dc.lft.to/lastmile_qr_scan", "ios": "https://dc.lft.to/lastmile_qr_scan"}, "type": "electric_scooter"}, {"bike_id": "2a3639db0c2222a6a25ae4809b4d9855", "is_reserved": 0, "name": "2a3639db0c2222a6a25ae4809b4d9855", "lat": 38.899111833333336, "fusion_lat": 0.0, "lon": -77.02719766666667, "is_disabled": 0, "fusion_lon": 0.0, "rental_uris": {"android": "https://dc.lft.to/lastmile_qr_scan", "ios": "https://dc.lft.to/lastmile_qr_scan"}, "type": "electric_scooter"}, {"bike_id": "ab85add87dded4c81c747794d2a408b2", "is_reserved": 0, "name": "ab85add87dded4c81c747794d2a408b2", "lat": 38.90656466666667, "fusion_lat": 0.0, "lon": -77.0316235, "is_disabled": 0, "fusion_lon": 0.0, "rental_uris": {"android": "https://dc.lft.to/lastmile_qr_scan", "ios": "https://dc.lft.to/lastmile_qr_scan"}, "type": "electric_scooter"}, {"bike_id": "faf7e7834dd92eb0ff761e264965c9de", "is_reserved": 0, "name": "faf7e7834dd92eb0ff761e264965c9de", "lat": 38.88767983333334, "fusion_lat": 0.0, "lon": -77.02368633333333, "is_disabled": 0, "fusion_lon": 0.0, "rental_uris": {"android": "https://dc.lft.to/lastmile_qr_scan", "ios": "https://dc.lft.to/lastmile_qr_scan"}, "type": "electric_scooter"}, {"bike_id": "ae7e2af81f1b5d726bb49461fb58a62c", "is_reserved": 0, "name": "ae7e2af81f1b5d726bb49461fb58a62c", "lat": 38.9547025, "fusion_lat": 0.0, "lon": -77.00915566666667, "is_disabled": 0, "fusion_lon": 0.0, "rental_uris": {"android": "https://dc.lft.to/lastmile_qr_scan", "ios": "https://dc.lft.to/lastmile_qr_scan"}, "type": "electric_scooter"}, {"bike_id": "27f5691b282607b1a36ef0824f26de06", "is_reserved": 0, "name": "27f5691b282607b1a36ef0824f26de06", "lat": 38.92190933333333, "fusion_lat": 0.0, "lon": -77.04343316666667, "is_disabled": 0, "fusion_lon": 0.0, "rental_uris": {"android": "https://dc.lft.to/lastmile_qr_scan", "ios": "https://dc.lft.to/lastmile_qr_scan"}, "type": "electric_scooter"}, {"bike_id": "46eac9f3fcb9075be214d2d250b4697c", "is_reserved": 0, "name": "46eac9f3fcb9075be214d2d250b4697c", "lat": 38.92936266666667, "fusion_lat": 0.0, "lon": -77.03282483333334, "is_disabled": 0, "fusion_lon": 0.0, "rental_uris": {"android": "https://dc.lft.to/lastmile_qr_scan", "ios": "https://dc.lft.to/lastmile_qr_scan"}, "type": "electric_scooter"}, {"bike_id": "84529906cc99fd70fdd3aea1f77a3f57", "is_reserved": 0, "name": "84529906cc99fd70fdd3aea1f77a3f57", "lat": 38.89851616666667, "fusion_lat": 0.0, "lon": -76.95042616666667, "is_disabled": 0, "fusion_lon": 0.0, "rental_uris": {"android": "https://dc.lft.to/lastmile_qr_scan", "ios": "https://dc.lft.to/lastmile_qr_scan"}, "type": "electric_scooter"}, {"bike_id": "3d061e341f3563164754d1629f71debc", "is_reserved": 0, "name": "3d061e341f3563164754d1629f71debc", "lat": 38.912726, "fusion_lat": 0.0, "lon": -77.02385233333334, "is_disabled": 0, "fusion_lon": 0.0, "rental_uris": {"android": "https://dc.lft.to/lastmile_qr_scan", "ios": "https://dc.lft.to/lastmile_qr_scan"}, "type": "electric_scooter"}, {"bike_id": "4c3fc654a8f4e9bce02d3610201a1e8f", "is_reserved": 0, "name": "4c3fc654a8f4e9bce02d3610201a1e8f", "lat": 38.89719083333333, "fusion_lat": 0.0, "lon": -77.00795833333333, "is_disabled": 0, "fusion_lon": 0.0, "rental_uris": {"android": "https://dc.lft.to/lastmile_qr_scan", "ios": "https://dc.lft.to/lastmile_qr_scan"}, "type": "electric_scooter"}, {"bike_id": "9d9ef2bff85973051284acd924b519a3", "is_reserved": 0, "name": "9d9ef2bff85973051284acd924b519a3", "lat": 38.897661166666666, "fusion_lat": 0.0, "lon": -77.02719366666666, "is_disabled": 0, "fusion_lon": 0.0, "rental_uris": {"android": "https://dc.lft.to/lastmile_qr_scan", "ios": "https://dc.lft.to/lastmile_qr_scan"}, "type": "electric_scooter"}, {"bike_id": "21d7a51083e296881a9ab567c45191f9", "is_reserved": 0, "name": "21d7a51083e296881a9ab567c45191f9", "lat": 38.89355966666667, "fusion_lat": 0.0, "lon": -76.98652166666666, "is_disabled": 0, "fusion_lon": 0.0, "rental_uris": {"android": "https://dc.lft.to/lastmile_qr_scan", "ios": "https://dc.lft.to/lastmile_qr_scan"}, "type": "electric_scooter"}, {"bike_id": "0ab632a268367bbe2fd1dc5a57d16736", "is_reserved": 0, "name": "0ab632a268367bbe2fd1dc5a57d16736", "lat": 38.901506833333336, "fusion_lat": 0.0, "lon": -77.0259565, "is_disabled": 0, "fusion_lon": 0.0, "rental_uris": {"android": "https://dc.lft.to/lastmile_qr_scan", "ios": "https://dc.lft.to/lastmile_qr_scan"}, "type": "electric_scooter"}, {"bike_id": "8ec7263d0658466c4593aaca0c0a85cf", "is_reserved": 0, "name": "8ec7263d0658466c4593aaca0c0a85cf", "lat": 38.920118, "fusion_lat": 0.0, "lon": -77.0317135, "is_disabled": 0, "fusion_lon": 0.0, "rental_uris": {"android": "https://dc.lft.to/lastmile_qr_scan", "ios": "https://dc.lft.to/lastmile_qr_scan"}, "type": "electric_scooter"}, {"bike_id": "453803a9e55e7aa312b2582809416b83", "is_reserved": 0, "name": "453803a9e55e7aa312b2582809416b83", "lat": 38.909767, "fusion_lat": 0.0, "lon": -77.03180083333334, "is_disabled": 0, "fusion_lon": 0.0, "rental_uris": {"android": "https://dc.lft.to/lastmile_qr_scan", "ios": "https://dc.lft.to/lastmile_qr_scan"}, "type": "electric_scooter"}, {"bike_id": "2587b462627346f0a91b7ae7f8464bae", "is_reserved": 0, "name": "2587b462627346f0a91b7ae7f8464bae", "lat": 38.92614616666667, "fusion_lat": 0.0, "lon": -77.02163966666667, "is_disabled": 0, "fusion_lon": 0.0, "rental_uris": {"android": "https://dc.lft.to/lastmile_qr_scan", "ios": "https://dc.lft.to/lastmile_qr_scan"}, "type": "electric_scooter"}, {"bike_id": "6f8e395218700aedc5358228d6113d35", "is_reserved": 0, "name": "6f8e395218700aedc5358228d6113d35", "lat": 38.908918666666665, "fusion_lat": 0.0, "lon": -77.0439875, "is_disabled": 0, "fusion_lon": 0.0, "rental_uris": {"android": "https://dc.lft.to/lastmile_qr_scan", "ios": "https://dc.lft.to/lastmile_qr_scan"}, "type": "electric_scooter"}, {"bike_id": "cc76342b44c8f2f1cdc6069351678e91", "is_reserved": 0, "name": "cc76342b44c8f2f1cdc6069351678e91", "lat": 38.90004033333334, "fusion_lat": 0.0, "lon": -76.998313, "is_disabled": 0, "fusion_lon": 0.0, "rental_uris": {"android": "https://dc.lft.to/lastmile_qr_scan", "ios": "https://dc.lft.to/lastmile_qr_scan"}, "type": "electric_scooter"}, {"bike_id": "c8011dcfb1f23629ce025d6381b5f15e", "is_reserved": 0, "name": "c8011dcfb1f23629ce025d6381b5f15e", "lat": 38.95420766666667, "fusion_lat": 0.0, "lon": -77.02762183333333, "is_disabled": 0, "fusion_lon": 0.0, "rental_uris": {"android": "https://dc.lft.to/lastmile_qr_scan", "ios": "https://dc.lft.to/lastmile_qr_scan"}, "type": "electric_scooter"}, {"bike_id": "244896e6d3bcaba61e7e6cf46b2a71fe", "is_reserved": 0, "name": "244896e6d3bcaba61e7e6cf46b2a71fe", "lat": 38.916880166666665, "fusion_lat": 0.0, "lon": -77.02955616666667, "is_disabled": 0, "fusion_lon": 0.0, "rental_uris": {"android": "https://dc.lft.to/lastmile_qr_scan", "ios": "https://dc.lft.to/lastmile_qr_scan"}, "type": "electric_scooter"}, {"bike_id": "9c088b920a799bbdf8fb74629751b41e", "is_reserved": 0, "name": "9c088b920a799bbdf8fb74629751b41e", "lat": 38.9184855, "fusion_lat": 0.0, "lon": -77.02314816666667, "is_disabled": 0, "fusion_lon": 0.0, "rental_uris": {"android": "https://dc.lft.to/lastmile_qr_scan", "ios": "https://dc.lft.to/lastmile_qr_scan"}, "type": "electric_scooter"}, {"bike_id": "7e3a7a8f1fcfadcf680e5e1e2057343e", "is_reserved": 0, "name": "7e3a7a8f1fcfadcf680e5e1e2057343e", "lat": 38.91955316666667, "fusion_lat": 0.0, "lon": -76.99208116666667, "is_disabled": 0, "fusion_lon": 0.0, "rental_uris": {"android": "https://dc.lft.to/lastmile_qr_scan", "ios": "https://dc.lft.to/lastmile_qr_scan"}, "type": "electric_bike"}, {"bike_id": "af13ed91bf5fd0e5ee103a1599dbe60a", "is_reserved": 0, "name": "af13ed91bf5fd0e5ee103a1599dbe60a", "lat": 38.916351, "fusion_lat": 0.0, "lon": -77.050707, "is_disabled": 0, "fusion_lon": 0.0, "rental_uris": {"android": "https://dc.lft.to/lastmile_qr_scan", "ios": "https://dc.lft.to/lastmile_qr_scan"}, "type": "electric_scooter"}, {"bike_id": "c7c214205887b9613eb1656be31506fa", "is_reserved": 0, "name": "c7c214205887b9613eb1656be31506fa", "lat": 38.88932466666667, "fusion_lat": 0.0, "lon": -77.01508, "is_disabled": 0, "fusion_lon": 0.0, "rental_uris": {"android": "https://dc.lft.to/lastmile_qr_scan", "ios": "https://dc.lft.to/lastmile_qr_scan"}, "type": "electric_scooter"}, {"bike_id": "92993e841fc6e4975edd8687030446aa", "is_reserved": 0, "name": "92993e841fc6e4975edd8687030446aa", "lat": 38.900136, "fusion_lat": 0.0, "lon": -76.9931395, "is_disabled": 0, "fusion_lon": 0.0, "rental_uris": {"android": "https://dc.lft.to/lastmile_qr_scan", "ios": "https://dc.lft.to/lastmile_qr_scan"}, "type": "electric_scooter"}, {"bike_id": "410eabcbb9ea560250fd7c512d617e08", "is_reserved": 0, "name": "410eabcbb9ea560250fd7c512d617e08", "lat": 38.903547333333336, "fusion_lat": 0.0, "lon": -77.03857016666667, "is_disabled": 0, "fusion_lon": 0.0, "rental_uris": {"android": "https://dc.lft.to/lastmile_qr_scan", "ios": "https://dc.lft.to/lastmile_qr_scan"}, "type": "electric_scooter"}, {"bike_id": "273539d23c5f5e85245b8946eabd5714", "is_reserved": 0, "name": "273539d23c5f5e85245b8946eabd5714", "lat": 38.91695266666667, "fusion_lat": 0.0, "lon": -77.02890766666667, "is_disabled": 0, "fusion_lon": 0.0, "rental_uris": {"android": "https://dc.lft.to/lastmile_qr_scan", "ios": "https://dc.lft.to/lastmile_qr_scan"}, "type": "electric_scooter"}, {"bike_id": "3c5823efa30baf42c6fa9cb4733326d0", "is_reserved": 0, "name": "3c5823efa30baf42c6fa9cb4733326d0", "lat": 38.884032, "fusion_lat": 0.0, "lon": -77.02952866666666, "is_disabled": 0, "fusion_lon": 0.0, "rental_uris": {"android": "https://dc.lft.to/lastmile_qr_scan", "ios": "https://dc.lft.to/lastmile_qr_scan"}, "type": "electric_scooter"}, {"bike_id": "76ad73e7375ad2151081cfc1ec7cd0bd", "is_reserved": 0, "name": "76ad73e7375ad2151081cfc1ec7cd0bd", "lat": 38.92996933333333, "fusion_lat": 0.0, "lon": -77.03799533333333, "is_disabled": 0, "fusion_lon": 0.0, "rental_uris": {"android": "https://dc.lft.to/lastmile_qr_scan", "ios": "https://dc.lft.to/lastmile_qr_scan"}, "type": "electric_scooter"}, {"bike_id": "00b8936bf7aa486e91d20126b7c2e95d", "is_reserved": 0, "name": "00b8936bf7aa486e91d20126b7c2e95d", "lat": 38.86206266666667, "fusion_lat": 0.0, "lon": -76.99537166666667, "is_disabled": 0, "fusion_lon": 0.0, "rental_uris": {"android": "https://dc.lft.to/lastmile_qr_scan", "ios": "https://dc.lft.to/lastmile_qr_scan"}, "type": "electric_bike"}, {"bike_id": "1b79eae0d74f1467b208f06856debb52", "is_reserved": 0, "name": "1b79eae0d74f1467b208f06856debb52", "lat": 38.9144435, "fusion_lat": 0.0, "lon": -77.02198433333334, "is_disabled": 0, "fusion_lon": 0.0, "rental_uris": {"android": "https://dc.lft.to/lastmile_qr_scan", "ios": "https://dc.lft.to/lastmile_qr_scan"}, "type": "electric_scooter"}, {"bike_id": "a9df8222896e71c3cd271c7e04a6b6a5", "is_reserved": 0, "name": "a9df8222896e71c3cd271c7e04a6b6a5", "lat": 38.9059475, "fusion_lat": 0.0, "lon": -77.04315833333334, "is_disabled": 0, "fusion_lon": 0.0, "rental_uris": {"android": "https://dc.lft.to/lastmile_qr_scan", "ios": "https://dc.lft.to/lastmile_qr_scan"}, "type": "electric_scooter"}, {"bike_id": "8a6914c6a315ed033ecd5e751d5c0508", "is_reserved": 0, "name": "8a6914c6a315ed033ecd5e751d5c0508", "lat": 38.94183133333333, "fusion_lat": 0.0, "lon": -77.02491516666667, "is_disabled": 0, "fusion_lon": 0.0, "rental_uris": {"android": "https://dc.lft.to/lastmile_qr_scan", "ios": "https://dc.lft.to/lastmile_qr_scan"}, "type": "electric_scooter"}, {"bike_id": "b5204855c0bc8d2bab42daa1435ceb1b", "is_reserved": 0, "name": "b5204855c0bc8d2bab42daa1435ceb1b", "lat": 38.880114, "fusion_lat": 0.0, "lon": -76.91591383333333, "is_disabled": 0, "fusion_lon": 0.0, "rental_uris": {"android": "https://dc.lft.to/lastmile_qr_scan", "ios": "https://dc.lft.to/lastmile_qr_scan"}, "type": "electric_bike"}, {"bike_id": "91425ad3af68b1bd95d5ff838f478829", "is_reserved": 0, "name": "91425ad3af68b1bd95d5ff838f478829", "lat": 38.93405933333333, "fusion_lat": 0.0, "lon": -77.03269066666667, "is_disabled": 0, "fusion_lon": 0.0, "rental_uris": {"android": "https://dc.lft.to/lastmile_qr_scan", "ios": "https://dc.lft.to/lastmile_qr_scan"}, "type": "electric_scooter"}, {"bike_id": "ba3d5379afa862b1393f866f554fe7a4", "is_reserved": 0, "name": "ba3d5379afa862b1393f866f554fe7a4", "lat": 38.912576, "fusion_lat": 0.0, "lon": -76.972068, "is_disabled": 0, "fusion_lon": 0.0, "rental_uris": {"android": "https://dc.lft.to/lastmile_qr_scan", "ios": "https://dc.lft.to/lastmile_qr_scan"}, "type": "electric_scooter"}, {"bike_id": "2aeb6fcabe5e9644421950d9cfc2bea6", "is_reserved": 0, "name": "2aeb6fcabe5e9644421950d9cfc2bea6", "lat": 38.87900483333333, "fusion_lat": 0.0, "lon": -77.02203716666666, "is_disabled": 0, "fusion_lon": 0.0, "rental_uris": {"android": "https://dc.lft.to/lastmile_qr_scan", "ios": "https://dc.lft.to/lastmile_qr_scan"}, "type": "electric_scooter"}, {"bike_id": "9bf5cb85bff009905bf6fd6956037973", "is_reserved": 0, "name": "9bf5cb85bff009905bf6fd6956037973", "lat": 38.9305925, "fusion_lat": 0.0, "lon": -77.02319283333334, "is_disabled": 0, "fusion_lon": 0.0, "rental_uris": {"android": "https://dc.lft.to/lastmile_qr_scan", "ios": "https://dc.lft.to/lastmile_qr_scan"}, "type": "electric_scooter"}, {"bike_id": "b115322afc31f927f5f4cca0b726a761", "is_reserved": 0, "name": "b115322afc31f927f5f4cca0b726a761", "lat": 38.909447, "fusion_lat": 0.0, "lon": -77.03941366666666, "is_disabled": 0, "fusion_lon": 0.0, "rental_uris": {"android": "https://dc.lft.to/lastmile_qr_scan", "ios": "https://dc.lft.to/lastmile_qr_scan"}, "type": "electric_scooter"}, {"bike_id": "a10b1c75c179dbcbcf1cc342a8e92e29", "is_reserved": 0, "name": "a10b1c75c179dbcbcf1cc342a8e92e29", "lat": 38.919275666666664, "fusion_lat": 0.0, "lon": -77.030386, "is_disabled": 0, "fusion_lon": 0.0, "rental_uris": {"android": "https://dc.lft.to/lastmile_qr_scan", "ios": "https://dc.lft.to/lastmile_qr_scan"}, "type": "electric_scooter"}, {"bike_id": "7b03a99d759ac3355ae1ccc61c95cb7d", "is_reserved": 0, "name": "7b03a99d759ac3355ae1ccc61c95cb7d", "lat": 38.91675133333333, "fusion_lat": 0.0, "lon": -77.02390166666666, "is_disabled": 0, "fusion_lon": 0.0, "rental_uris": {"android": "https://dc.lft.to/lastmile_qr_scan", "ios": "https://dc.lft.to/lastmile_qr_scan"}, "type": "electric_scooter"}, {"bike_id": "392bb25a42bac4de908b2f96f9a20cf5", "is_reserved": 0, "name": "392bb25a42bac4de908b2f96f9a20cf5", "lat": 38.92241633333333, "fusion_lat": 0.0, "lon": -77.073089, "is_disabled": 0, "fusion_lon": 0.0, "rental_uris": {"android": "https://dc.lft.to/lastmile_qr_scan", "ios": "https://dc.lft.to/lastmile_qr_scan"}, "type": "electric_scooter"}, {"bike_id": "643784c2768b013da91a5cd15c21d4cc", "is_reserved": 0, "name": "643784c2768b013da91a5cd15c21d4cc", "lat": 38.923260166666665, "fusion_lat": 0.0, "lon": -77.02975383333333, "is_disabled": 0, "fusion_lon": 0.0, "rental_uris": {"android": "https://dc.lft.to/lastmile_qr_scan", "ios": "https://dc.lft.to/lastmile_qr_scan"}, "type": "electric_scooter"}, {"bike_id": "9cc947ba94f6b47d1b14d052655fd9a1", "is_reserved": 0, "name": "9cc947ba94f6b47d1b14d052655fd9a1", "lat": 38.907295833333336, "fusion_lat": 0.0, "lon": -77.04168466666667, "is_disabled": 0, "fusion_lon": 0.0, "rental_uris": {"android": "https://dc.lft.to/lastmile_qr_scan", "ios": "https://dc.lft.to/lastmile_qr_scan"}, "type": "electric_scooter"}, {"bike_id": "e5c37ab2cbc29d7e192ece592766484d", "is_reserved": 0, "name": "e5c37ab2cbc29d7e192ece592766484d", "lat": 38.88733833333333, "fusion_lat": 0.0, "lon": -77.02383033333334, "is_disabled": 0, "fusion_lon": 0.0, "rental_uris": {"android": "https://dc.lft.to/lastmile_qr_scan", "ios": "https://dc.lft.to/lastmile_qr_scan"}, "type": "electric_scooter"}, {"bike_id": "3b292f88f62035da2074c0729af46244", "is_reserved": 0, "name": "3b292f88f62035da2074c0729af46244", "lat": 38.887534, "fusion_lat": 0.0, "lon": -76.99755083333334, "is_disabled": 0, "fusion_lon": 0.0, "rental_uris": {"android": "https://dc.lft.to/lastmile_qr_scan", "ios": "https://dc.lft.to/lastmile_qr_scan"}, "type": "electric_scooter"}, {"bike_id": "b7abe0a28a8d11fd191ab3efb6c34325", "is_reserved": 0, "name": "b7abe0a28a8d11fd191ab3efb6c34325", "lat": 38.89221533333333, "fusion_lat": 0.0, "lon": -77.02634783333333, "is_disabled": 0, "fusion_lon": 0.0, "rental_uris": {"android": "https://dc.lft.to/lastmile_qr_scan", "ios": "https://dc.lft.to/lastmile_qr_scan"}, "type": "electric_scooter"}, {"bike_id": "f92cf2ebd7ee0e571088324fe87798c9", "is_reserved": 0, "name": "f92cf2ebd7ee0e571088324fe87798c9", "lat": 38.90090983333333, "fusion_lat": 0.0, "lon": -77.034546, "is_disabled": 0, "fusion_lon": 0.0, "rental_uris": {"android": "https://dc.lft.to/lastmile_qr_scan", "ios": "https://dc.lft.to/lastmile_qr_scan"}, "type": "electric_scooter"}, {"bike_id": "04774542c0b9f6a19b025727459a4275", "is_reserved": 0, "name": "04774542c0b9f6a19b025727459a4275", "lat": 38.917946666666666, "fusion_lat": 0.0, "lon": -77.027091, "is_disabled": 0, "fusion_lon": 0.0, "rental_uris": {"android": "https://dc.lft.to/lastmile_qr_scan", "ios": "https://dc.lft.to/lastmile_qr_scan"}, "type": "electric_scooter"}, {"bike_id": "fbbd4d7e2a48274b6723ba194645e104", "is_reserved": 0, "name": "fbbd4d7e2a48274b6723ba194645e104", "lat": 38.90260816666667, "fusion_lat": 0.0, "lon": -77.053167, "is_disabled": 0, "fusion_lon": 0.0, "rental_uris": {"android": "https://dc.lft.to/lastmile_qr_scan", "ios": "https://dc.lft.to/lastmile_qr_scan"}, "type": "electric_scooter"}, {"bike_id": "bb595d8644adacf08f23f0dcf74b2236", "is_reserved": 0, "name": "bb595d8644adacf08f23f0dcf74b2236", "lat": 38.90558, "fusion_lat": 0.0, "lon": -77.00596816666666, "is_disabled": 0, "fusion_lon": 0.0, "rental_uris": {"android": "https://dc.lft.to/lastmile_qr_scan", "ios": "https://dc.lft.to/lastmile_qr_scan"}, "type": "electric_scooter"}, {"bike_id": "ebca82b7f9e33684b54b2a4be91a01ed", "is_reserved": 0, "name": "ebca82b7f9e33684b54b2a4be91a01ed", "lat": 38.90198916666667, "fusion_lat": 0.0, "lon": -77.0506685, "is_disabled": 0, "fusion_lon": 0.0, "rental_uris": {"android": "https://dc.lft.to/lastmile_qr_scan", "ios": "https://dc.lft.to/lastmile_qr_scan"}, "type": "electric_scooter"}, {"bike_id": "783ee2574f8f1a22955d98b146d524a5", "is_reserved": 0, "name": "783ee2574f8f1a22955d98b146d524a5", "lat": 38.91465083333333, "fusion_lat": 0.0, "lon": -77.03868816666666, "is_disabled": 0, "fusion_lon": 0.0, "rental_uris": {"android": "https://dc.lft.to/lastmile_qr_scan", "ios": "https://dc.lft.to/lastmile_qr_scan"}, "type": "electric_scooter"}, {"bike_id": "34e207b3e93ae99a8c5634ba8d139a0c", "is_reserved": 0, "name": "34e207b3e93ae99a8c5634ba8d139a0c", "lat": 38.930564833333335, "fusion_lat": 0.0, "lon": -77.032006, "is_disabled": 0, "fusion_lon": 0.0, "rental_uris": {"android": "https://dc.lft.to/lastmile_qr_scan", "ios": "https://dc.lft.to/lastmile_qr_scan"}, "type": "electric_scooter"}, {"bike_id": "c6823c9b425ffca0d14499a5ead49fcb", "is_reserved": 0, "name": "c6823c9b425ffca0d14499a5ead49fcb", "lat": 38.926229666666664, "fusion_lat": 0.0, "lon": -77.04194983333333, "is_disabled": 0, "fusion_lon": 0.0, "rental_uris": {"android": "https://dc.lft.to/lastmile_qr_scan", "ios": "https://dc.lft.to/lastmile_qr_scan"}, "type": "electric_scooter"}, {"bike_id": "99297ddaacdfff4272a59691def74a4b", "is_reserved": 0, "name": "99297ddaacdfff4272a59691def74a4b", "lat": 38.8508325, "fusion_lat": 0.0, "lon": -76.95671783333333, "is_disabled": 0, "fusion_lon": 0.0, "rental_uris": {"android": "https://dc.lft.to/lastmile_qr_scan", "ios": "https://dc.lft.to/lastmile_qr_scan"}, "type": "electric_bike"}, {"bike_id": "1b21024acd7b4a86116eca04a34f189b", "is_reserved": 0, "name": "1b21024acd7b4a86116eca04a34f189b", "lat": 38.87322983333333, "fusion_lat": 0.0, "lon": -76.97000833333334, "is_disabled": 0, "fusion_lon": 0.0, "rental_uris": {"android": "https://dc.lft.to/lastmile_qr_scan", "ios": "https://dc.lft.to/lastmile_qr_scan"}, "type": "electric_scooter"}, {"bike_id": "68cd67cf40f6474ad7a9dab34e97d254", "is_reserved": 0, "name": "68cd67cf40f6474ad7a9dab34e97d254", "lat": 38.87818466666667, "fusion_lat": 0.0, "lon": -77.00134116666666, "is_disabled": 0, "fusion_lon": 0.0, "rental_uris": {"android": "https://dc.lft.to/lastmile_qr_scan", "ios": "https://dc.lft.to/lastmile_qr_scan"}, "type": "electric_scooter"}, {"bike_id": "13a5618cbc5eb61b0594095ec79ebe73", "is_reserved": 0, "name": "13a5618cbc5eb61b0594095ec79ebe73", "lat": 38.87367183333333, "fusion_lat": 0.0, "lon": -77.00169033333333, "is_disabled": 0, "fusion_lon": 0.0, "rental_uris": {"android": "https://dc.lft.to/lastmile_qr_scan", "ios": "https://dc.lft.to/lastmile_qr_scan"}, "type": "electric_scooter"}, {"bike_id": "40270176e5c46fa4011c5e2cfbfced8a", "is_reserved": 0, "name": "40270176e5c46fa4011c5e2cfbfced8a", "lat": 38.905043666666664, "fusion_lat": 0.0, "lon": -77.046677, "is_disabled": 0, "fusion_lon": 0.0, "rental_uris": {"android": "https://dc.lft.to/lastmile_qr_scan", "ios": "https://dc.lft.to/lastmile_qr_scan"}, "type": "electric_scooter"}, {"bike_id": "f2e3ac95be907a826685e8150e28df7c", "is_reserved": 0, "name": "f2e3ac95be907a826685e8150e28df7c", "lat": 38.93072466666667, "fusion_lat": 0.0, "lon": -77.0216055, "is_disabled": 0, "fusion_lon": 0.0, "rental_uris": {"android": "https://dc.lft.to/lastmile_qr_scan", "ios": "https://dc.lft.to/lastmile_qr_scan"}, "type": "electric_scooter"}, {"bike_id": "9be6630ee51f69b34ff2781ae5756ba6", "is_reserved": 0, "name": "9be6630ee51f69b34ff2781ae5756ba6", "lat": 38.8921975, "fusion_lat": 0.0, "lon": -77.046441, "is_disabled": 0, "fusion_lon": 0.0, "rental_uris": {"android": "https://dc.lft.to/lastmile_qr_scan", "ios": "https://dc.lft.to/lastmile_qr_scan"}, "type": "electric_scooter"}, {"bike_id": "72ab5f2394693242c650b1d4e180f7f4", "is_reserved": 0, "name": "72ab5f2394693242c650b1d4e180f7f4", "lat": 38.887217, "fusion_lat": 0.0, "lon": -77.025777, "is_disabled": 0, "fusion_lon": 0.0, "rental_uris": {"android": "https://dc.lft.to/lastmile_qr_scan", "ios": "https://dc.lft.to/lastmile_qr_scan"}, "type": "electric_scooter"}, {"bike_id": "3cc31a3276d4f1e8dec3443b99c58d21", "is_reserved": 0, "name": "3cc31a3276d4f1e8dec3443b99c58d21", "lat": 38.914109, "fusion_lat": 0.0, "lon": -77.01077816666667, "is_disabled": 0, "fusion_lon": 0.0, "rental_uris": {"android": "https://dc.lft.to/lastmile_qr_scan", "ios": "https://dc.lft.to/lastmile_qr_scan"}, "type": "electric_scooter"}, {"bike_id": "b0e9dd184faf8506e2d88573b1c2c5e0", "is_reserved": 0, "name": "b0e9dd184faf8506e2d88573b1c2c5e0", "lat": 38.88745266666667, "fusion_lat": 0.0, "lon": -77.01399033333334, "is_disabled": 0, "fusion_lon": 0.0, "rental_uris": {"android": "https://dc.lft.to/lastmile_qr_scan", "ios": "https://dc.lft.to/lastmile_qr_scan"}, "type": "electric_scooter"}, {"bike_id": "0b5a18d225396c8cc7707c9c40230783", "is_reserved": 0, "name": "0b5a18d225396c8cc7707c9c40230783", "lat": 38.90963933333333, "fusion_lat": 0.0, "lon": -77.039429, "is_disabled": 0, "fusion_lon": 0.0, "rental_uris": {"android": "https://dc.lft.to/lastmile_qr_scan", "ios": "https://dc.lft.to/lastmile_qr_scan"}, "type": "electric_scooter"}, {"bike_id": "444c27db97e98e2f26d89acd35b1a576", "is_reserved": 0, "name": "444c27db97e98e2f26d89acd35b1a576", "lat": 38.912696833333335, "fusion_lat": 0.0, "lon": -77.0167345, "is_disabled": 0, "fusion_lon": 0.0, "rental_uris": {"android": "https://dc.lft.to/lastmile_qr_scan", "ios": "https://dc.lft.to/lastmile_qr_scan"}, "type": "electric_scooter"}, {"bike_id": "0b453fd22824be7ec03d3e86f54e700c", "is_reserved": 0, "name": "0b453fd22824be7ec03d3e86f54e700c", "lat": 38.919930666666666, "fusion_lat": 0.0, "lon": -77.03285216666667, "is_disabled": 0, "fusion_lon": 0.0, "rental_uris": {"android": "https://dc.lft.to/lastmile_qr_scan", "ios": "https://dc.lft.to/lastmile_qr_scan"}, "type": "electric_scooter"}, {"bike_id": "e6ce3c82a3ada39102c93792433a97d8", "is_reserved": 0, "name": "e6ce3c82a3ada39102c93792433a97d8", "lat": 38.917692333333335, "fusion_lat": 0.0, "lon": -77.01506483333333, "is_disabled": 0, "fusion_lon": 0.0, "rental_uris": {"android": "https://dc.lft.to/lastmile_qr_scan", "ios": "https://dc.lft.to/lastmile_qr_scan"}, "type": "electric_scooter"}, {"bike_id": "0fbb4d58599cbef5bbdb4f9b38e9fc96", "is_reserved": 0, "name": "0fbb4d58599cbef5bbdb4f9b38e9fc96", "lat": 38.90641133333333, "fusion_lat": 0.0, "lon": -77.04181066666666, "is_disabled": 0, "fusion_lon": 0.0, "rental_uris": {"android": "https://dc.lft.to/lastmile_qr_scan", "ios": "https://dc.lft.to/lastmile_qr_scan"}, "type": "electric_scooter"}, {"bike_id": "c1ab9262d0077f8682282475f0db4695", "is_reserved": 0, "name": "c1ab9262d0077f8682282475f0db4695", "lat": 38.92466533333333, "fusion_lat": 0.0, "lon": -77.0214645, "is_disabled": 0, "fusion_lon": 0.0, "rental_uris": {"android": "https://dc.lft.to/lastmile_qr_scan", "ios": "https://dc.lft.to/lastmile_qr_scan"}, "type": "electric_scooter"}, {"bike_id": "19d081aa59f2e43fa778428a930d14d7", "is_reserved": 0, "name": "19d081aa59f2e43fa778428a930d14d7", "lat": 38.89981683333333, "fusion_lat": 0.0, "lon": -77.01616016666667, "is_disabled": 0, "fusion_lon": 0.0, "rental_uris": {"android": "https://dc.lft.to/lastmile_qr_scan", "ios": "https://dc.lft.to/lastmile_qr_scan"}, "type": "electric_scooter"}, {"bike_id": "1c1ebf21f9844632342cfac0470e5c16", "is_reserved": 0, "name": "1c1ebf21f9844632342cfac0470e5c16", "lat": 38.925818666666665, "fusion_lat": 0.0, "lon": -77.03641083333333, "is_disabled": 0, "fusion_lon": 0.0, "rental_uris": {"android": "https://dc.lft.to/lastmile_qr_scan", "ios": "https://dc.lft.to/lastmile_qr_scan"}, "type": "electric_scooter"}, {"bike_id": "5990d340f5190f1466d06f15a7894b15", "is_reserved": 0, "name": "5990d340f5190f1466d06f15a7894b15", "lat": 38.903061, "fusion_lat": 0.0, "lon": -77.046654, "is_disabled": 0, "fusion_lon": 0.0, "rental_uris": {"android": "https://dc.lft.to/lastmile_qr_scan", "ios": "https://dc.lft.to/lastmile_qr_scan"}, "type": "electric_scooter"}, {"bike_id": "00a40bea23808e73cc3632bb6efd8beb", "is_reserved": 0, "name": "00a40bea23808e73cc3632bb6efd8beb", "lat": 38.90342783333333, "fusion_lat": 0.0, "lon": -76.98510016666667, "is_disabled": 0, "fusion_lon": 0.0, "rental_uris": {"android": "https://dc.lft.to/lastmile_qr_scan", "ios": "https://dc.lft.to/lastmile_qr_scan"}, "type": "electric_scooter"}, {"bike_id": "2cfe4f2b0861f597017b24e853962b94", "is_reserved": 0, "name": "2cfe4f2b0861f597017b24e853962b94", "lat": 38.87435966666666, "fusion_lat": 0.0, "lon": -77.00915933333333, "is_disabled": 0, "fusion_lon": 0.0, "rental_uris": {"android": "https://dc.lft.to/lastmile_qr_scan", "ios": "https://dc.lft.to/lastmile_qr_scan"}, "type": "electric_scooter"}, {"bike_id": "c6327e8879f05e618c242e890ec7516f", "is_reserved": 0, "name": "c6327e8879f05e618c242e890ec7516f", "lat": 38.91036783333333, "fusion_lat": 0.0, "lon": -77.042652, "is_disabled": 0, "fusion_lon": 0.0, "rental_uris": {"android": "https://dc.lft.to/lastmile_qr_scan", "ios": "https://dc.lft.to/lastmile_qr_scan"}, "type": "electric_scooter"}, {"bike_id": "f063edc9af8342d6e54a3651fcf6bf02", "is_reserved": 0, "name": "f063edc9af8342d6e54a3651fcf6bf02", "lat": 38.9058375, "fusion_lat": 0.0, "lon": -77.05699533333333, "is_disabled": 0, "fusion_lon": 0.0, "rental_uris": {"android": "https://dc.lft.to/lastmile_qr_scan", "ios": "https://dc.lft.to/lastmile_qr_scan"}, "type": "electric_scooter"}, {"bike_id": "d71e45213478c49744e31d2b597e72c2", "is_reserved": 0, "name": "d71e45213478c49744e31d2b597e72c2", "lat": 38.88184733333333, "fusion_lat": 0.0, "lon": -77.00351483333333, "is_disabled": 0, "fusion_lon": 0.0, "rental_uris": {"android": "https://dc.lft.to/lastmile_qr_scan", "ios": "https://dc.lft.to/lastmile_qr_scan"}, "type": "electric_scooter"}, {"bike_id": "3190d8029a56d1cbd0e2b932efd0f057", "is_reserved": 0, "name": "3190d8029a56d1cbd0e2b932efd0f057", "lat": 38.91792516666667, "fusion_lat": 0.0, "lon": -77.027172, "is_disabled": 0, "fusion_lon": 0.0, "rental_uris": {"android": "https://dc.lft.to/lastmile_qr_scan", "ios": "https://dc.lft.to/lastmile_qr_scan"}, "type": "electric_scooter"}, {"bike_id": "3f8684ab54762df903dbd417fc8ca76e", "is_reserved": 0, "name": "3f8684ab54762df903dbd417fc8ca76e", "lat": 38.9213195, "fusion_lat": 0.0, "lon": -77.00944466666667, "is_disabled": 0, "fusion_lon": 0.0, "rental_uris": {"android": "https://dc.lft.to/lastmile_qr_scan", "ios": "https://dc.lft.to/lastmile_qr_scan"}, "type": "electric_scooter"}, {"bike_id": "84346e5b66573634640bc3bfc7b42c90", "is_reserved": 0, "name": "84346e5b66573634640bc3bfc7b42c90", "lat": 38.91679633333333, "fusion_lat": 0.0, "lon": -77.00194483333334, "is_disabled": 0, "fusion_lon": 0.0, "rental_uris": {"android": "https://dc.lft.to/lastmile_qr_scan", "ios": "https://dc.lft.to/lastmile_qr_scan"}, "type": "electric_scooter"}, {"bike_id": "384811653168067d4b0506e51b407773", "is_reserved": 0, "name": "384811653168067d4b0506e51b407773", "lat": 38.9037895, "fusion_lat": 0.0, "lon": -76.97619083333333, "is_disabled": 0, "fusion_lon": 0.0, "rental_uris": {"android": "https://dc.lft.to/lastmile_qr_scan", "ios": "https://dc.lft.to/lastmile_qr_scan"}, "type": "electric_scooter"}, {"bike_id": "a1a32b4258147954fea1b1449063b690", "is_reserved": 0, "name": "a1a32b4258147954fea1b1449063b690", "lat": 38.903887166666664, "fusion_lat": 0.0, "lon": -77.03292883333333, "is_disabled": 0, "fusion_lon": 0.0, "rental_uris": {"android": "https://dc.lft.to/lastmile_qr_scan", "ios": "https://dc.lft.to/lastmile_qr_scan"}, "type": "electric_scooter"}, {"bike_id": "61a646e3941c5529f24977ecb0b3e034", "is_reserved": 0, "name": "61a646e3941c5529f24977ecb0b3e034", "lat": 38.90862683333334, "fusion_lat": 0.0, "lon": -77.07115083333333, "is_disabled": 0, "fusion_lon": 0.0, "rental_uris": {"android": "https://dc.lft.to/lastmile_qr_scan", "ios": "https://dc.lft.to/lastmile_qr_scan"}, "type": "electric_scooter"}, {"bike_id": "db45a5cc675fa9ced78a690e93626274", "is_reserved": 0, "name": "db45a5cc675fa9ced78a690e93626274", "lat": 38.9237385, "fusion_lat": 0.0, "lon": -77.02817533333334, "is_disabled": 0, "fusion_lon": 0.0, "rental_uris": {"android": "https://dc.lft.to/lastmile_qr_scan", "ios": "https://dc.lft.to/lastmile_qr_scan"}, "type": "electric_scooter"}, {"bike_id": "6f891d3284a9f034bdc254c0069c5132", "is_reserved": 0, "name": "6f891d3284a9f034bdc254c0069c5132", "lat": 38.8923025, "fusion_lat": 0.0, "lon": -77.04879566666666, "is_disabled": 0, "fusion_lon": 0.0, "rental_uris": {"android": "https://dc.lft.to/lastmile_qr_scan", "ios": "https://dc.lft.to/lastmile_qr_scan"}, "type": "electric_scooter"}, {"bike_id": "1f0f7d201c07a13c440df0b98accf58f", "is_reserved": 0, "name": "1f0f7d201c07a13c440df0b98accf58f", "lat": 38.9052485, "fusion_lat": 0.0, "lon": -77.04356666666666, "is_disabled": 0, "fusion_lon": 0.0, "rental_uris": {"android": "https://dc.lft.to/lastmile_qr_scan", "ios": "https://dc.lft.to/lastmile_qr_scan"}, "type": "electric_scooter"}, {"bike_id": "d246ebcefcb7103ebffa8c186e9d4eaa", "is_reserved": 0, "name": "d246ebcefcb7103ebffa8c186e9d4eaa", "lat": 38.897285833333335, "fusion_lat": 0.0, "lon": -77.01870166666667, "is_disabled": 0, "fusion_lon": 0.0, "rental_uris": {"android": "https://dc.lft.to/lastmile_qr_scan", "ios": "https://dc.lft.to/lastmile_qr_scan"}, "type": "electric_scooter"}, {"bike_id": "cf7e6a1559ce9b159b684fa23d4ec011", "is_reserved": 0, "name": "cf7e6a1559ce9b159b684fa23d4ec011", "lat": 38.90260416666667, "fusion_lat": 0.0, "lon": -77.03417866666666, "is_disabled": 0, "fusion_lon": 0.0, "rental_uris": {"android": "https://dc.lft.to/lastmile_qr_scan", "ios": "https://dc.lft.to/lastmile_qr_scan"}, "type": "electric_scooter"}, {"bike_id": "b218da2483a654c0cf71b858f64b29d7", "is_reserved": 0, "name": "b218da2483a654c0cf71b858f64b29d7", "lat": 38.917061333333336, "fusion_lat": 0.0, "lon": -77.04122516666666, "is_disabled": 0, "fusion_lon": 0.0, "rental_uris": {"android": "https://dc.lft.to/lastmile_qr_scan", "ios": "https://dc.lft.to/lastmile_qr_scan"}, "type": "electric_scooter"}, {"bike_id": "60ce1d7560a0edfb582358baacb54e21", "is_reserved": 0, "name": "60ce1d7560a0edfb582358baacb54e21", "lat": 38.90088316666667, "fusion_lat": 0.0, "lon": -77.0231705, "is_disabled": 0, "fusion_lon": 0.0, "rental_uris": {"android": "https://dc.lft.to/lastmile_qr_scan", "ios": "https://dc.lft.to/lastmile_qr_scan"}, "type": "electric_scooter"}, {"bike_id": "45c3abe3e812def624d1f3c8bbfa3b08", "is_reserved": 0, "name": "45c3abe3e812def624d1f3c8bbfa3b08", "lat": 38.892234333333334, "fusion_lat": 0.0, "lon": -77.0450745, "is_disabled": 0, "fusion_lon": 0.0, "rental_uris": {"android": "https://dc.lft.to/lastmile_qr_scan", "ios": "https://dc.lft.to/lastmile_qr_scan"}, "type": "electric_scooter"}, {"bike_id": "7abbabf5ef2d5897c80e85a156c30e1d", "is_reserved": 0, "name": "7abbabf5ef2d5897c80e85a156c30e1d", "lat": 38.871567666666664, "fusion_lat": 0.0, "lon": -77.1314195, "is_disabled": 0, "fusion_lon": 0.0, "rental_uris": {"android": "https://dc.lft.to/lastmile_qr_scan", "ios": "https://dc.lft.to/lastmile_qr_scan"}, "type": "electric_bike"}, {"bike_id": "25e1045468fd067a71c93d98b722e933", "is_reserved": 0, "name": "25e1045468fd067a71c93d98b722e933", "lat": 38.898440666666666, "fusion_lat": 0.0, "lon": -77.02196483333333, "is_disabled": 0, "fusion_lon": 0.0, "rental_uris": {"android": "https://dc.lft.to/lastmile_qr_scan", "ios": "https://dc.lft.to/lastmile_qr_scan"}, "type": "electric_scooter"}, {"bike_id": "4286c556173bcd1d93cb49e06d779ad7", "is_reserved": 0, "name": "4286c556173bcd1d93cb49e06d779ad7", "lat": 38.87564116666667, "fusion_lat": 0.0, "lon": -77.00596716666666, "is_disabled": 0, "fusion_lon": 0.0, "rental_uris": {"android": "https://dc.lft.to/lastmile_qr_scan", "ios": "https://dc.lft.to/lastmile_qr_scan"}, "type": "electric_scooter"}, {"bike_id": "a8be201a0bdcf170f128d721d8c36ef9", "is_reserved": 0, "name": "a8be201a0bdcf170f128d721d8c36ef9", "lat": 38.911103, "fusion_lat": 0.0, "lon": -77.04543083333333, "is_disabled": 0, "fusion_lon": 0.0, "rental_uris": {"android": "https://dc.lft.to/lastmile_qr_scan", "ios": "https://dc.lft.to/lastmile_qr_scan"}, "type": "electric_scooter"}, {"bike_id": "b418d17b6d6b042d4b4dc6941dd64a20", "is_reserved": 0, "name": "b418d17b6d6b042d4b4dc6941dd64a20", "lat": 38.905550833333336, "fusion_lat": 0.0, "lon": -77.04491433333334, "is_disabled": 0, "fusion_lon": 0.0, "rental_uris": {"android": "https://dc.lft.to/lastmile_qr_scan", "ios": "https://dc.lft.to/lastmile_qr_scan"}, "type": "electric_scooter"}, {"bike_id": "027afbf2787e15691af4660595b48c22", "is_reserved": 0, "name": "027afbf2787e15691af4660595b48c22", "lat": 38.90407033333334, "fusion_lat": 0.0, "lon": -76.97332366666667, "is_disabled": 0, "fusion_lon": 0.0, "rental_uris": {"android": "https://dc.lft.to/lastmile_qr_scan", "ios": "https://dc.lft.to/lastmile_qr_scan"}, "type": "electric_scooter"}, {"bike_id": "7cb63b2f17289e22e039dc4fcb22c354", "is_reserved": 0, "name": "7cb63b2f17289e22e039dc4fcb22c354", "lat": 38.90103333333333, "fusion_lat": 0.0, "lon": -76.9304925, "is_disabled": 0, "fusion_lon": 0.0, "rental_uris": {"android": "https://dc.lft.to/lastmile_qr_scan", "ios": "https://dc.lft.to/lastmile_qr_scan"}, "type": "electric_scooter"}, {"bike_id": "ee14a2a5d6e185e2ddb22f4f79623491", "is_reserved": 0, "name": "ee14a2a5d6e185e2ddb22f4f79623491", "lat": 38.9120445, "fusion_lat": 0.0, "lon": -77.011799, "is_disabled": 0, "fusion_lon": 0.0, "rental_uris": {"android": "https://dc.lft.to/lastmile_qr_scan", "ios": "https://dc.lft.to/lastmile_qr_scan"}, "type": "electric_scooter"}, {"bike_id": "351ab202f772a2a3dd1c9c74a9652537", "is_reserved": 0, "name": "351ab202f772a2a3dd1c9c74a9652537", "lat": 38.92468, "fusion_lat": 0.0, "lon": -77.020736, "is_disabled": 0, "fusion_lon": 0.0, "rental_uris": {"android": "https://dc.lft.to/lastmile_qr_scan", "ios": "https://dc.lft.to/lastmile_qr_scan"}, "type": "electric_scooter"}, {"bike_id": "4a98d36e353cad3080a42f10f6785ee6", "is_reserved": 0, "name": "4a98d36e353cad3080a42f10f6785ee6", "lat": 38.8601525, "fusion_lat": 0.0, "lon": -76.9670575, "is_disabled": 0, "fusion_lon": 0.0, "rental_uris": {"android": "https://dc.lft.to/lastmile_qr_scan", "ios": "https://dc.lft.to/lastmile_qr_scan"}, "type": "electric_scooter"}, {"bike_id": "f46ff8d3ef4c245ad2d72b98a84bc5a8", "is_reserved": 0, "name": "f46ff8d3ef4c245ad2d72b98a84bc5a8", "lat": 38.92592533333333, "fusion_lat": 0.0, "lon": -77.03222466666666, "is_disabled": 0, "fusion_lon": 0.0, "rental_uris": {"android": "https://dc.lft.to/lastmile_qr_scan", "ios": "https://dc.lft.to/lastmile_qr_scan"}, "type": "electric_scooter"}, {"bike_id": "2205f49bb22e247288e90577e5034107", "is_reserved": 0, "name": "2205f49bb22e247288e90577e5034107", "lat": 38.9110895, "fusion_lat": 0.0, "lon": -77.0209415, "is_disabled": 0, "fusion_lon": 0.0, "rental_uris": {"android": "https://dc.lft.to/lastmile_qr_scan", "ios": "https://dc.lft.to/lastmile_qr_scan"}, "type": "electric_scooter"}, {"bike_id": "63f2244dd3f1134423b92f0fa793e167", "is_reserved": 0, "name": "63f2244dd3f1134423b92f0fa793e167", "lat": 38.923406, "fusion_lat": 0.0, "lon": -77.05220333333334, "is_disabled": 0, "fusion_lon": 0.0, "rental_uris": {"android": "https://dc.lft.to/lastmile_qr_scan", "ios": "https://dc.lft.to/lastmile_qr_scan"}, "type": "electric_scooter"}, {"bike_id": "85730bbc90b411c5e2cd53ddba055a86", "is_reserved": 0, "name": "85730bbc90b411c5e2cd53ddba055a86", "lat": 38.89221383333334, "fusion_lat": 0.0, "lon": -77.043264, "is_disabled": 0, "fusion_lon": 0.0, "rental_uris": {"android": "https://dc.lft.to/lastmile_qr_scan", "ios": "https://dc.lft.to/lastmile_qr_scan"}, "type": "electric_scooter"}, {"bike_id": "0a7ed4f5d57f3071abf65ef38afc9069", "is_reserved": 0, "name": "0a7ed4f5d57f3071abf65ef38afc9069", "lat": 38.916552333333335, "fusion_lat": 0.0, "lon": -77.04172383333334, "is_disabled": 0, "fusion_lon": 0.0, "rental_uris": {"android": "https://dc.lft.to/lastmile_qr_scan", "ios": "https://dc.lft.to/lastmile_qr_scan"}, "type": "electric_scooter"}, {"bike_id": "9212a3628d8c02ea36205444930801ef", "is_reserved": 0, "name": "9212a3628d8c02ea36205444930801ef", "lat": 38.917978833333336, "fusion_lat": 0.0, "lon": -77.0319545, "is_disabled": 0, "fusion_lon": 0.0, "rental_uris": {"android": "https://dc.lft.to/lastmile_qr_scan", "ios": "https://dc.lft.to/lastmile_qr_scan"}, "type": "electric_scooter"}, {"bike_id": "42e2daa1f0af5b8aeaa2096af0732ef8", "is_reserved": 0, "name": "42e2daa1f0af5b8aeaa2096af0732ef8", "lat": 38.9231755, "fusion_lat": 0.0, "lon": -77.0404095, "is_disabled": 0, "fusion_lon": 0.0, "rental_uris": {"android": "https://dc.lft.to/lastmile_qr_scan", "ios": "https://dc.lft.to/lastmile_qr_scan"}, "type": "electric_scooter"}, {"bike_id": "e998334becc09bcc006bc9bb9056c090", "is_reserved": 0, "name": "e998334becc09bcc006bc9bb9056c090", "lat": 38.894226, "fusion_lat": 0.0, "lon": -77.02181516666667, "is_disabled": 0, "fusion_lon": 0.0, "rental_uris": {"android": "https://dc.lft.to/lastmile_qr_scan", "ios": "https://dc.lft.to/lastmile_qr_scan"}, "type": "electric_scooter"}, {"bike_id": "8700693d42fbc1ded6d70a8687c9a6c6", "is_reserved": 0, "name": "8700693d42fbc1ded6d70a8687c9a6c6", "lat": 38.907829, "fusion_lat": 0.0, "lon": -77.04265633333333, "is_disabled": 0, "fusion_lon": 0.0, "rental_uris": {"android": "https://dc.lft.to/lastmile_qr_scan", "ios": "https://dc.lft.to/lastmile_qr_scan"}, "type": "electric_scooter"}, {"bike_id": "fa591a2191296cda7b7db87b8a0d2f2d", "is_reserved": 0, "name": "fa591a2191296cda7b7db87b8a0d2f2d", "lat": 38.92728483333333, "fusion_lat": 0.0, "lon": -77.02267833333333, "is_disabled": 0, "fusion_lon": 0.0, "rental_uris": {"android": "https://dc.lft.to/lastmile_qr_scan", "ios": "https://dc.lft.to/lastmile_qr_scan"}, "type": "electric_scooter"}, {"bike_id": "f10d016805aa143915e0edaac0adf604", "is_reserved": 0, "name": "f10d016805aa143915e0edaac0adf604", "lat": 38.89928716666667, "fusion_lat": 0.0, "lon": -77.01268366666666, "is_disabled": 0, "fusion_lon": 0.0, "rental_uris": {"android": "https://dc.lft.to/lastmile_qr_scan", "ios": "https://dc.lft.to/lastmile_qr_scan"}, "type": "electric_scooter"}, {"bike_id": "79282e958e561397db164eacd2f36081", "is_reserved": 0, "name": "79282e958e561397db164eacd2f36081", "lat": 38.92149033333333, "fusion_lat": 0.0, "lon": -77.04346, "is_disabled": 0, "fusion_lon": 0.0, "rental_uris": {"android": "https://dc.lft.to/lastmile_qr_scan", "ios": "https://dc.lft.to/lastmile_qr_scan"}, "type": "electric_scooter"}, {"bike_id": "38dbc6a9a67ea0a960af630e2a9c4731", "is_reserved": 0, "name": "38dbc6a9a67ea0a960af630e2a9c4731", "lat": 38.906485, "fusion_lat": 0.0, "lon": -77.00952866666667, "is_disabled": 0, "fusion_lon": 0.0, "rental_uris": {"android": "https://dc.lft.to/lastmile_qr_scan", "ios": "https://dc.lft.to/lastmile_qr_scan"}, "type": "electric_scooter"}, {"bike_id": "0c6f615dfaa0a137ea9025e2992617e4", "is_reserved": 0, "name": "0c6f615dfaa0a137ea9025e2992617e4", "lat": 38.899643833333336, "fusion_lat": 0.0, "lon": -77.0160215, "is_disabled": 0, "fusion_lon": 0.0, "rental_uris": {"android": "https://dc.lft.to/lastmile_qr_scan", "ios": "https://dc.lft.to/lastmile_qr_scan"}, "type": "electric_scooter"}, {"bike_id": "c3b3ff69d0ef1aca8aaefba3b4a5c9d3", "is_reserved": 0, "name": "c3b3ff69d0ef1aca8aaefba3b4a5c9d3", "lat": 38.93483066666667, "fusion_lat": 0.0, "lon": -77.07281066666667, "is_disabled": 0, "fusion_lon": 0.0, "rental_uris": {"android": "https://dc.lft.to/lastmile_qr_scan", "ios": "https://dc.lft.to/lastmile_qr_scan"}, "type": "electric_scooter"}, {"bike_id": "0395a56eb8c927f6bff690678de73cd4", "is_reserved": 0, "name": "0395a56eb8c927f6bff690678de73cd4", "lat": 38.89819933333333, "fusion_lat": 0.0, "lon": -77.0476195, "is_disabled": 0, "fusion_lon": 0.0, "rental_uris": {"android": "https://dc.lft.to/lastmile_qr_scan", "ios": "https://dc.lft.to/lastmile_qr_scan"}, "type": "electric_scooter"}, {"bike_id": "f8146a4b0194544569ed85ee7a4c430c", "is_reserved": 0, "name": "f8146a4b0194544569ed85ee7a4c430c", "lat": 38.90712416666667, "fusion_lat": 0.0, "lon": -77.02715816666667, "is_disabled": 0, "fusion_lon": 0.0, "rental_uris": {"android": "https://dc.lft.to/lastmile_qr_scan", "ios": "https://dc.lft.to/lastmile_qr_scan"}, "type": "electric_scooter"}, {"bike_id": "868598577bc0edcf926f3de2235f7924", "is_reserved": 0, "name": "868598577bc0edcf926f3de2235f7924", "lat": 38.905592, "fusion_lat": 0.0, "lon": -77.020958, "is_disabled": 0, "fusion_lon": 0.0, "rental_uris": {"android": "https://dc.lft.to/lastmile_qr_scan", "ios": "https://dc.lft.to/lastmile_qr_scan"}, "type": "electric_scooter"}, {"bike_id": "173eb296f644f39d9694d3f845c01141", "is_reserved": 0, "name": "173eb296f644f39d9694d3f845c01141", "lat": 38.91036066666667, "fusion_lat": 0.0, "lon": -77.01284066666666, "is_disabled": 0, "fusion_lon": 0.0, "rental_uris": {"android": "https://dc.lft.to/lastmile_qr_scan", "ios": "https://dc.lft.to/lastmile_qr_scan"}, "type": "electric_scooter"}, {"bike_id": "80555968ee3458e28fd75dcc4032a1e3", "is_reserved": 0, "name": "80555968ee3458e28fd75dcc4032a1e3", "lat": 38.8722285, "fusion_lat": 0.0, "lon": -77.01761383333333, "is_disabled": 0, "fusion_lon": 0.0, "rental_uris": {"android": "https://dc.lft.to/lastmile_qr_scan", "ios": "https://dc.lft.to/lastmile_qr_scan"}, "type": "electric_scooter"}, {"bike_id": "f029f7a9ee12691f2b8dcf08d165db6d", "is_reserved": 0, "name": "f029f7a9ee12691f2b8dcf08d165db6d", "lat": 38.903241666666666, "fusion_lat": 0.0, "lon": -77.024425, "is_disabled": 0, "fusion_lon": 0.0, "rental_uris": {"android": "https://dc.lft.to/lastmile_qr_scan", "ios": "https://dc.lft.to/lastmile_qr_scan"}, "type": "electric_scooter"}, {"bike_id": "4188b51af17c36c886a75874ce2c0b1f", "is_reserved": 0, "name": "4188b51af17c36c886a75874ce2c0b1f", "lat": 38.887450666666666, "fusion_lat": 0.0, "lon": -77.02568783333334, "is_disabled": 0, "fusion_lon": 0.0, "rental_uris": {"android": "https://dc.lft.to/lastmile_qr_scan", "ios": "https://dc.lft.to/lastmile_qr_scan"}, "type": "electric_scooter"}, {"bike_id": "0f6d709a03c1656a22eedf4484f5ec86", "is_reserved": 0, "name": "0f6d709a03c1656a22eedf4484f5ec86", "lat": 38.915789333333336, "fusion_lat": 0.0, "lon": -77.0319065, "is_disabled": 0, "fusion_lon": 0.0, "rental_uris": {"android": "https://dc.lft.to/lastmile_qr_scan", "ios": "https://dc.lft.to/lastmile_qr_scan"}, "type": "electric_scooter"}, {"bike_id": "20c63479bba43216a0d2456bd5003f76", "is_reserved": 0, "name": "20c63479bba43216a0d2456bd5003f76", "lat": 38.83626016666667, "fusion_lat": 0.0, "lon": -77.0694875, "is_disabled": 0, "fusion_lon": 0.0, "rental_uris": {"android": "https://dc.lft.to/lastmile_qr_scan", "ios": "https://dc.lft.to/lastmile_qr_scan"}, "type": "electric_bike"}, {"bike_id": "52262425f441eb62053e6eb38f83ab1e", "is_reserved": 0, "name": "52262425f441eb62053e6eb38f83ab1e", "lat": 38.9185825, "fusion_lat": 0.0, "lon": -76.96086733333334, "is_disabled": 0, "fusion_lon": 0.0, "rental_uris": {"android": "https://dc.lft.to/lastmile_qr_scan", "ios": "https://dc.lft.to/lastmile_qr_scan"}, "type": "electric_bike"}, {"bike_id": "5e45a8c43a7e5731a2a39e98aa720f01", "is_reserved": 0, "name": "5e45a8c43a7e5731a2a39e98aa720f01", "lat": 38.92876583333333, "fusion_lat": 0.0, "lon": -77.04124783333333, "is_disabled": 0, "fusion_lon": 0.0, "rental_uris": {"android": "https://dc.lft.to/lastmile_qr_scan", "ios": "https://dc.lft.to/lastmile_qr_scan"}, "type": "electric_scooter"}, {"bike_id": "bc4c5cf48264a9f0ec35c20e05172704", "is_reserved": 0, "name": "bc4c5cf48264a9f0ec35c20e05172704", "lat": 38.8718095, "fusion_lat": 0.0, "lon": -77.005701, "is_disabled": 0, "fusion_lon": 0.0, "rental_uris": {"android": "https://dc.lft.to/lastmile_qr_scan", "ios": "https://dc.lft.to/lastmile_qr_scan"}, "type": "electric_scooter"}, {"bike_id": "b3e21a8555c06e6b54ac977087acf332", "is_reserved": 0, "name": "b3e21a8555c06e6b54ac977087acf332", "lat": 38.9377955, "fusion_lat": 0.0, "lon": -77.03261533333334, "is_disabled": 0, "fusion_lon": 0.0, "rental_uris": {"android": "https://dc.lft.to/lastmile_qr_scan", "ios": "https://dc.lft.to/lastmile_qr_scan"}, "type": "electric_scooter"}, {"bike_id": "87070ac792425a548b6523e8e4227e36", "is_reserved": 0, "name": "87070ac792425a548b6523e8e4227e36", "lat": 38.930533, "fusion_lat": 0.0, "lon": -77.02329633333333, "is_disabled": 0, "fusion_lon": 0.0, "rental_uris": {"android": "https://dc.lft.to/lastmile_qr_scan", "ios": "https://dc.lft.to/lastmile_qr_scan"}, "type": "electric_scooter"}, {"bike_id": "533761a86c1abf494fe321525d034c40", "is_reserved": 0, "name": "533761a86c1abf494fe321525d034c40", "lat": 38.8745985, "fusion_lat": 0.0, "lon": -77.00925833333334, "is_disabled": 0, "fusion_lon": 0.0, "rental_uris": {"android": "https://dc.lft.to/lastmile_qr_scan", "ios": "https://dc.lft.to/lastmile_qr_scan"}, "type": "electric_scooter"}, {"bike_id": "ba4ff435d0ea318c8a9bd441dc8e0564", "is_reserved": 0, "name": "ba4ff435d0ea318c8a9bd441dc8e0564", "lat": 38.914207, "fusion_lat": 0.0, "lon": -77.01797433333333, "is_disabled": 0, "fusion_lon": 0.0, "rental_uris": {"android": "https://dc.lft.to/lastmile_qr_scan", "ios": "https://dc.lft.to/lastmile_qr_scan"}, "type": "electric_scooter"}, {"bike_id": "30d1e1937bb6617acd0f9527e0dd01ec", "is_reserved": 0, "name": "30d1e1937bb6617acd0f9527e0dd01ec", "lat": 38.89607433333333, "fusion_lat": 0.0, "lon": -77.02336516666666, "is_disabled": 0, "fusion_lon": 0.0, "rental_uris": {"android": "https://dc.lft.to/lastmile_qr_scan", "ios": "https://dc.lft.to/lastmile_qr_scan"}, "type": "electric_scooter"}, {"bike_id": "e95ea0f951c18351ae504b413e3d8227", "is_reserved": 0, "name": "e95ea0f951c18351ae504b413e3d8227", "lat": 38.92469883333333, "fusion_lat": 0.0, "lon": -77.026973, "is_disabled": 0, "fusion_lon": 0.0, "rental_uris": {"android": "https://dc.lft.to/lastmile_qr_scan", "ios": "https://dc.lft.to/lastmile_qr_scan"}, "type": "electric_scooter"}, {"bike_id": "af62574d1d6499c14a58e26d278b4df5", "is_reserved": 0, "name": "af62574d1d6499c14a58e26d278b4df5", "lat": 38.916842333333335, "fusion_lat": 0.0, "lon": -77.02888683333333, "is_disabled": 0, "fusion_lon": 0.0, "rental_uris": {"android": "https://dc.lft.to/lastmile_qr_scan", "ios": "https://dc.lft.to/lastmile_qr_scan"}, "type": "electric_scooter"}, {"bike_id": "84aed82ad766b9179728555c250c8c9b", "is_reserved": 0, "name": "84aed82ad766b9179728555c250c8c9b", "lat": 38.95593383333333, "fusion_lat": 0.0, "lon": -77.03367183333333, "is_disabled": 0, "fusion_lon": 0.0, "rental_uris": {"android": "https://dc.lft.to/lastmile_qr_scan", "ios": "https://dc.lft.to/lastmile_qr_scan"}, "type": "electric_scooter"}, {"bike_id": "0574428a17fbb932714731c156db977c", "is_reserved": 0, "name": "0574428a17fbb932714731c156db977c", "lat": 38.93469833333333, "fusion_lat": 0.0, "lon": -77.0721305, "is_disabled": 0, "fusion_lon": 0.0, "rental_uris": {"android": "https://dc.lft.to/lastmile_qr_scan", "ios": "https://dc.lft.to/lastmile_qr_scan"}, "type": "electric_scooter"}, {"bike_id": "cacbeb6a15653cf8c70ba86d5784fb31", "is_reserved": 0, "name": "cacbeb6a15653cf8c70ba86d5784fb31", "lat": 38.90775466666667, "fusion_lat": 0.0, "lon": -77.07166783333334, "is_disabled": 0, "fusion_lon": 0.0, "rental_uris": {"android": "https://dc.lft.to/lastmile_qr_scan", "ios": "https://dc.lft.to/lastmile_qr_scan"}, "type": "electric_scooter"}, {"bike_id": "7c7bef09b361b01a5bffad5cc3a759e1", "is_reserved": 0, "name": "7c7bef09b361b01a5bffad5cc3a759e1", "lat": 38.925175833333334, "fusion_lat": 0.0, "lon": -77.07704666666666, "is_disabled": 0, "fusion_lon": 0.0, "rental_uris": {"android": "https://dc.lft.to/lastmile_qr_scan", "ios": "https://dc.lft.to/lastmile_qr_scan"}, "type": "electric_scooter"}, {"bike_id": "30028fed798dfd8c16c277bcb592ff5d", "is_reserved": 0, "name": "30028fed798dfd8c16c277bcb592ff5d", "lat": 38.888226833333334, "fusion_lat": 0.0, "lon": -76.9771665, "is_disabled": 0, "fusion_lon": 0.0, "rental_uris": {"android": "https://dc.lft.to/lastmile_qr_scan", "ios": "https://dc.lft.to/lastmile_qr_scan"}, "type": "electric_scooter"}, {"bike_id": "54e48d64a23b23278ec17d572fd03300", "is_reserved": 0, "name": "54e48d64a23b23278ec17d572fd03300", "lat": 38.9115415, "fusion_lat": 0.0, "lon": -77.08754683333333, "is_disabled": 0, "fusion_lon": 0.0, "rental_uris": {"android": "https://dc.lft.to/lastmile_qr_scan", "ios": "https://dc.lft.to/lastmile_qr_scan"}, "type": "electric_scooter"}, {"bike_id": "84672ccd2cd55752b356c8d58a906e71", "is_reserved": 0, "name": "84672ccd2cd55752b356c8d58a906e71", "lat": 38.888234, "fusion_lat": 0.0, "lon": -76.9771685, "is_disabled": 0, "fusion_lon": 0.0, "rental_uris": {"android": "https://dc.lft.to/lastmile_qr_scan", "ios": "https://dc.lft.to/lastmile_qr_scan"}, "type": "electric_scooter"}, {"bike_id": "053c1dcfa40ecc6aed1698f9cf493c9e", "is_reserved": 0, "name": "053c1dcfa40ecc6aed1698f9cf493c9e", "lat": 38.91569633333334, "fusion_lat": 0.0, "lon": -77.02004966666667, "is_disabled": 0, "fusion_lon": 0.0, "rental_uris": {"android": "https://dc.lft.to/lastmile_qr_scan", "ios": "https://dc.lft.to/lastmile_qr_scan"}, "type": "electric_scooter"}, {"bike_id": "654f5aeca020e5b175026c99bc47c31b", "is_reserved": 0, "name": "654f5aeca020e5b175026c99bc47c31b", "lat": 38.89887233333334, "fusion_lat": 0.0, "lon": -76.99359983333333, "is_disabled": 0, "fusion_lon": 0.0, "rental_uris": {"android": "https://dc.lft.to/lastmile_qr_scan", "ios": "https://dc.lft.to/lastmile_qr_scan"}, "type": "electric_scooter"}, {"bike_id": "ea22930937d829abc1c17f282ead38fa", "is_reserved": 0, "name": "ea22930937d829abc1c17f282ead38fa", "lat": 38.89544933333333, "fusion_lat": 0.0, "lon": -76.983369, "is_disabled": 0, "fusion_lon": 0.0, "rental_uris": {"android": "https://dc.lft.to/lastmile_qr_scan", "ios": "https://dc.lft.to/lastmile_qr_scan"}, "type": "electric_scooter"}, {"bike_id": "858898ab8c755e33172c0196c836fc5e", "is_reserved": 0, "name": "858898ab8c755e33172c0196c836fc5e", "lat": 38.92316733333333, "fusion_lat": 0.0, "lon": -77.03046, "is_disabled": 0, "fusion_lon": 0.0, "rental_uris": {"android": "https://dc.lft.to/lastmile_qr_scan", "ios": "https://dc.lft.to/lastmile_qr_scan"}, "type": "electric_scooter"}, {"bike_id": "183f35e38ab5c4b256e4a902465694a7", "is_reserved": 0, "name": "183f35e38ab5c4b256e4a902465694a7", "lat": 38.884949, "fusion_lat": 0.0, "lon": -77.01464266666666, "is_disabled": 0, "fusion_lon": 0.0, "rental_uris": {"android": "https://dc.lft.to/lastmile_qr_scan", "ios": "https://dc.lft.to/lastmile_qr_scan"}, "type": "electric_scooter"}, {"bike_id": "bf89082cf838cc1c69b3a1f0736fd351", "is_reserved": 0, "name": "bf89082cf838cc1c69b3a1f0736fd351", "lat": 38.95596283333333, "fusion_lat": 0.0, "lon": -77.010071, "is_disabled": 0, "fusion_lon": 0.0, "rental_uris": {"android": "https://dc.lft.to/lastmile_qr_scan", "ios": "https://dc.lft.to/lastmile_qr_scan"}, "type": "electric_bike"}, {"bike_id": "9cd1ab6427d1ba2e2f46f61dc9e0f1f1", "is_reserved": 0, "name": "9cd1ab6427d1ba2e2f46f61dc9e0f1f1", "lat": 38.89968566666667, "fusion_lat": 0.0, "lon": -76.98668583333334, "is_disabled": 0, "fusion_lon": 0.0, "rental_uris": {"android": "https://dc.lft.to/lastmile_qr_scan", "ios": "https://dc.lft.to/lastmile_qr_scan"}, "type": "electric_bike"}, {"bike_id": "eb0154d0ebc3bc54dbc7170b8eb5ef49", "is_reserved": 0, "name": "eb0154d0ebc3bc54dbc7170b8eb5ef49", "lat": 38.916764, "fusion_lat": 0.0, "lon": -77.02392783333333, "is_disabled": 0, "fusion_lon": 0.0, "rental_uris": {"android": "https://dc.lft.to/lastmile_qr_scan", "ios": "https://dc.lft.to/lastmile_qr_scan"}, "type": "electric_scooter"}, {"bike_id": "0cb165f22c86f78ac5f4ebe6550cad50", "is_reserved": 0, "name": "0cb165f22c86f78ac5f4ebe6550cad50", "lat": 38.8731115, "fusion_lat": 0.0, "lon": -77.00134316666667, "is_disabled": 0, "fusion_lon": 0.0, "rental_uris": {"android": "https://dc.lft.to/lastmile_qr_scan", "ios": "https://dc.lft.to/lastmile_qr_scan"}, "type": "electric_scooter"}, {"bike_id": "7c785bc2aeae877553bbb84cf18425ab", "is_reserved": 0, "name": "7c785bc2aeae877553bbb84cf18425ab", "lat": 38.93349466666667, "fusion_lat": 0.0, "lon": -77.061964, "is_disabled": 0, "fusion_lon": 0.0, "rental_uris": {"android": "https://dc.lft.to/lastmile_qr_scan", "ios": "https://dc.lft.to/lastmile_qr_scan"}, "type": "electric_scooter"}, {"bike_id": "0dd399fe9ed209d94eeb734d8df951a1", "is_reserved": 0, "name": "0dd399fe9ed209d94eeb734d8df951a1", "lat": 38.8842975, "fusion_lat": 0.0, "lon": -77.00685583333333, "is_disabled": 0, "fusion_lon": 0.0, "rental_uris": {"android": "https://dc.lft.to/lastmile_qr_scan", "ios": "https://dc.lft.to/lastmile_qr_scan"}, "type": "electric_scooter"}, {"bike_id": "b1e5276d64e47bf8faf22332ca1b3695", "is_reserved": 0, "name": "b1e5276d64e47bf8faf22332ca1b3695", "lat": 38.914114166666664, "fusion_lat": 0.0, "lon": -77.02097216666667, "is_disabled": 0, "fusion_lon": 0.0, "rental_uris": {"android": "https://dc.lft.to/lastmile_qr_scan", "ios": "https://dc.lft.to/lastmile_qr_scan"}, "type": "electric_scooter"}, {"bike_id": "46e4726f9c568d47571ac28b32ce4850", "is_reserved": 0, "name": "46e4726f9c568d47571ac28b32ce4850", "lat": 38.91544616666667, "fusion_lat": 0.0, "lon": -77.03852766666667, "is_disabled": 0, "fusion_lon": 0.0, "rental_uris": {"android": "https://dc.lft.to/lastmile_qr_scan", "ios": "https://dc.lft.to/lastmile_qr_scan"}, "type": "electric_scooter"}, {"bike_id": "e2adbbaa4f30cd3247134961d5c03c51", "is_reserved": 0, "name": "e2adbbaa4f30cd3247134961d5c03c51", "lat": 38.89749366666667, "fusion_lat": 0.0, "lon": -77.01287566666667, "is_disabled": 0, "fusion_lon": 0.0, "rental_uris": {"android": "https://dc.lft.to/lastmile_qr_scan", "ios": "https://dc.lft.to/lastmile_qr_scan"}, "type": "electric_scooter"}, {"bike_id": "ec627e8b7038b26c2678d25fa636ef0f", "is_reserved": 0, "name": "ec627e8b7038b26c2678d25fa636ef0f", "lat": 38.9148025, "fusion_lat": 0.0, "lon": -77.04609666666667, "is_disabled": 0, "fusion_lon": 0.0, "rental_uris": {"android": "https://dc.lft.to/lastmile_qr_scan", "ios": "https://dc.lft.to/lastmile_qr_scan"}, "type": "electric_scooter"}, {"bike_id": "3ac261da00eaa5d81c9b67e3a77eacd3", "is_reserved": 0, "name": "3ac261da00eaa5d81c9b67e3a77eacd3", "lat": 38.892197833333334, "fusion_lat": 0.0, "lon": -77.02644033333333, "is_disabled": 0, "fusion_lon": 0.0, "rental_uris": {"android": "https://dc.lft.to/lastmile_qr_scan", "ios": "https://dc.lft.to/lastmile_qr_scan"}, "type": "electric_scooter"}, {"bike_id": "d1957d6effbbc1d938c5822a562a725c", "is_reserved": 0, "name": "d1957d6effbbc1d938c5822a562a725c", "lat": 38.92475533333333, "fusion_lat": 0.0, "lon": -77.0355675, "is_disabled": 0, "fusion_lon": 0.0, "rental_uris": {"android": "https://dc.lft.to/lastmile_qr_scan", "ios": "https://dc.lft.to/lastmile_qr_scan"}, "type": "electric_scooter"}, {"bike_id": "cb056bb79d767948f94dd4b07ca0d828", "is_reserved": 0, "name": "cb056bb79d767948f94dd4b07ca0d828", "lat": 38.91814016666667, "fusion_lat": 0.0, "lon": -77.0400515, "is_disabled": 0, "fusion_lon": 0.0, "rental_uris": {"android": "https://dc.lft.to/lastmile_qr_scan", "ios": "https://dc.lft.to/lastmile_qr_scan"}, "type": "electric_scooter"}, {"bike_id": "d67f1dde4ecfc5b0ae53ec740742133b", "is_reserved": 0, "name": "d67f1dde4ecfc5b0ae53ec740742133b", "lat": 38.941849833333336, "fusion_lat": 0.0, "lon": -77.02487533333333, "is_disabled": 0, "fusion_lon": 0.0, "rental_uris": {"android": "https://dc.lft.to/lastmile_qr_scan", "ios": "https://dc.lft.to/lastmile_qr_scan"}, "type": "electric_scooter"}, {"bike_id": "9e74e832248bb9f2e295c0a19a625040", "is_reserved": 0, "name": "9e74e832248bb9f2e295c0a19a625040", "lat": 38.922073166666664, "fusion_lat": 0.0, "lon": -77.04196966666666, "is_disabled": 0, "fusion_lon": 0.0, "rental_uris": {"android": "https://dc.lft.to/lastmile_qr_scan", "ios": "https://dc.lft.to/lastmile_qr_scan"}, "type": "electric_scooter"}, {"bike_id": "00b6098c84f62c67e0f0a90c65248cb4", "is_reserved": 0, "name": "00b6098c84f62c67e0f0a90c65248cb4", "lat": 38.932253, "fusion_lat": 0.0, "lon": -77.02967933333333, "is_disabled": 0, "fusion_lon": 0.0, "rental_uris": {"android": "https://dc.lft.to/lastmile_qr_scan", "ios": "https://dc.lft.to/lastmile_qr_scan"}, "type": "electric_scooter"}, {"bike_id": "87389d02260273d94c3864a4aaf2c140", "is_reserved": 0, "name": "87389d02260273d94c3864a4aaf2c140", "lat": 38.91794483333334, "fusion_lat": 0.0, "lon": -77.03199533333333, "is_disabled": 0, "fusion_lon": 0.0, "rental_uris": {"android": "https://dc.lft.to/lastmile_qr_scan", "ios": "https://dc.lft.to/lastmile_qr_scan"}, "type": "electric_scooter"}, {"bike_id": "973bf72efbf00c6ac5f6d27399f11abd", "is_reserved": 0, "name": "973bf72efbf00c6ac5f6d27399f11abd", "lat": 38.90758916666667, "fusion_lat": 0.0, "lon": -77.0364015, "is_disabled": 0, "fusion_lon": 0.0, "rental_uris": {"android": "https://dc.lft.to/lastmile_qr_scan", "ios": "https://dc.lft.to/lastmile_qr_scan"}, "type": "electric_bike"}, {"bike_id": "9cea92389305fab15c843ec106c6d8a9", "is_reserved": 0, "name": "9cea92389305fab15c843ec106c6d8a9", "lat": 38.88728566666666, "fusion_lat": 0.0, "lon": -77.01335433333334, "is_disabled": 0, "fusion_lon": 0.0, "rental_uris": {"android": "https://dc.lft.to/lastmile_qr_scan", "ios": "https://dc.lft.to/lastmile_qr_scan"}, "type": "electric_scooter"}, {"bike_id": "bb84e200cfaf66cba584862162f67aaa", "is_reserved": 0, "name": "bb84e200cfaf66cba584862162f67aaa", "lat": 38.92485633333333, "fusion_lat": 0.0, "lon": -77.052157, "is_disabled": 0, "fusion_lon": 0.0, "rental_uris": {"android": "https://dc.lft.to/lastmile_qr_scan", "ios": "https://dc.lft.to/lastmile_qr_scan"}, "type": "electric_scooter"}, {"bike_id": "afcf49c1220fb41ed0c54cf6d7adad29", "is_reserved": 0, "name": "afcf49c1220fb41ed0c54cf6d7adad29", "lat": 38.9209335, "fusion_lat": 0.0, "lon": -77.02519833333334, "is_disabled": 0, "fusion_lon": 0.0, "rental_uris": {"android": "https://dc.lft.to/lastmile_qr_scan", "ios": "https://dc.lft.to/lastmile_qr_scan"}, "type": "electric_scooter"}, {"bike_id": "85d82222ed472c35ef5e8ff9b6fd69b1", "is_reserved": 0, "name": "85d82222ed472c35ef5e8ff9b6fd69b1", "lat": 38.916630166666664, "fusion_lat": 0.0, "lon": -77.038546, "is_disabled": 0, "fusion_lon": 0.0, "rental_uris": {"android": "https://dc.lft.to/lastmile_qr_scan", "ios": "https://dc.lft.to/lastmile_qr_scan"}, "type": "electric_scooter"}, {"bike_id": "0e9e95ebf1443003fe896042594f75c3", "is_reserved": 0, "name": "0e9e95ebf1443003fe896042594f75c3", "lat": 38.937729, "fusion_lat": 0.0, "lon": -77.032829, "is_disabled": 0, "fusion_lon": 0.0, "rental_uris": {"android": "https://dc.lft.to/lastmile_qr_scan", "ios": "https://dc.lft.to/lastmile_qr_scan"}, "type": "electric_scooter"}, {"bike_id": "f0d0a7f50e56aebad1219f403e23d3bc", "is_reserved": 0, "name": "f0d0a7f50e56aebad1219f403e23d3bc", "lat": 38.916929333333336, "fusion_lat": 0.0, "lon": -77.02597583333333, "is_disabled": 0, "fusion_lon": 0.0, "rental_uris": {"android": "https://dc.lft.to/lastmile_qr_scan", "ios": "https://dc.lft.to/lastmile_qr_scan"}, "type": "electric_scooter"}, {"bike_id": "58255ed203583e589040abea2f9ddce9", "is_reserved": 0, "name": "58255ed203583e589040abea2f9ddce9", "lat": 38.905708833333335, "fusion_lat": 0.0, "lon": -77.005689, "is_disabled": 0, "fusion_lon": 0.0, "rental_uris": {"android": "https://dc.lft.to/lastmile_qr_scan", "ios": "https://dc.lft.to/lastmile_qr_scan"}, "type": "electric_scooter"}, {"bike_id": "72800c739161cf6a873c541f1103baf0", "is_reserved": 0, "name": "72800c739161cf6a873c541f1103baf0", "lat": 38.90576933333333, "fusion_lat": 0.0, "lon": -77.03872966666667, "is_disabled": 0, "fusion_lon": 0.0, "rental_uris": {"android": "https://dc.lft.to/lastmile_qr_scan", "ios": "https://dc.lft.to/lastmile_qr_scan"}, "type": "electric_scooter"}, {"bike_id": "dbd75e75aa5ebd06e7bb8d6fce47a00a", "is_reserved": 0, "name": "dbd75e75aa5ebd06e7bb8d6fce47a00a", "lat": 38.905778166666664, "fusion_lat": 0.0, "lon": -77.0069665, "is_disabled": 0, "fusion_lon": 0.0, "rental_uris": {"android": "https://dc.lft.to/lastmile_qr_scan", "ios": "https://dc.lft.to/lastmile_qr_scan"}, "type": "electric_scooter"}, {"bike_id": "92e1ea4c52eadbda8bc5f53ad50094a0", "is_reserved": 0, "name": "92e1ea4c52eadbda8bc5f53ad50094a0", "lat": 38.9105935, "fusion_lat": 0.0, "lon": -77.043459, "is_disabled": 0, "fusion_lon": 0.0, "rental_uris": {"android": "https://dc.lft.to/lastmile_qr_scan", "ios": "https://dc.lft.to/lastmile_qr_scan"}, "type": "electric_scooter"}, {"bike_id": "d37db2941cb1c651f68e72e71fd754d7", "is_reserved": 0, "name": "d37db2941cb1c651f68e72e71fd754d7", "lat": 38.91269, "fusion_lat": 0.0, "lon": -77.02264316666667, "is_disabled": 0, "fusion_lon": 0.0, "rental_uris": {"android": "https://dc.lft.to/lastmile_qr_scan", "ios": "https://dc.lft.to/lastmile_qr_scan"}, "type": "electric_scooter"}, {"bike_id": "4f2a42796164f846fd5290ef6377600c", "is_reserved": 0, "name": "4f2a42796164f846fd5290ef6377600c", "lat": 38.897723, "fusion_lat": 0.0, "lon": -76.98462416666666, "is_disabled": 0, "fusion_lon": 0.0, "rental_uris": {"android": "https://dc.lft.to/lastmile_qr_scan", "ios": "https://dc.lft.to/lastmile_qr_scan"}, "type": "electric_scooter"}, {"bike_id": "ddb2b32ea29356107193d9f322403eab", "is_reserved": 0, "name": "ddb2b32ea29356107193d9f322403eab", "lat": 38.90263183333333, "fusion_lat": 0.0, "lon": -77.0325015, "is_disabled": 0, "fusion_lon": 0.0, "rental_uris": {"android": "https://dc.lft.to/lastmile_qr_scan", "ios": "https://dc.lft.to/lastmile_qr_scan"}, "type": "electric_scooter"}, {"bike_id": "abb15cc93d43db437cb24aa2bcb69541", "is_reserved": 0, "name": "abb15cc93d43db437cb24aa2bcb69541", "lat": 38.94305216666667, "fusion_lat": 0.0, "lon": -77.06132783333334, "is_disabled": 0, "fusion_lon": 0.0, "rental_uris": {"android": "https://dc.lft.to/lastmile_qr_scan", "ios": "https://dc.lft.to/lastmile_qr_scan"}, "type": "electric_scooter"}, {"bike_id": "35c61520a1d4d17140ec405296ad551a", "is_reserved": 0, "name": "35c61520a1d4d17140ec405296ad551a", "lat": 38.891853, "fusion_lat": 0.0, "lon": -77.01591366666666, "is_disabled": 0, "fusion_lon": 0.0, "rental_uris": {"android": "https://dc.lft.to/lastmile_qr_scan", "ios": "https://dc.lft.to/lastmile_qr_scan"}, "type": "electric_scooter"}, {"bike_id": "8227c36680513bab0af3915a61d3ce8a", "is_reserved": 0, "name": "8227c36680513bab0af3915a61d3ce8a", "lat": 38.8738455, "fusion_lat": 0.0, "lon": -77.0003435, "is_disabled": 0, "fusion_lon": 0.0, "rental_uris": {"android": "https://dc.lft.to/lastmile_qr_scan", "ios": "https://dc.lft.to/lastmile_qr_scan"}, "type": "electric_scooter"}, {"bike_id": "75790ac16e0952d841fac8dbeabc4405", "is_reserved": 0, "name": "75790ac16e0952d841fac8dbeabc4405", "lat": 38.91705866666667, "fusion_lat": 0.0, "lon": -77.030357, "is_disabled": 0, "fusion_lon": 0.0, "rental_uris": {"android": "https://dc.lft.to/lastmile_qr_scan", "ios": "https://dc.lft.to/lastmile_qr_scan"}, "type": "electric_scooter"}, {"bike_id": "d54e4a62bd7688e35e0b68d8cca37bec", "is_reserved": 0, "name": "d54e4a62bd7688e35e0b68d8cca37bec", "lat": 38.874837166666666, "fusion_lat": 0.0, "lon": -77.00600516666667, "is_disabled": 0, "fusion_lon": 0.0, "rental_uris": {"android": "https://dc.lft.to/lastmile_qr_scan", "ios": "https://dc.lft.to/lastmile_qr_scan"}, "type": "electric_scooter"}, {"bike_id": "c3a48bf40ded58db2fe896cad44c1f6f", "is_reserved": 0, "name": "c3a48bf40ded58db2fe896cad44c1f6f", "lat": 38.919115166666664, "fusion_lat": 0.0, "lon": -77.027317, "is_disabled": 0, "fusion_lon": 0.0, "rental_uris": {"android": "https://dc.lft.to/lastmile_qr_scan", "ios": "https://dc.lft.to/lastmile_qr_scan"}, "type": "electric_scooter"}, {"bike_id": "3c9bd744d5c2966cbd1c1d7d4e16d6e7", "is_reserved": 0, "name": "3c9bd744d5c2966cbd1c1d7d4e16d6e7", "lat": 38.923220666666666, "fusion_lat": 0.0, "lon": -77.043502, "is_disabled": 0, "fusion_lon": 0.0, "rental_uris": {"android": "https://dc.lft.to/lastmile_qr_scan", "ios": "https://dc.lft.to/lastmile_qr_scan"}, "type": "electric_scooter"}, {"bike_id": "2ec3c098673b66720ae571e84bab9c4f", "is_reserved": 0, "name": "2ec3c098673b66720ae571e84bab9c4f", "lat": 38.853336166666665, "fusion_lat": 0.0, "lon": -77.115062, "is_disabled": 0, "fusion_lon": 0.0, "rental_uris": {"android": "https://dc.lft.to/lastmile_qr_scan", "ios": "https://dc.lft.to/lastmile_qr_scan"}, "type": "electric_bike"}, {"bike_id": "32f631467a784e78f054cb8a3f5fa728", "is_reserved": 0, "name": "32f631467a784e78f054cb8a3f5fa728", "lat": 38.91814183333334, "fusion_lat": 0.0, "lon": -77.0317875, "is_disabled": 0, "fusion_lon": 0.0, "rental_uris": {"android": "https://dc.lft.to/lastmile_qr_scan", "ios": "https://dc.lft.to/lastmile_qr_scan"}, "type": "electric_scooter"}, {"bike_id": "e8ca66c97b20494a3d43ec46f2ce0884", "is_reserved": 0, "name": "e8ca66c97b20494a3d43ec46f2ce0884", "lat": 38.92866216666667, "fusion_lat": 0.0, "lon": -77.03235216666667, "is_disabled": 0, "fusion_lon": 0.0, "rental_uris": {"android": "https://dc.lft.to/lastmile_qr_scan", "ios": "https://dc.lft.to/lastmile_qr_scan"}, "type": "electric_scooter"}, {"bike_id": "629f0b86ef320538a787be4f67f02483", "is_reserved": 0, "name": "629f0b86ef320538a787be4f67f02483", "lat": 38.860612333333336, "fusion_lat": 0.0, "lon": -76.96712516666666, "is_disabled": 0, "fusion_lon": 0.0, "rental_uris": {"android": "https://dc.lft.to/lastmile_qr_scan", "ios": "https://dc.lft.to/lastmile_qr_scan"}, "type": "electric_scooter"}, {"bike_id": "b968e89cb865aa0988038739a8efc831", "is_reserved": 0, "name": "b968e89cb865aa0988038739a8efc831", "lat": 38.887244833333334, "fusion_lat": 0.0, "lon": -77.02581233333333, "is_disabled": 0, "fusion_lon": 0.0, "rental_uris": {"android": "https://dc.lft.to/lastmile_qr_scan", "ios": "https://dc.lft.to/lastmile_qr_scan"}, "type": "electric_scooter"}, {"bike_id": "601ebcbdab4e0e1645377f98330dde5a", "is_reserved": 0, "name": "601ebcbdab4e0e1645377f98330dde5a", "lat": 38.8689005, "fusion_lat": 0.0, "lon": -76.98999066666667, "is_disabled": 0, "fusion_lon": 0.0, "rental_uris": {"android": "https://dc.lft.to/lastmile_qr_scan", "ios": "https://dc.lft.to/lastmile_qr_scan"}, "type": "electric_scooter"}, {"bike_id": "8cca4c45b76651a27aafead4806c88a6", "is_reserved": 0, "name": "8cca4c45b76651a27aafead4806c88a6", "lat": 39.03428866666667, "fusion_lat": 0.0, "lon": -77.04290116666667, "is_disabled": 0, "fusion_lon": 0.0, "rental_uris": {"android": "https://dc.lft.to/lastmile_qr_scan", "ios": "https://dc.lft.to/lastmile_qr_scan"}, "type": "electric_bike"}, {"bike_id": "64fc97745f026b59f541a7be0fb538ca", "is_reserved": 0, "name": "64fc97745f026b59f541a7be0fb538ca", "lat": 38.93492283333333, "fusion_lat": 0.0, "lon": -77.07262283333333, "is_disabled": 0, "fusion_lon": 0.0, "rental_uris": {"android": "https://dc.lft.to/lastmile_qr_scan", "ios": "https://dc.lft.to/lastmile_qr_scan"}, "type": "electric_scooter"}, {"bike_id": "23cb9e993c43829b5cf413333def37c2", "is_reserved": 0, "name": "23cb9e993c43829b5cf413333def37c2", "lat": 38.92719016666667, "fusion_lat": 0.0, "lon": -77.02086616666666, "is_disabled": 0, "fusion_lon": 0.0, "rental_uris": {"android": "https://dc.lft.to/lastmile_qr_scan", "ios": "https://dc.lft.to/lastmile_qr_scan"}, "type": "electric_bike"}, {"bike_id": "1e9d2b079b95689c554dd23e8d542a50", "is_reserved": 0, "name": "1e9d2b079b95689c554dd23e8d542a50", "lat": 38.897923166666665, "fusion_lat": 0.0, "lon": -76.947288, "is_disabled": 0, "fusion_lon": 0.0, "rental_uris": {"android": "https://dc.lft.to/lastmile_qr_scan", "ios": "https://dc.lft.to/lastmile_qr_scan"}, "type": "electric_scooter"}, {"bike_id": "0c473811c34c9ab8f35b1c8dfbfe90db", "is_reserved": 0, "name": "0c473811c34c9ab8f35b1c8dfbfe90db", "lat": 38.90381883333333, "fusion_lat": 0.0, "lon": -77.02979183333333, "is_disabled": 0, "fusion_lon": 0.0, "rental_uris": {"android": "https://dc.lft.to/lastmile_qr_scan", "ios": "https://dc.lft.to/lastmile_qr_scan"}, "type": "electric_scooter"}, {"bike_id": "5a94ec966c7a740c2f288e94b81983db", "is_reserved": 0, "name": "5a94ec966c7a740c2f288e94b81983db", "lat": 38.907134, "fusion_lat": 0.0, "lon": -77.025219, "is_disabled": 0, "fusion_lon": 0.0, "rental_uris": {"android": "https://dc.lft.to/lastmile_qr_scan", "ios": "https://dc.lft.to/lastmile_qr_scan"}, "type": "electric_scooter"}, {"bike_id": "34341d09269b18564a747b730b9c1bb6", "is_reserved": 0, "name": "34341d09269b18564a747b730b9c1bb6", "lat": 38.942680333333335, "fusion_lat": 0.0, "lon": -77.032552, "is_disabled": 0, "fusion_lon": 0.0, "rental_uris": {"android": "https://dc.lft.to/lastmile_qr_scan", "ios": "https://dc.lft.to/lastmile_qr_scan"}, "type": "electric_scooter"}, {"bike_id": "595e6bcd42d5dc8a2b8f825c241ebac8", "is_reserved": 0, "name": "595e6bcd42d5dc8a2b8f825c241ebac8", "lat": 38.89235133333333, "fusion_lat": 0.0, "lon": -77.04360883333334, "is_disabled": 0, "fusion_lon": 0.0, "rental_uris": {"android": "https://dc.lft.to/lastmile_qr_scan", "ios": "https://dc.lft.to/lastmile_qr_scan"}, "type": "electric_scooter"}, {"bike_id": "1b42b738010a42f4f56be8210e7eec50", "is_reserved": 0, "name": "1b42b738010a42f4f56be8210e7eec50", "lat": 38.91695583333333, "fusion_lat": 0.0, "lon": -77.03321616666666, "is_disabled": 0, "fusion_lon": 0.0, "rental_uris": {"android": "https://dc.lft.to/lastmile_qr_scan", "ios": "https://dc.lft.to/lastmile_qr_scan"}, "type": "electric_scooter"}, {"bike_id": "44c047bff6f9192ea14d19472b6a8a4c", "is_reserved": 0, "name": "44c047bff6f9192ea14d19472b6a8a4c", "lat": 38.9191335, "fusion_lat": 0.0, "lon": -77.03264716666666, "is_disabled": 0, "fusion_lon": 0.0, "rental_uris": {"android": "https://dc.lft.to/lastmile_qr_scan", "ios": "https://dc.lft.to/lastmile_qr_scan"}, "type": "electric_scooter"}, {"bike_id": "6831427c0f341630747dad5f76dd453c", "is_reserved": 0, "name": "6831427c0f341630747dad5f76dd453c", "lat": 38.8703445, "fusion_lat": 0.0, "lon": -77.22894116666667, "is_disabled": 0, "fusion_lon": 0.0, "rental_uris": {"android": "https://dc.lft.to/lastmile_qr_scan", "ios": "https://dc.lft.to/lastmile_qr_scan"}, "type": "electric_bike"}, {"bike_id": "f25767c2a78b92f67109d8e069c58508", "is_reserved": 0, "name": "f25767c2a78b92f67109d8e069c58508", "lat": 38.915541833333336, "fusion_lat": 0.0, "lon": -77.00585783333334, "is_disabled": 0, "fusion_lon": 0.0, "rental_uris": {"android": "https://dc.lft.to/lastmile_qr_scan", "ios": "https://dc.lft.to/lastmile_qr_scan"}, "type": "electric_scooter"}, {"bike_id": "37cfde2cef60093d2bd68f4e8368d422", "is_reserved": 0, "name": "37cfde2cef60093d2bd68f4e8368d422", "lat": 38.902817, "fusion_lat": 0.0, "lon": -77.0238395, "is_disabled": 0, "fusion_lon": 0.0, "rental_uris": {"android": "https://dc.lft.to/lastmile_qr_scan", "ios": "https://dc.lft.to/lastmile_qr_scan"}, "type": "electric_scooter"}, {"bike_id": "3e4829dffe6a8d98abcf34aca947249d", "is_reserved": 0, "name": "3e4829dffe6a8d98abcf34aca947249d", "lat": 38.9155965, "fusion_lat": 0.0, "lon": -77.02048616666667, "is_disabled": 0, "fusion_lon": 0.0, "rental_uris": {"android": "https://dc.lft.to/lastmile_qr_scan", "ios": "https://dc.lft.to/lastmile_qr_scan"}, "type": "electric_scooter"}, {"bike_id": "a12dcd2e4a9d127da2d0ea008ccd4434", "is_reserved": 0, "name": "a12dcd2e4a9d127da2d0ea008ccd4434", "lat": 38.9249595, "fusion_lat": 0.0, "lon": -77.02400516666667, "is_disabled": 0, "fusion_lon": 0.0, "rental_uris": {"android": "https://dc.lft.to/lastmile_qr_scan", "ios": "https://dc.lft.to/lastmile_qr_scan"}, "type": "electric_scooter"}, {"bike_id": "d3f527062175c23d3058c1a2f126cbcb", "is_reserved": 0, "name": "d3f527062175c23d3058c1a2f126cbcb", "lat": 38.923728833333335, "fusion_lat": 0.0, "lon": -77.051719, "is_disabled": 0, "fusion_lon": 0.0, "rental_uris": {"android": "https://dc.lft.to/lastmile_qr_scan", "ios": "https://dc.lft.to/lastmile_qr_scan"}, "type": "electric_scooter"}, {"bike_id": "9e7ff807bdd611df6b84a42c69a7b2bf", "is_reserved": 0, "name": "9e7ff807bdd611df6b84a42c69a7b2bf", "lat": 38.90966, "fusion_lat": 0.0, "lon": -77.04851133333334, "is_disabled": 0, "fusion_lon": 0.0, "rental_uris": {"android": "https://dc.lft.to/lastmile_qr_scan", "ios": "https://dc.lft.to/lastmile_qr_scan"}, "type": "electric_scooter"}, {"bike_id": "a5744125a2f95e687e537311fc99fade", "is_reserved": 0, "name": "a5744125a2f95e687e537311fc99fade", "lat": 38.9141425, "fusion_lat": 0.0, "lon": -77.0209385, "is_disabled": 0, "fusion_lon": 0.0, "rental_uris": {"android": "https://dc.lft.to/lastmile_qr_scan", "ios": "https://dc.lft.to/lastmile_qr_scan"}, "type": "electric_scooter"}, {"bike_id": "d5615bb56b62ac35836453f51048b195", "is_reserved": 0, "name": "d5615bb56b62ac35836453f51048b195", "lat": 38.874191833333335, "fusion_lat": 0.0, "lon": -76.97180666666667, "is_disabled": 0, "fusion_lon": 0.0, "rental_uris": {"android": "https://dc.lft.to/lastmile_qr_scan", "ios": "https://dc.lft.to/lastmile_qr_scan"}, "type": "electric_scooter"}, {"bike_id": "6625eedac65132a629ea7f16b9aaba07", "is_reserved": 0, "name": "6625eedac65132a629ea7f16b9aaba07", "lat": 38.904087833333335, "fusion_lat": 0.0, "lon": -77.0366135, "is_disabled": 0, "fusion_lon": 0.0, "rental_uris": {"android": "https://dc.lft.to/lastmile_qr_scan", "ios": "https://dc.lft.to/lastmile_qr_scan"}, "type": "electric_scooter"}, {"bike_id": "19b9fe68dd08461e97bf651d0bbb1d26", "is_reserved": 0, "name": "19b9fe68dd08461e97bf651d0bbb1d26", "lat": 38.917080166666665, "fusion_lat": 0.0, "lon": -77.0257815, "is_disabled": 0, "fusion_lon": 0.0, "rental_uris": {"android": "https://dc.lft.to/lastmile_qr_scan", "ios": "https://dc.lft.to/lastmile_qr_scan"}, "type": "electric_scooter"}, {"bike_id": "c0803af5f7145bb9280f9e8bae84daa7", "is_reserved": 0, "name": "c0803af5f7145bb9280f9e8bae84daa7", "lat": 38.898438666666664, "fusion_lat": 0.0, "lon": -77.02219283333334, "is_disabled": 0, "fusion_lon": 0.0, "rental_uris": {"android": "https://dc.lft.to/lastmile_qr_scan", "ios": "https://dc.lft.to/lastmile_qr_scan"}, "type": "electric_scooter"}, {"bike_id": "25fd0fa839fb5181f38af8ac39633558", "is_reserved": 0, "name": "25fd0fa839fb5181f38af8ac39633558", "lat": 38.87262666666667, "fusion_lat": 0.0, "lon": -77.00572466666667, "is_disabled": 0, "fusion_lon": 0.0, "rental_uris": {"android": "https://dc.lft.to/lastmile_qr_scan", "ios": "https://dc.lft.to/lastmile_qr_scan"}, "type": "electric_scooter"}, {"bike_id": "8a09315a9d66c94e94009e4110d0e72e", "is_reserved": 0, "name": "8a09315a9d66c94e94009e4110d0e72e", "lat": 38.9026025, "fusion_lat": 0.0, "lon": -77.03857483333333, "is_disabled": 0, "fusion_lon": 0.0, "rental_uris": {"android": "https://dc.lft.to/lastmile_qr_scan", "ios": "https://dc.lft.to/lastmile_qr_scan"}, "type": "electric_scooter"}, {"bike_id": "0c6f2096afb9cd0a440070a691ff6b65", "is_reserved": 0, "name": "0c6f2096afb9cd0a440070a691ff6b65", "lat": 38.90133316666667, "fusion_lat": 0.0, "lon": -77.04216916666667, "is_disabled": 0, "fusion_lon": 0.0, "rental_uris": {"android": "https://dc.lft.to/lastmile_qr_scan", "ios": "https://dc.lft.to/lastmile_qr_scan"}, "type": "electric_scooter"}, {"bike_id": "7d459e3dd4bcf12544ca866ab3a7faed", "is_reserved": 0, "name": "7d459e3dd4bcf12544ca866ab3a7faed", "lat": 38.91553533333333, "fusion_lat": 0.0, "lon": -77.0386305, "is_disabled": 0, "fusion_lon": 0.0, "rental_uris": {"android": "https://dc.lft.to/lastmile_qr_scan", "ios": "https://dc.lft.to/lastmile_qr_scan"}, "type": "electric_scooter"}, {"bike_id": "957a09a4bcb63139e570c57ee50bf8f9", "is_reserved": 0, "name": "957a09a4bcb63139e570c57ee50bf8f9", "lat": 38.923719, "fusion_lat": 0.0, "lon": -77.019092, "is_disabled": 0, "fusion_lon": 0.0, "rental_uris": {"android": "https://dc.lft.to/lastmile_qr_scan", "ios": "https://dc.lft.to/lastmile_qr_scan"}, "type": "electric_scooter"}, {"bike_id": "c64396498b10252fca325f210c9eda5e", "is_reserved": 0, "name": "c64396498b10252fca325f210c9eda5e", "lat": 38.898406, "fusion_lat": 0.0, "lon": -77.0231585, "is_disabled": 0, "fusion_lon": 0.0, "rental_uris": {"android": "https://dc.lft.to/lastmile_qr_scan", "ios": "https://dc.lft.to/lastmile_qr_scan"}, "type": "electric_scooter"}, {"bike_id": "edeb0d69ef2da890262ca4479a515912", "is_reserved": 0, "name": "edeb0d69ef2da890262ca4479a515912", "lat": 38.917705166666664, "fusion_lat": 0.0, "lon": -77.04410816666666, "is_disabled": 0, "fusion_lon": 0.0, "rental_uris": {"android": "https://dc.lft.to/lastmile_qr_scan", "ios": "https://dc.lft.to/lastmile_qr_scan"}, "type": "electric_scooter"},