{"data": {"bikes": [{"lat": 38.907331666666664, "is_disabled": 0, "type": "electric_scooter", "lon": -77.0297145, "bike_id": "964969a6011a2c4d1e870e14ec24819c", "fusion_lat": 0.0, "name": "964969a6011a2c4d1e870e14ec24819c", "is_reserved": 0, "rental_uris": {"android": "https://dc.lft.to/lastmile_qr_scan", "ios": "https://dc.lft.to/lastmile_qr_scan"}, "fusion_lon": 0.0}, {"lat": 38.94113933333333, "is_disabled": 0, "type": "electric_scooter", "lon": -77.00052816666667, "bike_id": "56adfa7844cedb27f153dda0005160a7", "fusion_lat": 0.0, "name": "56adfa7844cedb27f153dda0005160a7", "is_reserved": 0, "rental_uris": {"android": "https://dc.lft.to/lastmile_qr_scan", "ios": "https://dc.lft.to/lastmile_qr_scan"}, "fusion_lon": 0.0}, {"lat": 38.901919666666664, "is_disabled": 0, "type": "electric_scooter", "lon": -77.03660833333333, "bike_id": "bd79c409861fcc2ee18ea9704b514e3b", "fusion_lat": 0.0, "name": "bd79c409861fcc2ee18ea9704b514e3b", "is_reserved": 0, "rental_uris": {"android": "https://dc.lft.to/lastmile_qr_scan", "ios": "https://dc.lft.to/lastmile_qr_scan"}, "fusion_lon": 0.0}, {"lat": 38.91360366666667, "is_disabled": 0, "type": "electric_scooter", "lon": -77.041662, "bike_id": "41fb031c2d6df911e75741c24a31d276", "fusion_lat": 0.0, "name": "41fb031c2d6df911e75741c24a31d276", "is_reserved": 0, "rental_uris": {"android": "https://dc.lft.to/lastmile_qr_scan", "ios": "https://dc.lft.to/lastmile_qr_scan"}, "fusion_lon": 0.0}, {"lat": 38.813470333333335, "is_disabled": 0, "type": "electric_bike", "lon": -77.04923183333334, "bike_id": "e9076c87a2db2b1c02a69679a25d18c7", "fusion_lat": 0.0, "name": "e9076c87a2db2b1c02a69679a25d18c7", "is_reserved": 0, "rental_uris": {"android": "https://dc.lft.to/lastmile_qr_scan", "ios": "https://dc.lft.to/lastmile_qr_scan"}, "fusion_lon": 0.0}, {"lat": 38.962057333333334, "is_disabled": 0, "type": "electric_bike", "lon": -77.03514583333333, "bike_id": "67405cca2c846f8ee5b72b0a080ed7f7", "fusion_lat": 0.0, "name": "67405cca2c846f8ee5b72b0a080ed7f7", "is_reserved": 0, "rental_uris": {"android": "https://dc.lft.to/lastmile_qr_scan", "ios": "https://dc.lft.to/lastmile_qr_scan"}, "fusion_lon": 0.0}, {"lat": 38.90163616666667, "is_disabled": 0, "type": "electric_scooter", "lon": -77.02008383333333, "bike_id": "b64f4870831ad574558a23695740bf14", "fusion_lat": 0.0, "name": "b64f4870831ad574558a23695740bf14", "is_reserved": 0, "rental_uris": {"android": "https://dc.lft.to/lastmile_qr_scan", "ios": "https://dc.lft.to/lastmile_qr_scan"}, "fusion_lon": 0.0}, {"lat": 38.92627916666667, "is_disabled": 0, "type": "electric_scooter", "lon": -77.03800633333333, "bike_id": "6d2a05b69577586cc858cd43039f92b9", "fusion_lat": 0.0, "name": "6d2a05b69577586cc858cd43039f92b9", "is_reserved": 0, "rental_uris": {"android": "https://dc.lft.to/lastmile_qr_scan", "ios": "https://dc.lft.to/lastmile_qr_scan"}, "fusion_lon": 0.0}, {"lat": 38.909018, "is_disabled": 0, "type": "electric_bike", "lon": -77.0321605, "bike_id": "2b2ba8ffa511d4d8b008319192dbbb81", "fusion_lat": 0.0, "name": "2b2ba8ffa511d4d8b008319192dbbb81", "is_reserved": 0, "rental_uris": {"android": "https://dc.lft.to/lastmile_qr_scan", "ios": "https://dc.lft.to/lastmile_qr_scan"}, "fusion_lon": 0.0}, {"lat": 38.9072855, "is_disabled": 0, "type": "electric_scooter", "lon": -77.011346, "bike_id": "469d751543b810cf7d74f65a4a805bfb", "fusion_lat": 0.0, "name": "469d751543b810cf7d74f65a4a805bfb", "is_reserved": 0, "rental_uris": {"android": "https://dc.lft.to/lastmile_qr_scan", "ios": "https://dc.lft.to/lastmile_qr_scan"}, "fusion_lon": 0.0}, {"lat": 38.91120733333333, "is_disabled": 0, "type": "electric_scooter", "lon": -77.03819466666667, "bike_id": "cb77a51475f03409b5491c44741698ba", "fusion_lat": 0.0, "name": "cb77a51475f03409b5491c44741698ba", "is_reserved": 0, "rental_uris": {"android": "https://dc.lft.to/lastmile_qr_scan", "ios": "https://dc.lft.to/lastmile_qr_scan"}, "fusion_lon": 0.0}, {"lat": 38.90259983333333, "is_disabled": 0, "type": "electric_scooter", "lon": -77.01776033333333, "bike_id": "c07a041c3e6f6d1ef31cafad2f53d2c0", "fusion_lat": 0.0, "name": "c07a041c3e6f6d1ef31cafad2f53d2c0", "is_reserved": 0, "rental_uris": {"android": "https://dc.lft.to/lastmile_qr_scan", "ios": "https://dc.lft.to/lastmile_qr_scan"}, "fusion_lon": 0.0}, {"lat": 38.90221566666666, "is_disabled": 0, "type": "electric_scooter", "lon": -77.0229175, "bike_id": "7eca47bcd89ffd96b1caf8c7514f1626", "fusion_lat": 0.0, "name": "7eca47bcd89ffd96b1caf8c7514f1626", "is_reserved": 0, "rental_uris": {"android": "https://dc.lft.to/lastmile_qr_scan", "ios": "https://dc.lft.to/lastmile_qr_scan"}, "fusion_lon": 0.0}, {"lat": 38.902628, "is_disabled": 0, "type": "electric_scooter", "lon": -77.00321066666666, "bike_id": "5262accbf28840bbffd1440543f4b630", "fusion_lat": 0.0, "name": "5262accbf28840bbffd1440543f4b630", "is_reserved": 0, "rental_uris": {"android": "https://dc.lft.to/lastmile_qr_scan", "ios": "https://dc.lft.to/lastmile_qr_scan"}, "fusion_lon": 0.0}, {"lat": 38.904303666666664, "is_disabled": 0, "type": "electric_scooter", "lon": -77.00217716666667, "bike_id": "d1e194edf8860888bd2262c16f34aa9f", "fusion_lat": 0.0, "name": "d1e194edf8860888bd2262c16f34aa9f", "is_reserved": 0, "rental_uris": {"android": "https://dc.lft.to/lastmile_qr_scan", "ios": "https://dc.lft.to/lastmile_qr_scan"}, "fusion_lon": 0.0}, {"lat": 38.9015035, "is_disabled": 0, "type": "electric_scooter", "lon": -77.0393325, "bike_id": "2d7eab2f7abf21605e6f2a6f40a92d30", "fusion_lat": 0.0, "name": "2d7eab2f7abf21605e6f2a6f40a92d30", "is_reserved": 0, "rental_uris": {"android": "https://dc.lft.to/lastmile_qr_scan", "ios": "https://dc.lft.to/lastmile_qr_scan"}, "fusion_lon": 0.0}, {"lat": 38.8959085, "is_disabled": 0, "type": "electric_bike", "lon": -77.1270355, "bike_id": "6b3338c693ced82820314e99ca75c614", "fusion_lat": 0.0, "name": "6b3338c693ced82820314e99ca75c614", "is_reserved": 0, "rental_uris": {"android": "https://dc.lft.to/lastmile_qr_scan", "ios": "https://dc.lft.to/lastmile_qr_scan"}, "fusion_lon": 0.0}, {"lat": 38.9286795, "is_disabled": 0, "type": "electric_scooter", "lon": -77.03320366666667, "bike_id": "c64ea0a4a7157bc1d03107f7a3a3df8f", "fusion_lat": 0.0, "name": "c64ea0a4a7157bc1d03107f7a3a3df8f", "is_reserved": 0, "rental_uris": {"android": "https://dc.lft.to/lastmile_qr_scan", "ios": "https://dc.lft.to/lastmile_qr_scan"}, "fusion_lon": 0.0}, {"lat": 38.90287383333333, "is_disabled": 0, "type": "electric_scooter", "lon": -77.03668466666667, "bike_id": "8d06b8fa852609c629e997b34184f895", "fusion_lat": 0.0, "name": "8d06b8fa852609c629e997b34184f895", "is_reserved": 0, "rental_uris": {"android": "https://dc.lft.to/lastmile_qr_scan", "ios": "https://dc.lft.to/lastmile_qr_scan"}, "fusion_lon": 0.0}, {"lat": 38.933577166666666, "is_disabled": 0, "type": "electric_bike", "lon": -77.09962516666667, "bike_id": "cbee29371f53c58970f53c427e1bbdc6", "fusion_lat": 0.0, "name": "cbee29371f53c58970f53c427e1bbdc6", "is_reserved": 0, "rental_uris": {"android": "https://dc.lft.to/lastmile_qr_scan", "ios": "https://dc.lft.to/lastmile_qr_scan"}, "fusion_lon": 0.0}, {"lat": 38.91421233333333, "is_disabled": 0, "type": "electric_scooter", "lon": -77.03184633333333, "bike_id": "322648ebf1131b83df6fa4ca428ee9a1", "fusion_lat": 0.0, "name": "322648ebf1131b83df6fa4ca428ee9a1", "is_reserved": 0, "rental_uris": {"android": "https://dc.lft.to/lastmile_qr_scan", "ios": "https://dc.lft.to/lastmile_qr_scan"}, "fusion_lon": 0.0}, {"lat": 38.923283, "is_disabled": 0, "type": "electric_scooter", "lon": -77.03543466666666, "bike_id": "5673681d37cd8e26125697e9a11adae3", "fusion_lat": 0.0, "name": "5673681d37cd8e26125697e9a11adae3", "is_reserved": 0, "rental_uris": {"android": "https://dc.lft.to/lastmile_qr_scan", "ios": "https://dc.lft.to/lastmile_qr_scan"}, "fusion_lon": 0.0}, {"lat": 38.90974, "is_disabled": 0, "type": "electric_scooter", "lon": -77.03868383333334, "bike_id": "e5a989984ea7b40ed0b5f7c81da8eb02", "fusion_lat": 0.0, "name": "e5a989984ea7b40ed0b5f7c81da8eb02", "is_reserved": 0, "rental_uris": {"android": "https://dc.lft.to/lastmile_qr_scan", "ios": "https://dc.lft.to/lastmile_qr_scan"}, "fusion_lon": 0.0}, {"lat": 38.907939166666665, "is_disabled": 0, "type": "electric_scooter", "lon": -77.04346666666666, "bike_id": "90f5fd32e2209bf9a40af7f045514988", "fusion_lat": 0.0, "name": "90f5fd32e2209bf9a40af7f045514988", "is_reserved": 0, "rental_uris": {"android": "https://dc.lft.to/lastmile_qr_scan", "ios": "https://dc.lft.to/lastmile_qr_scan"}, "fusion_lon": 0.0}, {"lat": 38.91701283333333, "is_disabled": 0, "type": "electric_scooter", "lon": -77.04190683333333, "bike_id": "93415f63e685f01ef8f444fc96ea7994", "fusion_lat": 0.0, "name": "93415f63e685f01ef8f444fc96ea7994", "is_reserved": 0, "rental_uris": {"android": "https://dc.lft.to/lastmile_qr_scan", "ios": "https://dc.lft.to/lastmile_qr_scan"}, "fusion_lon": 0.0}, {"lat": 38.865206, "is_disabled": 0, "type": "electric_scooter", "lon": -76.990279, "bike_id": "5855279498db19bd447110f6b276f5a9", "fusion_lat": 0.0, "name": "5855279498db19bd447110f6b276f5a9", "is_reserved": 0, "rental_uris": {"android": "https://dc.lft.to/lastmile_qr_scan", "ios": "https://dc.lft.to/lastmile_qr_scan"}, "fusion_lon": 0.0}, {"lat": 38.921223833333336, "is_disabled": 0, "type": "electric_scooter", "lon": -77.03665366666667, "bike_id": "d6614955681c2d04bc877cfaf9448190", "fusion_lat": 0.0, "name": "d6614955681c2d04bc877cfaf9448190", "is_reserved": 0, "rental_uris": {"android": "https://dc.lft.to/lastmile_qr_scan", "ios": "https://dc.lft.to/lastmile_qr_scan"}, "fusion_lon": 0.0}, {"lat": 38.91785766666667, "is_disabled": 0, "type": "electric_scooter", "lon": -77.02291616666666, "bike_id": "8b59ca9eabc12925d462a4682a731664", "fusion_lat": 0.0, "name": "8b59ca9eabc12925d462a4682a731664", "is_reserved": 0, "rental_uris": {"android": "https://dc.lft.to/lastmile_qr_scan", "ios": "https://dc.lft.to/lastmile_qr_scan"}, "fusion_lon": 0.0}, {"lat": 38.86388766666666, "is_disabled": 0, "type": "electric_bike", "lon": -76.989909, "bike_id": "28a0dfd1daa9969868a4bdfb1b25a33a", "fusion_lat": 0.0, "name": "28a0dfd1daa9969868a4bdfb1b25a33a", "is_reserved": 0, "rental_uris": {"android": "https://dc.lft.to/lastmile_qr_scan", "ios": "https://dc.lft.to/lastmile_qr_scan"}, "fusion_lon": 0.0}, {"lat": 38.892235, "is_disabled": 0, "type": "electric_scooter", "lon": -77.02781266666666, "bike_id": "f472121ff27c826d62ef34a5265c4b3f", "fusion_lat": 0.0, "name": "f472121ff27c826d62ef34a5265c4b3f", "is_reserved": 0, "rental_uris": {"android": "https://dc.lft.to/lastmile_qr_scan", "ios": "https://dc.lft.to/lastmile_qr_scan"}, "fusion_lon": 0.0}, {"lat": 39.00013966666667, "is_disabled": 0, "type": "electric_bike", "lon": -76.9108145, "bike_id": "997ff40481bb237ed48737d06f98d585", "fusion_lat": 0.0, "name": "997ff40481bb237ed48737d06f98d585", "is_reserved": 0, "rental_uris": {"android": "https://dc.lft.to/lastmile_qr_scan", "ios": "https://dc.lft.to/lastmile_qr_scan"}, "fusion_lon": 0.0}, {"lat": 38.93466216666667, "is_disabled": 0, "type": "electric_scooter", "lon": -77.0619445, "bike_id": "9e21df2bbf50d3c3c89c687e5062c0d3", "fusion_lat": 0.0, "name": "9e21df2bbf50d3c3c89c687e5062c0d3", "is_reserved": 0, "rental_uris": {"android": "https://dc.lft.to/lastmile_qr_scan", "ios": "https://dc.lft.to/lastmile_qr_scan"}, "fusion_lon": 0.0}, {"lat": 38.91116183333333, "is_disabled": 0, "type": "electric_scooter", "lon": -77.03295616666666, "bike_id": "ce45743413eb656dd449021015a419dc", "fusion_lat": 0.0, "name": "ce45743413eb656dd449021015a419dc", "is_reserved": 0, "rental_uris": {"android": "https://dc.lft.to/lastmile_qr_scan", "ios": "https://dc.lft.to/lastmile_qr_scan"}, "fusion_lon": 0.0}, {"lat": 38.88752083333333, "is_disabled": 0, "type": "electric_scooter", "lon": -77.03230733333334, "bike_id": "0d9f91793c0c9e0f6c3c0a5313636c8e", "fusion_lat": 0.0, "name": "0d9f91793c0c9e0f6c3c0a5313636c8e", "is_reserved": 0, "rental_uris": {"android": "https://dc.lft.to/lastmile_qr_scan", "ios": "https://dc.lft.to/lastmile_qr_scan"}, "fusion_lon": 0.0}, {"lat": 38.95357883333333, "is_disabled": 0, "type": "electric_bike", "lon": -76.9809585, "bike_id": "c45cab36c41d59920b349cef45d44960", "fusion_lat": 0.0, "name": "c45cab36c41d59920b349cef45d44960", "is_reserved": 0, "rental_uris": {"android": "https://dc.lft.to/lastmile_qr_scan", "ios": "https://dc.lft.to/lastmile_qr_scan"}, "fusion_lon": 0.0}, {"lat": 38.865682666666665, "is_disabled": 0, "type": "electric_scooter", "lon": -76.973983, "bike_id": "802f841a7cb3225134900a1d367368aa", "fusion_lat": 0.0, "name": "802f841a7cb3225134900a1d367368aa", "is_reserved": 0, "rental_uris": {"android": "https://dc.lft.to/lastmile_qr_scan", "ios": "https://dc.lft.to/lastmile_qr_scan"}, "fusion_lon": 0.0}, {"lat": 38.89738, "is_disabled": 0, "type": "electric_scooter", "lon": -77.02690116666666, "bike_id": "a236b1a8ccc73e52511f3fd1ff4a68e3", "fusion_lat": 0.0, "name": "a236b1a8ccc73e52511f3fd1ff4a68e3", "is_reserved": 0, "rental_uris": {"android": "https://dc.lft.to/lastmile_qr_scan", "ios": "https://dc.lft.to/lastmile_qr_scan"}, "fusion_lon": 0.0}, {"lat": 38.91100266666667, "is_disabled": 0, "type": "electric_scooter", "lon": -77.0319335, "bike_id": "d5cad01a5a822a187a5b6c0b6ed5b97d", "fusion_lat": 0.0, "name": "d5cad01a5a822a187a5b6c0b6ed5b97d", "is_reserved": 0, "rental_uris": {"android": "https://dc.lft.to/lastmile_qr_scan", "ios": "https://dc.lft.to/lastmile_qr_scan"}, "fusion_lon": 0.0}, {"lat": 38.94178733333333, "is_disabled": 0, "type": "electric_scooter", "lon": -77.04139033333334, "bike_id": "70a955e5979d330d749430d27fd9c730", "fusion_lat": 0.0, "name": "70a955e5979d330d749430d27fd9c730", "is_reserved": 0, "rental_uris": {"android": "https://dc.lft.to/lastmile_qr_scan", "ios": "https://dc.lft.to/lastmile_qr_scan"}, "fusion_lon": 0.0}, {"lat": 38.909816, "is_disabled": 0, "type": "electric_scooter", "lon": -77.0318395, "bike_id": "8f5c7638ee05706e020e1ecc7b3eca6a", "fusion_lat": 0.0, "name": "8f5c7638ee05706e020e1ecc7b3eca6a", "is_reserved": 0, "rental_uris": {"android": "https://dc.lft.to/lastmile_qr_scan", "ios": "https://dc.lft.to/lastmile_qr_scan"}, "fusion_lon": 0.0}, {"lat": 38.9822695, "is_disabled": 0, "type": "electric_scooter", "lon": -77.02643633333334, "bike_id": "c487ff7993db5a894b388e54eb575102", "fusion_lat": 0.0, "name": "c487ff7993db5a894b388e54eb575102", "is_reserved": 0, "rental_uris": {"android": "https://dc.lft.to/lastmile_qr_scan", "ios": "https://dc.lft.to/lastmile_qr_scan"}, "fusion_lon": 0.0}, {"lat": 38.9173485, "is_disabled": 0, "type": "electric_scooter", "lon": -77.03642833333333, "bike_id": "cc0a9bc9dfec693a1e33858947b544ec", "fusion_lat": 0.0, "name": "cc0a9bc9dfec693a1e33858947b544ec", "is_reserved": 0, "rental_uris": {"android": "https://dc.lft.to/lastmile_qr_scan", "ios": "https://dc.lft.to/lastmile_qr_scan"}, "fusion_lon": 0.0}, {"lat": 38.924812833333334, "is_disabled": 0, "type": "electric_scooter", "lon": -77.03483133333333, "bike_id": "fd3b5142108c93a9303268f1debf336c", "fusion_lat": 0.0, "name": "fd3b5142108c93a9303268f1debf336c", "is_reserved": 0, "rental_uris": {"android": "https://dc.lft.to/lastmile_qr_scan", "ios": "https://dc.lft.to/lastmile_qr_scan"}, "fusion_lon": 0.0}, {"lat": 38.91706383333333, "is_disabled": 0, "type": "electric_scooter", "lon": -77.0392735, "bike_id": "23c3830b834f1420d64857674eedbb01", "fusion_lat": 0.0, "name": "23c3830b834f1420d64857674eedbb01", "is_reserved": 0, "rental_uris": {"android": "https://dc.lft.to/lastmile_qr_scan", "ios": "https://dc.lft.to/lastmile_qr_scan"}, "fusion_lon": 0.0}, {"lat": 38.9028635, "is_disabled": 0, "type": "electric_scooter", "lon": -77.03642283333333, "bike_id": "0ef4e5da963ba164a3f406380b8c6f5e", "fusion_lat": 0.0, "name": "0ef4e5da963ba164a3f406380b8c6f5e", "is_reserved": 0, "rental_uris": {"android": "https://dc.lft.to/lastmile_qr_scan", "ios": "https://dc.lft.to/lastmile_qr_scan"}, "fusion_lon": 0.0}, {"lat": 38.914840166666664, "is_disabled": 0, "type": "electric_scooter", "lon": -77.02201616666666, "bike_id": "24a3a3a19a8f8faa54eb93d39341dd5a", "fusion_lat": 0.0, "name": "24a3a3a19a8f8faa54eb93d39341dd5a", "is_reserved": 0, "rental_uris": {"android": "https://dc.lft.to/lastmile_qr_scan", "ios": "https://dc.lft.to/lastmile_qr_scan"}, "fusion_lon": 0.0}, {"lat": 38.89486133333333, "is_disabled": 0, "type": "electric_scooter", "lon": -77.0022285, "bike_id": "356bcd096ccf52436936d7d89fc086b0", "fusion_lat": 0.0, "name": "356bcd096ccf52436936d7d89fc086b0", "is_reserved": 0, "rental_uris": {"android": "https://dc.lft.to/lastmile_qr_scan", "ios": "https://dc.lft.to/lastmile_qr_scan"}, "fusion_lon": 0.0}, {"lat": 38.886271, "is_disabled": 0, "type": "electric_scooter", "lon": -76.955196, "bike_id": "e5421966b6f11d46705a37a2498ae565", "fusion_lat": 0.0, "name": "e5421966b6f11d46705a37a2498ae565", "is_reserved": 0, "rental_uris": {"android": "https://dc.lft.to/lastmile_qr_scan", "ios": "https://dc.lft.to/lastmile_qr_scan"}, "fusion_lon": 0.0}, {"lat": 38.9217335, "is_disabled": 0, "type": "electric_scooter", "lon": -77.04008816666666, "bike_id": "f75dbd5795cad645e94d8c04fb868b96", "fusion_lat": 0.0, "name": "f75dbd5795cad645e94d8c04fb868b96", "is_reserved": 0, "rental_uris": {"android": "https://dc.lft.to/lastmile_qr_scan", "ios": "https://dc.lft.to/lastmile_qr_scan"}, "fusion_lon": 0.0}, {"lat": 38.892290833333334, "is_disabled": 0, "type": "electric_scooter", "lon": -77.03337716666667, "bike_id": "cba5a33c91d5d7629a28797103a3791e", "fusion_lat": 0.0, "name": "cba5a33c91d5d7629a28797103a3791e", "is_reserved": 0, "rental_uris": {"android": "https://dc.lft.to/lastmile_qr_scan", "ios": "https://dc.lft.to/lastmile_qr_scan"}, "fusion_lon": 0.0}, {"lat": 38.91571233333333, "is_disabled": 0, "type": "electric_scooter", "lon": -77.038547, "bike_id": "8520db665243e237239aac7a53b3c7ec", "fusion_lat": 0.0, "name": "8520db665243e237239aac7a53b3c7ec", "is_reserved": 0, "rental_uris": {"android": "https://dc.lft.to/lastmile_qr_scan", "ios": "https://dc.lft.to/lastmile_qr_scan"}, "fusion_lon": 0.0}, {"lat": 38.943165, "is_disabled": 0, "type": "electric_scooter", "lon": -77.06139716666667, "bike_id": "27114dac5d62e2b8b7d98a582b20ba2e", "fusion_lat": 0.0, "name": "27114dac5d62e2b8b7d98a582b20ba2e", "is_reserved": 0, "rental_uris": {"android": "https://dc.lft.to/lastmile_qr_scan", "ios": "https://dc.lft.to/lastmile_qr_scan"}, "fusion_lon": 0.0}, {"lat": 38.921169, "is_disabled": 0, "type": "electric_scooter", "lon": -77.04182833333333, "bike_id": "dff19ab0a2d626be0002b8910394299e", "fusion_lat": 0.0, "name": "dff19ab0a2d626be0002b8910394299e", "is_reserved": 0, "rental_uris": {"android": "https://dc.lft.to/lastmile_qr_scan", "ios": "https://dc.lft.to/lastmile_qr_scan"}, "fusion_lon": 0.0}, {"lat": 38.922557166666664, "is_disabled": 0, "type": "electric_scooter", "lon": -77.0193275, "bike_id": "08da9c0a6fa44a3026e846b6701a6193", "fusion_lat": 0.0, "name": "08da9c0a6fa44a3026e846b6701a6193", "is_reserved": 0, "rental_uris": {"android": "https://dc.lft.to/lastmile_qr_scan", "ios": "https://dc.lft.to/lastmile_qr_scan"}, "fusion_lon": 0.0}, {"lat": 38.897758333333336, "is_disabled": 0, "type": "electric_bike", "lon": -76.9043655, "bike_id": "5dd075860ace8f76bbdb4d90216a208b", "fusion_lat": 0.0, "name": "5dd075860ace8f76bbdb4d90216a208b", "is_reserved": 0, "rental_uris": {"android": "https://dc.lft.to/lastmile_qr_scan", "ios": "https://dc.lft.to/lastmile_qr_scan"}, "fusion_lon": 0.0}, {"lat": 38.8520795, "is_disabled": 0, "type": "electric_bike", "lon": -76.98549816666667, "bike_id": "86c2a4811e35b78f199080a0a41fad51", "fusion_lat": 0.0, "name": "86c2a4811e35b78f199080a0a41fad51", "is_reserved": 0, "rental_uris": {"android": "https://dc.lft.to/lastmile_qr_scan", "ios": "https://dc.lft.to/lastmile_qr_scan"}, "fusion_lon": 0.0}, {"lat": 38.918001833333335, "is_disabled": 0, "type": "electric_scooter", "lon": -77.04523983333333, "bike_id": "49be92182a8b8ee3118ea053d424e43c", "fusion_lat": 0.0, "name": "49be92182a8b8ee3118ea053d424e43c", "is_reserved": 0, "rental_uris": {"android": "https://dc.lft.to/lastmile_qr_scan", "ios": "https://dc.lft.to/lastmile_qr_scan"}, "fusion_lon": 0.0}, {"lat": 38.9229235, "is_disabled": 0, "type": "electric_scooter", "lon": -77.04260483333333, "bike_id": "40ce5b60ffd680885807df2685ea12f7", "fusion_lat": 0.0, "name": "40ce5b60ffd680885807df2685ea12f7", "is_reserved": 0, "rental_uris": {"android": "https://dc.lft.to/lastmile_qr_scan", "ios": "https://dc.lft.to/lastmile_qr_scan"}, "fusion_lon": 0.0}, {"lat": 38.9707025, "is_disabled": 0, "type": "electric_bike", "lon": -76.93614983333333, "bike_id": "e1f3144d54eb00e4c06f1ef4fc448bf2", "fusion_lat": 0.0, "name": "e1f3144d54eb00e4c06f1ef4fc448bf2", "is_reserved": 0, "rental_uris": {"android": "https://dc.lft.to/lastmile_qr_scan", "ios": "https://dc.lft.to/lastmile_qr_scan"}, "fusion_lon": 0.0}, {"lat": 38.915627666666666, "is_disabled": 0, "type": "electric_scooter", "lon": -77.021697, "bike_id": "39bd6a73fa01df8360a5a218ba726602", "fusion_lat": 0.0, "name": "39bd6a73fa01df8360a5a218ba726602", "is_reserved": 0, "rental_uris": {"android": "https://dc.lft.to/lastmile_qr_scan", "ios": "https://dc.lft.to/lastmile_qr_scan"}, "fusion_lon": 0.0}, {"lat": 38.926679666666665, "is_disabled": 0, "type": "electric_scooter", "lon": -76.99541550000001, "bike_id": "f642d794e29353ff9509f70a47da0a32", "fusion_lat": 0.0, "name": "f642d794e29353ff9509f70a47da0a32", "is_reserved": 0, "rental_uris": {"android": "https://dc.lft.to/lastmile_qr_scan", "ios": "https://dc.lft.to/lastmile_qr_scan"}, "fusion_lon": 0.0}, {"lat": 38.925729, "is_disabled": 0, "type": "electric_scooter", "lon": -77.05750333333333, "bike_id": "0e3ef787613ccc29585a7c448a36144a", "fusion_lat": 0.0, "name": "0e3ef787613ccc29585a7c448a36144a", "is_reserved": 0, "rental_uris": {"android": "https://dc.lft.to/lastmile_qr_scan", "ios": "https://dc.lft.to/lastmile_qr_scan"}, "fusion_lon": 0.0}, {"lat": 38.90487733333333, "is_disabled": 0, "type": "electric_scooter", "lon": -77.05124833333333, "bike_id": "6e8d962bc16684b1de9879d9d7fe6c82", "fusion_lat": 0.0, "name": "6e8d962bc16684b1de9879d9d7fe6c82", "is_reserved": 0, "rental_uris": {"android": "https://dc.lft.to/lastmile_qr_scan", "ios": "https://dc.lft.to/lastmile_qr_scan"}, "fusion_lon": 0.0}, {"lat": 38.886726333333336, "is_disabled": 0, "type": "electric_scooter", "lon": -76.98559066666667, "bike_id": "d957076fafe1207351659878b204197c", "fusion_lat": 0.0, "name": "d957076fafe1207351659878b204197c", "is_reserved": 0, "rental_uris": {"android": "https://dc.lft.to/lastmile_qr_scan", "ios": "https://dc.lft.to/lastmile_qr_scan"}, "fusion_lon": 0.0}, {"lat": 38.92912916666667, "is_disabled": 0, "type": "electric_scooter", "lon": -77.021924, "bike_id": "025a418d3d65e8bb9567142a56439274", "fusion_lat": 0.0, "name": "025a418d3d65e8bb9567142a56439274", "is_reserved": 0, "rental_uris": {"android": "https://dc.lft.to/lastmile_qr_scan", "ios": "https://dc.lft.to/lastmile_qr_scan"}, "fusion_lon": 0.0}, {"lat": 38.914652333333336, "is_disabled": 0, "type": "electric_scooter", "lon": -77.0415275, "bike_id": "4cdbbc48efada68cf9bfd565e944d8d8", "fusion_lat": 0.0, "name": "4cdbbc48efada68cf9bfd565e944d8d8", "is_reserved": 0, "rental_uris": {"android": "https://dc.lft.to/lastmile_qr_scan", "ios": "https://dc.lft.to/lastmile_qr_scan"}, "fusion_lon": 0.0}, {"lat": 38.86365266666667, "is_disabled": 0, "type": "electric_scooter", "lon": -76.9903885, "bike_id": "33a851c0eaa2e249345b8646bd9f034c", "fusion_lat": 0.0, "name": "33a851c0eaa2e249345b8646bd9f034c", "is_reserved": 0, "rental_uris": {"android": "https://dc.lft.to/lastmile_qr_scan", "ios": "https://dc.lft.to/lastmile_qr_scan"}, "fusion_lon": 0.0}, {"lat": 38.884882166666664, "is_disabled": 0, "type": "electric_scooter", "lon": -77.034755, "bike_id": "a5aa19ea04d4ad30770fb5c3cece8100", "fusion_lat": 0.0, "name": "a5aa19ea04d4ad30770fb5c3cece8100", "is_reserved": 0, "rental_uris": {"android": "https://dc.lft.to/lastmile_qr_scan", "ios": "https://dc.lft.to/lastmile_qr_scan"}, "fusion_lon": 0.0}, {"lat": 38.941381, "is_disabled": 0, "type": "electric_bike", "lon": -77.03287216666666, "bike_id": "41fba4649b55bf451d7cb6ee9563b159", "fusion_lat": 0.0, "name": "41fba4649b55bf451d7cb6ee9563b159", "is_reserved": 0, "rental_uris": {"android": "https://dc.lft.to/lastmile_qr_scan", "ios": "https://dc.lft.to/lastmile_qr_scan"}, "fusion_lon": 0.0}, {"lat": 38.92725733333333, "is_disabled": 0, "type": "electric_scooter", "lon": -77.022941, "bike_id": "a8b212e66a488182c8f4238d4315e958", "fusion_lat": 0.0, "name": "a8b212e66a488182c8f4238d4315e958", "is_reserved": 0, "rental_uris": {"android": "https://dc.lft.to/lastmile_qr_scan", "ios": "https://dc.lft.to/lastmile_qr_scan"}, "fusion_lon": 0.0}, {"lat": 38.90303933333333, "is_disabled": 0, "type": "electric_scooter", "lon": -77.00906666666667, "bike_id": "e3f5d16e41cf7c1a2521a8a47988c544", "fusion_lat": 0.0, "name": "e3f5d16e41cf7c1a2521a8a47988c544", "is_reserved": 0, "rental_uris": {"android": "https://dc.lft.to/lastmile_qr_scan", "ios": "https://dc.lft.to/lastmile_qr_scan"}, "fusion_lon": 0.0}, {"lat": 38.919418666666665, "is_disabled": 0, "type": "electric_scooter", "lon": -77.025926, "bike_id": "dc4138e41cdfcf41970a37272dfefb19", "fusion_lat": 0.0, "name": "dc4138e41cdfcf41970a37272dfefb19", "is_reserved": 0, "rental_uris": {"android": "https://dc.lft.to/lastmile_qr_scan", "ios": "https://dc.lft.to/lastmile_qr_scan"}, "fusion_lon": 0.0}, {"lat": 38.922397, "is_disabled": 0, "type": "electric_scooter", "lon": -77.04356416666667, "bike_id": "1c3afe90060fe7703f21a953ea8acb92", "fusion_lat": 0.0, "name": "1c3afe90060fe7703f21a953ea8acb92", "is_reserved": 0, "rental_uris": {"android": "https://dc.lft.to/lastmile_qr_scan", "ios": "https://dc.lft.to/lastmile_qr_scan"}, "fusion_lon": 0.0}, {"lat": 38.91935816666667, "is_disabled": 0, "type": "electric_scooter", "lon": -76.97019583333334, "bike_id": "1bd34931d1c4624b0c1a31b174bbd36e", "fusion_lat": 0.0, "name": "1bd34931d1c4624b0c1a31b174bbd36e", "is_reserved": 0, "rental_uris": {"android": "https://dc.lft.to/lastmile_qr_scan", "ios": "https://dc.lft.to/lastmile_qr_scan"}, "fusion_lon": 0.0}, {"lat": 38.87151883333333, "is_disabled": 0, "type": "electric_scooter", "lon": -77.01187083333333, "bike_id": "fae7721f7de8b385ccca4e043a8bf84f", "fusion_lat": 0.0, "name": "fae7721f7de8b385ccca4e043a8bf84f", "is_reserved": 0, "rental_uris": {"android": "https://dc.lft.to/lastmile_qr_scan", "ios": "https://dc.lft.to/lastmile_qr_scan"}, "fusion_lon": 0.0}, {"lat": 38.95402983333334, "is_disabled": 0, "type": "electric_bike", "lon": -76.9786885, "bike_id": "9330889f356c925ef61f057f35288473", "fusion_lat": 0.0, "name": "9330889f356c925ef61f057f35288473", "is_reserved": 0, "rental_uris": {"android": "https://dc.lft.to/lastmile_qr_scan", "ios": "https://dc.lft.to/lastmile_qr_scan"}, "fusion_lon": 0.0}, {"lat": 38.92847616666667, "is_disabled": 0, "type": "electric_scooter", "lon": -77.01425483333334, "bike_id": "d95f65db6cf4df2cc89901b1ba8a76c2", "fusion_lat": 0.0, "name": "d95f65db6cf4df2cc89901b1ba8a76c2", "is_reserved": 0, "rental_uris": {"android": "https://dc.lft.to/lastmile_qr_scan", "ios": "https://dc.lft.to/lastmile_qr_scan"}, "fusion_lon": 0.0}, {"lat": 38.904708, "is_disabled": 0, "type": "electric_scooter", "lon": -77.039156, "bike_id": "65099207f30b71f34f30ddd77cca7be8", "fusion_lat": 0.0, "name": "65099207f30b71f34f30ddd77cca7be8", "is_reserved": 0, "rental_uris": {"android": "https://dc.lft.to/lastmile_qr_scan", "ios": "https://dc.lft.to/lastmile_qr_scan"}, "fusion_lon": 0.0}, {"lat": 38.80228433333333, "is_disabled": 0, "type": "electric_bike", "lon": -77.07918216666667, "bike_id": "6a86ea798553029a0e591d334f636302", "fusion_lat": 0.0, "name": "6a86ea798553029a0e591d334f636302", "is_reserved": 0, "rental_uris": {"android": "https://dc.lft.to/lastmile_qr_scan", "ios": "https://dc.lft.to/lastmile_qr_scan"}, "fusion_lon": 0.0}, {"lat": 38.9056915, "is_disabled": 0, "type": "electric_scooter", "lon": -77.0249185, "bike_id": "2b82810568cc48c867ac9639b597bea5", "fusion_lat": 0.0, "name": "2b82810568cc48c867ac9639b597bea5", "is_reserved": 0, "rental_uris": {"android": "https://dc.lft.to/lastmile_qr_scan", "ios": "https://dc.lft.to/lastmile_qr_scan"}, "fusion_lon": 0.0}, {"lat": 38.92508933333333, "is_disabled": 0, "type": "electric_bike", "lon": -76.98226633333333, "bike_id": "81c5419c80c30742118ea18835b292ad", "fusion_lat": 0.0, "name": "81c5419c80c30742118ea18835b292ad", "is_reserved": 0, "rental_uris": {"android": "https://dc.lft.to/lastmile_qr_scan", "ios": "https://dc.lft.to/lastmile_qr_scan"}, "fusion_lon": 0.0}, {"lat": 38.89620166666667, "is_disabled": 0, "type": "electric_scooter", "lon": -77.03165666666666, "bike_id": "3ffae2616a1a2a756b669aed7b988c12", "fusion_lat": 0.0, "name": "3ffae2616a1a2a756b669aed7b988c12", "is_reserved": 0, "rental_uris": {"android": "https://dc.lft.to/lastmile_qr_scan", "ios": "https://dc.lft.to/lastmile_qr_scan"}, "fusion_lon": 0.0}, {"lat": 38.916008166666664, "is_disabled": 0, "type": "electric_scooter", "lon": -77.04506566666667, "bike_id": "22aea7d890b918933ee927aec052c324", "fusion_lat": 0.0, "name": "22aea7d890b918933ee927aec052c324", "is_reserved": 0, "rental_uris": {"android": "https://dc.lft.to/lastmile_qr_scan", "ios": "https://dc.lft.to/lastmile_qr_scan"}, "fusion_lon": 0.0}, {"lat": 38.89255033333333, "is_disabled": 0, "type": "electric_scooter", "lon": -77.04899333333333, "bike_id": "c9c15952bf5f2836c9de8afd5c66e719", "fusion_lat": 0.0, "name": "c9c15952bf5f2836c9de8afd5c66e719", "is_reserved": 0, "rental_uris": {"android": "https://dc.lft.to/lastmile_qr_scan", "ios": "https://dc.lft.to/lastmile_qr_scan"}, "fusion_lon": 0.0}, {"lat": 38.92113166666667, "is_disabled": 0, "type": "electric_scooter", "lon": -77.04361183333333, "bike_id": "aa7952d98157f997641038d2de7df91c", "fusion_lat": 0.0, "name": "aa7952d98157f997641038d2de7df91c", "is_reserved": 0, "rental_uris": {"android": "https://dc.lft.to/lastmile_qr_scan", "ios": "https://dc.lft.to/lastmile_qr_scan"}, "fusion_lon": 0.0}, {"lat": 38.94988716666667, "is_disabled": 0, "type": "electric_bike", "lon": -77.0296315, "bike_id": "38b8657c262a2a3742fc4af47d1b36a3", "fusion_lat": 0.0, "name": "38b8657c262a2a3742fc4af47d1b36a3", "is_reserved": 0, "rental_uris": {"android": "https://dc.lft.to/lastmile_qr_scan", "ios": "https://dc.lft.to/lastmile_qr_scan"}, "fusion_lon": 0.0}, {"lat": 38.906963833333336, "is_disabled": 0, "type": "electric_scooter", "lon": -77.03624083333334, "bike_id": "d70cadbe06459e5e6808d8c03ae62aa4", "fusion_lat": 0.0, "name": "d70cadbe06459e5e6808d8c03ae62aa4", "is_reserved": 0, "rental_uris": {"android": "https://dc.lft.to/lastmile_qr_scan", "ios": "https://dc.lft.to/lastmile_qr_scan"}, "fusion_lon": 0.0}, {"lat": 38.89834116666667, "is_disabled": 0, "type": "electric_scooter", "lon": -76.93106416666667, "bike_id": "740287be67704b8b13bfc26cdb0202ef", "fusion_lat": 0.0, "name": "740287be67704b8b13bfc26cdb0202ef", "is_reserved": 0, "rental_uris": {"android": "https://dc.lft.to/lastmile_qr_scan", "ios": "https://dc.lft.to/lastmile_qr_scan"}, "fusion_lon": 0.0}, {"lat": 38.91687433333333, "is_disabled": 0, "type": "electric_scooter", "lon": -77.02950383333334, "bike_id": "b9ae7cef39a27bb0c9307a319611a490", "fusion_lat": 0.0, "name": "b9ae7cef39a27bb0c9307a319611a490", "is_reserved": 0, "rental_uris": {"android": "https://dc.lft.to/lastmile_qr_scan", "ios": "https://dc.lft.to/lastmile_qr_scan"}, "fusion_lon": 0.0}, {"lat": 38.900308333333335, "is_disabled": 0, "type": "electric_scooter", "lon": -76.99820366666667, "bike_id": "bdfca6af56b99bb80cc0a7d79985f728", "fusion_lat": 0.0, "name": "bdfca6af56b99bb80cc0a7d79985f728", "is_reserved": 0, "rental_uris": {"android": "https://dc.lft.to/lastmile_qr_scan", "ios": "https://dc.lft.to/lastmile_qr_scan"}, "fusion_lon": 0.0}, {"lat": 38.9692895, "is_disabled": 0, "type": "electric_bike", "lon": -77.02620333333333, "bike_id": "755c3ac047d04abecbd1e4fd59a460b8", "fusion_lat": 0.0, "name": "755c3ac047d04abecbd1e4fd59a460b8", "is_reserved": 0, "rental_uris": {"android": "https://dc.lft.to/lastmile_qr_scan", "ios": "https://dc.lft.to/lastmile_qr_scan"}, "fusion_lon": 0.0}, {"lat": 38.930935833333336, "is_disabled": 0, "type": "electric_scooter", "lon": -77.02560766666667, "bike_id": "e954c31bdaa8fe64125af62a3148cf6d", "fusion_lat": 0.0, "name": "e954c31bdaa8fe64125af62a3148cf6d", "is_reserved": 0, "rental_uris": {"android": "https://dc.lft.to/lastmile_qr_scan", "ios": "https://dc.lft.to/lastmile_qr_scan"}, "fusion_lon": 0.0}, {"lat": 38.91183433333333, "is_disabled": 0, "type": "electric_scooter", "lon": -77.00651066666667, "bike_id": "1f28c5808b0f189ac7f3120bf5eff1c0", "fusion_lat": 0.0, "name": "1f28c5808b0f189ac7f3120bf5eff1c0", "is_reserved": 0, "rental_uris": {"android": "https://dc.lft.to/lastmile_qr_scan", "ios": "https://dc.lft.to/lastmile_qr_scan"}, "fusion_lon": 0.0}, {"lat": 38.920793, "is_disabled": 0, "type": "electric_scooter", "lon": -77.025125, "bike_id": "441cc3b91c1906ae5355aaa1e129be6d", "fusion_lat": 0.0, "name": "441cc3b91c1906ae5355aaa1e129be6d", "is_reserved": 0, "rental_uris": {"android": "https://dc.lft.to/lastmile_qr_scan", "ios": "https://dc.lft.to/lastmile_qr_scan"}, "fusion_lon": 0.0}, {"lat": 38.922445, "is_disabled": 0, "type": "electric_scooter", "lon": -77.03007116666667, "bike_id": "4d779dc41ede1d16971ab02a4cfaa5c8", "fusion_lat": 0.0, "name": "4d779dc41ede1d16971ab02a4cfaa5c8", "is_reserved": 0, "rental_uris": {"android": "https://dc.lft.to/lastmile_qr_scan", "ios": "https://dc.lft.to/lastmile_qr_scan"}, "fusion_lon": 0.0}, {"lat": 38.920514833333336, "is_disabled": 0, "type": "electric_scooter", "lon": -77.03392216666667, "bike_id": "7b43f51a1d1d07418d664ba06522b10c", "fusion_lat": 0.0, "name": "7b43f51a1d1d07418d664ba06522b10c", "is_reserved": 0, "rental_uris": {"android": "https://dc.lft.to/lastmile_qr_scan", "ios": "https://dc.lft.to/lastmile_qr_scan"}, "fusion_lon": 0.0}, {"lat": 38.85717916666667, "is_disabled": 0, "type": "electric_bike", "lon": -76.97094866666667, "bike_id": "b02c57c97d209209cf68b9bd7b617b52", "fusion_lat": 0.0, "name": "b02c57c97d209209cf68b9bd7b617b52", "is_reserved": 0, "rental_uris": {"android": "https://dc.lft.to/lastmile_qr_scan", "ios": "https://dc.lft.to/lastmile_qr_scan"}, "fusion_lon": 0.0}, {"lat": 38.929752666666666, "is_disabled": 0, "type": "electric_scooter", "lon": -77.013001, "bike_id": "fa2f17ea2323750a511b9ecf68ce4e35", "fusion_lat": 0.0, "name": "fa2f17ea2323750a511b9ecf68ce4e35", "is_reserved": 0, "rental_uris": {"android": "https://dc.lft.to/lastmile_qr_scan", "ios": "https://dc.lft.to/lastmile_qr_scan"}, "fusion_lon": 0.0}, {"lat": 38.884341, "is_disabled": 0, "type": "electric_scooter", "lon": -76.95757483333334, "bike_id": "7368c05686cf9768ec5f49d8ebc1efd7", "fusion_lat": 0.0, "name": "7368c05686cf9768ec5f49d8ebc1efd7", "is_reserved": 0, "rental_uris": {"android": "https://dc.lft.to/lastmile_qr_scan", "ios": "https://dc.lft.to/lastmile_qr_scan"}, "fusion_lon": 0.0}, {"lat": 38.906780499999996, "is_disabled": 0, "type": "electric_scooter", "lon": -77.03766916666666, "bike_id": "4b644272df99977cac4b364dca15c266", "fusion_lat": 0.0, "name": "4b644272df99977cac4b364dca15c266", "is_reserved": 0, "rental_uris": {"android": "https://dc.lft.to/lastmile_qr_scan", "ios": "https://dc.lft.to/lastmile_qr_scan"}, "fusion_lon": 0.0}, {"lat": 38.9063965, "is_disabled": 0, "type": "electric_scooter", "lon": -77.011387, "bike_id": "68274a42733b4409239216ecee3a07ab", "fusion_lat": 0.0, "name": "68274a42733b4409239216ecee3a07ab", "is_reserved": 0, "rental_uris": {"android": "https://dc.lft.to/lastmile_qr_scan", "ios": "https://dc.lft.to/lastmile_qr_scan"}, "fusion_lon": 0.0}, {"lat": 38.91101716666667, "is_disabled": 0, "type": "electric_scooter", "lon": -77.04208633333333, "bike_id": "2f9894170f73fa89041e4809e2fafd5b", "fusion_lat": 0.0, "name": "2f9894170f73fa89041e4809e2fafd5b", "is_reserved": 0, "rental_uris": {"android": "https://dc.lft.to/lastmile_qr_scan", "ios": "https://dc.lft.to/lastmile_qr_scan"}, "fusion_lon": 0.0}, {"lat": 38.92291266666667, "is_disabled": 0, "type": "electric_scooter", "lon": -77.04258266666666, "bike_id": "c9727d4621e72549589712398fce9112", "fusion_lat": 0.0, "name": "c9727d4621e72549589712398fce9112", "is_reserved": 0, "rental_uris": {"android": "https://dc.lft.to/lastmile_qr_scan", "ios": "https://dc.lft.to/lastmile_qr_scan"}, "fusion_lon": 0.0}, {"lat": 38.96139816666667, "is_disabled": 0, "type": "electric_scooter", "lon": -77.02237416666667, "bike_id": "87425ec242765a5954a1b1ce50a402d0", "fusion_lat": 0.0, "name": "87425ec242765a5954a1b1ce50a402d0", "is_reserved": 0, "rental_uris": {"android": "https://dc.lft.to/lastmile_qr_scan", "ios": "https://dc.lft.to/lastmile_qr_scan"}, "fusion_lon": 0.0}, {"lat": 38.9188055, "is_disabled": 0, "type": "electric_scooter", "lon": -77.03506916666667, "bike_id": "7f162b32487df7944e0422be66417c3f", "fusion_lat": 0.0, "name": "7f162b32487df7944e0422be66417c3f", "is_reserved": 0, "rental_uris": {"android": "https://dc.lft.to/lastmile_qr_scan", "ios": "https://dc.lft.to/lastmile_qr_scan"}, "fusion_lon": 0.0}, {"lat": 38.93063866666667, "is_disabled": 0, "type": "electric_bike", "lon": -77.02303566666667, "bike_id": "8e5dde98267f032aa3ad3b1992506e0b", "fusion_lat": 0.0, "name": "8e5dde98267f032aa3ad3b1992506e0b", "is_reserved": 0, "rental_uris": {"android": "https://dc.lft.to/lastmile_qr_scan", "ios": "https://dc.lft.to/lastmile_qr_scan"}, "fusion_lon": 0.0}, {"lat": 38.87145966666667, "is_disabled": 0, "type": "electric_bike", "lon": -76.93700883333334, "bike_id": "5318851c9ad8bf1b7b27dec4518633d7", "fusion_lat": 0.0, "name": "5318851c9ad8bf1b7b27dec4518633d7", "is_reserved": 0, "rental_uris": {"android": "https://dc.lft.to/lastmile_qr_scan", "ios": "https://dc.lft.to/lastmile_qr_scan"}, "fusion_lon": 0.0}, {"lat": 38.91006183333333, "is_disabled": 0, "type": "electric_scooter", "lon": -77.03086083333334, "bike_id": "52ded720f9cee70ca277f7a75dd56309", "fusion_lat": 0.0, "name": "52ded720f9cee70ca277f7a75dd56309", "is_reserved": 0, "rental_uris": {"android": "https://dc.lft.to/lastmile_qr_scan", "ios": "https://dc.lft.to/lastmile_qr_scan"}, "fusion_lon": 0.0}, {"lat": 38.890366666666665, "is_disabled": 0, "type": "electric_scooter", "lon": -76.9375275, "bike_id": "961f4e8e02c4c38010e560518b8c8074", "fusion_lat": 0.0, "name": "961f4e8e02c4c38010e560518b8c8074", "is_reserved": 0, "rental_uris": {"android": "https://dc.lft.to/lastmile_qr_scan", "ios": "https://dc.lft.to/lastmile_qr_scan"}, "fusion_lon": 0.0}, {"lat": 38.931235, "is_disabled": 0, "type": "electric_bike", "lon": -77.02720533333333, "bike_id": "ec81f57a19c219d7c5b7785cf9676c73", "fusion_lat": 0.0, "name": "ec81f57a19c219d7c5b7785cf9676c73", "is_reserved": 0, "rental_uris": {"android": "https://dc.lft.to/lastmile_qr_scan", "ios": "https://dc.lft.to/lastmile_qr_scan"}, "fusion_lon": 0.0}, {"lat": 38.928799166666664, "is_disabled": 0, "type": "electric_scooter", "lon": -77.03714916666667, "bike_id": "fdb284aeadbdae915d815f23f6834e9e", "fusion_lat": 0.0, "name": "fdb284aeadbdae915d815f23f6834e9e", "is_reserved": 0, "rental_uris": {"android": "https://dc.lft.to/lastmile_qr_scan", "ios": "https://dc.lft.to/lastmile_qr_scan"}, "fusion_lon": 0.0}, {"lat": 38.932962, "is_disabled": 0, "type": "electric_scooter", "lon": -77.04537233333333, "bike_id": "efe0ebd4c51d2886887c1db1ecdc9a89", "fusion_lat": 0.0, "name": "efe0ebd4c51d2886887c1db1ecdc9a89", "is_reserved": 0, "rental_uris": {"android": "https://dc.lft.to/lastmile_qr_scan", "ios": "https://dc.lft.to/lastmile_qr_scan"}, "fusion_lon": 0.0}, {"lat": 38.914633, "is_disabled": 0, "type": "electric_scooter", "lon": -77.01435916666667, "bike_id": "e8b10ba4957086a4fbe34b05785b1f36", "fusion_lat": 0.0, "name": "e8b10ba4957086a4fbe34b05785b1f36", "is_reserved": 0, "rental_uris": {"android": "https://dc.lft.to/lastmile_qr_scan", "ios": "https://dc.lft.to/lastmile_qr_scan"}, "fusion_lon": 0.0}, {"lat": 38.90036216666667, "is_disabled": 0, "type": "electric_scooter", "lon": -77.03313266666666, "bike_id": "76fa41415a410c8f417d2f6fb05af0ff", "fusion_lat": 0.0, "name": "76fa41415a410c8f417d2f6fb05af0ff", "is_reserved": 0, "rental_uris": {"android": "https://dc.lft.to/lastmile_qr_scan", "ios": "https://dc.lft.to/lastmile_qr_scan"}, "fusion_lon": 0.0}, {"lat": 38.91464633333333, "is_disabled": 0, "type": "electric_bike", "lon": -76.9727085, "bike_id": "1522fba63bee07f84963a2b94b95bef3", "fusion_lat": 0.0, "name": "1522fba63bee07f84963a2b94b95bef3", "is_reserved": 0, "rental_uris": {"android": "https://dc.lft.to/lastmile_qr_scan", "ios": "https://dc.lft.to/lastmile_qr_scan"}, "fusion_lon": 0.0}, {"lat": 38.9024615, "is_disabled": 0, "type": "electric_scooter", "lon": -77.0176555, "bike_id": "dd54ce6aba4bf569c240d86f9b2ef34f", "fusion_lat": 0.0, "name": "dd54ce6aba4bf569c240d86f9b2ef34f", "is_reserved": 0, "rental_uris": {"android": "https://dc.lft.to/lastmile_qr_scan", "ios": "https://dc.lft.to/lastmile_qr_scan"}, "fusion_lon": 0.0}, {"lat": 38.88204966666667, "is_disabled": 0, "type": "electric_scooter", "lon": -76.98929166666667, "bike_id": "7883603ed1dabd2c889008b9c2aa569a", "fusion_lat": 0.0, "name": "7883603ed1dabd2c889008b9c2aa569a", "is_reserved": 0, "rental_uris": {"android": "https://dc.lft.to/lastmile_qr_scan", "ios": "https://dc.lft.to/lastmile_qr_scan"}, "fusion_lon": 0.0}, {"lat": 38.87071533333334, "is_disabled": 0, "type": "electric_bike", "lon": -76.97836966666667, "bike_id": "73a56ee60bcb949b209cb412668c57ea", "fusion_lat": 0.0, "name": "73a56ee60bcb949b209cb412668c57ea", "is_reserved": 0, "rental_uris": {"android": "https://dc.lft.to/lastmile_qr_scan", "ios": "https://dc.lft.to/lastmile_qr_scan"}, "fusion_lon": 0.0}, {"lat": 38.892233, "is_disabled": 0, "type": "electric_scooter", "lon": -77.02213683333333, "bike_id": "35c3a240fedf5d32534a7c95096af846", "fusion_lat": 0.0, "name": "35c3a240fedf5d32534a7c95096af846", "is_reserved": 0, "rental_uris": {"android": "https://dc.lft.to/lastmile_qr_scan", "ios": "https://dc.lft.to/lastmile_qr_scan"}, "fusion_lon": 0.0}, {"lat": 38.87861916666667, "is_disabled": 0, "type": "electric_scooter", "lon": -77.017673, "bike_id": "988b55befc1120636e62ffbc14544b63", "fusion_lat": 0.0, "name": "988b55befc1120636e62ffbc14544b63", "is_reserved": 0, "rental_uris": {"android": "https://dc.lft.to/lastmile_qr_scan", "ios": "https://dc.lft.to/lastmile_qr_scan"}, "fusion_lon": 0.0}, {"lat": 38.966104, "is_disabled": 0, "type": "electric_scooter", "lon": -77.02056883333333, "bike_id": "3782704b42c76a5a4580b29197cb3c3f", "fusion_lat": 0.0, "name": "3782704b42c76a5a4580b29197cb3c3f", "is_reserved": 0, "rental_uris": {"android": "https://dc.lft.to/lastmile_qr_scan", "ios": "https://dc.lft.to/lastmile_qr_scan"}, "fusion_lon": 0.0}, {"lat": 38.8962395, "is_disabled": 0, "type": "electric_scooter", "lon": -77.031697, "bike_id": "180a3d49f0aa82e7602eb9ef956cf654", "fusion_lat": 0.0, "name": "180a3d49f0aa82e7602eb9ef956cf654", "is_reserved": 0, "rental_uris": {"android": "https://dc.lft.to/lastmile_qr_scan", "ios": "https://dc.lft.to/lastmile_qr_scan"}, "fusion_lon": 0.0}, {"lat": 38.90505616666667, "is_disabled": 0, "type": "electric_scooter", "lon": -77.02947416666666, "bike_id": "6bec1535e3b1ae07556752a1506440f3", "fusion_lat": 0.0, "name": "6bec1535e3b1ae07556752a1506440f3", "is_reserved": 0, "rental_uris": {"android": "https://dc.lft.to/lastmile_qr_scan", "ios": "https://dc.lft.to/lastmile_qr_scan"}, "fusion_lon": 0.0}, {"lat": 38.896239666666666, "is_disabled": 0, "type": "electric_scooter", "lon": -77.03167466666666, "bike_id": "5105d8a270410843091c4fc9330c9cef", "fusion_lat": 0.0, "name": "5105d8a270410843091c4fc9330c9cef", "is_reserved": 0, "rental_uris": {"android": "https://dc.lft.to/lastmile_qr_scan", "ios": "https://dc.lft.to/lastmile_qr_scan"}, "fusion_lon": 0.0}, {"lat": 38.920781166666664, "is_disabled": 0, "type": "electric_scooter", "lon": -77.02511816666667, "bike_id": "71d9dbf5b5ec001770627eaab80460fe", "fusion_lat": 0.0, "name": "71d9dbf5b5ec001770627eaab80460fe", "is_reserved": 0, "rental_uris": {"android": "https://dc.lft.to/lastmile_qr_scan", "ios": "https://dc.lft.to/lastmile_qr_scan"}, "fusion_lon": 0.0}, {"lat": 38.917596, "is_disabled": 0, "type": "electric_scooter", "lon": -77.0116155, "bike_id": "56cb3b3b7482eed33a6f3800a3ac8050", "fusion_lat": 0.0, "name": "56cb3b3b7482eed33a6f3800a3ac8050", "is_reserved": 0, "rental_uris": {"android": "https://dc.lft.to/lastmile_qr_scan", "ios": "https://dc.lft.to/lastmile_qr_scan"}, "fusion_lon": 0.0}, {"lat": 38.901540833333335, "is_disabled": 0, "type": "electric_scooter", "lon": -77.03271016666666, "bike_id": "5aa2cf6a6d47671f55a3a70c2ca39e37", "fusion_lat": 0.0, "name": "5aa2cf6a6d47671f55a3a70c2ca39e37", "is_reserved": 0, "rental_uris": {"android": "https://dc.lft.to/lastmile_qr_scan", "ios": "https://dc.lft.to/lastmile_qr_scan"}, "fusion_lon": 0.0}, {"lat": 38.9073535, "is_disabled": 0, "type": "electric_scooter", "lon": -77.02979316666666, "bike_id": "776083f39d6f74a162c06bffcbac0a87", "fusion_lat": 0.0, "name": "776083f39d6f74a162c06bffcbac0a87", "is_reserved": 0, "rental_uris": {"android": "https://dc.lft.to/lastmile_qr_scan", "ios": "https://dc.lft.to/lastmile_qr_scan"}, "fusion_lon": 0.0}, {"lat": 38.9072855, "is_disabled": 0, "type": "electric_bike", "lon": -77.010687, "bike_id": "53bdb3851734da7e37548f0c4cc185f6", "fusion_lat": 0.0, "name": "53bdb3851734da7e37548f0c4cc185f6", "is_reserved": 0, "rental_uris": {"android": "https://dc.lft.to/lastmile_qr_scan", "ios": "https://dc.lft.to/lastmile_qr_scan"}, "fusion_lon": 0.0}, {"lat": 38.861068, "is_disabled": 0, "type": "electric_scooter", "lon": -76.98873983333333, "bike_id": "e522b46445954e6f165e76b93ccee19a", "fusion_lat": 0.0, "name": "e522b46445954e6f165e76b93ccee19a", "is_reserved": 0, "rental_uris": {"android": "https://dc.lft.to/lastmile_qr_scan", "ios": "https://dc.lft.to/lastmile_qr_scan"}, "fusion_lon": 0.0}, {"lat": 38.903733, "is_disabled": 0, "type": "electric_scooter", "lon": -76.99225866666667, "bike_id": "2e74a0a22affeaf9384381fa8e5a5daa", "fusion_lat": 0.0, "name": "2e74a0a22affeaf9384381fa8e5a5daa", "is_reserved": 0, "rental_uris": {"android": "https://dc.lft.to/lastmile_qr_scan", "ios": "https://dc.lft.to/lastmile_qr_scan"}, "fusion_lon": 0.0}, {"lat": 38.9085045, "is_disabled": 0, "type": "electric_scooter", "lon": -77.01967966666666, "bike_id": "1f8da3be65a932c02760064b907ec33f", "fusion_lat": 0.0, "name": "1f8da3be65a932c02760064b907ec33f", "is_reserved": 0, "rental_uris": {"android": "https://dc.lft.to/lastmile_qr_scan", "ios": "https://dc.lft.to/lastmile_qr_scan"}, "fusion_lon": 0.0}, {"lat": 38.89746016666667, "is_disabled": 0, "type": "electric_scooter", "lon": -77.023886, "bike_id": "461e66f653b3e7e3649dd30658609076", "fusion_lat": 0.0, "name": "461e66f653b3e7e3649dd30658609076", "is_reserved": 0, "rental_uris": {"android": "https://dc.lft.to/lastmile_qr_scan", "ios": "https://dc.lft.to/lastmile_qr_scan"}, "fusion_lon": 0.0}, {"lat": 38.934735833333335, "is_disabled": 0, "type": "electric_scooter", "lon": -77.0411375, "bike_id": "e3a0bdd3743c3486817e42f65198c0ac", "fusion_lat": 0.0, "name": "e3a0bdd3743c3486817e42f65198c0ac", "is_reserved": 0, "rental_uris": {"android": "https://dc.lft.to/lastmile_qr_scan", "ios": "https://dc.lft.to/lastmile_qr_scan"}, "fusion_lon": 0.0}, {"lat": 38.92420516666667, "is_disabled": 0, "type": "electric_scooter", "lon": -77.04451866666666, "bike_id": "0cea0a94e24bafb31661a4b6f559cb8c", "fusion_lat": 0.0, "name": "0cea0a94e24bafb31661a4b6f559cb8c", "is_reserved": 0, "rental_uris": {"android": "https://dc.lft.to/lastmile_qr_scan", "ios": "https://dc.lft.to/lastmile_qr_scan"}, "fusion_lon": 0.0}, {"lat": 38.8955305, "is_disabled": 0, "type": "electric_scooter", "lon": -77.0092295, "bike_id": "344e7634604f24f49a00e296f98e341b", "fusion_lat": 0.0, "name": "344e7634604f24f49a00e296f98e341b", "is_reserved": 0, "rental_uris": {"android": "https://dc.lft.to/lastmile_qr_scan", "ios": "https://dc.lft.to/lastmile_qr_scan"}, "fusion_lon": 0.0}, {"lat": 38.935295333333336, "is_disabled": 0, "type": "electric_scooter", "lon": -77.073021, "bike_id": "bdc35e1e902f03140cb8e510697a6f0f", "fusion_lat": 0.0, "name": "bdc35e1e902f03140cb8e510697a6f0f", "is_reserved": 0, "rental_uris": {"android": "https://dc.lft.to/lastmile_qr_scan", "ios": "https://dc.lft.to/lastmile_qr_scan"}, "fusion_lon": 0.0}, {"lat": 38.90419416666667, "is_disabled": 0, "type": "electric_scooter", "lon": -77.05079316666667, "bike_id": "ab7f95c642bed7cc814b0aa66997a6ed", "fusion_lat": 0.0, "name": "ab7f95c642bed7cc814b0aa66997a6ed", "is_reserved": 0, "rental_uris": {"android": "https://dc.lft.to/lastmile_qr_scan", "ios": "https://dc.lft.to/lastmile_qr_scan"}, "fusion_lon": 0.0}, {"lat": 38.886817, "is_disabled": 0, "type": "electric_bike", "lon": -77.16244466666667, "bike_id": "b1bc00f437c88d44551d8544501f08c8", "fusion_lat": 0.0, "name": "b1bc00f437c88d44551d8544501f08c8", "is_reserved": 0, "rental_uris": {"android": "https://dc.lft.to/lastmile_qr_scan", "ios": "https://dc.lft.to/lastmile_qr_scan"}, "fusion_lon": 0.0}, {"lat": 38.877261, "is_disabled": 0, "type": "electric_scooter", "lon": -77.01765316666666, "bike_id": "9f12963aacffaf70487ef6c37fda5721", "fusion_lat": 0.0, "name": "9f12963aacffaf70487ef6c37fda5721", "is_reserved": 0, "rental_uris": {"android": "https://dc.lft.to/lastmile_qr_scan", "ios": "https://dc.lft.to/lastmile_qr_scan"}, "fusion_lon": 0.0}, {"lat": 38.9039385, "is_disabled": 0, "type": "electric_scooter", "lon": -76.99006016666667, "bike_id": "9208740d6caa82d0adc2e1072238dacd", "fusion_lat": 0.0, "name": "9208740d6caa82d0adc2e1072238dacd", "is_reserved": 0, "rental_uris": {"android": "https://dc.lft.to/lastmile_qr_scan", "ios": "https://dc.lft.to/lastmile_qr_scan"}, "fusion_lon": 0.0}, {"lat": 38.9482445, "is_disabled": 0, "type": "electric_scooter", "lon": -76.99907283333333, "bike_id": "3ab81cc3d46618343bb25ed72068021a", "fusion_lat": 0.0, "name": "3ab81cc3d46618343bb25ed72068021a", "is_reserved": 0, "rental_uris": {"android": "https://dc.lft.to/lastmile_qr_scan", "ios": "https://dc.lft.to/lastmile_qr_scan"}, "fusion_lon": 0.0}, {"lat": 38.885494666666666, "is_disabled": 0, "type": "electric_bike", "lon": -77.11786833333333, "bike_id": "f3163286807062a71ee3fbddde2f90bf", "fusion_lat": 0.0, "name": "f3163286807062a71ee3fbddde2f90bf", "is_reserved": 0, "rental_uris": {"android": "https://dc.lft.to/lastmile_qr_scan", "ios": "https://dc.lft.to/lastmile_qr_scan"}, "fusion_lon": 0.0}, {"lat": 38.88600016666667, "is_disabled": 0, "type": "electric_scooter", "lon": -77.0189425, "bike_id": "d22b42ed6d8e06f4a4af68f7973fde6a", "fusion_lat": 0.0, "name": "d22b42ed6d8e06f4a4af68f7973fde6a", "is_reserved": 0, "rental_uris": {"android": "https://dc.lft.to/lastmile_qr_scan", "ios": "https://dc.lft.to/lastmile_qr_scan"}, "fusion_lon": 0.0}, {"lat": 38.917072166666664, "is_disabled": 0, "type": "electric_scooter", "lon": -76.97931916666667, "bike_id": "fc30f90fa3ce09b05f99c00f6ee0a205", "fusion_lat": 0.0, "name": "fc30f90fa3ce09b05f99c00f6ee0a205", "is_reserved": 0, "rental_uris": {"android": "https://dc.lft.to/lastmile_qr_scan", "ios": "https://dc.lft.to/lastmile_qr_scan"}, "fusion_lon": 0.0}, {"lat": 38.92217216666667, "is_disabled": 0, "type": "electric_bike", "lon": -77.0818785, "bike_id": "3c79540c37cc08d080bf85b715727b93", "fusion_lat": 0.0, "name": "3c79540c37cc08d080bf85b715727b93", "is_reserved": 0, "rental_uris": {"android": "https://dc.lft.to/lastmile_qr_scan", "ios": "https://dc.lft.to/lastmile_qr_scan"}, "fusion_lon": 0.0}, {"lat": 38.90829216666667, "is_disabled": 0, "type": "electric_scooter", "lon": -77.02006366666667, "bike_id": "c8810ab1a5f80ea18471e8a77422e300", "fusion_lat": 0.0, "name": "c8810ab1a5f80ea18471e8a77422e300", "is_reserved": 0, "rental_uris": {"android": "https://dc.lft.to/lastmile_qr_scan", "ios": "https://dc.lft.to/lastmile_qr_scan"}, "fusion_lon": 0.0}, {"lat": 38.91963633333334, "is_disabled": 0, "type": "electric_scooter", "lon": -77.01442816666666, "bike_id": "cebb8add9e7d5db8c6cf3e7a664576fa", "fusion_lat": 0.0, "name": "cebb8add9e7d5db8c6cf3e7a664576fa", "is_reserved": 0, "rental_uris": {"android": "https://dc.lft.to/lastmile_qr_scan", "ios": "https://dc.lft.to/lastmile_qr_scan"}, "fusion_lon": 0.0}, {"lat": 38.90626366666667, "is_disabled": 0, "type": "electric_bike", "lon": -76.98606966666667, "bike_id": "82b3af986f4885695810f6c1df24498b", "fusion_lat": 0.0, "name": "82b3af986f4885695810f6c1df24498b", "is_reserved": 0, "rental_uris": {"android": "https://dc.lft.to/lastmile_qr_scan", "ios": "https://dc.lft.to/lastmile_qr_scan"}, "fusion_lon": 0.0}, {"lat": 38.839877666666666, "is_disabled": 0, "type": "electric_bike", "lon": -77.00571816666667, "bike_id": "6110d738435504ce2b8628223315c0b5", "fusion_lat": 0.0, "name": "6110d738435504ce2b8628223315c0b5", "is_reserved": 0, "rental_uris": {"android": "https://dc.lft.to/lastmile_qr_scan", "ios": "https://dc.lft.to/lastmile_qr_scan"}, "fusion_lon": 0.0}, {"lat": 38.92050066666667, "is_disabled": 0, "type": "electric_scooter", "lon": -77.03406083333333, "bike_id": "d77ef75bd3ce40186d1352a438b3db97", "fusion_lat": 0.0, "name": "d77ef75bd3ce40186d1352a438b3db97", "is_reserved": 0, "rental_uris": {"android": "https://dc.lft.to/lastmile_qr_scan", "ios": "https://dc.lft.to/lastmile_qr_scan"}, "fusion_lon": 0.0}, {"lat": 38.924055833333334, "is_disabled": 0, "type": "electric_scooter", "lon": -77.05258533333334, "bike_id": "e30a4465c123d80871c5b334961a2505", "fusion_lat": 0.0, "name": "e30a4465c123d80871c5b334961a2505", "is_reserved": 0, "rental_uris": {"android": "https://dc.lft.to/lastmile_qr_scan", "ios": "https://dc.lft.to/lastmile_qr_scan"}, "fusion_lon": 0.0}, {"lat": 38.89003816666666, "is_disabled": 0, "type": "electric_scooter", "lon": -76.9374335, "bike_id": "acc0ad5e474d01aabf1bf3ff4eefdad5", "fusion_lat": 0.0, "name": "acc0ad5e474d01aabf1bf3ff4eefdad5", "is_reserved": 0, "rental_uris": {"android": "https://dc.lft.to/lastmile_qr_scan", "ios": "https://dc.lft.to/lastmile_qr_scan"}, "fusion_lon": 0.0}, {"lat": 38.900441, "is_disabled": 0, "type": "electric_scooter", "lon": -76.99509366666666, "bike_id": "e67f1910c0184568d973e2ac92b35518", "fusion_lat": 0.0, "name": "e67f1910c0184568d973e2ac92b35518", "is_reserved": 0, "rental_uris": {"android": "https://dc.lft.to/lastmile_qr_scan", "ios": "https://dc.lft.to/lastmile_qr_scan"}, "fusion_lon": 0.0}, {"lat": 38.87690716666667, "is_disabled": 0, "type": "electric_bike", "lon": -77.01760133333333, "bike_id": "9abee6d102389d69518978efc16897cf", "fusion_lat": 0.0, "name": "9abee6d102389d69518978efc16897cf", "is_reserved": 0, "rental_uris": {"android": "https://dc.lft.to/lastmile_qr_scan", "ios": "https://dc.lft.to/lastmile_qr_scan"}, "fusion_lon": 0.0}, {"lat": 38.909887499999996, "is_disabled": 0, "type": "electric_scooter", "lon": -76.98464616666666, "bike_id": "e60282f1612aeeb459a7d26ba4050173", "fusion_lat": 0.0, "name": "e60282f1612aeeb459a7d26ba4050173", "is_reserved": 0, "rental_uris": {"android": "https://dc.lft.to/lastmile_qr_scan", "ios": "https://dc.lft.to/lastmile_qr_scan"}, "fusion_lon": 0.0}, {"lat": 38.908477833333336, "is_disabled": 0, "type": "electric_scooter", "lon": -76.9996355, "bike_id": "e8ba53fe483a27bed09032b99b6855ec", "fusion_lat": 0.0, "name": "e8ba53fe483a27bed09032b99b6855ec", "is_reserved": 0, "rental_uris": {"android": "https://dc.lft.to/lastmile_qr_scan", "ios": "https://dc.lft.to/lastmile_qr_scan"}, "fusion_lon": 0.0}, {"lat": 38.93343266666667, "is_disabled": 0, "type": "electric_scooter", "lon": -77.02620933333333, "bike_id": "9d7c32d6852be34359f1e9609e8e75d2", "fusion_lat": 0.0, "name": "9d7c32d6852be34359f1e9609e8e75d2", "is_reserved": 0, "rental_uris": {"android": "https://dc.lft.to/lastmile_qr_scan", "ios": "https://dc.lft.to/lastmile_qr_scan"}, "fusion_lon": 0.0}, {"lat": 38.93114533333333, "is_disabled": 0, "type": "electric_scooter", "lon": -77.034113, "bike_id": "4c23b355ec23cac1580675e284552761", "fusion_lat": 0.0, "name": "4c23b355ec23cac1580675e284552761", "is_reserved": 0, "rental_uris": {"android": "https://dc.lft.to/lastmile_qr_scan", "ios": "https://dc.lft.to/lastmile_qr_scan"}, "fusion_lon": 0.0}, {"lat": 38.916683666666664, "is_disabled": 0, "type": "electric_scooter", "lon": -77.02269016666666, "bike_id": "162cc20c85e631bb8fd535175904e2bb", "fusion_lat": 0.0, "name": "162cc20c85e631bb8fd535175904e2bb", "is_reserved": 0, "rental_uris": {"android": "https://dc.lft.to/lastmile_qr_scan", "ios": "https://dc.lft.to/lastmile_qr_scan"}, "fusion_lon": 0.0}, {"lat": 38.89226383333333, "is_disabled": 0, "type": "electric_scooter", "lon": -77.04860266666667, "bike_id": "706543a2b42567e549a58a7d90049c2d", "fusion_lat": 0.0, "name": "706543a2b42567e549a58a7d90049c2d", "is_reserved": 0, "rental_uris": {"android": "https://dc.lft.to/lastmile_qr_scan", "ios": "https://dc.lft.to/lastmile_qr_scan"}, "fusion_lon": 0.0}, {"lat": 38.950608, "is_disabled": 0, "type": "electric_bike", "lon": -77.00726866666666, "bike_id": "854964f47322d329c4e975c28cf840d1", "fusion_lat": 0.0, "name": "854964f47322d329c4e975c28cf840d1", "is_reserved": 0, "rental_uris": {"android": "https://dc.lft.to/lastmile_qr_scan", "ios": "https://dc.lft.to/lastmile_qr_scan"}, "fusion_lon": 0.0}, {"lat": 38.899066833333336, "is_disabled": 0, "type": "electric_scooter", "lon": -76.933536, "bike_id": "b0877c0cbea2c88a6e88f91b7d91617d", "fusion_lat": 0.0, "name": "b0877c0cbea2c88a6e88f91b7d91617d", "is_reserved": 0, "rental_uris": {"android": "https://dc.lft.to/lastmile_qr_scan", "ios": "https://dc.lft.to/lastmile_qr_scan"}, "fusion_lon": 0.0}, {"lat": 38.940791, "is_disabled": 0, "type": "electric_scooter", "lon": -77.02392766666667, "bike_id": "16ed5b12c92d81e4eea0669f61e92c1c", "fusion_lat": 0.0, "name": "16ed5b12c92d81e4eea0669f61e92c1c", "is_reserved": 0, "rental_uris": {"android": "https://dc.lft.to/lastmile_qr_scan", "ios": "https://dc.lft.to/lastmile_qr_scan"}, "fusion_lon": 0.0}, {"lat": 38.9335875, "is_disabled": 0, "type": "electric_scooter", "lon": -77.07350916666667, "bike_id": "a93ecfb968a84eb733d22ab23b7d4ea9", "fusion_lat": 0.0, "name": "a93ecfb968a84eb733d22ab23b7d4ea9", "is_reserved": 0, "rental_uris": {"android": "https://dc.lft.to/lastmile_qr_scan", "ios": "https://dc.lft.to/lastmile_qr_scan"}, "fusion_lon": 0.0}, {"lat": 38.958906666666664, "is_disabled": 0, "type": "electric_bike", "lon": -76.92497833333333, "bike_id": "8674b863f70e3eafc6ba92686566db01", "fusion_lat": 0.0, "name": "8674b863f70e3eafc6ba92686566db01", "is_reserved": 0, "rental_uris": {"android": "https://dc.lft.to/lastmile_qr_scan", "ios": "https://dc.lft.to/lastmile_qr_scan"}, "fusion_lon": 0.0}, {"lat": 38.90790116666667, "is_disabled": 0, "type": "electric_scooter", "lon": -77.040023, "bike_id": "4863ad86dd120fda20b4865dec55b584", "fusion_lat": 0.0, "name": "4863ad86dd120fda20b4865dec55b584", "is_reserved": 0, "rental_uris": {"android": "https://dc.lft.to/lastmile_qr_scan", "ios": "https://dc.lft.to/lastmile_qr_scan"}, "fusion_lon": 0.0}, {"lat": 38.9170815, "is_disabled": 0, "type": "electric_scooter", "lon": -77.03565, "bike_id": "040dbbfcd9d4020210e992bee94f587a", "fusion_lat": 0.0, "name": "040dbbfcd9d4020210e992bee94f587a", "is_reserved": 0, "rental_uris": {"android": "https://dc.lft.to/lastmile_qr_scan", "ios": "https://dc.lft.to/lastmile_qr_scan"}, "fusion_lon": 0.0}, {"lat": 38.85314433333333, "is_disabled": 0, "type": "electric_bike", "lon": -77.131302, "bike_id": "004c5def25430ca0f475717b9b6d5d52", "fusion_lat": 0.0, "name": "004c5def25430ca0f475717b9b6d5d52", "is_reserved": 0, "rental_uris": {"android": "https://dc.lft.to/lastmile_qr_scan", "ios": "https://dc.lft.to/lastmile_qr_scan"}, "fusion_lon": 0.0}, {"lat": 38.911878333333334, "is_disabled": 0, "type": "electric_scooter", "lon": -77.04329883333334, "bike_id": "b9c6b8e3510cc602a16d6b6519f5cf25", "fusion_lat": 0.0, "name": "b9c6b8e3510cc602a16d6b6519f5cf25", "is_reserved": 0, "rental_uris": {"android": "https://dc.lft.to/lastmile_qr_scan", "ios": "https://dc.lft.to/lastmile_qr_scan"}, "fusion_lon": 0.0}, {"lat": 38.9207685, "is_disabled": 0, "type": "electric_scooter", "lon": -77.014374, "bike_id": "adf89073b7c4c2183a40d898bedc2ee5", "fusion_lat": 0.0, "name": "adf89073b7c4c2183a40d898bedc2ee5", "is_reserved": 0, "rental_uris": {"android": "https://dc.lft.to/lastmile_qr_scan", "ios": "https://dc.lft.to/lastmile_qr_scan"}, "fusion_lon": 0.0}, {"lat": 38.930125833333335, "is_disabled": 0, "type": "electric_scooter", "lon": -77.020866, "bike_id": "dd4065be4165b9f4d619de802141cf30", "fusion_lat": 0.0, "name": "dd4065be4165b9f4d619de802141cf30", "is_reserved": 0, "rental_uris": {"android": "https://dc.lft.to/lastmile_qr_scan", "ios": "https://dc.lft.to/lastmile_qr_scan"}, "fusion_lon": 0.0}, {"lat": 38.913454, "is_disabled": 0, "type": "electric_scooter", "lon": -77.03186916666667, "bike_id": "bbec6e8dbd7af1c3f1df0e2c22dced3b", "fusion_lat": 0.0, "name": "bbec6e8dbd7af1c3f1df0e2c22dced3b", "is_reserved": 0, "rental_uris": {"android": "https://dc.lft.to/lastmile_qr_scan", "ios": "https://dc.lft.to/lastmile_qr_scan"}, "fusion_lon": 0.0}, {"lat": 38.922948, "is_disabled": 0, "type": "electric_scooter", "lon": -77.0365985, "bike_id": "3c8e753d9fc218ff31a23ff5abbd457c", "fusion_lat": 0.0, "name": "3c8e753d9fc218ff31a23ff5abbd457c", "is_reserved": 0, "rental_uris": {"android": "https://dc.lft.to/lastmile_qr_scan", "ios": "https://dc.lft.to/lastmile_qr_scan"}, "fusion_lon": 0.0}, {"lat": 38.910027166666666, "is_disabled": 0, "type": "electric_scooter", "lon": -77.04009583333334, "bike_id": "05359fd42da2f9797ccfa07232d61208", "fusion_lat": 0.0, "name": "05359fd42da2f9797ccfa07232d61208", "is_reserved": 0, "rental_uris": {"android": "https://dc.lft.to/lastmile_qr_scan", "ios": "https://dc.lft.to/lastmile_qr_scan"}, "fusion_lon": 0.0}, {"lat": 38.921152, "is_disabled": 0, "type": "electric_bike", "lon": -76.98577066666667, "bike_id": "f05f79f877b82ed010b1ba94bb7033f0", "fusion_lat": 0.0, "name": "f05f79f877b82ed010b1ba94bb7033f0", "is_reserved": 0, "rental_uris": {"android": "https://dc.lft.to/lastmile_qr_scan", "ios": "https://dc.lft.to/lastmile_qr_scan"}, "fusion_lon": 0.0}, {"lat": 38.91422166666667, "is_disabled": 0, "type": "electric_scooter", "lon": -77.0318475, "bike_id": "959610dbc3db54ed181625d1a4c8185c", "fusion_lat": 0.0, "name": "959610dbc3db54ed181625d1a4c8185c", "is_reserved": 0, "rental_uris": {"android": "https://dc.lft.to/lastmile_qr_scan", "ios": "https://dc.lft.to/lastmile_qr_scan"}, "fusion_lon": 0.0}, {"lat": 38.892489166666664, "is_disabled": 0, "type": "electric_scooter", "lon": -77.03958166666666, "bike_id": "b4665a8ae2de5e951526b38ff7cbd29c", "fusion_lat": 0.0, "name": "b4665a8ae2de5e951526b38ff7cbd29c", "is_reserved": 0, "rental_uris": {"android": "https://dc.lft.to/lastmile_qr_scan", "ios": "https://dc.lft.to/lastmile_qr_scan"}, "fusion_lon": 0.0}, {"lat": 38.90283733333333, "is_disabled": 0, "type": "electric_scooter", "lon": -77.063511, "bike_id": "51b91d747bbb6134bcc2fd89092560c5", "fusion_lat": 0.0, "name": "51b91d747bbb6134bcc2fd89092560c5", "is_reserved": 0, "rental_uris": {"android": "https://dc.lft.to/lastmile_qr_scan", "ios": "https://dc.lft.to/lastmile_qr_scan"}, "fusion_lon": 0.0}, {"lat": 38.90280683333334, "is_disabled": 0, "type": "electric_scooter", "lon": -77.058043, "bike_id": "92be1d32ed4bec19c2b19999170c8a22", "fusion_lat": 0.0, "name": "92be1d32ed4bec19c2b19999170c8a22", "is_reserved": 0, "rental_uris": {"android": "https://dc.lft.to/lastmile_qr_scan", "ios": "https://dc.lft.to/lastmile_qr_scan"}, "fusion_lon": 0.0}, {"lat": 38.930893, "is_disabled": 0, "type": "electric_scooter", "lon": -77.0774985, "bike_id": "81c9ac684dfe283c88162be81dd5697b", "fusion_lat": 0.0, "name": "81c9ac684dfe283c88162be81dd5697b", "is_reserved": 0, "rental_uris": {"android": "https://dc.lft.to/lastmile_qr_scan", "ios": "https://dc.lft.to/lastmile_qr_scan"}, "fusion_lon": 0.0}, {"lat": 38.84033566666667, "is_disabled": 0, "type": "electric_bike", "lon": -76.9759205, "bike_id": "fd8ed39d67982ebfb9dec37448784198", "fusion_lat": 0.0, "name": "fd8ed39d67982ebfb9dec37448784198", "is_reserved": 0, "rental_uris": {"android": "https://dc.lft.to/lastmile_qr_scan", "ios": "https://dc.lft.to/lastmile_qr_scan"}, "fusion_lon": 0.0}, {"lat": 38.90943866666667, "is_disabled": 0, "type": "electric_scooter", "lon": -76.98961366666667, "bike_id": "f0cbe2c3dd3416dc6c1062eba66072f5", "fusion_lat": 0.0, "name": "f0cbe2c3dd3416dc6c1062eba66072f5", "is_reserved": 0, "rental_uris": {"android": "https://dc.lft.to/lastmile_qr_scan", "ios": "https://dc.lft.to/lastmile_qr_scan"}, "fusion_lon": 0.0}, {"lat": 38.956390999999996, "is_disabled": 0, "type": "electric_bike", "lon": -77.01962916666666, "bike_id": "019792f4faa995b2c5a3953c15b46546", "fusion_lat": 0.0, "name": "019792f4faa995b2c5a3953c15b46546", "is_reserved": 0, "rental_uris": {"android": "https://dc.lft.to/lastmile_qr_scan", "ios": "https://dc.lft.to/lastmile_qr_scan"}, "fusion_lon": 0.0}, {"lat": 38.90357, "is_disabled": 0, "type": "electric_scooter", "lon": -77.01107833333333, "bike_id": "6b35fa84fe775372fbe7b170fd45f71b", "fusion_lat": 0.0, "name": "6b35fa84fe775372fbe7b170fd45f71b", "is_reserved": 0, "rental_uris": {"android": "https://dc.lft.to/lastmile_qr_scan", "ios": "https://dc.lft.to/lastmile_qr_scan"}, "fusion_lon": 0.0}, {"lat": 38.900772, "is_disabled": 0, "type": "electric_scooter", "lon": -77.0270715, "bike_id": "d87aa880d635aa95759411818ff2ceff", "fusion_lat": 0.0, "name": "d87aa880d635aa95759411818ff2ceff", "is_reserved": 0, "rental_uris": {"android": "https://dc.lft.to/lastmile_qr_scan", "ios": "https://dc.lft.to/lastmile_qr_scan"}, "fusion_lon": 0.0}, {"lat": 38.898778166666666, "is_disabled": 0, "type": "electric_scooter", "lon": -76.9318765, "bike_id": "4c3d2de9b8a98a22303865b7a7dc2c3e", "fusion_lat": 0.0, "name": "4c3d2de9b8a98a22303865b7a7dc2c3e", "is_reserved": 0, "rental_uris": {"android": "https://dc.lft.to/lastmile_qr_scan", "ios": "https://dc.lft.to/lastmile_qr_scan"}, "fusion_lon": 0.0}, {"lat": 38.88743316666667, "is_disabled": 0, "type": "electric_scooter", "lon": -76.98358866666666, "bike_id": "ff607c78ce3bcd2c20a167f41d16a9e3", "fusion_lat": 0.0, "name": "ff607c78ce3bcd2c20a167f41d16a9e3", "is_reserved": 0, "rental_uris": {"android": "https://dc.lft.to/lastmile_qr_scan", "ios": "https://dc.lft.to/lastmile_qr_scan"}, "fusion_lon": 0.0}, {"lat": 38.935311666666664, "is_disabled": 0, "type": "electric_scooter", "lon": -77.0729895, "bike_id": "7d0fb5d018dd69e936b8c7d25ad57be6", "fusion_lat": 0.0, "name": "7d0fb5d018dd69e936b8c7d25ad57be6", "is_reserved": 0, "rental_uris": {"android": "https://dc.lft.to/lastmile_qr_scan", "ios": "https://dc.lft.to/lastmile_qr_scan"}, "fusion_lon": 0.0}, {"lat": 38.867005666666664, "is_disabled": 0, "type": "electric_scooter", "lon": -76.98714116666666, "bike_id": "81e8c0e365bedfedcb07baa7a7de38e5", "fusion_lat": 0.0, "name": "81e8c0e365bedfedcb07baa7a7de38e5", "is_reserved": 0, "rental_uris": {"android": "https://dc.lft.to/lastmile_qr_scan", "ios": "https://dc.lft.to/lastmile_qr_scan"}, "fusion_lon": 0.0}, {"lat": 38.89533083333333, "is_disabled": 0, "type": "electric_scooter", "lon": -76.9489175, "bike_id": "91a1ed11934452887f07d8f128b6ac4d", "fusion_lat": 0.0, "name": "91a1ed11934452887f07d8f128b6ac4d", "is_reserved": 0, "rental_uris": {"android": "https://dc.lft.to/lastmile_qr_scan", "ios": "https://dc.lft.to/lastmile_qr_scan"}, "fusion_lon": 0.0}, {"lat": 38.905615833333336, "is_disabled": 0, "type": "electric_scooter", "lon": -77.016815, "bike_id": "146d266ca118790fbc0d2f366339a805", "fusion_lat": 0.0, "name": "146d266ca118790fbc0d2f366339a805", "is_reserved": 0, "rental_uris": {"android": "https://dc.lft.to/lastmile_qr_scan", "ios": "https://dc.lft.to/lastmile_qr_scan"}, "fusion_lon": 0.0}, {"lat": 38.87412, "is_disabled": 0, "type": "electric_bike", "lon": -76.9657225, "bike_id": "dc8f2e90b87acda7fe8188b31cf82aba", "fusion_lat": 0.0, "name": "dc8f2e90b87acda7fe8188b31cf82aba", "is_reserved": 0, "rental_uris": {"android": "https://dc.lft.to/lastmile_qr_scan", "ios": "https://dc.lft.to/lastmile_qr_scan"}, "fusion_lon": 0.0}, {"lat": 38.887409166666664, "is_disabled": 0, "type": "electric_scooter", "lon": -77.0153915, "bike_id": "bba5e484af352724b7284f70630455b0", "fusion_lat": 0.0, "name": "bba5e484af352724b7284f70630455b0", "is_reserved": 0, "rental_uris": {"android": "https://dc.lft.to/lastmile_qr_scan", "ios": "https://dc.lft.to/lastmile_qr_scan"}, "fusion_lon": 0.0}, {"lat": 38.89043516666667, "is_disabled": 0, "type": "electric_scooter", "lon": -76.95246616666667, "bike_id": "de90e645343bf60e3ac8bb8aa6cdac6e", "fusion_lat": 0.0, "name": "de90e645343bf60e3ac8bb8aa6cdac6e", "is_reserved": 0, "rental_uris": {"android": "https://dc.lft.to/lastmile_qr_scan", "ios": "https://dc.lft.to/lastmile_qr_scan"}, "fusion_lon": 0.0}, {"lat": 38.8982225, "is_disabled": 0, "type": "electric_scooter", "lon": -77.03108133333333, "bike_id": "d2898434801a1e20dbe26a07849e0e97", "fusion_lat": 0.0, "name": "d2898434801a1e20dbe26a07849e0e97", "is_reserved": 0, "rental_uris": {"android": "https://dc.lft.to/lastmile_qr_scan", "ios": "https://dc.lft.to/lastmile_qr_scan"}, "fusion_lon": 0.0}, {"lat": 38.898776833333336, "is_disabled": 0, "type": "electric_scooter", "lon": -76.931832, "bike_id": "5fe4bff6d838033a9158c0fbd774924c", "fusion_lat": 0.0, "name": "5fe4bff6d838033a9158c0fbd774924c", "is_reserved": 0, "rental_uris": {"android": "https://dc.lft.to/lastmile_qr_scan", "ios": "https://dc.lft.to/lastmile_qr_scan"}, "fusion_lon": 0.0}, {"lat": 38.88409, "is_disabled": 0, "type": "electric_bike", "lon": -76.9542115, "bike_id": "8518d4d680034808696e1db46b292d3a", "fusion_lat": 0.0, "name": "8518d4d680034808696e1db46b292d3a", "is_reserved": 0, "rental_uris": {"android": "https://dc.lft.to/lastmile_qr_scan", "ios": "https://dc.lft.to/lastmile_qr_scan"}, "fusion_lon": 0.0}, {"lat": 38.902693, "is_disabled": 0, "type": "electric_scooter", "lon": -77.0438175, "bike_id": "0112cc463d8b145990ddb28fff45ffe7", "fusion_lat": 0.0, "name": "0112cc463d8b145990ddb28fff45ffe7", "is_reserved": 0, "rental_uris": {"android": "https://dc.lft.to/lastmile_qr_scan", "ios": "https://dc.lft.to/lastmile_qr_scan"}, "fusion_lon": 0.0}, {"lat": 38.9196875, "is_disabled": 0, "type": "electric_scooter", "lon": -77.01207733333334, "bike_id": "802d3f063596df4d19c515095d7d6eca", "fusion_lat": 0.0, "name": "802d3f063596df4d19c515095d7d6eca", "is_reserved": 0, "rental_uris": {"android": "https://dc.lft.to/lastmile_qr_scan", "ios": "https://dc.lft.to/lastmile_qr_scan"}, "fusion_lon": 0.0}, {"lat": 38.917325166666664, "is_disabled": 0, "type": "electric_scooter", "lon": -77.0364205, "bike_id": "074d72e93d6335c760c12d737798f398", "fusion_lat": 0.0, "name": "074d72e93d6335c760c12d737798f398", "is_reserved": 0, "rental_uris": {"android": "https://dc.lft.to/lastmile_qr_scan", "ios": "https://dc.lft.to/lastmile_qr_scan"}, "fusion_lon": 0.0}, {"lat": 39.0563785, "is_disabled": 0, "type": "electric_bike", "lon": -77.125256, "bike_id": "9d4a51e06822a13e4e6c895e31d9baec", "fusion_lat": 0.0, "name": "9d4a51e06822a13e4e6c895e31d9baec", "is_reserved": 0, "rental_uris": {"android": "https://dc.lft.to/lastmile_qr_scan", "ios": "https://dc.lft.to/lastmile_qr_scan"}, "fusion_lon": 0.0}, {"lat": 38.918663, "is_disabled": 0, "type": "electric_scooter", "lon": -77.03180033333334, "bike_id": "2372e634e8b8df37619815e53d2bb269", "fusion_lat": 0.0, "name": "2372e634e8b8df37619815e53d2bb269", "is_reserved": 0, "rental_uris": {"android": "https://dc.lft.to/lastmile_qr_scan", "ios": "https://dc.lft.to/lastmile_qr_scan"}, "fusion_lon": 0.0}, {"lat": 38.91118183333333, "is_disabled": 0, "type": "electric_scooter", "lon": -77.0378625, "bike_id": "a7bda70d1c5f64fd1af228e11f65ebfb", "fusion_lat": 0.0, "name": "a7bda70d1c5f64fd1af228e11f65ebfb", "is_reserved": 0, "rental_uris": {"android": "https://dc.lft.to/lastmile_qr_scan", "ios": "https://dc.lft.to/lastmile_qr_scan"}, "fusion_lon": 0.0}, {"lat": 38.93210166666667, "is_disabled": 0, "type": "electric_scooter", "lon": -77.0224805, "bike_id": "feee96dd082b93a235dfc8daccc4298a", "fusion_lat": 0.0, "name": "feee96dd082b93a235dfc8daccc4298a", "is_reserved": 0, "rental_uris": {"android": "https://dc.lft.to/lastmile_qr_scan", "ios": "https://dc.lft.to/lastmile_qr_scan"}, "fusion_lon": 0.0}, {"lat": 38.911938166666665, "is_disabled": 0, "type": "electric_scooter", "lon": -77.04294483333334, "bike_id": "a1e1cff48a7f6a1e91cf9e5c6ac9bf18", "fusion_lat": 0.0, "name": "a1e1cff48a7f6a1e91cf9e5c6ac9bf18", "is_reserved": 0, "rental_uris": {"android": "https://dc.lft.to/lastmile_qr_scan", "ios": "https://dc.lft.to/lastmile_qr_scan"}, "fusion_lon": 0.0}, {"lat": 38.90115183333333, "is_disabled": 0, "type": "electric_scooter", "lon": -76.99549116666667, "bike_id": "ff6be6194db2dfc824fd84cd45a6e291", "fusion_lat": 0.0, "name": "ff6be6194db2dfc824fd84cd45a6e291", "is_reserved": 0, "rental_uris": {"android": "https://dc.lft.to/lastmile_qr_scan", "ios": "https://dc.lft.to/lastmile_qr_scan"}, "fusion_lon": 0.0}, {"lat": 38.91139733333333, "is_disabled": 0, "type": "electric_scooter", "lon": -77.02697616666667, "bike_id": "2834b56f76dacd6e5da47f5185f1194c", "fusion_lat": 0.0, "name": "2834b56f76dacd6e5da47f5185f1194c", "is_reserved": 0, "rental_uris": {"android": "https://dc.lft.to/lastmile_qr_scan", "ios": "https://dc.lft.to/lastmile_qr_scan"}, "fusion_lon": 0.0}, {"lat": 38.895629166666666, "is_disabled": 0, "type": "electric_bike", "lon": -77.12732516666667, "bike_id": "c786b1fe884a1c227a2c6fdf51a1e351", "fusion_lat": 0.0, "name": "c786b1fe884a1c227a2c6fdf51a1e351", "is_reserved": 0, "rental_uris": {"android": "https://dc.lft.to/lastmile_qr_scan", "ios": "https://dc.lft.to/lastmile_qr_scan"}, "fusion_lon": 0.0}, {"lat": 38.93092683333333, "is_disabled": 0, "type": "electric_scooter", "lon": -77.034432, "bike_id": "9fe6b1d6f61ffef80fd46dc6bb38769c", "fusion_lat": 0.0, "name": "9fe6b1d6f61ffef80fd46dc6bb38769c", "is_reserved": 0, "rental_uris": {"android": "https://dc.lft.to/lastmile_qr_scan", "ios": "https://dc.lft.to/lastmile_qr_scan"}, "fusion_lon": 0.0}, {"lat": 38.88741066666667, "is_disabled": 0, "type": "electric_scooter", "lon": -77.01538183333334, "bike_id": "4c8becddd1eb84b2ccb8f4ed72d37853", "fusion_lat": 0.0, "name": "4c8becddd1eb84b2ccb8f4ed72d37853", "is_reserved": 0, "rental_uris": {"android": "https://dc.lft.to/lastmile_qr_scan", "ios": "https://dc.lft.to/lastmile_qr_scan"}, "fusion_lon": 0.0}, {"lat": 38.919047666666664, "is_disabled": 0, "type": "electric_scooter", "lon": -77.0004795, "bike_id": "da2265fef475a8a8edde0e7f37972e31", "fusion_lat": 0.0, "name": "da2265fef475a8a8edde0e7f37972e31", "is_reserved": 0, "rental_uris": {"android": "https://dc.lft.to/lastmile_qr_scan", "ios": "https://dc.lft.to/lastmile_qr_scan"}, "fusion_lon": 0.0}, {"lat": 38.90420133333333, "is_disabled": 0, "type": "electric_scooter", "lon": -77.06887783333333, "bike_id": "32031d1c4d173934b439cabb1674d2cc", "fusion_lat": 0.0, "name": "32031d1c4d173934b439cabb1674d2cc", "is_reserved": 0, "rental_uris": {"android": "https://dc.lft.to/lastmile_qr_scan", "ios": "https://dc.lft.to/lastmile_qr_scan"}, "fusion_lon": 0.0}, {"lat": 38.920868166666665, "is_disabled": 0, "type": "electric_scooter", "lon": -77.03640083333333, "bike_id": "16a5bd956e46bda9ba0f694e16a3741d", "fusion_lat": 0.0, "name": "16a5bd956e46bda9ba0f694e16a3741d", "is_reserved": 0, "rental_uris": {"android": "https://dc.lft.to/lastmile_qr_scan", "ios": "https://dc.lft.to/lastmile_qr_scan"}, "fusion_lon": 0.0}, {"lat": 38.916882333333334, "is_disabled": 0, "type": "electric_scooter", "lon": -77.02803916666667, "bike_id": "730ba7f8d959329d1141dd11f19a8b22", "fusion_lat": 0.0, "name": "730ba7f8d959329d1141dd11f19a8b22", "is_reserved": 0, "rental_uris": {"android": "https://dc.lft.to/lastmile_qr_scan", "ios": "https://dc.lft.to/lastmile_qr_scan"}, "fusion_lon": 0.0}, {"lat": 38.8900845, "is_disabled": 0, "type": "electric_scooter", "lon": -76.9374695, "bike_id": "117b21eb168b4b47f759ebf562f8b211", "fusion_lat": 0.0, "name": "117b21eb168b4b47f759ebf562f8b211", "is_reserved": 0, "rental_uris": {"android": "https://dc.lft.to/lastmile_qr_scan", "ios": "https://dc.lft.to/lastmile_qr_scan"}, "fusion_lon": 0.0}, {"lat": 38.907939666666664, "is_disabled": 0, "type": "electric_scooter", "lon": -77.02693133333334, "bike_id": "2415ce3b1e357b4fe17145dfab09a014", "fusion_lat": 0.0, "name": "2415ce3b1e357b4fe17145dfab09a014", "is_reserved": 0, "rental_uris": {"android": "https://dc.lft.to/lastmile_qr_scan", "ios": "https://dc.lft.to/lastmile_qr_scan"}, "fusion_lon": 0.0}, {"lat": 38.90073183333333, "is_disabled": 0, "type": "electric_scooter", "lon": -77.00206866666667, "bike_id": "2deaff7626459ea75910cba1b55de9ca", "fusion_lat": 0.0, "name": "2deaff7626459ea75910cba1b55de9ca", "is_reserved": 0, "rental_uris": {"android": "https://dc.lft.to/lastmile_qr_scan", "ios": "https://dc.lft.to/lastmile_qr_scan"}, "fusion_lon": 0.0}, {"lat": 38.92096083333333, "is_disabled": 0, "type": "electric_scooter", "lon": -77.01767033333333, "bike_id": "986d8d05672cd529a466d6b25a28d54d", "fusion_lat": 0.0, "name": "986d8d05672cd529a466d6b25a28d54d", "is_reserved": 0, "rental_uris": {"android": "https://dc.lft.to/lastmile_qr_scan", "ios": "https://dc.lft.to/lastmile_qr_scan"}, "fusion_lon": 0.0}, {"lat": 38.919265833333334, "is_disabled": 0, "type": "electric_scooter", "lon": -77.02422, "bike_id": "24c31255735d8e6a54d6e92e26b360d3", "fusion_lat": 0.0, "name": "24c31255735d8e6a54d6e92e26b360d3", "is_reserved": 0, "rental_uris": {"android": "https://dc.lft.to/lastmile_qr_scan", "ios": "https://dc.lft.to/lastmile_qr_scan"}, "fusion_lon": 0.0}, {"lat": 38.917117, "is_disabled": 0, "type": "electric_scooter", "lon": -77.0312145, "bike_id": "3829f2ca4985f4f81547de2aaffb9acd", "fusion_lat": 0.0, "name": "3829f2ca4985f4f81547de2aaffb9acd", "is_reserved": 0, "rental_uris": {"android": "https://dc.lft.to/lastmile_qr_scan", "ios": "https://dc.lft.to/lastmile_qr_scan"}, "fusion_lon": 0.0}, {"lat": 38.92341533333333, "is_disabled": 0, "type": "electric_scooter", "lon": -77.050337, "bike_id": "ce7e7a280a830270d3d23394cc139c62", "fusion_lat": 0.0, "name": "ce7e7a280a830270d3d23394cc139c62", "is_reserved": 0, "rental_uris": {"android": "https://dc.lft.to/lastmile_qr_scan", "ios": "https://dc.lft.to/lastmile_qr_scan"}, "fusion_lon": 0.0}, {"lat": 38.92864066666667, "is_disabled": 0, "type": "electric_scooter", "lon": -77.03320616666667, "bike_id": "940cd8da94885d79fe387e6823964296", "fusion_lat": 0.0, "name": "940cd8da94885d79fe387e6823964296", "is_reserved": 0, "rental_uris": {"android": "https://dc.lft.to/lastmile_qr_scan", "ios": "https://dc.lft.to/lastmile_qr_scan"}, "fusion_lon": 0.0}, {"lat": 38.890070333333334, "is_disabled": 0, "type": "electric_scooter", "lon": -76.937434, "bike_id": "655a716118c2258b61e0cb55c438601b", "fusion_lat": 0.0, "name": "655a716118c2258b61e0cb55c438601b", "is_reserved": 0, "rental_uris": {"android": "https://dc.lft.to/lastmile_qr_scan", "ios": "https://dc.lft.to/lastmile_qr_scan"}, "fusion_lon": 0.0}, {"lat": 38.90838216666667, "is_disabled": 0, "type": "electric_scooter", "lon": -76.996945, "bike_id": "21a1e4aeb1aa8f54d2a5e4bbb1e145b9", "fusion_lat": 0.0, "name": "21a1e4aeb1aa8f54d2a5e4bbb1e145b9", "is_reserved": 0, "rental_uris": {"android": "https://dc.lft.to/lastmile_qr_scan", "ios": "https://dc.lft.to/lastmile_qr_scan"}, "fusion_lon": 0.0}, {"lat": 38.922406, "is_disabled": 0, "type": "electric_scooter", "lon": -77.04569316666667, "bike_id": "687e28d6a7d10927d5cbefa65f960ac0", "fusion_lat": 0.0, "name": "687e28d6a7d10927d5cbefa65f960ac0", "is_reserved": 0, "rental_uris": {"android": "https://dc.lft.to/lastmile_qr_scan", "ios": "https://dc.lft.to/lastmile_qr_scan"}, "fusion_lon": 0.0}, {"lat": 38.932795666666664, "is_disabled": 0, "type": "electric_scooter", "lon": -77.028309, "bike_id": "cc040c29caa90624dde14dc5f6a3b299", "fusion_lat": 0.0, "name": "cc040c29caa90624dde14dc5f6a3b299", "is_reserved": 0, "rental_uris": {"android": "https://dc.lft.to/lastmile_qr_scan", "ios": "https://dc.lft.to/lastmile_qr_scan"}, "fusion_lon": 0.0}, {"lat": 38.88971183333334, "is_disabled": 0, "type": "electric_scooter", "lon": -77.03562166666667, "bike_id": "5e2613a142c9bee24eba43ab7072534e", "fusion_lat": 0.0, "name": "5e2613a142c9bee24eba43ab7072534e", "is_reserved": 0, "rental_uris": {"android": "https://dc.lft.to/lastmile_qr_scan", "ios": "https://dc.lft.to/lastmile_qr_scan"}, "fusion_lon": 0.0}, {"lat": 38.972334000000004, "is_disabled": 0, "type": "electric_bike", "lon": -76.99339966666666, "bike_id": "e2719403dc5389cd71900d2d917a5e86", "fusion_lat": 0.0, "name": "e2719403dc5389cd71900d2d917a5e86", "is_reserved": 0, "rental_uris": {"android": "https://dc.lft.to/lastmile_qr_scan", "ios": "https://dc.lft.to/lastmile_qr_scan"}, "fusion_lon": 0.0}, {"lat": 38.907341, "is_disabled": 0, "type": "electric_scooter", "lon": -77.02978733333333, "bike_id": "9963a335c1731811528c5a7b5cf3189e", "fusion_lat": 0.0, "name": "9963a335c1731811528c5a7b5cf3189e", "is_reserved": 0, "rental_uris": {"android": "https://dc.lft.to/lastmile_qr_scan", "ios": "https://dc.lft.to/lastmile_qr_scan"}, "fusion_lon": 0.0}, {"lat": 38.933199333333334, "is_disabled": 0, "type": "electric_scooter", "lon": -77.04525666666666, "bike_id": "79af24b7a20ee23b432edfd47ebd6547", "fusion_lat": 0.0, "name": "79af24b7a20ee23b432edfd47ebd6547", "is_reserved": 0, "rental_uris": {"android": "https://dc.lft.to/lastmile_qr_scan", "ios": "https://dc.lft.to/lastmile_qr_scan"}, "fusion_lon": 0.0}, {"lat": 38.9507395, "is_disabled": 0, "type": "electric_scooter", "lon": -77.02716216666667, "bike_id": "5e7f940516868cfdb865c2e8ca399d56", "fusion_lat": 0.0, "name": "5e7f940516868cfdb865c2e8ca399d56", "is_reserved": 0, "rental_uris": {"android": "https://dc.lft.to/lastmile_qr_scan", "ios": "https://dc.lft.to/lastmile_qr_scan"}, "fusion_lon": 0.0}, {"lat": 38.9419185, "is_disabled": 0, "type": "electric_scooter", "lon": -77.040158, "bike_id": "6c90e7c91752ff896d0672c978e766ad", "fusion_lat": 0.0, "name": "6c90e7c91752ff896d0672c978e766ad", "is_reserved": 0, "rental_uris": {"android": "https://dc.lft.to/lastmile_qr_scan", "ios": "https://dc.lft.to/lastmile_qr_scan"}, "fusion_lon": 0.0}, {"lat": 38.88655416666667, "is_disabled": 0, "type": "electric_scooter", "lon": -77.021557, "bike_id": "23f219b3d859492b260613f06c0f1137", "fusion_lat": 0.0, "name": "23f219b3d859492b260613f06c0f1137", "is_reserved": 0, "rental_uris": {"android": "https://dc.lft.to/lastmile_qr_scan", "ios": "https://dc.lft.to/lastmile_qr_scan"}, "fusion_lon": 0.0}, {"lat": 38.92164066666667, "is_disabled": 0, "type": "electric_scooter", "lon": -77.035135, "bike_id": "ca53b8b3c4265b4732e4c1c3ddd2de54", "fusion_lat": 0.0, "name": "ca53b8b3c4265b4732e4c1c3ddd2de54", "is_reserved": 0, "rental_uris": {"android": "https://dc.lft.to/lastmile_qr_scan", "ios": "https://dc.lft.to/lastmile_qr_scan"}, "fusion_lon": 0.0}, {"lat": 38.854972833333335, "is_disabled": 0, "type": "electric_bike", "lon": -77.12044883333333, "bike_id": "7a84a2419e74a445818d1dc4b72cf453", "fusion_lat": 0.0, "name": "7a84a2419e74a445818d1dc4b72cf453", "is_reserved": 0, "rental_uris": {"android": "https://dc.lft.to/lastmile_qr_scan", "ios": "https://dc.lft.to/lastmile_qr_scan"}, "fusion_lon": 0.0}, {"lat": 38.877252166666665, "is_disabled": 0, "type": "electric_scooter", "lon": -77.01769583333333, "bike_id": "70556f0b7ade94fa2de4abc10c36cfbf", "fusion_lat": 0.0, "name": "70556f0b7ade94fa2de4abc10c36cfbf", "is_reserved": 0, "rental_uris": {"android": "https://dc.lft.to/lastmile_qr_scan", "ios": "https://dc.lft.to/lastmile_qr_scan"}, "fusion_lon": 0.0}, {"lat": 38.9080035, "is_disabled": 0, "type": "electric_scooter", "lon": -77.04343366666667, "bike_id": "858f56cdaf131b245c7d25f9b605ba06", "fusion_lat": 0.0, "name": "858f56cdaf131b245c7d25f9b605ba06", "is_reserved": 0, "rental_uris": {"android": "https://dc.lft.to/lastmile_qr_scan", "ios": "https://dc.lft.to/lastmile_qr_scan"}, "fusion_lon": 0.0}, {"lat": 38.93415383333333, "is_disabled": 0, "type": "electric_scooter", "lon": -77.04269266666667, "bike_id": "43a19ad04ed84313b7da25b867aa1aa8", "fusion_lat": 0.0, "name": "43a19ad04ed84313b7da25b867aa1aa8", "is_reserved": 0, "rental_uris": {"android": "https://dc.lft.to/lastmile_qr_scan", "ios": "https://dc.lft.to/lastmile_qr_scan"}, "fusion_lon": 0.0}, {"lat": 38.91744083333333, "is_disabled": 0, "type": "electric_scooter", "lon": -77.02402316666667, "bike_id": "36590dad12025acb52b382e3ebe447db", "fusion_lat": 0.0, "name": "36590dad12025acb52b382e3ebe447db", "is_reserved": 0, "rental_uris": {"android": "https://dc.lft.to/lastmile_qr_scan", "ios": "https://dc.lft.to/lastmile_qr_scan"}, "fusion_lon": 0.0}, {"lat": 38.90642233333333, "is_disabled": 0, "type": "electric_scooter", "lon": -77.0295105, "bike_id": "119d82ddd6bd73077670421dd44dfc26", "fusion_lat": 0.0, "name": "119d82ddd6bd73077670421dd44dfc26", "is_reserved": 0, "rental_uris": {"android": "https://dc.lft.to/lastmile_qr_scan", "ios": "https://dc.lft.to/lastmile_qr_scan"}, "fusion_lon": 0.0}, {"lat": 38.91836383333333, "is_disabled": 0, "type": "electric_scooter", "lon": -77.03511883333333, "bike_id": "98ae6da810ee7bf81f40fbf3e98d9bf9", "fusion_lat": 0.0, "name": "98ae6da810ee7bf81f40fbf3e98d9bf9", "is_reserved": 0, "rental_uris": {"android": "https://dc.lft.to/lastmile_qr_scan", "ios": "https://dc.lft.to/lastmile_qr_scan"}, "fusion_lon": 0.0}, {"lat": 38.904642333333335, "is_disabled": 0, "type": "electric_scooter", "lon": -77.04866666666666, "bike_id": "af776ef6aa6914e2edd4e734f1d5fee8", "fusion_lat": 0.0, "name": "af776ef6aa6914e2edd4e734f1d5fee8", "is_reserved": 0, "rental_uris": {"android": "https://dc.lft.to/lastmile_qr_scan", "ios": "https://dc.lft.to/lastmile_qr_scan"}, "fusion_lon": 0.0}, {"lat": 38.86652, "is_disabled": 0, "type": "electric_scooter", "lon": -76.98882666666667, "bike_id": "f35e83a80638106ff8f4b21eedce275b", "fusion_lat": 0.0, "name": "f35e83a80638106ff8f4b21eedce275b", "is_reserved": 0, "rental_uris": {"android": "https://dc.lft.to/lastmile_qr_scan", "ios": "https://dc.lft.to/lastmile_qr_scan"}, "fusion_lon": 0.0}, {"lat": 38.884983, "is_disabled": 0, "type": "electric_scooter", "lon": -77.007034, "bike_id": "806a6f1ec17655a85a757998cd2c40a1", "fusion_lat": 0.0, "name": "806a6f1ec17655a85a757998cd2c40a1", "is_reserved": 0, "rental_uris": {"android": "https://dc.lft.to/lastmile_qr_scan", "ios": "https://dc.lft.to/lastmile_qr_scan"}, "fusion_lon": 0.0}, {"lat": 38.91268183333333, "is_disabled": 0, "type": "electric_scooter", "lon": -77.01839566666666, "bike_id": "d194b3a1f0868bb28db3c8b7ba6189a6", "fusion_lat": 0.0, "name": "d194b3a1f0868bb28db3c8b7ba6189a6", "is_reserved": 0, "rental_uris": {"android": "https://dc.lft.to/lastmile_qr_scan", "ios": "https://dc.lft.to/lastmile_qr_scan"}, "fusion_lon": 0.0}, {"lat": 38.914281833333334, "is_disabled": 0, "type": "electric_scooter", "lon": -77.03206816666666, "bike_id": "c9eb17041f45026bda874b7ba078b941", "fusion_lat": 0.0, "name": "c9eb17041f45026bda874b7ba078b941", "is_reserved": 0, "rental_uris": {"android": "https://dc.lft.to/lastmile_qr_scan", "ios": "https://dc.lft.to/lastmile_qr_scan"}, "fusion_lon": 0.0}, {"lat": 38.908509, "is_disabled": 0, "type": "electric_scooter", "lon": -77.02065733333333, "bike_id": "3615ef50e5843d7180d106b61a2f23d4", "fusion_lat": 0.0, "name": "3615ef50e5843d7180d106b61a2f23d4", "is_reserved": 0, "rental_uris": {"android": "https://dc.lft.to/lastmile_qr_scan", "ios": "https://dc.lft.to/lastmile_qr_scan"}, "fusion_lon": 0.0}, {"lat": 38.94043666666666, "is_disabled": 0, "type": "electric_bike", "lon": -76.98823316666666, "bike_id": "2430c447b901d09b719f77f86fd24ff7", "fusion_lat": 0.0, "name": "2430c447b901d09b719f77f86fd24ff7", "is_reserved": 0, "rental_uris": {"android": "https://dc.lft.to/lastmile_qr_scan", "ios": "https://dc.lft.to/lastmile_qr_scan"}, "fusion_lon": 0.0}, {"lat": 38.8006205, "is_disabled": 0, "type": "electric_bike", "lon": -77.0711555, "bike_id": "821c7e2120bd6b409d6a17860cec95ec", "fusion_lat": 0.0, "name": "821c7e2120bd6b409d6a17860cec95ec", "is_reserved": 0, "rental_uris": {"android": "https://dc.lft.to/lastmile_qr_scan", "ios": "https://dc.lft.to/lastmile_qr_scan"}, "fusion_lon": 0.0}, {"lat": 38.956299666666666, "is_disabled": 0, "type": "electric_bike", "lon": -77.02295766666667, "bike_id": "8e409d73bb2e96f01fab3bce2c2a89a6", "fusion_lat": 0.0, "name": "8e409d73bb2e96f01fab3bce2c2a89a6", "is_reserved": 0, "rental_uris": {"android": "https://dc.lft.to/lastmile_qr_scan", "ios": "https://dc.lft.to/lastmile_qr_scan"}, "fusion_lon": 0.0}, {"lat": 38.91977166666667, "is_disabled": 0, "type": "electric_bike", "lon": -77.0032455, "bike_id": "fbe4b66151da1bdd627da19fb2013f35", "fusion_lat": 0.0, "name": "fbe4b66151da1bdd627da19fb2013f35", "is_reserved": 0, "rental_uris": {"android": "https://dc.lft.to/lastmile_qr_scan", "ios": "https://dc.lft.to/lastmile_qr_scan"}, "fusion_lon": 0.0}, {"lat": 38.92074016666667, "is_disabled": 0, "type": "electric_scooter", "lon": -77.0253775, "bike_id": "aaaaf838c39949eb3493143aa1da5825", "fusion_lat": 0.0, "name": "aaaaf838c39949eb3493143aa1da5825", "is_reserved": 0, "rental_uris": {"android": "https://dc.lft.to/lastmile_qr_scan", "ios": "https://dc.lft.to/lastmile_qr_scan"}, "fusion_lon": 0.0}, {"lat": 38.918171666666666, "is_disabled": 0, "type": "electric_scooter", "lon": -77.03919, "bike_id": "e643e25533bd89b3620532eca9996463", "fusion_lat": 0.0, "name": "e643e25533bd89b3620532eca9996463", "is_reserved": 0, "rental_uris": {"android": "https://dc.lft.to/lastmile_qr_scan", "ios": "https://dc.lft.to/lastmile_qr_scan"}, "fusion_lon": 0.0}, {"lat": 38.91565383333333, "is_disabled": 0, "type": "electric_scooter", "lon": -77.02979633333334, "bike_id": "4447f166b3633e09e6fd15aa91d9932e", "fusion_lat": 0.0, "name": "4447f166b3633e09e6fd15aa91d9932e", "is_reserved": 0, "rental_uris": {"android": "https://dc.lft.to/lastmile_qr_scan", "ios": "https://dc.lft.to/lastmile_qr_scan"}, "fusion_lon": 0.0}, {"lat": 38.90737883333333, "is_disabled": 0, "type": "electric_scooter", "lon": -77.02806183333334, "bike_id": "0e5b7c80aa939dad6a2592b76b78edc7", "fusion_lat": 0.0, "name": "0e5b7c80aa939dad6a2592b76b78edc7", "is_reserved": 0, "rental_uris": {"android": "https://dc.lft.to/lastmile_qr_scan", "ios": "https://dc.lft.to/lastmile_qr_scan"}, "fusion_lon": 0.0}, {"lat": 38.9054665, "is_disabled": 0, "type": "electric_bike", "lon": -77.05037866666666, "bike_id": "5740b019fd918343e7e5d811c0583c03", "fusion_lat": 0.0, "name": "5740b019fd918343e7e5d811c0583c03", "is_reserved": 0, "rental_uris": {"android": "https://dc.lft.to/lastmile_qr_scan", "ios": "https://dc.lft.to/lastmile_qr_scan"}, "fusion_lon": 0.0}, {"lat": 38.90570233333333, "is_disabled": 0, "type": "electric_scooter", "lon": -77.02174783333334, "bike_id": "c3e88305eb8f40f444dc547e0bedbccb", "fusion_lat": 0.0, "name": "c3e88305eb8f40f444dc547e0bedbccb", "is_reserved": 0, "rental_uris": {"android": "https://dc.lft.to/lastmile_qr_scan", "ios": "https://dc.lft.to/lastmile_qr_scan"}, "fusion_lon": 0.0}, {"lat": 38.917369, "is_disabled": 0, "type": "electric_scooter", "lon": -77.0366935, "bike_id": "89338403237f815089fedceada565fa4", "fusion_lat": 0.0, "name": "89338403237f815089fedceada565fa4", "is_reserved": 0, "rental_uris": {"android": "https://dc.lft.to/lastmile_qr_scan", "ios": "https://dc.lft.to/lastmile_qr_scan"}, "fusion_lon": 0.0}, {"lat": 38.92046916666666, "is_disabled": 0, "type": "electric_scooter", "lon": -77.0244795, "bike_id": "dbb677b5576f974a77b6ebf6988fcb6e", "fusion_lat": 0.0, "name": "dbb677b5576f974a77b6ebf6988fcb6e", "is_reserved": 0, "rental_uris": {"android": "https://dc.lft.to/lastmile_qr_scan", "ios": "https://dc.lft.to/lastmile_qr_scan"}, "fusion_lon": 0.0}, {"lat": 38.914226, "is_disabled": 0, "type": "electric_scooter", "lon": -77.02202116666666, "bike_id": "ef3964cb034f98d2a8756e7660682eb8", "fusion_lat": 0.0, "name": "ef3964cb034f98d2a8756e7660682eb8", "is_reserved": 0, "rental_uris": {"android": "https://dc.lft.to/lastmile_qr_scan", "ios": "https://dc.lft.to/lastmile_qr_scan"}, "fusion_lon": 0.0}, {"lat": 38.99633683333333, "is_disabled": 0, "type": "electric_bike", "lon": -77.02968483333333, "bike_id": "36db71a829b82f4fc6883ab38916c0ae", "fusion_lat": 0.0, "name": "36db71a829b82f4fc6883ab38916c0ae", "is_reserved": 0, "rental_uris": {"android": "https://dc.lft.to/lastmile_qr_scan", "ios": "https://dc.lft.to/lastmile_qr_scan"}, "fusion_lon": 0.0}, {"lat": 38.90811566666667, "is_disabled": 0, "type": "electric_scooter", "lon": -77.04332866666667, "bike_id": "01cd0a75fc0147c9ce3cbbfc5388a6a1", "fusion_lat": 0.0, "name": "01cd0a75fc0147c9ce3cbbfc5388a6a1", "is_reserved": 0, "rental_uris": {"android": "https://dc.lft.to/lastmile_qr_scan", "ios": "https://dc.lft.to/lastmile_qr_scan"}, "fusion_lon": 0.0}, {"lat": 38.9073655, "is_disabled": 0, "type": "electric_scooter", "lon": -77.02713483333333, "bike_id": "b8c04dd2d6b5630ac3537b48b3ab6a2b", "fusion_lat": 0.0, "name": "b8c04dd2d6b5630ac3537b48b3ab6a2b", "is_reserved": 0, "rental_uris": {"android": "https://dc.lft.to/lastmile_qr_scan", "ios": "https://dc.lft.to/lastmile_qr_scan"}, "fusion_lon": 0.0}, {"lat": 38.90392533333333, "is_disabled": 0, "type": "electric_scooter", "lon": -77.039813, "bike_id": "6d3f16e0e14f261c64fedd38e950b621", "fusion_lat": 0.0, "name": "6d3f16e0e14f261c64fedd38e950b621", "is_reserved": 0, "rental_uris": {"android": "https://dc.lft.to/lastmile_qr_scan", "ios": "https://dc.lft.to/lastmile_qr_scan"}, "fusion_lon": 0.0}, {"lat": 38.95287616666667, "is_disabled": 0, "type": "electric_bike", "lon": -76.9460435, "bike_id": "f4e014ee939fbeebc40c3cbcaff259c7", "fusion_lat": 0.0, "name": "f4e014ee939fbeebc40c3cbcaff259c7", "is_reserved": 0, "rental_uris": {"android": "https://dc.lft.to/lastmile_qr_scan", "ios": "https://dc.lft.to/lastmile_qr_scan"}, "fusion_lon": 0.0}, {"lat": 38.89223966666667, "is_disabled": 0, "type": "electric_scooter", "lon": -77.04860916666667, "bike_id": "b0c88c5d2dca8b0c9ca3b474e81c4e39", "fusion_lat": 0.0, "name": "b0c88c5d2dca8b0c9ca3b474e81c4e39", "is_reserved": 0, "rental_uris": {"android": "https://dc.lft.to/lastmile_qr_scan", "ios": "https://dc.lft.to/lastmile_qr_scan"}, "fusion_lon": 0.0}, {"lat": 38.903424333333334, "is_disabled": 0, "type": "electric_scooter", "lon": -77.04468483333333, "bike_id": "dcfb5a1008ddbccd176b869be3d2194f", "fusion_lat": 0.0, "name": "dcfb5a1008ddbccd176b869be3d2194f", "is_reserved": 0, "rental_uris": {"android": "https://dc.lft.to/lastmile_qr_scan", "ios": "https://dc.lft.to/lastmile_qr_scan"}, "fusion_lon": 0.0}, {"lat": 38.990081833333335, "is_disabled": 0, "type": "electric_bike", "lon": -77.00439783333333, "bike_id": "629943fddff844c83f0a9cced21cfb77", "fusion_lat": 0.0, "name": "629943fddff844c83f0a9cced21cfb77", "is_reserved": 0, "rental_uris": {"android": "https://dc.lft.to/lastmile_qr_scan", "ios": "https://dc.lft.to/lastmile_qr_scan"}, "fusion_lon": 0.0}, {"lat": 38.8990875, "is_disabled": 0, "type": "electric_scooter", "lon": -76.93346666666666, "bike_id": "f88da8474764dadb2d5357bdc3cd4ef4", "fusion_lat": 0.0, "name": "f88da8474764dadb2d5357bdc3cd4ef4", "is_reserved": 0, "rental_uris": {"android": "https://dc.lft.to/lastmile_qr_scan", "ios": "https://dc.lft.to/lastmile_qr_scan"}, "fusion_lon": 0.0}, {"lat": 38.939556333333336, "is_disabled": 0, "type": "electric_bike", "lon": -77.36088483333333, "bike_id": "b36cafdf2499c2510669e56c5a26a867", "fusion_lat": 0.0, "name": "b36cafdf2499c2510669e56c5a26a867", "is_reserved": 0, "rental_uris": {"android": "https://dc.lft.to/lastmile_qr_scan", "ios": "https://dc.lft.to/lastmile_qr_scan"}, "fusion_lon": 0.0}, {"lat": 38.92366483333333, "is_disabled": 0, "type": "electric_scooter", "lon": -77.0313035, "bike_id": "734e74d1e624fa2cc8f9c280d8bf8ac6", "fusion_lat": 0.0, "name": "734e74d1e624fa2cc8f9c280d8bf8ac6", "is_reserved": 0, "rental_uris": {"android": "https://dc.lft.to/lastmile_qr_scan", "ios": "https://dc.lft.to/lastmile_qr_scan"}, "fusion_lon": 0.0}, {"lat": 38.8957135, "is_disabled": 0, "type": "electric_scooter", "lon": -76.9304325, "bike_id": "887783a4f98144402ba2410c44796c99", "fusion_lat": 0.0, "name": "887783a4f98144402ba2410c44796c99", "is_reserved": 0, "rental_uris": {"android": "https://dc.lft.to/lastmile_qr_scan", "ios": "https://dc.lft.to/lastmile_qr_scan"}, "fusion_lon": 0.0}, {"lat": 38.930967333333335, "is_disabled": 0, "type": "electric_scooter", "lon": -77.02558466666666, "bike_id": "2eb3a50c2824a0ac2ef39cb9f0ea4bee", "fusion_lat": 0.0, "name": "2eb3a50c2824a0ac2ef39cb9f0ea4bee", "is_reserved": 0, "rental_uris": {"android": "https://dc.lft.to/lastmile_qr_scan", "ios": "https://dc.lft.to/lastmile_qr_scan"}, "fusion_lon": 0.0}, {"lat": 38.93604766666667, "is_disabled": 0, "type": "electric_scooter", "lon": -77.037589, "bike_id": "759849b7813f41609d59a8db93c75cb8", "fusion_lat": 0.0, "name": "759849b7813f41609d59a8db93c75cb8", "is_reserved": 0, "rental_uris": {"android": "https://dc.lft.to/lastmile_qr_scan", "ios": "https://dc.lft.to/lastmile_qr_scan"}, "fusion_lon": 0.0}, {"lat": 38.89391, "is_disabled": 0, "type": "electric_scooter", "lon": -76.94997933333333, "bike_id": "96f77b532501603de42c1cd1a2fedf6c", "fusion_lat": 0.0, "name": "96f77b532501603de42c1cd1a2fedf6c", "is_reserved": 0, "rental_uris": {"android": "https://dc.lft.to/lastmile_qr_scan", "ios": "https://dc.lft.to/lastmile_qr_scan"}, "fusion_lon": 0.0}, {"lat": 38.90294866666667, "is_disabled": 0, "type": "electric_scooter", "lon": -77.03863233333334, "bike_id": "1686c305fb788eef88fdbc8f17b83eaa", "fusion_lat": 0.0, "name": "1686c305fb788eef88fdbc8f17b83eaa", "is_reserved": 0, "rental_uris": {"android": "https://dc.lft.to/lastmile_qr_scan", "ios": "https://dc.lft.to/lastmile_qr_scan"}, "fusion_lon": 0.0}, {"lat": 38.91773833333333, "is_disabled": 0, "type": "electric_scooter", "lon": -77.03185433333333, "bike_id": "40dca744b773876bbf382604fe458858", "fusion_lat": 0.0, "name": "40dca744b773876bbf382604fe458858", "is_reserved": 0, "rental_uris": {"android": "https://dc.lft.to/lastmile_qr_scan", "ios": "https://dc.lft.to/lastmile_qr_scan"}, "fusion_lon": 0.0}, {"lat": 38.910545666666664, "is_disabled": 0, "type": "electric_scooter", "lon": -77.055836, "bike_id": "0fc3eb88bdc86828e180dd3b2bd64df5", "fusion_lat": 0.0, "name": "0fc3eb88bdc86828e180dd3b2bd64df5", "is_reserved": 0, "rental_uris": {"android": "https://dc.lft.to/lastmile_qr_scan", "ios": "https://dc.lft.to/lastmile_qr_scan"}, "fusion_lon": 0.0}, {"lat": 38.9009845, "is_disabled": 0, "type": "electric_scooter", "lon": -76.98481733333334, "bike_id": "308d13af977f3784425826971faf98ef", "fusion_lat": 0.0, "name": "308d13af977f3784425826971faf98ef", "is_reserved": 0, "rental_uris": {"android": "https://dc.lft.to/lastmile_qr_scan", "ios": "https://dc.lft.to/lastmile_qr_scan"}, "fusion_lon": 0.0}, {"lat": 38.90861, "is_disabled": 0, "type": "electric_scooter", "lon": -77.04594866666666, "bike_id": "534bded0f93c7c142228fc2b77623504", "fusion_lat": 0.0, "name": "534bded0f93c7c142228fc2b77623504", "is_reserved": 0, "rental_uris": {"android": "https://dc.lft.to/lastmile_qr_scan", "ios": "https://dc.lft.to/lastmile_qr_scan"}, "fusion_lon": 0.0}, {"lat": 38.9082575, "is_disabled": 0, "type": "electric_scooter", "lon": -77.01792, "bike_id": "dd0c8c3c558abf931b6d83e7dad5a2a4", "fusion_lat": 0.0, "name": "dd0c8c3c558abf931b6d83e7dad5a2a4", "is_reserved": 0, "rental_uris": {"android": "https://dc.lft.to/lastmile_qr_scan", "ios": "https://dc.lft.to/lastmile_qr_scan"}, "fusion_lon": 0.0},