{"data": {"bikes": [{"fusion_lat": 0.0, "type": "electric_scooter", "name": "5641ab62a260699744471d364e9c9cf6", "fusion_lon": 0.0, "bike_id": "5641ab62a260699744471d364e9c9cf6", "is_reserved": 0, "rental_uris": {"android": "https://dc.lft.to/lastmile_qr_scan", "ios": "https://dc.lft.to/lastmile_qr_scan"}, "lat": 38.887686333333335, "is_disabled": 0, "lon": -77.01774866666666}, {"fusion_lat": 0.0, "type": "electric_scooter", "name": "41decbe5d6e599fee2fe863edb3a649f", "fusion_lon": 0.0, "bike_id": "41decbe5d6e599fee2fe863edb3a649f", "is_reserved": 0, "rental_uris": {"android": "https://dc.lft.to/lastmile_qr_scan", "ios": "https://dc.lft.to/lastmile_qr_scan"}, "lat": 38.90671533333333, "is_disabled": 0, "lon": -77.04179316666666}, {"fusion_lat": 0.0, "type": "electric_scooter", "name": "a28367135eb3fe3d79a58110bbe44fb3", "fusion_lon": 0.0, "bike_id": "a28367135eb3fe3d79a58110bbe44fb3", "is_reserved": 0, "rental_uris": {"android": "https://dc.lft.to/lastmile_qr_scan", "ios": "https://dc.lft.to/lastmile_qr_scan"}, "lat": 38.917758166666665, "is_disabled": 0, "lon": -77.02316133333333}, {"fusion_lat": 0.0, "type": "electric_scooter", "name": "efc2b8d0cc80501bcafc98f11c7ee9e2", "fusion_lon": 0.0, "bike_id": "efc2b8d0cc80501bcafc98f11c7ee9e2", "is_reserved": 0, "rental_uris": {"android": "https://dc.lft.to/lastmile_qr_scan", "ios": "https://dc.lft.to/lastmile_qr_scan"}, "lat": 38.892202166666664, "is_disabled": 0, "lon": -77.044993}, {"fusion_lat": 0.0, "type": "electric_scooter", "name": "99881bf860058b7c2572dd80eec15a4d", "fusion_lon": 0.0, "bike_id": "99881bf860058b7c2572dd80eec15a4d", "is_reserved": 0, "rental_uris": {"android": "https://dc.lft.to/lastmile_qr_scan", "ios": "https://dc.lft.to/lastmile_qr_scan"}, "lat": 38.8922405, "is_disabled": 0, "lon": -77.03337083333334}, {"fusion_lat": 0.0, "type": "electric_scooter", "name": "292736c823d8203558ff3a10f5b34f6f", "fusion_lon": 0.0, "bike_id": "292736c823d8203558ff3a10f5b34f6f", "is_reserved": 0, "rental_uris": {"android": "https://dc.lft.to/lastmile_qr_scan", "ios": "https://dc.lft.to/lastmile_qr_scan"}, "lat": 38.908639, "is_disabled": 0, "lon": -77.04858116666666}, {"fusion_lat": 0.0, "type": "electric_scooter", "name": "b06066905f00f5867e712f4155546ec6", "fusion_lon": 0.0, "bike_id": "b06066905f00f5867e712f4155546ec6", "is_reserved": 0, "rental_uris": {"android": "https://dc.lft.to/lastmile_qr_scan", "ios": "https://dc.lft.to/lastmile_qr_scan"}, "lat": 38.92259083333333, "is_disabled": 0, "lon": -77.07033966666667}, {"fusion_lat": 0.0, "type": "electric_bike", "name": "69d9cc484e9da7b225e2a550cfac6a5c", "fusion_lon": 0.0, "bike_id": "69d9cc484e9da7b225e2a550cfac6a5c", "is_reserved": 0, "rental_uris": {"android": "https://dc.lft.to/lastmile_qr_scan", "ios": "https://dc.lft.to/lastmile_qr_scan"}, "lat": 38.8805005, "is_disabled": 0, "lon": -77.01128733333333}, {"fusion_lat": 0.0, "type": "electric_scooter", "name": "b02c58af14f76a33f8d6e0e1d87b3ffe", "fusion_lon": 0.0, "bike_id": "b02c58af14f76a33f8d6e0e1d87b3ffe", "is_reserved": 0, "rental_uris": {"android": "https://dc.lft.to/lastmile_qr_scan", "ios": "https://dc.lft.to/lastmile_qr_scan"}, "lat": 38.93195433333333, "is_disabled": 0, "lon": -77.03844216666667}, {"fusion_lat": 0.0, "type": "electric_scooter", "name": "77bc791b32b97893af6453cea1f02e7a", "fusion_lon": 0.0, "bike_id": "77bc791b32b97893af6453cea1f02e7a", "is_reserved": 0, "rental_uris": {"android": "https://dc.lft.to/lastmile_qr_scan", "ios": "https://dc.lft.to/lastmile_qr_scan"}, "lat": 38.8674665, "is_disabled": 0, "lon": -76.9877915}, {"fusion_lat": 0.0, "type": "electric_scooter", "name": "a869ecfbad88074481d05e7b415b1d46", "fusion_lon": 0.0, "bike_id": "a869ecfbad88074481d05e7b415b1d46", "is_reserved": 0, "rental_uris": {"android": "https://dc.lft.to/lastmile_qr_scan", "ios": "https://dc.lft.to/lastmile_qr_scan"}, "lat": 38.8884515, "is_disabled": 0, "lon": -77.04901766666667}, {"fusion_lat": 0.0, "type": "electric_scooter", "name": "677fec8766bb7477efddb880075f4cd6", "fusion_lon": 0.0, "bike_id": "677fec8766bb7477efddb880075f4cd6", "is_reserved": 0, "rental_uris": {"android": "https://dc.lft.to/lastmile_qr_scan", "ios": "https://dc.lft.to/lastmile_qr_scan"}, "lat": 38.90912633333333, "is_disabled": 0, "lon": -77.0726945}, {"fusion_lat": 0.0, "type": "electric_scooter", "name": "2cb40665ba6c7a299835420a3008cc0a", "fusion_lon": 0.0, "bike_id": "2cb40665ba6c7a299835420a3008cc0a", "is_reserved": 0, "rental_uris": {"android": "https://dc.lft.to/lastmile_qr_scan", "ios": "https://dc.lft.to/lastmile_qr_scan"}, "lat": 38.905328833333336, "is_disabled": 0, "lon": -77.0504085}, {"fusion_lat": 0.0, "type": "electric_scooter", "name": "47f2d60e5ae702a5c10345f5d0144de3", "fusion_lon": 0.0, "bike_id": "47f2d60e5ae702a5c10345f5d0144de3", "is_reserved": 0, "rental_uris": {"android": "https://dc.lft.to/lastmile_qr_scan", "ios": "https://dc.lft.to/lastmile_qr_scan"}, "lat": 38.823822666666665, "is_disabled": 0, "lon": -77.01185116666667}, {"fusion_lat": 0.0, "type": "electric_scooter", "name": "92b59f8f020e595605c79dc25a4378a0", "fusion_lon": 0.0, "bike_id": "92b59f8f020e595605c79dc25a4378a0", "is_reserved": 0, "rental_uris": {"android": "https://dc.lft.to/lastmile_qr_scan", "ios": "https://dc.lft.to/lastmile_qr_scan"}, "lat": 38.90474316666667, "is_disabled": 0, "lon": -77.03888183333333}, {"fusion_lat": 0.0, "type": "electric_scooter", "name": "eb8685aaae3c3b109c8e7c8dde497f10", "fusion_lon": 0.0, "bike_id": "eb8685aaae3c3b109c8e7c8dde497f10", "is_reserved": 0, "rental_uris": {"android": "https://dc.lft.to/lastmile_qr_scan", "ios": "https://dc.lft.to/lastmile_qr_scan"}, "lat": 38.867030166666666, "is_disabled": 0, "lon": -76.98714616666666}, {"fusion_lat": 0.0, "type": "electric_scooter", "name": "d0dedc8eaf80dc700f606bd940bf9660", "fusion_lon": 0.0, "bike_id": "d0dedc8eaf80dc700f606bd940bf9660", "is_reserved": 0, "rental_uris": {"android": "https://dc.lft.to/lastmile_qr_scan", "ios": "https://dc.lft.to/lastmile_qr_scan"}, "lat": 38.905337, "is_disabled": 0, "lon": -77.0499055}, {"fusion_lat": 0.0, "type": "electric_scooter", "name": "e35c584305625857df170e2244362b94", "fusion_lon": 0.0, "bike_id": "e35c584305625857df170e2244362b94", "is_reserved": 0, "rental_uris": {"android": "https://dc.lft.to/lastmile_qr_scan", "ios": "https://dc.lft.to/lastmile_qr_scan"}, "lat": 38.886234, "is_disabled": 0, "lon": -76.9558135}, {"fusion_lat": 0.0, "type": "electric_scooter", "name": "86ec7e0ecf2dbac935bd3c6c226e8cb1", "fusion_lon": 0.0, "bike_id": "86ec7e0ecf2dbac935bd3c6c226e8cb1", "is_reserved": 0, "rental_uris": {"android": "https://dc.lft.to/lastmile_qr_scan", "ios": "https://dc.lft.to/lastmile_qr_scan"}, "lat": 38.8747415, "is_disabled": 0, "lon": -77.00653216666667}, {"fusion_lat": 0.0, "type": "electric_scooter", "name": "a8f6e6acdb2b15b8eddea652744ecf7d", "fusion_lon": 0.0, "bike_id": "a8f6e6acdb2b15b8eddea652744ecf7d", "is_reserved": 0, "rental_uris": {"android": "https://dc.lft.to/lastmile_qr_scan", "ios": "https://dc.lft.to/lastmile_qr_scan"}, "lat": 38.938702166666666, "is_disabled": 0, "lon": -77.060502}, {"fusion_lat": 0.0, "type": "electric_scooter", "name": "89da5b68d671a8ce9251fd45f8314eb5", "fusion_lon": 0.0, "bike_id": "89da5b68d671a8ce9251fd45f8314eb5", "is_reserved": 0, "rental_uris": {"android": "https://dc.lft.to/lastmile_qr_scan", "ios": "https://dc.lft.to/lastmile_qr_scan"}, "lat": 38.905949166666666, "is_disabled": 0, "lon": -77.0700765}, {"fusion_lat": 0.0, "type": "electric_scooter", "name": "8ec726c873f84ed935b6aeef6a217b70", "fusion_lon": 0.0, "bike_id": "8ec726c873f84ed935b6aeef6a217b70", "is_reserved": 0, "rental_uris": {"android": "https://dc.lft.to/lastmile_qr_scan", "ios": "https://dc.lft.to/lastmile_qr_scan"}, "lat": 38.928455166666666, "is_disabled": 0, "lon": -77.01418916666667}, {"fusion_lat": 0.0, "type": "electric_scooter", "name": "ac4071d5c79951cc37541846c8910b24", "fusion_lon": 0.0, "bike_id": "ac4071d5c79951cc37541846c8910b24", "is_reserved": 0, "rental_uris": {"android": "https://dc.lft.to/lastmile_qr_scan", "ios": "https://dc.lft.to/lastmile_qr_scan"}, "lat": 38.900738, "is_disabled": 0, "lon": -77.01324183333334}, {"fusion_lat": 0.0, "type": "electric_bike", "name": "e36a161b10a9de447b35e05c031f85a1", "fusion_lon": 0.0, "bike_id": "e36a161b10a9de447b35e05c031f85a1", "is_reserved": 0, "rental_uris": {"android": "https://dc.lft.to/lastmile_qr_scan", "ios": "https://dc.lft.to/lastmile_qr_scan"}, "lat": 38.80755416666667, "is_disabled": 0, "lon": -77.09454683333334}, {"fusion_lat": 0.0, "type": "electric_scooter", "name": "093dee835d234682ca57a657c8c4daf1", "fusion_lon": 0.0, "bike_id": "093dee835d234682ca57a657c8c4daf1", "is_reserved": 0, "rental_uris": {"android": "https://dc.lft.to/lastmile_qr_scan", "ios": "https://dc.lft.to/lastmile_qr_scan"}, "lat": 38.877195, "is_disabled": 0, "lon": -77.01654383333333}, {"fusion_lat": 0.0, "type": "electric_scooter", "name": "a45efd4dfe67d1a2146c231a56125d20", "fusion_lon": 0.0, "bike_id": "a45efd4dfe67d1a2146c231a56125d20", "is_reserved": 0, "rental_uris": {"android": "https://dc.lft.to/lastmile_qr_scan", "ios": "https://dc.lft.to/lastmile_qr_scan"}, "lat": 38.881827666666666, "is_disabled": 0, "lon": -77.0357345}, {"fusion_lat": 0.0, "type": "electric_scooter", "name": "37cf9b83de653e88eb0416fa1dd2d0de", "fusion_lon": 0.0, "bike_id": "37cf9b83de653e88eb0416fa1dd2d0de", "is_reserved": 0, "rental_uris": {"android": "https://dc.lft.to/lastmile_qr_scan", "ios": "https://dc.lft.to/lastmile_qr_scan"}, "lat": 38.89786933333333, "is_disabled": 0, "lon": -77.0501715}, {"fusion_lat": 0.0, "type": "electric_scooter", "name": "371bb42205efd989e075345456cfd62b", "fusion_lon": 0.0, "bike_id": "371bb42205efd989e075345456cfd62b", "is_reserved": 0, "rental_uris": {"android": "https://dc.lft.to/lastmile_qr_scan", "ios": "https://dc.lft.to/lastmile_qr_scan"}, "lat": 38.88324733333334, "is_disabled": 0, "lon": -77.01678283333334}, {"fusion_lat": 0.0, "type": "electric_scooter", "name": "9a0cb4cedfe53a09af7e759f2630d955", "fusion_lon": 0.0, "bike_id": "9a0cb4cedfe53a09af7e759f2630d955", "is_reserved": 0, "rental_uris": {"android": "https://dc.lft.to/lastmile_qr_scan", "ios": "https://dc.lft.to/lastmile_qr_scan"}, "lat": 38.87660483333333, "is_disabled": 0, "lon": -77.0087545}, {"fusion_lat": 0.0, "type": "electric_bike", "name": "dfd8a63024d93af3a888381f35a2a074", "fusion_lon": 0.0, "bike_id": "dfd8a63024d93af3a888381f35a2a074", "is_reserved": 0, "rental_uris": {"android": "https://dc.lft.to/lastmile_qr_scan", "ios": "https://dc.lft.to/lastmile_qr_scan"}, "lat": 38.85324933333333, "is_disabled": 0, "lon": -76.9801315}, {"fusion_lat": 0.0, "type": "electric_scooter", "name": "f9d54f21e14eace76825ffca136563cf", "fusion_lon": 0.0, "bike_id": "f9d54f21e14eace76825ffca136563cf", "is_reserved": 0, "rental_uris": {"android": "https://dc.lft.to/lastmile_qr_scan", "ios": "https://dc.lft.to/lastmile_qr_scan"}, "lat": 38.86700366666667, "is_disabled": 0, "lon": -76.985947}, {"fusion_lat": 0.0, "type": "electric_scooter", "name": "f15a578338c000dcfa2e2fc515bb939d", "fusion_lon": 0.0, "bike_id": "f15a578338c000dcfa2e2fc515bb939d", "is_reserved": 0, "rental_uris": {"android": "https://dc.lft.to/lastmile_qr_scan", "ios": "https://dc.lft.to/lastmile_qr_scan"}, "lat": 38.90524283333333, "is_disabled": 0, "lon": -77.03469783333334}, {"fusion_lat": 0.0, "type": "electric_scooter", "name": "0e495813b39f6f2b042a329881a23856", "fusion_lon": 0.0, "bike_id": "0e495813b39f6f2b042a329881a23856", "is_reserved": 0, "rental_uris": {"android": "https://dc.lft.to/lastmile_qr_scan", "ios": "https://dc.lft.to/lastmile_qr_scan"}, "lat": 38.921731666666666, "is_disabled": 0, "lon": -77.04227866666666}, {"fusion_lat": 0.0, "type": "electric_scooter", "name": "25a58745e2adad704064585adcd98f5d", "fusion_lon": 0.0, "bike_id": "25a58745e2adad704064585adcd98f5d", "is_reserved": 0, "rental_uris": {"android": "https://dc.lft.to/lastmile_qr_scan", "ios": "https://dc.lft.to/lastmile_qr_scan"}, "lat": 38.88733233333333, "is_disabled": 0, "lon": -77.02833166666667}, {"fusion_lat": 0.0, "type": "electric_scooter", "name": "2a2c8e6bbaee5cd7c3dbf41616babc3e", "fusion_lon": 0.0, "bike_id": "2a2c8e6bbaee5cd7c3dbf41616babc3e", "is_reserved": 0, "rental_uris": {"android": "https://dc.lft.to/lastmile_qr_scan", "ios": "https://dc.lft.to/lastmile_qr_scan"}, "lat": 38.910682, "is_disabled": 0, "lon": -77.02189866666667}, {"fusion_lat": 0.0, "type": "electric_scooter", "name": "0ef202f40333676743bb3bae59514b6e", "fusion_lon": 0.0, "bike_id": "0ef202f40333676743bb3bae59514b6e", "is_reserved": 0, "rental_uris": {"android": "https://dc.lft.to/lastmile_qr_scan", "ios": "https://dc.lft.to/lastmile_qr_scan"}, "lat": 38.8957245, "is_disabled": 0, "lon": -77.0468085}, {"fusion_lat": 0.0, "type": "electric_scooter", "name": "074b696a9ad08834a04e385e8062dfdc", "fusion_lon": 0.0, "bike_id": "074b696a9ad08834a04e385e8062dfdc", "is_reserved": 0, "rental_uris": {"android": "https://dc.lft.to/lastmile_qr_scan", "ios": "https://dc.lft.to/lastmile_qr_scan"}, "lat": 38.92148516666666, "is_disabled": 0, "lon": -77.03502866666666}, {"fusion_lat": 0.0, "type": "electric_scooter", "name": "b291571c4ee7f6665d375c70b1d7dbf5", "fusion_lon": 0.0, "bike_id": "b291571c4ee7f6665d375c70b1d7dbf5", "is_reserved": 0, "rental_uris": {"android": "https://dc.lft.to/lastmile_qr_scan", "ios": "https://dc.lft.to/lastmile_qr_scan"}, "lat": 38.88717166666667, "is_disabled": 0, "lon": -77.022029}, {"fusion_lat": 0.0, "type": "electric_scooter", "name": "22eca2682e2ccc89d91ab4d674c40282", "fusion_lon": 0.0, "bike_id": "22eca2682e2ccc89d91ab4d674c40282", "is_reserved": 0, "rental_uris": {"android": "https://dc.lft.to/lastmile_qr_scan", "ios": "https://dc.lft.to/lastmile_qr_scan"}, "lat": 38.956302666666666, "is_disabled": 0, "lon": -77.02459733333333}, {"fusion_lat": 0.0, "type": "electric_scooter", "name": "dd7ed562c4c4609559ceef5b826ac6fd", "fusion_lon": 0.0, "bike_id": "dd7ed562c4c4609559ceef5b826ac6fd", "is_reserved": 0, "rental_uris": {"android": "https://dc.lft.to/lastmile_qr_scan", "ios": "https://dc.lft.to/lastmile_qr_scan"}, "lat": 38.93572966666667, "is_disabled": 0, "lon": -77.021264}, {"fusion_lat": 0.0, "type": "electric_bike", "name": "0e6f2d0c0c46a57bf7278dced0894c1e", "fusion_lon": 0.0, "bike_id": "0e6f2d0c0c46a57bf7278dced0894c1e", "is_reserved": 0, "rental_uris": {"android": "https://dc.lft.to/lastmile_qr_scan", "ios": "https://dc.lft.to/lastmile_qr_scan"}, "lat": 38.94667583333333, "is_disabled": 0, "lon": -76.98313616666667}, {"fusion_lat": 0.0, "type": "electric_scooter", "name": "a4e88a99fe853430ffa884dd94b4bee7", "fusion_lon": 0.0, "bike_id": "a4e88a99fe853430ffa884dd94b4bee7", "is_reserved": 0, "rental_uris": {"android": "https://dc.lft.to/lastmile_qr_scan", "ios": "https://dc.lft.to/lastmile_qr_scan"}, "lat": 38.89914483333333, "is_disabled": 0, "lon": -76.9336995}, {"fusion_lat": 0.0, "type": "electric_scooter", "name": "432d038259671c5f3157ae55401ed248", "fusion_lon": 0.0, "bike_id": "432d038259671c5f3157ae55401ed248", "is_reserved": 0, "rental_uris": {"android": "https://dc.lft.to/lastmile_qr_scan", "ios": "https://dc.lft.to/lastmile_qr_scan"}, "lat": 38.9024345, "is_disabled": 0, "lon": -77.04352583333333}, {"fusion_lat": 0.0, "type": "electric_scooter", "name": "84e04b5b6525cd2aef12a3f0b2d57d89", "fusion_lon": 0.0, "bike_id": "84e04b5b6525cd2aef12a3f0b2d57d89", "is_reserved": 0, "rental_uris": {"android": "https://dc.lft.to/lastmile_qr_scan", "ios": "https://dc.lft.to/lastmile_qr_scan"}, "lat": 38.91785733333333, "is_disabled": 0, "lon": -77.042826}, {"fusion_lat": 0.0, "type": "electric_scooter", "name": "6012c1f82526deabf3ae044b926a041f", "fusion_lon": 0.0, "bike_id": "6012c1f82526deabf3ae044b926a041f", "is_reserved": 0, "rental_uris": {"android": "https://dc.lft.to/lastmile_qr_scan", "ios": "https://dc.lft.to/lastmile_qr_scan"}, "lat": 38.893707666666664, "is_disabled": 0, "lon": -76.9499055}, {"fusion_lat": 0.0, "type": "electric_bike", "name": "97331c3a10ec0c74ef8aa417334d8a07", "fusion_lon": 0.0, "bike_id": "97331c3a10ec0c74ef8aa417334d8a07", "is_reserved": 0, "rental_uris": {"android": "https://dc.lft.to/lastmile_qr_scan", "ios": "https://dc.lft.to/lastmile_qr_scan"}, "lat": 38.85210516666667, "is_disabled": 0, "lon": -77.1012965}, {"fusion_lat": 0.0, "type": "electric_scooter", "name": "8bdb081b0b5e9afbed1d6e5fe60221fa", "fusion_lon": 0.0, "bike_id": "8bdb081b0b5e9afbed1d6e5fe60221fa", "is_reserved": 0, "rental_uris": {"android": "https://dc.lft.to/lastmile_qr_scan", "ios": "https://dc.lft.to/lastmile_qr_scan"}, "lat": 38.916849166666665, "is_disabled": 0, "lon": -77.029738}, {"fusion_lat": 0.0, "type": "electric_scooter", "name": "653ed844d796116224ed2b99c2f1a6e2", "fusion_lon": 0.0, "bike_id": "653ed844d796116224ed2b99c2f1a6e2", "is_reserved": 0, "rental_uris": {"android": "https://dc.lft.to/lastmile_qr_scan", "ios": "https://dc.lft.to/lastmile_qr_scan"}, "lat": 38.906592, "is_disabled": 0, "lon": -77.038711}, {"fusion_lat": 0.0, "type": "electric_scooter", "name": "1be11237d313ed287b7830074f1201bb", "fusion_lon": 0.0, "bike_id": "1be11237d313ed287b7830074f1201bb", "is_reserved": 0, "rental_uris": {"android": "https://dc.lft.to/lastmile_qr_scan", "ios": "https://dc.lft.to/lastmile_qr_scan"}, "lat": 38.904803666666666, "is_disabled": 0, "lon": -77.03560133333333}, {"fusion_lat": 0.0, "type": "electric_scooter", "name": "9e118c25ce82005daf3508eca9d924a5", "fusion_lon": 0.0, "bike_id": "9e118c25ce82005daf3508eca9d924a5", "is_reserved": 0, "rental_uris": {"android": "https://dc.lft.to/lastmile_qr_scan", "ios": "https://dc.lft.to/lastmile_qr_scan"}, "lat": 38.9214495, "is_disabled": 0, "lon": -77.0180575}, {"fusion_lat": 0.0, "type": "electric_scooter", "name": "d348b25a4b7a4d92782eb54aba35115b", "fusion_lon": 0.0, "bike_id": "d348b25a4b7a4d92782eb54aba35115b", "is_reserved": 0, "rental_uris": {"android": "https://dc.lft.to/lastmile_qr_scan", "ios": "https://dc.lft.to/lastmile_qr_scan"}, "lat": 38.901649666666664, "is_disabled": 0, "lon": -77.03178866666667}, {"fusion_lat": 0.0, "type": "electric_scooter", "name": "28b7bdfdefd5a1b093a3823242c66f99", "fusion_lon": 0.0, "bike_id": "28b7bdfdefd5a1b093a3823242c66f99", "is_reserved": 0, "rental_uris": {"android": "https://dc.lft.to/lastmile_qr_scan", "ios": "https://dc.lft.to/lastmile_qr_scan"}, "lat": 38.892394833333334, "is_disabled": 0, "lon": -77.04160533333334}, {"fusion_lat": 0.0, "type": "electric_bike", "name": "7bb01dafa1d18cf4cc00a37793559704", "fusion_lon": 0.0, "bike_id": "7bb01dafa1d18cf4cc00a37793559704", "is_reserved": 0, "rental_uris": {"android": "https://dc.lft.to/lastmile_qr_scan", "ios": "https://dc.lft.to/lastmile_qr_scan"}, "lat": 38.853750833333336, "is_disabled": 0, "lon": -77.12466833333333}, {"fusion_lat": 0.0, "type": "electric_bike", "name": "3a453fbc52cb41e10d0259dade22196a", "fusion_lon": 0.0, "bike_id": "3a453fbc52cb41e10d0259dade22196a", "is_reserved": 0, "rental_uris": {"android": "https://dc.lft.to/lastmile_qr_scan", "ios": "https://dc.lft.to/lastmile_qr_scan"}, "lat": 38.87302183333333, "is_disabled": 0, "lon": -77.13922766666667}, {"fusion_lat": 0.0, "type": "electric_scooter", "name": "3159fe7eba8775ec8d8827c70a62d925", "fusion_lon": 0.0, "bike_id": "3159fe7eba8775ec8d8827c70a62d925", "is_reserved": 0, "rental_uris": {"android": "https://dc.lft.to/lastmile_qr_scan", "ios": "https://dc.lft.to/lastmile_qr_scan"}, "lat": 38.897252333333334, "is_disabled": 0, "lon": -77.027357}, {"fusion_lat": 0.0, "type": "electric_scooter", "name": "548150135c8e4b82abeb01caced85f44", "fusion_lon": 0.0, "bike_id": "548150135c8e4b82abeb01caced85f44", "is_reserved": 0, "rental_uris": {"android": "https://dc.lft.to/lastmile_qr_scan", "ios": "https://dc.lft.to/lastmile_qr_scan"}, "lat": 38.892351833333336, "is_disabled": 0, "lon": -77.05002233333333}, {"fusion_lat": 0.0, "type": "electric_scooter", "name": "1d6bb8900213d06f4a8f02cdedee0ae0", "fusion_lon": 0.0, "bike_id": "1d6bb8900213d06f4a8f02cdedee0ae0", "is_reserved": 0, "rental_uris": {"android": "https://dc.lft.to/lastmile_qr_scan", "ios": "https://dc.lft.to/lastmile_qr_scan"}, "lat": 38.950223666666666, "is_disabled": 0, "lon": -77.06726716666667}, {"fusion_lat": 0.0, "type": "electric_scooter", "name": "349f2450a30dbd60e23c1c3c94fa6616", "fusion_lon": 0.0, "bike_id": "349f2450a30dbd60e23c1c3c94fa6616", "is_reserved": 0, "rental_uris": {"android": "https://dc.lft.to/lastmile_qr_scan", "ios": "https://dc.lft.to/lastmile_qr_scan"}, "lat": 38.9258785, "is_disabled": 0, "lon": -77.03641966666666}, {"fusion_lat": 0.0, "type": "electric_scooter", "name": "f0ccffdcda087cf33cf9c68a60f19e54", "fusion_lon": 0.0, "bike_id": "f0ccffdcda087cf33cf9c68a60f19e54", "is_reserved": 0, "rental_uris": {"android": "https://dc.lft.to/lastmile_qr_scan", "ios": "https://dc.lft.to/lastmile_qr_scan"}, "lat": 38.92051, "is_disabled": 0, "lon": -76.98943016666666}, {"fusion_lat": 0.0, "type": "electric_scooter", "name": "aab7b3380251d41f2b692d9817e4f67c", "fusion_lon": 0.0, "bike_id": "aab7b3380251d41f2b692d9817e4f67c", "is_reserved": 0, "rental_uris": {"android": "https://dc.lft.to/lastmile_qr_scan", "ios": "https://dc.lft.to/lastmile_qr_scan"}, "lat": 38.8812375, "is_disabled": 0, "lon": -76.9900785}, {"fusion_lat": 0.0, "type": "electric_scooter", "name": "613453fa246df5e787e594b573e10a8f", "fusion_lon": 0.0, "bike_id": "613453fa246df5e787e594b573e10a8f", "is_reserved": 0, "rental_uris": {"android": "https://dc.lft.to/lastmile_qr_scan", "ios": "https://dc.lft.to/lastmile_qr_scan"}, "lat": 38.90001383333333, "is_disabled": 0, "lon": -77.03950583333334}, {"fusion_lat": 0.0, "type": "electric_scooter", "name": "18dd3e45a811e4771e9de4a3485f9935", "fusion_lon": 0.0, "bike_id": "18dd3e45a811e4771e9de4a3485f9935", "is_reserved": 0, "rental_uris": {"android": "https://dc.lft.to/lastmile_qr_scan", "ios": "https://dc.lft.to/lastmile_qr_scan"}, "lat": 38.926838000000004, "is_disabled": 0, "lon": -77.0150015}, {"fusion_lat": 0.0, "type": "electric_bike", "name": "88748828ae00fc2829e509b0677efae4", "fusion_lon": 0.0, "bike_id": "88748828ae00fc2829e509b0677efae4", "is_reserved": 0, "rental_uris": {"android": "https://dc.lft.to/lastmile_qr_scan", "ios": "https://dc.lft.to/lastmile_qr_scan"}, "lat": 38.82952483333333, "is_disabled": 0, "lon": -77.12352066666666}, {"fusion_lat": 0.0, "type": "electric_scooter", "name": "04f9bfae5c6704733fd23e8501410b77", "fusion_lon": 0.0, "bike_id": "04f9bfae5c6704733fd23e8501410b77", "is_reserved": 0, "rental_uris": {"android": "https://dc.lft.to/lastmile_qr_scan", "ios": "https://dc.lft.to/lastmile_qr_scan"}, "lat": 38.91028283333333, "is_disabled": 0, "lon": -77.034464}, {"fusion_lat": 0.0, "type": "electric_scooter", "name": "0c900abb4e1f70af275ec2ef5bd25f2f", "fusion_lon": 0.0, "bike_id": "0c900abb4e1f70af275ec2ef5bd25f2f", "is_reserved": 0, "rental_uris": {"android": "https://dc.lft.to/lastmile_qr_scan", "ios": "https://dc.lft.to/lastmile_qr_scan"}, "lat": 38.923488, "is_disabled": 0, "lon": -77.0190745}, {"fusion_lat": 0.0, "type": "electric_scooter", "name": "aca68e6881d1e36d4b783f25d339b073", "fusion_lon": 0.0, "bike_id": "aca68e6881d1e36d4b783f25d339b073", "is_reserved": 0, "rental_uris": {"android": "https://dc.lft.to/lastmile_qr_scan", "ios": "https://dc.lft.to/lastmile_qr_scan"}, "lat": 38.920499, "is_disabled": 0, "lon": -77.0166075}, {"fusion_lat": 0.0, "type": "electric_scooter", "name": "69a1ceed31998dbff8c0c154578a1014", "fusion_lon": 0.0, "bike_id": "69a1ceed31998dbff8c0c154578a1014", "is_reserved": 0, "rental_uris": {"android": "https://dc.lft.to/lastmile_qr_scan", "ios": "https://dc.lft.to/lastmile_qr_scan"}, "lat": 38.91065966666667, "is_disabled": 0, "lon": -77.05312466666666}, {"fusion_lat": 0.0, "type": "electric_scooter", "name": "acf53ea1777f83f54f2e3e074fee8a99", "fusion_lon": 0.0, "bike_id": "acf53ea1777f83f54f2e3e074fee8a99", "is_reserved": 0, "rental_uris": {"android": "https://dc.lft.to/lastmile_qr_scan", "ios": "https://dc.lft.to/lastmile_qr_scan"}, "lat": 38.92751483333333, "is_disabled": 0, "lon": -77.02150316666666}, {"fusion_lat": 0.0, "type": "electric_scooter", "name": "68d6153057e3799f068221e0524165ef", "fusion_lon": 0.0, "bike_id": "68d6153057e3799f068221e0524165ef", "is_reserved": 0, "rental_uris": {"android": "https://dc.lft.to/lastmile_qr_scan", "ios": "https://dc.lft.to/lastmile_qr_scan"}, "lat": 38.9106535, "is_disabled": 0, "lon": -77.05472316666666}, {"fusion_lat": 0.0, "type": "electric_scooter", "name": "163ee1adb5d828e11aaf787beeaa52f1", "fusion_lon": 0.0, "bike_id": "163ee1adb5d828e11aaf787beeaa52f1", "is_reserved": 0, "rental_uris": {"android": "https://dc.lft.to/lastmile_qr_scan", "ios": "https://dc.lft.to/lastmile_qr_scan"}, "lat": 38.9027755, "is_disabled": 0, "lon": -77.03456116666666}, {"fusion_lat": 0.0, "type": "electric_scooter", "name": "a037988578535e5df9a0dee075d9d02c", "fusion_lon": 0.0, "bike_id": "a037988578535e5df9a0dee075d9d02c", "is_reserved": 0, "rental_uris": {"android": "https://dc.lft.to/lastmile_qr_scan", "ios": "https://dc.lft.to/lastmile_qr_scan"}, "lat": 38.9244365, "is_disabled": 0, "lon": -77.02150416666667}, {"fusion_lat": 0.0, "type": "electric_bike", "name": "b0e66e0bd27b4469e0b63bea23f974c6", "fusion_lon": 0.0, "bike_id": "b0e66e0bd27b4469e0b63bea23f974c6", "is_reserved": 0, "rental_uris": {"android": "https://dc.lft.to/lastmile_qr_scan", "ios": "https://dc.lft.to/lastmile_qr_scan"}, "lat": 38.999471666666665, "is_disabled": 0, "lon": -77.07434616666667}, {"fusion_lat": 0.0, "type": "electric_scooter", "name": "2d7ab53d0bb2f5776d8d0e6a53e152af", "fusion_lon": 0.0, "bike_id": "2d7ab53d0bb2f5776d8d0e6a53e152af", "is_reserved": 0, "rental_uris": {"android": "https://dc.lft.to/lastmile_qr_scan", "ios": "https://dc.lft.to/lastmile_qr_scan"}, "lat": 38.909382666666666, "is_disabled": 0, "lon": -77.04166366666666}, {"fusion_lat": 0.0, "type": "electric_scooter", "name": "4f24048eaca963837197baf7dc66d1dd", "fusion_lon": 0.0, "bike_id": "4f24048eaca963837197baf7dc66d1dd", "is_reserved": 0, "rental_uris": {"android": "https://dc.lft.to/lastmile_qr_scan", "ios": "https://dc.lft.to/lastmile_qr_scan"}, "lat": 38.92321283333333, "is_disabled": 0, "lon": -77.04418166666666}, {"fusion_lat": 0.0, "type": "electric_scooter", "name": "f233259f0f0da536ef470c107d221703", "fusion_lon": 0.0, "bike_id": "f233259f0f0da536ef470c107d221703", "is_reserved": 0, "rental_uris": {"android": "https://dc.lft.to/lastmile_qr_scan", "ios": "https://dc.lft.to/lastmile_qr_scan"}, "lat": 38.906082166666664, "is_disabled": 0, "lon": -77.040236}, {"fusion_lat": 0.0, "type": "electric_scooter", "name": "cfd2cb2100ec07db0d2d7f48a91bf9e1", "fusion_lon": 0.0, "bike_id": "cfd2cb2100ec07db0d2d7f48a91bf9e1", "is_reserved": 0, "rental_uris": {"android": "https://dc.lft.to/lastmile_qr_scan", "ios": "https://dc.lft.to/lastmile_qr_scan"}, "lat": 38.92110433333333, "is_disabled": 0, "lon": -77.02213233333333}, {"fusion_lat": 0.0, "type": "electric_scooter", "name": "31dc451058db0794ce7da60947f1eb56", "fusion_lon": 0.0, "bike_id": "31dc451058db0794ce7da60947f1eb56", "is_reserved": 0, "rental_uris": {"android": "https://dc.lft.to/lastmile_qr_scan", "ios": "https://dc.lft.to/lastmile_qr_scan"}, "lat": 38.92259383333333, "is_disabled": 0, "lon": -77.01954583333334}, {"fusion_lat": 0.0, "type": "electric_bike", "name": "c612c9512eae3dda41b857f233792a67", "fusion_lon": 0.0, "bike_id": "c612c9512eae3dda41b857f233792a67", "is_reserved": 0, "rental_uris": {"android": "https://dc.lft.to/lastmile_qr_scan", "ios": "https://dc.lft.to/lastmile_qr_scan"}, "lat": 38.807126333333336, "is_disabled": 0, "lon": -77.0617215}, {"fusion_lat": 0.0, "type": "electric_scooter", "name": "1f88cc96c46d71cf58389c5f4b8bf062", "fusion_lon": 0.0, "bike_id": "1f88cc96c46d71cf58389c5f4b8bf062", "is_reserved": 0, "rental_uris": {"android": "https://dc.lft.to/lastmile_qr_scan", "ios": "https://dc.lft.to/lastmile_qr_scan"}, "lat": 38.91743983333333, "is_disabled": 0, "lon": -77.03182733333334}, {"fusion_lat": 0.0, "type": "electric_scooter", "name": "1bc9014dc6a2780cf738a4d10ed265a9", "fusion_lon": 0.0, "bike_id": "1bc9014dc6a2780cf738a4d10ed265a9", "is_reserved": 0, "rental_uris": {"android": "https://dc.lft.to/lastmile_qr_scan", "ios": "https://dc.lft.to/lastmile_qr_scan"}, "lat": 38.90776066666667, "is_disabled": 0, "lon": -77.03206033333333}, {"fusion_lat": 0.0, "type": "electric_scooter", "name": "d67917c639ea493b00efbe022d51816f", "fusion_lon": 0.0, "bike_id": "d67917c639ea493b00efbe022d51816f", "is_reserved": 0, "rental_uris": {"android": "https://dc.lft.to/lastmile_qr_scan", "ios": "https://dc.lft.to/lastmile_qr_scan"}, "lat": 38.903967, "is_disabled": 0, "lon": -77.03482366666667}, {"fusion_lat": 0.0, "type": "electric_scooter", "name": "6773eafcd9dd5b7e99e0ef33887ec544", "fusion_lon": 0.0, "bike_id": "6773eafcd9dd5b7e99e0ef33887ec544", "is_reserved": 0, "rental_uris": {"android": "https://dc.lft.to/lastmile_qr_scan", "ios": "https://dc.lft.to/lastmile_qr_scan"}, "lat": 38.931715, "is_disabled": 0, "lon": -77.03416066666666}, {"fusion_lat": 0.0, "type": "electric_scooter", "name": "3b7391e3fbcd6912024c807f65446ec5", "fusion_lon": 0.0, "bike_id": "3b7391e3fbcd6912024c807f65446ec5", "is_reserved": 0, "rental_uris": {"android": "https://dc.lft.to/lastmile_qr_scan", "ios": "https://dc.lft.to/lastmile_qr_scan"}, "lat": 38.909657333333335, "is_disabled": 0, "lon": -77.04594166666666}, {"fusion_lat": 0.0, "type": "electric_scooter", "name": "5cff342ec79d541406f887124b88b043", "fusion_lon": 0.0, "bike_id": "5cff342ec79d541406f887124b88b043", "is_reserved": 0, "rental_uris": {"android": "https://dc.lft.to/lastmile_qr_scan", "ios": "https://dc.lft.to/lastmile_qr_scan"}, "lat": 38.892213166666664, "is_disabled": 0, "lon": -77.02218983333333}, {"fusion_lat": 0.0, "type": "electric_scooter", "name": "3ac8da540925ed323e6825196232240c", "fusion_lon": 0.0, "bike_id": "3ac8da540925ed323e6825196232240c", "is_reserved": 0, "rental_uris": {"android": "https://dc.lft.to/lastmile_qr_scan", "ios": "https://dc.lft.to/lastmile_qr_scan"}, "lat": 38.93102783333333, "is_disabled": 0, "lon": -77.03637633333334}, {"fusion_lat": 0.0, "type": "electric_scooter", "name": "d44016d3f9a53581164f7ccbfeaab799", "fusion_lon": 0.0, "bike_id": "d44016d3f9a53581164f7ccbfeaab799", "is_reserved": 0, "rental_uris": {"android": "https://dc.lft.to/lastmile_qr_scan", "ios": "https://dc.lft.to/lastmile_qr_scan"}, "lat": 38.8746945, "is_disabled": 0, "lon": -77.00512816666667}, {"fusion_lat": 0.0, "type": "electric_scooter", "name": "82257ea52c8a0a8c7601642acdb81f90", "fusion_lon": 0.0, "bike_id": "82257ea52c8a0a8c7601642acdb81f90", "is_reserved": 0, "rental_uris": {"android": "https://dc.lft.to/lastmile_qr_scan", "ios": "https://dc.lft.to/lastmile_qr_scan"}, "lat": 38.92180233333333, "is_disabled": 0, "lon": -77.04223733333333}, {"fusion_lat": 0.0, "type": "electric_scooter", "name": "173adcc341a5cd1a779a8077310d7184", "fusion_lon": 0.0, "bike_id": "173adcc341a5cd1a779a8077310d7184", "is_reserved": 0, "rental_uris": {"android": "https://dc.lft.to/lastmile_qr_scan", "ios": "https://dc.lft.to/lastmile_qr_scan"}, "lat": 38.863578833333335, "is_disabled": 0, "lon": -76.99067316666667}, {"fusion_lat": 0.0, "type": "electric_scooter", "name": "32867c6f10ae88951c182ae6d2973ffe", "fusion_lon": 0.0, "bike_id": "32867c6f10ae88951c182ae6d2973ffe", "is_reserved": 0, "rental_uris": {"android": "https://dc.lft.to/lastmile_qr_scan", "ios": "https://dc.lft.to/lastmile_qr_scan"}, "lat": 38.9031965, "is_disabled": 0, "lon": -77.04177716666666}, {"fusion_lat": 0.0, "type": "electric_bike", "name": "8f88a440cd36aa0d9e31b09a0599d4e7", "fusion_lon": 0.0, "bike_id": "8f88a440cd36aa0d9e31b09a0599d4e7", "is_reserved": 0, "rental_uris": {"android": "https://dc.lft.to/lastmile_qr_scan", "ios": "https://dc.lft.to/lastmile_qr_scan"}, "lat": 38.8551915, "is_disabled": 0, "lon": -76.9843505}, {"fusion_lat": 0.0, "type": "electric_scooter", "name": "d54f44947a13be96090e4f37e6996f51", "fusion_lon": 0.0, "bike_id": "d54f44947a13be96090e4f37e6996f51", "is_reserved": 0, "rental_uris": {"android": "https://dc.lft.to/lastmile_qr_scan", "ios": "https://dc.lft.to/lastmile_qr_scan"}, "lat": 38.901001666666666, "is_disabled": 0, "lon": -77.0253155}, {"fusion_lat": 0.0, "type": "electric_scooter", "name": "2393acd48bfc77b72b1e8a64f416d114", "fusion_lon": 0.0, "bike_id": "2393acd48bfc77b72b1e8a64f416d114", "is_reserved": 0, "rental_uris": {"android": "https://dc.lft.to/lastmile_qr_scan", "ios": "https://dc.lft.to/lastmile_qr_scan"}, "lat": 38.90393816666667, "is_disabled": 0, "lon": -77.03327966666667}, {"fusion_lat": 0.0, "type": "electric_scooter", "name": "7471f19583c6937baea0a38026b8bdbe", "fusion_lon": 0.0, "bike_id": "7471f19583c6937baea0a38026b8bdbe", "is_reserved": 0, "rental_uris": {"android": "https://dc.lft.to/lastmile_qr_scan", "ios": "https://dc.lft.to/lastmile_qr_scan"}, "lat": 38.90151083333333, "is_disabled": 0, "lon": -77.0435595}, {"fusion_lat": 0.0, "type": "electric_scooter", "name": "a0749b6783b4657b20e12d6b89f038f5", "fusion_lon": 0.0, "bike_id": "a0749b6783b4657b20e12d6b89f038f5", "is_reserved": 0, "rental_uris": {"android": "https://dc.lft.to/lastmile_qr_scan", "ios": "https://dc.lft.to/lastmile_qr_scan"}, "lat": 38.89907066666667, "is_disabled": 0, "lon": -77.0259755}, {"fusion_lat": 0.0, "type": "electric_scooter", "name": "e57359d01f769f2bc9b374325862842a", "fusion_lon": 0.0, "bike_id": "e57359d01f769f2bc9b374325862842a", "is_reserved": 0, "rental_uris": {"android": "https://dc.lft.to/lastmile_qr_scan", "ios": "https://dc.lft.to/lastmile_qr_scan"}, "lat": 38.90044433333333, "is_disabled": 0, "lon": -77.001939}, {"fusion_lat": 0.0, "type": "electric_scooter", "name": "1de882407dddd68b83fa3eb42b1132fb", "fusion_lon": 0.0, "bike_id": "1de882407dddd68b83fa3eb42b1132fb", "is_reserved": 0, "rental_uris": {"android": "https://dc.lft.to/lastmile_qr_scan", "ios": "https://dc.lft.to/lastmile_qr_scan"}, "lat": 38.892215666666665, "is_disabled": 0, "lon": -77.04377766666667}, {"fusion_lat": 0.0, "type": "electric_scooter", "name": "2d7ccc6123a1a2ec05a925c8193f795c", "fusion_lon": 0.0, "bike_id": "2d7ccc6123a1a2ec05a925c8193f795c", "is_reserved": 0, "rental_uris": {"android": "https://dc.lft.to/lastmile_qr_scan", "ios": "https://dc.lft.to/lastmile_qr_scan"}, "lat": 38.893132666666666, "is_disabled": 0, "lon": -76.95113783333333}, {"fusion_lat": 0.0, "type": "electric_scooter", "name": "5008cf6ff28c81c28d4b811a9d0c6b4b", "fusion_lon": 0.0, "bike_id": "5008cf6ff28c81c28d4b811a9d0c6b4b", "is_reserved": 0, "rental_uris": {"android": "https://dc.lft.to/lastmile_qr_scan", "ios": "https://dc.lft.to/lastmile_qr_scan"}, "lat": 38.903292, "is_disabled": 0, "lon": -77.03341766666667}, {"fusion_lat": 0.0, "type": "electric_scooter", "name": "c6b4daa65e34e47585eb186a7a72796e", "fusion_lon": 0.0, "bike_id": "c6b4daa65e34e47585eb186a7a72796e", "is_reserved": 0, "rental_uris": {"android": "https://dc.lft.to/lastmile_qr_scan", "ios": "https://dc.lft.to/lastmile_qr_scan"}, "lat": 38.9094175, "is_disabled": 0, "lon": -77.04435533333333}, {"fusion_lat": 0.0, "type": "electric_scooter", "name": "cf71441bbac03a057b4cb046971a8a3c", "fusion_lon": 0.0, "bike_id": "cf71441bbac03a057b4cb046971a8a3c", "is_reserved": 0, "rental_uris": {"android": "https://dc.lft.to/lastmile_qr_scan", "ios": "https://dc.lft.to/lastmile_qr_scan"}, "lat": 38.901445833333334, "is_disabled": 0, "lon": -77.04895966666666}, {"fusion_lat": 0.0, "type": "electric_scooter", "name": "b778bd5c0de6ea3865279f5a6bc21986", "fusion_lon": 0.0, "bike_id": "b778bd5c0de6ea3865279f5a6bc21986", "is_reserved": 0, "rental_uris": {"android": "https://dc.lft.to/lastmile_qr_scan", "ios": "https://dc.lft.to/lastmile_qr_scan"}, "lat": 38.91335983333333, "is_disabled": 0, "lon": -77.048181}, {"fusion_lat": 0.0, "type": "electric_scooter", "name": "31d7f3419c29d60da0a4e01a6db2dcd0", "fusion_lon": 0.0, "bike_id": "31d7f3419c29d60da0a4e01a6db2dcd0", "is_reserved": 0, "rental_uris": {"android": "https://dc.lft.to/lastmile_qr_scan", "ios": "https://dc.lft.to/lastmile_qr_scan"}, "lat": 38.89724316666667, "is_disabled": 0, "lon": -77.02662383333333}, {"fusion_lat": 0.0, "type": "electric_scooter", "name": "a35d8adeab3b6968821ec3cb98b40dfe", "fusion_lon": 0.0, "bike_id": "a35d8adeab3b6968821ec3cb98b40dfe", "is_reserved": 0, "rental_uris": {"android": "https://dc.lft.to/lastmile_qr_scan", "ios": "https://dc.lft.to/lastmile_qr_scan"}, "lat": 38.914080166666665, "is_disabled": 0, "lon": -77.03223416666667}, {"fusion_lat": 0.0, "type": "electric_scooter", "name": "9415b13300b95327faafa1fec48ece6a", "fusion_lon": 0.0, "bike_id": "9415b13300b95327faafa1fec48ece6a", "is_reserved": 0, "rental_uris": {"android": "https://dc.lft.to/lastmile_qr_scan", "ios": "https://dc.lft.to/lastmile_qr_scan"}, "lat": 38.91119316666666, "is_disabled": 0, "lon": -77.04361766666666}, {"fusion_lat": 0.0, "type": "electric_scooter", "name": "6309fbe668321d033a29bad485a0b329", "fusion_lon": 0.0, "bike_id": "6309fbe668321d033a29bad485a0b329", "is_reserved": 0, "rental_uris": {"android": "https://dc.lft.to/lastmile_qr_scan", "ios": "https://dc.lft.to/lastmile_qr_scan"}, "lat": 38.89224433333333, "is_disabled": 0, "lon": -77.0316195}, {"fusion_lat": 0.0, "type": "electric_scooter", "name": "88ca24550e6bf9e86a5f65fa1142dc28", "fusion_lon": 0.0, "bike_id": "88ca24550e6bf9e86a5f65fa1142dc28", "is_reserved": 0, "rental_uris": {"android": "https://dc.lft.to/lastmile_qr_scan", "ios": "https://dc.lft.to/lastmile_qr_scan"}, "lat": 38.916794, "is_disabled": 0, "lon": -77.03208416666666}, {"fusion_lat": 0.0, "type": "electric_scooter", "name": "672beb4a1b2fb04f934ae8515b31c758", "fusion_lon": 0.0, "bike_id": "672beb4a1b2fb04f934ae8515b31c758", "is_reserved": 0, "rental_uris": {"android": "https://dc.lft.to/lastmile_qr_scan", "ios": "https://dc.lft.to/lastmile_qr_scan"}, "lat": 38.896193, "is_disabled": 0, "lon": -76.99297033333333}, {"fusion_lat": 0.0, "type": "electric_scooter", "name": "7081b15b99746abd93845c307f26f70e", "fusion_lon": 0.0, "bike_id": "7081b15b99746abd93845c307f26f70e", "is_reserved": 0, "rental_uris": {"android": "https://dc.lft.to/lastmile_qr_scan", "ios": "https://dc.lft.to/lastmile_qr_scan"}, "lat": 38.94530316666667, "is_disabled": 0, "lon": -77.02090216666667}, {"fusion_lat": 0.0, "type": "electric_scooter", "name": "3a8d62a9b5d06370e4a052af272f97a0", "fusion_lon": 0.0, "bike_id": "3a8d62a9b5d06370e4a052af272f97a0", "is_reserved": 0, "rental_uris": {"android": "https://dc.lft.to/lastmile_qr_scan", "ios": "https://dc.lft.to/lastmile_qr_scan"}, "lat": 38.88423866666667, "is_disabled": 0, "lon": -77.03056}, {"fusion_lat": 0.0, "type": "electric_scooter", "name": "32302b01fbce05f0c0cb8e648d82b7bc", "fusion_lon": 0.0, "bike_id": "32302b01fbce05f0c0cb8e648d82b7bc", "is_reserved": 0, "rental_uris": {"android": "https://dc.lft.to/lastmile_qr_scan", "ios": "https://dc.lft.to/lastmile_qr_scan"}, "lat": 38.952479, "is_disabled": 0, "lon": -77.0021405}, {"fusion_lat": 0.0, "type": "electric_scooter", "name": "0b472a8ddd9d5cb8d034511359de60af", "fusion_lon": 0.0, "bike_id": "0b472a8ddd9d5cb8d034511359de60af", "is_reserved": 0, "rental_uris": {"android": "https://dc.lft.to/lastmile_qr_scan", "ios": "https://dc.lft.to/lastmile_qr_scan"}, "lat": 38.91987483333333, "is_disabled": 0, "lon": -76.973003}, {"fusion_lat": 0.0, "type": "electric_scooter", "name": "f5649556f521f1319cb8292b8ce25b1f", "fusion_lon": 0.0, "bike_id": "f5649556f521f1319cb8292b8ce25b1f", "is_reserved": 0, "rental_uris": {"android": "https://dc.lft.to/lastmile_qr_scan", "ios": "https://dc.lft.to/lastmile_qr_scan"}, "lat": 38.91764283333333, "is_disabled": 0, "lon": -77.03135433333334}, {"fusion_lat": 0.0, "type": "electric_scooter", "name": "4d833df3987dfaed511d760ab094f4d1", "fusion_lon": 0.0, "bike_id": "4d833df3987dfaed511d760ab094f4d1", "is_reserved": 0, "rental_uris": {"android": "https://dc.lft.to/lastmile_qr_scan", "ios": "https://dc.lft.to/lastmile_qr_scan"}, "lat": 38.889912333333335, "is_disabled": 0, "lon": -76.931075}, {"fusion_lat": 0.0, "type": "electric_scooter", "name": "f5c50cd2ca117ff2ef06699476965c46", "fusion_lon": 0.0, "bike_id": "f5c50cd2ca117ff2ef06699476965c46", "is_reserved": 0, "rental_uris": {"android": "https://dc.lft.to/lastmile_qr_scan", "ios": "https://dc.lft.to/lastmile_qr_scan"}, "lat": 38.89430616666667, "is_disabled": 0, "lon": -77.020912}, {"fusion_lat": 0.0, "type": "electric_scooter", "name": "0c17c440f024acb3765eb7bb4cb41138", "fusion_lon": 0.0, "bike_id": "0c17c440f024acb3765eb7bb4cb41138", "is_reserved": 0, "rental_uris": {"android": "https://dc.lft.to/lastmile_qr_scan", "ios": "https://dc.lft.to/lastmile_qr_scan"}, "lat": 38.984638, "is_disabled": 0, "lon": -77.02682866666666}, {"fusion_lat": 0.0, "type": "electric_scooter", "name": "b735919b090f2150ecc4403df3573b71", "fusion_lon": 0.0, "bike_id": "b735919b090f2150ecc4403df3573b71", "is_reserved": 0, "rental_uris": {"android": "https://dc.lft.to/lastmile_qr_scan", "ios": "https://dc.lft.to/lastmile_qr_scan"}, "lat": 38.8793045, "is_disabled": 0, "lon": -77.02378233333333}, {"fusion_lat": 0.0, "type": "electric_bike", "name": "d0addae6df582d873a290a0140f3544a", "fusion_lon": 0.0, "bike_id": "d0addae6df582d873a290a0140f3544a", "is_reserved": 0, "rental_uris": {"android": "https://dc.lft.to/lastmile_qr_scan", "ios": "https://dc.lft.to/lastmile_qr_scan"}, "lat": 38.81914183333333, "is_disabled": 0, "lon": -76.999084}, {"fusion_lat": 0.0, "type": "electric_scooter", "name": "463baeb7bf32f8584e16137a6978f424", "fusion_lon": 0.0, "bike_id": "463baeb7bf32f8584e16137a6978f424", "is_reserved": 0, "rental_uris": {"android": "https://dc.lft.to/lastmile_qr_scan", "ios": "https://dc.lft.to/lastmile_qr_scan"}, "lat": 38.90839883333334, "is_disabled": 0, "lon": -77.02694383333333}, {"fusion_lat": 0.0, "type": "electric_scooter", "name": "fbccefe24d29de4247539fdcb844b883", "fusion_lon": 0.0, "bike_id": "fbccefe24d29de4247539fdcb844b883", "is_reserved": 0, "rental_uris": {"android": "https://dc.lft.to/lastmile_qr_scan", "ios": "https://dc.lft.to/lastmile_qr_scan"}, "lat": 38.8985005, "is_disabled": 0, "lon": -77.02867633333334}, {"fusion_lat": 0.0, "type": "electric_scooter", "name": "bc6dfc6377364ee36800e8851293278e", "fusion_lon": 0.0, "bike_id": "bc6dfc6377364ee36800e8851293278e", "is_reserved": 0, "rental_uris": {"android": "https://dc.lft.to/lastmile_qr_scan", "ios": "https://dc.lft.to/lastmile_qr_scan"}, "lat": 38.90767533333333, "is_disabled": 0, "lon": -77.03744716666667}, {"fusion_lat": 0.0, "type": "electric_scooter", "name": "b551561d7c297b976f10d062245261f2", "fusion_lon": 0.0, "bike_id": "b551561d7c297b976f10d062245261f2", "is_reserved": 0, "rental_uris": {"android": "https://dc.lft.to/lastmile_qr_scan", "ios": "https://dc.lft.to/lastmile_qr_scan"}, "lat": 38.91809583333333, "is_disabled": 0, "lon": -77.03149783333333}, {"fusion_lat": 0.0, "type": "electric_scooter", "name": "25bbd525cd19ae871b4b7205a3c5430d", "fusion_lon": 0.0, "bike_id": "25bbd525cd19ae871b4b7205a3c5430d", "is_reserved": 0, "rental_uris": {"android": "https://dc.lft.to/lastmile_qr_scan", "ios": "https://dc.lft.to/lastmile_qr_scan"}, "lat": 38.89242683333333, "is_disabled": 0, "lon": -77.0318095}, {"fusion_lat": 0.0, "type": "electric_scooter", "name": "fb1fa21505f0d249b33d0ba2d8d41dc2", "fusion_lon": 0.0, "bike_id": "fb1fa21505f0d249b33d0ba2d8d41dc2", "is_reserved": 0, "rental_uris": {"android": "https://dc.lft.to/lastmile_qr_scan", "ios": "https://dc.lft.to/lastmile_qr_scan"}, "lat": 38.89725116666666, "is_disabled": 0, "lon": -77.0435795}, {"fusion_lat": 0.0, "type": "electric_scooter", "name": "195c3dd429863e9e51cab76c67064e88", "fusion_lon": 0.0, "bike_id": "195c3dd429863e9e51cab76c67064e88", "is_reserved": 0, "rental_uris": {"android": "https://dc.lft.to/lastmile_qr_scan", "ios": "https://dc.lft.to/lastmile_qr_scan"}, "lat": 38.870091333333335, "is_disabled": 0, "lon": -76.980845}, {"fusion_lat": 0.0, "type": "electric_scooter", "name": "1af0d43e0904b1e6fa53fcf70d079982", "fusion_lon": 0.0, "bike_id": "1af0d43e0904b1e6fa53fcf70d079982", "is_reserved": 0, "rental_uris": {"android": "https://dc.lft.to/lastmile_qr_scan", "ios": "https://dc.lft.to/lastmile_qr_scan"}, "lat": 38.919774833333335, "is_disabled": 0, "lon": -77.04151916666666}, {"fusion_lat": 0.0, "type": "electric_scooter", "name": "3ea77a9461f0419c6e93ca978465cf78", "fusion_lon": 0.0, "bike_id": "3ea77a9461f0419c6e93ca978465cf78", "is_reserved": 0, "rental_uris": {"android": "https://dc.lft.to/lastmile_qr_scan", "ios": "https://dc.lft.to/lastmile_qr_scan"}, "lat": 38.89223616666666, "is_disabled": 0, "lon": -77.0321735}, {"fusion_lat": 0.0, "type": "electric_scooter", "name": "f92e856648a536d53732e4e76011508d", "fusion_lon": 0.0, "bike_id": "f92e856648a536d53732e4e76011508d", "is_reserved": 0, "rental_uris": {"android": "https://dc.lft.to/lastmile_qr_scan", "ios": "https://dc.lft.to/lastmile_qr_scan"}, "lat": 38.882895500000004, "is_disabled": 0, "lon": -77.00638466666666}, {"fusion_lat": 0.0, "type": "electric_scooter", "name": "d012f888d8871723c1850be272501621", "fusion_lon": 0.0, "bike_id": "d012f888d8871723c1850be272501621", "is_reserved": 0, "rental_uris": {"android": "https://dc.lft.to/lastmile_qr_scan", "ios": "https://dc.lft.to/lastmile_qr_scan"}, "lat": 38.89239933333333, "is_disabled": 0, "lon": -77.03210683333333}, {"fusion_lat": 0.0, "type": "electric_scooter", "name": "45c6462f288ae0d72f0d3e8fe3754508", "fusion_lon": 0.0, "bike_id": "45c6462f288ae0d72f0d3e8fe3754508", "is_reserved": 0, "rental_uris": {"android": "https://dc.lft.to/lastmile_qr_scan", "ios": "https://dc.lft.to/lastmile_qr_scan"}, "lat": 38.923620666666665, "is_disabled": 0, "lon": -77.0730285}, {"fusion_lat": 0.0, "type": "electric_scooter", "name": "d4f3feec265c50e009f5ea0e274c1496", "fusion_lon": 0.0, "bike_id": "d4f3feec265c50e009f5ea0e274c1496", "is_reserved": 0, "rental_uris": {"android": "https://dc.lft.to/lastmile_qr_scan", "ios": "https://dc.lft.to/lastmile_qr_scan"}, "lat": 38.9295295, "is_disabled": 0, "lon": -77.01642433333333}, {"fusion_lat": 0.0, "type": "electric_scooter", "name": "d53216eed88f35c1474a80345e1dc924", "fusion_lon": 0.0, "bike_id": "d53216eed88f35c1474a80345e1dc924", "is_reserved": 0, "rental_uris": {"android": "https://dc.lft.to/lastmile_qr_scan", "ios": "https://dc.lft.to/lastmile_qr_scan"}, "lat": 38.903207, "is_disabled": 0, "lon": -77.0385555}, {"fusion_lat": 0.0, "type": "electric_scooter", "name": "b84778eec2a1ea7b203e4bc090fb5605", "fusion_lon": 0.0, "bike_id": "b84778eec2a1ea7b203e4bc090fb5605", "is_reserved": 0, "rental_uris": {"android": "https://dc.lft.to/lastmile_qr_scan", "ios": "https://dc.lft.to/lastmile_qr_scan"}, "lat": 38.95735216666667, "is_disabled": 0, "lon": -77.02403333333334}, {"fusion_lat": 0.0, "type": "electric_scooter", "name": "692b261764b19f5e926042d7ca608814", "fusion_lon": 0.0, "bike_id": "692b261764b19f5e926042d7ca608814", "is_reserved": 0, "rental_uris": {"android": "https://dc.lft.to/lastmile_qr_scan", "ios": "https://dc.lft.to/lastmile_qr_scan"}, "lat": 38.9370315, "is_disabled": 0, "lon": -77.02396316666666}, {"fusion_lat": 0.0, "type": "electric_bike", "name": "0fc844449102a672102db8c757f13b3b", "fusion_lon": 0.0, "bike_id": "0fc844449102a672102db8c757f13b3b", "is_reserved": 0, "rental_uris": {"android": "https://dc.lft.to/lastmile_qr_scan", "ios": "https://dc.lft.to/lastmile_qr_scan"}, "lat": 38.922493833333334, "is_disabled": 0, "lon": -77.03076283333333}, {"fusion_lat": 0.0, "type": "electric_scooter", "name": "b46190a9c30856d0bdbde53865a32191", "fusion_lon": 0.0, "bike_id": "b46190a9c30856d0bdbde53865a32191", "is_reserved": 0, "rental_uris": {"android": "https://dc.lft.to/lastmile_qr_scan", "ios": "https://dc.lft.to/lastmile_qr_scan"}, "lat": 38.92285316666667, "is_disabled": 0, "lon": -77.0340585}, {"fusion_lat": 0.0, "type": "electric_scooter", "name": "811044a737529f70a76e4c9c7bacc35e", "fusion_lon": 0.0, "bike_id": "811044a737529f70a76e4c9c7bacc35e", "is_reserved": 0, "rental_uris": {"android": "https://dc.lft.to/lastmile_qr_scan", "ios": "https://dc.lft.to/lastmile_qr_scan"}, "lat": 38.93188383333333, "is_disabled": 0, "lon": -77.036575}, {"fusion_lat": 0.0, "type": "electric_scooter", "name": "e5459b305e842be56782b3efa76a1960", "fusion_lon": 0.0, "bike_id": "e5459b305e842be56782b3efa76a1960", "is_reserved": 0, "rental_uris": {"android": "https://dc.lft.to/lastmile_qr_scan", "ios": "https://dc.lft.to/lastmile_qr_scan"}, "lat": 38.9108155, "is_disabled": 0, "lon": -77.03470983333334}, {"fusion_lat": 0.0, "type": "electric_scooter", "name": "02445b395e24cbbb8604ae912053f81c", "fusion_lon": 0.0, "bike_id": "02445b395e24cbbb8604ae912053f81c", "is_reserved": 0, "rental_uris": {"android": "https://dc.lft.to/lastmile_qr_scan", "ios": "https://dc.lft.to/lastmile_qr_scan"}, "lat": 38.88725216666667, "is_disabled": 0, "lon": -77.02195933333333}, {"fusion_lat": 0.0, "type": "electric_scooter", "name": "9c8b146bb3d0268bce2043c40ddb946a", "fusion_lon": 0.0, "bike_id": "9c8b146bb3d0268bce2043c40ddb946a", "is_reserved": 0, "rental_uris": {"android": "https://dc.lft.to/lastmile_qr_scan", "ios": "https://dc.lft.to/lastmile_qr_scan"}, "lat": 38.893555666666664, "is_disabled": 0, "lon": -77.00335683333333}, {"fusion_lat": 0.0, "type": "electric_scooter", "name": "faaa370df63becfdf16e2cfaec6f7ccf", "fusion_lon": 0.0, "bike_id": "faaa370df63becfdf16e2cfaec6f7ccf", "is_reserved": 0, "rental_uris": {"android": "https://dc.lft.to/lastmile_qr_scan", "ios": "https://dc.lft.to/lastmile_qr_scan"}, "lat": 38.887393, "is_disabled": 0, "lon": -77.02736916666667}, {"fusion_lat": 0.0, "type": "electric_scooter", "name": "f5a6dce77e2ac6b0815f5562095d89ad", "fusion_lon": 0.0, "bike_id": "f5a6dce77e2ac6b0815f5562095d89ad", "is_reserved": 0, "rental_uris": {"android": "https://dc.lft.to/lastmile_qr_scan", "ios": "https://dc.lft.to/lastmile_qr_scan"}, "lat": 38.90275033333333, "is_disabled": 0, "lon": -77.05917083333334}, {"fusion_lat": 0.0, "type": "electric_scooter", "name": "f6f52677ad12f10a6f1470c7e8717193", "fusion_lon": 0.0, "bike_id": "f6f52677ad12f10a6f1470c7e8717193", "is_reserved": 0, "rental_uris": {"android": "https://dc.lft.to/lastmile_qr_scan", "ios": "https://dc.lft.to/lastmile_qr_scan"}, "lat": 38.920489833333335, "is_disabled": 0, "lon": -77.02373266666666}, {"fusion_lat": 0.0, "type": "electric_scooter", "name": "88026c73f6c13fa3652cef9547e1c267", "fusion_lon": 0.0, "bike_id": "88026c73f6c13fa3652cef9547e1c267", "is_reserved": 0, "rental_uris": {"android": "https://dc.lft.to/lastmile_qr_scan", "ios": "https://dc.lft.to/lastmile_qr_scan"}, "lat": 38.925778333333334, "is_disabled": 0, "lon": -77.026121}, {"fusion_lat": 0.0, "type": "electric_scooter", "name": "e94e40d583b642cfc25edf1e1b18054c", "fusion_lon": 0.0, "bike_id": "e94e40d583b642cfc25edf1e1b18054c", "is_reserved": 0, "rental_uris": {"android": "https://dc.lft.to/lastmile_qr_scan", "ios": "https://dc.lft.to/lastmile_qr_scan"}, "lat": 38.908689833333334, "is_disabled": 0, "lon": -77.04351783333334}, {"fusion_lat": 0.0, "type": "electric_scooter", "name": "12954b22576b477005af50e0af273aa8", "fusion_lon": 0.0, "bike_id": "12954b22576b477005af50e0af273aa8", "is_reserved": 0, "rental_uris": {"android": "https://dc.lft.to/lastmile_qr_scan", "ios": "https://dc.lft.to/lastmile_qr_scan"}, "lat": 38.86509, "is_disabled": 0, "lon": -76.990008}, {"fusion_lat": 0.0, "type": "electric_scooter", "name": "a887728260caa364919fdc2d42d3b6a0", "fusion_lon": 0.0, "bike_id": "a887728260caa364919fdc2d42d3b6a0", "is_reserved": 0, "rental_uris": {"android": "https://dc.lft.to/lastmile_qr_scan", "ios": "https://dc.lft.to/lastmile_qr_scan"}, "lat": 38.90888116666667, "is_disabled": 0, "lon": -76.98539533333333}, {"fusion_lat": 0.0, "type": "electric_scooter", "name": "b07a997453a95cf3a32313818d494085", "fusion_lon": 0.0, "bike_id": "b07a997453a95cf3a32313818d494085", "is_reserved": 0, "rental_uris": {"android": "https://dc.lft.to/lastmile_qr_scan", "ios": "https://dc.lft.to/lastmile_qr_scan"}, "lat": 38.929815, "is_disabled": 0, "lon": -77.03659633333334}, {"fusion_lat": 0.0, "type": "electric_scooter", "name": "8bd6b8b7bf50accefcd83f8817b7cf31", "fusion_lon": 0.0, "bike_id": "8bd6b8b7bf50accefcd83f8817b7cf31", "is_reserved": 0, "rental_uris": {"android": "https://dc.lft.to/lastmile_qr_scan", "ios": "https://dc.lft.to/lastmile_qr_scan"}, "lat": 38.89230083333333, "is_disabled": 0, "lon": -77.03139783333333}, {"fusion_lat": 0.0, "type": "electric_scooter", "name": "034e403f5040563ccc2edda7f6697806", "fusion_lon": 0.0, "bike_id": "034e403f5040563ccc2edda7f6697806", "is_reserved": 0, "rental_uris": {"android": "https://dc.lft.to/lastmile_qr_scan", "ios": "https://dc.lft.to/lastmile_qr_scan"}, "lat": 38.88683016666667, "is_disabled": 0, "lon": -76.95467516666666}, {"fusion_lat": 0.0, "type": "electric_scooter", "name": "6a2948ab5b36244ecea1298440ec2250", "fusion_lon": 0.0, "bike_id": "6a2948ab5b36244ecea1298440ec2250", "is_reserved": 0, "rental_uris": {"android": "https://dc.lft.to/lastmile_qr_scan", "ios": "https://dc.lft.to/lastmile_qr_scan"}, "lat": 38.907260666666666, "is_disabled": 0, "lon": -77.04235516666667}, {"fusion_lat": 0.0, "type": "electric_scooter", "name": "92c3106441f69aac46a3a426957718b5", "fusion_lon": 0.0, "bike_id": "92c3106441f69aac46a3a426957718b5", "is_reserved": 0, "rental_uris": {"android": "https://dc.lft.to/lastmile_qr_scan", "ios": "https://dc.lft.to/lastmile_qr_scan"}, "lat": 38.89178483333333, "is_disabled": 0, "lon": -77.015665}, {"fusion_lat": 0.0, "type": "electric_scooter", "name": "d1cf3729149cd01b85ba3b1c2362a7a7", "fusion_lon": 0.0, "bike_id": "d1cf3729149cd01b85ba3b1c2362a7a7", "is_reserved": 0, "rental_uris": {"android": "https://dc.lft.to/lastmile_qr_scan", "ios": "https://dc.lft.to/lastmile_qr_scan"}, "lat": 38.88265716666667, "is_disabled": 0, "lon": -76.9901335}, {"fusion_lat": 0.0, "type": "electric_scooter", "name": "4bc239c8b99ee40bbd5c46e119cec049", "fusion_lon": 0.0, "bike_id": "4bc239c8b99ee40bbd5c46e119cec049", "is_reserved": 0, "rental_uris": {"android": "https://dc.lft.to/lastmile_qr_scan", "ios": "https://dc.lft.to/lastmile_qr_scan"}, "lat": 38.92843116666667, "is_disabled": 0, "lon": -77.03252433333333}, {"fusion_lat": 0.0, "type": "electric_scooter", "name": "a06f2623334e1eed53e714814e4c3afe", "fusion_lon": 0.0, "bike_id": "a06f2623334e1eed53e714814e4c3afe", "is_reserved": 0, "rental_uris": {"android": "https://dc.lft.to/lastmile_qr_scan", "ios": "https://dc.lft.to/lastmile_qr_scan"}, "lat": 38.895039833333335, "is_disabled": 0, "lon": -76.93472083333333}, {"fusion_lat": 0.0, "type": "electric_bike", "name": "00c0748523580fcfd0e3dc331d27abd4", "fusion_lon": 0.0, "bike_id": "00c0748523580fcfd0e3dc331d27abd4", "is_reserved": 0, "rental_uris": {"android": "https://dc.lft.to/lastmile_qr_scan", "ios": "https://dc.lft.to/lastmile_qr_scan"}, "lat": 39.056366833333335, "is_disabled": 0, "lon": -77.12528133333333}, {"fusion_lat": 0.0, "type": "electric_scooter", "name": "f3663580ccd939fc8225da42a212cb78", "fusion_lon": 0.0, "bike_id": "f3663580ccd939fc8225da42a212cb78", "is_reserved": 0, "rental_uris": {"android": "https://dc.lft.to/lastmile_qr_scan", "ios": "https://dc.lft.to/lastmile_qr_scan"}, "lat": 38.918893833333335, "is_disabled": 0, "lon": -77.02982566666667}, {"fusion_lat": 0.0, "type": "electric_scooter", "name": "beeb39452b6e29db3da3cd34785a065e", "fusion_lon": 0.0, "bike_id": "beeb39452b6e29db3da3cd34785a065e", "is_reserved": 0, "rental_uris": {"android": "https://dc.lft.to/lastmile_qr_scan", "ios": "https://dc.lft.to/lastmile_qr_scan"}, "lat": 38.901424666666664, "is_disabled": 0, "lon": -77.04989633333334}, {"fusion_lat": 0.0, "type": "electric_scooter", "name": "09a37dc6034757adb8b2ed37bd5d2cee", "fusion_lon": 0.0, "bike_id": "09a37dc6034757adb8b2ed37bd5d2cee", "is_reserved": 0, "rental_uris": {"android": "https://dc.lft.to/lastmile_qr_scan", "ios": "https://dc.lft.to/lastmile_qr_scan"}, "lat": 38.9451425, "is_disabled": 0, "lon": -77.0744635}, {"fusion_lat": 0.0, "type": "electric_scooter", "name": "7d5492524661a165db39782f0ef2fb8b", "fusion_lon": 0.0, "bike_id": "7d5492524661a165db39782f0ef2fb8b", "is_reserved": 0, "rental_uris": {"android": "https://dc.lft.to/lastmile_qr_scan", "ios": "https://dc.lft.to/lastmile_qr_scan"}, "lat": 38.84312233333333, "is_disabled": 0, "lon": -76.99929566666667}, {"fusion_lat": 0.0, "type": "electric_scooter", "name": "9cc5af5c79bdb00cb68a92530601c35f", "fusion_lon": 0.0, "bike_id": "9cc5af5c79bdb00cb68a92530601c35f", "is_reserved": 0, "rental_uris": {"android": "https://dc.lft.to/lastmile_qr_scan", "ios": "https://dc.lft.to/lastmile_qr_scan"}, "lat": 38.90505666666667, "is_disabled": 0, "lon": -77.03879716666667}, {"fusion_lat": 0.0, "type": "electric_scooter", "name": "a17a28fbaed1eb6fccfcf7b1c0267777", "fusion_lon": 0.0, "bike_id": "a17a28fbaed1eb6fccfcf7b1c0267777", "is_reserved": 0, "rental_uris": {"android": "https://dc.lft.to/lastmile_qr_scan", "ios": "https://dc.lft.to/lastmile_qr_scan"}, "lat": 38.884795, "is_disabled": 0, "lon": -77.0237205}, {"fusion_lat": 0.0, "type": "electric_scooter", "name": "6d990f06cc1e3ffe53e4ac4ba1f5f81d", "fusion_lon": 0.0, "bike_id": "6d990f06cc1e3ffe53e4ac4ba1f5f81d", "is_reserved": 0, "rental_uris": {"android": "https://dc.lft.to/lastmile_qr_scan", "ios": "https://dc.lft.to/lastmile_qr_scan"}, "lat": 38.9242275, "is_disabled": 0, "lon": -77.01942233333334}, {"fusion_lat": 0.0, "type": "electric_scooter", "name": "878ebe78a92566b0a7f41296220ea95f", "fusion_lon": 0.0, "bike_id": "878ebe78a92566b0a7f41296220ea95f", "is_reserved": 0, "rental_uris": {"android": "https://dc.lft.to/lastmile_qr_scan", "ios": "https://dc.lft.to/lastmile_qr_scan"}, "lat": 38.90024016666667, "is_disabled": 0, "lon": -77.01863083333333}, {"fusion_lat": 0.0, "type": "electric_scooter", "name": "562e1e2b5a99caf736a58902c1bc31c5", "fusion_lon": 0.0, "bike_id": "562e1e2b5a99caf736a58902c1bc31c5", "is_reserved": 0, "rental_uris": {"android": "https://dc.lft.to/lastmile_qr_scan", "ios": "https://dc.lft.to/lastmile_qr_scan"}, "lat": 38.874793, "is_disabled": 0, "lon": -77.010709}, {"fusion_lat": 0.0, "type": "electric_scooter", "name": "6860ebca80f57f8718be16e701856618", "fusion_lon": 0.0, "bike_id": "6860ebca80f57f8718be16e701856618", "is_reserved": 0, "rental_uris": {"android": "https://dc.lft.to/lastmile_qr_scan", "ios": "https://dc.lft.to/lastmile_qr_scan"}, "lat": 38.91534133333333, "is_disabled": 0, "lon": -77.04602916666667}, {"fusion_lat": 0.0, "type": "electric_scooter", "name": "b534d63c2f388e88024ac487b09bf27e", "fusion_lon": 0.0, "bike_id": "b534d63c2f388e88024ac487b09bf27e", "is_reserved": 0, "rental_uris": {"android": "https://dc.lft.to/lastmile_qr_scan", "ios": "https://dc.lft.to/lastmile_qr_scan"}, "lat": 38.957124666666665, "is_disabled": 0, "lon": -77.00282483333334}, {"fusion_lat": 0.0, "type": "electric_scooter", "name": "17ab02a4fd9753c5e202879855031670", "fusion_lon": 0.0, "bike_id": "17ab02a4fd9753c5e202879855031670", "is_reserved": 0, "rental_uris": {"android": "https://dc.lft.to/lastmile_qr_scan", "ios": "https://dc.lft.to/lastmile_qr_scan"}, "lat": 38.898335333333335, "is_disabled": 0, "lon": -77.0331165}, {"fusion_lat": 0.0, "type": "electric_scooter", "name": "bf95b6e8ea64132e28679a4299ef61d5", "fusion_lon": 0.0, "bike_id": "bf95b6e8ea64132e28679a4299ef61d5", "is_reserved": 0, "rental_uris": {"android": "https://dc.lft.to/lastmile_qr_scan", "ios": "https://dc.lft.to/lastmile_qr_scan"}, "lat": 38.905071166666666, "is_disabled": 0, "lon": -77.04355566666666}, {"fusion_lat": 0.0, "type": "electric_scooter", "name": "cae5ee958ad4319b6d439a31edc65249", "fusion_lon": 0.0, "bike_id": "cae5ee958ad4319b6d439a31edc65249", "is_reserved": 0, "rental_uris": {"android": "https://dc.lft.to/lastmile_qr_scan", "ios": "https://dc.lft.to/lastmile_qr_scan"}, "lat": 38.892465333333334, "is_disabled": 0, "lon": -77.01726666666667}, {"fusion_lat": 0.0, "type": "electric_scooter", "name": "9d557ce4d738635b9ea07d2ab6a48c8a", "fusion_lon": 0.0, "bike_id": "9d557ce4d738635b9ea07d2ab6a48c8a", "is_reserved": 0, "rental_uris": {"android": "https://dc.lft.to/lastmile_qr_scan", "ios": "https://dc.lft.to/lastmile_qr_scan"}, "lat": 38.92476416666667, "is_disabled": 0, "lon": -77.02274066666666}, {"fusion_lat": 0.0, "type": "electric_scooter", "name": "7119e0efed0f7307a1f6d7f3d71a05b9", "fusion_lon": 0.0, "bike_id": "7119e0efed0f7307a1f6d7f3d71a05b9", "is_reserved": 0, "rental_uris": {"android": "https://dc.lft.to/lastmile_qr_scan", "ios": "https://dc.lft.to/lastmile_qr_scan"}, "lat": 38.9188085, "is_disabled": 0, "lon": -77.03765566666667}, {"fusion_lat": 0.0, "type": "electric_scooter", "name": "35436f46a1f0c35994ab7084a312610e", "fusion_lon": 0.0, "bike_id": "35436f46a1f0c35994ab7084a312610e", "is_reserved": 0, "rental_uris": {"android": "https://dc.lft.to/lastmile_qr_scan", "ios": "https://dc.lft.to/lastmile_qr_scan"}, "lat": 38.90365083333333, "is_disabled": 0, "lon": -77.043433}, {"fusion_lat": 0.0, "type": "electric_scooter", "name": "b08584e8a1fca0c09dafba6904557f0f", "fusion_lon": 0.0, "bike_id": "b08584e8a1fca0c09dafba6904557f0f", "is_reserved": 0, "rental_uris": {"android": "https://dc.lft.to/lastmile_qr_scan", "ios": "https://dc.lft.to/lastmile_qr_scan"}, "lat": 38.876905, "is_disabled": 0, "lon": -77.00428166666667}, {"fusion_lat": 0.0, "type": "electric_scooter", "name": "c0b3907ea30ef4a57fc5e6775e3a6a5b", "fusion_lon": 0.0, "bike_id": "c0b3907ea30ef4a57fc5e6775e3a6a5b", "is_reserved": 0, "rental_uris": {"android": "https://dc.lft.to/lastmile_qr_scan", "ios": "https://dc.lft.to/lastmile_qr_scan"}, "lat": 38.89373033333333, "is_disabled": 0, "lon": -77.0478335}, {"fusion_lat": 0.0, "type": "electric_scooter", "name": "459ce2d19cb211efe7e979c26c93de88", "fusion_lon": 0.0, "bike_id": "459ce2d19cb211efe7e979c26c93de88", "is_reserved": 0, "rental_uris": {"android": "https://dc.lft.to/lastmile_qr_scan", "ios": "https://dc.lft.to/lastmile_qr_scan"}, "lat": 38.86580133333333, "is_disabled": 0, "lon": -76.99028666666666}, {"fusion_lat": 0.0, "type": "electric_scooter", "name": "851d9bd0748a99abb9eeb54ed7934c71", "fusion_lon": 0.0, "bike_id": "851d9bd0748a99abb9eeb54ed7934c71", "is_reserved": 0, "rental_uris": {"android": "https://dc.lft.to/lastmile_qr_scan", "ios": "https://dc.lft.to/lastmile_qr_scan"}, "lat": 38.89222733333333, "is_disabled": 0, "lon": -77.023474}, {"fusion_lat": 0.0, "type": "electric_scooter", "name": "169fde497f4ae7e06da2e9ded5b2a0cd", "fusion_lon": 0.0, "bike_id": "169fde497f4ae7e06da2e9ded5b2a0cd", "is_reserved": 0, "rental_uris": {"android": "https://dc.lft.to/lastmile_qr_scan", "ios": "https://dc.lft.to/lastmile_qr_scan"}, "lat": 38.898459, "is_disabled": 0, "lon": -77.0335355}, {"fusion_lat": 0.0, "type": "electric_scooter", "name": "7ac7497e17ca6583e398c3742c9d208f", "fusion_lon": 0.0, "bike_id": "7ac7497e17ca6583e398c3742c9d208f", "is_reserved": 0, "rental_uris": {"android": "https://dc.lft.to/lastmile_qr_scan", "ios": "https://dc.lft.to/lastmile_qr_scan"}, "lat": 38.860146666666665, "is_disabled": 0, "lon": -76.98511133333334}, {"fusion_lat": 0.0, "type": "electric_scooter", "name": "6e41b92cd7eaeca654d5b9432da2168e", "fusion_lon": 0.0, "bike_id": "6e41b92cd7eaeca654d5b9432da2168e", "is_reserved": 0, "rental_uris": {"android": "https://dc.lft.to/lastmile_qr_scan", "ios": "https://dc.lft.to/lastmile_qr_scan"}, "lat": 38.90038966666667, "is_disabled": 0, "lon": -77.03194533333334}, {"fusion_lat": 0.0, "type": "electric_scooter", "name": "b6cb7cf3052e58f4673f45501b11ec92", "fusion_lon": 0.0, "bike_id": "b6cb7cf3052e58f4673f45501b11ec92", "is_reserved": 0, "rental_uris": {"android": "https://dc.lft.to/lastmile_qr_scan", "ios": "https://dc.lft.to/lastmile_qr_scan"}, "lat": 38.907137166666665, "is_disabled": 0, "lon": -77.0239315}, {"fusion_lat": 0.0, "type": "electric_scooter", "name": "9e17f5217cfc2f15c63b1c5771aa6616", "fusion_lon": 0.0, "bike_id": "9e17f5217cfc2f15c63b1c5771aa6616", "is_reserved": 0, "rental_uris": {"android": "https://dc.lft.to/lastmile_qr_scan", "ios": "https://dc.lft.to/lastmile_qr_scan"}, "lat": 38.900197, "is_disabled": 0, "lon": -77.006835}, {"fusion_lat": 0.0, "type": "electric_scooter", "name": "ed4aef6e52ab71b4687e9a3121de9d81", "fusion_lon": 0.0, "bike_id": "ed4aef6e52ab71b4687e9a3121de9d81", "is_reserved": 0, "rental_uris": {"android": "https://dc.lft.to/lastmile_qr_scan", "ios": "https://dc.lft.to/lastmile_qr_scan"}, "lat": 38.90502816666667, "is_disabled": 0, "lon": -77.04683283333334}, {"fusion_lat": 0.0, "type": "electric_scooter", "name": "21419426e7d88064cef5ba8c613229d2", "fusion_lon": 0.0, "bike_id": "21419426e7d88064cef5ba8c613229d2", "is_reserved": 0, "rental_uris": {"android": "https://dc.lft.to/lastmile_qr_scan", "ios": "https://dc.lft.to/lastmile_qr_scan"}, "lat": 38.901514, "is_disabled": 0, "lon": -77.02928616666667}, {"fusion_lat": 0.0, "type": "electric_scooter", "name": "dcefa2af21608dd41a0d20135f04b272", "fusion_lon": 0.0, "bike_id": "dcefa2af21608dd41a0d20135f04b272", "is_reserved": 0, "rental_uris": {"android": "https://dc.lft.to/lastmile_qr_scan", "ios": "https://dc.lft.to/lastmile_qr_scan"}, "lat": 38.88403433333333, "is_disabled": 0, "lon": -77.01773766666666}, {"fusion_lat": 0.0, "type": "electric_bike", "name": "4ebf9c4b49fa48a2cb165eef59657dd4", "fusion_lon": 0.0, "bike_id": "4ebf9c4b49fa48a2cb165eef59657dd4", "is_reserved": 0, "rental_uris": {"android": "https://dc.lft.to/lastmile_qr_scan", "ios": "https://dc.lft.to/lastmile_qr_scan"}, "lat": 38.9785245, "is_disabled": 0, "lon": -77.08981516666667}, {"fusion_lat": 0.0, "type": "electric_scooter", "name": "ddb599d0876b6dd5f92fd75f546557ec", "fusion_lon": 0.0, "bike_id": "ddb599d0876b6dd5f92fd75f546557ec", "is_reserved": 0, "rental_uris": {"android": "https://dc.lft.to/lastmile_qr_scan", "ios": "https://dc.lft.to/lastmile_qr_scan"}, "lat": 38.9388525, "is_disabled": 0, "lon": -77.02462133333333}, {"fusion_lat": 0.0, "type": "electric_bike", "name": "77c17d2d51071690d99e7a1439f925d4", "fusion_lon": 0.0, "bike_id": "77c17d2d51071690d99e7a1439f925d4", "is_reserved": 0, "rental_uris": {"android": "https://dc.lft.to/lastmile_qr_scan", "ios": "https://dc.lft.to/lastmile_qr_scan"}, "lat": 38.96964116666667, "is_disabled": 0, "lon": -76.9574875}, {"fusion_lat": 0.0, "type": "electric_scooter", "name": "51ea9ea54825f9545f24bd471802ca3e", "fusion_lon": 0.0, "bike_id": "51ea9ea54825f9545f24bd471802ca3e", "is_reserved": 0, "rental_uris": {"android": "https://dc.lft.to/lastmile_qr_scan", "ios": "https://dc.lft.to/lastmile_qr_scan"}, "lat": 38.90516383333333, "is_disabled": 0, "lon": -77.0481775}, {"fusion_lat": 0.0, "type": "electric_scooter", "name": "9e6905634046c08cfd947197b10107a4", "fusion_lon": 0.0, "bike_id": "9e6905634046c08cfd947197b10107a4", "is_reserved": 0, "rental_uris": {"android": "https://dc.lft.to/lastmile_qr_scan", "ios": "https://dc.lft.to/lastmile_qr_scan"}, "lat": 38.8998655, "is_disabled": 0, "lon": -77.01833216666667}, {"fusion_lat": 0.0, "type": "electric_scooter", "name": "4c4c558b4915b0e61fd7d1c354e982fe", "fusion_lon": 0.0, "bike_id": "4c4c558b4915b0e61fd7d1c354e982fe", "is_reserved": 0, "rental_uris": {"android": "https://dc.lft.to/lastmile_qr_scan", "ios": "https://dc.lft.to/lastmile_qr_scan"}, "lat": 38.884272833333334, "is_disabled": 0, "lon": -77.0078585}, {"fusion_lat": 0.0, "type": "electric_scooter", "name": "325a181c7b043611db47193690de33cd", "fusion_lon": 0.0, "bike_id": "325a181c7b043611db47193690de33cd", "is_reserved": 0, "rental_uris": {"android": "https://dc.lft.to/lastmile_qr_scan", "ios": "https://dc.lft.to/lastmile_qr_scan"}, "lat": 38.89221416666667, "is_disabled": 0, "lon": -77.02258166666667}, {"fusion_lat": 0.0, "type": "electric_scooter", "name": "36bd05299b795c1d1c07b12bbc41be6f", "fusion_lon": 0.0, "bike_id": "36bd05299b795c1d1c07b12bbc41be6f", "is_reserved": 0, "rental_uris": {"android": "https://dc.lft.to/lastmile_qr_scan", "ios": "https://dc.lft.to/lastmile_qr_scan"}, "lat": 38.9240925, "is_disabled": 0, "lon": -77.03542916666666}, {"fusion_lat": 0.0, "type": "electric_scooter", "name": "26799050d09b1beb7eea488531734fd1", "fusion_lon": 0.0, "bike_id": "26799050d09b1beb7eea488531734fd1", "is_reserved": 0, "rental_uris": {"android": "https://dc.lft.to/lastmile_qr_scan", "ios": "https://dc.lft.to/lastmile_qr_scan"}, "lat": 38.8878495, "is_disabled": 0, "lon": -76.9553775}, {"fusion_lat": 0.0, "type": "electric_bike", "name": "77a81e210a9ebee1e420d0ae8f354497", "fusion_lon": 0.0, "bike_id": "77a81e210a9ebee1e420d0ae8f354497", "is_reserved": 0, "rental_uris": {"android": "https://dc.lft.to/lastmile_qr_scan", "ios": "https://dc.lft.to/lastmile_qr_scan"}, "lat": 38.8815745, "is_disabled": 0, "lon": -77.1146735}, {"fusion_lat": 0.0, "type": "electric_scooter", "name": "a5968ab68a73ca23ae066c767b0248e5", "fusion_lon": 0.0, "bike_id": "a5968ab68a73ca23ae066c767b0248e5", "is_reserved": 0, "rental_uris": {"android": "https://dc.lft.to/lastmile_qr_scan", "ios": "https://dc.lft.to/lastmile_qr_scan"}, "lat": 38.87040183333333, "is_disabled": 0, "lon": -77.00970166666667}, {"fusion_lat": 0.0, "type": "electric_scooter", "name": "727bd84d50eb55441c38195117beddb6", "fusion_lon": 0.0, "bike_id": "727bd84d50eb55441c38195117beddb6", "is_reserved": 0, "rental_uris": {"android": "https://dc.lft.to/lastmile_qr_scan", "ios": "https://dc.lft.to/lastmile_qr_scan"}, "lat": 38.930812333333336, "is_disabled": 0, "lon": -77.03489133333333}, {"fusion_lat": 0.0, "type": "electric_bike", "name": "04cb4e13668e7d6fea491ae2c9cc9991", "fusion_lon": 0.0, "bike_id": "04cb4e13668e7d6fea491ae2c9cc9991", "is_reserved": 0, "rental_uris": {"android": "https://dc.lft.to/lastmile_qr_scan", "ios": "https://dc.lft.to/lastmile_qr_scan"}, "lat": 38.908007, "is_disabled": 0, "lon": -77.07158916666667}, {"fusion_lat": 0.0, "type": "electric_scooter", "name": "9dc1756a80a19981b98eb74f6fbcbcb5", "fusion_lon": 0.0, "bike_id": "9dc1756a80a19981b98eb74f6fbcbcb5", "is_reserved": 0, "rental_uris": {"android": "https://dc.lft.to/lastmile_qr_scan", "ios": "https://dc.lft.to/lastmile_qr_scan"}, "lat": 38.8923025, "is_disabled": 0, "lon": -77.043364}, {"fusion_lat": 0.0, "type": "electric_scooter", "name": "1309040ae3eb785beb80b4dae82e4676", "fusion_lon": 0.0, "bike_id": "1309040ae3eb785beb80b4dae82e4676", "is_reserved": 0, "rental_uris": {"android": "https://dc.lft.to/lastmile_qr_scan", "ios": "https://dc.lft.to/lastmile_qr_scan"}, "lat": 38.93115933333333, "is_disabled": 0, "lon": -77.03810333333334}, {"fusion_lat": 0.0, "type": "electric_scooter", "name": "3797901cc040ed53505603a40e5d3c92", "fusion_lon": 0.0, "bike_id": "3797901cc040ed53505603a40e5d3c92", "is_reserved": 0, "rental_uris": {"android": "https://dc.lft.to/lastmile_qr_scan", "ios": "https://dc.lft.to/lastmile_qr_scan"}, "lat": 38.84319433333334, "is_disabled": 0, "lon": -76.9993625}, {"fusion_lat": 0.0, "type": "electric_bike", "name": "58037b5dd138de051e258ccd85e5da14", "fusion_lon": 0.0, "bike_id": "58037b5dd138de051e258ccd85e5da14", "is_reserved": 0, "rental_uris": {"android": "https://dc.lft.to/lastmile_qr_scan", "ios": "https://dc.lft.to/lastmile_qr_scan"}, "lat": 38.978455833333335, "is_disabled": 0, "lon": -76.928846}, {"fusion_lat": 0.0, "type": "electric_scooter", "name": "496058dd3fabdeb7e0e9b930660d185d", "fusion_lon": 0.0, "bike_id": "496058dd3fabdeb7e0e9b930660d185d", "is_reserved": 0, "rental_uris": {"android": "https://dc.lft.to/lastmile_qr_scan", "ios": "https://dc.lft.to/lastmile_qr_scan"}, "lat": 38.900886, "is_disabled": 0, "lon": -77.04879033333333}, {"fusion_lat": 0.0, "type": "electric_scooter", "name": "47d6b0ac629238f02647ea2b0697e74f", "fusion_lon": 0.0, "bike_id": "47d6b0ac629238f02647ea2b0697e74f", "is_reserved": 0, "rental_uris": {"android": "https://dc.lft.to/lastmile_qr_scan", "ios": "https://dc.lft.to/lastmile_qr_scan"}, "lat": 38.91054033333333, "is_disabled": 0, "lon": -77.04352283333333}, {"fusion_lat": 0.0, "type": "electric_scooter", "name": "4a4d86ecbe566e678209c22aaee821cb", "fusion_lon": 0.0, "bike_id": "4a4d86ecbe566e678209c22aaee821cb", "is_reserved": 0, "rental_uris": {"android": "https://dc.lft.to/lastmile_qr_scan", "ios": "https://dc.lft.to/lastmile_qr_scan"}, "lat": 38.8670545, "is_disabled": 0, "lon": -76.9871535}, {"fusion_lat": 0.0, "type": "electric_scooter", "name": "3ed6cee096bc42a87a605f0db7560f47", "fusion_lon": 0.0, "bike_id": "3ed6cee096bc42a87a605f0db7560f47", "is_reserved": 0, "rental_uris": {"android": "https://dc.lft.to/lastmile_qr_scan", "ios": "https://dc.lft.to/lastmile_qr_scan"}, "lat": 38.8688, "is_disabled": 0, "lon": -76.98233616666667}, {"fusion_lat": 0.0, "type": "electric_scooter", "name": "a6717cdd56b447978fc72bf576e40c96", "fusion_lon": 0.0, "bike_id": "a6717cdd56b447978fc72bf576e40c96", "is_reserved": 0, "rental_uris": {"android": "https://dc.lft.to/lastmile_qr_scan", "ios": "https://dc.lft.to/lastmile_qr_scan"}, "lat": 38.910235666666665, "is_disabled": 0, "lon": -77.005465}, {"fusion_lat": 0.0, "type": "electric_bike", "name": "bdf307cd57ced364a49ab086c575e16f", "fusion_lon": 0.0, "bike_id": "bdf307cd57ced364a49ab086c575e16f", "is_reserved": 0, "rental_uris": {"android": "https://dc.lft.to/lastmile_qr_scan", "ios": "https://dc.lft.to/lastmile_qr_scan"}, "lat": 38.85444583333334, "is_disabled": 0, "lon": -77.08329183333333}, {"fusion_lat": 0.0, "type": "electric_bike", "name": "816a3e09ff698c7539b7784109f1cb9c", "fusion_lon": 0.0, "bike_id": "816a3e09ff698c7539b7784109f1cb9c", "is_reserved": 0, "rental_uris": {"android": "https://dc.lft.to/lastmile_qr_scan", "ios": "https://dc.lft.to/lastmile_qr_scan"}, "lat": 38.85773916666667, "is_disabled": 0, "lon": -76.987694}, {"fusion_lat": 0.0, "type": "electric_scooter", "name": "e386b019ba8da5a6543afd8694620ca9", "fusion_lon": 0.0, "bike_id": "e386b019ba8da5a6543afd8694620ca9", "is_reserved": 0, "rental_uris": {"android": "https://dc.lft.to/lastmile_qr_scan", "ios": "https://dc.lft.to/lastmile_qr_scan"}, "lat": 38.8925395, "is_disabled": 0, "lon": -77.0466025}, {"fusion_lat": 0.0, "type": "electric_scooter", "name": "6398e99f21af4652885546d5cc69020e", "fusion_lon": 0.0, "bike_id": "6398e99f21af4652885546d5cc69020e", "is_reserved": 0, "rental_uris": {"android": "https://dc.lft.to/lastmile_qr_scan", "ios": "https://dc.lft.to/lastmile_qr_scan"}, "lat": 38.90573966666667, "is_disabled": 0, "lon": -77.00578133333333}, {"fusion_lat": 0.0, "type": "electric_scooter", "name": "738bea47d03cc866d700ed58979c9da3", "fusion_lon": 0.0, "bike_id": "738bea47d03cc866d700ed58979c9da3", "is_reserved": 0, "rental_uris": {"android": "https://dc.lft.to/lastmile_qr_scan", "ios": "https://dc.lft.to/lastmile_qr_scan"}, "lat": 38.908651666666664, "is_disabled": 0, "lon": -77.02340016666666}, {"fusion_lat": 0.0, "type": "electric_scooter", "name": "5f2728864208bf2f34708d82ba53201f", "fusion_lon": 0.0, "bike_id": "5f2728864208bf2f34708d82ba53201f", "is_reserved": 0, "rental_uris": {"android": "https://dc.lft.to/lastmile_qr_scan", "ios": "https://dc.lft.to/lastmile_qr_scan"}, "lat": 38.918897333333334, "is_disabled": 0, "lon": -77.0482245}, {"fusion_lat": 0.0, "type": "electric_scooter", "name": "59a2f6018cb569bf51cbf2549b4bf886", "fusion_lon": 0.0, "bike_id": "59a2f6018cb569bf51cbf2549b4bf886", "is_reserved": 0, "rental_uris": {"android": "https://dc.lft.to/lastmile_qr_scan", "ios": "https://dc.lft.to/lastmile_qr_scan"}, "lat": 38.92159866666667, "is_disabled": 0, "lon": -77.0338145}, {"fusion_lat": 0.0, "type": "electric_scooter", "name": "96fdb101f2f63bc5a28dbd8efcdb8655", "fusion_lon": 0.0, "bike_id": "96fdb101f2f63bc5a28dbd8efcdb8655", "is_reserved": 0, "rental_uris": {"android": "https://dc.lft.to/lastmile_qr_scan", "ios": "https://dc.lft.to/lastmile_qr_scan"}, "lat": 38.88744283333333, "is_disabled": 0, "lon": -77.02382116666666}, {"fusion_lat": 0.0, "type": "electric_scooter", "name": "44763d34b46aa9559d4030c3bde26f04", "fusion_lon": 0.0, "bike_id": "44763d34b46aa9559d4030c3bde26f04", "is_reserved": 0, "rental_uris": {"android": "https://dc.lft.to/lastmile_qr_scan", "ios": "https://dc.lft.to/lastmile_qr_scan"}, "lat": 38.87545216666667, "is_disabled": 0, "lon": -77.00610433333334}, {"fusion_lat": 0.0, "type": "electric_scooter", "name": "a02c03ffff02a35bc8560251b28450de", "fusion_lon": 0.0, "bike_id": "a02c03ffff02a35bc8560251b28450de", "is_reserved": 0, "rental_uris": {"android": "https://dc.lft.to/lastmile_qr_scan", "ios": "https://dc.lft.to/lastmile_qr_scan"}, "lat": 38.90582533333333, "is_disabled": 0, "lon": -77.02592533333333}, {"fusion_lat": 0.0, "type": "electric_scooter", "name": "19bec8543f65a9e38f70284e971fe3fc", "fusion_lon": 0.0, "bike_id": "19bec8543f65a9e38f70284e971fe3fc", "is_reserved": 0, "rental_uris": {"android": "https://dc.lft.to/lastmile_qr_scan", "ios": "https://dc.lft.to/lastmile_qr_scan"}, "lat": 38.92637533333333, "is_disabled": 0, "lon": -77.0347095}, {"fusion_lat": 0.0, "type": "electric_scooter", "name": "dfd5b08df1c0212ce85102751fbeada9", "fusion_lon": 0.0, "bike_id": "dfd5b08df1c0212ce85102751fbeada9", "is_reserved": 0, "rental_uris": {"android": "https://dc.lft.to/lastmile_qr_scan", "ios": "https://dc.lft.to/lastmile_qr_scan"}, "lat": 38.9387755, "is_disabled": 0, "lon": -77.02376883333334}, {"fusion_lat": 0.0, "type": "electric_scooter", "name": "7fb670966213f65003e10d147f09422e", "fusion_lon": 0.0, "bike_id": "7fb670966213f65003e10d147f09422e", "is_reserved": 0, "rental_uris": {"android": "https://dc.lft.to/lastmile_qr_scan", "ios": "https://dc.lft.to/lastmile_qr_scan"}, "lat": 38.96628066666667, "is_disabled": 0, "lon": -77.0350815}, {"fusion_lat": 0.0, "type": "electric_scooter", "name": "6231185ef0e52aeb58038762a94f919a", "fusion_lon": 0.0, "bike_id": "6231185ef0e52aeb58038762a94f919a", "is_reserved": 0, "rental_uris": {"android": "https://dc.lft.to/lastmile_qr_scan", "ios": "https://dc.lft.to/lastmile_qr_scan"}, "lat": 38.92797133333333, "is_disabled": 0, "lon": -77.021204}, {"fusion_lat": 0.0, "type": "electric_scooter", "name": "5bb81bc74f5acef353ba5dda8d5ffd2a", "fusion_lon": 0.0, "bike_id": "5bb81bc74f5acef353ba5dda8d5ffd2a", "is_reserved": 0, "rental_uris": {"android": "https://dc.lft.to/lastmile_qr_scan", "ios": "https://dc.lft.to/lastmile_qr_scan"}, "lat": 38.913329, "is_disabled": 0, "lon": -77.04580166666666}, {"fusion_lat": 0.0, "type": "electric_scooter", "name": "3c07074c6342530081d772ab5a87e668", "fusion_lon": 0.0, "bike_id": "3c07074c6342530081d772ab5a87e668", "is_reserved": 0, "rental_uris": {"android": "https://dc.lft.to/lastmile_qr_scan", "ios": "https://dc.lft.to/lastmile_qr_scan"}, "lat": 38.8923955, "is_disabled": 0, "lon": -77.03209366666667}, {"fusion_lat": 0.0, "type": "electric_scooter", "name": "833dde1db59a69970edb9afdc7026f63", "fusion_lon": 0.0, "bike_id": "833dde1db59a69970edb9afdc7026f63", "is_reserved": 0, "rental_uris": {"android": "https://dc.lft.to/lastmile_qr_scan", "ios": "https://dc.lft.to/lastmile_qr_scan"}, "lat": 38.90723583333333, "is_disabled": 0, "lon": -77.04755383333334}, {"fusion_lat": 0.0, "type": "electric_scooter", "name": "62d69afdd2d4ed3de25ed3740ef726f7", "fusion_lon": 0.0, "bike_id": "62d69afdd2d4ed3de25ed3740ef726f7", "is_reserved": 0, "rental_uris": {"android": "https://dc.lft.to/lastmile_qr_scan", "ios": "https://dc.lft.to/lastmile_qr_scan"}, "lat": 38.967831, "is_disabled": 0, "lon": -77.015172}, {"fusion_lat": 0.0, "type": "electric_scooter", "name": "048176accf0f878ad441ce8f91e81e4e", "fusion_lon": 0.0, "bike_id": "048176accf0f878ad441ce8f91e81e4e", "is_reserved": 0, "rental_uris": {"android": "https://dc.lft.to/lastmile_qr_scan", "ios": "https://dc.lft.to/lastmile_qr_scan"}, "lat": 38.89505, "is_disabled": 0, "lon": -77.04657166666667}, {"fusion_lat": 0.0, "type": "electric_scooter", "name": "db0f8b2bcdfc973a88db24ed0ecc1da1", "fusion_lon": 0.0, "bike_id": "db0f8b2bcdfc973a88db24ed0ecc1da1", "is_reserved": 0, "rental_uris": {"android": "https://dc.lft.to/lastmile_qr_scan", "ios": "https://dc.lft.to/lastmile_qr_scan"}, "lat": 38.915752, "is_disabled": 0, "lon": -77.03182366666667}, {"fusion_lat": 0.0, "type": "electric_bike", "name": "bbded4a52b8c24491060f7ef7ce360b8", "fusion_lon": 0.0, "bike_id": "bbded4a52b8c24491060f7ef7ce360b8", "is_reserved": 0, "rental_uris": {"android": "https://dc.lft.to/lastmile_qr_scan", "ios": "https://dc.lft.to/lastmile_qr_scan"}, "lat": 38.9532945, "is_disabled": 0, "lon": -76.95432983333333}, {"fusion_lat": 0.0, "type": "electric_scooter", "name": "90b47f6b643212ff71c7761baef08e68", "fusion_lon": 0.0, "bike_id": "90b47f6b643212ff71c7761baef08e68", "is_reserved": 0, "rental_uris": {"android": "https://dc.lft.to/lastmile_qr_scan", "ios": "https://dc.lft.to/lastmile_qr_scan"}, "lat": 38.9209595, "is_disabled": 0, "lon": -77.02265533333333}, {"fusion_lat": 0.0, "type": "electric_scooter", "name": "50685093293b875f68822544b132cbb4", "fusion_lon": 0.0, "bike_id": "50685093293b875f68822544b132cbb4", "is_reserved": 0, "rental_uris": {"android": "https://dc.lft.to/lastmile_qr_scan", "ios": "https://dc.lft.to/lastmile_qr_scan"}, "lat": 38.906847, "is_disabled": 0, "lon": -77.0367025}, {"fusion_lat": 0.0, "type": "electric_scooter", "name": "30d13c083597eb4189f05e5b31c82fa3", "fusion_lon": 0.0, "bike_id": "30d13c083597eb4189f05e5b31c82fa3", "is_reserved": 0, "rental_uris": {"android": "https://dc.lft.to/lastmile_qr_scan", "ios": "https://dc.lft.to/lastmile_qr_scan"}, "lat": 38.902603666666664, "is_disabled": 0, "lon": -77.00738966666667}, {"fusion_lat": 0.0, "type": "electric_scooter", "name": "8ccd7cd70fbc5a4f0e0596026f64f211", "fusion_lon": 0.0, "bike_id": "8ccd7cd70fbc5a4f0e0596026f64f211", "is_reserved": 0, "rental_uris": {"android": "https://dc.lft.to/lastmile_qr_scan", "ios": "https://dc.lft.to/lastmile_qr_scan"}, "lat": 38.892207166666665, "is_disabled": 0, "lon": -77.03219833333333}, {"fusion_lat": 0.0, "type": "electric_scooter", "name": "63ed1b6cf1be0648311c20ebd8fc1fbb", "fusion_lon": 0.0, "bike_id": "63ed1b6cf1be0648311c20ebd8fc1fbb", "is_reserved": 0, "rental_uris": {"android": "https://dc.lft.to/lastmile_qr_scan", "ios": "https://dc.lft.to/lastmile_qr_scan"}, "lat": 38.9038595, "is_disabled": 0, "lon": -77.04459383333334}, {"fusion_lat": 0.0, "type": "electric_scooter", "name": "25d14cf3313c67ed7c1fea14dc7e7a6d", "fusion_lon": 0.0, "bike_id": "25d14cf3313c67ed7c1fea14dc7e7a6d", "is_reserved": 0, "rental_uris": {"android": "https://dc.lft.to/lastmile_qr_scan", "ios": "https://dc.lft.to/lastmile_qr_scan"}, "lat": 38.922573, "is_disabled": 0, "lon": -77.01949883333333}, {"fusion_lat": 0.0, "type": "electric_scooter", "name": "3004eb8ef9dfaacb00598c86fba0e9ae", "fusion_lon": 0.0, "bike_id": "3004eb8ef9dfaacb00598c86fba0e9ae", "is_reserved": 0, "rental_uris": {"android": "https://dc.lft.to/lastmile_qr_scan", "ios": "https://dc.lft.to/lastmile_qr_scan"}, "lat": 38.921073666666665, "is_disabled": 0, "lon": -77.03247933333333}, {"fusion_lat": 0.0, "type": "electric_bike", "name": "b8f42e6a43794155297469cc3d665c4c", "fusion_lon": 0.0, "bike_id": "b8f42e6a43794155297469cc3d665c4c", "is_reserved": 0, "rental_uris": {"android": "https://dc.lft.to/lastmile_qr_scan", "ios": "https://dc.lft.to/lastmile_qr_scan"}, "lat": 39.02434066666667, "is_disabled": 0, "lon": -77.13099066666666}, {"fusion_lat": 0.0, "type": "electric_scooter", "name": "01c46a28653304ee6f630283fd846a1c", "fusion_lon": 0.0, "bike_id": "01c46a28653304ee6f630283fd846a1c", "is_reserved": 0, "rental_uris": {"android": "https://dc.lft.to/lastmile_qr_scan", "ios": "https://dc.lft.to/lastmile_qr_scan"}, "lat": 38.8870735, "is_disabled": 0, "lon": -77.01366816666666}, {"fusion_lat": 0.0, "type": "electric_scooter", "name": "af10ccb0d5a784e70171dbcf11afb51f", "fusion_lon": 0.0, "bike_id": "af10ccb0d5a784e70171dbcf11afb51f", "is_reserved": 0, "rental_uris": {"android": "https://dc.lft.to/lastmile_qr_scan", "ios": "https://dc.lft.to/lastmile_qr_scan"}, "lat": 38.90386433333333, "is_disabled": 0, "lon": -77.0447945}, {"fusion_lat": 0.0, "type": "electric_scooter", "name": "4d3e2eb9aaecfa9f190132dafc28afc8", "fusion_lon": 0.0, "bike_id": "4d3e2eb9aaecfa9f190132dafc28afc8", "is_reserved": 0, "rental_uris": {"android": "https://dc.lft.to/lastmile_qr_scan", "ios": "https://dc.lft.to/lastmile_qr_scan"}, "lat": 38.8641765, "is_disabled": 0, "lon": -76.97438733333334}, {"fusion_lat": 0.0, "type": "electric_scooter", "name": "bb09f3d3d6a25d48a42ffdf65728af80", "fusion_lon": 0.0, "bike_id": "bb09f3d3d6a25d48a42ffdf65728af80", "is_reserved": 0, "rental_uris": {"android": "https://dc.lft.to/lastmile_qr_scan", "ios": "https://dc.lft.to/lastmile_qr_scan"}, "lat": 38.88317383333333, "is_disabled": 0, "lon": -77.01736066666666}, {"fusion_lat": 0.0, "type": "electric_scooter", "name": "d834a90f44b24e858f4ff597ca675be5", "fusion_lon": 0.0, "bike_id": "d834a90f44b24e858f4ff597ca675be5", "is_reserved": 0, "rental_uris": {"android": "https://dc.lft.to/lastmile_qr_scan", "ios": "https://dc.lft.to/lastmile_qr_scan"}, "lat": 38.862388, "is_disabled": 0, "lon": -76.99485833333334}, {"fusion_lat": 0.0, "type": "electric_bike", "name": "9b2efdf096a2b67d64b60d93a2f24676", "fusion_lon": 0.0, "bike_id": "9b2efdf096a2b67d64b60d93a2f24676", "is_reserved": 0, "rental_uris": {"android": "https://dc.lft.to/lastmile_qr_scan", "ios": "https://dc.lft.to/lastmile_qr_scan"}, "lat": 38.9478665, "is_disabled": 0, "lon": -76.972125}, {"fusion_lat": 0.0, "type": "electric_scooter", "name": "962292e969bc7d799e348459e87558d7", "fusion_lon": 0.0, "bike_id": "962292e969bc7d799e348459e87558d7", "is_reserved": 0, "rental_uris": {"android": "https://dc.lft.to/lastmile_qr_scan", "ios": "https://dc.lft.to/lastmile_qr_scan"}, "lat": 38.935986666666665, "is_disabled": 0, "lon": -77.05850366666667}, {"fusion_lat": 0.0, "type": "electric_scooter", "name": "59a382438afa609c2c2b4aa12a828398", "fusion_lon": 0.0, "bike_id": "59a382438afa609c2c2b4aa12a828398", "is_reserved": 0, "rental_uris": {"android": "https://dc.lft.to/lastmile_qr_scan", "ios": "https://dc.lft.to/lastmile_qr_scan"}, "lat": 38.91190866666667, "is_disabled": 0, "lon": -77.03818733333334}, {"fusion_lat": 0.0, "type": "electric_scooter", "name": "62e2f26705527d24a32a57ab04154962", "fusion_lon": 0.0, "bike_id": "62e2f26705527d24a32a57ab04154962", "is_reserved": 0, "rental_uris": {"android": "https://dc.lft.to/lastmile_qr_scan", "ios": "https://dc.lft.to/lastmile_qr_scan"}, "lat": 38.90500766666667, "is_disabled": 0, "lon": -77.0386905}, {"fusion_lat": 0.0, "type": "electric_scooter", "name": "a84d1f11cbccf9a21b2c889acb13e43b", "fusion_lon": 0.0, "bike_id": "a84d1f11cbccf9a21b2c889acb13e43b", "is_reserved": 0, "rental_uris": {"android": "https://dc.lft.to/lastmile_qr_scan", "ios": "https://dc.lft.to/lastmile_qr_scan"}, "lat": 38.91975883333333, "is_disabled": 0, "lon": -77.01857583333333}, {"fusion_lat": 0.0, "type": "electric_scooter", "name": "99233fadb2a21ea6af01006c8bdafd32", "fusion_lon": 0.0, "bike_id": "99233fadb2a21ea6af01006c8bdafd32", "is_reserved": 0, "rental_uris": {"android": "https://dc.lft.to/lastmile_qr_scan", "ios": "https://dc.lft.to/lastmile_qr_scan"}, "lat": 38.896156833333336, "is_disabled": 0, "lon": -77.04466}, {"fusion_lat": 0.0, "type": "electric_scooter", "name": "3b9279f5a1cc9aef95509c7e97b512f4", "fusion_lon": 0.0, "bike_id": "3b9279f5a1cc9aef95509c7e97b512f4", "is_reserved": 0, "rental_uris": {"android": "https://dc.lft.to/lastmile_qr_scan", "ios": "https://dc.lft.to/lastmile_qr_scan"}, "lat": 38.900098166666666, "is_disabled": 0, "lon": -77.03103966666667}, {"fusion_lat": 0.0, "type": "electric_bike", "name": "922786d25e6ac535e9710af2c7c3bb12", "fusion_lon": 0.0, "bike_id": "922786d25e6ac535e9710af2c7c3bb12", "is_reserved": 0, "rental_uris": {"android": "https://dc.lft.to/lastmile_qr_scan", "ios": "https://dc.lft.to/lastmile_qr_scan"}, "lat": 38.948975, "is_disabled": 0, "lon": -76.963751}, {"fusion_lat": 0.0, "type": "electric_scooter", "name": "215519fed87809b842a74978c09ef718", "fusion_lon": 0.0, "bike_id": "215519fed87809b842a74978c09ef718", "is_reserved": 0, "rental_uris": {"android": "https://dc.lft.to/lastmile_qr_scan", "ios": "https://dc.lft.to/lastmile_qr_scan"}, "lat": 38.90141666666667, "is_disabled": 0, "lon": -77.0001045}, {"fusion_lat": 0.0, "type": "electric_scooter", "name": "36097c6c5e83e4197dbee6ad78fb4b8e", "fusion_lon": 0.0, "bike_id": "36097c6c5e83e4197dbee6ad78fb4b8e", "is_reserved": 0, "rental_uris": {"android": "https://dc.lft.to/lastmile_qr_scan", "ios": "https://dc.lft.to/lastmile_qr_scan"}, "lat": 38.90181783333333, "is_disabled": 0, "lon": -76.9804325}, {"fusion_lat": 0.0, "type": "electric_scooter", "name": "2f729d99fe4bd7ca702f0e9d44d8fccd", "fusion_lon": 0.0, "bike_id": "2f729d99fe4bd7ca702f0e9d44d8fccd", "is_reserved": 0, "rental_uris": {"android": "https://dc.lft.to/lastmile_qr_scan", "ios": "https://dc.lft.to/lastmile_qr_scan"}, "lat": 38.899175, "is_disabled": 0, "lon": -76.933694}, {"fusion_lat": 0.0, "type": "electric_bike", "name": "8fc038ebbc0885df29ba58403068b1ea", "fusion_lon": 0.0, "bike_id": "8fc038ebbc0885df29ba58403068b1ea", "is_reserved": 0, "rental_uris": {"android": "https://dc.lft.to/lastmile_qr_scan", "ios": "https://dc.lft.to/lastmile_qr_scan"}, "lat": 38.91915616666667, "is_disabled": 0, "lon": -77.07025583333333}, {"fusion_lat": 0.0, "type": "electric_scooter", "name": "4804340c0394c90a42fc5efd033b9bc9", "fusion_lon": 0.0, "bike_id": "4804340c0394c90a42fc5efd033b9bc9", "is_reserved": 0, "rental_uris": {"android": "https://dc.lft.to/lastmile_qr_scan", "ios": "https://dc.lft.to/lastmile_qr_scan"}, "lat": 38.922384666666666, "is_disabled": 0, "lon": -77.0343045}, {"fusion_lat": 0.0, "type": "electric_scooter", "name": "3e5f5075dbcb378cfca2e0ea73ace407", "fusion_lon": 0.0, "bike_id": "3e5f5075dbcb378cfca2e0ea73ace407", "is_reserved": 0, "rental_uris": {"android": "https://dc.lft.to/lastmile_qr_scan", "ios": "https://dc.lft.to/lastmile_qr_scan"}, "lat": 38.93684183333333, "is_disabled": 0, "lon": -77.02454866666666}, {"fusion_lat": 0.0, "type": "electric_scooter", "name": "ab65420f4bf2c96e8d628bed2c1045a9", "fusion_lon": 0.0, "bike_id": "ab65420f4bf2c96e8d628bed2c1045a9", "is_reserved": 0, "rental_uris": {"android": "https://dc.lft.to/lastmile_qr_scan", "ios": "https://dc.lft.to/lastmile_qr_scan"}, "lat": 38.912742333333334, "is_disabled": 0, "lon": -77.02877866666667}, {"fusion_lat": 0.0, "type": "electric_scooter", "name": "0a7f8a2b00eac60edd68d5527cf18b7a", "fusion_lon": 0.0, "bike_id": "0a7f8a2b00eac60edd68d5527cf18b7a", "is_reserved": 0, "rental_uris": {"android": "https://dc.lft.to/lastmile_qr_scan", "ios": "https://dc.lft.to/lastmile_qr_scan"}, "lat": 38.90050633333333, "is_disabled": 0, "lon": -76.99850683333334}, {"fusion_lat": 0.0, "type": "electric_scooter", "name": "7c50d6d03ee5814f872c218081f0df0b", "fusion_lon": 0.0, "bike_id": "7c50d6d03ee5814f872c218081f0df0b", "is_reserved": 0, "rental_uris": {"android": "https://dc.lft.to/lastmile_qr_scan", "ios": "https://dc.lft.to/lastmile_qr_scan"}, "lat": 38.90876816666667, "is_disabled": 0, "lon": -77.0376435}, {"fusion_lat": 0.0, "type": "electric_scooter", "name": "9aa9d06e8446971458a669c93cd5aacc", "fusion_lon": 0.0, "bike_id": "9aa9d06e8446971458a669c93cd5aacc", "is_reserved": 0, "rental_uris": {"android": "https://dc.lft.to/lastmile_qr_scan", "ios": "https://dc.lft.to/lastmile_qr_scan"}, "lat": 38.912033666666666, "is_disabled": 0, "lon": -77.004232}, {"fusion_lat": 0.0, "type": "electric_scooter", "name": "13a9c54e8ed97d1d5733ed634830c80f", "fusion_lon": 0.0, "bike_id": "13a9c54e8ed97d1d5733ed634830c80f", "is_reserved": 0, "rental_uris": {"android": "https://dc.lft.to/lastmile_qr_scan", "ios": "https://dc.lft.to/lastmile_qr_scan"}, "lat": 38.92224183333333, "is_disabled": 0, "lon": -77.04237833333333}, {"fusion_lat": 0.0, "type": "electric_scooter", "name": "b42f860cdfecc3c0c5986ede9047ddb2", "fusion_lon": 0.0, "bike_id": "b42f860cdfecc3c0c5986ede9047ddb2", "is_reserved": 0, "rental_uris": {"android": "https://dc.lft.to/lastmile_qr_scan", "ios": "https://dc.lft.to/lastmile_qr_scan"}, "lat": 38.8787025, "is_disabled": 0, "lon": -77.0228855}, {"fusion_lat": 0.0, "type": "electric_scooter", "name": "bbdad7eb3ccb29f86236f569be7b8b09", "fusion_lon": 0.0, "bike_id": "bbdad7eb3ccb29f86236f569be7b8b09", "is_reserved": 0, "rental_uris": {"android": "https://dc.lft.to/lastmile_qr_scan", "ios": "https://dc.lft.to/lastmile_qr_scan"}, "lat": 38.892548, "is_disabled": 0, "lon": -77.04662866666666}, {"fusion_lat": 0.0, "type": "electric_scooter", "name": "b32bdcaa712d7b3196762d52f7c1bb4f", "fusion_lon": 0.0, "bike_id": "b32bdcaa712d7b3196762d52f7c1bb4f", "is_reserved": 0, "rental_uris": {"android": "https://dc.lft.to/lastmile_qr_scan", "ios": "https://dc.lft.to/lastmile_qr_scan"}, "lat": 38.871915666666666, "is_disabled": 0, "lon": -77.00589633333334}, {"fusion_lat": 0.0, "type": "electric_scooter", "name": "579cce0d1e5edd37bcff11e1eaec27bc", "fusion_lon": 0.0, "bike_id": "579cce0d1e5edd37bcff11e1eaec27bc", "is_reserved": 0, "rental_uris": {"android": "https://dc.lft.to/lastmile_qr_scan", "ios": "https://dc.lft.to/lastmile_qr_scan"}, "lat": 38.91261466666667, "is_disabled": 0, "lon": -77.02686183333333}, {"fusion_lat": 0.0, "type": "electric_scooter", "name": "2a70eba369c2da9ea121186a25d23c49", "fusion_lon": 0.0, "bike_id": "2a70eba369c2da9ea121186a25d23c49", "is_reserved": 0, "rental_uris": {"android": "https://dc.lft.to/lastmile_qr_scan", "ios": "https://dc.lft.to/lastmile_qr_scan"}, "lat": 38.885696, "is_disabled": 0, "lon": -77.01996066666666}, {"fusion_lat": 0.0, "type": "electric_scooter", "name": "9400980e4bc5516185628a4c39005f24", "fusion_lon": 0.0, "bike_id": "9400980e4bc5516185628a4c39005f24", "is_reserved": 0, "rental_uris": {"android": "https://dc.lft.to/lastmile_qr_scan", "ios": "https://dc.lft.to/lastmile_qr_scan"}, "lat": 38.916825833333334, "is_disabled": 0, "lon": -77.0297985}, {"fusion_lat": 0.0, "type": "electric_scooter", "name": "9049fd0ba5aa99536dabb085251ff982", "fusion_lon": 0.0, "bike_id": "9049fd0ba5aa99536dabb085251ff982", "is_reserved": 0, "rental_uris": {"android": "https://dc.lft.to/lastmile_qr_scan", "ios": "https://dc.lft.to/lastmile_qr_scan"}, "lat": 38.90484083333333, "is_disabled": 0, "lon": -77.04895183333333}, {"fusion_lat": 0.0, "type": "electric_scooter", "name": "9bdcf045a1bd3f681738b1f9e3027eec", "fusion_lon": 0.0, "bike_id": "9bdcf045a1bd3f681738b1f9e3027eec", "is_reserved": 0, "rental_uris": {"android": "https://dc.lft.to/lastmile_qr_scan", "ios": "https://dc.lft.to/lastmile_qr_scan"}, "lat": 38.89976433333333, "is_disabled": 0, "lon": -77.03358283333333}, {"fusion_lat": 0.0, "type": "electric_scooter", "name": "638015a0b756ad9f05c9dc7e553c5c70", "fusion_lon": 0.0, "bike_id": "638015a0b756ad9f05c9dc7e553c5c70", "is_reserved": 0, "rental_uris": {"android": "https://dc.lft.to/lastmile_qr_scan", "ios": "https://dc.lft.to/lastmile_qr_scan"}, "lat": 38.8922465, "is_disabled": 0, "lon": -77.04306116666666}, {"fusion_lat": 0.0, "type": "electric_scooter", "name": "a601151ec190e8aa59ff0d7b2027322d", "fusion_lon": 0.0, "bike_id": "a601151ec190e8aa59ff0d7b2027322d", "is_reserved": 0, "rental_uris": {"android": "https://dc.lft.to/lastmile_qr_scan", "ios": "https://dc.lft.to/lastmile_qr_scan"}, "lat": 38.925647833333336, "is_disabled": 0, "lon": -77.07764316666666}, {"fusion_lat": 0.0, "type": "electric_scooter", "name": "193f8a74233766e2b35c1e1f6d982fda", "fusion_lon": 0.0, "bike_id": "193f8a74233766e2b35c1e1f6d982fda", "is_reserved": 0, "rental_uris": {"android": "https://dc.lft.to/lastmile_qr_scan", "ios": "https://dc.lft.to/lastmile_qr_scan"}, "lat": 38.91266533333334, "is_disabled": 0, "lon": -77.03070483333333}, {"fusion_lat": 0.0, "type": "electric_scooter", "name": "2eb7ef81955bbc518fe9114ee5bfd492", "fusion_lon": 0.0, "bike_id": "2eb7ef81955bbc518fe9114ee5bfd492", "is_reserved": 0, "rental_uris": {"android": "https://dc.lft.to/lastmile_qr_scan", "ios": "https://dc.lft.to/lastmile_qr_scan"}, "lat": 38.949045, "is_disabled": 0, "lon": -77.02071616666667}, {"fusion_lat": 0.0, "type": "electric_scooter", "name": "48fb21b5d1f65513901d4fa9360fca7a", "fusion_lon": 0.0, "bike_id": "48fb21b5d1f65513901d4fa9360fca7a", "is_reserved": 0, "rental_uris": {"android": "https://dc.lft.to/lastmile_qr_scan", "ios": "https://dc.lft.to/lastmile_qr_scan"}, "lat": 38.89224733333333, "is_disabled": 0, "lon": -77.031101}, {"fusion_lat": 0.0, "type": "electric_scooter", "name": "36925b135683935c3db90fdb7d5e570c", "fusion_lon": 0.0, "bike_id": "36925b135683935c3db90fdb7d5e570c", "is_reserved": 0, "rental_uris": {"android": "https://dc.lft.to/lastmile_qr_scan", "ios": "https://dc.lft.to/lastmile_qr_scan"}, "lat": 38.89221033333333, "is_disabled": 0, "lon": -77.0321845}, {"fusion_lat": 0.0, "type": "electric_scooter", "name": "e7f7cf23059153a4698af9e322ff4253", "fusion_lon": 0.0, "bike_id": "e7f7cf23059153a4698af9e322ff4253", "is_reserved": 0, "rental_uris": {"android": "https://dc.lft.to/lastmile_qr_scan", "ios": "https://dc.lft.to/lastmile_qr_scan"}, "lat": 38.86701, "is_disabled": 0, "lon": -76.985928}, {"fusion_lat": 0.0, "type": "electric_scooter", "name": "f73a59a2cdec7d1838b3cbcdfdd58696", "fusion_lon": 0.0, "bike_id": "f73a59a2cdec7d1838b3cbcdfdd58696", "is_reserved": 0, "rental_uris": {"android": "https://dc.lft.to/lastmile_qr_scan", "ios": "https://dc.lft.to/lastmile_qr_scan"}, "lat": 38.90747316666667, "is_disabled": 0, "lon": -77.04484016666666}, {"fusion_lat": 0.0, "type": "electric_scooter", "name": "04ed7dc1f59aded07b96e5dc31ba150b", "fusion_lon": 0.0, "bike_id": "04ed7dc1f59aded07b96e5dc31ba150b", "is_reserved": 0, "rental_uris": {"android": "https://dc.lft.to/lastmile_qr_scan", "ios": "https://dc.lft.to/lastmile_qr_scan"}, "lat": 38.92445216666667, "is_disabled": 0, "lon": -77.03404483333334}, {"fusion_lat": 0.0, "type": "electric_scooter", "name": "8c052651681640705fe725a1fc5c0278", "fusion_lon": 0.0, "bike_id": "8c052651681640705fe725a1fc5c0278", "is_reserved": 0, "rental_uris": {"android": "https://dc.lft.to/lastmile_qr_scan", "ios": "https://dc.lft.to/lastmile_qr_scan"}, "lat": 38.90012516666667, "is_disabled": 0, "lon": -76.93030916666666}, {"fusion_lat": 0.0, "type": "electric_scooter", "name": "b7775f3c07221700c7f2f000ee17132e", "fusion_lon": 0.0, "bike_id": "b7775f3c07221700c7f2f000ee17132e", "is_reserved": 0, "rental_uris": {"android": "https://dc.lft.to/lastmile_qr_scan", "ios": "https://dc.lft.to/lastmile_qr_scan"}, "lat": 38.91919083333333, "is_disabled": 0, "lon": -77.03155883333334}, {"fusion_lat": 0.0, "type": "electric_scooter", "name": "835bc28ac004579e4bb241ea00579175", "fusion_lon": 0.0, "bike_id": "835bc28ac004579e4bb241ea00579175", "is_reserved": 0, "rental_uris": {"android": "https://dc.lft.to/lastmile_qr_scan", "ios": "https://dc.lft.to/lastmile_qr_scan"}, "lat": 38.9340565, "is_disabled": 0, "lon": -77.07260833333333}, {"fusion_lat": 0.0, "type": "electric_scooter", "name": "b8c557cf3abdf83c6b731bebc53ac191", "fusion_lon": 0.0, "bike_id": "b8c557cf3abdf83c6b731bebc53ac191", "is_reserved": 0, "rental_uris": {"android": "https://dc.lft.to/lastmile_qr_scan", "ios": "https://dc.lft.to/lastmile_qr_scan"}, "lat": 38.925373666666665, "is_disabled": 0, "lon": -76.97221733333333}, {"fusion_lat": 0.0, "type": "electric_scooter", "name": "ddcdea051381de09e39d0cccc663bff2", "fusion_lon": 0.0, "bike_id": "ddcdea051381de09e39d0cccc663bff2", "is_reserved": 0, "rental_uris": {"android": "https://dc.lft.to/lastmile_qr_scan", "ios": "https://dc.lft.to/lastmile_qr_scan"}, "lat": 38.8971755, "is_disabled": 0, "lon": -77.02731783333333}, {"fusion_lat": 0.0, "type": "electric_scooter", "name": "a994bdd90735c24276da504b10e96d06", "fusion_lon": 0.0, "bike_id": "a994bdd90735c24276da504b10e96d06", "is_reserved": 0, "rental_uris": {"android": "https://dc.lft.to/lastmile_qr_scan", "ios": "https://dc.lft.to/lastmile_qr_scan"}, "lat": 38.8984715, "is_disabled": 0, "lon": -77.02964666666666},