{"data": {"bikes": [{"fusion_lat": 0.0, "name": "967182374bf3a6e665826f2dc9097523", "is_disabled": 0, "rental_uris": {"android": "https://dc.lft.to/lastmile_qr_scan", "ios": "https://dc.lft.to/lastmile_qr_scan"}, "fusion_lon": 0.0, "lat": 38.9326095, "bike_id": "967182374bf3a6e665826f2dc9097523", "type": "electric_scooter", "is_reserved": 0, "lon": -77.01920633333333}, {"fusion_lat": 0.0, "name": "212638648793381a92c1750f01a1033a", "is_disabled": 0, "rental_uris": {"android": "https://dc.lft.to/lastmile_qr_scan", "ios": "https://dc.lft.to/lastmile_qr_scan"}, "fusion_lon": 0.0, "lat": 38.93961433333333, "bike_id": "212638648793381a92c1750f01a1033a", "type": "electric_scooter", "is_reserved": 0, "lon": -77.03283933333333}, {"fusion_lat": 0.0, "name": "d264890ff7692c67c642747ef01c6852", "is_disabled": 0, "rental_uris": {"android": "https://dc.lft.to/lastmile_qr_scan", "ios": "https://dc.lft.to/lastmile_qr_scan"}, "fusion_lon": 0.0, "lat": 38.92711416666667, "bike_id": "d264890ff7692c67c642747ef01c6852", "type": "electric_scooter", "is_reserved": 0, "lon": -77.02099833333334}, {"fusion_lat": 0.0, "name": "bdf6d3d3c5723ae3cb16427932e7811a", "is_disabled": 0, "rental_uris": {"android": "https://dc.lft.to/lastmile_qr_scan", "ios": "https://dc.lft.to/lastmile_qr_scan"}, "fusion_lon": 0.0, "lat": 38.9311735, "bike_id": "bdf6d3d3c5723ae3cb16427932e7811a", "type": "electric_scooter", "is_reserved": 0, "lon": -77.02086566666667}, {"fusion_lat": 0.0, "name": "4b2172ed9fb05ef29ad1191763119422", "is_disabled": 0, "rental_uris": {"android": "https://dc.lft.to/lastmile_qr_scan", "ios": "https://dc.lft.to/lastmile_qr_scan"}, "fusion_lon": 0.0, "lat": 38.9152345, "bike_id": "4b2172ed9fb05ef29ad1191763119422", "type": "electric_scooter", "is_reserved": 0, "lon": -77.07271466666667}, {"fusion_lat": 0.0, "name": "523b7089c53525f885f52e1251a6a579", "is_disabled": 0, "rental_uris": {"android": "https://dc.lft.to/lastmile_qr_scan", "ios": "https://dc.lft.to/lastmile_qr_scan"}, "fusion_lon": 0.0, "lat": 38.90933233333333, "bike_id": "523b7089c53525f885f52e1251a6a579", "type": "electric_scooter", "is_reserved": 0, "lon": -77.0627005}, {"fusion_lat": 0.0, "name": "544784ca7db89ef0a01850564df42472", "is_disabled": 0, "rental_uris": {"android": "https://dc.lft.to/lastmile_qr_scan", "ios": "https://dc.lft.to/lastmile_qr_scan"}, "fusion_lon": 0.0, "lat": 38.89667983333333, "bike_id": "544784ca7db89ef0a01850564df42472", "type": "electric_scooter", "is_reserved": 0, "lon": -76.9321035}, {"fusion_lat": 0.0, "name": "67bd3a786465c6eec0236cb08150feac", "is_disabled": 0, "rental_uris": {"android": "https://dc.lft.to/lastmile_qr_scan", "ios": "https://dc.lft.to/lastmile_qr_scan"}, "fusion_lon": 0.0, "lat": 38.936528333333335, "bike_id": "67bd3a786465c6eec0236cb08150feac", "type": "electric_scooter", "is_reserved": 0, "lon": -77.03652083333333}, {"fusion_lat": 0.0, "name": "e865ec1dd254981b835001eff9ad8eba", "is_disabled": 0, "rental_uris": {"android": "https://dc.lft.to/lastmile_qr_scan", "ios": "https://dc.lft.to/lastmile_qr_scan"}, "fusion_lon": 0.0, "lat": 38.92475116666667, "bike_id": "e865ec1dd254981b835001eff9ad8eba", "type": "electric_bike", "is_reserved": 0, "lon": -77.23342966666667}, {"fusion_lat": 0.0, "name": "44df74dc180309889088d293cfebee93", "is_disabled": 0, "rental_uris": {"android": "https://dc.lft.to/lastmile_qr_scan", "ios": "https://dc.lft.to/lastmile_qr_scan"}, "fusion_lon": 0.0, "lat": 38.948539333333336, "bike_id": "44df74dc180309889088d293cfebee93", "type": "electric_scooter", "is_reserved": 0, "lon": -77.02565933333334}, {"fusion_lat": 0.0, "name": "540eea48c50ab415105362b3810595bf", "is_disabled": 0, "rental_uris": {"android": "https://dc.lft.to/lastmile_qr_scan", "ios": "https://dc.lft.to/lastmile_qr_scan"}, "fusion_lon": 0.0, "lat": 38.942691333333336, "bike_id": "540eea48c50ab415105362b3810595bf", "type": "electric_scooter", "is_reserved": 0, "lon": -77.03260366666666}, {"fusion_lat": 0.0, "name": "7b861a4c7c0ef5cb9c5f53f5dfa6a27e", "is_disabled": 0, "rental_uris": {"android": "https://dc.lft.to/lastmile_qr_scan", "ios": "https://dc.lft.to/lastmile_qr_scan"}, "fusion_lon": 0.0, "lat": 38.915611166666665, "bike_id": "7b861a4c7c0ef5cb9c5f53f5dfa6a27e", "type": "electric_scooter", "is_reserved": 0, "lon": -77.01138133333333}, {"fusion_lat": 0.0, "name": "b7b3c0220ce9f9e69586c626deec38e6", "is_disabled": 0, "rental_uris": {"android": "https://dc.lft.to/lastmile_qr_scan", "ios": "https://dc.lft.to/lastmile_qr_scan"}, "fusion_lon": 0.0, "lat": 38.897070166666666, "bike_id": "b7b3c0220ce9f9e69586c626deec38e6", "type": "electric_scooter", "is_reserved": 0, "lon": -77.02140616666667}, {"fusion_lat": 0.0, "name": "f7546ccb7e9abdb9863bebcf47870c97", "is_disabled": 0, "rental_uris": {"android": "https://dc.lft.to/lastmile_qr_scan", "ios": "https://dc.lft.to/lastmile_qr_scan"}, "fusion_lon": 0.0, "lat": 38.902784, "bike_id": "f7546ccb7e9abdb9863bebcf47870c97", "type": "electric_scooter", "is_reserved": 0, "lon": -77.01772416666667}, {"fusion_lat": 0.0, "name": "82169191f88231b5aa4bfff4964b3a03", "is_disabled": 0, "rental_uris": {"android": "https://dc.lft.to/lastmile_qr_scan", "ios": "https://dc.lft.to/lastmile_qr_scan"}, "fusion_lon": 0.0, "lat": 38.90359866666667, "bike_id": "82169191f88231b5aa4bfff4964b3a03", "type": "electric_scooter", "is_reserved": 0, "lon": -77.05479133333333}, {"fusion_lat": 0.0, "name": "384e31dccb02722f465772243589ddde", "is_disabled": 0, "rental_uris": {"android": "https://dc.lft.to/lastmile_qr_scan", "ios": "https://dc.lft.to/lastmile_qr_scan"}, "fusion_lon": 0.0, "lat": 38.835094, "bike_id": "384e31dccb02722f465772243589ddde", "type": "electric_bike", "is_reserved": 0, "lon": -76.98676816666666}, {"fusion_lat": 0.0, "name": "2021834ecd4446e9448d55582182b586", "is_disabled": 0, "rental_uris": {"android": "https://dc.lft.to/lastmile_qr_scan", "ios": "https://dc.lft.to/lastmile_qr_scan"}, "fusion_lon": 0.0, "lat": 38.940078666666665, "bike_id": "2021834ecd4446e9448d55582182b586", "type": "electric_scooter", "is_reserved": 0, "lon": -77.08415683333334}, {"fusion_lat": 0.0, "name": "0b1677fd05ee6eee40e1d766069834c8", "is_disabled": 0, "rental_uris": {"android": "https://dc.lft.to/lastmile_qr_scan", "ios": "https://dc.lft.to/lastmile_qr_scan"}, "fusion_lon": 0.0, "lat": 38.884022333333334, "bike_id": "0b1677fd05ee6eee40e1d766069834c8", "type": "electric_scooter", "is_reserved": 0, "lon": -76.985895}, {"fusion_lat": 0.0, "name": "0e445da949304898aa14df000f9114b8", "is_disabled": 0, "rental_uris": {"android": "https://dc.lft.to/lastmile_qr_scan", "ios": "https://dc.lft.to/lastmile_qr_scan"}, "fusion_lon": 0.0, "lat": 38.900180666666664, "bike_id": "0e445da949304898aa14df000f9114b8", "type": "electric_scooter", "is_reserved": 0, "lon": -77.01628183333334}, {"fusion_lat": 0.0, "name": "2a3c8faa4d4e1d330d64f516d8fa8106", "is_disabled": 0, "rental_uris": {"android": "https://dc.lft.to/lastmile_qr_scan", "ios": "https://dc.lft.to/lastmile_qr_scan"}, "fusion_lon": 0.0, "lat": 38.9078055, "bike_id": "2a3c8faa4d4e1d330d64f516d8fa8106", "type": "electric_scooter", "is_reserved": 0, "lon": -77.0559715}, {"fusion_lat": 0.0, "name": "1319c4c84d09c259b443f209d24e2095", "is_disabled": 0, "rental_uris": {"android": "https://dc.lft.to/lastmile_qr_scan", "ios": "https://dc.lft.to/lastmile_qr_scan"}, "fusion_lon": 0.0, "lat": 38.887297, "bike_id": "1319c4c84d09c259b443f209d24e2095", "type": "electric_scooter", "is_reserved": 0, "lon": -77.03182166666667}, {"fusion_lat": 0.0, "name": "ce06eb4458c2a7911c04d2a40a8f8b6a", "is_disabled": 0, "rental_uris": {"android": "https://dc.lft.to/lastmile_qr_scan", "ios": "https://dc.lft.to/lastmile_qr_scan"}, "fusion_lon": 0.0, "lat": 38.90065416666667, "bike_id": "ce06eb4458c2a7911c04d2a40a8f8b6a", "type": "electric_scooter", "is_reserved": 0, "lon": -76.93383366666667}, {"fusion_lat": 0.0, "name": "421c3e8004f4f8979cc5e9eacec69e2b", "is_disabled": 0, "rental_uris": {"android": "https://dc.lft.to/lastmile_qr_scan", "ios": "https://dc.lft.to/lastmile_qr_scan"}, "fusion_lon": 0.0, "lat": 38.886772, "bike_id": "421c3e8004f4f8979cc5e9eacec69e2b", "type": "electric_scooter", "is_reserved": 0, "lon": -77.01378083333333}, {"fusion_lat": 0.0, "name": "df10be4e56ed1067ad4101b5d4ff1426", "is_disabled": 0, "rental_uris": {"android": "https://dc.lft.to/lastmile_qr_scan", "ios": "https://dc.lft.to/lastmile_qr_scan"}, "fusion_lon": 0.0, "lat": 38.91719583333333, "bike_id": "df10be4e56ed1067ad4101b5d4ff1426", "type": "electric_scooter", "is_reserved": 0, "lon": -77.02807883333334}, {"fusion_lat": 0.0, "name": "29c85dba502ac1de262bbd8e07eb3189", "is_disabled": 0, "rental_uris": {"android": "https://dc.lft.to/lastmile_qr_scan", "ios": "https://dc.lft.to/lastmile_qr_scan"}, "fusion_lon": 0.0, "lat": 38.92156966666667, "bike_id": "29c85dba502ac1de262bbd8e07eb3189", "type": "electric_scooter", "is_reserved": 0, "lon": -77.02085666666666}, {"fusion_lat": 0.0, "name": "f809180cbd12e454bd51bc2401219bbb", "is_disabled": 0, "rental_uris": {"android": "https://dc.lft.to/lastmile_qr_scan", "ios": "https://dc.lft.to/lastmile_qr_scan"}, "fusion_lon": 0.0, "lat": 38.895587166666665, "bike_id": "f809180cbd12e454bd51bc2401219bbb", "type": "electric_scooter", "is_reserved": 0, "lon": -76.99429083333334}, {"fusion_lat": 0.0, "name": "536be77e5f9a2690933f737853948f5a", "is_disabled": 0, "rental_uris": {"android": "https://dc.lft.to/lastmile_qr_scan", "ios": "https://dc.lft.to/lastmile_qr_scan"}, "fusion_lon": 0.0, "lat": 38.911266166666664, "bike_id": "536be77e5f9a2690933f737853948f5a", "type": "electric_scooter", "is_reserved": 0, "lon": -77.03186133333334}, {"fusion_lat": 0.0, "name": "5ef0c7a404ab7484f321323063d43629", "is_disabled": 0, "rental_uris": {"android": "https://dc.lft.to/lastmile_qr_scan", "ios": "https://dc.lft.to/lastmile_qr_scan"}, "fusion_lon": 0.0, "lat": 39.0860165, "bike_id": "5ef0c7a404ab7484f321323063d43629", "type": "electric_bike", "is_reserved": 0, "lon": -77.15255483333334}, {"fusion_lat": 0.0, "name": "9be1dc4312d39541fae729e4fb2cf0e3", "is_disabled": 0, "rental_uris": {"android": "https://dc.lft.to/lastmile_qr_scan", "ios": "https://dc.lft.to/lastmile_qr_scan"}, "fusion_lon": 0.0, "lat": 39.0141765, "bike_id": "9be1dc4312d39541fae729e4fb2cf0e3", "type": "electric_bike", "is_reserved": 0, "lon": -77.04498083333333}, {"fusion_lat": 0.0, "name": "d26ace51fae54f66a8bc1c74a6604e18", "is_disabled": 0, "rental_uris": {"android": "https://dc.lft.to/lastmile_qr_scan", "ios": "https://dc.lft.to/lastmile_qr_scan"}, "fusion_lon": 0.0, "lat": 38.897008166666666, "bike_id": "d26ace51fae54f66a8bc1c74a6604e18", "type": "electric_scooter", "is_reserved": 0, "lon": -77.0238155}, {"fusion_lat": 0.0, "name": "cd47cc471b7a8b63063b3348b373efc1", "is_disabled": 0, "rental_uris": {"android": "https://dc.lft.to/lastmile_qr_scan", "ios": "https://dc.lft.to/lastmile_qr_scan"}, "fusion_lon": 0.0, "lat": 38.885019666666665, "bike_id": "cd47cc471b7a8b63063b3348b373efc1", "type": "electric_scooter", "is_reserved": 0, "lon": -76.99746666666667}, {"fusion_lat": 0.0, "name": "e6e26edcae831becb51e8a1bdc545a28", "is_disabled": 0, "rental_uris": {"android": "https://dc.lft.to/lastmile_qr_scan", "ios": "https://dc.lft.to/lastmile_qr_scan"}, "fusion_lon": 0.0, "lat": 38.92880916666667, "bike_id": "e6e26edcae831becb51e8a1bdc545a28", "type": "electric_scooter", "is_reserved": 0, "lon": -77.03220066666667}, {"fusion_lat": 0.0, "name": "78737217f41efa99ae6c54b56c8601a1", "is_disabled": 0, "rental_uris": {"android": "https://dc.lft.to/lastmile_qr_scan", "ios": "https://dc.lft.to/lastmile_qr_scan"}, "fusion_lon": 0.0, "lat": 38.9016815, "bike_id": "78737217f41efa99ae6c54b56c8601a1", "type": "electric_scooter", "is_reserved": 0, "lon": -77.02018183333334}, {"fusion_lat": 0.0, "name": "0418def2037e9048d3b4e588123b6979", "is_disabled": 0, "rental_uris": {"android": "https://dc.lft.to/lastmile_qr_scan", "ios": "https://dc.lft.to/lastmile_qr_scan"}, "fusion_lon": 0.0, "lat": 38.91208266666667, "bike_id": "0418def2037e9048d3b4e588123b6979", "type": "electric_scooter", "is_reserved": 0, "lon": -77.03659966666666}, {"fusion_lat": 0.0, "name": "9289fb431ba9ae6321917c2df0ef82ab", "is_disabled": 0, "rental_uris": {"android": "https://dc.lft.to/lastmile_qr_scan", "ios": "https://dc.lft.to/lastmile_qr_scan"}, "fusion_lon": 0.0, "lat": 38.917452833333336, "bike_id": "9289fb431ba9ae6321917c2df0ef82ab", "type": "electric_scooter", "is_reserved": 0, "lon": -77.006659}, {"fusion_lat": 0.0, "name": "02f6cb04c9eeb640671d3ef10b576aaf", "is_disabled": 0, "rental_uris": {"android": "https://dc.lft.to/lastmile_qr_scan", "ios": "https://dc.lft.to/lastmile_qr_scan"}, "fusion_lon": 0.0, "lat": 38.9370635, "bike_id": "02f6cb04c9eeb640671d3ef10b576aaf", "type": "electric_scooter", "is_reserved": 0, "lon": -77.02435266666667}, {"fusion_lat": 0.0, "name": "529a6ecf3702e04fc3b18d25298215b5", "is_disabled": 0, "rental_uris": {"android": "https://dc.lft.to/lastmile_qr_scan", "ios": "https://dc.lft.to/lastmile_qr_scan"}, "fusion_lon": 0.0, "lat": 38.920768, "bike_id": "529a6ecf3702e04fc3b18d25298215b5", "type": "electric_scooter", "is_reserved": 0, "lon": -77.0148165}, {"fusion_lat": 0.0, "name": "214c83830224f982cce004a6aee3334f", "is_disabled": 0, "rental_uris": {"android": "https://dc.lft.to/lastmile_qr_scan", "ios": "https://dc.lft.to/lastmile_qr_scan"}, "fusion_lon": 0.0, "lat": 38.943875, "bike_id": "214c83830224f982cce004a6aee3334f", "type": "electric_scooter", "is_reserved": 0, "lon": -77.0950795}, {"fusion_lat": 0.0, "name": "f2a785dde32ac344885a139ae75740ca", "is_disabled": 0, "rental_uris": {"android": "https://dc.lft.to/lastmile_qr_scan", "ios": "https://dc.lft.to/lastmile_qr_scan"}, "fusion_lon": 0.0, "lat": 38.945030333333335, "bike_id": "f2a785dde32ac344885a139ae75740ca", "type": "electric_scooter", "is_reserved": 0, "lon": -77.031518}, {"fusion_lat": 0.0, "name": "b4e5869f839db2c21a2cda30f1fcf411", "is_disabled": 0, "rental_uris": {"android": "https://dc.lft.to/lastmile_qr_scan", "ios": "https://dc.lft.to/lastmile_qr_scan"}, "fusion_lon": 0.0, "lat": 38.91167183333334, "bike_id": "b4e5869f839db2c21a2cda30f1fcf411", "type": "electric_bike", "is_reserved": 0, "lon": -77.00275366666666}, {"fusion_lat": 0.0, "name": "59356dac39e590e61bc49936c46e861e", "is_disabled": 0, "rental_uris": {"android": "https://dc.lft.to/lastmile_qr_scan", "ios": "https://dc.lft.to/lastmile_qr_scan"}, "fusion_lon": 0.0, "lat": 38.91424083333333, "bike_id": "59356dac39e590e61bc49936c46e861e", "type": "electric_scooter", "is_reserved": 0, "lon": -77.03205733333333}, {"fusion_lat": 0.0, "name": "855fdfa7ff73ecf9406a59259c6e3b3f", "is_disabled": 0, "rental_uris": {"android": "https://dc.lft.to/lastmile_qr_scan", "ios": "https://dc.lft.to/lastmile_qr_scan"}, "fusion_lon": 0.0, "lat": 38.95753033333333, "bike_id": "855fdfa7ff73ecf9406a59259c6e3b3f", "type": "electric_bike", "is_reserved": 0, "lon": -77.02171166666666}, {"fusion_lat": 0.0, "name": "45a5cd3f3b62603bcfa6f616609f5266", "is_disabled": 0, "rental_uris": {"android": "https://dc.lft.to/lastmile_qr_scan", "ios": "https://dc.lft.to/lastmile_qr_scan"}, "fusion_lon": 0.0, "lat": 38.91629283333333, "bike_id": "45a5cd3f3b62603bcfa6f616609f5266", "type": "electric_scooter", "is_reserved": 0, "lon": -77.00584483333333}, {"fusion_lat": 0.0, "name": "03c83e2101abe25cf8a853783d08e4aa", "is_disabled": 0, "rental_uris": {"android": "https://dc.lft.to/lastmile_qr_scan", "ios": "https://dc.lft.to/lastmile_qr_scan"}, "fusion_lon": 0.0, "lat": 38.89738033333333, "bike_id": "03c83e2101abe25cf8a853783d08e4aa", "type": "electric_scooter", "is_reserved": 0, "lon": -77.046611}, {"fusion_lat": 0.0, "name": "fcb8467b35e1b03013bd6d98a36a2785", "is_disabled": 0, "rental_uris": {"android": "https://dc.lft.to/lastmile_qr_scan", "ios": "https://dc.lft.to/lastmile_qr_scan"}, "fusion_lon": 0.0, "lat": 38.843531666666664, "bike_id": "fcb8467b35e1b03013bd6d98a36a2785", "type": "electric_bike", "is_reserved": 0, "lon": -76.9782105}, {"fusion_lat": 0.0, "name": "ccf5bfab0bc3fe8cc539b529b63331eb", "is_disabled": 0, "rental_uris": {"android": "https://dc.lft.to/lastmile_qr_scan", "ios": "https://dc.lft.to/lastmile_qr_scan"}, "fusion_lon": 0.0, "lat": 38.9053395, "bike_id": "ccf5bfab0bc3fe8cc539b529b63331eb", "type": "electric_scooter", "is_reserved": 0, "lon": -77.05969333333333}, {"fusion_lat": 0.0, "name": "d197cf75f7cdfa4b4d42b61c36627b0f", "is_disabled": 0, "rental_uris": {"android": "https://dc.lft.to/lastmile_qr_scan", "ios": "https://dc.lft.to/lastmile_qr_scan"}, "fusion_lon": 0.0, "lat": 38.88359666666667, "bike_id": "d197cf75f7cdfa4b4d42b61c36627b0f", "type": "electric_scooter", "is_reserved": 0, "lon": -76.9415775}, {"fusion_lat": 0.0, "name": "14313f4bb9f57135a710a43e9361b9c1", "is_disabled": 0, "rental_uris": {"android": "https://dc.lft.to/lastmile_qr_scan", "ios": "https://dc.lft.to/lastmile_qr_scan"}, "fusion_lon": 0.0, "lat": 38.904222, "bike_id": "14313f4bb9f57135a710a43e9361b9c1", "type": "electric_scooter", "is_reserved": 0, "lon": -76.9497725}, {"fusion_lat": 0.0, "name": "53ae5bac9f7d8aa7bbd5b49031c256e2", "is_disabled": 0, "rental_uris": {"android": "https://dc.lft.to/lastmile_qr_scan", "ios": "https://dc.lft.to/lastmile_qr_scan"}, "fusion_lon": 0.0, "lat": 38.90955066666667, "bike_id": "53ae5bac9f7d8aa7bbd5b49031c256e2", "type": "electric_scooter", "is_reserved": 0, "lon": -77.01041583333334}, {"fusion_lat": 0.0, "name": "9d56d877901a13eaa111821b1753bb43", "is_disabled": 0, "rental_uris": {"android": "https://dc.lft.to/lastmile_qr_scan", "ios": "https://dc.lft.to/lastmile_qr_scan"}, "fusion_lon": 0.0, "lat": 38.928148166666666, "bike_id": "9d56d877901a13eaa111821b1753bb43", "type": "electric_scooter", "is_reserved": 0, "lon": -77.04363333333333}, {"fusion_lat": 0.0, "name": "1164aff997d11bbde455b3c56b899f3d", "is_disabled": 0, "rental_uris": {"android": "https://dc.lft.to/lastmile_qr_scan", "ios": "https://dc.lft.to/lastmile_qr_scan"}, "fusion_lon": 0.0, "lat": 38.940830166666665, "bike_id": "1164aff997d11bbde455b3c56b899f3d", "type": "electric_scooter", "is_reserved": 0, "lon": -77.02396633333333}, {"fusion_lat": 0.0, "name": "c6e27e4bc34494cba43fc47eda1470ae", "is_disabled": 0, "rental_uris": {"android": "https://dc.lft.to/lastmile_qr_scan", "ios": "https://dc.lft.to/lastmile_qr_scan"}, "fusion_lon": 0.0, "lat": 38.928263666666666, "bike_id": "c6e27e4bc34494cba43fc47eda1470ae", "type": "electric_scooter", "is_reserved": 0, "lon": -77.02257183333333}, {"fusion_lat": 0.0, "name": "1987b3c8c16bc48674f6dd3a12254509", "is_disabled": 0, "rental_uris": {"android": "https://dc.lft.to/lastmile_qr_scan", "ios": "https://dc.lft.to/lastmile_qr_scan"}, "fusion_lon": 0.0, "lat": 38.887393833333334, "bike_id": "1987b3c8c16bc48674f6dd3a12254509", "type": "electric_scooter", "is_reserved": 0, "lon": -77.01536166666666}, {"fusion_lat": 0.0, "name": "1a0763b724404b1e413ddd2aadca7e84", "is_disabled": 0, "rental_uris": {"android": "https://dc.lft.to/lastmile_qr_scan", "ios": "https://dc.lft.to/lastmile_qr_scan"}, "fusion_lon": 0.0, "lat": 38.9249095, "bike_id": "1a0763b724404b1e413ddd2aadca7e84", "type": "electric_scooter", "is_reserved": 0, "lon": -77.05750616666667}, {"fusion_lat": 0.0, "name": "263888d053c52892e56ce1430d941d46", "is_disabled": 0, "rental_uris": {"android": "https://dc.lft.to/lastmile_qr_scan", "ios": "https://dc.lft.to/lastmile_qr_scan"}, "fusion_lon": 0.0, "lat": 38.90867133333333, "bike_id": "263888d053c52892e56ce1430d941d46", "type": "electric_scooter", "is_reserved": 0, "lon": -77.034598}, {"fusion_lat": 0.0, "name": "ee6082c79abb78dd0e240bd7b8dfd74c", "is_disabled": 0, "rental_uris": {"android": "https://dc.lft.to/lastmile_qr_scan", "ios": "https://dc.lft.to/lastmile_qr_scan"}, "fusion_lon": 0.0, "lat": 38.8956455, "bike_id": "ee6082c79abb78dd0e240bd7b8dfd74c", "type": "electric_scooter", "is_reserved": 0, "lon": -77.02522266666666}, {"fusion_lat": 0.0, "name": "500c91906a47fd1ba172286e7e264bfb", "is_disabled": 0, "rental_uris": {"android": "https://dc.lft.to/lastmile_qr_scan", "ios": "https://dc.lft.to/lastmile_qr_scan"}, "fusion_lon": 0.0, "lat": 38.926067833333335, "bike_id": "500c91906a47fd1ba172286e7e264bfb", "type": "electric_scooter", "is_reserved": 0, "lon": -77.0395925}, {"fusion_lat": 0.0, "name": "10b57d5411ec6f46b7b6295139ff2435", "is_disabled": 0, "rental_uris": {"android": "https://dc.lft.to/lastmile_qr_scan", "ios": "https://dc.lft.to/lastmile_qr_scan"}, "fusion_lon": 0.0, "lat": 38.90958233333333, "bike_id": "10b57d5411ec6f46b7b6295139ff2435", "type": "electric_scooter", "is_reserved": 0, "lon": -77.04871}, {"fusion_lat": 0.0, "name": "00f3994a953432c97b00cb96dcba3f2d", "is_disabled": 0, "rental_uris": {"android": "https://dc.lft.to/lastmile_qr_scan", "ios": "https://dc.lft.to/lastmile_qr_scan"}, "fusion_lon": 0.0, "lat": 38.90453733333333, "bike_id": "00f3994a953432c97b00cb96dcba3f2d", "type": "electric_scooter", "is_reserved": 0, "lon": -77.00162033333334}, {"fusion_lat": 0.0, "name": "b50c57efdade74f34f3bc5bec5160bc9", "is_disabled": 0, "rental_uris": {"android": "https://dc.lft.to/lastmile_qr_scan", "ios": "https://dc.lft.to/lastmile_qr_scan"}, "fusion_lon": 0.0, "lat": 38.8851145, "bike_id": "b50c57efdade74f34f3bc5bec5160bc9", "type": "electric_scooter", "is_reserved": 0, "lon": -77.01500383333334}, {"fusion_lat": 0.0, "name": "2ba5cec0ea5a6dfb7feea4432510da86", "is_disabled": 0, "rental_uris": {"android": "https://dc.lft.to/lastmile_qr_scan", "ios": "https://dc.lft.to/lastmile_qr_scan"}, "fusion_lon": 0.0, "lat": 38.9622915, "bike_id": "2ba5cec0ea5a6dfb7feea4432510da86", "type": "electric_bike", "is_reserved": 0, "lon": -77.02630366666666}, {"fusion_lat": 0.0, "name": "a8f548f7930aff1b68863fce97a3497e", "is_disabled": 0, "rental_uris": {"android": "https://dc.lft.to/lastmile_qr_scan", "ios": "https://dc.lft.to/lastmile_qr_scan"}, "fusion_lon": 0.0, "lat": 38.920393, "bike_id": "a8f548f7930aff1b68863fce97a3497e", "type": "electric_scooter", "is_reserved": 0, "lon": -77.0175955}, {"fusion_lat": 0.0, "name": "4865a263c56a55f8d5e0fd57ac8a4a8f", "is_disabled": 0, "rental_uris": {"android": "https://dc.lft.to/lastmile_qr_scan", "ios": "https://dc.lft.to/lastmile_qr_scan"}, "fusion_lon": 0.0, "lat": 38.87813416666667, "bike_id": "4865a263c56a55f8d5e0fd57ac8a4a8f", "type": "electric_scooter", "is_reserved": 0, "lon": -77.01327733333333}, {"fusion_lat": 0.0, "name": "c9ec9e83b048efc824a692632b33a6fc", "is_disabled": 0, "rental_uris": {"android": "https://dc.lft.to/lastmile_qr_scan", "ios": "https://dc.lft.to/lastmile_qr_scan"}, "fusion_lon": 0.0, "lat": 38.92445033333333, "bike_id": "c9ec9e83b048efc824a692632b33a6fc", "type": "electric_scooter", "is_reserved": 0, "lon": -77.02707233333334}, {"fusion_lat": 0.0, "name": "ba5290f1071adcb3507fc8f7b6d235cb", "is_disabled": 0, "rental_uris": {"android": "https://dc.lft.to/lastmile_qr_scan", "ios": "https://dc.lft.to/lastmile_qr_scan"}, "fusion_lon": 0.0, "lat": 38.880463666666664, "bike_id": "ba5290f1071adcb3507fc8f7b6d235cb", "type": "electric_scooter", "is_reserved": 0, "lon": -77.00528233333333}, {"fusion_lat": 0.0, "name": "3f1d8c9b22d4deeb1ec0c5704b776224", "is_disabled": 0, "rental_uris": {"android": "https://dc.lft.to/lastmile_qr_scan", "ios": "https://dc.lft.to/lastmile_qr_scan"}, "fusion_lon": 0.0, "lat": 38.8823115, "bike_id": "3f1d8c9b22d4deeb1ec0c5704b776224", "type": "electric_scooter", "is_reserved": 0, "lon": -77.02615383333334}, {"fusion_lat": 0.0, "name": "6fd854c18cd18e3262805089f10bc8bd", "is_disabled": 0, "rental_uris": {"android": "https://dc.lft.to/lastmile_qr_scan", "ios": "https://dc.lft.to/lastmile_qr_scan"}, "fusion_lon": 0.0, "lat": 38.899952666666664, "bike_id": "6fd854c18cd18e3262805089f10bc8bd", "type": "electric_scooter", "is_reserved": 0, "lon": -76.99012733333333}, {"fusion_lat": 0.0, "name": "1ad2089ef1203031f637c28e95f8930d", "is_disabled": 0, "rental_uris": {"android": "https://dc.lft.to/lastmile_qr_scan", "ios": "https://dc.lft.to/lastmile_qr_scan"}, "fusion_lon": 0.0, "lat": 38.9269875, "bike_id": "1ad2089ef1203031f637c28e95f8930d", "type": "electric_scooter", "is_reserved": 0, "lon": -77.0208565}, {"fusion_lat": 0.0, "name": "5c6a1d89f2401c60aee62abaf5d9e43c", "is_disabled": 0, "rental_uris": {"android": "https://dc.lft.to/lastmile_qr_scan", "ios": "https://dc.lft.to/lastmile_qr_scan"}, "fusion_lon": 0.0, "lat": 38.933467666666665, "bike_id": "5c6a1d89f2401c60aee62abaf5d9e43c", "type": "electric_scooter", "is_reserved": 0, "lon": -77.02441216666666}, {"fusion_lat": 0.0, "name": "bfbe4ddca4c2cb782b74871007a2d8a5", "is_disabled": 0, "rental_uris": {"android": "https://dc.lft.to/lastmile_qr_scan", "ios": "https://dc.lft.to/lastmile_qr_scan"}, "fusion_lon": 0.0, "lat": 38.9167755, "bike_id": "bfbe4ddca4c2cb782b74871007a2d8a5", "type": "electric_scooter", "is_reserved": 0, "lon": -77.023183}, {"fusion_lat": 0.0, "name": "a759b5bc82b23bfc385c930b31cc33a6", "is_disabled": 0, "rental_uris": {"android": "https://dc.lft.to/lastmile_qr_scan", "ios": "https://dc.lft.to/lastmile_qr_scan"}, "fusion_lon": 0.0, "lat": 38.92256733333333, "bike_id": "a759b5bc82b23bfc385c930b31cc33a6", "type": "electric_scooter", "is_reserved": 0, "lon": -77.03520083333333}, {"fusion_lat": 0.0, "name": "5fbba5f588b5500ec2e412ee16ed5f3d", "is_disabled": 0, "rental_uris": {"android": "https://dc.lft.to/lastmile_qr_scan", "ios": "https://dc.lft.to/lastmile_qr_scan"}, "fusion_lon": 0.0, "lat": 38.8987475, "bike_id": "5fbba5f588b5500ec2e412ee16ed5f3d", "type": "electric_scooter", "is_reserved": 0, "lon": -76.9318625}, {"fusion_lat": 0.0, "name": "123492e079cc78dc865bb3315030c392", "is_disabled": 0, "rental_uris": {"android": "https://dc.lft.to/lastmile_qr_scan", "ios": "https://dc.lft.to/lastmile_qr_scan"}, "fusion_lon": 0.0, "lat": 38.90739266666667, "bike_id": "123492e079cc78dc865bb3315030c392", "type": "electric_scooter", "is_reserved": 0, "lon": -77.02946616666667}, {"fusion_lat": 0.0, "name": "53989fb73c1470b62a130cb20000c80d", "is_disabled": 0, "rental_uris": {"android": "https://dc.lft.to/lastmile_qr_scan", "ios": "https://dc.lft.to/lastmile_qr_scan"}, "fusion_lon": 0.0, "lat": 38.91708, "bike_id": "53989fb73c1470b62a130cb20000c80d", "type": "electric_scooter", "is_reserved": 0, "lon": -77.03865016666667}, {"fusion_lat": 0.0, "name": "c5b6130208e927d80587f836141801fb", "is_disabled": 0, "rental_uris": {"android": "https://dc.lft.to/lastmile_qr_scan", "ios": "https://dc.lft.to/lastmile_qr_scan"}, "fusion_lon": 0.0, "lat": 38.932947166666665, "bike_id": "c5b6130208e927d80587f836141801fb", "type": "electric_scooter", "is_reserved": 0, "lon": -77.027986}, {"fusion_lat": 0.0, "name": "04cab40e230d47909d21c19375223d81", "is_disabled": 0, "rental_uris": {"android": "https://dc.lft.to/lastmile_qr_scan", "ios": "https://dc.lft.to/lastmile_qr_scan"}, "fusion_lon": 0.0, "lat": 38.886737833333335, "bike_id": "04cab40e230d47909d21c19375223d81", "type": "electric_scooter", "is_reserved": 0, "lon": -77.028359}, {"fusion_lat": 0.0, "name": "25a522eeeaedbe15202c4efadbb195b4", "is_disabled": 0, "rental_uris": {"android": "https://dc.lft.to/lastmile_qr_scan", "ios": "https://dc.lft.to/lastmile_qr_scan"}, "fusion_lon": 0.0, "lat": 38.926714, "bike_id": "25a522eeeaedbe15202c4efadbb195b4", "type": "electric_scooter", "is_reserved": 0, "lon": -77.032297}, {"fusion_lat": 0.0, "name": "7684efccab645c4b9ef9e32f3816e7fc", "is_disabled": 0, "rental_uris": {"android": "https://dc.lft.to/lastmile_qr_scan", "ios": "https://dc.lft.to/lastmile_qr_scan"}, "fusion_lon": 0.0, "lat": 38.900834, "bike_id": "7684efccab645c4b9ef9e32f3816e7fc", "type": "electric_scooter", "is_reserved": 0, "lon": -77.02590516666666}, {"fusion_lat": 0.0, "name": "93b61b400885282eaaf57953ca0c092d", "is_disabled": 0, "rental_uris": {"android": "https://dc.lft.to/lastmile_qr_scan", "ios": "https://dc.lft.to/lastmile_qr_scan"}, "fusion_lon": 0.0, "lat": 38.90101133333334, "bike_id": "93b61b400885282eaaf57953ca0c092d", "type": "electric_scooter", "is_reserved": 0, "lon": -77.01706533333333}, {"fusion_lat": 0.0, "name": "31b84a4d617e9911a3e7a7dc81f06ead", "is_disabled": 0, "rental_uris": {"android": "https://dc.lft.to/lastmile_qr_scan", "ios": "https://dc.lft.to/lastmile_qr_scan"}, "fusion_lon": 0.0, "lat": 38.928307, "bike_id": "31b84a4d617e9911a3e7a7dc81f06ead", "type": "electric_scooter", "is_reserved": 0, "lon": -77.03281016666666}, {"fusion_lat": 0.0, "name": "7dfb962a2639b9507b94dd916ea6078d", "is_disabled": 0, "rental_uris": {"android": "https://dc.lft.to/lastmile_qr_scan", "ios": "https://dc.lft.to/lastmile_qr_scan"}, "fusion_lon": 0.0, "lat": 38.99444866666666, "bike_id": "7dfb962a2639b9507b94dd916ea6078d", "type": "electric_bike", "is_reserved": 0, "lon": -76.99591216666667}, {"fusion_lat": 0.0, "name": "424ded283652e7d1faad134c5e6c587c", "is_disabled": 0, "rental_uris": {"android": "https://dc.lft.to/lastmile_qr_scan", "ios": "https://dc.lft.to/lastmile_qr_scan"}, "fusion_lon": 0.0, "lat": 38.91717116666667, "bike_id": "424ded283652e7d1faad134c5e6c587c", "type": "electric_scooter", "is_reserved": 0, "lon": -77.03254883333334}, {"fusion_lat": 0.0, "name": "c68850b87dbf06d650169a2acaf54822", "is_disabled": 0, "rental_uris": {"android": "https://dc.lft.to/lastmile_qr_scan", "ios": "https://dc.lft.to/lastmile_qr_scan"}, "fusion_lon": 0.0, "lat": 38.94050333333333, "bike_id": "c68850b87dbf06d650169a2acaf54822", "type": "electric_bike", "is_reserved": 0, "lon": -76.90422033333333}, {"fusion_lat": 0.0, "name": "a78986ee4315916c357360ec81d08e69", "is_disabled": 0, "rental_uris": {"android": "https://dc.lft.to/lastmile_qr_scan", "ios": "https://dc.lft.to/lastmile_qr_scan"}, "fusion_lon": 0.0, "lat": 38.9169215, "bike_id": "a78986ee4315916c357360ec81d08e69", "type": "electric_scooter", "is_reserved": 0, "lon": -77.03776866666666}, {"fusion_lat": 0.0, "name": "5107ffcea899c636ae8ce4ad43c4ab7b", "is_disabled": 0, "rental_uris": {"android": "https://dc.lft.to/lastmile_qr_scan", "ios": "https://dc.lft.to/lastmile_qr_scan"}, "fusion_lon": 0.0, "lat": 38.903066, "bike_id": "5107ffcea899c636ae8ce4ad43c4ab7b", "type": "electric_scooter", "is_reserved": 0, "lon": -76.976535}, {"fusion_lat": 0.0, "name": "7fd9118c6021a7d68fd608095986e889", "is_disabled": 0, "rental_uris": {"android": "https://dc.lft.to/lastmile_qr_scan", "ios": "https://dc.lft.to/lastmile_qr_scan"}, "fusion_lon": 0.0, "lat": 38.94379333333333, "bike_id": "7fd9118c6021a7d68fd608095986e889", "type": "electric_scooter", "is_reserved": 0, "lon": -77.02597433333334}, {"fusion_lat": 0.0, "name": "653e3019138b10bbb65db1231eef2c5e", "is_disabled": 0, "rental_uris": {"android": "https://dc.lft.to/lastmile_qr_scan", "ios": "https://dc.lft.to/lastmile_qr_scan"}, "fusion_lon": 0.0, "lat": 38.91568783333334, "bike_id": "653e3019138b10bbb65db1231eef2c5e", "type": "electric_scooter", "is_reserved": 0, "lon": -77.0400945}, {"fusion_lat": 0.0, "name": "06dcb51d111b8070654e24912592c4e0", "is_disabled": 0, "rental_uris": {"android": "https://dc.lft.to/lastmile_qr_scan", "ios": "https://dc.lft.to/lastmile_qr_scan"}, "fusion_lon": 0.0, "lat": 38.928388166666664, "bike_id": "06dcb51d111b8070654e24912592c4e0", "type": "electric_scooter", "is_reserved": 0, "lon": -77.01586266666666}, {"fusion_lat": 0.0, "name": "7b93dacd7ee5c65a5fcb75b570148524", "is_disabled": 0, "rental_uris": {"android": "https://dc.lft.to/lastmile_qr_scan", "ios": "https://dc.lft.to/lastmile_qr_scan"}, "fusion_lon": 0.0, "lat": 38.935333666666665, "bike_id": "7b93dacd7ee5c65a5fcb75b570148524", "type": "electric_scooter", "is_reserved": 0, "lon": -77.02356116666667}, {"fusion_lat": 0.0, "name": "8cf261e12d590f2de85d2c244598052f", "is_disabled": 0, "rental_uris": {"android": "https://dc.lft.to/lastmile_qr_scan", "ios": "https://dc.lft.to/lastmile_qr_scan"}, "fusion_lon": 0.0, "lat": 38.89909266666667, "bike_id": "8cf261e12d590f2de85d2c244598052f", "type": "electric_scooter", "is_reserved": 0, "lon": -76.93359033333333}, {"fusion_lat": 0.0, "name": "12353e1a4cf6a8700659f00f1f2b047f", "is_disabled": 0, "rental_uris": {"android": "https://dc.lft.to/lastmile_qr_scan", "ios": "https://dc.lft.to/lastmile_qr_scan"}, "fusion_lon": 0.0, "lat": 38.96317466666667, "bike_id": "12353e1a4cf6a8700659f00f1f2b047f", "type": "electric_scooter", "is_reserved": 0, "lon": -77.07493366666667}, {"fusion_lat": 0.0, "name": "ce3a25f2414f83ebac961db1aa1ac743", "is_disabled": 0, "rental_uris": {"android": "https://dc.lft.to/lastmile_qr_scan", "ios": "https://dc.lft.to/lastmile_qr_scan"}, "fusion_lon": 0.0, "lat": 38.91258933333334, "bike_id": "ce3a25f2414f83ebac961db1aa1ac743", "type": "electric_scooter", "is_reserved": 0, "lon": -77.00325833333333}, {"fusion_lat": 0.0, "name": "8c0b59806413c012111597cbbca0e61b", "is_disabled": 0, "rental_uris": {"android": "https://dc.lft.to/lastmile_qr_scan", "ios": "https://dc.lft.to/lastmile_qr_scan"}, "fusion_lon": 0.0, "lat": 38.899132, "bike_id": "8c0b59806413c012111597cbbca0e61b", "type": "electric_scooter", "is_reserved": 0, "lon": -76.94586533333333}, {"fusion_lat": 0.0, "name": "03919e7f42a1cab3d6fad3ee36d05cd9", "is_disabled": 0, "rental_uris": {"android": "https://dc.lft.to/lastmile_qr_scan", "ios": "https://dc.lft.to/lastmile_qr_scan"}, "fusion_lon": 0.0, "lat": 38.932914, "bike_id": "03919e7f42a1cab3d6fad3ee36d05cd9", "type": "electric_scooter", "is_reserved": 0, "lon": -77.02831033333334}, {"fusion_lat": 0.0, "name": "cdcddeb72f85c54d31887b61e0ba23a2", "is_disabled": 0, "rental_uris": {"android": "https://dc.lft.to/lastmile_qr_scan", "ios": "https://dc.lft.to/lastmile_qr_scan"}, "fusion_lon": 0.0, "lat": 38.885244, "bike_id": "cdcddeb72f85c54d31887b61e0ba23a2", "type": "electric_scooter", "is_reserved": 0, "lon": -76.92917416666667}, {"fusion_lat": 0.0, "name": "5aad124c235bcb799d7296570611c8f2", "is_disabled": 0, "rental_uris": {"android": "https://dc.lft.to/lastmile_qr_scan", "ios": "https://dc.lft.to/lastmile_qr_scan"}, "fusion_lon": 0.0, "lat": 38.91068766666667, "bike_id": "5aad124c235bcb799d7296570611c8f2", "type": "electric_scooter", "is_reserved": 0, "lon": -77.0270925}, {"fusion_lat": 0.0, "name": "2e0a62af23627442fcd8d7a17cf0b0f7", "is_disabled": 0, "rental_uris": {"android": "https://dc.lft.to/lastmile_qr_scan", "ios": "https://dc.lft.to/lastmile_qr_scan"}, "fusion_lon": 0.0, "lat": 38.91622483333333, "bike_id": "2e0a62af23627442fcd8d7a17cf0b0f7", "type": "electric_scooter", "is_reserved": 0, "lon": -77.003301}, {"fusion_lat": 0.0, "name": "7b7f7b40ac3907f8084a526db96aec62", "is_disabled": 0, "rental_uris": {"android": "https://dc.lft.to/lastmile_qr_scan", "ios": "https://dc.lft.to/lastmile_qr_scan"}, "fusion_lon": 0.0, "lat": 38.91344183333333, "bike_id": "7b7f7b40ac3907f8084a526db96aec62", "type": "electric_bike", "is_reserved": 0, "lon": -76.988957}, {"fusion_lat": 0.0, "name": "99f6b90b8067adf0579aad3d28e2b5ed", "is_disabled": 0, "rental_uris": {"android": "https://dc.lft.to/lastmile_qr_scan", "ios": "https://dc.lft.to/lastmile_qr_scan"}, "fusion_lon": 0.0, "lat": 38.9029185, "bike_id": "99f6b90b8067adf0579aad3d28e2b5ed", "type": "electric_scooter", "is_reserved": 0, "lon": -76.99254366666666}, {"fusion_lat": 0.0, "name": "af17bcdfa0055bbdfa1c7344599af508", "is_disabled": 0, "rental_uris": {"android": "https://dc.lft.to/lastmile_qr_scan", "ios": "https://dc.lft.to/lastmile_qr_scan"}, "fusion_lon": 0.0, "lat": 38.9241835, "bike_id": "af17bcdfa0055bbdfa1c7344599af508", "type": "electric_scooter", "is_reserved": 0, "lon": -77.02010683333333}, {"fusion_lat": 0.0, "name": "e582749bd3ab9d8a1473f58775901719", "is_disabled": 0, "rental_uris": {"android": "https://dc.lft.to/lastmile_qr_scan", "ios": "https://dc.lft.to/lastmile_qr_scan"}, "fusion_lon": 0.0, "lat": 38.88663, "bike_id": "e582749bd3ab9d8a1473f58775901719", "type": "electric_scooter", "is_reserved": 0, "lon": -77.033893}, {"fusion_lat": 0.0, "name": "bcf8fadba2dbcffc41afcc42b47a6af2", "is_disabled": 0, "rental_uris": {"android": "https://dc.lft.to/lastmile_qr_scan", "ios": "https://dc.lft.to/lastmile_qr_scan"}, "fusion_lon": 0.0, "lat": 38.888107166666664, "bike_id": "bcf8fadba2dbcffc41afcc42b47a6af2", "type": "electric_scooter", "is_reserved": 0, "lon": -76.98358316666666}, {"fusion_lat": 0.0, "name": "4d32b43a77001282f70c7123761db992", "is_disabled": 0, "rental_uris": {"android": "https://dc.lft.to/lastmile_qr_scan", "ios": "https://dc.lft.to/lastmile_qr_scan"}, "fusion_lon": 0.0, "lat": 38.89943366666667, "bike_id": "4d32b43a77001282f70c7123761db992", "type": "electric_scooter", "is_reserved": 0, "lon": -77.053568}, {"fusion_lat": 0.0, "name": "0e7f73f3775646357aa28d9dd3def665", "is_disabled": 0, "rental_uris": {"android": "https://dc.lft.to/lastmile_qr_scan", "ios": "https://dc.lft.to/lastmile_qr_scan"}, "fusion_lon": 0.0, "lat": 38.887448, "bike_id": "0e7f73f3775646357aa28d9dd3def665", "type": "electric_scooter", "is_reserved": 0, "lon": -76.98358033333334}, {"fusion_lat": 0.0, "name": "333ec6bdda723ba8855ad8f2c882800a", "is_disabled": 0, "rental_uris": {"android": "https://dc.lft.to/lastmile_qr_scan", "ios": "https://dc.lft.to/lastmile_qr_scan"}, "fusion_lon": 0.0, "lat": 38.9268385, "bike_id": "333ec6bdda723ba8855ad8f2c882800a", "type": "electric_scooter", "is_reserved": 0, "lon": -77.03150733333334}, {"fusion_lat": 0.0, "name": "df02ca0e80baa507be532201a8189ad3", "is_disabled": 0, "rental_uris": {"android": "https://dc.lft.to/lastmile_qr_scan", "ios": "https://dc.lft.to/lastmile_qr_scan"}, "fusion_lon": 0.0, "lat": 38.941642333333334, "bike_id": "df02ca0e80baa507be532201a8189ad3", "type": "electric_scooter", "is_reserved": 0, "lon": -77.02512383333334}, {"fusion_lat": 0.0, "name": "32414b004b4d61729754865562c2f5d0", "is_disabled": 0, "rental_uris": {"android": "https://dc.lft.to/lastmile_qr_scan", "ios": "https://dc.lft.to/lastmile_qr_scan"}, "fusion_lon": 0.0, "lat": 38.904856333333335, "bike_id": "32414b004b4d61729754865562c2f5d0", "type": "electric_scooter", "is_reserved": 0, "lon": -77.046575}, {"fusion_lat": 0.0, "name": "a57b393083424b0650a7b031ef6e5256", "is_disabled": 0, "rental_uris": {"android": "https://dc.lft.to/lastmile_qr_scan", "ios": "https://dc.lft.to/lastmile_qr_scan"}, "fusion_lon": 0.0, "lat": 38.957379833333334, "bike_id": "a57b393083424b0650a7b031ef6e5256", "type": "electric_bike", "is_reserved": 0, "lon": -76.98085816666666}, {"fusion_lat": 0.0, "name": "09a6ce52f03b3feb6da16915cc13bdf9", "is_disabled": 0, "rental_uris": {"android": "https://dc.lft.to/lastmile_qr_scan", "ios": "https://dc.lft.to/lastmile_qr_scan"}, "fusion_lon": 0.0, "lat": 38.90238466666667, "bike_id": "09a6ce52f03b3feb6da16915cc13bdf9", "type": "electric_scooter", "is_reserved": 0, "lon": -77.04904016666667}, {"fusion_lat": 0.0, "name": "64c405437d3e04caef9e155b124d1de9", "is_disabled": 0, "rental_uris": {"android": "https://dc.lft.to/lastmile_qr_scan", "ios": "https://dc.lft.to/lastmile_qr_scan"}, "fusion_lon": 0.0, "lat": 38.95078683333333, "bike_id": "64c405437d3e04caef9e155b124d1de9", "type": "electric_bike", "is_reserved": 0, "lon": -77.01201116666667}, {"fusion_lat": 0.0, "name": "f5d4aa74008861b1684b83e2579af3ff", "is_disabled": 0, "rental_uris": {"android": "https://dc.lft.to/lastmile_qr_scan", "ios": "https://dc.lft.to/lastmile_qr_scan"}, "fusion_lon": 0.0, "lat": 38.936567833333335, "bike_id": "f5d4aa74008861b1684b83e2579af3ff", "type": "electric_scooter", "is_reserved": 0, "lon": -77.036913}, {"fusion_lat": 0.0, "name": "748f8e8eac329ded7a7454af84e09d67", "is_disabled": 0, "rental_uris": {"android": "https://dc.lft.to/lastmile_qr_scan", "ios": "https://dc.lft.to/lastmile_qr_scan"}, "fusion_lon": 0.0, "lat": 38.899053, "bike_id": "748f8e8eac329ded7a7454af84e09d67", "type": "electric_scooter", "is_reserved": 0, "lon": -76.9335375}, {"fusion_lat": 0.0, "name": "1f2eee0ec0d1593e3d21501c64121634", "is_disabled": 0, "rental_uris": {"android": "https://dc.lft.to/lastmile_qr_scan", "ios": "https://dc.lft.to/lastmile_qr_scan"}, "fusion_lon": 0.0, "lat": 38.921953, "bike_id": "1f2eee0ec0d1593e3d21501c64121634", "type": "electric_scooter", "is_reserved": 0, "lon": -77.08077883333333}, {"fusion_lat": 0.0, "name": "402ae1a170e986fe1d405533c1be3689", "is_disabled": 0, "rental_uris": {"android": "https://dc.lft.to/lastmile_qr_scan", "ios": "https://dc.lft.to/lastmile_qr_scan"}, "fusion_lon": 0.0, "lat": 38.93610133333333, "bike_id": "402ae1a170e986fe1d405533c1be3689", "type": "electric_scooter", "is_reserved": 0, "lon": -77.03194633333334}, {"fusion_lat": 0.0, "name": "7d230701a1728fb5514c89f44cc49fe5", "is_disabled": 0, "rental_uris": {"android": "https://dc.lft.to/lastmile_qr_scan", "ios": "https://dc.lft.to/lastmile_qr_scan"}, "fusion_lon": 0.0, "lat": 38.92703383333333, "bike_id": "7d230701a1728fb5514c89f44cc49fe5", "type": "electric_scooter", "is_reserved": 0, "lon": -77.02432816666666}, {"fusion_lat": 0.0, "name": "94a6c26c4ddb3b4013372b56bf1d2249", "is_disabled": 0, "rental_uris": {"android": "https://dc.lft.to/lastmile_qr_scan", "ios": "https://dc.lft.to/lastmile_qr_scan"}, "fusion_lon": 0.0, "lat": 38.892361666666666, "bike_id": "94a6c26c4ddb3b4013372b56bf1d2249", "type": "electric_scooter", "is_reserved": 0, "lon": -77.03179233333333}, {"fusion_lat": 0.0, "name": "d76a3bb8a77df65607233c603a780554", "is_disabled": 0, "rental_uris": {"android": "https://dc.lft.to/lastmile_qr_scan", "ios": "https://dc.lft.to/lastmile_qr_scan"}, "fusion_lon": 0.0, "lat": 38.892227166666665, "bike_id": "d76a3bb8a77df65607233c603a780554", "type": "electric_scooter", "is_reserved": 0, "lon": -77.04686666666667}, {"fusion_lat": 0.0, "name": "afd39ee8a25ddd7b34d8290827685f16", "is_disabled": 0, "rental_uris": {"android": "https://dc.lft.to/lastmile_qr_scan", "ios": "https://dc.lft.to/lastmile_qr_scan"}, "fusion_lon": 0.0, "lat": 38.91552883333333, "bike_id": "afd39ee8a25ddd7b34d8290827685f16", "type": "electric_scooter", "is_reserved": 0, "lon": -77.03663783333333}, {"fusion_lat": 0.0, "name": "463477b51a517c8ecc280b4dee46c576", "is_disabled": 0, "rental_uris": {"android": "https://dc.lft.to/lastmile_qr_scan", "ios": "https://dc.lft.to/lastmile_qr_scan"}, "fusion_lon": 0.0, "lat": 38.904109, "bike_id": "463477b51a517c8ecc280b4dee46c576", "type": "electric_scooter", "is_reserved": 0, "lon": -76.9733065}, {"fusion_lat": 0.0, "name": "e8695dca7648027eb51978453bcc9d4d", "is_disabled": 0, "rental_uris": {"android": "https://dc.lft.to/lastmile_qr_scan", "ios": "https://dc.lft.to/lastmile_qr_scan"}, "fusion_lon": 0.0, "lat": 38.884393333333335, "bike_id": "e8695dca7648027eb51978453bcc9d4d", "type": "electric_scooter", "is_reserved": 0, "lon": -77.003449}, {"fusion_lat": 0.0, "name": "e58d738caedec38cb1e6aa6ede12fca5", "is_disabled": 0, "rental_uris": {"android": "https://dc.lft.to/lastmile_qr_scan", "ios": "https://dc.lft.to/lastmile_qr_scan"}, "fusion_lon": 0.0, "lat": 38.92249266666666, "bike_id": "e58d738caedec38cb1e6aa6ede12fca5", "type": "electric_scooter", "is_reserved": 0, "lon": -77.0338395}, {"fusion_lat": 0.0, "name": "515be2ca11464ecd6c630ef4c7c0a3e1", "is_disabled": 0, "rental_uris": {"android": "https://dc.lft.to/lastmile_qr_scan", "ios": "https://dc.lft.to/lastmile_qr_scan"}, "fusion_lon": 0.0, "lat": 38.9357595, "bike_id": "515be2ca11464ecd6c630ef4c7c0a3e1", "type": "electric_scooter", "is_reserved": 0, "lon": -77.01927683333334}, {"fusion_lat": 0.0, "name": "d06315efe58437dcd53a0f3a7a1d4096", "is_disabled": 0, "rental_uris": {"android": "https://dc.lft.to/lastmile_qr_scan", "ios": "https://dc.lft.to/lastmile_qr_scan"}, "fusion_lon": 0.0, "lat": 38.8974545, "bike_id": "d06315efe58437dcd53a0f3a7a1d4096", "type": "electric_scooter", "is_reserved": 0, "lon": -77.0510395}, {"fusion_lat": 0.0, "name": "2404e48b64b404a020b84ef4b2b0637d", "is_disabled": 0, "rental_uris": {"android": "https://dc.lft.to/lastmile_qr_scan", "ios": "https://dc.lft.to/lastmile_qr_scan"}, "fusion_lon": 0.0, "lat": 38.93087283333333, "bike_id": "2404e48b64b404a020b84ef4b2b0637d", "type": "electric_scooter", "is_reserved": 0, "lon": -77.0235225}, {"fusion_lat": 0.0, "name": "4216d4db12fe5c3bec50e6399e87b4a5", "is_disabled": 0, "rental_uris": {"android": "https://dc.lft.to/lastmile_qr_scan", "ios": "https://dc.lft.to/lastmile_qr_scan"}, "fusion_lon": 0.0, "lat": 38.906507, "bike_id": "4216d4db12fe5c3bec50e6399e87b4a5", "type": "electric_scooter", "is_reserved": 0, "lon": -77.006802}, {"fusion_lat": 0.0, "name": "7ee5e0e97a3cb8c142be19a1dcac4dea", "is_disabled": 0, "rental_uris": {"android": "https://dc.lft.to/lastmile_qr_scan", "ios": "https://dc.lft.to/lastmile_qr_scan"}, "fusion_lon": 0.0, "lat": 38.966693, "bike_id": "7ee5e0e97a3cb8c142be19a1dcac4dea", "type": "electric_scooter", "is_reserved": 0, "lon": -77.02553816666666}, {"fusion_lat": 0.0, "name": "78514bf96df4795d0ac287b8bf503086", "is_disabled": 0, "rental_uris": {"android": "https://dc.lft.to/lastmile_qr_scan", "ios": "https://dc.lft.to/lastmile_qr_scan"}, "fusion_lon": 0.0, "lat": 38.897464666666664, "bike_id": "78514bf96df4795d0ac287b8bf503086", "type": "electric_scooter", "is_reserved": 0, "lon": -77.04550633333334}, {"fusion_lat": 0.0, "name": "5b8275a63b41f51eddb0f5a9c227ae91", "is_disabled": 0, "rental_uris": {"android": "https://dc.lft.to/lastmile_qr_scan", "ios": "https://dc.lft.to/lastmile_qr_scan"}, "fusion_lon": 0.0, "lat": 38.91307166666667, "bike_id": "5b8275a63b41f51eddb0f5a9c227ae91", "type": "electric_scooter", "is_reserved": 0, "lon": -77.03660416666666}, {"fusion_lat": 0.0, "name": "e519815d046071a04f35ad03957c5e94", "is_disabled": 0, "rental_uris": {"android": "https://dc.lft.to/lastmile_qr_scan", "ios": "https://dc.lft.to/lastmile_qr_scan"}, "fusion_lon": 0.0, "lat": 38.912662, "bike_id": "e519815d046071a04f35ad03957c5e94", "type": "electric_scooter", "is_reserved": 0, "lon": -77.04468916666667}, {"fusion_lat": 0.0, "name": "8d2ea2d3cfff08bc4fb43302e1acc051", "is_disabled": 0, "rental_uris": {"android": "https://dc.lft.to/lastmile_qr_scan", "ios": "https://dc.lft.to/lastmile_qr_scan"}, "fusion_lon": 0.0, "lat": 38.881432, "bike_id": "8d2ea2d3cfff08bc4fb43302e1acc051", "type": "electric_scooter", "is_reserved": 0, "lon": -76.99502233333334}, {"fusion_lat": 0.0, "name": "b077906ebfbf87f4adba4398f266b3c4", "is_disabled": 0, "rental_uris": {"android": "https://dc.lft.to/lastmile_qr_scan", "ios": "https://dc.lft.to/lastmile_qr_scan"}, "fusion_lon": 0.0, "lat": 38.896823, "bike_id": "b077906ebfbf87f4adba4398f266b3c4", "type": "electric_scooter", "is_reserved": 0, "lon": -77.00553133333334}, {"fusion_lat": 0.0, "name": "8ea6b3eda35efc428ca70c69af9f8278", "is_disabled": 0, "rental_uris": {"android": "https://dc.lft.to/lastmile_qr_scan", "ios": "https://dc.lft.to/lastmile_qr_scan"}, "fusion_lon": 0.0, "lat": 38.88061166666667, "bike_id": "8ea6b3eda35efc428ca70c69af9f8278", "type": "electric_scooter", "is_reserved": 0, "lon": -76.985062}, {"fusion_lat": 0.0, "name": "3781baee1666ab59be55289817c335e9", "is_disabled": 0, "rental_uris": {"android": "https://dc.lft.to/lastmile_qr_scan", "ios": "https://dc.lft.to/lastmile_qr_scan"}, "fusion_lon": 0.0, "lat": 38.90794966666667, "bike_id": "3781baee1666ab59be55289817c335e9", "type": "electric_scooter", "is_reserved": 0, "lon": -77.03881016666666}, {"fusion_lat": 0.0, "name": "a8abc32314e138a8b8beb0e5b96ce21e", "is_disabled": 0, "rental_uris": {"android": "https://dc.lft.to/lastmile_qr_scan", "ios": "https://dc.lft.to/lastmile_qr_scan"}, "fusion_lon": 0.0, "lat": 38.932512333333335, "bike_id": "a8abc32314e138a8b8beb0e5b96ce21e", "type": "electric_scooter", "is_reserved": 0, "lon": -77.04002116666666}, {"fusion_lat": 0.0, "name": "fb7f01bb39c796fad7c5534cf931666b", "is_disabled": 0, "rental_uris": {"android": "https://dc.lft.to/lastmile_qr_scan", "ios": "https://dc.lft.to/lastmile_qr_scan"}, "fusion_lon": 0.0, "lat": 38.929619, "bike_id": "fb7f01bb39c796fad7c5534cf931666b", "type": "electric_scooter", "is_reserved": 0, "lon": -77.03174333333334}, {"fusion_lat": 0.0, "name": "c1d6730997e4199182899d90e1ca28ae", "is_disabled": 0, "rental_uris": {"android": "https://dc.lft.to/lastmile_qr_scan", "ios": "https://dc.lft.to/lastmile_qr_scan"}, "fusion_lon": 0.0, "lat": 38.89883233333333, "bike_id": "c1d6730997e4199182899d90e1ca28ae", "type": "electric_scooter", "is_reserved": 0, "lon": -77.01513283333334}, {"fusion_lat": 0.0, "name": "29c97314a99163b55e358ae47fc0a491", "is_disabled": 0, "rental_uris": {"android": "https://dc.lft.to/lastmile_qr_scan", "ios": "https://dc.lft.to/lastmile_qr_scan"}, "fusion_lon": 0.0, "lat": 38.879483, "bike_id": "29c97314a99163b55e358ae47fc0a491", "type": "electric_bike", "is_reserved": 0, "lon": -77.01014566666667}, {"fusion_lat": 0.0, "name": "9ec8015270c448c61ca1d996045800e9", "is_disabled": 0, "rental_uris": {"android": "https://dc.lft.to/lastmile_qr_scan", "ios": "https://dc.lft.to/lastmile_qr_scan"}, "fusion_lon": 0.0, "lat": 38.905342, "bike_id": "9ec8015270c448c61ca1d996045800e9", "type": "electric_scooter", "is_reserved": 0, "lon": -77.05621633333334}, {"fusion_lat": 0.0, "name": "f98800e2c399452bf69e23223f76989a", "is_disabled": 0, "rental_uris": {"android": "https://dc.lft.to/lastmile_qr_scan", "ios": "https://dc.lft.to/lastmile_qr_scan"}, "fusion_lon": 0.0, "lat": 38.911869833333334, "bike_id": "f98800e2c399452bf69e23223f76989a", "type": "electric_scooter", "is_reserved": 0, "lon": -77.04548483333333}, {"fusion_lat": 0.0, "name": "44cf7bd51093ddbf1e5e00c354c55d9c", "is_disabled": 0, "rental_uris": {"android": "https://dc.lft.to/lastmile_qr_scan", "ios": "https://dc.lft.to/lastmile_qr_scan"}, "fusion_lon": 0.0, "lat": 38.901616833333335, "bike_id": "44cf7bd51093ddbf1e5e00c354c55d9c", "type": "electric_scooter", "is_reserved": 0, "lon": -77.04652983333334}, {"fusion_lat": 0.0, "name": "07a21751ce41a0914d5936daa16be530", "is_disabled": 0, "rental_uris": {"android": "https://dc.lft.to/lastmile_qr_scan", "ios": "https://dc.lft.to/lastmile_qr_scan"}, "fusion_lon": 0.0, "lat": 38.922596, "bike_id": "07a21751ce41a0914d5936daa16be530", "type": "electric_scooter", "is_reserved": 0, "lon": -77.07486966666667}, {"fusion_lat": 0.0, "name": "b9a36682f5fc4ebbb7e449238443215a", "is_disabled": 0, "rental_uris": {"android": "https://dc.lft.to/lastmile_qr_scan", "ios": "https://dc.lft.to/lastmile_qr_scan"}, "fusion_lon": 0.0, "lat": 38.866224833333334, "bike_id": "b9a36682f5fc4ebbb7e449238443215a", "type": "electric_bike", "is_reserved": 0, "lon": -76.9457525}, {"fusion_lat": 0.0, "name": "be0c7e88d93b2f9c1ce4e0f3b90ae4a0", "is_disabled": 0, "rental_uris": {"android": "https://dc.lft.to/lastmile_qr_scan", "ios": "https://dc.lft.to/lastmile_qr_scan"}, "fusion_lon": 0.0, "lat": 38.839346666666664, "bike_id": "be0c7e88d93b2f9c1ce4e0f3b90ae4a0", "type": "electric_bike", "is_reserved": 0, "lon": -77.0789905}, {"fusion_lat": 0.0, "name": "787a6e60645268db7be4627665db5a62", "is_disabled": 0, "rental_uris": {"android": "https://dc.lft.to/lastmile_qr_scan", "ios": "https://dc.lft.to/lastmile_qr_scan"}, "fusion_lon": 0.0, "lat": 38.909885833333334, "bike_id": "787a6e60645268db7be4627665db5a62", "type": "electric_scooter", "is_reserved": 0, "lon": -77.03202883333333}, {"fusion_lat": 0.0, "name": "d40783d3d88cd6e0950721a041fb24ec", "is_disabled": 0, "rental_uris": {"android": "https://dc.lft.to/lastmile_qr_scan", "ios": "https://dc.lft.to/lastmile_qr_scan"}, "fusion_lon": 0.0, "lat": 38.909787, "bike_id": "d40783d3d88cd6e0950721a041fb24ec", "type": "electric_scooter", "is_reserved": 0, "lon": -77.00894716666667}, {"fusion_lat": 0.0, "name": "ea3f308e40fb4d40a6b47183ce7ffbaf", "is_disabled": 0, "rental_uris": {"android": "https://dc.lft.to/lastmile_qr_scan", "ios": "https://dc.lft.to/lastmile_qr_scan"}, "fusion_lon": 0.0, "lat": 38.925131, "bike_id": "ea3f308e40fb4d40a6b47183ce7ffbaf", "type": "electric_scooter", "is_reserved": 0, "lon": -77.0225195}, {"fusion_lat": 0.0, "name": "834d444a6086497f82ddfc8588180fc2", "is_disabled": 0, "rental_uris": {"android": "https://dc.lft.to/lastmile_qr_scan", "ios": "https://dc.lft.to/lastmile_qr_scan"}, "fusion_lon": 0.0, "lat": 38.91824616666667, "bike_id": "834d444a6086497f82ddfc8588180fc2", "type": "electric_scooter", "is_reserved": 0, "lon": -77.0384445}, {"fusion_lat": 0.0, "name": "b26fcd07ae6e3ccc3fd1787056fd4556", "is_disabled": 0, "rental_uris": {"android": "https://dc.lft.to/lastmile_qr_scan", "ios": "https://dc.lft.to/lastmile_qr_scan"}, "fusion_lon": 0.0, "lat": 38.90334466666667, "bike_id": "b26fcd07ae6e3ccc3fd1787056fd4556", "type": "electric_scooter", "is_reserved": 0, "lon": -76.97249733333334}, {"fusion_lat": 0.0, "name": "4f5d5ad7ff7844016eb5e47a4bace571", "is_disabled": 0, "rental_uris": {"android": "https://dc.lft.to/lastmile_qr_scan", "ios": "https://dc.lft.to/lastmile_qr_scan"}, "fusion_lon": 0.0, "lat": 38.93364316666667, "bike_id": "4f5d5ad7ff7844016eb5e47a4bace571", "type": "electric_scooter", "is_reserved": 0, "lon": -77.038834}, {"fusion_lat": 0.0, "name": "f3c36fa860acb67b9338e58cb7e980e6", "is_disabled": 0, "rental_uris": {"android": "https://dc.lft.to/lastmile_qr_scan", "ios": "https://dc.lft.to/lastmile_qr_scan"}, "fusion_lon": 0.0, "lat": 38.94136233333333, "bike_id": "f3c36fa860acb67b9338e58cb7e980e6", "type": "electric_scooter", "is_reserved": 0, "lon": -77.00609216666666}, {"fusion_lat": 0.0, "name": "3311e6a9c007cc1693d7c36b0d07d510", "is_disabled": 0, "rental_uris": {"android": "https://dc.lft.to/lastmile_qr_scan", "ios": "https://dc.lft.to/lastmile_qr_scan"}, "fusion_lon": 0.0, "lat": 38.90113766666666, "bike_id": "3311e6a9c007cc1693d7c36b0d07d510", "type": "electric_scooter", "is_reserved": 0, "lon": -77.0516425}, {"fusion_lat": 0.0, "name": "c3cbfb49053f973b8399f885738d1dea", "is_disabled": 0, "rental_uris": {"android": "https://dc.lft.to/lastmile_qr_scan", "ios": "https://dc.lft.to/lastmile_qr_scan"}, "fusion_lon": 0.0, "lat": 38.89716816666667, "bike_id": "c3cbfb49053f973b8399f885738d1dea", "type": "electric_scooter", "is_reserved": 0, "lon": -77.03232233333334}, {"fusion_lat": 0.0, "name": "cbcca23bd7f0d7466007d24350ab8402", "is_disabled": 0, "rental_uris": {"android": "https://dc.lft.to/lastmile_qr_scan", "ios": "https://dc.lft.to/lastmile_qr_scan"}, "fusion_lon": 0.0, "lat": 38.92220783333333, "bike_id": "cbcca23bd7f0d7466007d24350ab8402", "type": "electric_scooter", "is_reserved": 0, "lon": -77.03511083333333}, {"fusion_lat": 0.0, "name": "b8f1ffd94c33354835bbef764250bca3", "is_disabled": 0, "rental_uris": {"android": "https://dc.lft.to/lastmile_qr_scan", "ios": "https://dc.lft.to/lastmile_qr_scan"}, "fusion_lon": 0.0, "lat": 38.90516266666667, "bike_id": "b8f1ffd94c33354835bbef764250bca3", "type": "electric_scooter", "is_reserved": 0, "lon": -77.0652205}, {"fusion_lat": 0.0, "name": "274275a1930911907c1df1287ddb4a2f", "is_disabled": 0, "rental_uris": {"android": "https://dc.lft.to/lastmile_qr_scan", "ios": "https://dc.lft.to/lastmile_qr_scan"}, "fusion_lon": 0.0, "lat": 38.883914, "bike_id": "274275a1930911907c1df1287ddb4a2f", "type": "electric_scooter", "is_reserved": 0, "lon": -76.93047266666667}, {"fusion_lat": 0.0, "name": "598d0e60c67e9cb1866603da3354fe71", "is_disabled": 0, "rental_uris": {"android": "https://dc.lft.to/lastmile_qr_scan", "ios": "https://dc.lft.to/lastmile_qr_scan"}, "fusion_lon": 0.0, "lat": 38.91013133333333, "bike_id": "598d0e60c67e9cb1866603da3354fe71", "type": "electric_scooter", "is_reserved": 0, "lon": -77.05268083333333}, {"fusion_lat": 0.0, "name": "21b8d84b7520a1a76e65c03f6bcb2148", "is_disabled": 0, "rental_uris": {"android": "https://dc.lft.to/lastmile_qr_scan", "ios": "https://dc.lft.to/lastmile_qr_scan"}, "fusion_lon": 0.0, "lat": 38.904020833333334, "bike_id": "21b8d84b7520a1a76e65c03f6bcb2148", "type": "electric_scooter", "is_reserved": 0, "lon": -77.06724766666666}, {"fusion_lat": 0.0, "name": "f23f045b1a608a629bdfdcc712eccfa8", "is_disabled": 0, "rental_uris": {"android": "https://dc.lft.to/lastmile_qr_scan", "ios": "https://dc.lft.to/lastmile_qr_scan"}, "fusion_lon": 0.0, "lat": 38.9663345, "bike_id": "f23f045b1a608a629bdfdcc712eccfa8", "type": "electric_bike", "is_reserved": 0, "lon": -77.0276195}, {"fusion_lat": 0.0, "name": "dd1f08cbc1541823767148eb6767b533", "is_disabled": 0, "rental_uris": {"android": "https://dc.lft.to/lastmile_qr_scan", "ios": "https://dc.lft.to/lastmile_qr_scan"}, "fusion_lon": 0.0, "lat": 38.8829435, "bike_id": "dd1f08cbc1541823767148eb6767b533", "type": "electric_scooter", "is_reserved": 0, "lon": -77.0137}, {"fusion_lat": 0.0, "name": "ea5150bcf1813370231f158f7c864856", "is_disabled": 0, "rental_uris": {"android": "https://dc.lft.to/lastmile_qr_scan", "ios": "https://dc.lft.to/lastmile_qr_scan"}, "fusion_lon": 0.0, "lat": 38.802988, "bike_id": "ea5150bcf1813370231f158f7c864856", "type": "electric_bike", "is_reserved": 0, "lon": -77.05937516666667}, {"fusion_lat": 0.0, "name": "2782e7cfa55dcce6a783f8cd964753c0", "is_disabled": 0, "rental_uris": {"android": "https://dc.lft.to/lastmile_qr_scan", "ios": "https://dc.lft.to/lastmile_qr_scan"}, "fusion_lon": 0.0, "lat": 38.892261166666664, "bike_id": "2782e7cfa55dcce6a783f8cd964753c0", "type": "electric_scooter", "is_reserved": 0, "lon": -77.03180116666667}, {"fusion_lat": 0.0, "name": "7c0ebccdf9e11e3510413e78efbc37f5", "is_disabled": 0, "rental_uris": {"android": "https://dc.lft.to/lastmile_qr_scan", "ios": "https://dc.lft.to/lastmile_qr_scan"}, "fusion_lon": 0.0, "lat": 38.905308, "bike_id": "7c0ebccdf9e11e3510413e78efbc37f5", "type": "electric_scooter", "is_reserved": 0, "lon": -77.0567765}, {"fusion_lat": 0.0, "name": "7b7104a22e6fea15074bce9173b14187", "is_disabled": 0, "rental_uris": {"android": "https://dc.lft.to/lastmile_qr_scan", "ios": "https://dc.lft.to/lastmile_qr_scan"}, "fusion_lon": 0.0, "lat": 38.92720766666667, "bike_id": "7b7104a22e6fea15074bce9173b14187", "type": "electric_scooter", "is_reserved": 0, "lon": -77.04196733333333}, {"fusion_lat": 0.0, "name": "4013f7239d903ee4eeb9b799bb2a0dc8", "is_disabled": 0, "rental_uris": {"android": "https://dc.lft.to/lastmile_qr_scan", "ios": "https://dc.lft.to/lastmile_qr_scan"}, "fusion_lon": 0.0, "lat": 38.90273233333333, "bike_id": "4013f7239d903ee4eeb9b799bb2a0dc8", "type": "electric_scooter", "is_reserved": 0, "lon": -77.0165835}, {"fusion_lat": 0.0, "name": "21eff721742416d11ba5c8c2d4f1d586", "is_disabled": 0, "rental_uris": {"android": "https://dc.lft.to/lastmile_qr_scan", "ios": "https://dc.lft.to/lastmile_qr_scan"}, "fusion_lon": 0.0, "lat": 38.900331, "bike_id": "21eff721742416d11ba5c8c2d4f1d586", "type": "electric_scooter", "is_reserved": 0, "lon": -76.9885575}, {"fusion_lat": 0.0, "name": "757bd7f5103b3ec20831e76aab6d9196", "is_disabled": 0, "rental_uris": {"android": "https://dc.lft.to/lastmile_qr_scan", "ios": "https://dc.lft.to/lastmile_qr_scan"}, "fusion_lon": 0.0, "lat": 38.93903, "bike_id": "757bd7f5103b3ec20831e76aab6d9196", "type": "electric_scooter", "is_reserved": 0, "lon": -77.03262416666666}, {"fusion_lat": 0.0, "name": "d2d87117868b753424853f8baac40e4c", "is_disabled": 0, "rental_uris": {"android": "https://dc.lft.to/lastmile_qr_scan", "ios": "https://dc.lft.to/lastmile_qr_scan"}, "fusion_lon": 0.0, "lat": 38.896848, "bike_id": "d2d87117868b753424853f8baac40e4c", "type": "electric_scooter", "is_reserved": 0, "lon": -76.93706516666667}, {"fusion_lat": 0.0, "name": "134c631d62f52ddcdbb78cd5defff92f", "is_disabled": 0, "rental_uris": {"android": "https://dc.lft.to/lastmile_qr_scan", "ios": "https://dc.lft.to/lastmile_qr_scan"}, "fusion_lon": 0.0, "lat": 38.92792216666667, "bike_id": "134c631d62f52ddcdbb78cd5defff92f", "type": "electric_scooter", "is_reserved": 0, "lon": -77.027208}, {"fusion_lat": 0.0, "name": "a9a14e181ae9817dd6f3e96f50e8a01c", "is_disabled": 0, "rental_uris": {"android": "https://dc.lft.to/lastmile_qr_scan", "ios": "https://dc.lft.to/lastmile_qr_scan"}, "fusion_lon": 0.0, "lat": 38.93930733333333, "bike_id": "a9a14e181ae9817dd6f3e96f50e8a01c", "type": "electric_scooter", "is_reserved": 0, "lon": -77.0747855}, {"fusion_lat": 0.0, "name": "02753311a067c238e3644be637cbac72", "is_disabled": 0, "rental_uris": {"android": "https://dc.lft.to/lastmile_qr_scan", "ios": "https://dc.lft.to/lastmile_qr_scan"}, "fusion_lon": 0.0, "lat": 38.88182616666667, "bike_id": "02753311a067c238e3644be637cbac72", "type": "electric_scooter", "is_reserved": 0, "lon": -77.00353266666667}, {"fusion_lat": 0.0, "name": "3487fc75ebd8f866c4a2c96eb09adcc9", "is_disabled": 0, "rental_uris": {"android": "https://dc.lft.to/lastmile_qr_scan", "ios": "https://dc.lft.to/lastmile_qr_scan"}, "fusion_lon": 0.0, "lat": 38.903488833333334, "bike_id": "3487fc75ebd8f866c4a2c96eb09adcc9", "type": "electric_bike", "is_reserved": 0, "lon": -77.0634385}, {"fusion_lat": 0.0, "name": "dc2e7e1264380baa9bbe1d502d19a423", "is_disabled": 0, "rental_uris": {"android": "https://dc.lft.to/lastmile_qr_scan", "ios": "https://dc.lft.to/lastmile_qr_scan"}, "fusion_lon": 0.0, "lat": 38.9014835, "bike_id": "dc2e7e1264380baa9bbe1d502d19a423", "type": "electric_scooter", "is_reserved": 0, "lon": -77.02282533333333}, {"fusion_lat": 0.0, "name": "2a2ab79e51d71d2e8c01abdec5093665", "is_disabled": 0, "rental_uris": {"android": "https://dc.lft.to/lastmile_qr_scan", "ios": "https://dc.lft.to/lastmile_qr_scan"}, "fusion_lon": 0.0, "lat": 38.904112833333336, "bike_id": "2a2ab79e51d71d2e8c01abdec5093665", "type": "electric_scooter", "is_reserved": 0, "lon": -76.97333416666666}, {"fusion_lat": 0.0, "name": "a0550dc6b9062f7f92b68d32c4115474", "is_disabled": 0, "rental_uris": {"android": "https://dc.lft.to/lastmile_qr_scan", "ios": "https://dc.lft.to/lastmile_qr_scan"}, "fusion_lon": 0.0, "lat": 38.9231805, "bike_id": "a0550dc6b9062f7f92b68d32c4115474", "type": "electric_scooter", "is_reserved": 0, "lon": -77.02045583333333}, {"fusion_lat": 0.0, "name": "bfe1e69cfee123ededdc24bab95ab140", "is_disabled": 0, "rental_uris": {"android": "https://dc.lft.to/lastmile_qr_scan", "ios": "https://dc.lft.to/lastmile_qr_scan"}, "fusion_lon": 0.0, "lat": 38.929288, "bike_id": "bfe1e69cfee123ededdc24bab95ab140", "type": "electric_scooter", "is_reserved": 0, "lon": -77.02339583333334}, {"fusion_lat": 0.0, "name": "54572ad1bdfe8d5eef3fb0d5c1a40c10", "is_disabled": 0, "rental_uris": {"android": "https://dc.lft.to/lastmile_qr_scan", "ios": "https://dc.lft.to/lastmile_qr_scan"}, "fusion_lon": 0.0, "lat": 38.90733783333334, "bike_id": "54572ad1bdfe8d5eef3fb0d5c1a40c10", "type": "electric_scooter", "is_reserved": 0, "lon": -77.028936}, {"fusion_lat": 0.0, "name": "8abfdd3611a29f21edb23e211db9810f", "is_disabled": 0, "rental_uris": {"android": "https://dc.lft.to/lastmile_qr_scan", "ios": "https://dc.lft.to/lastmile_qr_scan"}, "fusion_lon": 0.0, "lat": 38.9307825, "bike_id": "8abfdd3611a29f21edb23e211db9810f", "type": "electric_scooter", "is_reserved": 0, "lon": -77.07758783333334}, {"fusion_lat": 0.0, "name": "1feae3be19bdc473356dfa0d4636281f", "is_disabled": 0, "rental_uris": {"android": "https://dc.lft.to/lastmile_qr_scan", "ios": "https://dc.lft.to/lastmile_qr_scan"}, "fusion_lon": 0.0, "lat": 38.91915683333333, "bike_id": "1feae3be19bdc473356dfa0d4636281f", "type": "electric_scooter", "is_reserved": 0, "lon": -77.04156916666666}, {"fusion_lat": 0.0, "name": "88b00a5587e62d500795dace4ddb2651", "is_disabled": 0, "rental_uris": {"android": "https://dc.lft.to/lastmile_qr_scan", "ios": "https://dc.lft.to/lastmile_qr_scan"}, "fusion_lon": 0.0, "lat": 38.903934, "bike_id": "88b00a5587e62d500795dace4ddb2651", "type": "electric_scooter", "is_reserved": 0, "lon": -76.99011533333334}, {"fusion_lat": 0.0, "name": "0c0ada498340bbf3962bf4749d66f28a", "is_disabled": 0, "rental_uris": {"android": "https://dc.lft.to/lastmile_qr_scan", "ios": "https://dc.lft.to/lastmile_qr_scan"}, "fusion_lon": 0.0, "lat": 38.935224833333336, "bike_id": "0c0ada498340bbf3962bf4749d66f28a", "type": "electric_scooter", "is_reserved": 0, "lon": -77.03259983333334}, {"fusion_lat": 0.0, "name": "fc817f0547e1c79405e11ff55922e8fd", "is_disabled": 0, "rental_uris": {"android": "https://dc.lft.to/lastmile_qr_scan", "ios": "https://dc.lft.to/lastmile_qr_scan"}, "fusion_lon": 0.0, "lat": 38.90256933333333, "bike_id": "fc817f0547e1c79405e11ff55922e8fd", "type": "electric_scooter", "is_reserved": 0, "lon": -76.97450983333333}, {"fusion_lat": 0.0, "name": "cce1d08abb98b7f9d59d0c8ae9b73609", "is_disabled": 0, "rental_uris": {"android": "https://dc.lft.to/lastmile_qr_scan", "ios": "https://dc.lft.to/lastmile_qr_scan"}, "fusion_lon": 0.0, "lat": 38.91619266666667, "bike_id": "cce1d08abb98b7f9d59d0c8ae9b73609", "type": "electric_scooter", "is_reserved": 0, "lon": -77.03852683333334}, {"fusion_lat": 0.0, "name": "0275942a960bb1fa22f8b02e8a645b79", "is_disabled": 0, "rental_uris": {"android": "https://dc.lft.to/lastmile_qr_scan", "ios": "https://dc.lft.to/lastmile_qr_scan"}, "fusion_lon": 0.0, "lat": 38.87467, "bike_id": "0275942a960bb1fa22f8b02e8a645b79", "type": "electric_scooter", "is_reserved": 0, "lon": -77.01899116666667}, {"fusion_lat": 0.0, "name": "58f98b9643bd31a07ba387e4c2066fd6", "is_disabled": 0, "rental_uris": {"android": "https://dc.lft.to/lastmile_qr_scan", "ios": "https://dc.lft.to/lastmile_qr_scan"}, "fusion_lon": 0.0, "lat": 38.8876265, "bike_id": "58f98b9643bd31a07ba387e4c2066fd6", "type": "electric_scooter", "is_reserved": 0, "lon": -76.97756716666666}, {"fusion_lat": 0.0, "name": "07896bc4b41600104b345c9ae615dab6", "is_disabled": 0, "rental_uris": {"android": "https://dc.lft.to/lastmile_qr_scan", "ios": "https://dc.lft.to/lastmile_qr_scan"}, "fusion_lon": 0.0, "lat": 38.899057166666665, "bike_id": "07896bc4b41600104b345c9ae615dab6", "type": "electric_scooter", "is_reserved": 0, "lon": -76.94552216666666}, {"fusion_lat": 0.0, "name": "218334e874630eb77fff71d8a56f68da", "is_disabled": 0, "rental_uris": {"android": "https://dc.lft.to/lastmile_qr_scan", "ios": "https://dc.lft.to/lastmile_qr_scan"}, "fusion_lon": 0.0, "lat": 38.910095, "bike_id": "218334e874630eb77fff71d8a56f68da", "type": "electric_scooter", "is_reserved": 0, "lon": -77.00719716666667}, {"fusion_lat": 0.0, "name": "b1fb88077d0f68f6227c0beabb4d4385", "is_disabled": 0, "rental_uris": {"android": "https://dc.lft.to/lastmile_qr_scan", "ios": "https://dc.lft.to/lastmile_qr_scan"}, "fusion_lon": 0.0, "lat": 38.82458616666667, "bike_id": "b1fb88077d0f68f6227c0beabb4d4385", "type": "electric_bike", "is_reserved": 0, "lon": -77.00791816666667}, {"fusion_lat": 0.0, "name": "9ccfbd7c26f87ababdac0ff6c126b046", "is_disabled": 0, "rental_uris": {"android": "https://dc.lft.to/lastmile_qr_scan", "ios": "https://dc.lft.to/lastmile_qr_scan"}, "fusion_lon": 0.0, "lat": 38.89674483333334, "bike_id": "9ccfbd7c26f87ababdac0ff6c126b046", "type": "electric_scooter", "is_reserved": 0, "lon": -77.04978683333333}, {"fusion_lat": 0.0, "name": "25250cfe036889bc5e1e6675e4d4658b", "is_disabled": 0, "rental_uris": {"android": "https://dc.lft.to/lastmile_qr_scan", "ios": "https://dc.lft.to/lastmile_qr_scan"}, "fusion_lon": 0.0, "lat": 38.9059105, "bike_id": "25250cfe036889bc5e1e6675e4d4658b", "type": "electric_scooter", "is_reserved": 0, "lon": -77.0050475}, {"fusion_lat": 0.0, "name": "7ad7dd8f0318f5a17fa528061f7ecf5b", "is_disabled": 0, "rental_uris": {"android": "https://dc.lft.to/lastmile_qr_scan", "ios": "https://dc.lft.to/lastmile_qr_scan"}, "fusion_lon": 0.0, "lat": 38.892221666666664, "bike_id": "7ad7dd8f0318f5a17fa528061f7ecf5b", "type": "electric_scooter", "is_reserved": 0, "lon": -77.02414466666667}, {"fusion_lat": 0.0, "name": "fa5d50527e3f11c5984a0c903073e44a", "is_disabled": 0, "rental_uris": {"android": "https://dc.lft.to/lastmile_qr_scan", "ios": "https://dc.lft.to/lastmile_qr_scan"}, "fusion_lon": 0.0, "lat": 38.919255666666665, "bike_id": "fa5d50527e3f11c5984a0c903073e44a", "type": "electric_scooter", "is_reserved": 0, "lon": -77.03198533333334}, {"fusion_lat": 0.0, "name": "58e3c0232ecdece7b24a56f7a4dcb4ee", "is_disabled": 0, "rental_uris": {"android": "https://dc.lft.to/lastmile_qr_scan", "ios": "https://dc.lft.to/lastmile_qr_scan"}, "fusion_lon": 0.0, "lat": 38.90023516666667, "bike_id": "58e3c0232ecdece7b24a56f7a4dcb4ee", "type": "electric_scooter", "is_reserved": 0, "lon": -77.0238735}, {"fusion_lat": 0.0, "name": "e5774e228b8dcad4b66a9b0cd927aecc", "is_disabled": 0, "rental_uris": {"android": "https://dc.lft.to/lastmile_qr_scan", "ios": "https://dc.lft.to/lastmile_qr_scan"}, "fusion_lon": 0.0, "lat": 38.923596333333336, "bike_id": "e5774e228b8dcad4b66a9b0cd927aecc", "type": "electric_scooter", "is_reserved": 0, "lon": -77.04382266666667}, {"fusion_lat": 0.0, "name": "39bfa8b9eaee57d8e1566573a282e6b0", "is_disabled": 0, "rental_uris": {"android": "https://dc.lft.to/lastmile_qr_scan", "ios": "https://dc.lft.to/lastmile_qr_scan"}, "fusion_lon": 0.0, "lat": 38.9183365, "bike_id": "39bfa8b9eaee57d8e1566573a282e6b0", "type": "electric_scooter", "is_reserved": 0, "lon": -77.034489}, {"fusion_lat": 0.0, "name": "21362a7e51721cc6e4f29e5a7c0c3d02", "is_disabled": 0, "rental_uris": {"android": "https://dc.lft.to/lastmile_qr_scan", "ios": "https://dc.lft.to/lastmile_qr_scan"}, "fusion_lon": 0.0, "lat": 38.88848466666666, "bike_id": "21362a7e51721cc6e4f29e5a7c0c3d02", "type": "electric_scooter", "is_reserved": 0, "lon": -76.92679883333334}, {"fusion_lat": 0.0, "name": "f4fb6914628fbb86209106e100161f2f", "is_disabled": 0, "rental_uris": {"android": "https://dc.lft.to/lastmile_qr_scan", "ios": "https://dc.lft.to/lastmile_qr_scan"}, "fusion_lon": 0.0, "lat": 38.9088575, "bike_id": "f4fb6914628fbb86209106e100161f2f", "type": "electric_scooter", "is_reserved": 0, "lon": -77.03660366666666}, {"fusion_lat": 0.0, "name": "bb689c35f72226e4dfb3aac02e37f629", "is_disabled": 0, "rental_uris": {"android": "https://dc.lft.to/lastmile_qr_scan", "ios": "https://dc.lft.to/lastmile_qr_scan"}, "fusion_lon": 0.0, "lat": 38.920315, "bike_id": "bb689c35f72226e4dfb3aac02e37f629", "type": "electric_scooter", "is_reserved": 0, "lon": -77.02703983333333}, {"fusion_lat": 0.0, "name": "9c0f30cca0bee83e5e647f5b183eda09", "is_disabled": 0, "rental_uris": {"android": "https://dc.lft.to/lastmile_qr_scan", "ios": "https://dc.lft.to/lastmile_qr_scan"}, "fusion_lon": 0.0, "lat": 38.9152285, "bike_id": "9c0f30cca0bee83e5e647f5b183eda09", "type": "electric_scooter", "is_reserved": 0, "lon": -77.04602916666667}, {"fusion_lat": 0.0, "name": "2873393ca82d2b9e1c05b2182bca69ba", "is_disabled": 0, "rental_uris": {"android": "https://dc.lft.to/lastmile_qr_scan", "ios": "https://dc.lft.to/lastmile_qr_scan"}, "fusion_lon": 0.0, "lat": 38.89733483333333, "bike_id": "2873393ca82d2b9e1c05b2182bca69ba", "type": "electric_scooter", "is_reserved": 0, "lon": -77.007541}, {"fusion_lat": 0.0, "name": "b6c94a76ea34a8501296cd38756833f0", "is_disabled": 0, "rental_uris": {"android": "https://dc.lft.to/lastmile_qr_scan", "ios": "https://dc.lft.to/lastmile_qr_scan"}, "fusion_lon": 0.0, "lat": 38.8849535, "bike_id": "b6c94a76ea34a8501296cd38756833f0", "type": "electric_scooter", "is_reserved": 0, "lon": -77.0108655}, {"fusion_lat": 0.0, "name": "90406271d34de47d4c87041a5818dd46", "is_disabled": 0, "rental_uris": {"android": "https://dc.lft.to/lastmile_qr_scan", "ios": "https://dc.lft.to/lastmile_qr_scan"}, "fusion_lon": 0.0, "lat": 38.9159775, "bike_id": "90406271d34de47d4c87041a5818dd46", "type": "electric_scooter", "is_reserved": 0, "lon": -77.01107916666666}, {"fusion_lat": 0.0, "name": "5d62691edddf20f41e09f79305a5e433", "is_disabled": 0, "rental_uris": {"android": "https://dc.lft.to/lastmile_qr_scan", "ios": "https://dc.lft.to/lastmile_qr_scan"}, "fusion_lon": 0.0, "lat": 38.887424333333335, "bike_id": "5d62691edddf20f41e09f79305a5e433", "type": "electric_scooter", "is_reserved": 0, "lon": -77.0256965}, {"fusion_lat": 0.0, "name": "b1920ec5aa1d4c396fce6de59131cf24", "is_disabled": 0, "rental_uris": {"android": "https://dc.lft.to/lastmile_qr_scan", "ios": "https://dc.lft.to/lastmile_qr_scan"}, "fusion_lon": 0.0, "lat": 38.90824516666667, "bike_id": "b1920ec5aa1d4c396fce6de59131cf24", "type": "electric_scooter", "is_reserved": 0, "lon": -77.042853}, {"fusion_lat": 0.0, "name": "919ec3e16903aa8b5d2ca8fb84f77f40", "is_disabled": 0, "rental_uris": {"android": "https://dc.lft.to/lastmile_qr_scan", "ios": "https://dc.lft.to/lastmile_qr_scan"}, "fusion_lon": 0.0, "lat": 38.9341515, "bike_id": "919ec3e16903aa8b5d2ca8fb84f77f40", "type": "electric_scooter", "is_reserved": 0, "lon": -77.04161483333333}, {"fusion_lat": 0.0, "name": "18da57d93439bc833828595b0f11b384", "is_disabled": 0, "rental_uris": {"android": "https://dc.lft.to/lastmile_qr_scan", "ios": "https://dc.lft.to/lastmile_qr_scan"}, "fusion_lon": 0.0, "lat": 38.92568516666667, "bike_id": "18da57d93439bc833828595b0f11b384", "type": "electric_scooter", "is_reserved": 0, "lon": -77.03732683333334}, {"fusion_lat": 0.0, "name": "7efc3a036656ac932208a3fad36c1a82", "is_disabled": 0, "rental_uris": {"android": "https://dc.lft.to/lastmile_qr_scan", "ios": "https://dc.lft.to/lastmile_qr_scan"}, "fusion_lon": 0.0, "lat": 38.899106, "bike_id": "7efc3a036656ac932208a3fad36c1a82", "type": "electric_scooter", "is_reserved": 0, "lon": -76.93343583333333}, {"fusion_lat": 0.0, "name": "f0e91382b24a9fd9afec19d49c994902", "is_disabled": 0, "rental_uris": {"android": "https://dc.lft.to/lastmile_qr_scan", "ios": "https://dc.lft.to/lastmile_qr_scan"}, "fusion_lon": 0.0, "lat": 38.897202, "bike_id": "f0e91382b24a9fd9afec19d49c994902", "type": "electric_scooter", "is_reserved": 0, "lon": -77.0215955}, {"fusion_lat": 0.0, "name": "9c7a7de0aaced38f716cf779e60759b3", "is_disabled": 0, "rental_uris": {"android": "https://dc.lft.to/lastmile_qr_scan", "ios": "https://dc.lft.to/lastmile_qr_scan"}, "fusion_lon": 0.0, "lat": 38.900213666666666, "bike_id": "9c7a7de0aaced38f716cf779e60759b3", "type": "electric_scooter", "is_reserved": 0, "lon": -77.023789}, {"fusion_lat": 0.0, "name": "af0e09b316477fd8f8399ebb083269ef", "is_disabled": 0, "rental_uris": {"android": "https://dc.lft.to/lastmile_qr_scan", "ios": "https://dc.lft.to/lastmile_qr_scan"}, "fusion_lon": 0.0, "lat": 38.903590666666666, "bike_id": "af0e09b316477fd8f8399ebb083269ef", "type": "electric_scooter", "is_reserved": 0, "lon": -77.06000266666666}, {"fusion_lat": 0.0, "name": "1c0650c30e14151b6d9a7317b0e9733e", "is_disabled": 0, "rental_uris": {"android": "https://dc.lft.to/lastmile_qr_scan", "ios": "https://dc.lft.to/lastmile_qr_scan"}, "fusion_lon": 0.0, "lat": 38.94877066666667, "bike_id": "1c0650c30e14151b6d9a7317b0e9733e", "type": "electric_scooter", "is_reserved": 0, "lon": -77.02688666666667}, {"fusion_lat": 0.0, "name": "08ca344b4b4070b1c0709caa16469d4b", "is_disabled": 0, "rental_uris": {"android": "https://dc.lft.to/lastmile_qr_scan", "ios": "https://dc.lft.to/lastmile_qr_scan"}, "fusion_lon": 0.0, "lat": 38.936327666666664, "bike_id": "08ca344b4b4070b1c0709caa16469d4b", "type": "electric_scooter", "is_reserved": 0, "lon": -77.03658983333334}, {"fusion_lat": 0.0, "name": "39407dcb71f6e1ca17af5f9457d000fd", "is_disabled": 0, "rental_uris": {"android": "https://dc.lft.to/lastmile_qr_scan", "ios": "https://dc.lft.to/lastmile_qr_scan"}, "fusion_lon": 0.0, "lat": 38.9376745, "bike_id": "39407dcb71f6e1ca17af5f9457d000fd", "type": "electric_scooter", "is_reserved": 0, "lon": -77.03260533333334}, {"fusion_lat": 0.0, "name": "8e8f3887f15ea82399e86aef45a548c4", "is_disabled": 0, "rental_uris": {"android": "https://dc.lft.to/lastmile_qr_scan", "ios": "https://dc.lft.to/lastmile_qr_scan"}, "fusion_lon": 0.0, "lat": 38.927877333333335, "bike_id": "8e8f3887f15ea82399e86aef45a548c4", "type": "electric_scooter", "is_reserved": 0, "lon": -77.03213833333334}, {"fusion_lat": 0.0, "name": "e393fb201f7a3b7060987b9d1eeda173", "is_disabled": 0, "rental_uris": {"android": "https://dc.lft.to/lastmile_qr_scan", "ios": "https://dc.lft.to/lastmile_qr_scan"}, "fusion_lon": 0.0, "lat": 38.878348833333334, "bike_id": "e393fb201f7a3b7060987b9d1eeda173", "type": "electric_scooter", "is_reserved": 0, "lon": -76.9632145}, {"fusion_lat": 0.0, "name": "8f2ffc569d5512a2895001778ad0ceaa", "is_disabled": 0, "rental_uris": {"android": "https://dc.lft.to/lastmile_qr_scan", "ios": "https://dc.lft.to/lastmile_qr_scan"}, "fusion_lon": 0.0, "lat": 38.92554633333334, "bike_id": "8f2ffc569d5512a2895001778ad0ceaa", "type": "electric_scooter", "is_reserved": 0, "lon": -77.07763833333334}, {"fusion_lat": 0.0, "name": "0f999f38d6d1ed3157b0241f17fb1071", "is_disabled": 0, "rental_uris": {"android": "https://dc.lft.to/lastmile_qr_scan", "ios": "https://dc.lft.to/lastmile_qr_scan"}, "fusion_lon": 0.0, "lat": 38.904219166666664, "bike_id": "0f999f38d6d1ed3157b0241f17fb1071", "type": "electric_scooter", "is_reserved": 0, "lon": -77.02643633333334}, {"fusion_lat": 0.0, "name": "8605c6dd1a9c7e26a9ce603328ba305e", "is_disabled": 0, "rental_uris": {"android": "https://dc.lft.to/lastmile_qr_scan", "ios": "https://dc.lft.to/lastmile_qr_scan"}, "fusion_lon": 0.0, "lat": 38.913092, "bike_id": "8605c6dd1a9c7e26a9ce603328ba305e", "type": "electric_scooter", "is_reserved": 0, "lon": -77.04871266666666}, {"fusion_lat": 0.0, "name": "bca1d160760b7a29f12f874cb4ea2f9b", "is_disabled": 0, "rental_uris": {"android": "https://dc.lft.to/lastmile_qr_scan", "ios": "https://dc.lft.to/lastmile_qr_scan"}, "fusion_lon": 0.0, "lat": 38.91935866666667, "bike_id": "bca1d160760b7a29f12f874cb4ea2f9b", "type": "electric_scooter", "is_reserved": 0, "lon": -77.07066033333334}, {"fusion_lat": 0.0, "name": "0e5735f1c533f29727af6a10915a90a5", "is_disabled": 0, "rental_uris": {"android": "https://dc.lft.to/lastmile_qr_scan", "ios": "https://dc.lft.to/lastmile_qr_scan"}, "fusion_lon": 0.0, "lat": 38.80494483333333, "bike_id": "0e5735f1c533f29727af6a10915a90a5", "type": "electric_bike", "is_reserved": 0, "lon": -77.1016265}, {"fusion_lat": 0.0, "name": "e3d955f98d210641bcec2dc2671338c1", "is_disabled": 0, "rental_uris": {"android": "https://dc.lft.to/lastmile_qr_scan", "ios": "https://dc.lft.to/lastmile_qr_scan"}, "fusion_lon": 0.0, "lat": 38.920393833333335, "bike_id": "e3d955f98d210641bcec2dc2671338c1", "type": "electric_scooter", "is_reserved": 0, "lon": -77.01729833333333}, {"fusion_lat": 0.0, "name": "730d24d1c812654f75315b31e24d4fcb", "is_disabled": 0, "rental_uris": {"android": "https://dc.lft.to/lastmile_qr_scan", "ios": "https://dc.lft.to/lastmile_qr_scan"}, "fusion_lon": 0.0, "lat": 38.89282633333333, "bike_id": "730d24d1c812654f75315b31e24d4fcb", "type": "electric_scooter", "is_reserved": 0, "lon": -76.98310183333334}, {"fusion_lat": 0.0, "name": "c9e471b36cb38444c4898a8636ed8e96", "is_disabled": 0, "rental_uris": {"android": "https://dc.lft.to/lastmile_qr_scan", "ios": "https://dc.lft.to/lastmile_qr_scan"}, "fusion_lon": 0.0, "lat": 38.907757833333335, "bike_id": "c9e471b36cb38444c4898a8636ed8e96", "type": "electric_scooter", "is_reserved": 0, "lon": -77.03468516666666}, {"fusion_lat": 0.0, "name": "0a6d10e827c45552f72bd97a325f8bba", "is_disabled": 0, "rental_uris": {"android": "https://dc.lft.to/lastmile_qr_scan", "ios": "https://dc.lft.to/lastmile_qr_scan"}, "fusion_lon": 0.0, "lat": 38.90531566666667, "bike_id": "0a6d10e827c45552f72bd97a325f8bba", "type": "electric_scooter", "is_reserved": 0, "lon": -77.05700516666667}, {"fusion_lat": 0.0, "name": "185d4743e69df7cb2f8caa09a9cab708", "is_disabled": 0, "rental_uris": {"android": "https://dc.lft.to/lastmile_qr_scan", "ios": "https://dc.lft.to/lastmile_qr_scan"}, "fusion_lon": 0.0, "lat": 38.919690333333335, "bike_id": "185d4743e69df7cb2f8caa09a9cab708", "type": "electric_scooter", "is_reserved": 0, "lon": -77.071059}, {"fusion_lat": 0.0, "name": "4d470af9110cec3be06ddecb4c0aebd8", "is_disabled": 0, "rental_uris": {"android": "https://dc.lft.to/lastmile_qr_scan", "ios": "https://dc.lft.to/lastmile_qr_scan"}, "fusion_lon": 0.0, "lat": 38.90260466666667, "bike_id": "4d470af9110cec3be06ddecb4c0aebd8", "type": "electric_scooter", "is_reserved": 0, "lon": -77.03926366666667}, {"fusion_lat": 0.0, "name": "eea295c025cc07cc3aa6161a4f4e203c", "is_disabled": 0, "rental_uris": {"android": "https://dc.lft.to/lastmile_qr_scan", "ios": "https://dc.lft.to/lastmile_qr_scan"}, "fusion_lon": 0.0, "lat": 38.90533883333333, "bike_id": "eea295c025cc07cc3aa6161a4f4e203c", "type": "electric_scooter", "is_reserved": 0, "lon": -77.056805}, {"fusion_lat": 0.0, "name": "ef228ae42588b5dbe7527be50cf051ba", "is_disabled": 0, "rental_uris": {"android": "https://dc.lft.to/lastmile_qr_scan", "ios": "https://dc.lft.to/lastmile_qr_scan"}, "fusion_lon": 0.0, "lat": 38.93706933333333, "bike_id": "ef228ae42588b5dbe7527be50cf051ba", "type": "electric_scooter", "is_reserved": 0, "lon": -77.06102283333334}, {"fusion_lat": 0.0, "name": "ea0f4d7163c848fec035f79f879ddbf0", "is_disabled": 0, "rental_uris": {"android": "https://dc.lft.to/lastmile_qr_scan", "ios": "https://dc.lft.to/lastmile_qr_scan"}, "fusion_lon": 0.0, "lat": 38.9169905, "bike_id": "ea0f4d7163c848fec035f79f879ddbf0", "type": "electric_scooter", "is_reserved": 0, "lon": -77.03499266666667}, {"fusion_lat": 0.0, "name": "49250aa71fa07ec11e134980e2c0fd0c", "is_disabled": 0, "rental_uris": {"android": "https://dc.lft.to/lastmile_qr_scan", "ios": "https://dc.lft.to/lastmile_qr_scan"}, "fusion_lon": 0.0, "lat": 38.92207483333333, "bike_id": "49250aa71fa07ec11e134980e2c0fd0c", "type": "electric_scooter", "is_reserved": 0, "lon": -77.04249}, {"fusion_lat": 0.0, "name": "4021f04b62febad27e7695f85e12f2ed", "is_disabled": 0, "rental_uris": {"android": "https://dc.lft.to/lastmile_qr_scan", "ios": "https://dc.lft.to/lastmile_qr_scan"}, "fusion_lon": 0.0, "lat": 38.91717, "bike_id": "4021f04b62febad27e7695f85e12f2ed", "type": "electric_scooter", "is_reserved": 0, "lon": -77.02965866666666}, {"fusion_lat": 0.0, "name": "5b528310f8689873325be4c8e34672d3", "is_disabled": 0, "rental_uris": {"android": "https://dc.lft.to/lastmile_qr_scan", "ios": "https://dc.lft.to/lastmile_qr_scan"}, "fusion_lon": 0.0, "lat": 38.909599, "bike_id": "5b528310f8689873325be4c8e34672d3", "type": "electric_scooter", "is_reserved": 0, "lon": -77.03262683333334}, {"fusion_lat": 0.0, "name": "690747c75a16c7ad82ee572eeb5e4cf9", "is_disabled": 0, "rental_uris": {"android": "https://dc.lft.to/lastmile_qr_scan", "ios": "https://dc.lft.to/lastmile_qr_scan"}, "fusion_lon": 0.0, "lat": 38.89263183333333, "bike_id": "690747c75a16c7ad82ee572eeb5e4cf9", "type": "electric_scooter", "is_reserved": 0, "lon": -77.05027783333334}, {"fusion_lat": 0.0, "name": "e1b04baa4e4eec05cfcfbaf19d56998a", "is_disabled": 0, "rental_uris": {"android": "https://dc.lft.to/lastmile_qr_scan", "ios": "https://dc.lft.to/lastmile_qr_scan"}, "fusion_lon": 0.0, "lat": 38.90635233333333, "bike_id": "e1b04baa4e4eec05cfcfbaf19d56998a", "type": "electric_scooter", "is_reserved": 0, "lon": -77.0314745}, {"fusion_lat": 0.0, "name": "9dd78d43de3b06fa7e92f8af93aed368", "is_disabled": 0, "rental_uris": {"android": "https://dc.lft.to/lastmile_qr_scan", "ios": "https://dc.lft.to/lastmile_qr_scan"}, "fusion_lon": 0.0, "lat": 38.92449833333333, "bike_id": "9dd78d43de3b06fa7e92f8af93aed368", "type": "electric_scooter", "is_reserved": 0, "lon": -77.0397495}, {"fusion_lat": 0.0, "name": "884f2bf56e8a53066e4a886446c1017b", "is_disabled": 0, "rental_uris": {"android": "https://dc.lft.to/lastmile_qr_scan", "ios": "https://dc.lft.to/lastmile_qr_scan"}, "fusion_lon": 0.0, "lat": 38.9073975, "bike_id": "884f2bf56e8a53066e4a886446c1017b", "type": "electric_scooter", "is_reserved": 0, "lon": -77.02944966666666}, {"fusion_lat": 0.0, "name": "eb71ffc6dfdad6f4c6b0ef6932df438e", "is_disabled": 0, "rental_uris": {"android": "https://dc.lft.to/lastmile_qr_scan", "ios": "https://dc.lft.to/lastmile_qr_scan"}, "fusion_lon": 0.0, "lat": 38.887096166666666, "bike_id": "eb71ffc6dfdad6f4c6b0ef6932df438e", "type": "electric_scooter", "is_reserved": 0, "lon": -76.99680516666666}, {"fusion_lat": 0.0, "name": "5fc1c67428a892664c719b989b9673f1", "is_disabled": 0, "rental_uris": {"android": "https://dc.lft.to/lastmile_qr_scan", "ios": "https://dc.lft.to/lastmile_qr_scan"}, "fusion_lon": 0.0, "lat": 38.91572816666667, "bike_id": "5fc1c67428a892664c719b989b9673f1", "type": "electric_scooter", "is_reserved": 0, "lon": -77.0228825}, {"fusion_lat": 0.0, "name": "913a034e575d8301a5d705d65ee36297", "is_disabled": 0, "rental_uris": {"android": "https://dc.lft.to/lastmile_qr_scan", "ios": "https://dc.lft.to/lastmile_qr_scan"}, "fusion_lon": 0.0, "lat": 38.855073833333336, "bike_id": "913a034e575d8301a5d705d65ee36297", "type": "electric_scooter", "is_reserved": 0, "lon": -76.9653605}, {"fusion_lat": 0.0, "name": "2436b986a19b7b2bdfa3889f577e1c62", "is_disabled": 0, "rental_uris": {"android": "https://dc.lft.to/lastmile_qr_scan", "ios": "https://dc.lft.to/lastmile_qr_scan"}, "fusion_lon": 0.0, "lat": 38.93281616666667, "bike_id": "2436b986a19b7b2bdfa3889f577e1c62", "type": "electric_scooter", "is_reserved": 0, "lon": -77.03487216666667}, {"fusion_lat": 0.0, "name": "8866e356dc887659a12df39ba7fc442b", "is_disabled": 0, "rental_uris": {"android": "https://dc.lft.to/lastmile_qr_scan", "ios": "https://dc.lft.to/lastmile_qr_scan"}, "fusion_lon": 0.0, "lat": 38.88506066666667, "bike_id": "8866e356dc887659a12df39ba7fc442b", "type": "electric_scooter", "is_reserved": 0, "lon": -77.000624}, {"fusion_lat": 0.0, "name": "0d237e9fe2abee8489967c9bf632622c", "is_disabled": 0, "rental_uris": {"android": "https://dc.lft.to/lastmile_qr_scan", "ios": "https://dc.lft.to/lastmile_qr_scan"}, "fusion_lon": 0.0, "lat": 38.92355116666667, "bike_id": "0d237e9fe2abee8489967c9bf632622c", "type": "electric_scooter", "is_reserved": 0, "lon": -77.04024}, {"fusion_lat": 0.0, "name": "f4e262711c88693c2731647b1cecc9b6", "is_disabled": 0, "rental_uris": {"android": "https://dc.lft.to/lastmile_qr_scan", "ios": "https://dc.lft.to/lastmile_qr_scan"}, "fusion_lon": 0.0, "lat": 38.99203583333333, "bike_id": "f4e262711c88693c2731647b1cecc9b6", "type": "electric_bike", "is_reserved": 0, "lon": -76.94459683333334}, {"fusion_lat": 0.0, "name": "75163d77ec0263dcee2db436908d64f2", "is_disabled": 0, "rental_uris": {"android": "https://dc.lft.to/lastmile_qr_scan", "ios": "https://dc.lft.to/lastmile_qr_scan"}, "fusion_lon": 0.0, "lat": 38.917146333333335, "bike_id": "75163d77ec0263dcee2db436908d64f2", "type": "electric_scooter", "is_reserved": 0, "lon": -77.03247866666666}, {"fusion_lat": 0.0, "name": "2ca4ee5226141e612b12497b87e768e8", "is_disabled": 0, "rental_uris": {"android": "https://dc.lft.to/lastmile_qr_scan", "ios": "https://dc.lft.to/lastmile_qr_scan"}, "fusion_lon": 0.0, "lat": 38.95309316666667, "bike_id": "2ca4ee5226141e612b12497b87e768e8", "type": "electric_scooter", "is_reserved": 0, "lon": -77.022469}, {"fusion_lat": 0.0, "name": "a9f3a257e64483768a44ec15fbca1e58", "is_disabled": 0, "rental_uris": {"android": "https://dc.lft.to/lastmile_qr_scan", "ios": "https://dc.lft.to/lastmile_qr_scan"}, "fusion_lon": 0.0, "lat": 38.91691566666667, "bike_id": "a9f3a257e64483768a44ec15fbca1e58", "type": "electric_scooter", "is_reserved": 0, "lon": -77.03130766666666}, {"fusion_lat": 0.0, "name": "d7fff65581aa61d15f9a8d9c6323f517", "is_disabled": 0, "rental_uris": {"android": "https://dc.lft.to/lastmile_qr_scan", "ios": "https://dc.lft.to/lastmile_qr_scan"}, "fusion_lon": 0.0, "lat": 38.922785, "bike_id": "d7fff65581aa61d15f9a8d9c6323f517", "type": "electric_scooter", "is_reserved": 0, "lon": -77.04242416666666}, {"fusion_lat": 0.0, "name": "0149e01e754c73def09b198e82e2a8a2", "is_disabled": 0, "rental_uris": {"android": "https://dc.lft.to/lastmile_qr_scan", "ios": "https://dc.lft.to/lastmile_qr_scan"}, "fusion_lon": 0.0, "lat": 38.935342166666665, "bike_id": "0149e01e754c73def09b198e82e2a8a2", "type": "electric_scooter", "is_reserved": 0, "lon": -77.02354266666667}, {"fusion_lat": 0.0, "name": "259c0e5c2c814b70f8af340aec8b3fe5", "is_disabled": 0, "rental_uris": {"android": "https://dc.lft.to/lastmile_qr_scan", "ios": "https://dc.lft.to/lastmile_qr_scan"}, "fusion_lon": 0.0, "lat": 38.905098333333335, "bike_id": "259c0e5c2c814b70f8af340aec8b3fe5", "type": "electric_bike", "is_reserved": 0, "lon": -77.0601205}, {"fusion_lat": 0.0, "name": "e54c4e59abd6d709cc43a9a5dee70f84", "is_disabled": 0, "rental_uris": {"android": "https://dc.lft.to/lastmile_qr_scan", "ios": "https://dc.lft.to/lastmile_qr_scan"}, "fusion_lon": 0.0, "lat": 38.903922, "bike_id": "e54c4e59abd6d709cc43a9a5dee70f84", "type": "electric_scooter", "is_reserved": 0, "lon": -77.06141266666667}, {"fusion_lat": 0.0, "name": "3ff2b464b3aef78ee60f3e219d0c20c3", "is_disabled": 0, "rental_uris": {"android": "https://dc.lft.to/lastmile_qr_scan", "ios": "https://dc.lft.to/lastmile_qr_scan"}, "fusion_lon": 0.0, "lat": 38.94265716666666, "bike_id": "3ff2b464b3aef78ee60f3e219d0c20c3", "type": "electric_bike", "is_reserved": 0, "lon": -76.9851305}, {"fusion_lat": 0.0, "name": "df751ac5a7a867e97c6645018e6cd0bd", "is_disabled": 0, "rental_uris": {"android": "https://dc.lft.to/lastmile_qr_scan", "ios": "https://dc.lft.to/lastmile_qr_scan"}, "fusion_lon": 0.0, "lat": 38.91413083333333, "bike_id": "df751ac5a7a867e97c6645018e6cd0bd", "type": "electric_scooter", "is_reserved": 0, "lon": -77.02456783333334}, {"fusion_lat": 0.0, "name": "264158dd5f4f0de99f8c8d90ee8e712e", "is_disabled": 0, "rental_uris": {"android": "https://dc.lft.to/lastmile_qr_scan", "ios": "https://dc.lft.to/lastmile_qr_scan"}, "fusion_lon": 0.0, "lat": 38.937467166666664, "bike_id": "264158dd5f4f0de99f8c8d90ee8e712e", "type": "electric_scooter", "is_reserved": 0, "lon": -77.025266}, {"fusion_lat": 0.0, "name": "c3e565fa5f1c830dcbebb470829c6623", "is_disabled": 0, "rental_uris": {"android": "https://dc.lft.to/lastmile_qr_scan", "ios": "https://dc.lft.to/lastmile_qr_scan"}, "fusion_lon": 0.0, "lat": 38.896081, "bike_id": "c3e565fa5f1c830dcbebb470829c6623", "type": "electric_scooter", "is_reserved": 0, "lon": -77.049768}, {"fusion_lat": 0.0, "name": "ce23f739d3a653a93c9bcba05b5e1c70", "is_disabled": 0, "rental_uris": {"android": "https://dc.lft.to/lastmile_qr_scan", "ios": "https://dc.lft.to/lastmile_qr_scan"}, "fusion_lon": 0.0, "lat": 38.937429333333334, "bike_id": "ce23f739d3a653a93c9bcba05b5e1c70", "type": "electric_scooter", "is_reserved": 0, "lon": -77.02453366666667}, {"fusion_lat": 0.0, "name": "0773188308dfe4056a67c13df9c0940d", "is_disabled": 0, "rental_uris": {"android": "https://dc.lft.to/lastmile_qr_scan", "ios": "https://dc.lft.to/lastmile_qr_scan"}, "fusion_lon": 0.0, "lat": 38.895655166666664, "bike_id": "0773188308dfe4056a67c13df9c0940d", "type": "electric_bike", "is_reserved": 0, "lon": -77.127386}, {"fusion_lat": 0.0, "name": "bd659499cb81bc4fe03f503da1e79cc3", "is_disabled": 0, "rental_uris": {"android": "https://dc.lft.to/lastmile_qr_scan", "ios": "https://dc.lft.to/lastmile_qr_scan"}, "fusion_lon": 0.0, "lat": 38.898404, "bike_id": "bd659499cb81bc4fe03f503da1e79cc3", "type": "electric_scooter", "is_reserved": 0, "lon": -77.02434766666667}, {"fusion_lat": 0.0, "name": "5817dbfc90970707031e3d8b8f5f8615", "is_disabled": 0, "rental_uris": {"android": "https://dc.lft.to/lastmile_qr_scan", "ios": "https://dc.lft.to/lastmile_qr_scan"}, "fusion_lon": 0.0, "lat": 38.84053866666667, "bike_id": "5817dbfc90970707031e3d8b8f5f8615", "type": "electric_scooter", "is_reserved": 0, "lon": -76.97667416666667}, {"fusion_lat": 0.0, "name": "0d50081f0f39e31269737c667f84ad20", "is_disabled": 0, "rental_uris": {"android": "https://dc.lft.to/lastmile_qr_scan", "ios": "https://dc.lft.to/lastmile_qr_scan"}, "fusion_lon": 0.0, "lat": 38.9220965, "bike_id": "0d50081f0f39e31269737c667f84ad20", "type": "electric_scooter", "is_reserved": 0, "lon": -77.01819416666666}, {"fusion_lat": 0.0, "name": "8c01703b8494226decc69aa681d465ba", "is_disabled": 0, "rental_uris": {"android": "https://dc.lft.to/lastmile_qr_scan", "ios": "https://dc.lft.to/lastmile_qr_scan"}, "fusion_lon": 0.0, "lat": 38.94179833333333, "bike_id": "8c01703b8494226decc69aa681d465ba", "type": "electric_scooter", "is_reserved": 0, "lon": -77.02491266666667}, {"fusion_lat": 0.0, "name": "6cbcddf021d438837f4e785f544cf28f", "is_disabled": 0, "rental_uris": {"android": "https://dc.lft.to/lastmile_qr_scan", "ios": "https://dc.lft.to/lastmile_qr_scan"}, "fusion_lon": 0.0, "lat": 38.900638, "bike_id": "6cbcddf021d438837f4e785f544cf28f", "type": "electric_scooter", "is_reserved": 0, "lon": -76.93387133333333}, {"fusion_lat": 0.0, "name": "585730b432d358a405b33a8f4b50ef78", "is_disabled": 0, "rental_uris": {"android": "https://dc.lft.to/lastmile_qr_scan", "ios": "https://dc.lft.to/lastmile_qr_scan"}, "fusion_lon": 0.0, "lat": 38.892235, "bike_id": "585730b432d358a405b33a8f4b50ef78", "type": "electric_scooter", "is_reserved": 0, "lon": -77.02712833333334}, {"fusion_lat": 0.0, "name": "6d7890c693dcc3eac9bf97b6e3d65e6a", "is_disabled": 0, "rental_uris": {"android": "https://dc.lft.to/lastmile_qr_scan", "ios": "https://dc.lft.to/lastmile_qr_scan"}, "fusion_lon": 0.0, "lat": 38.935594333333334, "bike_id": "6d7890c693dcc3eac9bf97b6e3d65e6a", "type": "electric_scooter", "is_reserved": 0, "lon": -77.0348665}, {"fusion_lat": 0.0, "name": "92db441ee0206e05619109990c62f57a", "is_disabled": 0, "rental_uris": {"android": "https://dc.lft.to/lastmile_qr_scan", "ios": "https://dc.lft.to/lastmile_qr_scan"}, "fusion_lon": 0.0, "lat": 38.8995185, "bike_id": "92db441ee0206e05619109990c62f57a", "type": "electric_scooter", "is_reserved": 0, "lon": -77.0145305}, {"fusion_lat": 0.0, "name": "f5722929fffa3bb309ded69d5d402d27", "is_disabled": 0, "rental_uris": {"android": "https://dc.lft.to/lastmile_qr_scan", "ios": "https://dc.lft.to/lastmile_qr_scan"}, "fusion_lon": 0.0, "lat": 38.916725, "bike_id": "f5722929fffa3bb309ded69d5d402d27", "type": "electric_scooter", "is_reserved": 0, "lon": -77.02716}, {"fusion_lat": 0.0, "name": "1432c21d906e0b46d124dad2e04b3960", "is_disabled": 0, "rental_uris": {"android": "https://dc.lft.to/lastmile_qr_scan", "ios": "https://dc.lft.to/lastmile_qr_scan"}, "fusion_lon": 0.0, "lat": 38.94918583333333, "bike_id": "1432c21d906e0b46d124dad2e04b3960", "type": "electric_scooter", "is_reserved": 0, "lon": -77.0185325}, {"fusion_lat": 0.0, "name": "179cbb6bc6a7732750faf22135702ed1", "is_disabled": 0, "rental_uris": {"android": "https://dc.lft.to/lastmile_qr_scan", "ios": "https://dc.lft.to/lastmile_qr_scan"}, "fusion_lon": 0.0, "lat": 38.902508166666664, "bike_id": "179cbb6bc6a7732750faf22135702ed1", "type": "electric_scooter", "is_reserved": 0, "lon": -77.01937133333334}, {"fusion_lat": 0.0, "name": "c552065e039456fcfda5e8626942269e", "is_disabled": 0, "rental_uris": {"android": "https://dc.lft.to/lastmile_qr_scan", "ios": "https://dc.lft.to/lastmile_qr_scan"}, "fusion_lon": 0.0, "lat": 38.899903, "bike_id": "c552065e039456fcfda5e8626942269e", "type": "electric_scooter", "is_reserved": 0, "lon": -77.019707}, {"fusion_lat": 0.0, "name": "56a34a26ab6bc32a3a1a586f88f63ccd", "is_disabled": 0, "rental_uris": {"android": "https://dc.lft.to/lastmile_qr_scan", "ios": "https://dc.lft.to/lastmile_qr_scan"}, "fusion_lon": 0.0, "lat": 38.9305455, "bike_id": "56a34a26ab6bc32a3a1a586f88f63ccd", "type": "electric_scooter", "is_reserved": 0, "lon": -77.03363933333333}, {"fusion_lat": 0.0, "name": "d8dac8bdde6cb5b4496e5878d7c27fb4", "is_disabled": 0, "rental_uris": {"android": "https://dc.lft.to/lastmile_qr_scan", "ios": "https://dc.lft.to/lastmile_qr_scan"}, "fusion_lon": 0.0, "lat": 38.949165666666666, "bike_id": "d8dac8bdde6cb5b4496e5878d7c27fb4", "type": "electric_scooter", "is_reserved": 0, "lon": -77.0185775}, {"fusion_lat": 0.0, "name": "57970c5365fc6e945f51b7f46b52b2bc", "is_disabled": 0, "rental_uris": {"android": "https://dc.lft.to/lastmile_qr_scan", "ios": "https://dc.lft.to/lastmile_qr_scan"}, "fusion_lon": 0.0, "lat": 38.93066183333333, "bike_id": "57970c5365fc6e945f51b7f46b52b2bc", "type": "electric_scooter", "is_reserved": 0, "lon": -77.039429}, {"fusion_lat": 0.0, "name": "60dbe29041708afc850e968ee0af7ca8", "is_disabled": 0, "rental_uris": {"android": "https://dc.lft.to/lastmile_qr_scan", "ios": "https://dc.lft.to/lastmile_qr_scan"}, "fusion_lon": 0.0, "lat": 38.9181675, "bike_id": "60dbe29041708afc850e968ee0af7ca8", "type": "electric_scooter", "is_reserved": 0, "lon": -77.03141666666667}, {"fusion_lat": 0.0, "name": "a2286f0f6a8c9e574ac8b9b749ac9023", "is_disabled": 0, "rental_uris": {"android": "https://dc.lft.to/lastmile_qr_scan", "ios": "https://dc.lft.to/lastmile_qr_scan"}, "fusion_lon": 0.0, "lat": 38.923379, "bike_id": "a2286f0f6a8c9e574ac8b9b749ac9023", "type": "electric_scooter", "is_reserved": 0, "lon": -77.03493633333333}, {"fusion_lat": 0.0, "name": "62a0719cb78ae0fd631a05e727fd17e6", "is_disabled": 0, "rental_uris": {"android": "https://dc.lft.to/lastmile_qr_scan", "ios": "https://dc.lft.to/lastmile_qr_scan"}, "fusion_lon": 0.0, "lat": 38.988178, "bike_id": "62a0719cb78ae0fd631a05e727fd17e6", "type": "electric_bike", "is_reserved": 0, "lon": -77.026564}, {"fusion_lat": 0.0, "name": "e0d536fbf47e56c4e71fdf1e2d92ba14", "is_disabled": 0, "rental_uris": {"android": "https://dc.lft.to/lastmile_qr_scan", "ios": "https://dc.lft.to/lastmile_qr_scan"}, "fusion_lon": 0.0, "lat": 38.92791916666667, "bike_id": "e0d536fbf47e56c4e71fdf1e2d92ba14", "type": "electric_scooter", "is_reserved": 0, "lon": -76.955602}, {"fusion_lat": 0.0, "name": "f4fdbd7dd9daad60edfe51bac926fc28", "is_disabled": 0, "rental_uris": {"android": "https://dc.lft.to/lastmile_qr_scan", "ios": "https://dc.lft.to/lastmile_qr_scan"}, "fusion_lon": 0.0, "lat": 38.900932166666664, "bike_id": "f4fdbd7dd9daad60edfe51bac926fc28", "type": "electric_bike", "is_reserved": 0, "lon": -77.0590505}, {"fusion_lat": 0.0, "name": "b547309352556425e4ec7ddf672591ac", "is_disabled": 0, "rental_uris": {"android": "https://dc.lft.to/lastmile_qr_scan", "ios": "https://dc.lft.to/lastmile_qr_scan"}, "fusion_lon": 0.0, "lat": 38.9240285, "bike_id": "b547309352556425e4ec7ddf672591ac", "type": "electric_scooter", "is_reserved": 0, "lon": -77.04278483333333}, {"fusion_lat": 0.0, "name": "e5a2a2cd5ddcf0fa4fb03431bd3e60d8", "is_disabled": 0, "rental_uris": {"android": "https://dc.lft.to/lastmile_qr_scan", "ios": "https://dc.lft.to/lastmile_qr_scan"}, "fusion_lon": 0.0, "lat": 38.917638833333335, "bike_id": "e5a2a2cd5ddcf0fa4fb03431bd3e60d8", "type": "electric_scooter", "is_reserved": 0, "lon": -77.036373}, {"fusion_lat": 0.0, "name": "689a56ad60bda0cc6ca9b739653e4848", "is_disabled": 0, "rental_uris": {"android": "https://dc.lft.to/lastmile_qr_scan", "ios": "https://dc.lft.to/lastmile_qr_scan"}, "fusion_lon": 0.0, "lat": 38.904846166666665, "bike_id": "689a56ad60bda0cc6ca9b739653e4848", "type": "electric_scooter", "is_reserved": 0, "lon": -76.94947833333333}, {"fusion_lat": 0.0, "name": "298acb3294f3b6d2d3eb6dab70a59ef6", "is_disabled": 0, "rental_uris": {"android": "https://dc.lft.to/lastmile_qr_scan", "ios": "https://dc.lft.to/lastmile_qr_scan"}, "fusion_lon": 0.0, "lat": 38.9260235, "bike_id": "298acb3294f3b6d2d3eb6dab70a59ef6", "type": "electric_scooter", "is_reserved": 0, "lon": -77.0215445}, {"fusion_lat": 0.0, "name": "3220f52c187318653d1f611171e2887b", "is_disabled": 0, "rental_uris": {"android": "https://dc.lft.to/lastmile_qr_scan", "ios": "https://dc.lft.to/lastmile_qr_scan"}, "fusion_lon": 0.0, "lat": 38.90769566666667, "bike_id": "3220f52c187318653d1f611171e2887b", "type": "electric_scooter", "is_reserved": 0, "lon": -77.0623235}, {"fusion_lat": 0.0, "name": "a89c159806aaf177780d7ac0eb762576", "is_disabled": 0, "rental_uris": {"android": "https://dc.lft.to/lastmile_qr_scan", "ios": "https://dc.lft.to/lastmile_qr_scan"}, "fusion_lon": 0.0, "lat": 38.911358166666666, "bike_id": "a89c159806aaf177780d7ac0eb762576", "type": "electric_scooter", "is_reserved": 0, "lon": -77.02198633333333}, {"fusion_lat": 0.0, "name": "9ea66cef26ffdb65cd3b3b69602829d4", "is_disabled": 0, "rental_uris": {"android": "https://dc.lft.to/lastmile_qr_scan", "ios": "https://dc.lft.to/lastmile_qr_scan"}, "fusion_lon": 0.0, "lat": 38.81333166666667, "bike_id": "9ea66cef26ffdb65cd3b3b69602829d4", "type": "electric_bike", "is_reserved": 0, "lon": -77.05093516666666}, {"fusion_lat": 0.0, "name": "ba186fdb282d806c9d2667f6e5e13315", "is_disabled": 0, "rental_uris": {"android": "https://dc.lft.to/lastmile_qr_scan", "ios": "https://dc.lft.to/lastmile_qr_scan"},