{"data": {"bikes": [{"bike_id": "2c806c24ee1092d9eae11c4b5265f4f3", "type": "electric_scooter", "is_disabled": 0, "lat": 38.91972483333333, "rental_uris": {"ios": "https://dc.lft.to/lastmile_qr_scan", "android": "https://dc.lft.to/lastmile_qr_scan"}, "is_reserved": 0, "fusion_lon": 0.0, "fusion_lat": 0.0, "lon": -77.07100166666666, "name": "2c806c24ee1092d9eae11c4b5265f4f3"}, {"bike_id": "398e2b6f9662baf417c4191792fedc44", "type": "electric_scooter", "is_disabled": 0, "lat": 38.931412333333334, "rental_uris": {"ios": "https://dc.lft.to/lastmile_qr_scan", "android": "https://dc.lft.to/lastmile_qr_scan"}, "is_reserved": 0, "fusion_lon": 0.0, "fusion_lat": 0.0, "lon": -77.0335475, "name": "398e2b6f9662baf417c4191792fedc44"}, {"bike_id": "01a02cad77410cf895d3f5dadb57d8d4", "type": "electric_scooter", "is_disabled": 0, "lat": 38.914195666666664, "rental_uris": {"ios": "https://dc.lft.to/lastmile_qr_scan", "android": "https://dc.lft.to/lastmile_qr_scan"}, "is_reserved": 0, "fusion_lon": 0.0, "fusion_lat": 0.0, "lon": -77.01986283333333, "name": "01a02cad77410cf895d3f5dadb57d8d4"}, {"bike_id": "3ce618c5ff2a9851a35bd3e66e523fce", "type": "electric_scooter", "is_disabled": 0, "lat": 38.920568333333335, "rental_uris": {"ios": "https://dc.lft.to/lastmile_qr_scan", "android": "https://dc.lft.to/lastmile_qr_scan"}, "is_reserved": 0, "fusion_lon": 0.0, "fusion_lat": 0.0, "lon": -77.0418385, "name": "3ce618c5ff2a9851a35bd3e66e523fce"}, {"bike_id": "f595af9df65f014ecf2cb7baed5bdb9e", "type": "electric_scooter", "is_disabled": 0, "lat": 38.920034666666666, "rental_uris": {"ios": "https://dc.lft.to/lastmile_qr_scan", "android": "https://dc.lft.to/lastmile_qr_scan"}, "is_reserved": 0, "fusion_lon": 0.0, "fusion_lat": 0.0, "lon": -77.08188116666666, "name": "f595af9df65f014ecf2cb7baed5bdb9e"}, {"bike_id": "b40ad02cb3f1e065e659c944bfe98a8a", "type": "electric_scooter", "is_disabled": 0, "lat": 38.88524616666667, "rental_uris": {"ios": "https://dc.lft.to/lastmile_qr_scan", "android": "https://dc.lft.to/lastmile_qr_scan"}, "is_reserved": 0, "fusion_lon": 0.0, "fusion_lat": 0.0, "lon": -76.97709766666667, "name": "b40ad02cb3f1e065e659c944bfe98a8a"}, {"bike_id": "77d64268d03858f70773b25af3c95ad7", "type": "electric_scooter", "is_disabled": 0, "lat": 38.908328166666664, "rental_uris": {"ios": "https://dc.lft.to/lastmile_qr_scan", "android": "https://dc.lft.to/lastmile_qr_scan"}, "is_reserved": 0, "fusion_lon": 0.0, "fusion_lat": 0.0, "lon": -77.031849, "name": "77d64268d03858f70773b25af3c95ad7"}, {"bike_id": "3b696549d007f2e42d420217d306c6ab", "type": "electric_scooter", "is_disabled": 0, "lat": 38.913310833333334, "rental_uris": {"ios": "https://dc.lft.to/lastmile_qr_scan", "android": "https://dc.lft.to/lastmile_qr_scan"}, "is_reserved": 0, "fusion_lon": 0.0, "fusion_lat": 0.0, "lon": -77.031788, "name": "3b696549d007f2e42d420217d306c6ab"}, {"bike_id": "8b677931eb84b04228de8d5dd028ab5c", "type": "electric_scooter", "is_disabled": 0, "lat": 38.94327216666667, "rental_uris": {"ios": "https://dc.lft.to/lastmile_qr_scan", "android": "https://dc.lft.to/lastmile_qr_scan"}, "is_reserved": 0, "fusion_lon": 0.0, "fusion_lat": 0.0, "lon": -77.01476566666666, "name": "8b677931eb84b04228de8d5dd028ab5c"}, {"bike_id": "96c31e44498b7d14a6f131f32f02964c", "type": "electric_scooter", "is_disabled": 0, "lat": 38.924740666666665, "rental_uris": {"ios": "https://dc.lft.to/lastmile_qr_scan", "android": "https://dc.lft.to/lastmile_qr_scan"}, "is_reserved": 0, "fusion_lon": 0.0, "fusion_lat": 0.0, "lon": -77.03790916666667, "name": "96c31e44498b7d14a6f131f32f02964c"}, {"bike_id": "e6707319c63fde78e96c220204ebbb23", "type": "electric_scooter", "is_disabled": 0, "lat": 38.93252833333333, "rental_uris": {"ios": "https://dc.lft.to/lastmile_qr_scan", "android": "https://dc.lft.to/lastmile_qr_scan"}, "is_reserved": 0, "fusion_lon": 0.0, "fusion_lat": 0.0, "lon": -77.0327725, "name": "e6707319c63fde78e96c220204ebbb23"}, {"bike_id": "20bbc01a9ee7d794bcfebe3bafbe3995", "type": "electric_scooter", "is_disabled": 0, "lat": 38.914158, "rental_uris": {"ios": "https://dc.lft.to/lastmile_qr_scan", "android": "https://dc.lft.to/lastmile_qr_scan"}, "is_reserved": 0, "fusion_lon": 0.0, "fusion_lat": 0.0, "lon": -77.0399465, "name": "20bbc01a9ee7d794bcfebe3bafbe3995"}, {"bike_id": "57257335d6466140846c68b78207edc9", "type": "electric_scooter", "is_disabled": 0, "lat": 38.920627833333334, "rental_uris": {"ios": "https://dc.lft.to/lastmile_qr_scan", "android": "https://dc.lft.to/lastmile_qr_scan"}, "is_reserved": 0, "fusion_lon": 0.0, "fusion_lat": 0.0, "lon": -77.02367183333334, "name": "57257335d6466140846c68b78207edc9"}, {"bike_id": "a8d3ee5b527ab8d977cdd927eb316aee", "type": "electric_scooter", "is_disabled": 0, "lat": 38.88301166666667, "rental_uris": {"ios": "https://dc.lft.to/lastmile_qr_scan", "android": "https://dc.lft.to/lastmile_qr_scan"}, "is_reserved": 0, "fusion_lon": 0.0, "fusion_lat": 0.0, "lon": -76.94204183333333, "name": "a8d3ee5b527ab8d977cdd927eb316aee"}, {"bike_id": "e9d116d09c28c88b3924167e82b46681", "type": "electric_scooter", "is_disabled": 0, "lat": 38.902329333333334, "rental_uris": {"ios": "https://dc.lft.to/lastmile_qr_scan", "android": "https://dc.lft.to/lastmile_qr_scan"}, "is_reserved": 0, "fusion_lon": 0.0, "fusion_lat": 0.0, "lon": -77.01805766666666, "name": "e9d116d09c28c88b3924167e82b46681"}, {"bike_id": "184faf7d3d8a742e703d4d8a09071103", "type": "electric_scooter", "is_disabled": 0, "lat": 38.92151783333333, "rental_uris": {"ios": "https://dc.lft.to/lastmile_qr_scan", "android": "https://dc.lft.to/lastmile_qr_scan"}, "is_reserved": 0, "fusion_lon": 0.0, "fusion_lat": 0.0, "lon": -77.03438866666667, "name": "184faf7d3d8a742e703d4d8a09071103"}, {"bike_id": "63d90c62b3f8a28b6eb8a592619613e5", "type": "electric_scooter", "is_disabled": 0, "lat": 38.915988666666664, "rental_uris": {"ios": "https://dc.lft.to/lastmile_qr_scan", "android": "https://dc.lft.to/lastmile_qr_scan"}, "is_reserved": 0, "fusion_lon": 0.0, "fusion_lat": 0.0, "lon": -77.00197816666666, "name": "63d90c62b3f8a28b6eb8a592619613e5"}, {"bike_id": "59c24be8e274e9dd5143a5d6d5680be2", "type": "electric_scooter", "is_disabled": 0, "lat": 38.92325816666666, "rental_uris": {"ios": "https://dc.lft.to/lastmile_qr_scan", "android": "https://dc.lft.to/lastmile_qr_scan"}, "is_reserved": 0, "fusion_lon": 0.0, "fusion_lat": 0.0, "lon": -77.02961683333334, "name": "59c24be8e274e9dd5143a5d6d5680be2"}, {"bike_id": "ac97db5f0dce50d28407330f24a10cce", "type": "electric_scooter", "is_disabled": 0, "lat": 38.911928333333336, "rental_uris": {"ios": "https://dc.lft.to/lastmile_qr_scan", "android": "https://dc.lft.to/lastmile_qr_scan"}, "is_reserved": 0, "fusion_lon": 0.0, "fusion_lat": 0.0, "lon": -77.011939, "name": "ac97db5f0dce50d28407330f24a10cce"}, {"bike_id": "58bf5cbe8f6a2d3ff353272856f3e54a", "type": "electric_scooter", "is_disabled": 0, "lat": 38.923596833333335, "rental_uris": {"ios": "https://dc.lft.to/lastmile_qr_scan", "android": "https://dc.lft.to/lastmile_qr_scan"}, "is_reserved": 0, "fusion_lon": 0.0, "fusion_lat": 0.0, "lon": -77.07642633333333, "name": "58bf5cbe8f6a2d3ff353272856f3e54a"}, {"bike_id": "5afdf9d1a6bedf722610264fc5c76c2b", "type": "electric_scooter", "is_disabled": 0, "lat": 38.93877533333333, "rental_uris": {"ios": "https://dc.lft.to/lastmile_qr_scan", "android": "https://dc.lft.to/lastmile_qr_scan"}, "is_reserved": 0, "fusion_lon": 0.0, "fusion_lat": 0.0, "lon": -77.02460116666667, "name": "5afdf9d1a6bedf722610264fc5c76c2b"}, {"bike_id": "493a8d0a2f10ec40cb26854b91db1c75", "type": "electric_scooter", "is_disabled": 0, "lat": 38.915537666666665, "rental_uris": {"ios": "https://dc.lft.to/lastmile_qr_scan", "android": "https://dc.lft.to/lastmile_qr_scan"}, "is_reserved": 0, "fusion_lon": 0.0, "fusion_lat": 0.0, "lon": -77.03323683333333, "name": "493a8d0a2f10ec40cb26854b91db1c75"}, {"bike_id": "feaf4a2fb7ae1b74cffac4a34c6214d7", "type": "electric_scooter", "is_disabled": 0, "lat": 38.96557883333333, "rental_uris": {"ios": "https://dc.lft.to/lastmile_qr_scan", "android": "https://dc.lft.to/lastmile_qr_scan"}, "is_reserved": 0, "fusion_lon": 0.0, "fusion_lat": 0.0, "lon": -77.00205633333333, "name": "feaf4a2fb7ae1b74cffac4a34c6214d7"}, {"bike_id": "80a8a5ef2b7516f8c714f223cbdf4b75", "type": "electric_scooter", "is_disabled": 0, "lat": 38.919937, "rental_uris": {"ios": "https://dc.lft.to/lastmile_qr_scan", "android": "https://dc.lft.to/lastmile_qr_scan"}, "is_reserved": 0, "fusion_lon": 0.0, "fusion_lat": 0.0, "lon": -77.039661, "name": "80a8a5ef2b7516f8c714f223cbdf4b75"}, {"bike_id": "8433c8ab8b20789e03c5977cdd21f214", "type": "electric_scooter", "is_disabled": 0, "lat": 38.8874545, "rental_uris": {"ios": "https://dc.lft.to/lastmile_qr_scan", "android": "https://dc.lft.to/lastmile_qr_scan"}, "is_reserved": 0, "fusion_lon": 0.0, "fusion_lat": 0.0, "lon": -77.02567183333333, "name": "8433c8ab8b20789e03c5977cdd21f214"}, {"bike_id": "c31b975d69e54dee8adfc2afef2e30ed", "type": "electric_scooter", "is_disabled": 0, "lat": 38.91112416666667, "rental_uris": {"ios": "https://dc.lft.to/lastmile_qr_scan", "android": "https://dc.lft.to/lastmile_qr_scan"}, "is_reserved": 0, "fusion_lon": 0.0, "fusion_lat": 0.0, "lon": -77.02202066666666, "name": "c31b975d69e54dee8adfc2afef2e30ed"}, {"bike_id": "f97363af224b80775830d674ac737c48", "type": "electric_bike", "is_disabled": 0, "lat": 38.952487, "rental_uris": {"ios": "https://dc.lft.to/lastmile_qr_scan", "android": "https://dc.lft.to/lastmile_qr_scan"}, "is_reserved": 0, "fusion_lon": 0.0, "fusion_lat": 0.0, "lon": -76.97671816666667, "name": "f97363af224b80775830d674ac737c48"}, {"bike_id": "e94aed3f6cfcab0a8f2be34658ea9b0e", "type": "electric_scooter", "is_disabled": 0, "lat": 38.905272, "rental_uris": {"ios": "https://dc.lft.to/lastmile_qr_scan", "android": "https://dc.lft.to/lastmile_qr_scan"}, "is_reserved": 0, "fusion_lon": 0.0, "fusion_lat": 0.0, "lon": -77.07032433333333, "name": "e94aed3f6cfcab0a8f2be34658ea9b0e"}, {"bike_id": "5a5dc58da347f98bc74c0fd15beb29ad", "type": "electric_scooter", "is_disabled": 0, "lat": 38.923219833333334, "rental_uris": {"ios": "https://dc.lft.to/lastmile_qr_scan", "android": "https://dc.lft.to/lastmile_qr_scan"}, "is_reserved": 0, "fusion_lon": 0.0, "fusion_lat": 0.0, "lon": -77.036746, "name": "5a5dc58da347f98bc74c0fd15beb29ad"}, {"bike_id": "6c38aed683531ee92803b151b0d42368", "type": "electric_scooter", "is_disabled": 0, "lat": 38.920420166666666, "rental_uris": {"ios": "https://dc.lft.to/lastmile_qr_scan", "android": "https://dc.lft.to/lastmile_qr_scan"}, "is_reserved": 0, "fusion_lon": 0.0, "fusion_lat": 0.0, "lon": -77.02573983333333, "name": "6c38aed683531ee92803b151b0d42368"}, {"bike_id": "82f1df8580da31795cefdef09449f96d", "type": "electric_scooter", "is_disabled": 0, "lat": 38.90542766666667, "rental_uris": {"ios": "https://dc.lft.to/lastmile_qr_scan", "android": "https://dc.lft.to/lastmile_qr_scan"}, "is_reserved": 0, "fusion_lon": 0.0, "fusion_lat": 0.0, "lon": -77.02186083333333, "name": "82f1df8580da31795cefdef09449f96d"}, {"bike_id": "631fc9f38d59f5ed7534e3d6300f5fd1", "type": "electric_scooter", "is_disabled": 0, "lat": 38.88723666666667, "rental_uris": {"ios": "https://dc.lft.to/lastmile_qr_scan", "android": "https://dc.lft.to/lastmile_qr_scan"}, "is_reserved": 0, "fusion_lon": 0.0, "fusion_lat": 0.0, "lon": -77.02205633333334, "name": "631fc9f38d59f5ed7534e3d6300f5fd1"}, {"bike_id": "55f7943175d5e2935d91ca8bf5ef0cfb", "type": "electric_scooter", "is_disabled": 0, "lat": 38.901718, "rental_uris": {"ios": "https://dc.lft.to/lastmile_qr_scan", "android": "https://dc.lft.to/lastmile_qr_scan"}, "is_reserved": 0, "fusion_lon": 0.0, "fusion_lat": 0.0, "lon": -77.02299916666666, "name": "55f7943175d5e2935d91ca8bf5ef0cfb"}, {"bike_id": "7258a415343be66a8a8eedb2956e09b5", "type": "electric_scooter", "is_disabled": 0, "lat": 38.89967766666667, "rental_uris": {"ios": "https://dc.lft.to/lastmile_qr_scan", "android": "https://dc.lft.to/lastmile_qr_scan"}, "is_reserved": 0, "fusion_lon": 0.0, "fusion_lat": 0.0, "lon": -76.92828483333334, "name": "7258a415343be66a8a8eedb2956e09b5"}, {"bike_id": "4200c6679efb0376681c9a843c68c4a6", "type": "electric_scooter", "is_disabled": 0, "lat": 38.95523416666666, "rental_uris": {"ios": "https://dc.lft.to/lastmile_qr_scan", "android": "https://dc.lft.to/lastmile_qr_scan"}, "is_reserved": 0, "fusion_lon": 0.0, "fusion_lat": 0.0, "lon": -77.0230945, "name": "4200c6679efb0376681c9a843c68c4a6"}, {"bike_id": "57e0833e79ed58ee9531d9960b399210", "type": "electric_bike", "is_disabled": 0, "lat": 38.963150666666664, "rental_uris": {"ios": "https://dc.lft.to/lastmile_qr_scan", "android": "https://dc.lft.to/lastmile_qr_scan"}, "is_reserved": 0, "fusion_lon": 0.0, "fusion_lat": 0.0, "lon": -76.97359733333333, "name": "57e0833e79ed58ee9531d9960b399210"}, {"bike_id": "13f9fa7089153e1652c12f1129a2666a", "type": "electric_scooter", "is_disabled": 0, "lat": 38.9201575, "rental_uris": {"ios": "https://dc.lft.to/lastmile_qr_scan", "android": "https://dc.lft.to/lastmile_qr_scan"}, "is_reserved": 0, "fusion_lon": 0.0, "fusion_lat": 0.0, "lon": -77.03125783333333, "name": "13f9fa7089153e1652c12f1129a2666a"}, {"bike_id": "460b006aacb34706a017cb0a35e70672", "type": "electric_scooter", "is_disabled": 0, "lat": 38.9123215, "rental_uris": {"ios": "https://dc.lft.to/lastmile_qr_scan", "android": "https://dc.lft.to/lastmile_qr_scan"}, "is_reserved": 0, "fusion_lon": 0.0, "fusion_lat": 0.0, "lon": -77.04520266666667, "name": "460b006aacb34706a017cb0a35e70672"}, {"bike_id": "130216e48a0f8049dc6ea28cc19b10e3", "type": "electric_scooter", "is_disabled": 0, "lat": 38.893240166666665, "rental_uris": {"ios": "https://dc.lft.to/lastmile_qr_scan", "android": "https://dc.lft.to/lastmile_qr_scan"}, "is_reserved": 0, "fusion_lon": 0.0, "fusion_lat": 0.0, "lon": -77.0318715, "name": "130216e48a0f8049dc6ea28cc19b10e3"}, {"bike_id": "1ca8c5e35bd42010a60f3e7a00ec8423", "type": "electric_scooter", "is_disabled": 0, "lat": 38.92219766666667, "rental_uris": {"ios": "https://dc.lft.to/lastmile_qr_scan", "android": "https://dc.lft.to/lastmile_qr_scan"}, "is_reserved": 0, "fusion_lon": 0.0, "fusion_lat": 0.0, "lon": -77.04334383333334, "name": "1ca8c5e35bd42010a60f3e7a00ec8423"}, {"bike_id": "ba0896947f79f2ca601276fdb85a877c", "type": "electric_scooter", "is_disabled": 0, "lat": 38.9047845, "rental_uris": {"ios": "https://dc.lft.to/lastmile_qr_scan", "android": "https://dc.lft.to/lastmile_qr_scan"}, "is_reserved": 0, "fusion_lon": 0.0, "fusion_lat": 0.0, "lon": -76.9962185, "name": "ba0896947f79f2ca601276fdb85a877c"}, {"bike_id": "8fc49ef11f2ebd8f6b8e00821537e267", "type": "electric_bike", "is_disabled": 0, "lat": 38.84526566666667, "rental_uris": {"ios": "https://dc.lft.to/lastmile_qr_scan", "android": "https://dc.lft.to/lastmile_qr_scan"}, "is_reserved": 0, "fusion_lon": 0.0, "fusion_lat": 0.0, "lon": -76.97398166666666, "name": "8fc49ef11f2ebd8f6b8e00821537e267"}, {"bike_id": "cfcbe6fb471e4afe2215d6ac5ab20724", "type": "electric_scooter", "is_disabled": 0, "lat": 38.947896166666666, "rental_uris": {"ios": "https://dc.lft.to/lastmile_qr_scan", "android": "https://dc.lft.to/lastmile_qr_scan"}, "is_reserved": 0, "fusion_lon": 0.0, "fusion_lat": 0.0, "lon": -77.02134966666667, "name": "cfcbe6fb471e4afe2215d6ac5ab20724"}, {"bike_id": "8806604839275ef4c1604b9a45c79e28", "type": "electric_scooter", "is_disabled": 0, "lat": 38.892204666666665, "rental_uris": {"ios": "https://dc.lft.to/lastmile_qr_scan", "android": "https://dc.lft.to/lastmile_qr_scan"}, "is_reserved": 0, "fusion_lon": 0.0, "fusion_lat": 0.0, "lon": -77.040117, "name": "8806604839275ef4c1604b9a45c79e28"}, {"bike_id": "03920ba55a2ef9ab4a17b266a86cc1bf", "type": "electric_scooter", "is_disabled": 0, "lat": 38.917819333333334, "rental_uris": {"ios": "https://dc.lft.to/lastmile_qr_scan", "android": "https://dc.lft.to/lastmile_qr_scan"}, "is_reserved": 0, "fusion_lon": 0.0, "fusion_lat": 0.0, "lon": -77.023134, "name": "03920ba55a2ef9ab4a17b266a86cc1bf"}, {"bike_id": "501e0fbdfdbde81e67f2a9a248ddaf33", "type": "electric_scooter", "is_disabled": 0, "lat": 38.92522266666667, "rental_uris": {"ios": "https://dc.lft.to/lastmile_qr_scan", "android": "https://dc.lft.to/lastmile_qr_scan"}, "is_reserved": 0, "fusion_lon": 0.0, "fusion_lat": 0.0, "lon": -77.07631766666667, "name": "501e0fbdfdbde81e67f2a9a248ddaf33"}, {"bike_id": "c56bc4423c40c1c425ec4ff650dc05ab", "type": "electric_scooter", "is_disabled": 0, "lat": 38.91680316666667, "rental_uris": {"ios": "https://dc.lft.to/lastmile_qr_scan", "android": "https://dc.lft.to/lastmile_qr_scan"}, "is_reserved": 0, "fusion_lon": 0.0, "fusion_lat": 0.0, "lon": -77.02309566666666, "name": "c56bc4423c40c1c425ec4ff650dc05ab"}, {"bike_id": "1cba173449c19f914910a63763cb5554", "type": "electric_scooter", "is_disabled": 0, "lat": 38.9036185, "rental_uris": {"ios": "https://dc.lft.to/lastmile_qr_scan", "android": "https://dc.lft.to/lastmile_qr_scan"}, "is_reserved": 0, "fusion_lon": 0.0, "fusion_lat": 0.0, "lon": -77.02196466666666, "name": "1cba173449c19f914910a63763cb5554"}, {"bike_id": "1cb365c71532f0ae2738ae266402bba5", "type": "electric_scooter", "is_disabled": 0, "lat": 38.917063666666664, "rental_uris": {"ios": "https://dc.lft.to/lastmile_qr_scan", "android": "https://dc.lft.to/lastmile_qr_scan"}, "is_reserved": 0, "fusion_lon": 0.0, "fusion_lat": 0.0, "lon": -77.03147916666667, "name": "1cb365c71532f0ae2738ae266402bba5"}, {"bike_id": "bf82df28028e8de854faadb6974491f9", "type": "electric_scooter", "is_disabled": 0, "lat": 38.92162616666667, "rental_uris": {"ios": "https://dc.lft.to/lastmile_qr_scan", "android": "https://dc.lft.to/lastmile_qr_scan"}, "is_reserved": 0, "fusion_lon": 0.0, "fusion_lat": 0.0, "lon": -77.03341483333334, "name": "bf82df28028e8de854faadb6974491f9"}, {"bike_id": "efbcb665720eb132a8d37918d444a08c", "type": "electric_scooter", "is_disabled": 0, "lat": 38.91273133333333, "rental_uris": {"ios": "https://dc.lft.to/lastmile_qr_scan", "android": "https://dc.lft.to/lastmile_qr_scan"}, "is_reserved": 0, "fusion_lon": 0.0, "fusion_lat": 0.0, "lon": -77.022137, "name": "efbcb665720eb132a8d37918d444a08c"}, {"bike_id": "1b23214b512c916ee6a00be70f16c9ff", "type": "electric_scooter", "is_disabled": 0, "lat": 38.91504, "rental_uris": {"ios": "https://dc.lft.to/lastmile_qr_scan", "android": "https://dc.lft.to/lastmile_qr_scan"}, "is_reserved": 0, "fusion_lon": 0.0, "fusion_lat": 0.0, "lon": -77.017762, "name": "1b23214b512c916ee6a00be70f16c9ff"}, {"bike_id": "111157fc7ee0ea6c7a53094389c0c5dc", "type": "electric_bike", "is_disabled": 0, "lat": 38.94736783333333, "rental_uris": {"ios": "https://dc.lft.to/lastmile_qr_scan", "android": "https://dc.lft.to/lastmile_qr_scan"}, "is_reserved": 0, "fusion_lon": 0.0, "fusion_lat": 0.0, "lon": -76.99585666666667, "name": "111157fc7ee0ea6c7a53094389c0c5dc"}, {"bike_id": "9aa32b77b5da9e0ea727d988beed75e3", "type": "electric_scooter", "is_disabled": 0, "lat": 38.9141295, "rental_uris": {"ios": "https://dc.lft.to/lastmile_qr_scan", "android": "https://dc.lft.to/lastmile_qr_scan"}, "is_reserved": 0, "fusion_lon": 0.0, "fusion_lat": 0.0, "lon": -77.02407583333333, "name": "9aa32b77b5da9e0ea727d988beed75e3"}, {"bike_id": "51490847f6d77f11decfe3a7ea53eddf", "type": "electric_scooter", "is_disabled": 0, "lat": 38.905365, "rental_uris": {"ios": "https://dc.lft.to/lastmile_qr_scan", "android": "https://dc.lft.to/lastmile_qr_scan"}, "is_reserved": 0, "fusion_lon": 0.0, "fusion_lat": 0.0, "lon": -77.048732, "name": "51490847f6d77f11decfe3a7ea53eddf"}, {"bike_id": "6c4888f00693e636cdb3081010c7c8f6", "type": "electric_scooter", "is_disabled": 0, "lat": 38.904076833333335, "rental_uris": {"ios": "https://dc.lft.to/lastmile_qr_scan", "android": "https://dc.lft.to/lastmile_qr_scan"}, "is_reserved": 0, "fusion_lon": 0.0, "fusion_lat": 0.0, "lon": -76.973329, "name": "6c4888f00693e636cdb3081010c7c8f6"}, {"bike_id": "78a83ecca505cdaa9e26bf6d584cba49", "type": "electric_scooter", "is_disabled": 0, "lat": 38.866613666666666, "rental_uris": {"ios": "https://dc.lft.to/lastmile_qr_scan", "android": "https://dc.lft.to/lastmile_qr_scan"}, "is_reserved": 0, "fusion_lon": 0.0, "fusion_lat": 0.0, "lon": -76.98863083333333, "name": "78a83ecca505cdaa9e26bf6d584cba49"}, {"bike_id": "19a2422835723115d8b4ac1a4e73d0ec", "type": "electric_scooter", "is_disabled": 0, "lat": 38.917305999999996, "rental_uris": {"ios": "https://dc.lft.to/lastmile_qr_scan", "android": "https://dc.lft.to/lastmile_qr_scan"}, "is_reserved": 0, "fusion_lon": 0.0, "fusion_lat": 0.0, "lon": -77.0321025, "name": "19a2422835723115d8b4ac1a4e73d0ec"}, {"bike_id": "ea1986e20a80f237079d127a3a37b993", "type": "electric_scooter", "is_disabled": 0, "lat": 38.937307833333335, "rental_uris": {"ios": "https://dc.lft.to/lastmile_qr_scan", "android": "https://dc.lft.to/lastmile_qr_scan"}, "is_reserved": 0, "fusion_lon": 0.0, "fusion_lat": 0.0, "lon": -77.0326825, "name": "ea1986e20a80f237079d127a3a37b993"}, {"bike_id": "d8ed9cda9e29aa55177fd556c9a85aa3", "type": "electric_scooter", "is_disabled": 0, "lat": 38.938928833333335, "rental_uris": {"ios": "https://dc.lft.to/lastmile_qr_scan", "android": "https://dc.lft.to/lastmile_qr_scan"}, "is_reserved": 0, "fusion_lon": 0.0, "fusion_lat": 0.0, "lon": -77.0332845, "name": "d8ed9cda9e29aa55177fd556c9a85aa3"}, {"bike_id": "07ea42c60d3a5b22f3760ae5fa6129fd", "type": "electric_scooter", "is_disabled": 0, "lat": 38.928624166666665, "rental_uris": {"ios": "https://dc.lft.to/lastmile_qr_scan", "android": "https://dc.lft.to/lastmile_qr_scan"}, "is_reserved": 0, "fusion_lon": 0.0, "fusion_lat": 0.0, "lon": -77.07340083333334, "name": "07ea42c60d3a5b22f3760ae5fa6129fd"}, {"bike_id": "cecb560fb65c5f515295a5d9280c9da4", "type": "electric_scooter", "is_disabled": 0, "lat": 38.90338883333333, "rental_uris": {"ios": "https://dc.lft.to/lastmile_qr_scan", "android": "https://dc.lft.to/lastmile_qr_scan"}, "is_reserved": 0, "fusion_lon": 0.0, "fusion_lat": 0.0, "lon": -77.06187416666667, "name": "cecb560fb65c5f515295a5d9280c9da4"}, {"bike_id": "91c941d88b7962dce446a55892ae1b00", "type": "electric_scooter", "is_disabled": 0, "lat": 38.91998133333333, "rental_uris": {"ios": "https://dc.lft.to/lastmile_qr_scan", "android": "https://dc.lft.to/lastmile_qr_scan"}, "is_reserved": 0, "fusion_lon": 0.0, "fusion_lat": 0.0, "lon": -77.02224933333333, "name": "91c941d88b7962dce446a55892ae1b00"}, {"bike_id": "50d43693f24bec2dca17b29dfce6d6be", "type": "electric_bike", "is_disabled": 0, "lat": 38.86754333333333, "rental_uris": {"ios": "https://dc.lft.to/lastmile_qr_scan", "android": "https://dc.lft.to/lastmile_qr_scan"}, "is_reserved": 0, "fusion_lon": 0.0, "fusion_lat": 0.0, "lon": -76.9452975, "name": "50d43693f24bec2dca17b29dfce6d6be"}, {"bike_id": "ce504232813dd71bbaa311890a3221cb", "type": "electric_scooter", "is_disabled": 0, "lat": 38.908688, "rental_uris": {"ios": "https://dc.lft.to/lastmile_qr_scan", "android": "https://dc.lft.to/lastmile_qr_scan"}, "is_reserved": 0, "fusion_lon": 0.0, "fusion_lat": 0.0, "lon": -76.99788666666667, "name": "ce504232813dd71bbaa311890a3221cb"}, {"bike_id": "53a7109bfb538e689d47f1124342c9be", "type": "electric_scooter", "is_disabled": 0, "lat": 38.92775483333333, "rental_uris": {"ios": "https://dc.lft.to/lastmile_qr_scan", "android": "https://dc.lft.to/lastmile_qr_scan"}, "is_reserved": 0, "fusion_lon": 0.0, "fusion_lat": 0.0, "lon": -77.0278435, "name": "53a7109bfb538e689d47f1124342c9be"}, {"bike_id": "dd6d09439d7c482ff77dd04847d971b1", "type": "electric_scooter", "is_disabled": 0, "lat": 38.898825333333335, "rental_uris": {"ios": "https://dc.lft.to/lastmile_qr_scan", "android": "https://dc.lft.to/lastmile_qr_scan"}, "is_reserved": 0, "fusion_lon": 0.0, "fusion_lat": 0.0, "lon": -76.93178066666667, "name": "dd6d09439d7c482ff77dd04847d971b1"}, {"bike_id": "50faea6ff2dbd09cda96f5e2d872693e", "type": "electric_scooter", "is_disabled": 0, "lat": 38.8756695, "rental_uris": {"ios": "https://dc.lft.to/lastmile_qr_scan", "android": "https://dc.lft.to/lastmile_qr_scan"}, "is_reserved": 0, "fusion_lon": 0.0, "fusion_lat": 0.0, "lon": -77.00488733333333, "name": "50faea6ff2dbd09cda96f5e2d872693e"}, {"bike_id": "bff3252cb00fc97a5774c08ea0b9d441", "type": "electric_bike", "is_disabled": 0, "lat": 38.880789666666665, "rental_uris": {"ios": "https://dc.lft.to/lastmile_qr_scan", "android": "https://dc.lft.to/lastmile_qr_scan"}, "is_reserved": 0, "fusion_lon": 0.0, "fusion_lat": 0.0, "lon": -76.98532, "name": "bff3252cb00fc97a5774c08ea0b9d441"}, {"bike_id": "99900cdacd3092bd4754b56cf434dd4a", "type": "electric_scooter", "is_disabled": 0, "lat": 38.8587875, "rental_uris": {"ios": "https://dc.lft.to/lastmile_qr_scan", "android": "https://dc.lft.to/lastmile_qr_scan"}, "is_reserved": 0, "fusion_lon": 0.0, "fusion_lat": 0.0, "lon": -76.99561366666667, "name": "99900cdacd3092bd4754b56cf434dd4a"}, {"bike_id": "0f647ed3e4e9b6422e3979f4d4e52b93", "type": "electric_scooter", "is_disabled": 0, "lat": 38.913350333333334, "rental_uris": {"ios": "https://dc.lft.to/lastmile_qr_scan", "android": "https://dc.lft.to/lastmile_qr_scan"}, "is_reserved": 0, "fusion_lon": 0.0, "fusion_lat": 0.0, "lon": -77.04483716666667, "name": "0f647ed3e4e9b6422e3979f4d4e52b93"}, {"bike_id": "7464eae4c68fd9e341a52362e57efa49", "type": "electric_scooter", "is_disabled": 0, "lat": 38.92910966666667, "rental_uris": {"ios": "https://dc.lft.to/lastmile_qr_scan", "android": "https://dc.lft.to/lastmile_qr_scan"}, "is_reserved": 0, "fusion_lon": 0.0, "fusion_lat": 0.0, "lon": -77.02093183333334, "name": "7464eae4c68fd9e341a52362e57efa49"}, {"bike_id": "3a78b3b5b14aecaaafe05c301d6e7455", "type": "electric_scooter", "is_disabled": 0, "lat": 38.914826166666664, "rental_uris": {"ios": "https://dc.lft.to/lastmile_qr_scan", "android": "https://dc.lft.to/lastmile_qr_scan"}, "is_reserved": 0, "fusion_lon": 0.0, "fusion_lat": 0.0, "lon": -77.02581483333333, "name": "3a78b3b5b14aecaaafe05c301d6e7455"}, {"bike_id": "cf49c42fbac88fc06afb9262a3f2fa55", "type": "electric_scooter", "is_disabled": 0, "lat": 38.911773333333336, "rental_uris": {"ios": "https://dc.lft.to/lastmile_qr_scan", "android": "https://dc.lft.to/lastmile_qr_scan"}, "is_reserved": 0, "fusion_lon": 0.0, "fusion_lat": 0.0, "lon": -77.01696416666667, "name": "cf49c42fbac88fc06afb9262a3f2fa55"}, {"bike_id": "14b8773b7bd1d554326628aa2488ce30", "type": "electric_scooter", "is_disabled": 0, "lat": 38.825911, "rental_uris": {"ios": "https://dc.lft.to/lastmile_qr_scan", "android": "https://dc.lft.to/lastmile_qr_scan"}, "is_reserved": 0, "fusion_lon": 0.0, "fusion_lat": 0.0, "lon": -77.00763983333333, "name": "14b8773b7bd1d554326628aa2488ce30"}, {"bike_id": "37ce0a68e2be5bcf4fef74b4b5069cf1", "type": "electric_scooter", "is_disabled": 0, "lat": 38.91692466666667, "rental_uris": {"ios": "https://dc.lft.to/lastmile_qr_scan", "android": "https://dc.lft.to/lastmile_qr_scan"}, "is_reserved": 0, "fusion_lon": 0.0, "fusion_lat": 0.0, "lon": -77.00813283333333, "name": "37ce0a68e2be5bcf4fef74b4b5069cf1"}, {"bike_id": "e267d78490ad19620a3f17e08780a0a6", "type": "electric_scooter", "is_disabled": 0, "lat": 38.8624765, "rental_uris": {"ios": "https://dc.lft.to/lastmile_qr_scan", "android": "https://dc.lft.to/lastmile_qr_scan"}, "is_reserved": 0, "fusion_lon": 0.0, "fusion_lat": 0.0, "lon": -76.99501083333334, "name": "e267d78490ad19620a3f17e08780a0a6"}, {"bike_id": "ef716a7f1e70b59fe9b7e75f601462da", "type": "electric_scooter", "is_disabled": 0, "lat": 38.912642, "rental_uris": {"ios": "https://dc.lft.to/lastmile_qr_scan", "android": "https://dc.lft.to/lastmile_qr_scan"}, "is_reserved": 0, "fusion_lon": 0.0, "fusion_lat": 0.0, "lon": -77.0470965, "name": "ef716a7f1e70b59fe9b7e75f601462da"}, {"bike_id": "8eef08db235a71200ced4cd50d3b0210", "type": "electric_scooter", "is_disabled": 0, "lat": 38.903590666666666, "rental_uris": {"ios": "https://dc.lft.to/lastmile_qr_scan", "android": "https://dc.lft.to/lastmile_qr_scan"}, "is_reserved": 0, "fusion_lon": 0.0, "fusion_lat": 0.0, "lon": -77.03181066666667, "name": "8eef08db235a71200ced4cd50d3b0210"}, {"bike_id": "8670388618866265d6c638ecfd059e35", "type": "electric_scooter", "is_disabled": 0, "lat": 38.925245333333336, "rental_uris": {"ios": "https://dc.lft.to/lastmile_qr_scan", "android": "https://dc.lft.to/lastmile_qr_scan"}, "is_reserved": 0, "fusion_lon": 0.0, "fusion_lat": 0.0, "lon": -77.04116883333333, "name": "8670388618866265d6c638ecfd059e35"}, {"bike_id": "28c1a38f51fcf0db66bb99d1dc71ff3e", "type": "electric_scooter", "is_disabled": 0, "lat": 38.911696666666664, "rental_uris": {"ios": "https://dc.lft.to/lastmile_qr_scan", "android": "https://dc.lft.to/lastmile_qr_scan"}, "is_reserved": 0, "fusion_lon": 0.0, "fusion_lat": 0.0, "lon": -77.03181683333334, "name": "28c1a38f51fcf0db66bb99d1dc71ff3e"}, {"bike_id": "a1c8fdaf58da0e381459c25a1b73dfc6", "type": "electric_scooter", "is_disabled": 0, "lat": 38.905598833333336, "rental_uris": {"ios": "https://dc.lft.to/lastmile_qr_scan", "android": "https://dc.lft.to/lastmile_qr_scan"}, "is_reserved": 0, "fusion_lon": 0.0, "fusion_lat": 0.0, "lon": -77.06523733333333, "name": "a1c8fdaf58da0e381459c25a1b73dfc6"}, {"bike_id": "8a59245caf1873523983b70578a9a23b", "type": "electric_scooter", "is_disabled": 0, "lat": 38.919891166666666, "rental_uris": {"ios": "https://dc.lft.to/lastmile_qr_scan", "android": "https://dc.lft.to/lastmile_qr_scan"}, "is_reserved": 0, "fusion_lon": 0.0, "fusion_lat": 0.0, "lon": -77.0325035, "name": "8a59245caf1873523983b70578a9a23b"}, {"bike_id": "de80b8becb8fcce683af0de155c8375f", "type": "electric_scooter", "is_disabled": 0, "lat": 38.897222666666664, "rental_uris": {"ios": "https://dc.lft.to/lastmile_qr_scan", "android": "https://dc.lft.to/lastmile_qr_scan"}, "is_reserved": 0, "fusion_lon": 0.0, "fusion_lat": 0.0, "lon": -77.02163, "name": "de80b8becb8fcce683af0de155c8375f"}, {"bike_id": "394c578035162f0ff8528601c992b8cf", "type": "electric_scooter", "is_disabled": 0, "lat": 38.9309685, "rental_uris": {"ios": "https://dc.lft.to/lastmile_qr_scan", "android": "https://dc.lft.to/lastmile_qr_scan"}, "is_reserved": 0, "fusion_lon": 0.0, "fusion_lat": 0.0, "lon": -77.02660483333334, "name": "394c578035162f0ff8528601c992b8cf"}, {"bike_id": "8083518a8a9cf15f57982c39a4646d66", "type": "electric_bike", "is_disabled": 0, "lat": 38.85772866666667, "rental_uris": {"ios": "https://dc.lft.to/lastmile_qr_scan", "android": "https://dc.lft.to/lastmile_qr_scan"}, "is_reserved": 0, "fusion_lon": 0.0, "fusion_lat": 0.0, "lon": -76.98768383333334, "name": "8083518a8a9cf15f57982c39a4646d66"}, {"bike_id": "e324e90e0418fc85c5ab5dd9109a6ce3", "type": "electric_scooter", "is_disabled": 0, "lat": 38.902807, "rental_uris": {"ios": "https://dc.lft.to/lastmile_qr_scan", "android": "https://dc.lft.to/lastmile_qr_scan"}, "is_reserved": 0, "fusion_lon": 0.0, "fusion_lat": 0.0, "lon": -77.01892833333333, "name": "e324e90e0418fc85c5ab5dd9109a6ce3"}, {"bike_id": "f2bdd04ed4207813aa7e069f654a4ae8", "type": "electric_bike", "is_disabled": 0, "lat": 38.920683, "rental_uris": {"ios": "https://dc.lft.to/lastmile_qr_scan", "android": "https://dc.lft.to/lastmile_qr_scan"}, "is_reserved": 0, "fusion_lon": 0.0, "fusion_lat": 0.0, "lon": -76.89069283333333, "name": "f2bdd04ed4207813aa7e069f654a4ae8"}, {"bike_id": "14bed1f8905b1c769d40739013074cfc", "type": "electric_scooter", "is_disabled": 0, "lat": 38.91286183333333, "rental_uris": {"ios": "https://dc.lft.to/lastmile_qr_scan", "android": "https://dc.lft.to/lastmile_qr_scan"}, "is_reserved": 0, "fusion_lon": 0.0, "fusion_lat": 0.0, "lon": -77.06119116666666, "name": "14bed1f8905b1c769d40739013074cfc"}, {"bike_id": "09e4430ad24560af7c2bfd422ec3b95e", "type": "electric_scooter", "is_disabled": 0, "lat": 38.91927916666667, "rental_uris": {"ios": "https://dc.lft.to/lastmile_qr_scan", "android": "https://dc.lft.to/lastmile_qr_scan"}, "is_reserved": 0, "fusion_lon": 0.0, "fusion_lat": 0.0, "lon": -77.03174766666666, "name": "09e4430ad24560af7c2bfd422ec3b95e"}, {"bike_id": "7d256ace78ca3fffbd0bf45b5f882d7b", "type": "electric_scooter", "is_disabled": 0, "lat": 38.897504833333336, "rental_uris": {"ios": "https://dc.lft.to/lastmile_qr_scan", "android": "https://dc.lft.to/lastmile_qr_scan"}, "is_reserved": 0, "fusion_lon": 0.0, "fusion_lat": 0.0, "lon": -76.94186133333334, "name": "7d256ace78ca3fffbd0bf45b5f882d7b"}, {"bike_id": "3c664ba02100481e0c43288710ae2b7d", "type": "electric_scooter", "is_disabled": 0, "lat": 38.923410833333335, "rental_uris": {"ios": "https://dc.lft.to/lastmile_qr_scan", "android": "https://dc.lft.to/lastmile_qr_scan"}, "is_reserved": 0, "fusion_lon": 0.0, "fusion_lat": 0.0, "lon": -77.03484, "name": "3c664ba02100481e0c43288710ae2b7d"}, {"bike_id": "e185c3a75a0c9903841f0addfddceaa2", "type": "electric_scooter", "is_disabled": 0, "lat": 38.915485, "rental_uris": {"ios": "https://dc.lft.to/lastmile_qr_scan", "android": "https://dc.lft.to/lastmile_qr_scan"}, "is_reserved": 0, "fusion_lon": 0.0, "fusion_lat": 0.0, "lon": -77.03636466666667, "name": "e185c3a75a0c9903841f0addfddceaa2"}, {"bike_id": "ce3700c5aef02a8524ef825de4115775", "type": "electric_scooter", "is_disabled": 0, "lat": 38.91348466666667, "rental_uris": {"ios": "https://dc.lft.to/lastmile_qr_scan", "android": "https://dc.lft.to/lastmile_qr_scan"}, "is_reserved": 0, "fusion_lon": 0.0, "fusion_lat": 0.0, "lon": -77.012211, "name": "ce3700c5aef02a8524ef825de4115775"}, {"bike_id": "58c424961bba014bfa0d00266a587d04", "type": "electric_scooter", "is_disabled": 0, "lat": 38.907264833333336, "rental_uris": {"ios": "https://dc.lft.to/lastmile_qr_scan", "android": "https://dc.lft.to/lastmile_qr_scan"}, "is_reserved": 0, "fusion_lon": 0.0, "fusion_lat": 0.0, "lon": -76.98349583333334, "name": "58c424961bba014bfa0d00266a587d04"}, {"bike_id": "c2eecfd01e0c1f9e962263c8784b1551", "type": "electric_scooter", "is_disabled": 0, "lat": 38.89332433333333, "rental_uris": {"ios": "https://dc.lft.to/lastmile_qr_scan", "android": "https://dc.lft.to/lastmile_qr_scan"}, "is_reserved": 0, "fusion_lon": 0.0, "fusion_lat": 0.0, "lon": -77.03178616666666, "name": "c2eecfd01e0c1f9e962263c8784b1551"}, {"bike_id": "5076a19ce410929f43acdfe966dd0100", "type": "electric_scooter", "is_disabled": 0, "lat": 38.84636033333334, "rental_uris": {"ios": "https://dc.lft.to/lastmile_qr_scan", "android": "https://dc.lft.to/lastmile_qr_scan"}, "is_reserved": 0, "fusion_lon": 0.0, "fusion_lat": 0.0, "lon": -76.99137166666667, "name": "5076a19ce410929f43acdfe966dd0100"}, {"bike_id": "b51abac5c451a9573383be275820f4cd", "type": "electric_scooter", "is_disabled": 0, "lat": 38.918365333333334, "rental_uris": {"ios": "https://dc.lft.to/lastmile_qr_scan", "android": "https://dc.lft.to/lastmile_qr_scan"}, "is_reserved": 0, "fusion_lon": 0.0, "fusion_lat": 0.0, "lon": -77.03938133333334, "name": "b51abac5c451a9573383be275820f4cd"}, {"bike_id": "4df9102cc9cae373a81d8fd154c9201f", "type": "electric_scooter", "is_disabled": 0, "lat": 38.899971666666666, "rental_uris": {"ios": "https://dc.lft.to/lastmile_qr_scan", "android": "https://dc.lft.to/lastmile_qr_scan"}, "is_reserved": 0, "fusion_lon": 0.0, "fusion_lat": 0.0, "lon": -77.039784, "name": "4df9102cc9cae373a81d8fd154c9201f"}, {"bike_id": "6fe09393274933d758127b892306dde3", "type": "electric_bike", "is_disabled": 0, "lat": 38.82173983333333, "rental_uris": {"ios": "https://dc.lft.to/lastmile_qr_scan", "android": "https://dc.lft.to/lastmile_qr_scan"}, "is_reserved": 0, "fusion_lon": 0.0, "fusion_lat": 0.0, "lon": -76.9950795, "name": "6fe09393274933d758127b892306dde3"}, {"bike_id": "65a11575d0e270c8499d8cadf519914d", "type": "electric_scooter", "is_disabled": 0, "lat": 38.90554066666667, "rental_uris": {"ios": "https://dc.lft.to/lastmile_qr_scan", "android": "https://dc.lft.to/lastmile_qr_scan"}, "is_reserved": 0, "fusion_lon": 0.0, "fusion_lat": 0.0, "lon": -77.06532, "name": "65a11575d0e270c8499d8cadf519914d"}, {"bike_id": "c1e9cfb59fe5a8a587f18cd92d2f0e46", "type": "electric_scooter", "is_disabled": 0, "lat": 38.91764633333333, "rental_uris": {"ios": "https://dc.lft.to/lastmile_qr_scan", "android": "https://dc.lft.to/lastmile_qr_scan"}, "is_reserved": 0, "fusion_lon": 0.0, "fusion_lat": 0.0, "lon": -77.01746833333333, "name": "c1e9cfb59fe5a8a587f18cd92d2f0e46"}, {"bike_id": "df55999d47c944674c2254510eccaed3", "type": "electric_scooter", "is_disabled": 0, "lat": 38.871594, "rental_uris": {"ios": "https://dc.lft.to/lastmile_qr_scan", "android": "https://dc.lft.to/lastmile_qr_scan"}, "is_reserved": 0, "fusion_lon": 0.0, "fusion_lat": 0.0, "lon": -77.0135255, "name": "df55999d47c944674c2254510eccaed3"}, {"bike_id": "d5fac2015d640e67bdc57507d37f3814", "type": "electric_bike", "is_disabled": 0, "lat": 39.035708166666666, "rental_uris": {"ios": "https://dc.lft.to/lastmile_qr_scan", "android": "https://dc.lft.to/lastmile_qr_scan"}, "is_reserved": 0, "fusion_lon": 0.0, "fusion_lat": 0.0, "lon": -77.03938166666667, "name": "d5fac2015d640e67bdc57507d37f3814"}, {"bike_id": "8ce33cd0b1b505290a17d9fd24806084", "type": "electric_scooter", "is_disabled": 0, "lat": 38.905416, "rental_uris": {"ios": "https://dc.lft.to/lastmile_qr_scan", "android": "https://dc.lft.to/lastmile_qr_scan"}, "is_reserved": 0, "fusion_lon": 0.0, "fusion_lat": 0.0, "lon": -77.02192866666667, "name": "8ce33cd0b1b505290a17d9fd24806084"}, {"bike_id": "f6809a18f825400e6ec510081cce8871", "type": "electric_scooter", "is_disabled": 0, "lat": 38.874596, "rental_uris": {"ios": "https://dc.lft.to/lastmile_qr_scan", "android": "https://dc.lft.to/lastmile_qr_scan"}, "is_reserved": 0, "fusion_lon": 0.0, "fusion_lat": 0.0, "lon": -77.0093675, "name": "f6809a18f825400e6ec510081cce8871"}, {"bike_id": "acfcae6a6d68a120722ffa26fc3b2a79", "type": "electric_scooter", "is_disabled": 0, "lat": 38.893595833333336, "rental_uris": {"ios": "https://dc.lft.to/lastmile_qr_scan", "android": "https://dc.lft.to/lastmile_qr_scan"}, "is_reserved": 0, "fusion_lon": 0.0, "fusion_lat": 0.0, "lon": -76.94934933333333, "name": "acfcae6a6d68a120722ffa26fc3b2a79"}, {"bike_id": "07f69a82e7840c121e55e201b9b37176", "type": "electric_bike", "is_disabled": 0, "lat": 38.8972685, "rental_uris": {"ios": "https://dc.lft.to/lastmile_qr_scan", "android": "https://dc.lft.to/lastmile_qr_scan"}, "is_reserved": 0, "fusion_lon": 0.0, "fusion_lat": 0.0, "lon": -76.97341833333333, "name": "07f69a82e7840c121e55e201b9b37176"}, {"bike_id": "00778536bf086f78623ab3db6a010475", "type": "electric_scooter", "is_disabled": 0, "lat": 38.9146335, "rental_uris": {"ios": "https://dc.lft.to/lastmile_qr_scan", "android": "https://dc.lft.to/lastmile_qr_scan"}, "is_reserved": 0, "fusion_lon": 0.0, "fusion_lat": 0.0, "lon": -77.00215266666666, "name": "00778536bf086f78623ab3db6a010475"}, {"bike_id": "7c8fdb2fea22411a018205218d51e1d4", "type": "electric_scooter", "is_disabled": 0, "lat": 38.911176166666664, "rental_uris": {"ios": "https://dc.lft.to/lastmile_qr_scan", "android": "https://dc.lft.to/lastmile_qr_scan"}, "is_reserved": 0, "fusion_lon": 0.0, "fusion_lat": 0.0, "lon": -77.02209166666667, "name": "7c8fdb2fea22411a018205218d51e1d4"}, {"bike_id": "4495774be23e20be8937d954bb617acc", "type": "electric_scooter", "is_disabled": 0, "lat": 38.935947, "rental_uris": {"ios": "https://dc.lft.to/lastmile_qr_scan", "android": "https://dc.lft.to/lastmile_qr_scan"}, "is_reserved": 0, "fusion_lon": 0.0, "fusion_lat": 0.0, "lon": -77.03515683333333, "name": "4495774be23e20be8937d954bb617acc"}, {"bike_id": "73c6b90c9e3507f4296c08bf1fdfeddf", "type": "electric_scooter", "is_disabled": 0, "lat": 38.884291, "rental_uris": {"ios": "https://dc.lft.to/lastmile_qr_scan", "android": "https://dc.lft.to/lastmile_qr_scan"}, "is_reserved": 0, "fusion_lon": 0.0, "fusion_lat": 0.0, "lon": -76.957529, "name": "73c6b90c9e3507f4296c08bf1fdfeddf"}, {"bike_id": "e83b851935d0c6ed96117007795b4f6a", "type": "electric_scooter", "is_disabled": 0, "lat": 38.8875235, "rental_uris": {"ios": "https://dc.lft.to/lastmile_qr_scan", "android": "https://dc.lft.to/lastmile_qr_scan"}, "is_reserved": 0, "fusion_lon": 0.0, "fusion_lat": 0.0, "lon": -77.02941216666666, "name": "e83b851935d0c6ed96117007795b4f6a"}, {"bike_id": "9f10d792fd1e3368165aa2ea09668b6c", "type": "electric_scooter", "is_disabled": 0, "lat": 38.901216, "rental_uris": {"ios": "https://dc.lft.to/lastmile_qr_scan", "android": "https://dc.lft.to/lastmile_qr_scan"}, "is_reserved": 0, "fusion_lon": 0.0, "fusion_lat": 0.0, "lon": -77.01791983333334, "name": "9f10d792fd1e3368165aa2ea09668b6c"}, {"bike_id": "1d0ddee95fcf6d3583548a2f10f82ad7", "type": "electric_scooter", "is_disabled": 0, "lat": 38.905054666666665, "rental_uris": {"ios": "https://dc.lft.to/lastmile_qr_scan", "android": "https://dc.lft.to/lastmile_qr_scan"}, "is_reserved": 0, "fusion_lon": 0.0, "fusion_lat": 0.0, "lon": -77.02951783333333, "name": "1d0ddee95fcf6d3583548a2f10f82ad7"}, {"bike_id": "8d2e3b6b85a8f90a0546e2f1a04fa873", "type": "electric_scooter", "is_disabled": 0, "lat": 38.922509, "rental_uris": {"ios": "https://dc.lft.to/lastmile_qr_scan", "android": "https://dc.lft.to/lastmile_qr_scan"}, "is_reserved": 0, "fusion_lon": 0.0, "fusion_lat": 0.0, "lon": -77.03025383333333, "name": "8d2e3b6b85a8f90a0546e2f1a04fa873"}, {"bike_id": "4f533e5cba6ec4f6621d05aa4f35d3c4", "type": "electric_scooter", "is_disabled": 0, "lat": 38.91034, "rental_uris": {"ios": "https://dc.lft.to/lastmile_qr_scan", "android": "https://dc.lft.to/lastmile_qr_scan"}, "is_reserved": 0, "fusion_lon": 0.0, "fusion_lat": 0.0, "lon": -77.03801033333333, "name": "4f533e5cba6ec4f6621d05aa4f35d3c4"}, {"bike_id": "59b63b56abdc84ecd1420c676ce3c82e", "type": "electric_scooter", "is_disabled": 0, "lat": 38.89760883333334, "rental_uris": {"ios": "https://dc.lft.to/lastmile_qr_scan", "android": "https://dc.lft.to/lastmile_qr_scan"}, "is_reserved": 0, "fusion_lon": 0.0, "fusion_lat": 0.0, "lon": -76.947079, "name": "59b63b56abdc84ecd1420c676ce3c82e"}, {"bike_id": "974dce7cacf1656f9e6c1305d91e29c4", "type": "electric_scooter", "is_disabled": 0, "lat": 38.91468366666667, "rental_uris": {"ios": "https://dc.lft.to/lastmile_qr_scan", "android": "https://dc.lft.to/lastmile_qr_scan"}, "is_reserved": 0, "fusion_lon": 0.0, "fusion_lat": 0.0, "lon": -77.04593583333333, "name": "974dce7cacf1656f9e6c1305d91e29c4"}, {"bike_id": "a02f18d3991751759ec192949c9814f4", "type": "electric_scooter", "is_disabled": 0, "lat": 38.915766833333336, "rental_uris": {"ios": "https://dc.lft.to/lastmile_qr_scan", "android": "https://dc.lft.to/lastmile_qr_scan"}, "is_reserved": 0, "fusion_lon": 0.0, "fusion_lat": 0.0, "lon": -77.01235916666667, "name": "a02f18d3991751759ec192949c9814f4"}, {"bike_id": "da847e1747b8c5b0f27fe20e4f190441", "type": "electric_scooter", "is_disabled": 0, "lat": 38.9144315, "rental_uris": {"ios": "https://dc.lft.to/lastmile_qr_scan", "android": "https://dc.lft.to/lastmile_qr_scan"}, "is_reserved": 0, "fusion_lon": 0.0, "fusion_lat": 0.0, "lon": -77.025957, "name": "da847e1747b8c5b0f27fe20e4f190441"}, {"bike_id": "48764c36c7c3cc4afba48f2a52f3feb9", "type": "electric_scooter", "is_disabled": 0, "lat": 38.9760945, "rental_uris": {"ios": "https://dc.lft.to/lastmile_qr_scan", "android": "https://dc.lft.to/lastmile_qr_scan"}, "is_reserved": 0, "fusion_lon": 0.0, "fusion_lat": 0.0, "lon": -77.0264725, "name": "48764c36c7c3cc4afba48f2a52f3feb9"}, {"bike_id": "18ea0cbb9f147b44e448292f171572ea", "type": "electric_scooter", "is_disabled": 0, "lat": 38.903654333333336, "rental_uris": {"ios": "https://dc.lft.to/lastmile_qr_scan", "android": "https://dc.lft.to/lastmile_qr_scan"}, "is_reserved": 0, "fusion_lon": 0.0, "fusion_lat": 0.0, "lon": -77.03194633333334, "name": "18ea0cbb9f147b44e448292f171572ea"}, {"bike_id": "317b3844ebba52a50742f0e687819a58", "type": "electric_scooter", "is_disabled": 0, "lat": 38.908322166666665, "rental_uris": {"ios": "https://dc.lft.to/lastmile_qr_scan", "android": "https://dc.lft.to/lastmile_qr_scan"}, "is_reserved": 0, "fusion_lon": 0.0, "fusion_lat": 0.0, "lon": -76.99694133333334, "name": "317b3844ebba52a50742f0e687819a58"}, {"bike_id": "bf5988f52fac5f2c8de10a30e9a5f611", "type": "electric_scooter", "is_disabled": 0, "lat": 38.90035533333333, "rental_uris": {"ios": "https://dc.lft.to/lastmile_qr_scan", "android": "https://dc.lft.to/lastmile_qr_scan"}, "is_reserved": 0, "fusion_lon": 0.0, "fusion_lat": 0.0, "lon": -77.01166, "name": "bf5988f52fac5f2c8de10a30e9a5f611"}, {"bike_id": "bec694c017a03e0d8b62242ad40ebaf2", "type": "electric_scooter", "is_disabled": 0, "lat": 38.972023166666666, "rental_uris": {"ios": "https://dc.lft.to/lastmile_qr_scan", "android": "https://dc.lft.to/lastmile_qr_scan"}, "is_reserved": 0, "fusion_lon": 0.0, "fusion_lat": 0.0, "lon": -77.02660933333334, "name": "bec694c017a03e0d8b62242ad40ebaf2"}, {"bike_id": "51b05da3690fcf70dbfc297e370faa10", "type": "electric_scooter", "is_disabled": 0, "lat": 38.9072355, "rental_uris": {"ios": "https://dc.lft.to/lastmile_qr_scan", "android": "https://dc.lft.to/lastmile_qr_scan"}, "is_reserved": 0, "fusion_lon": 0.0, "fusion_lat": 0.0, "lon": -77.02522316666666, "name": "51b05da3690fcf70dbfc297e370faa10"}, {"bike_id": "b1dd1b0177d2e07a85e1989435b6bcbb", "type": "electric_scooter", "is_disabled": 0, "lat": 38.9336025, "rental_uris": {"ios": "https://dc.lft.to/lastmile_qr_scan", "android": "https://dc.lft.to/lastmile_qr_scan"}, "is_reserved": 0, "fusion_lon": 0.0, "fusion_lat": 0.0, "lon": -77.08858366666666, "name": "b1dd1b0177d2e07a85e1989435b6bcbb"}, {"bike_id": "d5ff4e09d9c079d955fa10a22c64e3ff", "type": "electric_scooter", "is_disabled": 0, "lat": 38.86628316666667, "rental_uris": {"ios": "https://dc.lft.to/lastmile_qr_scan", "android": "https://dc.lft.to/lastmile_qr_scan"}, "is_reserved": 0, "fusion_lon": 0.0, "fusion_lat": 0.0, "lon": -76.98719816666667, "name": "d5ff4e09d9c079d955fa10a22c64e3ff"}, {"bike_id": "0a917417b7ae4d11d0b8e6618293c009", "type": "electric_scooter", "is_disabled": 0, "lat": 38.900018, "rental_uris": {"ios": "https://dc.lft.to/lastmile_qr_scan", "android": "https://dc.lft.to/lastmile_qr_scan"}, "is_reserved": 0, "fusion_lon": 0.0, "fusion_lat": 0.0, "lon": -77.03979183333334, "name": "0a917417b7ae4d11d0b8e6618293c009"}, {"bike_id": "64aa7c3b4e98880a1eb2c31e321d8662", "type": "electric_scooter", "is_disabled": 0, "lat": 38.896993333333334, "rental_uris": {"ios": "https://dc.lft.to/lastmile_qr_scan", "android": "https://dc.lft.to/lastmile_qr_scan"}, "is_reserved": 0, "fusion_lon": 0.0, "fusion_lat": 0.0, "lon": -77.02292333333334, "name": "64aa7c3b4e98880a1eb2c31e321d8662"}, {"bike_id": "ad6e310bb17d1fc9dd1480b4ca572b18", "type": "electric_scooter", "is_disabled": 0, "lat": 38.906527, "rental_uris": {"ios": "https://dc.lft.to/lastmile_qr_scan", "android": "https://dc.lft.to/lastmile_qr_scan"}, "is_reserved": 0, "fusion_lon": 0.0, "fusion_lat": 0.0, "lon": -77.04869566666666, "name": "ad6e310bb17d1fc9dd1480b4ca572b18"}, {"bike_id": "5278b2f4023e74337740eb8fb806ea21", "type": "electric_scooter", "is_disabled": 0, "lat": 38.905631666666665, "rental_uris": {"ios": "https://dc.lft.to/lastmile_qr_scan", "android": "https://dc.lft.to/lastmile_qr_scan"}, "is_reserved": 0, "fusion_lon": 0.0, "fusion_lat": 0.0, "lon": -77.00588583333334, "name": "5278b2f4023e74337740eb8fb806ea21"}, {"bike_id": "6722bad9a334815cc73a819ebef3b9b7", "type": "electric_scooter", "is_disabled": 0, "lat": 38.9233855, "rental_uris": {"ios": "https://dc.lft.to/lastmile_qr_scan", "android": "https://dc.lft.to/lastmile_qr_scan"}, "is_reserved": 0, "fusion_lon": 0.0, "fusion_lat": 0.0, "lon": -77.03520983333334, "name": "6722bad9a334815cc73a819ebef3b9b7"}, {"bike_id": "3bdaf835badf770f4633bd99638fcaaa", "type": "electric_scooter", "is_disabled": 0, "lat": 38.91326983333333, "rental_uris": {"ios": "https://dc.lft.to/lastmile_qr_scan", "android": "https://dc.lft.to/lastmile_qr_scan"}, "is_reserved": 0, "fusion_lon": 0.0, "fusion_lat": 0.0, "lon": -77.03179966666667, "name": "3bdaf835badf770f4633bd99638fcaaa"}, {"bike_id": "dd22f12abb59c4d353e36804e04dfb59", "type": "electric_scooter", "is_disabled": 0, "lat": 38.887209666666664, "rental_uris": {"ios": "https://dc.lft.to/lastmile_qr_scan", "android": "https://dc.lft.to/lastmile_qr_scan"}, "is_reserved": 0, "fusion_lon": 0.0, "fusion_lat": 0.0, "lon": -77.02172216666666, "name": "dd22f12abb59c4d353e36804e04dfb59"}, {"bike_id": "1bd5e4bbc0ceb5348967045ec40c3297", "type": "electric_scooter", "is_disabled": 0, "lat": 38.92539933333333, "rental_uris": {"ios": "https://dc.lft.to/lastmile_qr_scan", "android": "https://dc.lft.to/lastmile_qr_scan"}, "is_reserved": 0, "fusion_lon": 0.0, "fusion_lat": 0.0, "lon": -77.033831, "name": "1bd5e4bbc0ceb5348967045ec40c3297"}, {"bike_id": "4e4f74a36097b52d44700dba1c9c8564", "type": "electric_scooter", "is_disabled": 0, "lat": 38.9402025, "rental_uris": {"ios": "https://dc.lft.to/lastmile_qr_scan", "android": "https://dc.lft.to/lastmile_qr_scan"}, "is_reserved": 0, "fusion_lon": 0.0, "fusion_lat": 0.0, "lon": -76.97605783333333, "name": "4e4f74a36097b52d44700dba1c9c8564"}, {"bike_id": "749a1afa6b028152d5997624983b4a4d", "type": "electric_scooter", "is_disabled": 0, "lat": 38.8942765, "rental_uris": {"ios": "https://dc.lft.to/lastmile_qr_scan", "android": "https://dc.lft.to/lastmile_qr_scan"}, "is_reserved": 0, "fusion_lon": 0.0, "fusion_lat": 0.0, "lon": -77.010475, "name": "749a1afa6b028152d5997624983b4a4d"}, {"bike_id": "2ecfadc5914d952cf81be626f065f03e", "type": "electric_scooter", "is_disabled": 0, "lat": 38.911065666666666, "rental_uris": {"ios": "https://dc.lft.to/lastmile_qr_scan", "android": "https://dc.lft.to/lastmile_qr_scan"}, "is_reserved": 0, "fusion_lon": 0.0, "fusion_lat": 0.0, "lon": -77.041963, "name": "2ecfadc5914d952cf81be626f065f03e"}, {"bike_id": "6a514e41d8ea952172dd6072f4165eb8", "type": "electric_scooter", "is_disabled": 0, "lat": 38.93713183333333, "rental_uris": {"ios": "https://dc.lft.to/lastmile_qr_scan", "android": "https://dc.lft.to/lastmile_qr_scan"}, "is_reserved": 0, "fusion_lon": 0.0, "fusion_lat": 0.0, "lon": -77.03635833333334, "name": "6a514e41d8ea952172dd6072f4165eb8"}, {"bike_id": "aa0459d55ae9301ccbf9564ac20295e9", "type": "electric_scooter", "is_disabled": 0, "lat": 38.8947825, "rental_uris": {"ios": "https://dc.lft.to/lastmile_qr_scan", "android": "https://dc.lft.to/lastmile_qr_scan"}, "is_reserved": 0, "fusion_lon": 0.0, "fusion_lat": 0.0, "lon": -76.94861033333333, "name": "aa0459d55ae9301ccbf9564ac20295e9"}, {"bike_id": "ef559e609ab771c92fd9aa3480fa05e0", "type": "electric_bike", "is_disabled": 0, "lat": 38.978834, "rental_uris": {"ios": "https://dc.lft.to/lastmile_qr_scan", "android": "https://dc.lft.to/lastmile_qr_scan"}, "is_reserved": 0, "fusion_lon": 0.0, "fusion_lat": 0.0, "lon": -77.06029466666666, "name": "ef559e609ab771c92fd9aa3480fa05e0"}, {"bike_id": "c4126e590adaf3c8ea937be4ba796ffd", "type": "electric_scooter", "is_disabled": 0, "lat": 38.92039416666667, "rental_uris": {"ios": "https://dc.lft.to/lastmile_qr_scan", "android": "https://dc.lft.to/lastmile_qr_scan"}, "is_reserved": 0, "fusion_lon": 0.0, "fusion_lat": 0.0, "lon": -77.02573066666666, "name": "c4126e590adaf3c8ea937be4ba796ffd"}, {"bike_id": "99c7b30a79bbc1bd21987cde10a6ae94", "type": "electric_scooter", "is_disabled": 0, "lat": 38.877080666666664, "rental_uris": {"ios": "https://dc.lft.to/lastmile_qr_scan", "android": "https://dc.lft.to/lastmile_qr_scan"}, "is_reserved": 0, "fusion_lon": 0.0, "fusion_lat": 0.0, "lon": -77.00508566666667, "name": "99c7b30a79bbc1bd21987cde10a6ae94"}, {"bike_id": "5825ed26190c281075db66fa987908fa", "type": "electric_scooter", "is_disabled": 0, "lat": 38.897488333333335, "rental_uris": {"ios": "https://dc.lft.to/lastmile_qr_scan", "android": "https://dc.lft.to/lastmile_qr_scan"}, "is_reserved": 0, "fusion_lon": 0.0, "fusion_lat": 0.0, "lon": -77.0275555, "name": "5825ed26190c281075db66fa987908fa"}, {"bike_id": "4c87dd480ba32ca1f620163ace3af47e", "type": "electric_scooter", "is_disabled": 0, "lat": 38.931483166666666, "rental_uris": {"ios": "https://dc.lft.to/lastmile_qr_scan", "android": "https://dc.lft.to/lastmile_qr_scan"}, "is_reserved": 0, "fusion_lon": 0.0, "fusion_lat": 0.0, "lon": -77.03350633333334, "name": "4c87dd480ba32ca1f620163ace3af47e"}, {"bike_id": "d5139174aa3e9afe8013a2d549101a5f", "type": "electric_scooter", "is_disabled": 0, "lat": 38.930792, "rental_uris": {"ios": "https://dc.lft.to/lastmile_qr_scan", "android": "https://dc.lft.to/lastmile_qr_scan"}, "is_reserved": 0, "fusion_lon": 0.0, "fusion_lat": 0.0, "lon": -77.02796233333333, "name": "d5139174aa3e9afe8013a2d549101a5f"}, {"bike_id": "9d7aa763a137fc29895d2f6f87349c82", "type": "electric_scooter", "is_disabled": 0, "lat": 38.928235666666666, "rental_uris": {"ios": "https://dc.lft.to/lastmile_qr_scan", "android": "https://dc.lft.to/lastmile_qr_scan"}, "is_reserved": 0, "fusion_lon": 0.0, "fusion_lat": 0.0, "lon": -77.02254883333333, "name": "9d7aa763a137fc29895d2f6f87349c82"}, {"bike_id": "ec0196b9547c62d57b2a25df55dc3489", "type": "electric_scooter", "is_disabled": 0, "lat": 38.89219633333333, "rental_uris": {"ios": "https://dc.lft.to/lastmile_qr_scan", "android": "https://dc.lft.to/lastmile_qr_scan"}, "is_reserved": 0, "fusion_lon": 0.0, "fusion_lat": 0.0, "lon": -77.022618, "name": "ec0196b9547c62d57b2a25df55dc3489"}, {"bike_id": "24c43d1ed8b17fcfa1bd220a054a921f", "type": "electric_scooter", "is_disabled": 0, "lat": 38.86700916666667, "rental_uris": {"ios": "https://dc.lft.to/lastmile_qr_scan", "android": "https://dc.lft.to/lastmile_qr_scan"}, "is_reserved": 0, "fusion_lon": 0.0, "fusion_lat": 0.0, "lon": -76.98712983333333, "name": "24c43d1ed8b17fcfa1bd220a054a921f"}, {"bike_id": "40cd7dbf52ec5454b142a8e7a5047450", "type": "electric_bike", "is_disabled": 0, "lat": 38.978558666666665, "rental_uris": {"ios": "https://dc.lft.to/lastmile_qr_scan", "android": "https://dc.lft.to/lastmile_qr_scan"}, "is_reserved": 0, "fusion_lon": 0.0, "fusion_lat": 0.0, "lon": -76.94051133333333, "name": "40cd7dbf52ec5454b142a8e7a5047450"}, {"bike_id": "0c4fc1e78d48a0921bc7d11d04eea25d", "type": "electric_scooter", "is_disabled": 0, "lat": 38.90296766666667, "rental_uris": {"ios": "https://dc.lft.to/lastmile_qr_scan", "android": "https://dc.lft.to/lastmile_qr_scan"}, "is_reserved": 0, "fusion_lon": 0.0, "fusion_lat": 0.0, "lon": -77.03356166666667, "name": "0c4fc1e78d48a0921bc7d11d04eea25d"}, {"bike_id": "349d57f3643bd55399bfaea97861882e", "type": "electric_scooter", "is_disabled": 0, "lat": 38.898819333333336, "rental_uris": {"ios": "https://dc.lft.to/lastmile_qr_scan", "android": "https://dc.lft.to/lastmile_qr_scan"}, "is_reserved": 0, "fusion_lon": 0.0, "fusion_lat": 0.0, "lon": -76.93176133333333, "name": "349d57f3643bd55399bfaea97861882e"}, {"bike_id": "b66585b36c6c61f07cf49e4d8cf6ed0a", "type": "electric_scooter", "is_disabled": 0, "lat": 38.89561416666667, "rental_uris": {"ios": "https://dc.lft.to/lastmile_qr_scan", "android": "https://dc.lft.to/lastmile_qr_scan"}, "is_reserved": 0, "fusion_lon": 0.0, "fusion_lat": 0.0, "lon": -76.94946566666667, "name": "b66585b36c6c61f07cf49e4d8cf6ed0a"}, {"bike_id": "cc93b4560a48b037a63dcaf3bf91d248", "type": "electric_scooter", "is_disabled": 0, "lat": 38.91267366666667, "rental_uris": {"ios": "https://dc.lft.to/lastmile_qr_scan", "android": "https://dc.lft.to/lastmile_qr_scan"}, "is_reserved": 0, "fusion_lon": 0.0, "fusion_lat": 0.0, "lon": -77.04495216666666, "name": "cc93b4560a48b037a63dcaf3bf91d248"}, {"bike_id": "797434d903dbe461ec17cf8bf8d35608", "type": "electric_scooter", "is_disabled": 0, "lat": 38.910170666666666, "rental_uris": {"ios": "https://dc.lft.to/lastmile_qr_scan", "android": "https://dc.lft.to/lastmile_qr_scan"}, "is_reserved": 0, "fusion_lon": 0.0, "fusion_lat": 0.0, "lon": -77.031989, "name": "797434d903dbe461ec17cf8bf8d35608"}, {"bike_id": "6d8193a969d003b0f75d0277cb7097a8", "type": "electric_scooter", "is_disabled": 0, "lat": 38.86700783333333, "rental_uris": {"ios": "https://dc.lft.to/lastmile_qr_scan", "android": "https://dc.lft.to/lastmile_qr_scan"}, "is_reserved": 0, "fusion_lon": 0.0, "fusion_lat": 0.0, "lon": -76.98710966666667, "name": "6d8193a969d003b0f75d0277cb7097a8"}, {"bike_id": "bff0c257f0418962e6a5e805565e63d4", "type": "electric_scooter", "is_disabled": 0, "lat": 38.921466333333335, "rental_uris": {"ios": "https://dc.lft.to/lastmile_qr_scan", "android": "https://dc.lft.to/lastmile_qr_scan"}, "is_reserved": 0, "fusion_lon": 0.0, "fusion_lat": 0.0, "lon": -77.04361316666666, "name": "bff0c257f0418962e6a5e805565e63d4"}, {"bike_id": "f9d9a0a03758d7dbeee33cd76972bec9", "type": "electric_scooter", "is_disabled": 0, "lat": 38.87879066666667, "rental_uris": {"ios": "https://dc.lft.to/lastmile_qr_scan", "android": "https://dc.lft.to/lastmile_qr_scan"}, "is_reserved": 0, "fusion_lon": 0.0, "fusion_lat": 0.0, "lon": -77.01910316666667, "name": "f9d9a0a03758d7dbeee33cd76972bec9"}, {"bike_id": "374c71125f36b6035048a17ca8e1999b", "type": "electric_scooter", "is_disabled": 0, "lat": 38.91768, "rental_uris": {"ios": "https://dc.lft.to/lastmile_qr_scan", "android": "https://dc.lft.to/lastmile_qr_scan"}, "is_reserved": 0, "fusion_lon": 0.0, "fusion_lat": 0.0, "lon": -77.047709, "name": "374c71125f36b6035048a17ca8e1999b"}, {"bike_id": "ade39de12733953789aedd141fbc04c0", "type": "electric_scooter", "is_disabled": 0, "lat": 38.895096, "rental_uris": {"ios": "https://dc.lft.to/lastmile_qr_scan", "android": "https://dc.lft.to/lastmile_qr_scan"}, "is_reserved": 0, "fusion_lon": 0.0, "fusion_lat": 0.0, "lon": -77.04332133333334, "name": "ade39de12733953789aedd141fbc04c0"}, {"bike_id": "bd7ae3bb683000d12d93506b5ecb5a2d", "type": "electric_scooter", "is_disabled": 0, "lat": 38.9079385, "rental_uris": {"ios": "https://dc.lft.to/lastmile_qr_scan", "android": "https://dc.lft.to/lastmile_qr_scan"}, "is_reserved": 0, "fusion_lon": 0.0, "fusion_lat": 0.0, "lon": -77.02688083333334, "name": "bd7ae3bb683000d12d93506b5ecb5a2d"}, {"bike_id": "624ec67b55ede69d89802e5e8482f9f9", "type": "electric_scooter", "is_disabled": 0, "lat": 38.8853495, "rental_uris": {"ios": "https://dc.lft.to/lastmile_qr_scan", "android": "https://dc.lft.to/lastmile_qr_scan"}, "is_reserved": 0, "fusion_lon": 0.0, "fusion_lat": 0.0, "lon": -77.00580266666667, "name": "624ec67b55ede69d89802e5e8482f9f9"}, {"bike_id": "85e8fd143359ef92a77725182e54ef50", "type": "electric_scooter", "is_disabled": 0, "lat": 38.937109166666666, "rental_uris": {"ios": "https://dc.lft.to/lastmile_qr_scan", "android": "https://dc.lft.to/lastmile_qr_scan"}, "is_reserved": 0, "fusion_lon": 0.0, "fusion_lat": 0.0, "lon": -77.0363695, "name": "85e8fd143359ef92a77725182e54ef50"}, {"bike_id": "2fa5ddde632376f8a59e69f161a12e97", "type": "electric_scooter", "is_disabled": 0, "lat": 38.89995616666667, "rental_uris": {"ios": "https://dc.lft.to/lastmile_qr_scan", "android": "https://dc.lft.to/lastmile_qr_scan"}, "is_reserved": 0, "fusion_lon": 0.0, "fusion_lat": 0.0, "lon": -77.03978333333333, "name": "2fa5ddde632376f8a59e69f161a12e97"}, {"bike_id": "209fab53b36cecde459125a100ad3de3", "type": "electric_scooter", "is_disabled": 0, "lat": 38.9035215, "rental_uris": {"ios": "https://dc.lft.to/lastmile_qr_scan", "android": "https://dc.lft.to/lastmile_qr_scan"}, "is_reserved": 0, "fusion_lon": 0.0, "fusion_lat": 0.0, "lon": -76.9922385, "name": "209fab53b36cecde459125a100ad3de3"}, {"bike_id": "76dbb3828c7c2dad1a4ef89e071da941", "type": "electric_bike", "is_disabled": 0, "lat": 39.05110233333333, "rental_uris": {"ios": "https://dc.lft.to/lastmile_qr_scan", "android": "https://dc.lft.to/lastmile_qr_scan"}, "is_reserved": 0, "fusion_lon": 0.0, "fusion_lat": 0.0, "lon": -77.11744683333333, "name": "76dbb3828c7c2dad1a4ef89e071da941"}, {"bike_id": "1a7742ac019cff0cce2a359bea96b455", "type": "electric_scooter", "is_disabled": 0, "lat": 38.88711333333333, "rental_uris": {"ios": "https://dc.lft.to/lastmile_qr_scan", "android": "https://dc.lft.to/lastmile_qr_scan"}, "is_reserved": 0, "fusion_lon": 0.0, "fusion_lat": 0.0, "lon": -77.02177916666666, "name": "1a7742ac019cff0cce2a359bea96b455"}, {"bike_id": "a885d05df25420fd3683cc852119dc6c", "type": "electric_scooter", "is_disabled": 0, "lat": 38.9563885, "rental_uris": {"ios": "https://dc.lft.to/lastmile_qr_scan", "android": "https://dc.lft.to/lastmile_qr_scan"}, "is_reserved": 0, "fusion_lon": 0.0, "fusion_lat": 0.0, "lon": -77.03633116666667, "name": "a885d05df25420fd3683cc852119dc6c"}, {"bike_id": "bbe89df85d743d0cf9878da681e795b3", "type": "electric_scooter", "is_disabled": 0, "lat": 38.922376666666665, "rental_uris": {"ios": "https://dc.lft.to/lastmile_qr_scan", "android": "https://dc.lft.to/lastmile_qr_scan"}, "is_reserved": 0, "fusion_lon": 0.0, "fusion_lat": 0.0, "lon": -77.047136, "name": "bbe89df85d743d0cf9878da681e795b3"}, {"bike_id": "12d4ef6d31c43c648bd4b185f03b70d6", "type": "electric_scooter", "is_disabled": 0, "lat": 38.8841015, "rental_uris": {"ios": "https://dc.lft.to/lastmile_qr_scan", "android": "https://dc.lft.to/lastmile_qr_scan"}, "is_reserved": 0, "fusion_lon": 0.0, "fusion_lat": 0.0, "lon": -76.94826466666666, "name": "12d4ef6d31c43c648bd4b185f03b70d6"}, {"bike_id": "4bbb72a31009cccbf74f8f4a6b40a377", "type": "electric_scooter", "is_disabled": 0, "lat": 38.897592, "rental_uris": {"ios": "https://dc.lft.to/lastmile_qr_scan", "android": "https://dc.lft.to/lastmile_qr_scan"}, "is_reserved": 0, "fusion_lon": 0.0, "fusion_lat": 0.0, "lon": -77.04390683333334, "name": "4bbb72a31009cccbf74f8f4a6b40a377"}, {"bike_id": "3224f0b3cf7ed7c224802a088843b199", "type": "electric_scooter", "is_disabled": 0, "lat": 38.896267, "rental_uris": {"ios": "https://dc.lft.to/lastmile_qr_scan", "android": "https://dc.lft.to/lastmile_qr_scan"}, "is_reserved": 0, "fusion_lon": 0.0, "fusion_lat": 0.0, "lon": -77.02633116666667, "name": "3224f0b3cf7ed7c224802a088843b199"}, {"bike_id": "4d80d1ce9f3594fd4f63856bb39f0381", "type": "electric_scooter", "is_disabled": 0, "lat": 38.90003633333333, "rental_uris": {"ios": "https://dc.lft.to/lastmile_qr_scan", "android": "https://dc.lft.to/lastmile_qr_scan"}, "is_reserved": 0, "fusion_lon": 0.0, "fusion_lat": 0.0, "lon": -77.0398515, "name": "4d80d1ce9f3594fd4f63856bb39f0381"}, {"bike_id": "b8e6663e303952842418cae8cdd86e59", "type": "electric_scooter", "is_disabled": 0, "lat": 38.915511333333335, "rental_uris": {"ios": "https://dc.lft.to/lastmile_qr_scan", "android": "https://dc.lft.to/lastmile_qr_scan"}, "is_reserved": 0, "fusion_lon": 0.0, "fusion_lat": 0.0, "lon": -77.04448683333334, "name": "b8e6663e303952842418cae8cdd86e59"}, {"bike_id": "cd90ec07462ee02d820b9d6dc6e17715", "type": "electric_scooter", "is_disabled": 0, "lat": 38.90080583333334, "rental_uris": {"ios": "https://dc.lft.to/lastmile_qr_scan", "android": "https://dc.lft.to/lastmile_qr_scan"}, "is_reserved": 0, "fusion_lon": 0.0, "fusion_lat": 0.0, "lon": -77.04827566666667, "name": "cd90ec07462ee02d820b9d6dc6e17715"}, {"bike_id": "69b76e52b315885df9ef8ee6a977510b", "type": "electric_scooter", "is_disabled": 0, "lat": 38.933993, "rental_uris": {"ios": "https://dc.lft.to/lastmile_qr_scan", "android": "https://dc.lft.to/lastmile_qr_scan"}, "is_reserved": 0, "fusion_lon": 0.0, "fusion_lat": 0.0, "lon": -77.0574275, "name": "69b76e52b315885df9ef8ee6a977510b"}, {"bike_id": "326156f90ebce9b0c2f0f86cefb3560f", "type": "electric_scooter", "is_disabled": 0, "lat": 38.90646016666667, "rental_uris": {"ios": "https://dc.lft.to/lastmile_qr_scan", "android": "https://dc.lft.to/lastmile_qr_scan"}, "is_reserved": 0, "fusion_lon": 0.0, "fusion_lat": 0.0, "lon": -77.02801483333333, "name": "326156f90ebce9b0c2f0f86cefb3560f"}, {"bike_id": "c2d26c709217527afb28dc2b4887ffd6", "type": "electric_scooter", "is_disabled": 0, "lat": 38.924073666666665, "rental_uris": {"ios": "https://dc.lft.to/lastmile_qr_scan", "android": "https://dc.lft.to/lastmile_qr_scan"}, "is_reserved": 0, "fusion_lon": 0.0, "fusion_lat": 0.0, "lon": -77.02966033333334, "name": "c2d26c709217527afb28dc2b4887ffd6"}, {"bike_id": "ab78984f951dcce44478f25e39318043", "type": "electric_bike", "is_disabled": 0, "lat": 38.9062345, "rental_uris": {"ios": "https://dc.lft.to/lastmile_qr_scan", "android": "https://dc.lft.to/lastmile_qr_scan"}, "is_reserved": 0, "fusion_lon": 0.0, "fusion_lat": 0.0, "lon": -76.98605, "name": "ab78984f951dcce44478f25e39318043"}, {"bike_id": "1be332aed5aea5a90f0c45bc3fb3b11a", "type": "electric_scooter", "is_disabled": 0, "lat": 38.911120333333336, "rental_uris": {"ios": "https://dc.lft.to/lastmile_qr_scan", "android": "https://dc.lft.to/lastmile_qr_scan"}, "is_reserved": 0, "fusion_lon": 0.0, "fusion_lat": 0.0, "lon": -77.04986466666666, "name": "1be332aed5aea5a90f0c45bc3fb3b11a"}, {"bike_id": "4f269bb09e6ec71fe78aa07640b51a3f", "type": "electric_bike", "is_disabled": 0, "lat": 38.82367833333333, "rental_uris": {"ios": "https://dc.lft.to/lastmile_qr_scan", "android": "https://dc.lft.to/lastmile_qr_scan"}, "is_reserved": 0, "fusion_lon": 0.0, "fusion_lat": 0.0, "lon": -77.002187, "name": "4f269bb09e6ec71fe78aa07640b51a3f"}, {"bike_id": "c237c7de58157c713376d65af05d5d18", "type": "electric_scooter", "is_disabled": 0, "lat": 38.92371083333333, "rental_uris": {"ios": "https://dc.lft.to/lastmile_qr_scan", "android": "https://dc.lft.to/lastmile_qr_scan"}, "is_reserved": 0, "fusion_lon": 0.0, "fusion_lat": 0.0, "lon": -77.05029883333333, "name": "c237c7de58157c713376d65af05d5d18"}, {"bike_id": "8abbc734bc9e96ace412dc3cad499f03", "type": "electric_scooter", "is_disabled": 0, "lat": 38.92358516666667, "rental_uris": {"ios": "https://dc.lft.to/lastmile_qr_scan", "android": "https://dc.lft.to/lastmile_qr_scan"}, "is_reserved": 0, "fusion_lon": 0.0, "fusion_lat": 0.0, "lon": -77.050553, "name": "8abbc734bc9e96ace412dc3cad499f03"}, {"bike_id": "6998d7c290ca6c02891c8cc7754c051f", "type": "electric_scooter", "is_disabled": 0, "lat": 38.91572166666667, "rental_uris": {"ios": "https://dc.lft.to/lastmile_qr_scan", "android": "https://dc.lft.to/lastmile_qr_scan"}, "is_reserved": 0, "fusion_lon": 0.0, "fusion_lat": 0.0, "lon": -77.01956933333334, "name": "6998d7c290ca6c02891c8cc7754c051f"}, {"bike_id": "357f60d473653d79e21e7be5e5fde20b", "type": "electric_scooter", "is_disabled": 0, "lat": 38.909618, "rental_uris": {"ios": "https://dc.lft.to/lastmile_qr_scan", "android": "https://dc.lft.to/lastmile_qr_scan"}, "is_reserved": 0, "fusion_lon": 0.0, "fusion_lat": 0.0, "lon": -77.02275583333333, "name": "357f60d473653d79e21e7be5e5fde20b"}, {"bike_id": "b204eb80466f41d23c918dd32f4bf766", "type": "electric_scooter", "is_disabled": 0, "lat": 38.8768535, "rental_uris": {"ios": "https://dc.lft.to/lastmile_qr_scan", "android": "https://dc.lft.to/lastmile_qr_scan"}, "is_reserved": 0, "fusion_lon": 0.0, "fusion_lat": 0.0, "lon": -77.01756583333334, "name": "b204eb80466f41d23c918dd32f4bf766"}, {"bike_id": "536cf286f147202e0b59248c163581a7", "type": "electric_bike", "is_disabled": 0, "lat": 38.93608166666667, "rental_uris": {"ios": "https://dc.lft.to/lastmile_qr_scan", "android": "https://dc.lft.to/lastmile_qr_scan"}, "is_reserved": 0, "fusion_lon": 0.0, "fusion_lat": 0.0, "lon": -77.05856416666667, "name": "536cf286f147202e0b59248c163581a7"}, {"bike_id": "57d2e7bb1626c4f24ffc324b232f7cc4", "type": "electric_scooter", "is_disabled": 0, "lat": 38.9155625, "rental_uris": {"ios": "https://dc.lft.to/lastmile_qr_scan", "android": "https://dc.lft.to/lastmile_qr_scan"}, "is_reserved": 0, "fusion_lon": 0.0, "fusion_lat": 0.0, "lon": -77.02409483333334, "name": "57d2e7bb1626c4f24ffc324b232f7cc4"}, {"bike_id": "a8b5889b06e61200704aad66194bb278", "type": "electric_scooter", "is_disabled": 0, "lat": 38.91318116666667, "rental_uris": {"ios": "https://dc.lft.to/lastmile_qr_scan", "android": "https://dc.lft.to/lastmile_qr_scan"}, "is_reserved": 0, "fusion_lon": 0.0, "fusion_lat": 0.0, "lon": -77.03851466666667, "name": "a8b5889b06e61200704aad66194bb278"}, {"bike_id": "9fe5599b7246fdcf3e8fa667ad4b194e", "type": "electric_scooter", "is_disabled": 0, "lat": 38.87526883333334, "rental_uris": {"ios": "https://dc.lft.to/lastmile_qr_scan", "android": "https://dc.lft.to/lastmile_qr_scan"}, "is_reserved": 0, "fusion_lon": 0.0, "fusion_lat": 0.0, "lon": -77.00052983333333, "name": "9fe5599b7246fdcf3e8fa667ad4b194e"}, {"bike_id": "8d4d62a37e5801502cff474d3c8e0a8d", "type": "electric_bike", "is_disabled": 0, "lat": 38.859384166666665, "rental_uris": {"ios": "https://dc.lft.to/lastmile_qr_scan", "android": "https://dc.lft.to/lastmile_qr_scan"}, "is_reserved": 0, "fusion_lon": 0.0, "fusion_lat": 0.0, "lon": -77.1183165, "name": "8d4d62a37e5801502cff474d3c8e0a8d"}, {"bike_id": "23e11973c33123ad0fbe19003e4c96f3", "type": "electric_scooter", "is_disabled": 0, "lat": 38.89980883333333, "rental_uris": {"ios": "https://dc.lft.to/lastmile_qr_scan", "android": "https://dc.lft.to/lastmile_qr_scan"}, "is_reserved": 0, "fusion_lon": 0.0, "fusion_lat": 0.0, "lon": -77.04159433333334, "name": "23e11973c33123ad0fbe19003e4c96f3"}, {"bike_id": "0ad7523a5b0c3ead846d15b5d133cd12", "type": "electric_scooter", "is_disabled": 0, "lat": 38.904043333333334, "rental_uris": {"ios": "https://dc.lft.to/lastmile_qr_scan", "android": "https://dc.lft.to/lastmile_qr_scan"}, "is_reserved": 0, "fusion_lon": 0.0, "fusion_lat": 0.0, "lon": -76.97330366666667, "name": "0ad7523a5b0c3ead846d15b5d133cd12"}, {"bike_id": "c8a4c6f748d91df920b2d2f96bd064af", "type": "electric_scooter", "is_disabled": 0, "lat": 38.911707166666666, "rental_uris": {"ios": "https://dc.lft.to/lastmile_qr_scan", "android": "https://dc.lft.to/lastmile_qr_scan"}, "is_reserved": 0, "fusion_lon": 0.0, "fusion_lat": 0.0, "lon": -77.004698, "name": "c8a4c6f748d91df920b2d2f96bd064af"}, {"bike_id": "1259f84bd2529b079d8a7362203975e2", "type": "electric_scooter", "is_disabled": 0, "lat": 38.91704883333333, "rental_uris": {"ios": "https://dc.lft.to/lastmile_qr_scan", "android": "https://dc.lft.to/lastmile_qr_scan"}, "is_reserved": 0, "fusion_lon": 0.0, "fusion_lat": 0.0, "lon": -77.09578433333333, "name": "1259f84bd2529b079d8a7362203975e2"}, {"bike_id": "028b7aa1769dc2e33070fdbddd5b53cc", "type": "electric_scooter", "is_disabled": 0, "lat": 38.88376483333333, "rental_uris": {"ios": "https://dc.lft.to/lastmile_qr_scan", "android": "https://dc.lft.to/lastmile_qr_scan"}, "is_reserved": 0, "fusion_lon": 0.0, "fusion_lat": 0.0, "lon": -77.01805616666667, "name": "028b7aa1769dc2e33070fdbddd5b53cc"}, {"bike_id": "bb9af3af8c7d930de4e99b4e5ff6c063", "type": "electric_scooter", "is_disabled": 0, "lat": 38.927704166666665, "rental_uris": {"ios": "https://dc.lft.to/lastmile_qr_scan", "android": "https://dc.lft.to/lastmile_qr_scan"}, "is_reserved": 0, "fusion_lon": 0.0, "fusion_lat": 0.0, "lon": -76.98756383333334, "name": "bb9af3af8c7d930de4e99b4e5ff6c063"}, {"bike_id": "fbc781f3fdf9753da5df1be1fa98c668", "type": "electric_scooter", "is_disabled": 0, "lat": 38.90424383333333, "rental_uris": {"ios": "https://dc.lft.to/lastmile_qr_scan", "android": "https://dc.lft.to/lastmile_qr_scan"}, "is_reserved": 0, "fusion_lon": 0.0, "fusion_lat": 0.0, "lon": -77.05016, "name": "fbc781f3fdf9753da5df1be1fa98c668"}, {"bike_id": "f00053828df3ed8d264c647fe93bf3b7", "type": "electric_scooter", "is_disabled": 0, "lat": 38.943503666666665, "rental_uris": {"ios": "https://dc.lft.to/lastmile_qr_scan", "android": "https://dc.lft.to/lastmile_qr_scan"}, "is_reserved": 0, "fusion_lon": 0.0, "fusion_lat": 0.0, "lon": -77.03767933333333, "name": "f00053828df3ed8d264c647fe93bf3b7"}, {"bike_id": "532365d59a4185d3f0dde174288fb8ee", "type": "electric_scooter", "is_disabled": 0, "lat": 38.866830666666665, "rental_uris": {"ios": "https://dc.lft.to/lastmile_qr_scan", "android": "https://dc.lft.to/lastmile_qr_scan"}, "is_reserved": 0, "fusion_lon": 0.0, "fusion_lat": 0.0, "lon": -76.98576266666667, "name": "532365d59a4185d3f0dde174288fb8ee"}, {"bike_id": "5cccf02d752e397ff56447a3d109b088", "type": "electric_scooter", "is_disabled": 0, "lat": 38.902448, "rental_uris": {"ios": "https://dc.lft.to/lastmile_qr_scan", "android": "https://dc.lft.to/lastmile_qr_scan"}, "is_reserved": 0, "fusion_lon": 0.0, "fusion_lat": 0.0, "lon": -77.05900466666667, "name": "5cccf02d752e397ff56447a3d109b088"}, {"bike_id": "c2c9392d832a5e67153e7e95f1bf3a90", "type": "electric_scooter", "is_disabled": 0, "lat": 38.9076925, "rental_uris": {"ios": "https://dc.lft.to/lastmile_qr_scan", "android": "https://dc.lft.to/lastmile_qr_scan"}, "is_reserved": 0, "fusion_lon": 0.0, "fusion_lat": 0.0, "lon": -77.07389433333333, "name": "c2c9392d832a5e67153e7e95f1bf3a90"}, {"bike_id": "c321e73c2101071709e1dd5604228ad9", "type": "electric_scooter", "is_disabled": 0, "lat": 38.903014, "rental_uris": {"ios": "https://dc.lft.to/lastmile_qr_scan", "android": "https://dc.lft.to/lastmile_qr_scan"}, "is_reserved": 0, "fusion_lon": 0.0, "fusion_lat": 0.0, "lon": -77.008894, "name": "c321e73c2101071709e1dd5604228ad9"}, {"bike_id": "ea0a6131aac85c6d9cf7969400902f88", "type": "electric_scooter", "is_disabled": 0, "lat": 38.923198, "rental_uris": {"ios": "https://dc.lft.to/lastmile_qr_scan", "android": "https://dc.lft.to/lastmile_qr_scan"}, "is_reserved": 0, "fusion_lon": 0.0, "fusion_lat": 0.0, "lon": -77.02151633333334, "name": "ea0a6131aac85c6d9cf7969400902f88"}, {"bike_id": "79aadef85cccf98bb93ce4b92a70383f", "type": "electric_scooter", "is_disabled": 0, "lat": 38.91550016666667, "rental_uris": {"ios": "https://dc.lft.to/lastmile_qr_scan", "android": "https://dc.lft.to/lastmile_qr_scan"}, "is_reserved": 0, "fusion_lon": 0.0, "fusion_lat": 0.0, "lon": -77.04450816666666, "name": "79aadef85cccf98bb93ce4b92a70383f"}, {"bike_id": "4abbb99139e59242a4c495123854bda9", "type": "electric_scooter", "is_disabled": 0, "lat": 38.898315, "rental_uris": {"ios": "https://dc.lft.to/lastmile_qr_scan", "android": "https://dc.lft.to/lastmile_qr_scan"}, "is_reserved": 0, "fusion_lon": 0.0, "fusion_lat": 0.0, "lon": -76.919536, "name": "4abbb99139e59242a4c495123854bda9"}, {"bike_id": "31497be037abe9b8d8e3d0bc3a24fb6f", "type": "electric_scooter", "is_disabled": 0, "lat": 38.957309, "rental_uris": {"ios": "https://dc.lft.to/lastmile_qr_scan", "android": "https://dc.lft.to/lastmile_qr_scan"}, "is_reserved": 0, "fusion_lon": 0.0, "fusion_lat": 0.0, "lon": -77.02405983333334, "name": "31497be037abe9b8d8e3d0bc3a24fb6f"}, {"bike_id": "148da5f886518cd40d6f93c7ac821de9", "type": "electric_scooter", "is_disabled": 0, "lat": 38.9296905, "rental_uris": {"ios": "https://dc.lft.to/lastmile_qr_scan", "android": "https://dc.lft.to/lastmile_qr_scan"}, "is_reserved": 0, "fusion_lon": 0.0, "fusion_lat": 0.0, "lon": -77.02791766666667, "name": "148da5f886518cd40d6f93c7ac821de9"}, {"bike_id": "de35f946614b94e06f4e808851bbaaf5", "type": "electric_scooter", "is_disabled": 0, "lat": 38.92412616666667, "rental_uris": {"ios": "https://dc.lft.to/lastmile_qr_scan", "android": "https://dc.lft.to/lastmile_qr_scan"}, "is_reserved": 0, "fusion_lon": 0.0, "fusion_lat": 0.0, "lon": -77.04464766666666, "name": "de35f946614b94e06f4e808851bbaaf5"}, {"bike_id": "313c1b3d423618b2b774d9f42a00511b", "type": "electric_scooter", "is_disabled": 0, "lat": 38.91677033333333, "rental_uris": {"ios": "https://dc.lft.to/lastmile_qr_scan", "android": "https://dc.lft.to/lastmile_qr_scan"}, "is_reserved": 0, "fusion_lon": 0.0, "fusion_lat": 0.0, "lon": -77.02302416666667, "name": "313c1b3d423618b2b774d9f42a00511b"}, {"bike_id": "77efac3bfe83bb5e6026383eef2d71c2", "type": "electric_scooter", "is_disabled": 0, "lat": 38.865049, "rental_uris": {"ios": "https://dc.lft.to/lastmile_qr_scan", "android": "https://dc.lft.to/lastmile_qr_scan"}, "is_reserved": 0, "fusion_lon": 0.0, "fusion_lat": 0.0, "lon": -76.99003033333334, "name": "77efac3bfe83bb5e6026383eef2d71c2"}, {"bike_id": "987f9325ecf14357f2cc4ac7147813ef", "type": "electric_scooter", "is_disabled": 0, "lat": 38.932549333333334, "rental_uris": {"ios": "https://dc.lft.to/lastmile_qr_scan", "android": "https://dc.lft.to/lastmile_qr_scan"}, "is_reserved": 0, "fusion_lon": 0.0, "fusion_lat": 0.0, "lon": -77.03282216666666, "name": "987f9325ecf14357f2cc4ac7147813ef"}, {"bike_id": "efd780f3804a3319e03b4f00029e7e20", "type": "electric_scooter", "is_disabled": 0, "lat": 38.90561433333333, "rental_uris": {"ios": "https://dc.lft.to/lastmile_qr_scan", "android": "https://dc.lft.to/lastmile_qr_scan"}, "is_reserved": 0, "fusion_lon": 0.0, "fusion_lat": 0.0, "lon": -77.02209166666667, "name": "efd780f3804a3319e03b4f00029e7e20"}, {"bike_id": "b1ea2c7a9a54a74eacaa99242b8da857", "type": "electric_scooter", "is_disabled": 0, "lat": 38.871152, "rental_uris": {"ios": "https://dc.lft.to/lastmile_qr_scan", "android": "https://dc.lft.to/lastmile_qr_scan"}, "is_reserved": 0, "fusion_lon": 0.0, "fusion_lat": 0.0, "lon": -76.98246916666666, "name": "b1ea2c7a9a54a74eacaa99242b8da857"}, {"bike_id": "61eb98717c637c842e81523a6d73e815", "type": "electric_scooter", "is_disabled": 0, "lat": 38.90074766666667, "rental_uris": {"ios": "https://dc.lft.to/lastmile_qr_scan", "android": "https://dc.lft.to/lastmile_qr_scan"}, "is_reserved": 0, "fusion_lon": 0.0, "fusion_lat": 0.0, "lon": -76.99011, "name": "61eb98717c637c842e81523a6d73e815"}, {"bike_id": "24ab4acd39d651748ef6323ad85e046d", "type": "electric_scooter", "is_disabled": 0, "lat": 38.9027235, "rental_uris": {"ios": "https://dc.lft.to/lastmile_qr_scan", "android": "https://dc.lft.to/lastmile_qr_scan"}, "is_reserved": 0, "fusion_lon": 0.0, "fusion_lat": 0.0, "lon": -77.03624466666666, "name": "24ab4acd39d651748ef6323ad85e046d"}, {"bike_id": "a7f04e67c24ad38871b3cb6fe1de1b56", "type": "electric_scooter", "is_disabled": 0, "lat": 38.857147, "rental_uris": {"ios": "https://dc.lft.to/lastmile_qr_scan", "android": "https://dc.lft.to/lastmile_qr_scan"}, "is_reserved": 0, "fusion_lon": 0.0, "fusion_lat": 0.0, "lon": -76.98984916666667, "name": "a7f04e67c24ad38871b3cb6fe1de1b56"}, {"bike_id": "068320d6cb9978e4561cbdc4bb9b71f7", "type": "electric_bike", "is_disabled": 0, "lat": 39.05793, "rental_uris": {"ios": "https://dc.lft.to/lastmile_qr_scan", "android": "https://dc.lft.to/lastmile_qr_scan"}, "is_reserved": 0, "fusion_lon": 0.0, "fusion_lat": 0.0, "lon": -77.15021066666667, "name": "068320d6cb9978e4561cbdc4bb9b71f7"}, {"bike_id": "b2ffec9528855e0fd69820d98e9ca2bf", "type": "electric_bike", "is_disabled": 0, "lat": 38.819878833333334, "rental_uris": {"ios": "https://dc.lft.to/lastmile_qr_scan", "android": "https://dc.lft.to/lastmile_qr_scan"}, "is_reserved": 0, "fusion_lon": 0.0, "fusion_lat": 0.0, "lon": -76.99812283333333, "name": "b2ffec9528855e0fd69820d98e9ca2bf"}, {"bike_id": "319f5d37182ab0515dfa13110c3b2942", "type": "electric_scooter", "is_disabled": 0, "lat": 38.90593716666667, "rental_uris": {"ios": "https://dc.lft.to/lastmile_qr_scan", "android": "https://dc.lft.to/lastmile_qr_scan"}, "is_reserved": 0, "fusion_lon": 0.0, "fusion_lat": 0.0, "lon": -77.05711366666667, "name": "319f5d37182ab0515dfa13110c3b2942"}, {"bike_id": "5cef5528c96976fb79c2ab6fb3b83d02", "type": "electric_scooter", "is_disabled": 0, "lat": 38.91099966666667, "rental_uris": {"ios": "https://dc.lft.to/lastmile_qr_scan", "android": "https://dc.lft.to/lastmile_qr_scan"}, "is_reserved": 0, "fusion_lon": 0.0, "fusion_lat": 0.0, "lon": -77.04470516666666, "name": "5cef5528c96976fb79c2ab6fb3b83d02"}, {"bike_id": "7bf0d20f6b0f923573a503d92560a4c0", "type": "electric_scooter", "is_disabled": 0, "lat": 38.90192616666667, "rental_uris": {"ios": "https://dc.lft.to/lastmile_qr_scan", "android": "https://dc.lft.to/lastmile_qr_scan"}, "is_reserved": 0, "fusion_lon": 0.0, "fusion_lat": 0.0, "lon": -77.05040433333333, "name": "7bf0d20f6b0f923573a503d92560a4c0"}, {"bike_id": "0fb9ca99ce2f1f45e1573fcbdabda5be", "type": "electric_scooter", "is_disabled": 0, "lat": 38.90519883333333, "rental_uris": {"ios": "https://dc.lft.to/lastmile_qr_scan", "android": "https://dc.lft.to/lastmile_qr_scan"}, "is_reserved": 0, "fusion_lon": 0.0, "fusion_lat": 0.0, "lon": -77.05005633333333, "name": "0fb9ca99ce2f1f45e1573fcbdabda5be"}, {"bike_id": "b1c6a96f638989c386f1634df6cb0bf2", "type": "electric_scooter", "is_disabled": 0, "lat": 38.93879666666667, "rental_uris": {"ios": "https://dc.lft.to/lastmile_qr_scan", "android": "https://dc.lft.to/lastmile_qr_scan"}, "is_reserved": 0, "fusion_lon": 0.0, "fusion_lat": 0.0, "lon": -77.024644, "name": "b1c6a96f638989c386f1634df6cb0bf2"}, {"bike_id": "29949213c2b9d82af65a972aab9ee90c", "type": "electric_scooter", "is_disabled": 0, "lat": 38.89734633333333, "rental_uris": {"ios": "https://dc.lft.to/lastmile_qr_scan", "android": "https://dc.lft.to/lastmile_qr_scan"}, "is_reserved": 0, "fusion_lon": 0.0, "fusion_lat": 0.0, "lon": -77.05475116666666, "name": "29949213c2b9d82af65a972aab9ee90c"}, {"bike_id": "73002e7f8a385d384c930c2a16b5f847", "type": "electric_scooter", "is_disabled": 0, "lat": 38.91604483333333, "rental_uris": {"ios": "https://dc.lft.to/lastmile_qr_scan", "android": "https://dc.lft.to/lastmile_qr_scan"}, "is_reserved": 0, "fusion_lon": 0.0, "fusion_lat": 0.0, "lon": -77.02391283333333, "name": "73002e7f8a385d384c930c2a16b5f847"}, {"bike_id": "c0d083622c8a2da102b48dae729cc621", "type": "electric_scooter", "is_disabled": 0, "lat": 38.91507716666667, "rental_uris": {"ios": "https://dc.lft.to/lastmile_qr_scan", "android": "https://dc.lft.to/lastmile_qr_scan"}, "is_reserved": 0, "fusion_lon": 0.0, "fusion_lat": 0.0, "lon": -77.01774966666666, "name": "c0d083622c8a2da102b48dae729cc621"}, {"bike_id": "e77258980eb232d843418b92d1ad3ae2", "type": "electric_scooter", "is_disabled": 0, "lat": 38.93734716666667, "rental_uris": {"ios": "https://dc.lft.to/lastmile_qr_scan", "android": "https://dc.lft.to/lastmile_qr_scan"}, "is_reserved": 0, "fusion_lon": 0.0, "fusion_lat": 0.0, "lon": -77.03266333333333, "name": "e77258980eb232d843418b92d1ad3ae2"}, {"bike_id": "c61db4a2b05e51d50cbe398cf08ee7f0", "type": "electric_scooter", "is_disabled": 0, "lat": 38.8989825, "rental_uris": {"ios": "https://dc.lft.to/lastmile_qr_scan", "android": "https://dc.lft.to/lastmile_qr_scan"}, "is_reserved": 0, "fusion_lon": 0.0, "fusion_lat": 0.0, "lon": -77.0394185, "name": "c61db4a2b05e51d50cbe398cf08ee7f0"}, {"bike_id": "5124675db52ede9cdd2c17139cd08765", "type": "electric_scooter", "is_disabled": 0, "lat": 38.912559, "rental_uris": {"ios": "https://dc.lft.to/lastmile_qr_scan", "android": "https://dc.lft.to/lastmile_qr_scan"}, "is_reserved": 0, "fusion_lon": 0.0, "fusion_lat": 0.0, "lon": -77.01226733333333, "name": "5124675db52ede9cdd2c17139cd08765"}, {"bike_id": "ab0fde2aa1217a6abc29b40dfc59b685", "type": "electric_scooter", "is_disabled": 0, "lat": 38.956537833333336, "rental_uris": {"ios": "https://dc.lft.to/lastmile_qr_scan", "android": "https://dc.lft.to/lastmile_qr_scan"}, "is_reserved": 0, "fusion_lon": 0.0, "fusion_lat": 0.0, "lon": -77.00999516666667, "name": "ab0fde2aa1217a6abc29b40dfc59b685"}, {"bike_id": "444cca746035ed9b86c4aee058f1e693", "type": "electric_bike", "is_disabled": 0, "lat": 38.798553166666665, "rental_uris": {"ios": "https://dc.lft.to/lastmile_qr_scan", "android": "https://dc.lft.to/lastmile_qr_scan"}, "is_reserved": 0, "fusion_lon": 0.0, "fusion_lat": 0.0, "lon": -77.06310716666667, "name": "444cca746035ed9b86c4aee058f1e693"}, {"bike_id": "48952f3ca7eeda4fbb7e9eb3fdad42da", "type": "electric_scooter", "is_disabled": 0, "lat": 38.910832666666664, "rental_uris": {"ios": "https://dc.lft.to/lastmile_qr_scan", "android": "https://dc.lft.to/lastmile_qr_scan"}, "is_reserved": 0, "fusion_lon": 0.0, "fusion_lat": 0.0, "lon": -77.01681283333333, "name": "48952f3ca7eeda4fbb7e9eb3fdad42da"}, {"bike_id": "d4d5ad3bba2b60523f61a9155fb45221", "type": "electric_scooter", "is_disabled": 0, "lat": 38.92449966666667, "rental_uris": {"ios": "https://dc.lft.to/lastmile_qr_scan", "android": "https://dc.lft.to/lastmile_qr_scan"}, "is_reserved": 0, "fusion_lon": 0.0, "fusion_lat": 0.0, "lon": -77.043987, "name": "d4d5ad3bba2b60523f61a9155fb45221"}, {"bike_id": "56023ff90bd3a67aca70028ad9efac73", "type": "electric_scooter", "is_disabled": 0, "lat": 38.956398, "rental_uris": {"ios": "https://dc.lft.to/lastmile_qr_scan", "android": "https://dc.lft.to/lastmile_qr_scan"}, "is_reserved": 0, "fusion_lon": 0.0, "fusion_lat": 0.0, "lon": -77.01150683333333, "name": "56023ff90bd3a67aca70028ad9efac73"}, {"bike_id": "ce87b5e6a02f84c9541b97c98ca8510d", "type": "electric_scooter", "is_disabled": 0, "lat": 38.90172183333333, "rental_uris": {"ios": "https://dc.lft.to/lastmile_qr_scan", "android": "https://dc.lft.to/lastmile_qr_scan"}, "is_reserved": 0, "fusion_lon": 0.0, "fusion_lat": 0.0, "lon": -76.93029716666666, "name": "ce87b5e6a02f84c9541b97c98ca8510d"}, {"bike_id": "373ead8dea275061df8b65378fd99300", "type": "electric_scooter", "is_disabled": 0, "lat": 38.90525783333333, "rental_uris": {"ios": "https://dc.lft.to/lastmile_qr_scan", "android": "https://dc.lft.to/lastmile_qr_scan"}, "is_reserved": 0, "fusion_lon": 0.0, "fusion_lat": 0.0, "lon": -77.0638145, "name": "373ead8dea275061df8b65378fd99300"}, {"bike_id": "e7657476309c1d9e568488f4632b7780", "type": "electric_scooter", "is_disabled": 0, "lat": 38.923550166666665, "rental_uris": {"ios": "https://dc.lft.to/lastmile_qr_scan", "android": "https://dc.lft.to/lastmile_qr_scan"}, "is_reserved": 0, "fusion_lon": 0.0, "fusion_lat": 0.0, "lon": -77.03487966666667, "name": "e7657476309c1d9e568488f4632b7780"}, {"bike_id": "bbced5d925cdd79129770998bbd65d2f", "type": "electric_scooter", "is_disabled": 0, "lat": 38.886540833333335, "rental_uris": {"ios": "https://dc.lft.to/lastmile_qr_scan", "android": "https://dc.lft.to/lastmile_qr_scan"}, "is_reserved": 0, "fusion_lon": 0.0, "fusion_lat": 0.0, "lon": -77.00114283333333, "name": "bbced5d925cdd79129770998bbd65d2f"}, {"bike_id": "034190f255672d998e960c109bba5ae2", "type": "electric_scooter", "is_disabled": 0, "lat": 38.905403666666665, "rental_uris": {"ios": "https://dc.lft.to/lastmile_qr_scan", "android": "https://dc.lft.to/lastmile_qr_scan"}, "is_reserved": 0, "fusion_lon": 0.0, "fusion_lat": 0.0, "lon": -77.026975, "name": "034190f255672d998e960c109bba5ae2"}, {"bike_id": "5e35dd2abccbb805cf8ae8ea3008b309", "type": "electric_scooter", "is_disabled": 0, "lat": 38.919602833333336, "rental_uris": {"ios": "https://dc.lft.to/lastmile_qr_scan", "android": "https://dc.lft.to/lastmile_qr_scan"}, "is_reserved": 0, "fusion_lon": 0.0, "fusion_lat": 0.0, "lon": -77.023796, "name": "5e35dd2abccbb805cf8ae8ea3008b309"}, {"bike_id": "77bb3409ef25fe6f6cd7e9770aafbb4c", "type": "electric_scooter", "is_disabled": 0, "lat": 38.90284466666667, "rental_uris": {"ios": "https://dc.lft.to/lastmile_qr_scan", "android": "https://dc.lft.to/lastmile_qr_scan"}, "is_reserved": 0, "fusion_lon": 0.0, "fusion_lat": 0.0, "lon": -77.01895966666666, "name": "77bb3409ef25fe6f6cd7e9770aafbb4c"}, {"bike_id": "18fa990ee93b0ad2f938f926bb0410a5", "type": "electric_scooter", "is_disabled": 0, "lat": 38.896092, "rental_uris": {"ios": "https://dc.lft.to/lastmile_qr_scan", "android": "https://dc.lft.to/lastmile_qr_scan"}, "is_reserved": 0, "fusion_lon": 0.0, "fusion_lat": 0.0, "lon": -77.0447845, "name": "18fa990ee93b0ad2f938f926bb0410a5"}, {"bike_id": "81de713a2ab25706f097d37885c99b98", "type": "electric_scooter", "is_disabled": 0, "lat": 38.91781316666667, "rental_uris": {"ios": "https://dc.lft.to/lastmile_qr_scan", "android": "https://dc.lft.to/lastmile_qr_scan"}, "is_reserved": 0, "fusion_lon": 0.0, "fusion_lat": 0.0, "lon": -77.02311333333333, "name": "81de713a2ab25706f097d37885c99b98"}, {"bike_id": "ab623e9fc099e93dc5175a728fc06f00", "type": "electric_bike", "is_disabled": 0, "lat": 38.931432666666666, "rental_uris": {"ios": "https://dc.lft.to/lastmile_qr_scan", "android": "https://dc.lft.to/lastmile_qr_scan"}, "is_reserved": 0, "fusion_lon": 0.0, "fusion_lat": 0.0, "lon": -77.0007555, "name": "ab623e9fc099e93dc5175a728fc06f00"}, {"bike_id": "51883b0eed16e7fae9d0119fb7776b90", "type": "electric_scooter", "is_disabled": 0, "lat": 38.9156655, "rental_uris": {"ios": "https://dc.lft.to/lastmile_qr_scan", "android": "https://dc.lft.to/lastmile_qr_scan"}, "is_reserved": 0, "fusion_lon": 0.0, "fusion_lat": 0.0, "lon": -77.02712733333334, "name": "51883b0eed16e7fae9d0119fb7776b90"}, {"bike_id": "c1a028c949b24930bcb52cdfb0581970", "type": "electric_scooter", "is_disabled": 0, "lat": 38.90027216666667, "rental_uris": {"ios": "https://dc.lft.to/lastmile_qr_scan", "android": "https://dc.lft.to/lastmile_qr_scan"}, "is_reserved": 0, "fusion_lon": 0.0, "fusion_lat": 0.0, "lon": -77.00202216666666, "name": "c1a028c949b24930bcb52cdfb0581970"}, {"bike_id": "7c85c07c7d557ae479db42c8c338076c", "type": "electric_scooter", "is_disabled": 0, "lat": 38.90248166666667, "rental_uris": {"ios": "https://dc.lft.to/lastmile_qr_scan", "android": "https://dc.lft.to/lastmile_qr_scan"}, "is_reserved": 0, "fusion_lon": 0.0, "fusion_lat": 0.0, "lon": -77.01753266666667, "name": "7c85c07c7d557ae479db42c8c338076c"}, {"bike_id": "b0c0e32ff47ee136ca0ceb8b896c2b49", "type": "electric_scooter", "is_disabled": 0, "lat": 38.911417666666665, "rental_uris": {"ios": "https://dc.lft.to/lastmile_qr_scan", "android": "https://dc.lft.to/lastmile_qr_scan"}, "is_reserved": 0, "fusion_lon": 0.0, "fusion_lat": 0.0, "lon": -76.99010866666667, "name": "b0c0e32ff47ee136ca0ceb8b896c2b49"}, {"bike_id": "8dbab77388371c844848f559ff09b61d", "type": "electric_scooter", "is_disabled": 0, "lat": 38.91686583333333, "rental_uris": {"ios": "https://dc.lft.to/lastmile_qr_scan", "android": "https://dc.lft.to/lastmile_qr_scan"}, "is_reserved": 0, "fusion_lon": 0.0, "fusion_lat": 0.0, "lon": -77.03167916666666, "name": "8dbab77388371c844848f559ff09b61d"}, {"bike_id": "4344ceb9e30b56fb5e8e3efc67729d73", "type": "electric_scooter", "is_disabled": 0, "lat": 38.90496783333333, "rental_uris": {"ios": "https://dc.lft.to/lastmile_qr_scan", "android": "https://dc.lft.to/lastmile_qr_scan"}, "is_reserved": 0, "fusion_lon": 0.0, "fusion_lat": 0.0, "lon": -77.03034316666667, "name": "4344ceb9e30b56fb5e8e3efc67729d73"}, {"bike_id": "0734af70049792019d9db22d66028706", "type": "electric_scooter", "is_disabled": 0, "lat": 38.8753835, "rental_uris": {"ios": "https://dc.lft.to/lastmile_qr_scan", "android": "https://dc.lft.to/lastmile_qr_scan"}, "is_reserved": 0, "fusion_lon": 0.0, "fusion_lat": 0.0, "lon": -77.00582, "name": "0734af70049792019d9db22d66028706"}, {"bike_id": "5c74264ce0e030f635ac0ee8deda9f94", "type": "electric_scooter", "is_disabled": 0, "lat": 38.92769116666667, "rental_uris": {"ios": "https://dc.lft.to/lastmile_qr_scan", "android": "https://dc.lft.to/lastmile_qr_scan"}, "is_reserved": 0, "fusion_lon": 0.0, "fusion_lat": 0.0, "lon": -77.02746083333334, "name": "5c74264ce0e030f635ac0ee8deda9f94"}, {"bike_id": "fb330a37523ac6014637a41595b427e2", "type": "electric_bike", "is_disabled": 0, "lat": 38.872983, "rental_uris": {"ios": "https://dc.lft.to/lastmile_qr_scan", "android": "https://dc.lft.to/lastmile_qr_scan"}, "is_reserved": 0, "fusion_lon": 0.0, "fusion_lat": 0.0, "lon": -77.13919966666667, "name": "fb330a37523ac6014637a41595b427e2"}, {"bike_id": "5aaa3bea48f67603d99d6369044bae53", "type": "electric_scooter", "is_disabled": 0, "lat": 38.941941666666665, "rental_uris": {"ios": "https://dc.lft.to/lastmile_qr_scan", "android": "https://dc.lft.to/lastmile_qr_scan"}, "is_reserved": 0, "fusion_lon": 0.0, "fusion_lat": 0.0, "lon": -77.0365695, "name": "5aaa3bea48f67603d99d6369044bae53"}, {"bike_id": "6b9ce6a32d2e00f46231165fa75ff16e", "type": "electric_scooter", "is_disabled": 0, "lat": 38.8998605, "rental_uris": {"ios": "https://dc.lft.to/lastmile_qr_scan", "android": "https://dc.lft.to/lastmile_qr_scan"}, "is_reserved": 0, "fusion_lon": 0.0, "fusion_lat": 0.0, "lon": -77.041669, "name": "6b9ce6a32d2e00f46231165fa75ff16e"}, {"bike_id": "dbcbef4a3760d4ad9fec1db94d85150f", "type": "electric_scooter", "is_disabled": 0, "lat": 38.8513125, "rental_uris": {"ios": "https://dc.lft.to/lastmile_qr_scan", "android": "https://dc.lft.to/lastmile_qr_scan"}, "is_reserved": 0, "fusion_lon": 0.0, "fusion_lat": 0.0, "lon": -76.971175, "name": "dbcbef4a3760d4ad9fec1db94d85150f"}, {"bike_id": "076df2f340a787bc1d0d3ba6941d766d", "type": "electric_scooter", "is_disabled": 0, "lat": 38.843150333333334, "rental_uris": {"ios": "https://dc.lft.to/lastmile_qr_scan", "android": "https://dc.lft.to/lastmile_qr_scan"}, "is_reserved": 0, "fusion_lon": 0.0, "fusion_lat": 0.0, "lon": -76.99924166666666, "name": "076df2f340a787bc1d0d3ba6941d766d"}, {"bike_id": "77d56fc9b2c30c969a4504788058b6af", "type": "electric_scooter", "is_disabled": 0, "lat": 38.91553016666667, "rental_uris": {"ios": "https://dc.lft.to/lastmile_qr_scan", "android": "https://dc.lft.to/lastmile_qr_scan"}, "is_reserved": 0, "fusion_lon": 0.0, "fusion_lat": 0.0, "lon": -77.03172883333333, "name": "77d56fc9b2c30c969a4504788058b6af"}, {"bike_id": "06697e9b49581a52e88bfa4e71bf7772", "type": "electric_scooter", "is_disabled": 0, "lat": 38.91721166666667, "rental_uris": {"ios": "https://dc.lft.to/lastmile_qr_scan", "android": "https://dc.lft.to/lastmile_qr_scan"}, "is_reserved": 0, "fusion_lon": 0.0, "fusion_lat": 0.0, "lon": -77.02607183333333, "name": "06697e9b49581a52e88bfa4e71bf7772"}, {"bike_id": "b56252d0909583687b0bd711f36a4fbe", "type": "electric_scooter", "is_disabled": 0, "lat": 38.90006533333333, "rental_uris": {"ios": "https://dc.lft.to/lastmile_qr_scan", "android": "https://dc.lft.to/lastmile_qr_scan"}, "is_reserved": 0, "fusion_lon": 0.0, "fusion_lat": 0.0, "lon": -77.039823, "name": "b56252d0909583687b0bd711f36a4fbe"}, {"bike_id": "f429b8f72b1e0ba991e889c18653e837", "type": "electric_scooter", "is_disabled": 0, "lat": 38.915734666666665, "rental_uris": {"ios": "https://dc.lft.to/lastmile_qr_scan", "android": "https://dc.lft.to/lastmile_qr_scan"}, "is_reserved": 0, "fusion_lon": 0.0, "fusion_lat": 0.0, "lon": -77.01244416666667, "name": "f429b8f72b1e0ba991e889c18653e837"}, {"bike_id": "6b5726c95e9cae8581e7e8906fa6c13e", "type": "electric_bike", "is_disabled": 0, "lat": 38.948003166666666, "rental_uris": {"ios": "https://dc.lft.to/lastmile_qr_scan", "android": "https://dc.lft.to/lastmile_qr_scan"}, "is_reserved": 0, "fusion_lon": 0.0, "fusion_lat": 0.0, "lon": -76.95540433333333, "name": "6b5726c95e9cae8581e7e8906fa6c13e"}, {"bike_id": "b60189dfc6f9794ff74a8ac5c6e80f70", "type": "electric_scooter", "is_disabled": 0, "lat": 38.90967883333333, "rental_uris": {"ios": "https://dc.lft.to/lastmile_qr_scan", "android": "https://dc.lft.to/lastmile_qr_scan"}, "is_reserved": 0, "fusion_lon": 0.0, "fusion_lat": 0.0, "lon": -77.01414333333334, "name": "b60189dfc6f9794ff74a8ac5c6e80f70"}, {"bike_id": "32ea9602f9df53d038aa782e4d1e8790", "type": "electric_scooter", "is_disabled": 0, "lat": 38.91563416666666, "rental_uris": {"ios": "https://dc.lft.to/lastmile_qr_scan", "android": "https://dc.lft.to/lastmile_qr_scan"}, "is_reserved": 0, "fusion_lon": 0.0, "fusion_lat": 0.0, "lon": -77.02594083333334, "name": "32ea9602f9df53d038aa782e4d1e8790"}, {"bike_id": "08ec7fba022103d4fd2d7ec2854c1f92", "type": "electric_scooter", "is_disabled": 0, "lat": 38.911079666666666, "rental_uris": {"ios": "https://dc.lft.to/lastmile_qr_scan", "android": "https://dc.lft.to/lastmile_qr_scan"}, "is_reserved": 0, "fusion_lon": 0.0, "fusion_lat": 0.0, "lon": -77.04395766666667, "name": "08ec7fba022103d4fd2d7ec2854c1f92"}, {"bike_id": "213f473cce04a9ee2d597b9052ec3fdb", "type": "electric_scooter", "is_disabled": 0, "lat": 38.9388045, "rental_uris": {"ios": "https://dc.lft.to/lastmile_qr_scan", "android": "https://dc.lft.to/lastmile_qr_scan"}, "is_reserved": 0, "fusion_lon": 0.0, "fusion_lat": 0.0, "lon": -77.02465966666666, "name": "213f473cce04a9ee2d597b9052ec3fdb"}, {"bike_id": "420043e9f290a2c39b4af2a1617f14d9", "type": "electric_scooter", "is_disabled": 0, "lat": 38.90589816666667, "rental_uris": {"ios": "https://dc.lft.to/lastmile_qr_scan", "android": "https://dc.lft.to/lastmile_qr_scan"}, "is_reserved": 0, "fusion_lon": 0.0, "fusion_lat": 0.0, "lon": -77.0471525, "name": "420043e9f290a2c39b4af2a1617f14d9"}, {"bike_id": "bf533c051cfa71510cd06de027a51247", "type": "electric_scooter", "is_disabled": 0, "lat": 38.941968833333334, "rental_uris": {"ios": "https://dc.lft.to/lastmile_qr_scan", "android": "https://dc.lft.to/lastmile_qr_scan"}, "is_reserved": 0, "fusion_lon": 0.0, "fusion_lat": 0.0, "lon": -77.03323033333334, "name": "bf533c051cfa71510cd06de027a51247"}, {"bike_id": "91df1b2b3aae9bcf0a46a23cfb1834fb", "type": "electric_scooter", "is_disabled": 0, "lat": 38.91874216666667, "rental_uris": {"ios": "https://dc.lft.to/lastmile_qr_scan", "android": "https://dc.lft.to/lastmile_qr_scan"}, "is_reserved": 0, "fusion_lon": 0.0, "fusion_lat": 0.0, "lon": -77.03469683333333, "name": "91df1b2b3aae9bcf0a46a23cfb1834fb"}, {"bike_id": "f6048a7bd2592a2ea2134c43ada9bac1", "type": "electric_bike", "is_disabled": 0, "lat": 38.868724, "rental_uris": {"ios": "https://dc.lft.to/lastmile_qr_scan", "android": "https://dc.lft.to/lastmile_qr_scan"}, "is_reserved": 0, "fusion_lon": 0.0, "fusion_lat": 0.0, "lon": -76.97086966666667, "name": "f6048a7bd2592a2ea2134c43ada9bac1"}, {"bike_id": "d0350c2f91fe49a0036974ca44162bad", "type": "electric_scooter", "is_disabled": 0, "lat": 38.9231365, "rental_uris": {"ios": "https://dc.lft.to/lastmile_qr_scan", "android": "https://dc.lft.to/lastmile_qr_scan"}, "is_reserved": 0, "fusion_lon": 0.0, "fusion_lat": 0.0, "lon": -77.046419, "name": "d0350c2f91fe49a0036974ca44162bad"}, {"bike_id": "e8f4dd3dc7d37c517cdcc43e9f613c15", "type": "electric_scooter", "is_disabled": 0, "lat": 38.90737166666667, "rental_uris": {"ios": "https://dc.lft.to/lastmile_qr_scan", "android": "https://dc.lft.to/lastmile_qr_scan"}, "is_reserved": 0, "fusion_lon": 0.0, "fusion_lat": 0.0, "lon": -77.02968116666666, "name": "e8f4dd3dc7d37c517cdcc43e9f613c15"}, {"bike_id": "a42b2ac9eff2c3487ae554c5ad076d8e", "type": "electric_scooter", "is_disabled": 0, "lat": 38.897271833333335, "rental_uris": {"ios": "https://dc.lft.to/lastmile_qr_scan", "android": "https://dc.lft.to/lastmile_qr_scan"}, "is_reserved": 0, "fusion_lon": 0.0, "fusion_lat": 0.0, "lon": -77.02167883333334, "name": "a42b2ac9eff2c3487ae554c5ad076d8e"}, {"bike_id": "6bbb08f0aa8fd0f48d3bd6d3a03e605d", "type": "electric_scooter", "is_disabled": 0, "lat": 38.90368333333333, "rental_uris": {"ios": "https://dc.lft.to/lastmile_qr_scan", "android": "https://dc.lft.to/lastmile_qr_scan"}, "is_reserved": 0, "fusion_lon": 0.0, "fusion_lat": 0.0, "lon": -77.02911166666667, "name": "6bbb08f0aa8fd0f48d3bd6d3a03e605d"}, {"bike_id": "dd6fe816939850cb742cd04585a0ebb7", "type": "electric_scooter", "is_disabled": 0, "lat": 38.9068925, "rental_uris": {"ios": "https://dc.lft.to/lastmile_qr_scan", "android": "https://dc.lft.to/lastmile_qr_scan"}, "is_reserved": 0, "fusion_lon": 0.0, "fusion_lat": 0.0, "lon": -77.023819, "name": "dd6fe816939850cb742cd04585a0ebb7"}, {"bike_id": "5edcff36de8d43f3c22e8970e19bc55f", "type": "electric_scooter", "is_disabled": 0, "lat": 38.94194983333333, "rental_uris": {"ios": "https://dc.lft.to/lastmile_qr_scan", "android": "https://dc.lft.to/lastmile_qr_scan"}, "is_reserved": 0, "fusion_lon": 0.0, "fusion_lat": 0.0, "lon": -77.02432666666667, "name": "5edcff36de8d43f3c22e8970e19bc55f"}, {"bike_id": "b7999fe190ec2e9e65cf9da2e49db1cb", "type": "electric_bike", "is_disabled": 0, "lat": 38.930515, "rental_uris": {"ios": "https://dc.lft.to/lastmile_qr_scan", "android": "https://dc.lft.to/lastmile_qr_scan"}, "is_reserved": 0, "fusion_lon": 0.0, "fusion_lat": 0.0, "lon": -77.03707216666666, "name": "b7999fe190ec2e9e65cf9da2e49db1cb"}, {"bike_id": "29cf4c0d0476a58bf413b95713766083", "type": "electric_bike", "is_disabled": 0, "lat": 38.92645233333333, "rental_uris": {"ios": "https://dc.lft.to/lastmile_qr_scan", "android": "https://dc.lft.to/lastmile_qr_scan"}, "is_reserved": 0, "fusion_lon": 0.0, "fusion_lat": 0.0, "lon": -76.98424683333333, "name": "29cf4c0d0476a58bf413b95713766083"}, {"bike_id": "75d3d5f01388581f847228e2abd99d18", "type": "electric_scooter", "is_disabled": 0, "lat": 38.927769, "rental_uris": {"ios": "https://dc.lft.to/lastmile_qr_scan", "android": "https://dc.lft.to/lastmile_qr_scan"},