{"data": {"bikes": [{"rental_uris": {"ios": "https://dc.lft.to/lastmile_qr_scan", "android": "https://dc.lft.to/lastmile_qr_scan"}, "lat": 38.9417565, "bike_id": "93659b2a312d714e026ca939a21a55ca", "lon": -77.031473, "type": "electric_scooter", "fusion_lon": 0.0, "fusion_lat": 0.0, "is_reserved": 0, "name": "93659b2a312d714e026ca939a21a55ca", "is_disabled": 0}, {"rental_uris": {"ios": "https://dc.lft.to/lastmile_qr_scan", "android": "https://dc.lft.to/lastmile_qr_scan"}, "lat": 38.91816883333333, "bike_id": "6bc82beb8cb3a7a5702d0f8877ae8ccb", "lon": -77.03983016666666, "type": "electric_scooter", "fusion_lon": 0.0, "fusion_lat": 0.0, "is_reserved": 0, "name": "6bc82beb8cb3a7a5702d0f8877ae8ccb", "is_disabled": 0}, {"rental_uris": {"ios": "https://dc.lft.to/lastmile_qr_scan", "android": "https://dc.lft.to/lastmile_qr_scan"}, "lat": 38.877473333333334, "bike_id": "51bc5072a7575c1e7171601ba20c581b", "lon": -76.99756383333333, "type": "electric_scooter", "fusion_lon": 0.0, "fusion_lat": 0.0, "is_reserved": 0, "name": "51bc5072a7575c1e7171601ba20c581b", "is_disabled": 0}, {"rental_uris": {"ios": "https://dc.lft.to/lastmile_qr_scan", "android": "https://dc.lft.to/lastmile_qr_scan"}, "lat": 38.930683, "bike_id": "2c69226516604acdd88858cae9b8e325", "lon": -77.03268933333334, "type": "electric_scooter", "fusion_lon": 0.0, "fusion_lat": 0.0, "is_reserved": 0, "name": "2c69226516604acdd88858cae9b8e325", "is_disabled": 0}, {"rental_uris": {"ios": "https://dc.lft.to/lastmile_qr_scan", "android": "https://dc.lft.to/lastmile_qr_scan"}, "lat": 38.914185333333336, "bike_id": "24a5df8abd8af88fcfa17181db41fce3", "lon": -77.02116833333334, "type": "electric_scooter", "fusion_lon": 0.0, "fusion_lat": 0.0, "is_reserved": 0, "name": "24a5df8abd8af88fcfa17181db41fce3", "is_disabled": 0}, {"rental_uris": {"ios": "https://dc.lft.to/lastmile_qr_scan", "android": "https://dc.lft.to/lastmile_qr_scan"}, "lat": 38.902669, "bike_id": "4324ca4f9fc5e912202525f354d6d364", "lon": -77.0173875, "type": "electric_scooter", "fusion_lon": 0.0, "fusion_lat": 0.0, "is_reserved": 0, "name": "4324ca4f9fc5e912202525f354d6d364", "is_disabled": 0}, {"rental_uris": {"ios": "https://dc.lft.to/lastmile_qr_scan", "android": "https://dc.lft.to/lastmile_qr_scan"}, "lat": 38.893551333333335, "bike_id": "71672e2a06d863637a28a109bb86f416", "lon": -76.9493335, "type": "electric_scooter", "fusion_lon": 0.0, "fusion_lat": 0.0, "is_reserved": 0, "name": "71672e2a06d863637a28a109bb86f416", "is_disabled": 0}, {"rental_uris": {"ios": "https://dc.lft.to/lastmile_qr_scan", "android": "https://dc.lft.to/lastmile_qr_scan"}, "lat": 38.846388166666664, "bike_id": "ebea0a7689a9fb49973591e0c6760836", "lon": -76.99129783333333, "type": "electric_scooter", "fusion_lon": 0.0, "fusion_lat": 0.0, "is_reserved": 0, "name": "ebea0a7689a9fb49973591e0c6760836", "is_disabled": 0}, {"rental_uris": {"ios": "https://dc.lft.to/lastmile_qr_scan", "android": "https://dc.lft.to/lastmile_qr_scan"}, "lat": 38.908924, "bike_id": "8fa699c632c26010aa9c6c9ed1e6ad37", "lon": -76.99771583333333, "type": "electric_scooter", "fusion_lon": 0.0, "fusion_lat": 0.0, "is_reserved": 0, "name": "8fa699c632c26010aa9c6c9ed1e6ad37", "is_disabled": 0}, {"rental_uris": {"ios": "https://dc.lft.to/lastmile_qr_scan", "android": "https://dc.lft.to/lastmile_qr_scan"}, "lat": 38.92323916666667, "bike_id": "436b86c7fb640ce0cf049683f73f7ae4", "lon": -77.00048333333334, "type": "electric_scooter", "fusion_lon": 0.0, "fusion_lat": 0.0, "is_reserved": 0, "name": "436b86c7fb640ce0cf049683f73f7ae4", "is_disabled": 0}, {"rental_uris": {"ios": "https://dc.lft.to/lastmile_qr_scan", "android": "https://dc.lft.to/lastmile_qr_scan"}, "lat": 38.898588, "bike_id": "04519be72b35cfb1dc6f51c6b07c5374", "lon": -77.039598, "type": "electric_scooter", "fusion_lon": 0.0, "fusion_lat": 0.0, "is_reserved": 0, "name": "04519be72b35cfb1dc6f51c6b07c5374", "is_disabled": 0}, {"rental_uris": {"ios": "https://dc.lft.to/lastmile_qr_scan", "android": "https://dc.lft.to/lastmile_qr_scan"}, "lat": 38.89985733333333, "bike_id": "fee0a40a1f43abbc59af032dec48cac5", "lon": -77.02366433333333, "type": "electric_scooter", "fusion_lon": 0.0, "fusion_lat": 0.0, "is_reserved": 0, "name": "fee0a40a1f43abbc59af032dec48cac5", "is_disabled": 0}, {"rental_uris": {"ios": "https://dc.lft.to/lastmile_qr_scan", "android": "https://dc.lft.to/lastmile_qr_scan"}, "lat": 38.92364766666667, "bike_id": "1a352bc073c2bf49cee15d4c90ef6e23", "lon": -77.042553, "type": "electric_scooter", "fusion_lon": 0.0, "fusion_lat": 0.0, "is_reserved": 0, "name": "1a352bc073c2bf49cee15d4c90ef6e23", "is_disabled": 0}, {"rental_uris": {"ios": "https://dc.lft.to/lastmile_qr_scan", "android": "https://dc.lft.to/lastmile_qr_scan"}, "lat": 38.89947566666667, "bike_id": "68900593adf6717770385ffce7c67a5d", "lon": -77.04486133333333, "type": "electric_scooter", "fusion_lon": 0.0, "fusion_lat": 0.0, "is_reserved": 0, "name": "68900593adf6717770385ffce7c67a5d", "is_disabled": 0}, {"rental_uris": {"ios": "https://dc.lft.to/lastmile_qr_scan", "android": "https://dc.lft.to/lastmile_qr_scan"}, "lat": 38.87174666666667, "bike_id": "e374c6a377e168d2d5b6acd716a76fe3", "lon": -77.00680033333333, "type": "electric_scooter", "fusion_lon": 0.0, "fusion_lat": 0.0, "is_reserved": 0, "name": "e374c6a377e168d2d5b6acd716a76fe3", "is_disabled": 0}, {"rental_uris": {"ios": "https://dc.lft.to/lastmile_qr_scan", "android": "https://dc.lft.to/lastmile_qr_scan"}, "lat": 38.86686916666667, "bike_id": "9982f9ffffeb967cc9403e455599f49c", "lon": -76.98544233333334, "type": "electric_scooter", "fusion_lon": 0.0, "fusion_lat": 0.0, "is_reserved": 0, "name": "9982f9ffffeb967cc9403e455599f49c", "is_disabled": 0}, {"rental_uris": {"ios": "https://dc.lft.to/lastmile_qr_scan", "android": "https://dc.lft.to/lastmile_qr_scan"}, "lat": 38.845965166666666, "bike_id": "816d145a89f02c176a0602bc303148b8", "lon": -77.1085735, "type": "electric_bike", "fusion_lon": 0.0, "fusion_lat": 0.0, "is_reserved": 0, "name": "816d145a89f02c176a0602bc303148b8", "is_disabled": 0}, {"rental_uris": {"ios": "https://dc.lft.to/lastmile_qr_scan", "android": "https://dc.lft.to/lastmile_qr_scan"}, "lat": 38.9233855, "bike_id": "8ddac767831f53a0606d0c17b676bcf1", "lon": -77.0504325, "type": "electric_scooter", "fusion_lon": 0.0, "fusion_lat": 0.0, "is_reserved": 0, "name": "8ddac767831f53a0606d0c17b676bcf1", "is_disabled": 0}, {"rental_uris": {"ios": "https://dc.lft.to/lastmile_qr_scan", "android": "https://dc.lft.to/lastmile_qr_scan"}, "lat": 38.884853666666665, "bike_id": "a49ce6cfd0741bd686bc6dceb8b9acf6", "lon": -77.01521183333334, "type": "electric_scooter", "fusion_lon": 0.0, "fusion_lat": 0.0, "is_reserved": 0, "name": "a49ce6cfd0741bd686bc6dceb8b9acf6", "is_disabled": 0}, {"rental_uris": {"ios": "https://dc.lft.to/lastmile_qr_scan", "android": "https://dc.lft.to/lastmile_qr_scan"}, "lat": 38.89832083333334, "bike_id": "feb88b99c85d51eaa8a8a6c4ce4836e1", "lon": -76.94639883333333, "type": "electric_scooter", "fusion_lon": 0.0, "fusion_lat": 0.0, "is_reserved": 0, "name": "feb88b99c85d51eaa8a8a6c4ce4836e1", "is_disabled": 0}, {"rental_uris": {"ios": "https://dc.lft.to/lastmile_qr_scan", "android": "https://dc.lft.to/lastmile_qr_scan"}, "lat": 38.82176116666667, "bike_id": "4c72726d2fb2b46c05d363f1794f0d9c", "lon": -76.99511966666667, "type": "electric_bike", "fusion_lon": 0.0, "fusion_lat": 0.0, "is_reserved": 0, "name": "4c72726d2fb2b46c05d363f1794f0d9c", "is_disabled": 0}, {"rental_uris": {"ios": "https://dc.lft.to/lastmile_qr_scan", "android": "https://dc.lft.to/lastmile_qr_scan"}, "lat": 38.91711333333333, "bike_id": "7b6576bfd0f37a8f85f814f0abceb1d5", "lon": -77.02462466666667, "type": "electric_scooter", "fusion_lon": 0.0, "fusion_lat": 0.0, "is_reserved": 0, "name": "7b6576bfd0f37a8f85f814f0abceb1d5", "is_disabled": 0}, {"rental_uris": {"ios": "https://dc.lft.to/lastmile_qr_scan", "android": "https://dc.lft.to/lastmile_qr_scan"}, "lat": 38.92883066666667, "bike_id": "62ff95826732eab6afb157f30810502f", "lon": -77.0372895, "type": "electric_scooter", "fusion_lon": 0.0, "fusion_lat": 0.0, "is_reserved": 0, "name": "62ff95826732eab6afb157f30810502f", "is_disabled": 0}, {"rental_uris": {"ios": "https://dc.lft.to/lastmile_qr_scan", "android": "https://dc.lft.to/lastmile_qr_scan"}, "lat": 38.9241285, "bike_id": "939b4f03a14d8c4729ee7c025950915c", "lon": -77.0193925, "type": "electric_scooter", "fusion_lon": 0.0, "fusion_lat": 0.0, "is_reserved": 0, "name": "939b4f03a14d8c4729ee7c025950915c", "is_disabled": 0}, {"rental_uris": {"ios": "https://dc.lft.to/lastmile_qr_scan", "android": "https://dc.lft.to/lastmile_qr_scan"}, "lat": 38.915157, "bike_id": "986fc34ba4a8cc2f58e8faf9ceddbb22", "lon": -77.04614066666667, "type": "electric_scooter", "fusion_lon": 0.0, "fusion_lat": 0.0, "is_reserved": 0, "name": "986fc34ba4a8cc2f58e8faf9ceddbb22", "is_disabled": 0}, {"rental_uris": {"ios": "https://dc.lft.to/lastmile_qr_scan", "android": "https://dc.lft.to/lastmile_qr_scan"}, "lat": 38.892313, "bike_id": "bb6849edf47beff914b587224db3b63f", "lon": -77.0259595, "type": "electric_scooter", "fusion_lon": 0.0, "fusion_lat": 0.0, "is_reserved": 0, "name": "bb6849edf47beff914b587224db3b63f", "is_disabled": 0}, {"rental_uris": {"ios": "https://dc.lft.to/lastmile_qr_scan", "android": "https://dc.lft.to/lastmile_qr_scan"}, "lat": 38.899469833333335, "bike_id": "232970546d0d7d9b3317dbe8363384da", "lon": -77.041755, "type": "electric_scooter", "fusion_lon": 0.0, "fusion_lat": 0.0, "is_reserved": 0, "name": "232970546d0d7d9b3317dbe8363384da", "is_disabled": 0}, {"rental_uris": {"ios": "https://dc.lft.to/lastmile_qr_scan", "android": "https://dc.lft.to/lastmile_qr_scan"}, "lat": 38.921618333333335, "bike_id": "e5667cb1227a89e7de8dec6e2b299dd5", "lon": -77.02084783333333, "type": "electric_scooter", "fusion_lon": 0.0, "fusion_lat": 0.0, "is_reserved": 0, "name": "e5667cb1227a89e7de8dec6e2b299dd5", "is_disabled": 0}, {"rental_uris": {"ios": "https://dc.lft.to/lastmile_qr_scan", "android": "https://dc.lft.to/lastmile_qr_scan"}, "lat": 38.9193485, "bike_id": "f61b9753c0b145deb016589912b552cb", "lon": -77.07064766666667, "type": "electric_scooter", "fusion_lon": 0.0, "fusion_lat": 0.0, "is_reserved": 0, "name": "f61b9753c0b145deb016589912b552cb", "is_disabled": 0}, {"rental_uris": {"ios": "https://dc.lft.to/lastmile_qr_scan", "android": "https://dc.lft.to/lastmile_qr_scan"}, "lat": 38.91866916666667, "bike_id": "9ad85e97f41af7d9369422eff1602a8e", "lon": -77.01350466666666, "type": "electric_scooter", "fusion_lon": 0.0, "fusion_lat": 0.0, "is_reserved": 0, "name": "9ad85e97f41af7d9369422eff1602a8e", "is_disabled": 0}, {"rental_uris": {"ios": "https://dc.lft.to/lastmile_qr_scan", "android": "https://dc.lft.to/lastmile_qr_scan"}, "lat": 38.88604733333333, "bike_id": "e1439cb6a59cbabc2144ca70bc39a2e5", "lon": -76.9955955, "type": "electric_scooter", "fusion_lon": 0.0, "fusion_lat": 0.0, "is_reserved": 0, "name": "e1439cb6a59cbabc2144ca70bc39a2e5", "is_disabled": 0}, {"rental_uris": {"ios": "https://dc.lft.to/lastmile_qr_scan", "android": "https://dc.lft.to/lastmile_qr_scan"}, "lat": 38.897383166666664, "bike_id": "ad03a0a4bf079bfc99af87ca4129e6a3", "lon": -77.02219133333334, "type": "electric_scooter", "fusion_lon": 0.0, "fusion_lat": 0.0, "is_reserved": 0, "name": "ad03a0a4bf079bfc99af87ca4129e6a3", "is_disabled": 0}, {"rental_uris": {"ios": "https://dc.lft.to/lastmile_qr_scan", "android": "https://dc.lft.to/lastmile_qr_scan"}, "lat": 38.96546983333333, "bike_id": "beacaedcd7079a3c793967bec9b39eb0", "lon": -77.03622783333333, "type": "electric_scooter", "fusion_lon": 0.0, "fusion_lat": 0.0, "is_reserved": 0, "name": "beacaedcd7079a3c793967bec9b39eb0", "is_disabled": 0}, {"rental_uris": {"ios": "https://dc.lft.to/lastmile_qr_scan", "android": "https://dc.lft.to/lastmile_qr_scan"}, "lat": 38.892155833333334, "bike_id": "a0eb5239ca2ae9c5a9fcb06f4c2cc659", "lon": -76.99567166666667, "type": "electric_scooter", "fusion_lon": 0.0, "fusion_lat": 0.0, "is_reserved": 0, "name": "a0eb5239ca2ae9c5a9fcb06f4c2cc659", "is_disabled": 0}, {"rental_uris": {"ios": "https://dc.lft.to/lastmile_qr_scan", "android": "https://dc.lft.to/lastmile_qr_scan"}, "lat": 38.89607566666667, "bike_id": "d0f08c97be1bc8b653934a6a8a8741ec", "lon": -77.0454015, "type": "electric_scooter", "fusion_lon": 0.0, "fusion_lat": 0.0, "is_reserved": 0, "name": "d0f08c97be1bc8b653934a6a8a8741ec", "is_disabled": 0}, {"rental_uris": {"ios": "https://dc.lft.to/lastmile_qr_scan", "android": "https://dc.lft.to/lastmile_qr_scan"}, "lat": 38.92068183333333, "bike_id": "0c6415edbed79606e5f64a69cc05e9e1", "lon": -77.024891, "type": "electric_scooter", "fusion_lon": 0.0, "fusion_lat": 0.0, "is_reserved": 0, "name": "0c6415edbed79606e5f64a69cc05e9e1", "is_disabled": 0}, {"rental_uris": {"ios": "https://dc.lft.to/lastmile_qr_scan", "android": "https://dc.lft.to/lastmile_qr_scan"}, "lat": 38.90102066666667, "bike_id": "3514bc16a36fa9576f954b4b360c6469", "lon": -77.04373183333334, "type": "electric_scooter", "fusion_lon": 0.0, "fusion_lat": 0.0, "is_reserved": 0, "name": "3514bc16a36fa9576f954b4b360c6469", "is_disabled": 0}, {"rental_uris": {"ios": "https://dc.lft.to/lastmile_qr_scan", "android": "https://dc.lft.to/lastmile_qr_scan"}, "lat": 38.902677, "bike_id": "04c023aedacc268f1307e76a98347aff", "lon": -77.02998916666667, "type": "electric_scooter", "fusion_lon": 0.0, "fusion_lat": 0.0, "is_reserved": 0, "name": "04c023aedacc268f1307e76a98347aff", "is_disabled": 0}, {"rental_uris": {"ios": "https://dc.lft.to/lastmile_qr_scan", "android": "https://dc.lft.to/lastmile_qr_scan"}, "lat": 38.901382, "bike_id": "43bad2281803571c81e3e86a1c7f175b", "lon": -76.99077466666667, "type": "electric_scooter", "fusion_lon": 0.0, "fusion_lat": 0.0, "is_reserved": 0, "name": "43bad2281803571c81e3e86a1c7f175b", "is_disabled": 0}, {"rental_uris": {"ios": "https://dc.lft.to/lastmile_qr_scan", "android": "https://dc.lft.to/lastmile_qr_scan"}, "lat": 38.940178833333334, "bike_id": "776dceaba3bc5780256d9e89a32bd2f3", "lon": -76.99219683333334, "type": "electric_bike", "fusion_lon": 0.0, "fusion_lat": 0.0, "is_reserved": 0, "name": "776dceaba3bc5780256d9e89a32bd2f3", "is_disabled": 0}, {"rental_uris": {"ios": "https://dc.lft.to/lastmile_qr_scan", "android": "https://dc.lft.to/lastmile_qr_scan"}, "lat": 38.89614816666667, "bike_id": "ee10ec957a3941646d0d4268321ddb12", "lon": -77.02635483333333, "type": "electric_scooter", "fusion_lon": 0.0, "fusion_lat": 0.0, "is_reserved": 0, "name": "ee10ec957a3941646d0d4268321ddb12", "is_disabled": 0}, {"rental_uris": {"ios": "https://dc.lft.to/lastmile_qr_scan", "android": "https://dc.lft.to/lastmile_qr_scan"}, "lat": 38.92505966666667, "bike_id": "d95afb20a698deea0a6279e537a31d7d", "lon": -77.0522435, "type": "electric_scooter", "fusion_lon": 0.0, "fusion_lat": 0.0, "is_reserved": 0, "name": "d95afb20a698deea0a6279e537a31d7d", "is_disabled": 0}, {"rental_uris": {"ios": "https://dc.lft.to/lastmile_qr_scan", "android": "https://dc.lft.to/lastmile_qr_scan"}, "lat": 38.9262545, "bike_id": "c4a619ac23f9e539b3640c96a6a5769c", "lon": -77.04219416666666, "type": "electric_scooter", "fusion_lon": 0.0, "fusion_lat": 0.0, "is_reserved": 0, "name": "c4a619ac23f9e539b3640c96a6a5769c", "is_disabled": 0}, {"rental_uris": {"ios": "https://dc.lft.to/lastmile_qr_scan", "android": "https://dc.lft.to/lastmile_qr_scan"}, "lat": 38.9019395, "bike_id": "c495144ba9b974139aa5c5b41a2efc5c", "lon": -76.98218633333333, "type": "electric_scooter", "fusion_lon": 0.0, "fusion_lat": 0.0, "is_reserved": 0, "name": "c495144ba9b974139aa5c5b41a2efc5c", "is_disabled": 0}, {"rental_uris": {"ios": "https://dc.lft.to/lastmile_qr_scan", "android": "https://dc.lft.to/lastmile_qr_scan"}, "lat": 38.89524733333333, "bike_id": "2eaf6bb792ee712bd5fff06de55a3c12", "lon": -77.0293005, "type": "electric_scooter", "fusion_lon": 0.0, "fusion_lat": 0.0, "is_reserved": 0, "name": "2eaf6bb792ee712bd5fff06de55a3c12", "is_disabled": 0}, {"rental_uris": {"ios": "https://dc.lft.to/lastmile_qr_scan", "android": "https://dc.lft.to/lastmile_qr_scan"}, "lat": 38.913225833333335, "bike_id": "00d04b83fb78d310a2fd55d76ea0501a", "lon": -77.03185866666666, "type": "electric_scooter", "fusion_lon": 0.0, "fusion_lat": 0.0, "is_reserved": 0, "name": "00d04b83fb78d310a2fd55d76ea0501a", "is_disabled": 0}, {"rental_uris": {"ios": "https://dc.lft.to/lastmile_qr_scan", "android": "https://dc.lft.to/lastmile_qr_scan"}, "lat": 38.89525533333333, "bike_id": "8d31cd3224ffc80542b5eff7bb4090c6", "lon": -77.00341833333333, "type": "electric_scooter", "fusion_lon": 0.0, "fusion_lat": 0.0, "is_reserved": 0, "name": "8d31cd3224ffc80542b5eff7bb4090c6", "is_disabled": 0}, {"rental_uris": {"ios": "https://dc.lft.to/lastmile_qr_scan", "android": "https://dc.lft.to/lastmile_qr_scan"}, "lat": 38.903983333333336, "bike_id": "4660fd3b3a29dffb35b98a5f95494024", "lon": -77.03379916666667, "type": "electric_scooter", "fusion_lon": 0.0, "fusion_lat": 0.0, "is_reserved": 0, "name": "4660fd3b3a29dffb35b98a5f95494024", "is_disabled": 0}, {"rental_uris": {"ios": "https://dc.lft.to/lastmile_qr_scan", "android": "https://dc.lft.to/lastmile_qr_scan"}, "lat": 38.92848133333333, "bike_id": "451ba4281ae778fa1bb87c8672ebad7b", "lon": -77.05428683333334, "type": "electric_scooter", "fusion_lon": 0.0, "fusion_lat": 0.0, "is_reserved": 0, "name": "451ba4281ae778fa1bb87c8672ebad7b", "is_disabled": 0}, {"rental_uris": {"ios": "https://dc.lft.to/lastmile_qr_scan", "android": "https://dc.lft.to/lastmile_qr_scan"}, "lat": 38.88495916666667, "bike_id": "50a585e8d70b59944fd944e1d8909775", "lon": -77.00892716666667, "type": "electric_scooter", "fusion_lon": 0.0, "fusion_lat": 0.0, "is_reserved": 0, "name": "50a585e8d70b59944fd944e1d8909775", "is_disabled": 0}, {"rental_uris": {"ios": "https://dc.lft.to/lastmile_qr_scan", "android": "https://dc.lft.to/lastmile_qr_scan"}, "lat": 38.95063566666666, "bike_id": "07d7ede80503a0e6deacf962fededf92", "lon": -77.02962, "type": "electric_scooter", "fusion_lon": 0.0, "fusion_lat": 0.0, "is_reserved": 0, "name": "07d7ede80503a0e6deacf962fededf92", "is_disabled": 0}, {"rental_uris": {"ios": "https://dc.lft.to/lastmile_qr_scan", "android": "https://dc.lft.to/lastmile_qr_scan"}, "lat": 38.8983755, "bike_id": "3196ed05c1296a8721b7d658ee3edca5", "lon": -77.0444525, "type": "electric_scooter", "fusion_lon": 0.0, "fusion_lat": 0.0, "is_reserved": 0, "name": "3196ed05c1296a8721b7d658ee3edca5", "is_disabled": 0}, {"rental_uris": {"ios": "https://dc.lft.to/lastmile_qr_scan", "android": "https://dc.lft.to/lastmile_qr_scan"}, "lat": 38.916721333333335, "bike_id": "ae5ee138dbf56b12fbcab633e5339560", "lon": -77.023835, "type": "electric_scooter", "fusion_lon": 0.0, "fusion_lat": 0.0, "is_reserved": 0, "name": "ae5ee138dbf56b12fbcab633e5339560", "is_disabled": 0}, {"rental_uris": {"ios": "https://dc.lft.to/lastmile_qr_scan", "android": "https://dc.lft.to/lastmile_qr_scan"}, "lat": 38.90598266666667, "bike_id": "3792cc2710c34a691b0005d30fda9a91", "lon": -77.04321766666666, "type": "electric_scooter", "fusion_lon": 0.0, "fusion_lat": 0.0, "is_reserved": 0, "name": "3792cc2710c34a691b0005d30fda9a91", "is_disabled": 0}, {"rental_uris": {"ios": "https://dc.lft.to/lastmile_qr_scan", "android": "https://dc.lft.to/lastmile_qr_scan"}, "lat": 38.899681666666666, "bike_id": "e0d490b463fbb3bb8581bb1850fc259f", "lon": -77.05560883333334, "type": "electric_scooter", "fusion_lon": 0.0, "fusion_lat": 0.0, "is_reserved": 0, "name": "e0d490b463fbb3bb8581bb1850fc259f", "is_disabled": 0}, {"rental_uris": {"ios": "https://dc.lft.to/lastmile_qr_scan", "android": "https://dc.lft.to/lastmile_qr_scan"}, "lat": 38.90978, "bike_id": "c45609398e842d7dc55577747855d371", "lon": -77.03464333333334, "type": "electric_scooter", "fusion_lon": 0.0, "fusion_lat": 0.0, "is_reserved": 0, "name": "c45609398e842d7dc55577747855d371", "is_disabled": 0}, {"rental_uris": {"ios": "https://dc.lft.to/lastmile_qr_scan", "android": "https://dc.lft.to/lastmile_qr_scan"}, "lat": 38.90942233333333, "bike_id": "dedcc4eca0f6c849acac6fad334bbbf1", "lon": -77.03439566666667, "type": "electric_scooter", "fusion_lon": 0.0, "fusion_lat": 0.0, "is_reserved": 0, "name": "dedcc4eca0f6c849acac6fad334bbbf1", "is_disabled": 0}, {"rental_uris": {"ios": "https://dc.lft.to/lastmile_qr_scan", "android": "https://dc.lft.to/lastmile_qr_scan"}, "lat": 38.85758883333333, "bike_id": "e17574d2ed260888ddda39d5476dcca7", "lon": -76.99296616666666, "type": "electric_scooter", "fusion_lon": 0.0, "fusion_lat": 0.0, "is_reserved": 0, "name": "e17574d2ed260888ddda39d5476dcca7", "is_disabled": 0}, {"rental_uris": {"ios": "https://dc.lft.to/lastmile_qr_scan", "android": "https://dc.lft.to/lastmile_qr_scan"}, "lat": 38.94268566666667, "bike_id": "91cdb552737725b33e09f60bd562ce76", "lon": -77.02497916666667, "type": "electric_scooter", "fusion_lon": 0.0, "fusion_lat": 0.0, "is_reserved": 0, "name": "91cdb552737725b33e09f60bd562ce76", "is_disabled": 0}, {"rental_uris": {"ios": "https://dc.lft.to/lastmile_qr_scan", "android": "https://dc.lft.to/lastmile_qr_scan"}, "lat": 38.9191525, "bike_id": "6cf59392a5c12cd54a072e0a8f324471", "lon": -77.033778, "type": "electric_scooter", "fusion_lon": 0.0, "fusion_lat": 0.0, "is_reserved": 0, "name": "6cf59392a5c12cd54a072e0a8f324471", "is_disabled": 0}, {"rental_uris": {"ios": "https://dc.lft.to/lastmile_qr_scan", "android": "https://dc.lft.to/lastmile_qr_scan"}, "lat": 38.9080965, "bike_id": "bd52a35c04047bd1646a675a2137e4f8", "lon": -77.04334066666667, "type": "electric_scooter", "fusion_lon": 0.0, "fusion_lat": 0.0, "is_reserved": 0, "name": "bd52a35c04047bd1646a675a2137e4f8", "is_disabled": 0}, {"rental_uris": {"ios": "https://dc.lft.to/lastmile_qr_scan", "android": "https://dc.lft.to/lastmile_qr_scan"}, "lat": 38.9055935, "bike_id": "722d7f4cee6d0814bc4d9f18f97f7081", "lon": -77.04303533333334, "type": "electric_scooter", "fusion_lon": 0.0, "fusion_lat": 0.0, "is_reserved": 0, "name": "722d7f4cee6d0814bc4d9f18f97f7081", "is_disabled": 0}, {"rental_uris": {"ios": "https://dc.lft.to/lastmile_qr_scan", "android": "https://dc.lft.to/lastmile_qr_scan"}, "lat": 38.924939333333334, "bike_id": "1fa848d9c1d6ec0649f72fb82f08646f", "lon": -77.04131733333334, "type": "electric_scooter", "fusion_lon": 0.0, "fusion_lat": 0.0, "is_reserved": 0, "name": "1fa848d9c1d6ec0649f72fb82f08646f", "is_disabled": 0}, {"rental_uris": {"ios": "https://dc.lft.to/lastmile_qr_scan", "android": "https://dc.lft.to/lastmile_qr_scan"}, "lat": 38.914056333333335, "bike_id": "88231819d64fce26daae798b816f8a6b", "lon": -77.04499, "type": "electric_scooter", "fusion_lon": 0.0, "fusion_lat": 0.0, "is_reserved": 0, "name": "88231819d64fce26daae798b816f8a6b", "is_disabled": 0}, {"rental_uris": {"ios": "https://dc.lft.to/lastmile_qr_scan", "android": "https://dc.lft.to/lastmile_qr_scan"}, "lat": 38.89492033333333, "bike_id": "f8d88d73368dae1fe61059b7c6e07e2a", "lon": -77.02269283333334, "type": "electric_scooter", "fusion_lon": 0.0, "fusion_lat": 0.0, "is_reserved": 0, "name": "f8d88d73368dae1fe61059b7c6e07e2a", "is_disabled": 0}, {"rental_uris": {"ios": "https://dc.lft.to/lastmile_qr_scan", "android": "https://dc.lft.to/lastmile_qr_scan"}, "lat": 38.9846905, "bike_id": "202872a0be1e0cc1af184e9efea28faa", "lon": -77.026314, "type": "electric_scooter", "fusion_lon": 0.0, "fusion_lat": 0.0, "is_reserved": 0, "name": "202872a0be1e0cc1af184e9efea28faa", "is_disabled": 0}, {"rental_uris": {"ios": "https://dc.lft.to/lastmile_qr_scan", "android": "https://dc.lft.to/lastmile_qr_scan"}, "lat": 38.900159, "bike_id": "b5c2959cd1bc28cea0fff66331ce198e", "lon": -77.04399233333334, "type": "electric_scooter", "fusion_lon": 0.0, "fusion_lat": 0.0, "is_reserved": 0, "name": "b5c2959cd1bc28cea0fff66331ce198e", "is_disabled": 0}, {"rental_uris": {"ios": "https://dc.lft.to/lastmile_qr_scan", "android": "https://dc.lft.to/lastmile_qr_scan"}, "lat": 38.91032666666667, "bike_id": "32664a0a819cbc6d2b115ba60a8199b3", "lon": -77.041111, "type": "electric_scooter", "fusion_lon": 0.0, "fusion_lat": 0.0, "is_reserved": 0, "name": "32664a0a819cbc6d2b115ba60a8199b3", "is_disabled": 0}, {"rental_uris": {"ios": "https://dc.lft.to/lastmile_qr_scan", "android": "https://dc.lft.to/lastmile_qr_scan"}, "lat": 38.869589500000004, "bike_id": "664e331b9d7cc7b5549868010456acd1", "lon": -76.98176966666666, "type": "electric_scooter", "fusion_lon": 0.0, "fusion_lat": 0.0, "is_reserved": 0, "name": "664e331b9d7cc7b5549868010456acd1", "is_disabled": 0}, {"rental_uris": {"ios": "https://dc.lft.to/lastmile_qr_scan", "android": "https://dc.lft.to/lastmile_qr_scan"}, "lat": 38.91712, "bike_id": "1af940a8841d9a864333600d30a19f19", "lon": -77.0310175, "type": "electric_scooter", "fusion_lon": 0.0, "fusion_lat": 0.0, "is_reserved": 0, "name": "1af940a8841d9a864333600d30a19f19", "is_disabled": 0}, {"rental_uris": {"ios": "https://dc.lft.to/lastmile_qr_scan", "android": "https://dc.lft.to/lastmile_qr_scan"}, "lat": 38.89838866666667, "bike_id": "79a960e42ecd13b9ce5f2c56838e3db2", "lon": -77.03321983333333, "type": "electric_scooter", "fusion_lon": 0.0, "fusion_lat": 0.0, "is_reserved": 0, "name": "79a960e42ecd13b9ce5f2c56838e3db2", "is_disabled": 0}, {"rental_uris": {"ios": "https://dc.lft.to/lastmile_qr_scan", "android": "https://dc.lft.to/lastmile_qr_scan"}, "lat": 38.9262525, "bike_id": "0982a9caec33ccd006c4953ea5c6cac1", "lon": -77.03934533333333, "type": "electric_scooter", "fusion_lon": 0.0, "fusion_lat": 0.0, "is_reserved": 0, "name": "0982a9caec33ccd006c4953ea5c6cac1", "is_disabled": 0}, {"rental_uris": {"ios": "https://dc.lft.to/lastmile_qr_scan", "android": "https://dc.lft.to/lastmile_qr_scan"}, "lat": 38.89847666666667, "bike_id": "a2c3b2c1be279b7222c2e78ee1f35435", "lon": -76.97839183333333, "type": "electric_scooter", "fusion_lon": 0.0, "fusion_lat": 0.0, "is_reserved": 0, "name": "a2c3b2c1be279b7222c2e78ee1f35435", "is_disabled": 0}, {"rental_uris": {"ios": "https://dc.lft.to/lastmile_qr_scan", "android": "https://dc.lft.to/lastmile_qr_scan"}, "lat": 38.90961633333333, "bike_id": "f01fa4630ac741e636ee0067a6b52490", "lon": -77.04812466666667, "type": "electric_scooter", "fusion_lon": 0.0, "fusion_lat": 0.0, "is_reserved": 0, "name": "f01fa4630ac741e636ee0067a6b52490", "is_disabled": 0}, {"rental_uris": {"ios": "https://dc.lft.to/lastmile_qr_scan", "android": "https://dc.lft.to/lastmile_qr_scan"}, "lat": 38.909584, "bike_id": "aea5a42015448147a679b6c46d62398f", "lon": -77.22889116666667, "type": "electric_bike", "fusion_lon": 0.0, "fusion_lat": 0.0, "is_reserved": 0, "name": "aea5a42015448147a679b6c46d62398f", "is_disabled": 0}, {"rental_uris": {"ios": "https://dc.lft.to/lastmile_qr_scan", "android": "https://dc.lft.to/lastmile_qr_scan"}, "lat": 38.89633366666666, "bike_id": "87fed4f43702c40f5958ccf8dd50430d", "lon": -77.011516, "type": "electric_scooter", "fusion_lon": 0.0, "fusion_lat": 0.0, "is_reserved": 0, "name": "87fed4f43702c40f5958ccf8dd50430d", "is_disabled": 0}, {"rental_uris": {"ios": "https://dc.lft.to/lastmile_qr_scan", "android": "https://dc.lft.to/lastmile_qr_scan"}, "lat": 38.90271666666666, "bike_id": "aad62d6d919bf48268b46abd337dccbc", "lon": -77.01766166666667, "type": "electric_scooter", "fusion_lon": 0.0, "fusion_lat": 0.0, "is_reserved": 0, "name": "aad62d6d919bf48268b46abd337dccbc", "is_disabled": 0}, {"rental_uris": {"ios": "https://dc.lft.to/lastmile_qr_scan", "android": "https://dc.lft.to/lastmile_qr_scan"}, "lat": 38.905205, "bike_id": "9a4f1e20a7b562f4cccb51c956307873", "lon": -77.050592, "type": "electric_scooter", "fusion_lon": 0.0, "fusion_lat": 0.0, "is_reserved": 0, "name": "9a4f1e20a7b562f4cccb51c956307873", "is_disabled": 0}, {"rental_uris": {"ios": "https://dc.lft.to/lastmile_qr_scan", "android": "https://dc.lft.to/lastmile_qr_scan"}, "lat": 38.88488783333333, "bike_id": "1da163afca5740bd79a334ad913ea445", "lon": -77.00707866666667, "type": "electric_scooter", "fusion_lon": 0.0, "fusion_lat": 0.0, "is_reserved": 0, "name": "1da163afca5740bd79a334ad913ea445", "is_disabled": 0}, {"rental_uris": {"ios": "https://dc.lft.to/lastmile_qr_scan", "android": "https://dc.lft.to/lastmile_qr_scan"}, "lat": 38.90967366666667, "bike_id": "a4d958ca9d085a5e94cc4ca0da54a389", "lon": -77.01843566666666, "type": "electric_scooter", "fusion_lon": 0.0, "fusion_lat": 0.0, "is_reserved": 0, "name": "a4d958ca9d085a5e94cc4ca0da54a389", "is_disabled": 0}, {"rental_uris": {"ios": "https://dc.lft.to/lastmile_qr_scan", "android": "https://dc.lft.to/lastmile_qr_scan"}, "lat": 38.866582, "bike_id": "557291feefb6bac5e8c7b67c4ae00ba0", "lon": -76.98877016666667, "type": "electric_scooter", "fusion_lon": 0.0, "fusion_lat": 0.0, "is_reserved": 0, "name": "557291feefb6bac5e8c7b67c4ae00ba0", "is_disabled": 0}, {"rental_uris": {"ios": "https://dc.lft.to/lastmile_qr_scan", "android": "https://dc.lft.to/lastmile_qr_scan"}, "lat": 38.914100833333336, "bike_id": "cad64dae62080e63347733c22cfe46a4", "lon": -77.042814, "type": "electric_scooter", "fusion_lon": 0.0, "fusion_lat": 0.0, "is_reserved": 0, "name": "cad64dae62080e63347733c22cfe46a4", "is_disabled": 0}, {"rental_uris": {"ios": "https://dc.lft.to/lastmile_qr_scan", "android": "https://dc.lft.to/lastmile_qr_scan"}, "lat": 38.93024783333333, "bike_id": "3c5ccced221d8f87b4795da0ba8a6abf", "lon": -77.03784883333333, "type": "electric_scooter", "fusion_lon": 0.0, "fusion_lat": 0.0, "is_reserved": 0, "name": "3c5ccced221d8f87b4795da0ba8a6abf", "is_disabled": 0}, {"rental_uris": {"ios": "https://dc.lft.to/lastmile_qr_scan", "android": "https://dc.lft.to/lastmile_qr_scan"}, "lat": 38.8767935, "bike_id": "6e5cebcb5828ac767de16dedb5e8b121", "lon": -77.020074, "type": "electric_scooter", "fusion_lon": 0.0, "fusion_lat": 0.0, "is_reserved": 0, "name": "6e5cebcb5828ac767de16dedb5e8b121", "is_disabled": 0}, {"rental_uris": {"ios": "https://dc.lft.to/lastmile_qr_scan", "android": "https://dc.lft.to/lastmile_qr_scan"}, "lat": 38.87293433333333, "bike_id": "21e0c78bb53752c2740ba8615bb143a6", "lon": -77.011055, "type": "electric_bike", "fusion_lon": 0.0, "fusion_lat": 0.0, "is_reserved": 0, "name": "21e0c78bb53752c2740ba8615bb143a6", "is_disabled": 0}, {"rental_uris": {"ios": "https://dc.lft.to/lastmile_qr_scan", "android": "https://dc.lft.to/lastmile_qr_scan"}, "lat": 38.90145416666667, "bike_id": "b5726ca5979ae71ff767d8d77142ec04", "lon": -77.0336035, "type": "electric_scooter", "fusion_lon": 0.0, "fusion_lat": 0.0, "is_reserved": 0, "name": "b5726ca5979ae71ff767d8d77142ec04", "is_disabled": 0}, {"rental_uris": {"ios": "https://dc.lft.to/lastmile_qr_scan", "android": "https://dc.lft.to/lastmile_qr_scan"}, "lat": 38.902775, "bike_id": "ddbaaca663d843909b1ff904c4b687ff", "lon": -77.038261, "type": "electric_scooter", "fusion_lon": 0.0, "fusion_lat": 0.0, "is_reserved": 0, "name": "ddbaaca663d843909b1ff904c4b687ff", "is_disabled": 0}, {"rental_uris": {"ios": "https://dc.lft.to/lastmile_qr_scan", "android": "https://dc.lft.to/lastmile_qr_scan"}, "lat": 38.9174665, "bike_id": "9c879b2e20156fd317715487abf3abdf", "lon": -77.03643016666666, "type": "electric_scooter", "fusion_lon": 0.0, "fusion_lat": 0.0, "is_reserved": 0, "name": "9c879b2e20156fd317715487abf3abdf", "is_disabled": 0}, {"rental_uris": {"ios": "https://dc.lft.to/lastmile_qr_scan", "android": "https://dc.lft.to/lastmile_qr_scan"}, "lat": 38.920512333333335, "bike_id": "76aa75b1fee0df1bcf90773d16fe7070", "lon": -77.0418485, "type": "electric_scooter", "fusion_lon": 0.0, "fusion_lat": 0.0, "is_reserved": 0, "name": "76aa75b1fee0df1bcf90773d16fe7070", "is_disabled": 0}, {"rental_uris": {"ios": "https://dc.lft.to/lastmile_qr_scan", "android": "https://dc.lft.to/lastmile_qr_scan"}, "lat": 38.917608666666666, "bike_id": "d614989716ae4d730d83f80b57271361", "lon": -77.04770183333333, "type": "electric_scooter", "fusion_lon": 0.0, "fusion_lat": 0.0, "is_reserved": 0, "name": "d614989716ae4d730d83f80b57271361", "is_disabled": 0}, {"rental_uris": {"ios": "https://dc.lft.to/lastmile_qr_scan", "android": "https://dc.lft.to/lastmile_qr_scan"}, "lat": 38.89492633333333, "bike_id": "6086659f2c835230a75964da884471cc", "lon": -77.00251166666666, "type": "electric_scooter", "fusion_lon": 0.0, "fusion_lat": 0.0, "is_reserved": 0, "name": "6086659f2c835230a75964da884471cc", "is_disabled": 0}, {"rental_uris": {"ios": "https://dc.lft.to/lastmile_qr_scan", "android": "https://dc.lft.to/lastmile_qr_scan"}, "lat": 38.9649935, "bike_id": "d1baa1498d5f1e0ccd7c9ae4b73bd1d5", "lon": -77.00199216666667, "type": "electric_scooter", "fusion_lon": 0.0, "fusion_lat": 0.0, "is_reserved": 0, "name": "d1baa1498d5f1e0ccd7c9ae4b73bd1d5", "is_disabled": 0}, {"rental_uris": {"ios": "https://dc.lft.to/lastmile_qr_scan", "android": "https://dc.lft.to/lastmile_qr_scan"}, "lat": 38.90595716666667, "bike_id": "b45f3b9e7558a0d830e8e0ab4badecab", "lon": -77.04045016666667, "type": "electric_scooter", "fusion_lon": 0.0, "fusion_lat": 0.0, "is_reserved": 0, "name": "b45f3b9e7558a0d830e8e0ab4badecab", "is_disabled": 0}, {"rental_uris": {"ios": "https://dc.lft.to/lastmile_qr_scan", "android": "https://dc.lft.to/lastmile_qr_scan"}, "lat": 38.915686666666666, "bike_id": "0de1bbc47c5e7c2489bee54ad7d3ccdd", "lon": -77.03189116666667, "type": "electric_scooter", "fusion_lon": 0.0, "fusion_lat": 0.0, "is_reserved": 0, "name": "0de1bbc47c5e7c2489bee54ad7d3ccdd", "is_disabled": 0}, {"rental_uris": {"ios": "https://dc.lft.to/lastmile_qr_scan", "android": "https://dc.lft.to/lastmile_qr_scan"}, "lat": 38.92837883333333, "bike_id": "f2e0c2d48956b82f3d7a9278e6db9c5b", "lon": -77.014133, "type": "electric_scooter", "fusion_lon": 0.0, "fusion_lat": 0.0, "is_reserved": 0, "name": "f2e0c2d48956b82f3d7a9278e6db9c5b", "is_disabled": 0}, {"rental_uris": {"ios": "https://dc.lft.to/lastmile_qr_scan", "android": "https://dc.lft.to/lastmile_qr_scan"}, "lat": 38.86034083333333, "bike_id": "fe0b640bb1f7f91a719312cac0191a33", "lon": -76.96708716666667, "type": "electric_scooter", "fusion_lon": 0.0, "fusion_lat": 0.0, "is_reserved": 0, "name": "fe0b640bb1f7f91a719312cac0191a33", "is_disabled": 0}, {"rental_uris": {"ios": "https://dc.lft.to/lastmile_qr_scan", "android": "https://dc.lft.to/lastmile_qr_scan"}, "lat": 38.90325983333334, "bike_id": "dc21ac77bd69dbbb1ce170c24d02f938", "lon": -77.04004766666667, "type": "electric_scooter", "fusion_lon": 0.0, "fusion_lat": 0.0, "is_reserved": 0, "name": "dc21ac77bd69dbbb1ce170c24d02f938", "is_disabled": 0}, {"rental_uris": {"ios": "https://dc.lft.to/lastmile_qr_scan", "android": "https://dc.lft.to/lastmile_qr_scan"}, "lat": 38.92458333333333, "bike_id": "4a4f237740b08ad137869db6ba9b6a42", "lon": -77.0215475, "type": "electric_scooter", "fusion_lon": 0.0, "fusion_lat": 0.0, "is_reserved": 0, "name": "4a4f237740b08ad137869db6ba9b6a42", "is_disabled": 0}, {"rental_uris": {"ios": "https://dc.lft.to/lastmile_qr_scan", "android": "https://dc.lft.to/lastmile_qr_scan"}, "lat": 38.921318166666666, "bike_id": "f63640967b46a3cf1a445fde86ebf092", "lon": -77.00402466666667, "type": "electric_scooter", "fusion_lon": 0.0, "fusion_lat": 0.0, "is_reserved": 0, "name": "f63640967b46a3cf1a445fde86ebf092", "is_disabled": 0}, {"rental_uris": {"ios": "https://dc.lft.to/lastmile_qr_scan", "android": "https://dc.lft.to/lastmile_qr_scan"}, "lat": 38.916420333333335, "bike_id": "a8aff32e386b98abf91f8cc56066f464", "lon": -77.08861183333333, "type": "electric_scooter", "fusion_lon": 0.0, "fusion_lat": 0.0, "is_reserved": 0, "name": "a8aff32e386b98abf91f8cc56066f464", "is_disabled": 0}, {"rental_uris": {"ios": "https://dc.lft.to/lastmile_qr_scan", "android": "https://dc.lft.to/lastmile_qr_scan"}, "lat": 38.89744616666667, "bike_id": "c232e4a71706fbfa5e6ece3895ad83e6", "lon": -76.98145533333333, "type": "electric_scooter", "fusion_lon": 0.0, "fusion_lat": 0.0, "is_reserved": 0, "name": "c232e4a71706fbfa5e6ece3895ad83e6", "is_disabled": 0}, {"rental_uris": {"ios": "https://dc.lft.to/lastmile_qr_scan", "android": "https://dc.lft.to/lastmile_qr_scan"}, "lat": 38.925391833333336, "bike_id": "64e309832fe2b5160c8c589a119c053d", "lon": -77.00716716666666, "type": "electric_scooter", "fusion_lon": 0.0, "fusion_lat": 0.0, "is_reserved": 0, "name": "64e309832fe2b5160c8c589a119c053d", "is_disabled": 0}, {"rental_uris": {"ios": "https://dc.lft.to/lastmile_qr_scan", "android": "https://dc.lft.to/lastmile_qr_scan"}, "lat": 38.896119666666664, "bike_id": "4b29029a5896403dbff1a557be50234b", "lon": -77.02212466666667, "type": "electric_scooter", "fusion_lon": 0.0, "fusion_lat": 0.0, "is_reserved": 0, "name": "4b29029a5896403dbff1a557be50234b", "is_disabled": 0}, {"rental_uris": {"ios": "https://dc.lft.to/lastmile_qr_scan", "android": "https://dc.lft.to/lastmile_qr_scan"}, "lat": 38.861916, "bike_id": "a6a4e645c936efb7944a7c6e51517186", "lon": -76.95948083333333, "type": "electric_scooter", "fusion_lon": 0.0, "fusion_lat": 0.0, "is_reserved": 0, "name": "a6a4e645c936efb7944a7c6e51517186", "is_disabled": 0}, {"rental_uris": {"ios": "https://dc.lft.to/lastmile_qr_scan", "android": "https://dc.lft.to/lastmile_qr_scan"}, "lat": 38.90575883333333, "bike_id": "1129ab9ce87ae3e966ae06afc50879bf", "lon": -77.04322433333333, "type": "electric_scooter", "fusion_lon": 0.0, "fusion_lat": 0.0, "is_reserved": 0, "name": "1129ab9ce87ae3e966ae06afc50879bf", "is_disabled": 0}, {"rental_uris": {"ios": "https://dc.lft.to/lastmile_qr_scan", "android": "https://dc.lft.to/lastmile_qr_scan"}, "lat": 38.943246333333335, "bike_id": "6eddedc898afe337d537ac71e6d1bed5", "lon": -77.07656983333334, "type": "electric_scooter", "fusion_lon": 0.0, "fusion_lat": 0.0, "is_reserved": 0, "name": "6eddedc898afe337d537ac71e6d1bed5", "is_disabled": 0}, {"rental_uris": {"ios": "https://dc.lft.to/lastmile_qr_scan", "android": "https://dc.lft.to/lastmile_qr_scan"}, "lat": 38.91331316666667, "bike_id": "99b8fee370a10d61abffe36f0f8b7539", "lon": -77.04575133333333, "type": "electric_scooter", "fusion_lon": 0.0, "fusion_lat": 0.0, "is_reserved": 0, "name": "99b8fee370a10d61abffe36f0f8b7539", "is_disabled": 0}, {"rental_uris": {"ios": "https://dc.lft.to/lastmile_qr_scan", "android": "https://dc.lft.to/lastmile_qr_scan"}, "lat": 38.93656633333333, "bike_id": "d21c57f5f8fa48e2ba383d82275a3cef", "lon": -77.0238415, "type": "electric_scooter", "fusion_lon": 0.0, "fusion_lat": 0.0, "is_reserved": 0, "name": "d21c57f5f8fa48e2ba383d82275a3cef", "is_disabled": 0}, {"rental_uris": {"ios": "https://dc.lft.to/lastmile_qr_scan", "android": "https://dc.lft.to/lastmile_qr_scan"}, "lat": 38.94220516666667, "bike_id": "0963ae944e2c6e3e14dab82cf5589a25", "lon": -77.0296055, "type": "electric_scooter", "fusion_lon": 0.0, "fusion_lat": 0.0, "is_reserved": 0, "name": "0963ae944e2c6e3e14dab82cf5589a25", "is_disabled": 0}, {"rental_uris": {"ios": "https://dc.lft.to/lastmile_qr_scan", "android": "https://dc.lft.to/lastmile_qr_scan"}, "lat": 38.9342375, "bike_id": "44f77e956a5dd75b3e992e9908245076", "lon": -77.03999883333333, "type": "electric_scooter", "fusion_lon": 0.0, "fusion_lat": 0.0, "is_reserved": 0, "name": "44f77e956a5dd75b3e992e9908245076", "is_disabled": 0}, {"rental_uris": {"ios": "https://dc.lft.to/lastmile_qr_scan", "android": "https://dc.lft.to/lastmile_qr_scan"}, "lat": 38.908552, "bike_id": "68c92f17d7937c1e6ae08bddd0b8a746", "lon": -77.0432385, "type": "electric_scooter", "fusion_lon": 0.0, "fusion_lat": 0.0, "is_reserved": 0, "name": "68c92f17d7937c1e6ae08bddd0b8a746", "is_disabled": 0}, {"rental_uris": {"ios": "https://dc.lft.to/lastmile_qr_scan", "android": "https://dc.lft.to/lastmile_qr_scan"}, "lat": 38.90135766666667, "bike_id": "805a8ff7bee5045fd0add712a0c89b40", "lon": -77.04164833333333, "type": "electric_scooter", "fusion_lon": 0.0, "fusion_lat": 0.0, "is_reserved": 0, "name": "805a8ff7bee5045fd0add712a0c89b40", "is_disabled": 0}, {"rental_uris": {"ios": "https://dc.lft.to/lastmile_qr_scan", "android": "https://dc.lft.to/lastmile_qr_scan"}, "lat": 38.897162, "bike_id": "186b84b12712cd382a96f06ea3ba66b9", "lon": -77.02716416666667, "type": "electric_scooter", "fusion_lon": 0.0, "fusion_lat": 0.0, "is_reserved": 0, "name": "186b84b12712cd382a96f06ea3ba66b9", "is_disabled": 0}, {"rental_uris": {"ios": "https://dc.lft.to/lastmile_qr_scan", "android": "https://dc.lft.to/lastmile_qr_scan"}, "lat": 38.87373483333333, "bike_id": "191ff0c129b0fa4409ba3facfc4a9860", "lon": -77.00112216666666, "type": "electric_scooter", "fusion_lon": 0.0, "fusion_lat": 0.0, "is_reserved": 0, "name": "191ff0c129b0fa4409ba3facfc4a9860", "is_disabled": 0}, {"rental_uris": {"ios": "https://dc.lft.to/lastmile_qr_scan", "android": "https://dc.lft.to/lastmile_qr_scan"}, "lat": 38.926077666666664, "bike_id": "fb1228822d16f0caa444e0c43f78263d", "lon": -77.02160266666667, "type": "electric_scooter", "fusion_lon": 0.0, "fusion_lat": 0.0, "is_reserved": 0, "name": "fb1228822d16f0caa444e0c43f78263d", "is_disabled": 0}, {"rental_uris": {"ios": "https://dc.lft.to/lastmile_qr_scan", "android": "https://dc.lft.to/lastmile_qr_scan"}, "lat": 38.90972683333333, "bike_id": "504a41db3e6dc54bf097502228f59e61", "lon": -77.0384145, "type": "electric_scooter", "fusion_lon": 0.0, "fusion_lat": 0.0, "is_reserved": 0, "name": "504a41db3e6dc54bf097502228f59e61", "is_disabled": 0}, {"rental_uris": {"ios": "https://dc.lft.to/lastmile_qr_scan", "android": "https://dc.lft.to/lastmile_qr_scan"}, "lat": 38.90521066666667, "bike_id": "647fa789c2333acb5bd6069dc53abb4a", "lon": -77.06449666666667, "type": "electric_scooter", "fusion_lon": 0.0, "fusion_lat": 0.0, "is_reserved": 0, "name": "647fa789c2333acb5bd6069dc53abb4a", "is_disabled": 0}, {"rental_uris": {"ios": "https://dc.lft.to/lastmile_qr_scan", "android": "https://dc.lft.to/lastmile_qr_scan"}, "lat": 38.9087105, "bike_id": "a8f229a045347cef568d8d736e3d274c", "lon": -76.99129566666667, "type": "electric_bike", "fusion_lon": 0.0, "fusion_lat": 0.0, "is_reserved": 0, "name": "a8f229a045347cef568d8d736e3d274c", "is_disabled": 0}, {"rental_uris": {"ios": "https://dc.lft.to/lastmile_qr_scan", "android": "https://dc.lft.to/lastmile_qr_scan"}, "lat": 38.895317666666664, "bike_id": "ad76eda6ac751ae55a26e55949195fe7", "lon": -76.948885, "type": "electric_scooter", "fusion_lon": 0.0, "fusion_lat": 0.0, "is_reserved": 0, "name": "ad76eda6ac751ae55a26e55949195fe7", "is_disabled": 0}, {"rental_uris": {"ios": "https://dc.lft.to/lastmile_qr_scan", "android": "https://dc.lft.to/lastmile_qr_scan"}, "lat": 38.89240016666667, "bike_id": "cb69902beffc62e759b3a92e3827be00", "lon": -77.03186166666667, "type": "electric_scooter", "fusion_lon": 0.0, "fusion_lat": 0.0, "is_reserved": 0, "name": "cb69902beffc62e759b3a92e3827be00", "is_disabled": 0}, {"rental_uris": {"ios": "https://dc.lft.to/lastmile_qr_scan", "android": "https://dc.lft.to/lastmile_qr_scan"}, "lat": 38.892342166666666, "bike_id": "78e000e866c6caa6c1e0f329cdfd3787", "lon": -77.03206533333334, "type": "electric_scooter", "fusion_lon": 0.0, "fusion_lat": 0.0, "is_reserved": 0, "name": "78e000e866c6caa6c1e0f329cdfd3787", "is_disabled": 0}, {"rental_uris": {"ios": "https://dc.lft.to/lastmile_qr_scan", "android": "https://dc.lft.to/lastmile_qr_scan"}, "lat": 38.9342815, "bike_id": "79cf848e8743faae136db4f566d3b5a9", "lon": -77.04002816666667, "type": "electric_scooter", "fusion_lon": 0.0, "fusion_lat": 0.0, "is_reserved": 0, "name": "79cf848e8743faae136db4f566d3b5a9", "is_disabled": 0}, {"rental_uris": {"ios": "https://dc.lft.to/lastmile_qr_scan", "android": "https://dc.lft.to/lastmile_qr_scan"}, "lat": 38.891815, "bike_id": "88e68f87d7bd3d85a853e6df00b26069", "lon": -76.99480283333334, "type": "electric_scooter", "fusion_lon": 0.0, "fusion_lat": 0.0, "is_reserved": 0, "name": "88e68f87d7bd3d85a853e6df00b26069", "is_disabled": 0}, {"rental_uris": {"ios": "https://dc.lft.to/lastmile_qr_scan", "android": "https://dc.lft.to/lastmile_qr_scan"}, "lat": 38.9278475, "bike_id": "c98a1233ddfe93436c393c1ddca8dced", "lon": -77.05258683333334, "type": "electric_scooter", "fusion_lon": 0.0, "fusion_lat": 0.0, "is_reserved": 0, "name": "c98a1233ddfe93436c393c1ddca8dced", "is_disabled": 0}, {"rental_uris": {"ios": "https://dc.lft.to/lastmile_qr_scan", "android": "https://dc.lft.to/lastmile_qr_scan"}, "lat": 38.9077595, "bike_id": "297ae686471fe01fd5d027795c5348d5", "lon": -77.07166466666666, "type": "electric_scooter", "fusion_lon": 0.0, "fusion_lat": 0.0, "is_reserved": 0, "name": "297ae686471fe01fd5d027795c5348d5", "is_disabled": 0}, {"rental_uris": {"ios": "https://dc.lft.to/lastmile_qr_scan", "android": "https://dc.lft.to/lastmile_qr_scan"}, "lat": 38.9006495, "bike_id": "533d98ddc70f50320978bc7e98da6777", "lon": -77.045371, "type": "electric_scooter", "fusion_lon": 0.0, "fusion_lat": 0.0, "is_reserved": 0, "name": "533d98ddc70f50320978bc7e98da6777", "is_disabled": 0}, {"rental_uris": {"ios": "https://dc.lft.to/lastmile_qr_scan", "android": "https://dc.lft.to/lastmile_qr_scan"}, "lat": 39.042330666666665, "bike_id": "4c27fb9b7411985689af139e203c5f8b", "lon": -76.9973725, "type": "electric_bike", "fusion_lon": 0.0, "fusion_lat": 0.0, "is_reserved": 0, "name": "4c27fb9b7411985689af139e203c5f8b", "is_disabled": 0}, {"rental_uris": {"ios": "https://dc.lft.to/lastmile_qr_scan", "android": "https://dc.lft.to/lastmile_qr_scan"}, "lat": 38.91568983333333, "bike_id": "3865a89e69371bedf7f90be759ddc2ff", "lon": -77.01190383333334, "type": "electric_scooter", "fusion_lon": 0.0, "fusion_lat": 0.0, "is_reserved": 0, "name": "3865a89e69371bedf7f90be759ddc2ff", "is_disabled": 0}, {"rental_uris": {"ios": "https://dc.lft.to/lastmile_qr_scan", "android": "https://dc.lft.to/lastmile_qr_scan"}, "lat": 38.923551333333336, "bike_id": "c47c4d7a212c9e68cb81669e1032b4b8", "lon": -77.0330445, "type": "electric_scooter", "fusion_lon": 0.0, "fusion_lat": 0.0, "is_reserved": 0, "name": "c47c4d7a212c9e68cb81669e1032b4b8", "is_disabled": 0}, {"rental_uris": {"ios": "https://dc.lft.to/lastmile_qr_scan", "android": "https://dc.lft.to/lastmile_qr_scan"}, "lat": 38.90036283333333, "bike_id": "2b7f810b47d0a573303be00217229df0", "lon": -77.00574116666667, "type": "electric_scooter", "fusion_lon": 0.0, "fusion_lat": 0.0, "is_reserved": 0, "name": "2b7f810b47d0a573303be00217229df0", "is_disabled": 0}, {"rental_uris": {"ios": "https://dc.lft.to/lastmile_qr_scan", "android": "https://dc.lft.to/lastmile_qr_scan"}, "lat": 38.92259266666667, "bike_id": "543a7b19fd2ca432b05c5a157d5f137c", "lon": -77.0366365, "type": "electric_scooter", "fusion_lon": 0.0, "fusion_lat": 0.0, "is_reserved": 0, "name": "543a7b19fd2ca432b05c5a157d5f137c", "is_disabled": 0}, {"rental_uris": {"ios": "https://dc.lft.to/lastmile_qr_scan", "android": "https://dc.lft.to/lastmile_qr_scan"}, "lat": 38.9112535, "bike_id": "b2c75572162bceb0f17e39ac0a995c85", "lon": -77.021977, "type": "electric_scooter", "fusion_lon": 0.0, "fusion_lat": 0.0, "is_reserved": 0, "name": "b2c75572162bceb0f17e39ac0a995c85", "is_disabled": 0}, {"rental_uris": {"ios": "https://dc.lft.to/lastmile_qr_scan", "android": "https://dc.lft.to/lastmile_qr_scan"}, "lat": 38.9194735, "bike_id": "809f604746bb159941c2b76d7c0db690", "lon": -77.01888766666667, "type": "electric_scooter", "fusion_lon": 0.0, "fusion_lat": 0.0, "is_reserved": 0, "name": "809f604746bb159941c2b76d7c0db690", "is_disabled": 0}, {"rental_uris": {"ios": "https://dc.lft.to/lastmile_qr_scan", "android": "https://dc.lft.to/lastmile_qr_scan"}, "lat": 38.900611, "bike_id": "a12b9807efe21a83b7492aefcd32347b", "lon": -76.9962725, "type": "electric_scooter", "fusion_lon": 0.0, "fusion_lat": 0.0, "is_reserved": 0, "name": "a12b9807efe21a83b7492aefcd32347b", "is_disabled": 0}, {"rental_uris": {"ios": "https://dc.lft.to/lastmile_qr_scan", "android": "https://dc.lft.to/lastmile_qr_scan"}, "lat": 38.908765333333335, "bike_id": "78bdb2e8d979a11ad2e565ed7fee632b", "lon": -77.034669, "type": "electric_scooter", "fusion_lon": 0.0, "fusion_lat": 0.0, "is_reserved": 0, "name": "78bdb2e8d979a11ad2e565ed7fee632b", "is_disabled": 0}, {"rental_uris": {"ios": "https://dc.lft.to/lastmile_qr_scan", "android": "https://dc.lft.to/lastmile_qr_scan"}, "lat": 38.87711983333333, "bike_id": "cb69e877789b3ae21fe9af1acb523005", "lon": -77.01781016666666, "type": "electric_scooter", "fusion_lon": 0.0, "fusion_lat": 0.0, "is_reserved": 0, "name": "cb69e877789b3ae21fe9af1acb523005", "is_disabled": 0}, {"rental_uris": {"ios": "https://dc.lft.to/lastmile_qr_scan", "android": "https://dc.lft.to/lastmile_qr_scan"}, "lat": 38.91742716666667, "bike_id": "17a16d9fc41b249f38e15d20291b7920", "lon": -77.03180366666666, "type": "electric_scooter", "fusion_lon": 0.0, "fusion_lat": 0.0, "is_reserved": 0, "name": "17a16d9fc41b249f38e15d20291b7920", "is_disabled": 0}, {"rental_uris": {"ios": "https://dc.lft.to/lastmile_qr_scan", "android": "https://dc.lft.to/lastmile_qr_scan"}, "lat": 38.917083833333336, "bike_id": "7454ca89531b63ff00082497334ec620", "lon": -77.02298766666667, "type": "electric_scooter", "fusion_lon": 0.0, "fusion_lat": 0.0, "is_reserved": 0, "name": "7454ca89531b63ff00082497334ec620", "is_disabled": 0}, {"rental_uris": {"ios": "https://dc.lft.to/lastmile_qr_scan", "android": "https://dc.lft.to/lastmile_qr_scan"}, "lat": 38.900518, "bike_id": "2a43cdd5eda1422b03a9a0152417a2ef", "lon": -77.05051683333333, "type": "electric_scooter", "fusion_lon": 0.0, "fusion_lat": 0.0, "is_reserved": 0, "name": "2a43cdd5eda1422b03a9a0152417a2ef", "is_disabled": 0}, {"rental_uris": {"ios": "https://dc.lft.to/lastmile_qr_scan", "android": "https://dc.lft.to/lastmile_qr_scan"}, "lat": 38.89992616666667, "bike_id": "3eccfb90d2108bbc6755c578f5128173", "lon": -77.00668016666667, "type": "electric_scooter", "fusion_lon": 0.0, "fusion_lat": 0.0, "is_reserved": 0, "name": "3eccfb90d2108bbc6755c578f5128173", "is_disabled": 0}, {"rental_uris": {"ios": "https://dc.lft.to/lastmile_qr_scan", "android": "https://dc.lft.to/lastmile_qr_scan"}, "lat": 38.905744166666665, "bike_id": "b853f5367d338b650054f3e57bde93a3", "lon": -77.007838, "type": "electric_scooter", "fusion_lon": 0.0, "fusion_lat": 0.0, "is_reserved": 0, "name": "b853f5367d338b650054f3e57bde93a3", "is_disabled": 0}, {"rental_uris": {"ios": "https://dc.lft.to/lastmile_qr_scan", "android": "https://dc.lft.to/lastmile_qr_scan"}, "lat": 38.8636955, "bike_id": "ddffd66faed85a6cd864a3655aab0651", "lon": -76.99062066666667, "type": "electric_scooter", "fusion_lon": 0.0, "fusion_lat": 0.0, "is_reserved": 0, "name": "ddffd66faed85a6cd864a3655aab0651", "is_disabled": 0}, {"rental_uris": {"ios": "https://dc.lft.to/lastmile_qr_scan", "android": "https://dc.lft.to/lastmile_qr_scan"}, "lat": 38.9096845, "bike_id": "50c5e9b9f194e182a895da02b76b7823", "lon": -77.01105666666666, "type": "electric_scooter", "fusion_lon": 0.0, "fusion_lat": 0.0, "is_reserved": 0, "name": "50c5e9b9f194e182a895da02b76b7823", "is_disabled": 0}, {"rental_uris": {"ios": "https://dc.lft.to/lastmile_qr_scan", "android": "https://dc.lft.to/lastmile_qr_scan"}, "lat": 38.90087666666667, "bike_id": "8e9751712a8a339933ab4255b905b81b", "lon": -77.01208133333333, "type": "electric_scooter", "fusion_lon": 0.0, "fusion_lat": 0.0, "is_reserved": 0, "name": "8e9751712a8a339933ab4255b905b81b", "is_disabled": 0}, {"rental_uris": {"ios": "https://dc.lft.to/lastmile_qr_scan", "android": "https://dc.lft.to/lastmile_qr_scan"}, "lat": 38.875017166666666, "bike_id": "248513733a8a2d1925494fa3e6b38e38", "lon": -76.99999933333334, "type": "electric_scooter", "fusion_lon": 0.0, "fusion_lat": 0.0, "is_reserved": 0, "name": "248513733a8a2d1925494fa3e6b38e38", "is_disabled": 0}, {"rental_uris": {"ios": "https://dc.lft.to/lastmile_qr_scan", "android": "https://dc.lft.to/lastmile_qr_scan"}, "lat": 38.89267, "bike_id": "ec4f81a63ab917f172e1ee562ca833af", "lon": -77.00131466666667, "type": "electric_scooter", "fusion_lon": 0.0, "fusion_lat": 0.0, "is_reserved": 0, "name": "ec4f81a63ab917f172e1ee562ca833af", "is_disabled": 0}, {"rental_uris": {"ios": "https://dc.lft.to/lastmile_qr_scan", "android": "https://dc.lft.to/lastmile_qr_scan"}, "lat": 38.922318, "bike_id": "e68da276810bcd6ee0f31d31257971a6", "lon": -77.02975066666667, "type": "electric_scooter", "fusion_lon": 0.0, "fusion_lat": 0.0, "is_reserved": 0, "name": "e68da276810bcd6ee0f31d31257971a6", "is_disabled": 0}, {"rental_uris": {"ios": "https://dc.lft.to/lastmile_qr_scan", "android": "https://dc.lft.to/lastmile_qr_scan"}, "lat": 38.919259833333335, "bike_id": "15a0a50887ecc21e6058bcc376463fc8", "lon": -77.02505366666666, "type": "electric_scooter", "fusion_lon": 0.0, "fusion_lat": 0.0, "is_reserved": 0, "name": "15a0a50887ecc21e6058bcc376463fc8", "is_disabled": 0}, {"rental_uris": {"ios": "https://dc.lft.to/lastmile_qr_scan", "android": "https://dc.lft.to/lastmile_qr_scan"}, "lat": 38.92503633333333, "bike_id": "d411970b0c0b7eb23a1bc17f6f92ba81", "lon": -77.02276516666667, "type": "electric_scooter", "fusion_lon": 0.0, "fusion_lat": 0.0, "is_reserved": 0, "name": "d411970b0c0b7eb23a1bc17f6f92ba81", "is_disabled": 0}, {"rental_uris": {"ios": "https://dc.lft.to/lastmile_qr_scan", "android": "https://dc.lft.to/lastmile_qr_scan"}, "lat": 38.902781166666664, "bike_id": "fc2c0cdff36498c0af035f0887160f5c", "lon": -77.0383485, "type": "electric_scooter", "fusion_lon": 0.0, "fusion_lat": 0.0, "is_reserved": 0, "name": "fc2c0cdff36498c0af035f0887160f5c", "is_disabled": 0}, {"rental_uris": {"ios": "https://dc.lft.to/lastmile_qr_scan", "android": "https://dc.lft.to/lastmile_qr_scan"}, "lat": 38.90026233333333, "bike_id": "cdaa2ef227e1cf93761b9308d46cac21", "lon": -77.02845733333334, "type": "electric_scooter", "fusion_lon": 0.0, "fusion_lat": 0.0, "is_reserved": 0, "name": "cdaa2ef227e1cf93761b9308d46cac21", "is_disabled": 0}, {"rental_uris": {"ios": "https://dc.lft.to/lastmile_qr_scan", "android": "https://dc.lft.to/lastmile_qr_scan"}, "lat": 38.904877166666665, "bike_id": "0b63253f45f9945ed41d7d46f600ff21", "lon": -77.03427533333333, "type": "electric_scooter", "fusion_lon": 0.0, "fusion_lat": 0.0, "is_reserved": 0, "name": "0b63253f45f9945ed41d7d46f600ff21", "is_disabled": 0}, {"rental_uris": {"ios": "https://dc.lft.to/lastmile_qr_scan", "android": "https://dc.lft.to/lastmile_qr_scan"}, "lat": 38.9245815, "bike_id": "b556db596da6012886ae33f461d3bee5", "lon": -77.02978033333333, "type": "electric_scooter", "fusion_lon": 0.0, "fusion_lat": 0.0, "is_reserved": 0, "name": "b556db596da6012886ae33f461d3bee5", "is_disabled": 0}, {"rental_uris": {"ios": "https://dc.lft.to/lastmile_qr_scan", "android": "https://dc.lft.to/lastmile_qr_scan"}, "lat": 38.89630483333333, "bike_id": "964eeb8dffc74194b3b788e4eaf02e5a", "lon": -77.02939583333334, "type": "electric_scooter", "fusion_lon": 0.0, "fusion_lat": 0.0, "is_reserved": 0, "name": "964eeb8dffc74194b3b788e4eaf02e5a", "is_disabled": 0}, {"rental_uris": {"ios": "https://dc.lft.to/lastmile_qr_scan", "android": "https://dc.lft.to/lastmile_qr_scan"}, "lat": 38.89793066666667, "bike_id": "66e49fcd50b22a7a3ee81a0b6b52bea2", "lon": -77.011878, "type": "electric_scooter", "fusion_lon": 0.0, "fusion_lat": 0.0, "is_reserved": 0, "name": "66e49fcd50b22a7a3ee81a0b6b52bea2", "is_disabled": 0}, {"rental_uris": {"ios": "https://dc.lft.to/lastmile_qr_scan", "android": "https://dc.lft.to/lastmile_qr_scan"}, "lat": 38.9236375, "bike_id": "5f69b49eddf43784f64e4da54444034b", "lon": -77.05027316666667, "type": "electric_scooter", "fusion_lon": 0.0, "fusion_lat": 0.0, "is_reserved": 0, "name": "5f69b49eddf43784f64e4da54444034b", "is_disabled": 0}, {"rental_uris": {"ios": "https://dc.lft.to/lastmile_qr_scan", "android": "https://dc.lft.to/lastmile_qr_scan"}, "lat": 38.89726733333333, "bike_id": "2329ad3a180e7f8be07ccafc541c5df1", "lon": -77.031583, "type": "electric_scooter", "fusion_lon": 0.0, "fusion_lat": 0.0, "is_reserved": 0, "name": "2329ad3a180e7f8be07ccafc541c5df1", "is_disabled": 0}, {"rental_uris": {"ios": "https://dc.lft.to/lastmile_qr_scan", "android": "https://dc.lft.to/lastmile_qr_scan"}, "lat": 38.94258416666667, "bike_id": "30f889418d3a82613608863a4cbe40bf", "lon": -77.02843083333333, "type": "electric_scooter", "fusion_lon": 0.0, "fusion_lat": 0.0, "is_reserved": 0, "name": "30f889418d3a82613608863a4cbe40bf", "is_disabled": 0}, {"rental_uris": {"ios": "https://dc.lft.to/lastmile_qr_scan", "android": "https://dc.lft.to/lastmile_qr_scan"}, "lat": 38.8650485, "bike_id": "21e0d122e2b9e2913bceec987ddf2f83", "lon": -76.9900895, "type": "electric_scooter", "fusion_lon": 0.0, "fusion_lat": 0.0, "is_reserved": 0, "name": "21e0d122e2b9e2913bceec987ddf2f83", "is_disabled": 0}, {"rental_uris": {"ios": "https://dc.lft.to/lastmile_qr_scan", "android": "https://dc.lft.to/lastmile_qr_scan"}, "lat": 38.89219466666667, "bike_id": "c6f08e3ae3192f4275fa713833afe664", "lon": -77.03218983333333, "type": "electric_scooter", "fusion_lon": 0.0, "fusion_lat": 0.0, "is_reserved": 0, "name": "c6f08e3ae3192f4275fa713833afe664", "is_disabled": 0}, {"rental_uris": {"ios": "https://dc.lft.to/lastmile_qr_scan", "android": "https://dc.lft.to/lastmile_qr_scan"}, "lat": 38.9052675, "bike_id": "baa934f690469564434d24c87861f744", "lon": -77.00571733333334, "type": "electric_scooter", "fusion_lon": 0.0, "fusion_lat": 0.0, "is_reserved": 0, "name": "baa934f690469564434d24c87861f744", "is_disabled": 0}, {"rental_uris": {"ios": "https://dc.lft.to/lastmile_qr_scan", "android": "https://dc.lft.to/lastmile_qr_scan"}, "lat": 38.9039855, "bike_id": "cb9cc52ccf158d46529baf6e9eb3d219", "lon": -77.035813, "type": "electric_scooter", "fusion_lon": 0.0, "fusion_lat": 0.0, "is_reserved": 0, "name": "cb9cc52ccf158d46529baf6e9eb3d219", "is_disabled": 0}, {"rental_uris": {"ios": "https://dc.lft.to/lastmile_qr_scan", "android": "https://dc.lft.to/lastmile_qr_scan"}, "lat": 38.896258833333334, "bike_id": "19ad28ac61d608a3b15092fa3d1a8e5d", "lon": -77.04500916666667, "type": "electric_scooter", "fusion_lon": 0.0, "fusion_lat": 0.0, "is_reserved": 0, "name": "19ad28ac61d608a3b15092fa3d1a8e5d", "is_disabled": 0}, {"rental_uris": {"ios": "https://dc.lft.to/lastmile_qr_scan", "android": "https://dc.lft.to/lastmile_qr_scan"}, "lat": 38.914167666666664, "bike_id": "36d2a2718f3d2356c7ffd5a915467bf2", "lon": -77.0317565, "type": "electric_scooter", "fusion_lon": 0.0, "fusion_lat": 0.0, "is_reserved": 0, "name": "36d2a2718f3d2356c7ffd5a915467bf2", "is_disabled": 0}, {"rental_uris": {"ios": "https://dc.lft.to/lastmile_qr_scan", "android": "https://dc.lft.to/lastmile_qr_scan"}, "lat": 38.906521, "bike_id": "e32af063b43d724c715e3d0a4763d317", "lon": -77.0390155, "type": "electric_scooter", "fusion_lon": 0.0, "fusion_lat": 0.0, "is_reserved": 0, "name": "e32af063b43d724c715e3d0a4763d317", "is_disabled": 0}, {"rental_uris": {"ios": "https://dc.lft.to/lastmile_qr_scan", "android": "https://dc.lft.to/lastmile_qr_scan"}, "lat": 38.90604966666667, "bike_id": "451fcaece1b7cd5de7888eeae974b638", "lon": -77.039751, "type": "electric_scooter", "fusion_lon": 0.0, "fusion_lat": 0.0, "is_reserved": 0, "name": "451fcaece1b7cd5de7888eeae974b638", "is_disabled": 0}, {"rental_uris": {"ios": "https://dc.lft.to/lastmile_qr_scan", "android": "https://dc.lft.to/lastmile_qr_scan"}, "lat": 38.908801, "bike_id": "8b6786d89ca7cf3bae4e37dc5b31c6b3", "lon": -77.0753475, "type": "electric_scooter", "fusion_lon": 0.0, "fusion_lat": 0.0, "is_reserved": 0, "name": "8b6786d89ca7cf3bae4e37dc5b31c6b3", "is_disabled": 0}, {"rental_uris": {"ios": "https://dc.lft.to/lastmile_qr_scan", "android": "https://dc.lft.to/lastmile_qr_scan"}, "lat": 38.91105, "bike_id": "8c7cafabd2574258712072f85fe6fbf4", "lon": -77.042287, "type": "electric_scooter", "fusion_lon": 0.0, "fusion_lat": 0.0, "is_reserved": 0, "name": "8c7cafabd2574258712072f85fe6fbf4", "is_disabled": 0}, {"rental_uris": {"ios": "https://dc.lft.to/lastmile_qr_scan", "android": "https://dc.lft.to/lastmile_qr_scan"}, "lat": 38.90790766666667, "bike_id": "73725f21e157757e8784a4451785c10f", "lon": -76.99698166666667, "type": "electric_scooter", "fusion_lon": 0.0, "fusion_lat": 0.0, "is_reserved": 0, "name": "73725f21e157757e8784a4451785c10f", "is_disabled": 0}, {"rental_uris": {"ios": "https://dc.lft.to/lastmile_qr_scan", "android": "https://dc.lft.to/lastmile_qr_scan"}, "lat": 38.901498833333335, "bike_id": "35dce6e576b17c6de5ab1d2a6bd95290", "lon": -77.04148516666666, "type": "electric_scooter", "fusion_lon": 0.0, "fusion_lat": 0.0, "is_reserved": 0, "name": "35dce6e576b17c6de5ab1d2a6bd95290", "is_disabled": 0}, {"rental_uris": {"ios": "https://dc.lft.to/lastmile_qr_scan", "android": "https://dc.lft.to/lastmile_qr_scan"}, "lat": 38.9287815, "bike_id": "cb8371fa0d37cf95eadc769cb466669b", "lon": -77.033491, "type": "electric_scooter", "fusion_lon": 0.0, "fusion_lat": 0.0, "is_reserved": 0, "name": "cb8371fa0d37cf95eadc769cb466669b", "is_disabled": 0}, {"rental_uris": {"ios": "https://dc.lft.to/lastmile_qr_scan", "android": "https://dc.lft.to/lastmile_qr_scan"}, "lat": 38.8953225, "bike_id": "52a0bb93431d83b11527ba1d3c92288f", "lon": -77.02203183333333, "type": "electric_scooter", "fusion_lon": 0.0, "fusion_lat": 0.0, "is_reserved": 0, "name": "52a0bb93431d83b11527ba1d3c92288f", "is_disabled": 0}, {"rental_uris": {"ios": "https://dc.lft.to/lastmile_qr_scan", "android": "https://dc.lft.to/lastmile_qr_scan"}, "lat": 38.8766575, "bike_id": "19c6f8529e88a044db3700b9f99eff7e", "lon": -77.00820366666666, "type": "electric_scooter", "fusion_lon": 0.0, "fusion_lat": 0.0, "is_reserved": 0, "name": "19c6f8529e88a044db3700b9f99eff7e", "is_disabled": 0}, {"rental_uris": {"ios": "https://dc.lft.to/lastmile_qr_scan", "android": "https://dc.lft.to/lastmile_qr_scan"}, "lat": 38.91726716666667, "bike_id": "7c68929f63f119a45b0f50984c72fad6", "lon": -77.04090533333333, "type": "electric_scooter", "fusion_lon": 0.0, "fusion_lat": 0.0, "is_reserved": 0, "name": "7c68929f63f119a45b0f50984c72fad6", "is_disabled": 0}, {"rental_uris": {"ios": "https://dc.lft.to/lastmile_qr_scan", "android": "https://dc.lft.to/lastmile_qr_scan"}, "lat": 38.903781, "bike_id": "72980b41dca5a71a2e7e4a662b6cad53", "lon": -77.0467925, "type": "electric_scooter", "fusion_lon": 0.0, "fusion_lat": 0.0, "is_reserved": 0, "name": "72980b41dca5a71a2e7e4a662b6cad53", "is_disabled": 0}, {"rental_uris": {"ios": "https://dc.lft.to/lastmile_qr_scan", "android": "https://dc.lft.to/lastmile_qr_scan"}, "lat": 38.911251, "bike_id": "2db251ca5eec7f080cd790cbd75004d9", "lon": -77.02194733333333, "type": "electric_scooter", "fusion_lon": 0.0, "fusion_lat": 0.0, "is_reserved": 0, "name": "2db251ca5eec7f080cd790cbd75004d9", "is_disabled": 0}, {"rental_uris": {"ios": "https://dc.lft.to/lastmile_qr_scan", "android": "https://dc.lft.to/lastmile_qr_scan"}, "lat": 38.91725316666667, "bike_id": "4b25f534ae6fdb8f50f2c186c04aedd0", "lon": -77.01923983333333, "type": "electric_scooter", "fusion_lon": 0.0, "fusion_lat": 0.0, "is_reserved": 0, "name": "4b25f534ae6fdb8f50f2c186c04aedd0", "is_disabled": 0}, {"rental_uris": {"ios": "https://dc.lft.to/lastmile_qr_scan", "android": "https://dc.lft.to/lastmile_qr_scan"}, "lat": 38.92106066666667, "bike_id": "5d5955ebdc7dc48979ff41f27b420e8a", "lon": -77.063316, "type": "electric_scooter", "fusion_lon": 0.0, "fusion_lat": 0.0, "is_reserved": 0, "name": "5d5955ebdc7dc48979ff41f27b420e8a", "is_disabled": 0}, {"rental_uris": {"ios": "https://dc.lft.to/lastmile_qr_scan", "android": "https://dc.lft.to/lastmile_qr_scan"}, "lat": 38.90007283333333, "bike_id": "69bfcb973541f4e871fb30f9efd2bb5d", "lon": -77.02814583333334, "type": "electric_scooter", "fusion_lon": 0.0, "fusion_lat": 0.0, "is_reserved": 0, "name": "69bfcb973541f4e871fb30f9efd2bb5d", "is_disabled": 0}, {"rental_uris": {"ios": "https://dc.lft.to/lastmile_qr_scan", "android": "https://dc.lft.to/lastmile_qr_scan"}, "lat": 38.876244, "bike_id": "e675a521cab3f4e4bd9a2e417b2a53cd", "lon": -76.96530016666667, "type": "electric_scooter", "fusion_lon": 0.0, "fusion_lat": 0.0, "is_reserved": 0, "name": "e675a521cab3f4e4bd9a2e417b2a53cd", "is_disabled": 0}, {"rental_uris": {"ios": "https://dc.lft.to/lastmile_qr_scan", "android": "https://dc.lft.to/lastmile_qr_scan"}, "lat": 38.8747135, "bike_id": "9f4659ebe23ce1760eff915d8a9e8fa6", "lon": -77.01210216666666, "type": "electric_scooter", "fusion_lon": 0.0, "fusion_lat": 0.0, "is_reserved": 0, "name": "9f4659ebe23ce1760eff915d8a9e8fa6", "is_disabled": 0}, {"rental_uris": {"ios": "https://dc.lft.to/lastmile_qr_scan", "android": "https://dc.lft.to/lastmile_qr_scan"}, "lat": 38.920874166666664, "bike_id": "fd6aa3a95b5b2cea90d824e0709281c6", "lon": -77.02043383333333, "type": "electric_scooter", "fusion_lon": 0.0, "fusion_lat": 0.0, "is_reserved": 0, "name": "fd6aa3a95b5b2cea90d824e0709281c6", "is_disabled": 0}, {"rental_uris": {"ios": "https://dc.lft.to/lastmile_qr_scan", "android": "https://dc.lft.to/lastmile_qr_scan"}, "lat": 38.907384666666665, "bike_id": "71e1049247723c2a7dbbb7a8f2edb948", "lon": -77.04161783333333, "type": "electric_scooter", "fusion_lon": 0.0, "fusion_lat": 0.0, "is_reserved": 0, "name": "71e1049247723c2a7dbbb7a8f2edb948", "is_disabled": 0}, {"rental_uris": {"ios": "https://dc.lft.to/lastmile_qr_scan", "android": "https://dc.lft.to/lastmile_qr_scan"}, "lat": 38.84616466666667, "bike_id": "bb4e0dc83372882d50e0a04d03117bd3", "lon": -76.98272616666667, "type": "electric_scooter", "fusion_lon": 0.0, "fusion_lat": 0.0, "is_reserved": 0, "name": "bb4e0dc83372882d50e0a04d03117bd3", "is_disabled": 0}, {"rental_uris": {"ios": "https://dc.lft.to/lastmile_qr_scan", "android": "https://dc.lft.to/lastmile_qr_scan"}, "lat": 38.90334816666667, "bike_id": "4de8704c39c3e6c2acf00b8fbaab8c1d", "lon": -77.03963533333334, "type": "electric_scooter", "fusion_lon": 0.0, "fusion_lat": 0.0, "is_reserved": 0, "name": "4de8704c39c3e6c2acf00b8fbaab8c1d", "is_disabled": 0}, {"rental_uris": {"ios": "https://dc.lft.to/lastmile_qr_scan", "android": "https://dc.lft.to/lastmile_qr_scan"}, "lat": 38.8924625, "bike_id": "28844a2c1041bb9da59eadda8607993c", "lon": -77.03188716666666, "type": "electric_scooter", "fusion_lon": 0.0, "fusion_lat": 0.0, "is_reserved": 0, "name": "28844a2c1041bb9da59eadda8607993c", "is_disabled": 0}, {"rental_uris": {"ios": "https://dc.lft.to/lastmile_qr_scan", "android": "https://dc.lft.to/lastmile_qr_scan"}, "lat": 38.86243983333333, "bike_id": "e8e316fca6c4d2805e88a95dece05389", "lon": -76.99493983333333, "type": "electric_scooter", "fusion_lon": 0.0, "fusion_lat": 0.0, "is_reserved": 0, "name": "e8e316fca6c4d2805e88a95dece05389", "is_disabled": 0}, {"rental_uris": {"ios": "https://dc.lft.to/lastmile_qr_scan", "android": "https://dc.lft.to/lastmile_qr_scan"}, "lat": 38.911469, "bike_id": "bf357c3a76e0d2be489fe30dd23036e9", "lon": -77.004579, "type": "electric_scooter", "fusion_lon": 0.0, "fusion_lat": 0.0, "is_reserved": 0, "name": "bf357c3a76e0d2be489fe30dd23036e9", "is_disabled": 0}, {"rental_uris": {"ios": "https://dc.lft.to/lastmile_qr_scan", "android": "https://dc.lft.to/lastmile_qr_scan"}, "lat": 38.9179025, "bike_id": "34fb595a91d1425ac4ea454b103ed690", "lon": -77.02369833333333, "type": "electric_scooter", "fusion_lon": 0.0, "fusion_lat": 0.0, "is_reserved": 0, "name": "34fb595a91d1425ac4ea454b103ed690", "is_disabled": 0}, {"rental_uris": {"ios": "https://dc.lft.to/lastmile_qr_scan", "android": "https://dc.lft.to/lastmile_qr_scan"}, "lat": 38.92616616666667, "bike_id": "62d89e83a20527eb5f28a80ff8a50fdd", "lon": -77.0420025, "type": "electric_scooter", "fusion_lon": 0.0, "fusion_lat": 0.0, "is_reserved": 0, "name": "62d89e83a20527eb5f28a80ff8a50fdd", "is_disabled": 0}, {"rental_uris": {"ios": "https://dc.lft.to/lastmile_qr_scan", "android": "https://dc.lft.to/lastmile_qr_scan"}, "lat": 38.89219816666667, "bike_id": "3a3fdbbc52044dfcfe505836061d3954", "lon": -77.043702, "type": "electric_scooter", "fusion_lon": 0.0, "fusion_lat": 0.0, "is_reserved": 0, "name": "3a3fdbbc52044dfcfe505836061d3954", "is_disabled": 0}, {"rental_uris": {"ios": "https://dc.lft.to/lastmile_qr_scan", "android": "https://dc.lft.to/lastmile_qr_scan"}, "lat": 38.893135666666666, "bike_id": "30203587d975344b98625112d5e53149", "lon": -76.93972833333333, "type": "electric_scooter", "fusion_lon": 0.0, "fusion_lat": 0.0, "is_reserved": 0, "name": "30203587d975344b98625112d5e53149", "is_disabled": 0}, {"rental_uris": {"ios": "https://dc.lft.to/lastmile_qr_scan", "android": "https://dc.lft.to/lastmile_qr_scan"}, "lat": 38.8952235, "bike_id": "c1bbf45b963fbf01cf63a22afe5a8669", "lon": -77.002143, "type": "electric_scooter", "fusion_lon": 0.0, "fusion_lat": 0.0, "is_reserved": 0, "name": "c1bbf45b963fbf01cf63a22afe5a8669", "is_disabled": 0}, {"rental_uris": {"ios": "https://dc.lft.to/lastmile_qr_scan", "android": "https://dc.lft.to/lastmile_qr_scan"}, "lat": 38.9717955, "bike_id": "5b7d9266233e32a42239ad1eb4c03986", "lon": -77.02697516666667, "type": "electric_scooter", "fusion_lon": 0.0, "fusion_lat": 0.0, "is_reserved": 0, "name": "5b7d9266233e32a42239ad1eb4c03986", "is_disabled": 0}, {"rental_uris": {"ios": "https://dc.lft.to/lastmile_qr_scan", "android": "https://dc.lft.to/lastmile_qr_scan"}, "lat": 38.89358383333333, "bike_id": "53d4012d9010a3fcf630d4692bc66dce", "lon": -76.94941616666667, "type": "electric_scooter", "fusion_lon": 0.0, "fusion_lat": 0.0, "is_reserved": 0, "name": "53d4012d9010a3fcf630d4692bc66dce", "is_disabled": 0}, {"rental_uris": {"ios": "https://dc.lft.to/lastmile_qr_scan", "android": "https://dc.lft.to/lastmile_qr_scan"}, "lat": 38.91910883333333, "bike_id": "ea104c343990ebe313daa1a0b986d734", "lon": -77.00280066666667, "type": "electric_scooter", "fusion_lon": 0.0, "fusion_lat": 0.0, "is_reserved": 0, "name": "ea104c343990ebe313daa1a0b986d734", "is_disabled": 0}, {"rental_uris": {"ios": "https://dc.lft.to/lastmile_qr_scan", "android": "https://dc.lft.to/lastmile_qr_scan"}, "lat": 38.928284166666664, "bike_id": "a566b43298b9dd34bfc1afc5e472e674", "lon": -77.01407683333333, "type": "electric_scooter", "fusion_lon": 0.0, "fusion_lat": 0.0, "is_reserved": 0, "name": "a566b43298b9dd34bfc1afc5e472e674", "is_disabled": 0}, {"rental_uris": {"ios": "https://dc.lft.to/lastmile_qr_scan", "android": "https://dc.lft.to/lastmile_qr_scan"}, "lat": 38.8871255, "bike_id": "20a1630b55f8c6ae4be3e1a42742640d", "lon": -77.133042, "type": "electric_bike", "fusion_lon": 0.0, "fusion_lat": 0.0, "is_reserved": 0, "name": "20a1630b55f8c6ae4be3e1a42742640d", "is_disabled": 0}, {"rental_uris": {"ios": "https://dc.lft.to/lastmile_qr_scan", "android": "https://dc.lft.to/lastmile_qr_scan"}, "lat": 38.884151833333334, "bike_id": "abb9df439348f34c1829451f5593403a", "lon": -76.97916516666666, "type": "electric_scooter", "fusion_lon": 0.0, "fusion_lat": 0.0, "is_reserved": 0, "name": "abb9df439348f34c1829451f5593403a", "is_disabled": 0}, {"rental_uris": {"ios": "https://dc.lft.to/lastmile_qr_scan", "android": "https://dc.lft.to/lastmile_qr_scan"}, "lat": 38.90247733333333, "bike_id": "6ce9d21af350f540e17fa949eaa6b196", "lon": -77.03799683333334, "type": "electric_scooter", "fusion_lon": 0.0, "fusion_lat": 0.0, "is_reserved": 0, "name": "6ce9d21af350f540e17fa949eaa6b196", "is_disabled": 0}, {"rental_uris": {"ios": "https://dc.lft.to/lastmile_qr_scan", "android": "https://dc.lft.to/lastmile_qr_scan"}, "lat": 38.91541133333333, "bike_id": "0645693e6c69d29e3ecda1e704ec3d67", "lon": -77.0240705, "type": "electric_scooter", "fusion_lon": 0.0, "fusion_lat": 0.0, "is_reserved": 0, "name": "0645693e6c69d29e3ecda1e704ec3d67", "is_disabled": 0}, {"rental_uris": {"ios": "https://dc.lft.to/lastmile_qr_scan", "android": "https://dc.lft.to/lastmile_qr_scan"}, "lat": 38.9036875, "bike_id": "9e6bd519caee9f63575b24801cc0ff8c", "lon": -77.03189066666667, "type": "electric_scooter", "fusion_lon": 0.0, "fusion_lat": 0.0, "is_reserved": 0, "name": "9e6bd519caee9f63575b24801cc0ff8c", "is_disabled": 0}, {"rental_uris": {"ios": "https://dc.lft.to/lastmile_qr_scan", "android": "https://dc.lft.to/lastmile_qr_scan"}, "lat": 38.8983655, "bike_id": "ebec91a0e7f879ed8f8dc46b6029d165", "lon": -77.046458, "type": "electric_scooter", "fusion_lon": 0.0, "fusion_lat": 0.0, "is_reserved": 0, "name": "ebec91a0e7f879ed8f8dc46b6029d165", "is_disabled": 0}, {"rental_uris": {"ios": "https://dc.lft.to/lastmile_qr_scan", "android": "https://dc.lft.to/lastmile_qr_scan"}, "lat": 38.90364483333333, "bike_id": "f1909e359baf641ed5774126a1e4a294", "lon": -77.0257435, "type": "electric_scooter", "fusion_lon": 0.0, "fusion_lat": 0.0, "is_reserved": 0, "name": "f1909e359baf641ed5774126a1e4a294", "is_disabled": 0}, {"rental_uris": {"ios": "https://dc.lft.to/lastmile_qr_scan", "android": "https://dc.lft.to/lastmile_qr_scan"}, "lat": 38.8973325, "bike_id": "e4d1efdc404728f4bd7ceb910f8b60ee", "lon": -77.02737683333334, "type": "electric_scooter", "fusion_lon": 0.0, "fusion_lat": 0.0, "is_reserved": 0, "name": "e4d1efdc404728f4bd7ceb910f8b60ee", "is_disabled": 0}, {"rental_uris": {"ios": "https://dc.lft.to/lastmile_qr_scan", "android": "https://dc.lft.to/lastmile_qr_scan"}, "lat": 38.9127735, "bike_id": "b8b4e10327ffa040e2692696cef0858b", "lon": -77.038461, "type": "electric_scooter", "fusion_lon": 0.0, "fusion_lat": 0.0, "is_reserved": 0, "name": "b8b4e10327ffa040e2692696cef0858b", "is_disabled": 0}, {"rental_uris": {"ios": "https://dc.lft.to/lastmile_qr_scan", "android": "https://dc.lft.to/lastmile_qr_scan"}, "lat": 38.91168916666667, "bike_id": "d1256d1adfc25b502acd39a370abdbb5", "lon": -77.01140816666667, "type": "electric_scooter", "fusion_lon": 0.0, "fusion_lat": 0.0, "is_reserved": 0, "name": "d1256d1adfc25b502acd39a370abdbb5", "is_disabled": 0}, {"rental_uris": {"ios": "https://dc.lft.to/lastmile_qr_scan", "android": "https://dc.lft.to/lastmile_qr_scan"}, "lat": 38.917180333333334, "bike_id": "4ef7a1b5640857770262e2ccab10f02e", "lon": -77.02599533333333, "type": "electric_scooter", "fusion_lon": 0.0, "fusion_lat": 0.0, "is_reserved": 0, "name": "4ef7a1b5640857770262e2ccab10f02e", "is_disabled": 0}, {"rental_uris": {"ios": "https://dc.lft.to/lastmile_qr_scan", "android": "https://dc.lft.to/lastmile_qr_scan"}, "lat": 38.887648166666665, "bike_id": "40cdacb10f8a8473badb71c19f81dd49", "lon": -76.9558815, "type": "electric_scooter", "fusion_lon": 0.0, "fusion_lat": 0.0, "is_reserved": 0, "name": "40cdacb10f8a8473badb71c19f81dd49", "is_disabled": 0}, {"rental_uris": {"ios": "https://dc.lft.to/lastmile_qr_scan", "android": "https://dc.lft.to/lastmile_qr_scan"}, "lat": 38.917476666666666, "bike_id": "96b713bf34887e30b64f58a2a94ef74e", "lon": -77.03640966666667, "type": "electric_scooter", "fusion_lon": 0.0, "fusion_lat": 0.0, "is_reserved": 0, "name": "96b713bf34887e30b64f58a2a94ef74e", "is_disabled": 0}, {"rental_uris": {"ios": "https://dc.lft.to/lastmile_qr_scan", "android": "https://dc.lft.to/lastmile_qr_scan"}, "lat": 38.9057695, "bike_id": "119d8abdaf4fa89779a4dcc6d0f25465", "lon": -77.00398416666667, "type": "electric_scooter", "fusion_lon": 0.0, "fusion_lat": 0.0, "is_reserved": 0, "name": "119d8abdaf4fa89779a4dcc6d0f25465", "is_disabled": 0}, {"rental_uris": {"ios": "https://dc.lft.to/lastmile_qr_scan", "android": "https://dc.lft.to/lastmile_qr_scan"}, "lat": 38.86625433333333, "bike_id": "ddfecefbb563e4473f4fc70668d739ab", "lon": -76.98714683333333, "type": "electric_scooter", "fusion_lon": 0.0, "fusion_lat": 0.0, "is_reserved": 0, "name": "ddfecefbb563e4473f4fc70668d739ab", "is_disabled": 0}, {"rental_uris": {"ios": "https://dc.lft.to/lastmile_qr_scan", "android": "https://dc.lft.to/lastmile_qr_scan"}, "lat": 38.900893333333336, "bike_id": "76acc68545b657c097f9bd7158aeb627", "lon": -77.04867433333334, "type": "electric_scooter", "fusion_lon": 0.0, "fusion_lat": 0.0, "is_reserved": 0, "name": "76acc68545b657c097f9bd7158aeb627", "is_disabled": 0}, {"rental_uris": {"ios": "https://dc.lft.to/lastmile_qr_scan", "android": "https://dc.lft.to/lastmile_qr_scan"}, "lat": 38.89652483333333, "bike_id": "75fb3064c0d76b0f8b53bd01b6950baf", "lon": -77.07069533333333, "type": "electric_scooter", "fusion_lon": 0.0, "fusion_lat": 0.0, "is_reserved": 0, "name": "75fb3064c0d76b0f8b53bd01b6950baf", "is_disabled": 0}, {"rental_uris": {"ios": "https://dc.lft.to/lastmile_qr_scan", "android": "https://dc.lft.to/lastmile_qr_scan"}, "lat": 38.9198065, "bike_id": "81f215b331b8aa23116beaf0dc37e6d1", "lon": -77.03291283333333, "type": "electric_scooter", "fusion_lon": 0.0, "fusion_lat": 0.0, "is_reserved": 0, "name": "81f215b331b8aa23116beaf0dc37e6d1", "is_disabled": 0}, {"rental_uris": {"ios": "https://dc.lft.to/lastmile_qr_scan", "android": "https://dc.lft.to/lastmile_qr_scan"}, "lat": 38.99702466666667, "bike_id": "ea4f6e25a19dcf3db24f61ade30a6a23", "lon": -77.02543266666666, "type": "electric_bike", "fusion_lon": 0.0, "fusion_lat": 0.0, "is_reserved": 0, "name": "ea4f6e25a19dcf3db24f61ade30a6a23", "is_disabled": 0}, {"rental_uris": {"ios": "https://dc.lft.to/lastmile_qr_scan", "android": "https://dc.lft.to/lastmile_qr_scan"}, "lat": 38.924817833333336, "bike_id": "557f76fa6224d6d0327fffa76d842de2", "lon": -77.05214483333333, "type": "electric_scooter", "fusion_lon": 0.0, "fusion_lat": 0.0, "is_reserved": 0, "name": "557f76fa6224d6d0327fffa76d842de2", "is_disabled": 0}, {"rental_uris": {"ios": "https://dc.lft.to/lastmile_qr_scan", "android": "https://dc.lft.to/lastmile_qr_scan"}, "lat": 38.87568483333333, "bike_id": "7f64fc3eea53f6ca8e611cee113af590", "lon": -77.00578216666666, "type": "electric_scooter", "fusion_lon": 0.0, "fusion_lat": 0.0, "is_reserved": 0, "name": "7f64fc3eea53f6ca8e611cee113af590", "is_disabled": 0}, {"rental_uris": {"ios": "https://dc.lft.to/lastmile_qr_scan", "android": "https://dc.lft.to/lastmile_qr_scan"}, "lat": 38.914207166666664, "bike_id": "19f02f709ee607204cf08a93ff2efa02", "lon": -77.0211765, "type": "electric_scooter", "fusion_lon": 0.0, "fusion_lat": 0.0, "is_reserved": 0, "name": "19f02f709ee607204cf08a93ff2efa02", "is_disabled": 0}, {"rental_uris": {"ios": "https://dc.lft.to/lastmile_qr_scan", "android": "https://dc.lft.to/lastmile_qr_scan"}, "lat": 38.8969705, "bike_id": "60ab94316cd7a19a10ca08f13064d54c", "lon": -77.02289733333333, "type": "electric_scooter", "fusion_lon": 0.0, "fusion_lat": 0.0, "is_reserved": 0, "name": "60ab94316cd7a19a10ca08f13064d54c", "is_disabled": 0}, {"rental_uris": {"ios": "https://dc.lft.to/lastmile_qr_scan", "android": "https://dc.lft.to/lastmile_qr_scan"}, "lat": 38.8863685, "bike_id": "b1a7630d8d017d4f7565495b0ebeb42e", "lon": -77.01371333333333, "type": "electric_scooter", "fusion_lon": 0.0, "fusion_lat": 0.0, "is_reserved": 0, "name": "b1a7630d8d017d4f7565495b0ebeb42e", "is_disabled": 0}, {"rental_uris": {"ios": "https://dc.lft.to/lastmile_qr_scan", "android": "https://dc.lft.to/lastmile_qr_scan"}, "lat": 38.897367, "bike_id": "b75ecf4bb79b9e21bc9d0d1eb5fdde7c", "lon": -76.9425105, "type": "electric_bike", "fusion_lon": 0.0, "fusion_lat": 0.0, "is_reserved": 0, "name": "b75ecf4bb79b9e21bc9d0d1eb5fdde7c", "is_disabled": 0}, {"rental_uris": {"ios": "https://dc.lft.to/lastmile_qr_scan", "android": "https://dc.lft.to/lastmile_qr_scan"}, "lat": 38.896749, "bike_id": "04f81455546bcdad6886e7425e765a9f", "lon": -77.1043935, "type": "electric_bike", "fusion_lon": 0.0, "fusion_lat": 0.0, "is_reserved": 0, "name": "04f81455546bcdad6886e7425e765a9f", "is_disabled": 0}, {"rental_uris": {"ios": "https://dc.lft.to/lastmile_qr_scan", "android": "https://dc.lft.to/lastmile_qr_scan"}, "lat": 38.9156125, "bike_id": "773ba2f93363671cbae2125a3ee7a62e", "lon": -76.97368683333333, "type": "electric_scooter", "fusion_lon": 0.0, "fusion_lat": 0.0, "is_reserved": 0, "name": "773ba2f93363671cbae2125a3ee7a62e", "is_disabled": 0}, {"rental_uris": {"ios": "https://dc.lft.to/lastmile_qr_scan", "android": "https://dc.lft.to/lastmile_qr_scan"}, "lat": 38.900212833333335, "bike_id": "31675cdb879e924693ee6c5e30a6fa5e", "lon": -77.03250633333333, "type": "electric_scooter", "fusion_lon": 0.0, "fusion_lat": 0.0, "is_reserved": 0, "name": "31675cdb879e924693ee6c5e30a6fa5e", "is_disabled": 0}, {"rental_uris": {"ios": "https://dc.lft.to/lastmile_qr_scan", "android": "https://dc.lft.to/lastmile_qr_scan"}, "lat": 38.9059515, "bike_id": "06b78c754d51ab2a6a7ccfe2290962c5", "lon": -77.00365516666666, "type": "electric_scooter", "fusion_lon": 0.0, "fusion_lat": 0.0, "is_reserved": 0, "name": "06b78c754d51ab2a6a7ccfe2290962c5", "is_disabled": 0}, {"rental_uris": {"ios": "https://dc.lft.to/lastmile_qr_scan", "android": "https://dc.lft.to/lastmile_qr_scan"}, "lat": 38.866817166666664, "bike_id": "c968af0a57930d2a654d32e6d7a64f18", "lon": -76.985713, "type": "electric_scooter", "fusion_lon": 0.0, "fusion_lat": 0.0, "is_reserved": 0, "name": "c968af0a57930d2a654d32e6d7a64f18", "is_disabled": 0}, {"rental_uris": {"ios": "https://dc.lft.to/lastmile_qr_scan", "android": "https://dc.lft.to/lastmile_qr_scan"}, "lat": 38.900050666666665, "bike_id": "2a4d84c56ea3ec36a9e55af0a23c7ca1", "lon": -77.0067075, "type": "electric_scooter", "fusion_lon": 0.0, "fusion_lat": 0.0, "is_reserved": 0, "name": "2a4d84c56ea3ec36a9e55af0a23c7ca1", "is_disabled": 0}, {"rental_uris": {"ios": "https://dc.lft.to/lastmile_qr_scan", "android": "https://dc.lft.to/lastmile_qr_scan"}, "lat": 38.86627683333333, "bike_id": "a2a9704a91c36ac8e56e7e4199abac38", "lon": -76.987166, "type": "electric_scooter", "fusion_lon": 0.0, "fusion_lat": 0.0, "is_reserved": 0, "name": "a2a9704a91c36ac8e56e7e4199abac38", "is_disabled": 0}, {"rental_uris": {"ios": "https://dc.lft.to/lastmile_qr_scan", "android": "https://dc.lft.to/lastmile_qr_scan"}, "lat": 38.906556, "bike_id": "e6326e237499456f41333967d5cf8873", "lon": -77.0413, "type": "electric_scooter", "fusion_lon": 0.0, "fusion_lat": 0.0, "is_reserved": 0, "name": "e6326e237499456f41333967d5cf8873", "is_disabled": 0}, {"rental_uris": {"ios": "https://dc.lft.to/lastmile_qr_scan", "android": "https://dc.lft.to/lastmile_qr_scan"}, "lat": 38.9050615, "bike_id": "5f3f4447351d760a28e988dbf3a6e5a5", "lon": -77.06956033333333, "type": "electric_bike", "fusion_lon": 0.0, "fusion_lat": 0.0, "is_reserved": 0, "name": "5f3f4447351d760a28e988dbf3a6e5a5", "is_disabled": 0}, {"rental_uris": {"ios": "https://dc.lft.to/lastmile_qr_scan", "android": "https://dc.lft.to/lastmile_qr_scan"}, "lat": 38.9128515, "bike_id": "318bcc19c23ed8df2ab644f87a96a06d", "lon": -76.9867965, "type": "electric_scooter", "fusion_lon": 0.0, "fusion_lat": 0.0, "is_reserved": 0, "name": "318bcc19c23ed8df2ab644f87a96a06d", "is_disabled": 0}, {"rental_uris": {"ios": "https://dc.lft.to/lastmile_qr_scan", "android": "https://dc.lft.to/lastmile_qr_scan"}, "lat": 38.905048, "bike_id": "8846f1a080edf65128db2cf9eb253f0c", "lon": -77.03844133333334, "type": "electric_scooter", "fusion_lon": 0.0, "fusion_lat": 0.0, "is_reserved": 0, "name": "8846f1a080edf65128db2cf9eb253f0c", "is_disabled": 0}, {"rental_uris": {"ios": "https://dc.lft.to/lastmile_qr_scan", "android": "https://dc.lft.to/lastmile_qr_scan"}, "lat": 38.86203716666667, "bike_id": "60a0b0518eae1b2140cdcb3bd77e0e47", "lon": -76.9818395, "type": "electric_scooter", "fusion_lon": 0.0, "fusion_lat": 0.0, "is_reserved": 0, "name": "60a0b0518eae1b2140cdcb3bd77e0e47", "is_disabled": 0}, {"rental_uris": {"ios": "https://dc.lft.to/lastmile_qr_scan", "android": "https://dc.lft.to/lastmile_qr_scan"}, "lat": 38.9189895, "bike_id": "d3100c522194515c60b70e55392b268b", "lon": -77.04170433333333, "type": "electric_scooter", "fusion_lon": 0.0, "fusion_lat": 0.0, "is_reserved": 0, "name": "d3100c522194515c60b70e55392b268b", "is_disabled": 0}, {"rental_uris": {"ios": "https://dc.lft.to/lastmile_qr_scan", "android": "https://dc.lft.to/lastmile_qr_scan"}, "lat": 38.921854833333335, "bike_id": "1473817a42c31b3878d904cec0a809d8", "lon": -77.0422885, "type": "electric_scooter", "fusion_lon": 0.0, "fusion_lat": 0.0, "is_reserved": 0, "name": "1473817a42c31b3878d904cec0a809d8", "is_disabled": 0}, {"rental_uris": {"ios": "https://dc.lft.to/lastmile_qr_scan", "android": "https://dc.lft.to/lastmile_qr_scan"}, "lat": 38.91404516666667, "bike_id": "2f4be04872583c70ab252a554efb6774", "lon": -77.02007833333333, "type": "electric_scooter", "fusion_lon": 0.0, "fusion_lat": 0.0, "is_reserved": 0, "name": "2f4be04872583c70ab252a554efb6774", "is_disabled": 0}, {"rental_uris": {"ios": "https://dc.lft.to/lastmile_qr_scan", "android": "https://dc.lft.to/lastmile_qr_scan"}, "lat": 38.86722683333333, "bike_id": "cb34dcce569ea376d9207a3a4b779eac", "lon": -76.98696616666666, "type": "electric_scooter", "fusion_lon": 0.0, "fusion_lat": 0.0, "is_reserved": 0, "name": "cb34dcce569ea376d9207a3a4b779eac", "is_disabled": 0}, {"rental_uris": {"ios": "https://dc.lft.to/lastmile_qr_scan", "android": "https://dc.lft.to/lastmile_qr_scan"}, "lat": 38.89603316666667, "bike_id": "eee4043ffc5f6b3c65f66194f3df9781", "lon": -77.02356433333334, "type": "electric_scooter", "fusion_lon": 0.0, "fusion_lat": 0.0, "is_reserved": 0, "name": "eee4043ffc5f6b3c65f66194f3df9781", "is_disabled": 0}, {"rental_uris": {"ios": "https://dc.lft.to/lastmile_qr_scan", "android": "https://dc.lft.to/lastmile_qr_scan"}, "lat": 38.89902266666667, "bike_id": "b6f5e2eb5b7cad4bd40cdc30b67294f0", "lon": -77.039184, "type": "electric_scooter", "fusion_lon": 0.0, "fusion_lat": 0.0, "is_reserved": 0, "name": "b6f5e2eb5b7cad4bd40cdc30b67294f0", "is_disabled": 0}, {"rental_uris": {"ios": "https://dc.lft.to/lastmile_qr_scan", "android": "https://dc.lft.to/lastmile_qr_scan"}, "lat": 38.87720983333333, "bike_id": "c5e07232cedf2c2bab278b22d8c9ba1c", "lon": -77.00305466666667, "type": "electric_scooter", "fusion_lon": 0.0, "fusion_lat": 0.0, "is_reserved": 0, "name": "c5e07232cedf2c2bab278b22d8c9ba1c", "is_disabled": 0}, {"rental_uris": {"ios": "https://dc.lft.to/lastmile_qr_scan", "android": "https://dc.lft.to/lastmile_qr_scan"}, "lat": 38.917089, "bike_id": "346217ab2e152590beaa08707d2eaef5", "lon": -77.03673716666667, "type": "electric_scooter", "fusion_lon": 0.0, "fusion_lat": 0.0, "is_reserved": 0, "name": "346217ab2e152590beaa08707d2eaef5", "is_disabled": 0}, {"rental_uris": {"ios": "https://dc.lft.to/lastmile_qr_scan", "android": "https://dc.lft.to/lastmile_qr_scan"}, "lat": 38.89547916666667, "bike_id": "5fe53e79fca2f280c9ded484fe8e042b", "lon": -77.00913183333333, "type": "electric_scooter", "fusion_lon": 0.0, "fusion_lat": 0.0, "is_reserved": 0, "name": "5fe53e79fca2f280c9ded484fe8e042b", "is_disabled": 0}, {"rental_uris": {"ios": "https://dc.lft.to/lastmile_qr_scan", "android": "https://dc.lft.to/lastmile_qr_scan"}, "lat": 38.9418365, "bike_id": "c3efed3788060bef84260c1d570c70ce", "lon": -77.02489533333333, "type": "electric_scooter", "fusion_lon": 0.0, "fusion_lat": 0.0, "is_reserved": 0, "name": "c3efed3788060bef84260c1d570c70ce", "is_disabled": 0}, {"rental_uris": {"ios": "https://dc.lft.to/lastmile_qr_scan", "android": "https://dc.lft.to/lastmile_qr_scan"}, "lat": 38.9283675, "bike_id": "27d46076443cdd0bc7828940d3aa9138", "lon": -77.05506633333333, "type": "electric_scooter", "fusion_lon": 0.0, "fusion_lat": 0.0, "is_reserved": 0, "name": "27d46076443cdd0bc7828940d3aa9138", "is_disabled": 0}, {"rental_uris": {"ios": "https://dc.lft.to/lastmile_qr_scan", "android": "https://dc.lft.to/lastmile_qr_scan"}, "lat": 38.89620933333333, "bike_id": "3709fa62a7d1ecccfec046ad5aeb08f8", "lon": -77.023905, "type": "electric_scooter", "fusion_lon": 0.0, "fusion_lat": 0.0, "is_reserved": 0, "name": "3709fa62a7d1ecccfec046ad5aeb08f8", "is_disabled": 0}, {"rental_uris": {"ios": "https://dc.lft.to/lastmile_qr_scan", "android": "https://dc.lft.to/lastmile_qr_scan"}, "lat": 38.89742783333333, "bike_id": "46c7cc889a1c20e852b972f63f1fe2c1", "lon": -77.029972, "type": "electric_scooter", "fusion_lon": 0.0, "fusion_lat": 0.0, "is_reserved": 0, "name": "46c7cc889a1c20e852b972f63f1fe2c1", "is_disabled": 0}, {"rental_uris": {"ios": "https://dc.lft.to/lastmile_qr_scan", "android": "https://dc.lft.to/lastmile_qr_scan"}, "lat": 38.92418833333333, "bike_id": "2cebab769fca05918e254f4e1541475c", "lon": -77.01947283333334, "type": "electric_scooter", "fusion_lon": 0.0, "fusion_lat": 0.0, "is_reserved": 0, "name": "2cebab769fca05918e254f4e1541475c", "is_disabled": 0}, {"rental_uris": {"ios": "https://dc.lft.to/lastmile_qr_scan", "android": "https://dc.lft.to/lastmile_qr_scan"}, "lat": 38.919326833333336, "bike_id": "a54db41e3facee6f0b1b224d1cf5e098", "lon": -77.04158883333334, "type": "electric_scooter", "fusion_lon": 0.0, "fusion_lat": 0.0, "is_reserved": 0, "name": "a54db41e3facee6f0b1b224d1cf5e098", "is_disabled": 0}, {"rental_uris": {"ios": "https://dc.lft.to/lastmile_qr_scan", "android": "https://dc.lft.to/lastmile_qr_scan"}, "lat": 38.928950666666665, "bike_id": "31fc089710bd271b45b8476dcc68ca42", "lon": -77.016214, "type": "electric_scooter", "fusion_lon": 0.0, "fusion_lat": 0.0, "is_reserved": 0, "name": "31fc089710bd271b45b8476dcc68ca42", "is_disabled": 0}, {"rental_uris": {"ios": "https://dc.lft.to/lastmile_qr_scan", "android": "https://dc.lft.to/lastmile_qr_scan"}, "lat": 38.83094083333334, "bike_id": "4fd67ea2e22f03df8ee2b1735483280f", "lon": -77.0429075, "type": "electric_bike", "fusion_lon": 0.0, "fusion_lat": 0.0, "is_reserved": 0, "name": "4fd67ea2e22f03df8ee2b1735483280f", "is_disabled": 0}, {"rental_uris": {"ios": "https://dc.lft.to/lastmile_qr_scan", "android": "https://dc.lft.to/lastmile_qr_scan"}, "lat": 38.93159983333334, "bike_id": "40b7b66196a7842a76883618283a4bda", "lon": -77.036217, "type": "electric_scooter", "fusion_lon": 0.0, "fusion_lat": 0.0, "is_reserved": 0, "name": "40b7b66196a7842a76883618283a4bda", "is_disabled": 0}, {"rental_uris": {"ios": "https://dc.lft.to/lastmile_qr_scan", "android": "https://dc.lft.to/lastmile_qr_scan"}, "lat": 38.884079, "bike_id": "38579c7e79a56667bdab30af255c9a78", "lon": -76.948237, "type": "electric_scooter", "fusion_lon": 0.0, "fusion_lat": 0.0, "is_reserved": 0, "name": "38579c7e79a56667bdab30af255c9a78", "is_disabled": 0}, {"rental_uris": {"ios": "https://dc.lft.to/lastmile_qr_scan", "android": "https://dc.lft.to/lastmile_qr_scan"}, "lat": 38.8988035, "bike_id": "658c0b2c4992ec090461b5adbac269e0", "lon": -76.93174233333333, "type": "electric_scooter", "fusion_lon": 0.0, "fusion_lat": 0.0, "is_reserved": 0, "name": "658c0b2c4992ec090461b5adbac269e0", "is_disabled": 0}, {"rental_uris": {"ios": "https://dc.lft.to/lastmile_qr_scan", "android": "https://dc.lft.to/lastmile_qr_scan"}, "lat": 38.89195433333333, "bike_id": "b9d9304870a57f660327644ea1a5cd91", "lon": -77.023804, "type": "electric_scooter", "fusion_lon": 0.0, "fusion_lat": 0.0, "is_reserved": 0, "name": "b9d9304870a57f660327644ea1a5cd91", "is_disabled": 0}, {"rental_uris": {"ios": "https://dc.lft.to/lastmile_qr_scan", "android": "https://dc.lft.to/lastmile_qr_scan"}, "lat": 38.896427833333334, "bike_id": "3b8371dbb9d97717282ce5ca6dc2b344", "lon": -77.0260825, "type": "electric_scooter", "fusion_lon": 0.0, "fusion_lat": 0.0, "is_reserved": 0, "name": "3b8371dbb9d97717282ce5ca6dc2b344", "is_disabled": 0}, {"rental_uris": {"ios": "https://dc.lft.to/lastmile_qr_scan", "android": "https://dc.lft.to/lastmile_qr_scan"}, "lat": 38.87754283333334, "bike_id": "eb3fd75401fb41fca5c37d9b3f94fa94", "lon": -77.01777483333333, "type": "electric_scooter", "fusion_lon": 0.0, "fusion_lat": 0.0, "is_reserved": 0, "name": "eb3fd75401fb41fca5c37d9b3f94fa94", "is_disabled": 0}, {"rental_uris": {"ios": "https://dc.lft.to/lastmile_qr_scan", "android": "https://dc.lft.to/lastmile_qr_scan"}, "lat": 38.9036925, "bike_id": "c8da440b3e6c99b3d0a38065a4ed56e5", "lon": -77.03200433333333, "type": "electric_scooter", "fusion_lon": 0.0, "fusion_lat": 0.0, "is_reserved": 0, "name": "c8da440b3e6c99b3d0a38065a4ed56e5", "is_disabled": 0}, {"rental_uris": {"ios": "https://dc.lft.to/lastmile_qr_scan", "android": "https://dc.lft.to/lastmile_qr_scan"}, "lat": 38.94615733333333, "bike_id": "2748a09aa337f68ea27378d5c8c61157", "lon": -77.09672116666667, "type": "electric_bike", "fusion_lon": 0.0, "fusion_lat": 0.0, "is_reserved": 0, "name": "2748a09aa337f68ea27378d5c8c61157", "is_disabled": 0}, {"rental_uris": {"ios": "https://dc.lft.to/lastmile_qr_scan", "android": "https://dc.lft.to/lastmile_qr_scan"}, "lat": 38.920612, "bike_id": "4e883d1b2b88ab78a1a8c644abd65838", "lon": -76.99581516666667, "type": "electric_bike", "fusion_lon": 0.0, "fusion_lat": 0.0, "is_reserved": 0, "name": "4e883d1b2b88ab78a1a8c644abd65838", "is_disabled": 0}, {"rental_uris": {"ios": "https://dc.lft.to/lastmile_qr_scan", "android": "https://dc.lft.to/lastmile_qr_scan"}, "lat": 38.906369, "bike_id": "ba1a5c612304fc752ba1cccd42726b0e", "lon": -77.03461283333333, "type": "electric_scooter", "fusion_lon": 0.0, "fusion_lat": 0.0, "is_reserved": 0, "name": "ba1a5c612304fc752ba1cccd42726b0e", "is_disabled": 0}, {"rental_uris": {"ios": "https://dc.lft.to/lastmile_qr_scan", "android": "https://dc.lft.to/lastmile_qr_scan"}, "lat": 38.91905383333334, "bike_id": "97124fb17b44b761a452acb58995df5c", "lon": -77.02056266666666, "type": "electric_scooter", "fusion_lon": 0.0, "fusion_lat": 0.0, "is_reserved": 0, "name": "97124fb17b44b761a452acb58995df5c", "is_disabled": 0}, {"rental_uris": {"ios": "https://dc.lft.to/lastmile_qr_scan", "android": "https://dc.lft.to/lastmile_qr_scan"}, "lat": 38.88744333333333, "bike_id": "f4accdab192a79ca3d8bf0a45e6de871", "lon": -77.02566733333333, "type": "electric_scooter", "fusion_lon": 0.0, "fusion_lat": 0.0, "is_reserved": 0, "name": "f4accdab192a79ca3d8bf0a45e6de871", "is_disabled": 0}, {"rental_uris": {"ios": "https://dc.lft.to/lastmile_qr_scan", "android": "https://dc.lft.to/lastmile_qr_scan"}, "lat": 38.895356, "bike_id": "cc2c3e7f4f1cb6c0d118c1230a07767e", "lon": -77.0397415, "type": "electric_scooter", "fusion_lon": 0.0, "fusion_lat": 0.0, "is_reserved": 0, "name": "cc2c3e7f4f1cb6c0d118c1230a07767e", "is_disabled": 0}, {"rental_uris": {"ios": "https://dc.lft.to/lastmile_qr_scan", "android": "https://dc.lft.to/lastmile_qr_scan"}, "lat": 38.90632, "bike_id": "2efffca54ef3c0aab0c0f93afa37136e", "lon": -77.03904283333334, "type": "electric_scooter", "fusion_lon": 0.0, "fusion_lat": 0.0, "is_reserved": 0, "name": "2efffca54ef3c0aab0c0f93afa37136e", "is_disabled": 0}, {"rental_uris": {"ios": "https://dc.lft.to/lastmile_qr_scan", "android": "https://dc.lft.to/lastmile_qr_scan"}, "lat": 38.900892166666665, "bike_id": "1516d9e9af93c3024341be7382adc87b", "lon": -76.98336416666666, "type": "electric_scooter", "fusion_lon": 0.0, "fusion_lat": 0.0, "is_reserved": 0, "name": "1516d9e9af93c3024341be7382adc87b", "is_disabled": 0}, {"rental_uris": {"ios": "https://dc.lft.to/lastmile_qr_scan", "android": "https://dc.lft.to/lastmile_qr_scan"}, "lat": 38.89722733333333, "bike_id": "00b4bedcfb8054f3e8b04cd09051b4e6", "lon": -77.04700766666667, "type": "electric_scooter", "fusion_lon": 0.0, "fusion_lat": 0.0, "is_reserved": 0, "name": "00b4bedcfb8054f3e8b04cd09051b4e6", "is_disabled": 0}, {"rental_uris": {"ios": "https://dc.lft.to/lastmile_qr_scan", "android": "https://dc.lft.to/lastmile_qr_scan"}, "lat": 38.887110666666665, "bike_id": "4668670318cac86cf85e87586a94eed4", "lon": -77.017728, "type": "electric_scooter", "fusion_lon": 0.0, "fusion_lat": 0.0, "is_reserved": 0, "name": "4668670318cac86cf85e87586a94eed4", "is_disabled": 0}, {"rental_uris": {"ios": "https://dc.lft.to/lastmile_qr_scan", "android": "https://dc.lft.to/lastmile_qr_scan"}, "lat": 38.91764333333333, "bike_id": "01fd7bead4be59c174ab2448fb5474d7", "lon": -77.03854066666666, "type": "electric_scooter", "fusion_lon": 0.0, "fusion_lat": 0.0, "is_reserved": 0, "name": "01fd7bead4be59c174ab2448fb5474d7", "is_disabled": 0}, {"rental_uris": {"ios": "https://dc.lft.to/lastmile_qr_scan", "android": "https://dc.lft.to/lastmile_qr_scan"}, "lat": 38.928486, "bike_id": "16bdbe3a4ac0ca51c55d597109deebc5", "lon": -77.05423833333333, "type": "electric_scooter", "fusion_lon": 0.0, "fusion_lat": 0.0, "is_reserved": 0, "name": "16bdbe3a4ac0ca51c55d597109deebc5", "is_disabled": 0}, {"rental_uris": {"ios": "https://dc.lft.to/lastmile_qr_scan", "android": "https://dc.lft.to/lastmile_qr_scan"}, "lat": 38.919849166666665, "bike_id": "452734e696eac894ae9d906d4778fa78", "lon": -77.025052, "type": "electric_scooter", "fusion_lon": 0.0, "fusion_lat": 0.0, "is_reserved": 0, "name": "452734e696eac894ae9d906d4778fa78", "is_disabled": 0}, {"rental_uris": {"ios": "https://dc.lft.to/lastmile_qr_scan", "android": "https://dc.lft.to/lastmile_qr_scan"}, "lat": 38.91864283333334, "bike_id": "d0e826834b11ce7a366b9a4854c2d2f3", "lon": -77.0415675, "type": "electric_scooter", "fusion_lon": 0.0, "fusion_lat": 0.0, "is_reserved": 0, "name": "d0e826834b11ce7a366b9a4854c2d2f3", "is_disabled": 0}, {"rental_uris": {"ios": "https://dc.lft.to/lastmile_qr_scan", "android": "https://dc.lft.to/lastmile_qr_scan"}, "lat": 38.907189, "bike_id": "e85eda76db02dc97f7c1dacc3806b65a", "lon": -77.0298075, "type": "electric_scooter", "fusion_lon": 0.0, "fusion_lat": 0.0, "is_reserved": 0, "name": "e85eda76db02dc97f7c1dacc3806b65a", "is_disabled": 0}, {"rental_uris": {"ios": "https://dc.lft.to/lastmile_qr_scan", "android": "https://dc.lft.to/lastmile_qr_scan"}, "lat": 38.893523333333334, "bike_id": "0a71c289aa3075d2643e82f19cea0c98", "lon": -77.187426, "type": "electric_bike", "fusion_lon": 0.0, "fusion_lat": 0.0, "is_reserved": 0, "name": "0a71c289aa3075d2643e82f19cea0c98", "is_disabled": 0}, {"rental_uris": {"ios": "https://dc.lft.to/lastmile_qr_scan", "android": "https://dc.lft.to/lastmile_qr_scan"}, "lat": 38.88439116666667, "bike_id": "f62717653f1d26163992fac0b088169f", "lon": -77.00346083333334, "type": "electric_scooter", "fusion_lon": 0.0, "fusion_lat": 0.0, "is_reserved": 0, "name": "f62717653f1d26163992fac0b088169f", "is_disabled": 0}, {"rental_uris": {"ios": "https://dc.lft.to/lastmile_qr_scan", "android": "https://dc.lft.to/lastmile_qr_scan"}, "lat": 38.90860816666667, "bike_id": "f03c087420279a6ac065b962e8897f47", "lon": -77.04065866666667, "type": "electric_scooter", "fusion_lon": 0.0, "fusion_lat": 0.0, "is_reserved": 0, "name": "f03c087420279a6ac065b962e8897f47", "is_disabled": 0}, {"rental_uris": {"ios": "https://dc.lft.to/lastmile_qr_scan", "android": "https://dc.lft.to/lastmile_qr_scan"}, "lat": 38.90371833333333, "bike_id": "caf3ded2ebba229e4f56439e782d1779", "lon": -77.03482633333333, "type": "electric_scooter", "fusion_lon": 0.0, "fusion_lat": 0.0, "is_reserved": 0, "name": "caf3ded2ebba229e4f56439e782d1779", "is_disabled": 0}, {"rental_uris": {"ios": "https://dc.lft.to/lastmile_qr_scan", "android": "https://dc.lft.to/lastmile_qr_scan"}, "lat": 38.899659666666665, "bike_id": "fcc1cf575fff0e7f6772eb42f5aaa9d3", "lon": -77.0453, "type": "electric_scooter", "fusion_lon": 0.0, "fusion_lat": 0.0, "is_reserved": 0, "name": "fcc1cf575fff0e7f6772eb42f5aaa9d3", "is_disabled": 0}, {"rental_uris": {"ios": "https://dc.lft.to/lastmile_qr_scan", "android": "https://dc.lft.to/lastmile_qr_scan"}, "lat": 38.93910783333333, "bike_id": "0ba4a7776f268e806dabe8faf99b4bfe", "lon": -77.06044183333333, "type": "electric_scooter", "fusion_lon": 0.0, "fusion_lat": 0.0, "is_reserved": 0, "name": "0ba4a7776f268e806dabe8faf99b4bfe", "is_disabled": 0}, {"rental_uris": {"ios": "https://dc.lft.to/lastmile_qr_scan", "android": "https://dc.lft.to/lastmile_qr_scan"}, "lat": 38.914866, "bike_id": "09f087dd3d48bf7160a4d1de63c9bc8b", "lon": -77.02185916666667, "type": "electric_scooter", "fusion_lon": 0.0, "fusion_lat": 0.0, "is_reserved": 0, "name": "09f087dd3d48bf7160a4d1de63c9bc8b", "is_disabled": 0}, {"rental_uris": {"ios": "https://dc.lft.to/lastmile_qr_scan", "android": "https://dc.lft.to/lastmile_qr_scan"}, "lat": 38.862153166666666, "bike_id": "3de898f40bbb5e2aadddd287e751d0cd", "lon": -76.994832, "type": "electric_scooter", "fusion_lon": 0.0, "fusion_lat": 0.0, "is_reserved": 0, "name": "3de898f40bbb5e2aadddd287e751d0cd", "is_disabled": 0}, {"rental_uris": {"ios": "https://dc.lft.to/lastmile_qr_scan", "android": "https://dc.lft.to/lastmile_qr_scan"}, "lat": 38.905603666666664, "bike_id": "36fe40acfb11f5f2786f2df70ec5f4d7", "lon": -77.04185683333333, "type": "electric_scooter", "fusion_lon": 0.0, "fusion_lat": 0.0, "is_reserved": 0, "name": "36fe40acfb11f5f2786f2df70ec5f4d7", "is_disabled": 0}, {"rental_uris": {"ios": "https://dc.lft.to/lastmile_qr_scan", "android": "https://dc.lft.to/lastmile_qr_scan"},