{"data": {"bikes": [{"lon": -77.01997133333333, "bike_id": "e7d2d406834f087525814e8ee1cc1bdd", "lat": 38.966256666666666, "fusion_lon": 0.0, "fusion_lat": 0.0, "type": "electric_scooter", "name": "e7d2d406834f087525814e8ee1cc1bdd", "is_disabled": 0, "rental_uris": {"ios": "https://dc.lft.to/lastmile_qr_scan", "android": "https://dc.lft.to/lastmile_qr_scan"}, "is_reserved": 0}, {"lon": -77.0273025, "bike_id": "3d35d1b3f2ecf062115aa1294f78acb8", "lat": 38.91070716666667, "fusion_lon": 0.0, "fusion_lat": 0.0, "type": "electric_scooter", "name": "3d35d1b3f2ecf062115aa1294f78acb8", "is_disabled": 0, "rental_uris": {"ios": "https://dc.lft.to/lastmile_qr_scan", "android": "https://dc.lft.to/lastmile_qr_scan"}, "is_reserved": 0}, {"lon": -76.98469333333334, "bike_id": "bc8783d624306f371d14699a775d05bd", "lat": 38.904008833333336, "fusion_lon": 0.0, "fusion_lat": 0.0, "type": "electric_scooter", "name": "bc8783d624306f371d14699a775d05bd", "is_disabled": 0, "rental_uris": {"ios": "https://dc.lft.to/lastmile_qr_scan", "android": "https://dc.lft.to/lastmile_qr_scan"}, "is_reserved": 0}, {"lon": -77.03622133333333, "bike_id": "c056a04bbcbc4f6b3d79739ecec7e64c", "lat": 38.93677533333333, "fusion_lon": 0.0, "fusion_lat": 0.0, "type": "electric_scooter", "name": "c056a04bbcbc4f6b3d79739ecec7e64c", "is_disabled": 0, "rental_uris": {"ios": "https://dc.lft.to/lastmile_qr_scan", "android": "https://dc.lft.to/lastmile_qr_scan"}, "is_reserved": 0}, {"lon": -76.99454916666667, "bike_id": "322512260063029833e04739c60a0af9", "lat": 38.86214366666667, "fusion_lon": 0.0, "fusion_lat": 0.0, "type": "electric_scooter", "name": "322512260063029833e04739c60a0af9", "is_disabled": 0, "rental_uris": {"ios": "https://dc.lft.to/lastmile_qr_scan", "android": "https://dc.lft.to/lastmile_qr_scan"}, "is_reserved": 0}, {"lon": -77.01842, "bike_id": "cc54e38db9ba8e951a69772e70d1061f", "lat": 38.89860633333333, "fusion_lon": 0.0, "fusion_lat": 0.0, "type": "electric_scooter", "name": "cc54e38db9ba8e951a69772e70d1061f", "is_disabled": 0, "rental_uris": {"ios": "https://dc.lft.to/lastmile_qr_scan", "android": "https://dc.lft.to/lastmile_qr_scan"}, "is_reserved": 0}, {"lon": -77.02806533333333, "bike_id": "4b5bff24d6825696660c7d258d9f2356", "lat": 38.881758833333336, "fusion_lon": 0.0, "fusion_lat": 0.0, "type": "electric_scooter", "name": "4b5bff24d6825696660c7d258d9f2356", "is_disabled": 0, "rental_uris": {"ios": "https://dc.lft.to/lastmile_qr_scan", "android": "https://dc.lft.to/lastmile_qr_scan"}, "is_reserved": 0}, {"lon": -77.0219835, "bike_id": "14d3e26578e898aaf15df24397eb8405", "lat": 38.9055005, "fusion_lon": 0.0, "fusion_lat": 0.0, "type": "electric_scooter", "name": "14d3e26578e898aaf15df24397eb8405", "is_disabled": 0, "rental_uris": {"ios": "https://dc.lft.to/lastmile_qr_scan", "android": "https://dc.lft.to/lastmile_qr_scan"}, "is_reserved": 0}, {"lon": -77.054705, "bike_id": "6721f85c53222ea56d72823be5403257", "lat": 38.904293, "fusion_lon": 0.0, "fusion_lat": 0.0, "type": "electric_scooter", "name": "6721f85c53222ea56d72823be5403257", "is_disabled": 0, "rental_uris": {"ios": "https://dc.lft.to/lastmile_qr_scan", "android": "https://dc.lft.to/lastmile_qr_scan"}, "is_reserved": 0}, {"lon": -77.027609, "bike_id": "0db6906bfef82c875c6dcb43a26d2f15", "lat": 38.954269, "fusion_lon": 0.0, "fusion_lat": 0.0, "type": "electric_scooter", "name": "0db6906bfef82c875c6dcb43a26d2f15", "is_disabled": 0, "rental_uris": {"ios": "https://dc.lft.to/lastmile_qr_scan", "android": "https://dc.lft.to/lastmile_qr_scan"}, "is_reserved": 0}, {"lon": -77.04866366666667, "bike_id": "950c8d56526a73fa30f4452bcbc8d2b9", "lat": 38.89220683333333, "fusion_lon": 0.0, "fusion_lat": 0.0, "type": "electric_scooter", "name": "950c8d56526a73fa30f4452bcbc8d2b9", "is_disabled": 0, "rental_uris": {"ios": "https://dc.lft.to/lastmile_qr_scan", "android": "https://dc.lft.to/lastmile_qr_scan"}, "is_reserved": 0}, {"lon": -77.01963483333333, "bike_id": "21b4fa9d0c95d44d59c923aee83266db", "lat": 38.90098533333333, "fusion_lon": 0.0, "fusion_lat": 0.0, "type": "electric_scooter", "name": "21b4fa9d0c95d44d59c923aee83266db", "is_disabled": 0, "rental_uris": {"ios": "https://dc.lft.to/lastmile_qr_scan", "android": "https://dc.lft.to/lastmile_qr_scan"}, "is_reserved": 0}, {"lon": -77.01672866666667, "bike_id": "cc711dece09b056139493c42fcb2c548", "lat": 38.87693466666666, "fusion_lon": 0.0, "fusion_lat": 0.0, "type": "electric_scooter", "name": "cc711dece09b056139493c42fcb2c548", "is_disabled": 0, "rental_uris": {"ios": "https://dc.lft.to/lastmile_qr_scan", "android": "https://dc.lft.to/lastmile_qr_scan"}, "is_reserved": 0}, {"lon": -77.021881, "bike_id": "1f0940789b30377d5a4dbe424847f126", "lat": 38.910150333333334, "fusion_lon": 0.0, "fusion_lat": 0.0, "type": "electric_scooter", "name": "1f0940789b30377d5a4dbe424847f126", "is_disabled": 0, "rental_uris": {"ios": "https://dc.lft.to/lastmile_qr_scan", "android": "https://dc.lft.to/lastmile_qr_scan"}, "is_reserved": 0}, {"lon": -77.036525, "bike_id": "0becaafbf21dfda50914d14eb8c277b3", "lat": 38.92121866666667, "fusion_lon": 0.0, "fusion_lat": 0.0, "type": "electric_scooter", "name": "0becaafbf21dfda50914d14eb8c277b3", "is_disabled": 0, "rental_uris": {"ios": "https://dc.lft.to/lastmile_qr_scan", "android": "https://dc.lft.to/lastmile_qr_scan"}, "is_reserved": 0}, {"lon": -77.02154066666667, "bike_id": "0828c68da06413cfdae4a1b86cb9bc5f", "lat": 38.926008, "fusion_lon": 0.0, "fusion_lat": 0.0, "type": "electric_bike", "name": "0828c68da06413cfdae4a1b86cb9bc5f", "is_disabled": 0, "rental_uris": {"ios": "https://dc.lft.to/lastmile_qr_scan", "android": "https://dc.lft.to/lastmile_qr_scan"}, "is_reserved": 0}, {"lon": -76.92735733333333, "bike_id": "8575c9134259039ee2d7de7327096469", "lat": 38.88964983333334, "fusion_lon": 0.0, "fusion_lat": 0.0, "type": "electric_scooter", "name": "8575c9134259039ee2d7de7327096469", "is_disabled": 0, "rental_uris": {"ios": "https://dc.lft.to/lastmile_qr_scan", "android": "https://dc.lft.to/lastmile_qr_scan"}, "is_reserved": 0}, {"lon": -77.01889333333334, "bike_id": "6b62c804d4ff84199fc12f187c532ead", "lat": 38.905061333333336, "fusion_lon": 0.0, "fusion_lat": 0.0, "type": "electric_scooter", "name": "6b62c804d4ff84199fc12f187c532ead", "is_disabled": 0, "rental_uris": {"ios": "https://dc.lft.to/lastmile_qr_scan", "android": "https://dc.lft.to/lastmile_qr_scan"}, "is_reserved": 0}, {"lon": -77.01428866666667, "bike_id": "fda93e706909d13c5f92d4eb8699ac1e", "lat": 38.876495, "fusion_lon": 0.0, "fusion_lat": 0.0, "type": "electric_scooter", "name": "fda93e706909d13c5f92d4eb8699ac1e", "is_disabled": 0, "rental_uris": {"ios": "https://dc.lft.to/lastmile_qr_scan", "android": "https://dc.lft.to/lastmile_qr_scan"}, "is_reserved": 0}, {"lon": -76.985494, "bike_id": "0d4f0326dac63e0bec8b15c74b8f8f60", "lat": 38.9200025, "fusion_lon": 0.0, "fusion_lat": 0.0, "type": "electric_scooter", "name": "0d4f0326dac63e0bec8b15c74b8f8f60", "is_disabled": 0, "rental_uris": {"ios": "https://dc.lft.to/lastmile_qr_scan", "android": "https://dc.lft.to/lastmile_qr_scan"}, "is_reserved": 0}, {"lon": -77.05173516666666, "bike_id": "1bba4c0678ac5d4fc3cf4e5c9c60b3b0", "lat": 38.92342633333333, "fusion_lon": 0.0, "fusion_lat": 0.0, "type": "electric_scooter", "name": "1bba4c0678ac5d4fc3cf4e5c9c60b3b0", "is_disabled": 0, "rental_uris": {"ios": "https://dc.lft.to/lastmile_qr_scan", "android": "https://dc.lft.to/lastmile_qr_scan"}, "is_reserved": 0}, {"lon": -76.93348333333333, "bike_id": "f8526363e6b4cbea5ebe6f33c75cb9ab", "lat": 38.89900766666667, "fusion_lon": 0.0, "fusion_lat": 0.0, "type": "electric_scooter", "name": "f8526363e6b4cbea5ebe6f33c75cb9ab", "is_disabled": 0, "rental_uris": {"ios": "https://dc.lft.to/lastmile_qr_scan", "android": "https://dc.lft.to/lastmile_qr_scan"}, "is_reserved": 0}, {"lon": -76.98285016666667, "bike_id": "54e1a27f1cd1b6d303f302b70b88f41f", "lat": 38.900450666666664, "fusion_lon": 0.0, "fusion_lat": 0.0, "type": "electric_scooter", "name": "54e1a27f1cd1b6d303f302b70b88f41f", "is_disabled": 0, "rental_uris": {"ios": "https://dc.lft.to/lastmile_qr_scan", "android": "https://dc.lft.to/lastmile_qr_scan"}, "is_reserved": 0}, {"lon": -77.05127733333333, "bike_id": "1b9ec1d564fcb49ec780bfa052070e89", "lat": 38.923597, "fusion_lon": 0.0, "fusion_lat": 0.0, "type": "electric_scooter", "name": "1b9ec1d564fcb49ec780bfa052070e89", "is_disabled": 0, "rental_uris": {"ios": "https://dc.lft.to/lastmile_qr_scan", "android": "https://dc.lft.to/lastmile_qr_scan"}, "is_reserved": 0}, {"lon": -77.03444633333334, "bike_id": "21fc1e81247286da10d9b984905fc9a5", "lat": 38.90890616666667, "fusion_lon": 0.0, "fusion_lat": 0.0, "type": "electric_scooter", "name": "21fc1e81247286da10d9b984905fc9a5", "is_disabled": 0, "rental_uris": {"ios": "https://dc.lft.to/lastmile_qr_scan", "android": "https://dc.lft.to/lastmile_qr_scan"}, "is_reserved": 0}, {"lon": -77.0832195, "bike_id": "ec048d5aa29b5081e4436b8e6cf35d32", "lat": 38.929848166666666, "fusion_lon": 0.0, "fusion_lat": 0.0, "type": "electric_scooter", "name": "ec048d5aa29b5081e4436b8e6cf35d32", "is_disabled": 0, "rental_uris": {"ios": "https://dc.lft.to/lastmile_qr_scan", "android": "https://dc.lft.to/lastmile_qr_scan"}, "is_reserved": 0}, {"lon": -77.03991816666667, "bike_id": "7df6a0de3344ae84b1675523f157e76a", "lat": 38.924600833333336, "fusion_lon": 0.0, "fusion_lat": 0.0, "type": "electric_scooter", "name": "7df6a0de3344ae84b1675523f157e76a", "is_disabled": 0, "rental_uris": {"ios": "https://dc.lft.to/lastmile_qr_scan", "android": "https://dc.lft.to/lastmile_qr_scan"}, "is_reserved": 0}, {"lon": -77.0447835, "bike_id": "f5e0f3e3174fb8772730de4d95227ab5", "lat": 38.9158465, "fusion_lon": 0.0, "fusion_lat": 0.0, "type": "electric_scooter", "name": "f5e0f3e3174fb8772730de4d95227ab5", "is_disabled": 0, "rental_uris": {"ios": "https://dc.lft.to/lastmile_qr_scan", "android": "https://dc.lft.to/lastmile_qr_scan"}, "is_reserved": 0}, {"lon": -77.126516, "bike_id": "f5ff1d1d77f61f5a837eba65478c7423", "lat": 38.81510016666667, "fusion_lon": 0.0, "fusion_lat": 0.0, "type": "electric_bike", "name": "f5ff1d1d77f61f5a837eba65478c7423", "is_disabled": 0, "rental_uris": {"ios": "https://dc.lft.to/lastmile_qr_scan", "android": "https://dc.lft.to/lastmile_qr_scan"}, "is_reserved": 0}, {"lon": -77.044877, "bike_id": "2fb01bfe3baccbe3abb0791085ac45dd", "lat": 38.90709783333333, "fusion_lon": 0.0, "fusion_lat": 0.0, "type": "electric_scooter", "name": "2fb01bfe3baccbe3abb0791085ac45dd", "is_disabled": 0, "rental_uris": {"ios": "https://dc.lft.to/lastmile_qr_scan", "android": "https://dc.lft.to/lastmile_qr_scan"}, "is_reserved": 0}, {"lon": -77.040193, "bike_id": "94157b9811893a81ac61ffe1785e86c1", "lat": 38.91599733333334, "fusion_lon": 0.0, "fusion_lat": 0.0, "type": "electric_scooter", "name": "94157b9811893a81ac61ffe1785e86c1", "is_disabled": 0, "rental_uris": {"ios": "https://dc.lft.to/lastmile_qr_scan", "android": "https://dc.lft.to/lastmile_qr_scan"}, "is_reserved": 0}, {"lon": -77.037936, "bike_id": "cdd6eeb7be584e09f54a9274fcf7a6e9", "lat": 38.925857666666666, "fusion_lon": 0.0, "fusion_lat": 0.0, "type": "electric_scooter", "name": "cdd6eeb7be584e09f54a9274fcf7a6e9", "is_disabled": 0, "rental_uris": {"ios": "https://dc.lft.to/lastmile_qr_scan", "android": "https://dc.lft.to/lastmile_qr_scan"}, "is_reserved": 0}, {"lon": -77.05159633333334, "bike_id": "7da24cf9d163c32ac4ca8e8fef297a12", "lat": 38.903173333333335, "fusion_lon": 0.0, "fusion_lat": 0.0, "type": "electric_scooter", "name": "7da24cf9d163c32ac4ca8e8fef297a12", "is_disabled": 0, "rental_uris": {"ios": "https://dc.lft.to/lastmile_qr_scan", "android": "https://dc.lft.to/lastmile_qr_scan"}, "is_reserved": 0}, {"lon": -77.02129716666667, "bike_id": "07cd21c62ff7f36588c14258133364d2", "lat": 38.901860166666665, "fusion_lon": 0.0, "fusion_lat": 0.0, "type": "electric_scooter", "name": "07cd21c62ff7f36588c14258133364d2", "is_disabled": 0, "rental_uris": {"ios": "https://dc.lft.to/lastmile_qr_scan", "android": "https://dc.lft.to/lastmile_qr_scan"}, "is_reserved": 0}, {"lon": -76.98835166666667, "bike_id": "d644def63bbe0e0e64c6e51b3f6ddcc9", "lat": 38.900756333333334, "fusion_lon": 0.0, "fusion_lat": 0.0, "type": "electric_scooter", "name": "d644def63bbe0e0e64c6e51b3f6ddcc9", "is_disabled": 0, "rental_uris": {"ios": "https://dc.lft.to/lastmile_qr_scan", "android": "https://dc.lft.to/lastmile_qr_scan"}, "is_reserved": 0}, {"lon": -77.024638, "bike_id": "7044f1f58da4333456736ec89714c345", "lat": 38.91693016666667, "fusion_lon": 0.0, "fusion_lat": 0.0, "type": "electric_scooter", "name": "7044f1f58da4333456736ec89714c345", "is_disabled": 0, "rental_uris": {"ios": "https://dc.lft.to/lastmile_qr_scan", "android": "https://dc.lft.to/lastmile_qr_scan"}, "is_reserved": 0}, {"lon": -77.03863416666667, "bike_id": "390fd5602436493e3d2972b5cd0ead3a", "lat": 38.91702383333333, "fusion_lon": 0.0, "fusion_lat": 0.0, "type": "electric_scooter", "name": "390fd5602436493e3d2972b5cd0ead3a", "is_disabled": 0, "rental_uris": {"ios": "https://dc.lft.to/lastmile_qr_scan", "android": "https://dc.lft.to/lastmile_qr_scan"}, "is_reserved": 0}, {"lon": -77.061176, "bike_id": "b08d6ddf02d47ebdea07e5233588af96", "lat": 38.943682833333334, "fusion_lon": 0.0, "fusion_lat": 0.0, "type": "electric_scooter", "name": "b08d6ddf02d47ebdea07e5233588af96", "is_disabled": 0, "rental_uris": {"ios": "https://dc.lft.to/lastmile_qr_scan", "android": "https://dc.lft.to/lastmile_qr_scan"}, "is_reserved": 0}, {"lon": -76.98377533333333, "bike_id": "05a284b3272ed9b4af75c176ea11c06f", "lat": 38.89146233333334, "fusion_lon": 0.0, "fusion_lat": 0.0, "type": "electric_scooter", "name": "05a284b3272ed9b4af75c176ea11c06f", "is_disabled": 0, "rental_uris": {"ios": "https://dc.lft.to/lastmile_qr_scan", "android": "https://dc.lft.to/lastmile_qr_scan"}, "is_reserved": 0}, {"lon": -76.98563733333333, "bike_id": "efdfdefdc313f410f9df55e313ee9125", "lat": 38.896134, "fusion_lon": 0.0, "fusion_lat": 0.0, "type": "electric_scooter", "name": "efdfdefdc313f410f9df55e313ee9125", "is_disabled": 0, "rental_uris": {"ios": "https://dc.lft.to/lastmile_qr_scan", "android": "https://dc.lft.to/lastmile_qr_scan"}, "is_reserved": 0}, {"lon": -77.0318365, "bike_id": "35d2ca41f8a2da0057549e77a52a8c29", "lat": 38.93602716666667, "fusion_lon": 0.0, "fusion_lat": 0.0, "type": "electric_scooter", "name": "35d2ca41f8a2da0057549e77a52a8c29", "is_disabled": 0, "rental_uris": {"ios": "https://dc.lft.to/lastmile_qr_scan", "android": "https://dc.lft.to/lastmile_qr_scan"}, "is_reserved": 0}, {"lon": -77.02567683333334, "bike_id": "3e7986ee4be7116f72dcf70dbc33c569", "lat": 38.90148133333334, "fusion_lon": 0.0, "fusion_lat": 0.0, "type": "electric_scooter", "name": "3e7986ee4be7116f72dcf70dbc33c569", "is_disabled": 0, "rental_uris": {"ios": "https://dc.lft.to/lastmile_qr_scan", "android": "https://dc.lft.to/lastmile_qr_scan"}, "is_reserved": 0}, {"lon": -77.00920283333333, "bike_id": "eaac6c938dd627776045adb740855fc1", "lat": 38.910675833333336, "fusion_lon": 0.0, "fusion_lat": 0.0, "type": "electric_scooter", "name": "eaac6c938dd627776045adb740855fc1", "is_disabled": 0, "rental_uris": {"ios": "https://dc.lft.to/lastmile_qr_scan", "android": "https://dc.lft.to/lastmile_qr_scan"}, "is_reserved": 0}, {"lon": -77.032643, "bike_id": "8e9d3738f3802e60f31a0afe0e1ad2ab", "lat": 38.928477, "fusion_lon": 0.0, "fusion_lat": 0.0, "type": "electric_scooter", "name": "8e9d3738f3802e60f31a0afe0e1ad2ab", "is_disabled": 0, "rental_uris": {"ios": "https://dc.lft.to/lastmile_qr_scan", "android": "https://dc.lft.to/lastmile_qr_scan"}, "is_reserved": 0}, {"lon": -77.04278616666667, "bike_id": "daba5ab8fb3334a2ee6601ce04f01ecc", "lat": 38.92242533333334, "fusion_lon": 0.0, "fusion_lat": 0.0, "type": "electric_scooter", "name": "daba5ab8fb3334a2ee6601ce04f01ecc", "is_disabled": 0, "rental_uris": {"ios": "https://dc.lft.to/lastmile_qr_scan", "android": "https://dc.lft.to/lastmile_qr_scan"}, "is_reserved": 0}, {"lon": -77.1171, "bike_id": "000fa70ec0d28d9587c897d5c94e884a", "lat": 38.867465, "fusion_lon": 0.0, "fusion_lat": 0.0, "type": "electric_bike", "name": "000fa70ec0d28d9587c897d5c94e884a", "is_disabled": 0, "rental_uris": {"ios": "https://dc.lft.to/lastmile_qr_scan", "android": "https://dc.lft.to/lastmile_qr_scan"}, "is_reserved": 0}, {"lon": -77.04741766666666, "bike_id": "420070c0d3326d4ecb768e96f3e9b177", "lat": 38.917684666666666, "fusion_lon": 0.0, "fusion_lat": 0.0, "type": "electric_scooter", "name": "420070c0d3326d4ecb768e96f3e9b177", "is_disabled": 0, "rental_uris": {"ios": "https://dc.lft.to/lastmile_qr_scan", "android": "https://dc.lft.to/lastmile_qr_scan"}, "is_reserved": 0}, {"lon": -76.98529266666667, "bike_id": "2d28b517081f6a3b4ca6f1ba206af2e9", "lat": 38.90461633333334, "fusion_lon": 0.0, "fusion_lat": 0.0, "type": "electric_scooter", "name": "2d28b517081f6a3b4ca6f1ba206af2e9", "is_disabled": 0, "rental_uris": {"ios": "https://dc.lft.to/lastmile_qr_scan", "android": "https://dc.lft.to/lastmile_qr_scan"}, "is_reserved": 0}, {"lon": -77.024665, "bike_id": "5389aa9973108804819c636c47c4f2e6", "lat": 38.920866333333336, "fusion_lon": 0.0, "fusion_lat": 0.0, "type": "electric_scooter", "name": "5389aa9973108804819c636c47c4f2e6", "is_disabled": 0, "rental_uris": {"ios": "https://dc.lft.to/lastmile_qr_scan", "android": "https://dc.lft.to/lastmile_qr_scan"}, "is_reserved": 0}, {"lon": -77.0482605, "bike_id": "77ad26eecb81ec709cb72147a11a8e4f", "lat": 38.9072855, "fusion_lon": 0.0, "fusion_lat": 0.0, "type": "electric_scooter", "name": "77ad26eecb81ec709cb72147a11a8e4f", "is_disabled": 0, "rental_uris": {"ios": "https://dc.lft.to/lastmile_qr_scan", "android": "https://dc.lft.to/lastmile_qr_scan"}, "is_reserved": 0}, {"lon": -77.017918, "bike_id": "99c4712d2d759ab90ccc23095fe747c6", "lat": 38.921317, "fusion_lon": 0.0, "fusion_lat": 0.0, "type": "electric_scooter", "name": "99c4712d2d759ab90ccc23095fe747c6", "is_disabled": 0, "rental_uris": {"ios": "https://dc.lft.to/lastmile_qr_scan", "android": "https://dc.lft.to/lastmile_qr_scan"}, "is_reserved": 0}, {"lon": -77.05519616666666, "bike_id": "336a5b932334ac25faa84542b0d359ff", "lat": 38.929701333333334, "fusion_lon": 0.0, "fusion_lat": 0.0, "type": "electric_scooter", "name": "336a5b932334ac25faa84542b0d359ff", "is_disabled": 0, "rental_uris": {"ios": "https://dc.lft.to/lastmile_qr_scan", "android": "https://dc.lft.to/lastmile_qr_scan"}, "is_reserved": 0}, {"lon": -77.03841216666666, "bike_id": "dd642ba0a39e34b647aa42308c29c034", "lat": 38.90682116666667, "fusion_lon": 0.0, "fusion_lat": 0.0, "type": "electric_scooter", "name": "dd642ba0a39e34b647aa42308c29c034", "is_disabled": 0, "rental_uris": {"ios": "https://dc.lft.to/lastmile_qr_scan", "android": "https://dc.lft.to/lastmile_qr_scan"}, "is_reserved": 0}, {"lon": -77.02984016666667, "bike_id": "716ef9928aae74712e4be75698b9c53f", "lat": 38.89720833333333, "fusion_lon": 0.0, "fusion_lat": 0.0, "type": "electric_scooter", "name": "716ef9928aae74712e4be75698b9c53f", "is_disabled": 0, "rental_uris": {"ios": "https://dc.lft.to/lastmile_qr_scan", "android": "https://dc.lft.to/lastmile_qr_scan"}, "is_reserved": 0}, {"lon": -77.02978016666667, "bike_id": "37a42158169d7a15f2147775aa6c8a98", "lat": 38.907278833333336, "fusion_lon": 0.0, "fusion_lat": 0.0, "type": "electric_scooter", "name": "37a42158169d7a15f2147775aa6c8a98", "is_disabled": 0, "rental_uris": {"ios": "https://dc.lft.to/lastmile_qr_scan", "android": "https://dc.lft.to/lastmile_qr_scan"}, "is_reserved": 0}, {"lon": -77.02704466666667, "bike_id": "7c01918a4a691f89da2c5cd1c220fdb7", "lat": 38.906692666666665, "fusion_lon": 0.0, "fusion_lat": 0.0, "type": "electric_scooter", "name": "7c01918a4a691f89da2c5cd1c220fdb7", "is_disabled": 0, "rental_uris": {"ios": "https://dc.lft.to/lastmile_qr_scan", "android": "https://dc.lft.to/lastmile_qr_scan"}, "is_reserved": 0}, {"lon": -77.013459, "bike_id": "7a34429a36078c71b14b7c2ff282f091", "lat": 38.87814183333333, "fusion_lon": 0.0, "fusion_lat": 0.0, "type": "electric_scooter", "name": "7a34429a36078c71b14b7c2ff282f091", "is_disabled": 0, "rental_uris": {"ios": "https://dc.lft.to/lastmile_qr_scan", "android": "https://dc.lft.to/lastmile_qr_scan"}, "is_reserved": 0}, {"lon": -77.00092066666667, "bike_id": "7e3f04a0b2646c00b06875bc67d35760", "lat": 38.9163415, "fusion_lon": 0.0, "fusion_lat": 0.0, "type": "electric_scooter", "name": "7e3f04a0b2646c00b06875bc67d35760", "is_disabled": 0, "rental_uris": {"ios": "https://dc.lft.to/lastmile_qr_scan", "android": "https://dc.lft.to/lastmile_qr_scan"}, "is_reserved": 0}, {"lon": -76.98833566666667, "bike_id": "5ddfb3757edf2b375b1d5c6c559d4d4b", "lat": 38.896658, "fusion_lon": 0.0, "fusion_lat": 0.0, "type": "electric_scooter", "name": "5ddfb3757edf2b375b1d5c6c559d4d4b", "is_disabled": 0, "rental_uris": {"ios": "https://dc.lft.to/lastmile_qr_scan", "android": "https://dc.lft.to/lastmile_qr_scan"}, "is_reserved": 0}, {"lon": -77.04480283333334, "bike_id": "a0ef25e21682a5c9bbf2c2272f7db7de", "lat": 38.905039333333335, "fusion_lon": 0.0, "fusion_lat": 0.0, "type": "electric_scooter", "name": "a0ef25e21682a5c9bbf2c2272f7db7de", "is_disabled": 0, "rental_uris": {"ios": "https://dc.lft.to/lastmile_qr_scan", "android": "https://dc.lft.to/lastmile_qr_scan"}, "is_reserved": 0}, {"lon": -76.94680466666667, "bike_id": "5958d0fd16dc6628396780ba94b18b44", "lat": 38.886311666666664, "fusion_lon": 0.0, "fusion_lat": 0.0, "type": "electric_scooter", "name": "5958d0fd16dc6628396780ba94b18b44", "is_disabled": 0, "rental_uris": {"ios": "https://dc.lft.to/lastmile_qr_scan", "android": "https://dc.lft.to/lastmile_qr_scan"}, "is_reserved": 0}, {"lon": -77.02305116666666, "bike_id": "ed4ed7241af54cc7d28721046579f4fb", "lat": 38.92730516666666, "fusion_lon": 0.0, "fusion_lat": 0.0, "type": "electric_scooter", "name": "ed4ed7241af54cc7d28721046579f4fb", "is_disabled": 0, "rental_uris": {"ios": "https://dc.lft.to/lastmile_qr_scan", "android": "https://dc.lft.to/lastmile_qr_scan"}, "is_reserved": 0}, {"lon": -77.028376, "bike_id": "987be512aa10f9d504e6daffbf1f9d63", "lat": 38.88767, "fusion_lon": 0.0, "fusion_lat": 0.0, "type": "electric_scooter", "name": "987be512aa10f9d504e6daffbf1f9d63", "is_disabled": 0, "rental_uris": {"ios": "https://dc.lft.to/lastmile_qr_scan", "android": "https://dc.lft.to/lastmile_qr_scan"}, "is_reserved": 0}, {"lon": -77.041264, "bike_id": "e9b25b2a686c8d94224d9e3043384128", "lat": 38.91548383333333, "fusion_lon": 0.0, "fusion_lat": 0.0, "type": "electric_scooter", "name": "e9b25b2a686c8d94224d9e3043384128", "is_disabled": 0, "rental_uris": {"ios": "https://dc.lft.to/lastmile_qr_scan", "android": "https://dc.lft.to/lastmile_qr_scan"}, "is_reserved": 0}, {"lon": -77.000095, "bike_id": "868df117752cdc9f3937cc54d1699208", "lat": 38.89742566666666, "fusion_lon": 0.0, "fusion_lat": 0.0, "type": "electric_scooter", "name": "868df117752cdc9f3937cc54d1699208", "is_disabled": 0, "rental_uris": {"ios": "https://dc.lft.to/lastmile_qr_scan", "android": "https://dc.lft.to/lastmile_qr_scan"}, "is_reserved": 0}, {"lon": -76.96500316666666, "bike_id": "39870a2802dc0081934973dc6e662409", "lat": 38.8765215, "fusion_lon": 0.0, "fusion_lat": 0.0, "type": "electric_scooter", "name": "39870a2802dc0081934973dc6e662409", "is_disabled": 0, "rental_uris": {"ios": "https://dc.lft.to/lastmile_qr_scan", "android": "https://dc.lft.to/lastmile_qr_scan"}, "is_reserved": 0}, {"lon": -77.05751966666666, "bike_id": "1eafca0c78894d69dc7931347c8d3e50", "lat": 38.924957, "fusion_lon": 0.0, "fusion_lat": 0.0, "type": "electric_bike", "name": "1eafca0c78894d69dc7931347c8d3e50", "is_disabled": 0, "rental_uris": {"ios": "https://dc.lft.to/lastmile_qr_scan", "android": "https://dc.lft.to/lastmile_qr_scan"}, "is_reserved": 0}, {"lon": -77.02797583333333, "bike_id": "29ef51f05ef0d1fb9c3da364d080de7b", "lat": 38.90732783333333, "fusion_lon": 0.0, "fusion_lat": 0.0, "type": "electric_scooter", "name": "29ef51f05ef0d1fb9c3da364d080de7b", "is_disabled": 0, "rental_uris": {"ios": "https://dc.lft.to/lastmile_qr_scan", "android": "https://dc.lft.to/lastmile_qr_scan"}, "is_reserved": 0}, {"lon": -77.10840866666666, "bike_id": "fb8e41a6513fb163e40478a7b3652daa", "lat": 38.81201866666667, "fusion_lon": 0.0, "fusion_lat": 0.0, "type": "electric_bike", "name": "fb8e41a6513fb163e40478a7b3652daa", "is_disabled": 0, "rental_uris": {"ios": "https://dc.lft.to/lastmile_qr_scan", "android": "https://dc.lft.to/lastmile_qr_scan"}, "is_reserved": 0}, {"lon": -76.9976085, "bike_id": "6bdae5bfd29822afaef17444e98811ba", "lat": 38.8876785, "fusion_lon": 0.0, "fusion_lat": 0.0, "type": "electric_scooter", "name": "6bdae5bfd29822afaef17444e98811ba", "is_disabled": 0, "rental_uris": {"ios": "https://dc.lft.to/lastmile_qr_scan", "android": "https://dc.lft.to/lastmile_qr_scan"}, "is_reserved": 0}, {"lon": -76.9419595, "bike_id": "9a5c0cbc10c9ab72dad2e1c8df5bbb27", "lat": 38.89374466666666, "fusion_lon": 0.0, "fusion_lat": 0.0, "type": "electric_scooter", "name": "9a5c0cbc10c9ab72dad2e1c8df5bbb27", "is_disabled": 0, "rental_uris": {"ios": "https://dc.lft.to/lastmile_qr_scan", "android": "https://dc.lft.to/lastmile_qr_scan"}, "is_reserved": 0}, {"lon": -77.01511766666667, "bike_id": "36cde1f40bfc568a454bcaf83385da0a", "lat": 38.884926166666666, "fusion_lon": 0.0, "fusion_lat": 0.0, "type": "electric_scooter", "name": "36cde1f40bfc568a454bcaf83385da0a", "is_disabled": 0, "rental_uris": {"ios": "https://dc.lft.to/lastmile_qr_scan", "android": "https://dc.lft.to/lastmile_qr_scan"}, "is_reserved": 0}, {"lon": -77.03421916666667, "bike_id": "9db6a46714320f1a44b15f6817025fbe", "lat": 38.92737366666667, "fusion_lon": 0.0, "fusion_lat": 0.0, "type": "electric_scooter", "name": "9db6a46714320f1a44b15f6817025fbe", "is_disabled": 0, "rental_uris": {"ios": "https://dc.lft.to/lastmile_qr_scan", "android": "https://dc.lft.to/lastmile_qr_scan"}, "is_reserved": 0}, {"lon": -77.04901916666667, "bike_id": "9c430e80a5193c91692fd9819bede498", "lat": 38.91599133333333, "fusion_lon": 0.0, "fusion_lat": 0.0, "type": "electric_scooter", "name": "9c430e80a5193c91692fd9819bede498", "is_disabled": 0, "rental_uris": {"ios": "https://dc.lft.to/lastmile_qr_scan", "android": "https://dc.lft.to/lastmile_qr_scan"}, "is_reserved": 0}, {"lon": -77.025749, "bike_id": "4e63bcb9b88bf2a715ebff3c340177ab", "lat": 38.914033333333336, "fusion_lon": 0.0, "fusion_lat": 0.0, "type": "electric_scooter", "name": "4e63bcb9b88bf2a715ebff3c340177ab", "is_disabled": 0, "rental_uris": {"ios": "https://dc.lft.to/lastmile_qr_scan", "android": "https://dc.lft.to/lastmile_qr_scan"}, "is_reserved": 0}, {"lon": -77.03423483333333, "bike_id": "d20061e6151b640347ebd17d3eea6718", "lat": 38.96532, "fusion_lon": 0.0, "fusion_lat": 0.0, "type": "electric_bike", "name": "d20061e6151b640347ebd17d3eea6718", "is_disabled": 0, "rental_uris": {"ios": "https://dc.lft.to/lastmile_qr_scan", "android": "https://dc.lft.to/lastmile_qr_scan"}, "is_reserved": 0}, {"lon": -77.05304816666667, "bike_id": "71d9bdacedbed13f126b7731d9c74ad7", "lat": 38.90069166666667, "fusion_lon": 0.0, "fusion_lat": 0.0, "type": "electric_scooter", "name": "71d9bdacedbed13f126b7731d9c74ad7", "is_disabled": 0, "rental_uris": {"ios": "https://dc.lft.to/lastmile_qr_scan", "android": "https://dc.lft.to/lastmile_qr_scan"}, "is_reserved": 0}, {"lon": -76.99565016666666, "bike_id": "baadafff7fc41a9b019e3d20c4c327d4", "lat": 38.8620115, "fusion_lon": 0.0, "fusion_lat": 0.0, "type": "electric_scooter", "name": "baadafff7fc41a9b019e3d20c4c327d4", "is_disabled": 0, "rental_uris": {"ios": "https://dc.lft.to/lastmile_qr_scan", "android": "https://dc.lft.to/lastmile_qr_scan"}, "is_reserved": 0}, {"lon": -76.972059, "bike_id": "ebac2439d2a8b6a60d9c6b382f017076", "lat": 38.89290866666666, "fusion_lon": 0.0, "fusion_lat": 0.0, "type": "electric_bike", "name": "ebac2439d2a8b6a60d9c6b382f017076", "is_disabled": 0, "rental_uris": {"ios": "https://dc.lft.to/lastmile_qr_scan", "android": "https://dc.lft.to/lastmile_qr_scan"}, "is_reserved": 0}, {"lon": -77.0279555, "bike_id": "a90e1759f81c9b7d83d2421b9d6025a4", "lat": 38.9066005, "fusion_lon": 0.0, "fusion_lat": 0.0, "type": "electric_scooter", "name": "a90e1759f81c9b7d83d2421b9d6025a4", "is_disabled": 0, "rental_uris": {"ios": "https://dc.lft.to/lastmile_qr_scan", "android": "https://dc.lft.to/lastmile_qr_scan"}, "is_reserved": 0}, {"lon": -77.05569783333334, "bike_id": "4b68297dad5011f2b3b0cefcfd75ed9d", "lat": 38.897341833333336, "fusion_lon": 0.0, "fusion_lat": 0.0, "type": "electric_scooter", "name": "4b68297dad5011f2b3b0cefcfd75ed9d", "is_disabled": 0, "rental_uris": {"ios": "https://dc.lft.to/lastmile_qr_scan", "android": "https://dc.lft.to/lastmile_qr_scan"}, "is_reserved": 0}, {"lon": -76.94653583333333, "bike_id": "757764be8b9ba5c77c3719969e18bb84", "lat": 38.89825066666667, "fusion_lon": 0.0, "fusion_lat": 0.0, "type": "electric_scooter", "name": "757764be8b9ba5c77c3719969e18bb84", "is_disabled": 0, "rental_uris": {"ios": "https://dc.lft.to/lastmile_qr_scan", "android": "https://dc.lft.to/lastmile_qr_scan"}, "is_reserved": 0}, {"lon": -76.98229016666667, "bike_id": "071099edb82d3f635cff786f1346bfe2", "lat": 38.86475216666667, "fusion_lon": 0.0, "fusion_lat": 0.0, "type": "electric_scooter", "name": "071099edb82d3f635cff786f1346bfe2", "is_disabled": 0, "rental_uris": {"ios": "https://dc.lft.to/lastmile_qr_scan", "android": "https://dc.lft.to/lastmile_qr_scan"}, "is_reserved": 0}, {"lon": -77.0177065, "bike_id": "a201b696c764f7d8280bfc36a56ef9cb", "lat": 38.900387333333335, "fusion_lon": 0.0, "fusion_lat": 0.0, "type": "electric_scooter", "name": "a201b696c764f7d8280bfc36a56ef9cb", "is_disabled": 0, "rental_uris": {"ios": "https://dc.lft.to/lastmile_qr_scan", "android": "https://dc.lft.to/lastmile_qr_scan"}, "is_reserved": 0}, {"lon": -76.99032183333334, "bike_id": "a08ad00df3a3e00898f32838ec1906a2", "lat": 38.8960065, "fusion_lon": 0.0, "fusion_lat": 0.0, "type": "electric_scooter", "name": "a08ad00df3a3e00898f32838ec1906a2", "is_disabled": 0, "rental_uris": {"ios": "https://dc.lft.to/lastmile_qr_scan", "android": "https://dc.lft.to/lastmile_qr_scan"}, "is_reserved": 0}, {"lon": -77.13936416666667, "bike_id": "cd6ffc5dfcc099cf05f49e5ce895c706", "lat": 38.873016666666665, "fusion_lon": 0.0, "fusion_lat": 0.0, "type": "electric_bike", "name": "cd6ffc5dfcc099cf05f49e5ce895c706", "is_disabled": 0, "rental_uris": {"ios": "https://dc.lft.to/lastmile_qr_scan", "android": "https://dc.lft.to/lastmile_qr_scan"}, "is_reserved": 0}, {"lon": -77.03661333333334, "bike_id": "1de1123d6f8c95d80550b43c879ee3a6", "lat": 38.9129515, "fusion_lon": 0.0, "fusion_lat": 0.0, "type": "electric_scooter", "name": "1de1123d6f8c95d80550b43c879ee3a6", "is_disabled": 0, "rental_uris": {"ios": "https://dc.lft.to/lastmile_qr_scan", "android": "https://dc.lft.to/lastmile_qr_scan"}, "is_reserved": 0}, {"lon": -77.02974566666667, "bike_id": "3471745279266d8d6d0dba379246eefd", "lat": 38.916773, "fusion_lon": 0.0, "fusion_lat": 0.0, "type": "electric_scooter", "name": "3471745279266d8d6d0dba379246eefd", "is_disabled": 0, "rental_uris": {"ios": "https://dc.lft.to/lastmile_qr_scan", "android": "https://dc.lft.to/lastmile_qr_scan"}, "is_reserved": 0}, {"lon": -77.02265366666667, "bike_id": "6199b7d411f486f14e5575b12c998aab", "lat": 38.92741383333333, "fusion_lon": 0.0, "fusion_lat": 0.0, "type": "electric_scooter", "name": "6199b7d411f486f14e5575b12c998aab", "is_disabled": 0, "rental_uris": {"ios": "https://dc.lft.to/lastmile_qr_scan", "android": "https://dc.lft.to/lastmile_qr_scan"}, "is_reserved": 0}, {"lon": -77.03197716666666, "bike_id": "5b06c4f02003ad48ed30722804d4cee4", "lat": 38.9150395, "fusion_lon": 0.0, "fusion_lat": 0.0, "type": "electric_scooter", "name": "5b06c4f02003ad48ed30722804d4cee4", "is_disabled": 0, "rental_uris": {"ios": "https://dc.lft.to/lastmile_qr_scan", "android": "https://dc.lft.to/lastmile_qr_scan"}, "is_reserved": 0}, {"lon": -77.04325616666667, "bike_id": "a3c429fcad83bdb03dd3a91a6bb5aaf8", "lat": 38.918795833333334, "fusion_lon": 0.0, "fusion_lat": 0.0, "type": "electric_scooter", "name": "a3c429fcad83bdb03dd3a91a6bb5aaf8", "is_disabled": 0, "rental_uris": {"ios": "https://dc.lft.to/lastmile_qr_scan", "android": "https://dc.lft.to/lastmile_qr_scan"}, "is_reserved": 0}, {"lon": -77.000972, "bike_id": "93e669bfa769f9baef6d4446d2dc8489", "lat": 38.8947925, "fusion_lon": 0.0, "fusion_lat": 0.0, "type": "electric_scooter", "name": "93e669bfa769f9baef6d4446d2dc8489", "is_disabled": 0, "rental_uris": {"ios": "https://dc.lft.to/lastmile_qr_scan", "android": "https://dc.lft.to/lastmile_qr_scan"}, "is_reserved": 0}, {"lon": -77.065337, "bike_id": "fa0c979abbb105ccb08e7d1252b78bdd", "lat": 38.94738516666666, "fusion_lon": 0.0, "fusion_lat": 0.0, "type": "electric_scooter", "name": "fa0c979abbb105ccb08e7d1252b78bdd", "is_disabled": 0, "rental_uris": {"ios": "https://dc.lft.to/lastmile_qr_scan", "android": "https://dc.lft.to/lastmile_qr_scan"}, "is_reserved": 0}, {"lon": -76.998834, "bike_id": "9bc00e500ad98ad76acb6e674fca7a88", "lat": 38.9205925, "fusion_lon": 0.0, "fusion_lat": 0.0, "type": "electric_scooter", "name": "9bc00e500ad98ad76acb6e674fca7a88", "is_disabled": 0, "rental_uris": {"ios": "https://dc.lft.to/lastmile_qr_scan", "android": "https://dc.lft.to/lastmile_qr_scan"}, "is_reserved": 0}, {"lon": -77.05232816666667, "bike_id": "7998ed530e3ec524f5e5a0df71ce6cc4", "lat": 38.90009966666667, "fusion_lon": 0.0, "fusion_lat": 0.0, "type": "electric_scooter", "name": "7998ed530e3ec524f5e5a0df71ce6cc4", "is_disabled": 0, "rental_uris": {"ios": "https://dc.lft.to/lastmile_qr_scan", "android": "https://dc.lft.to/lastmile_qr_scan"}, "is_reserved": 0}, {"lon": -77.03389966666667, "bike_id": "410df30e04cb5e25fd12e091fc8a98c8", "lat": 38.96025916666667, "fusion_lon": 0.0, "fusion_lat": 0.0, "type": "electric_bike", "name": "410df30e04cb5e25fd12e091fc8a98c8", "is_disabled": 0, "rental_uris": {"ios": "https://dc.lft.to/lastmile_qr_scan", "android": "https://dc.lft.to/lastmile_qr_scan"}, "is_reserved": 0}, {"lon": -76.984838, "bike_id": "259cca98b0eff7a98acda7577a6a685c", "lat": 38.8989685, "fusion_lon": 0.0, "fusion_lat": 0.0, "type": "electric_scooter", "name": "259cca98b0eff7a98acda7577a6a685c", "is_disabled": 0, "rental_uris": {"ios": "https://dc.lft.to/lastmile_qr_scan", "android": "https://dc.lft.to/lastmile_qr_scan"}, "is_reserved": 0}, {"lon": -77.0090665, "bike_id": "fd5d079c2edcc9294176bcc1dd3c194f", "lat": 38.895555333333334, "fusion_lon": 0.0, "fusion_lat": 0.0, "type": "electric_scooter", "name": "fd5d079c2edcc9294176bcc1dd3c194f", "is_disabled": 0, "rental_uris": {"ios": "https://dc.lft.to/lastmile_qr_scan", "android": "https://dc.lft.to/lastmile_qr_scan"}, "is_reserved": 0}, {"lon": -77.00360483333333, "bike_id": "3fa010ea740879af9c8a85c33c8bedcd", "lat": 38.9155515, "fusion_lon": 0.0, "fusion_lat": 0.0, "type": "electric_scooter", "name": "3fa010ea740879af9c8a85c33c8bedcd", "is_disabled": 0, "rental_uris": {"ios": "https://dc.lft.to/lastmile_qr_scan", "android": "https://dc.lft.to/lastmile_qr_scan"}, "is_reserved": 0}, {"lon": -76.9657955, "bike_id": "b9cf5b195089e1c3b666d1b791e8c341", "lat": 38.87150033333333, "fusion_lon": 0.0, "fusion_lat": 0.0, "type": "electric_scooter", "name": "b9cf5b195089e1c3b666d1b791e8c341", "is_disabled": 0, "rental_uris": {"ios": "https://dc.lft.to/lastmile_qr_scan", "android": "https://dc.lft.to/lastmile_qr_scan"}, "is_reserved": 0}, {"lon": -77.04215983333333, "bike_id": "957f147e3b1d15e0f4623048e5718868", "lat": 38.911196, "fusion_lon": 0.0, "fusion_lat": 0.0, "type": "electric_scooter", "name": "957f147e3b1d15e0f4623048e5718868", "is_disabled": 0, "rental_uris": {"ios": "https://dc.lft.to/lastmile_qr_scan", "android": "https://dc.lft.to/lastmile_qr_scan"}, "is_reserved": 0}, {"lon": -76.9977775, "bike_id": "9142405587708d7a4e599a44c883edd3", "lat": 38.84428283333333, "fusion_lon": 0.0, "fusion_lat": 0.0, "type": "electric_scooter", "name": "9142405587708d7a4e599a44c883edd3", "is_disabled": 0, "rental_uris": {"ios": "https://dc.lft.to/lastmile_qr_scan", "android": "https://dc.lft.to/lastmile_qr_scan"}, "is_reserved": 0}, {"lon": -77.00286, "bike_id": "10eb1e4a9d6a1bfbbdcf15c73a32471c", "lat": 38.957052833333336, "fusion_lon": 0.0, "fusion_lat": 0.0, "type": "electric_bike", "name": "10eb1e4a9d6a1bfbbdcf15c73a32471c", "is_disabled": 0, "rental_uris": {"ios": "https://dc.lft.to/lastmile_qr_scan", "android": "https://dc.lft.to/lastmile_qr_scan"}, "is_reserved": 0}, {"lon": -76.9954785, "bike_id": "955ed7aad96d4f81de14f41b14bea7da", "lat": 38.862649166666664, "fusion_lon": 0.0, "fusion_lat": 0.0, "type": "electric_scooter", "name": "955ed7aad96d4f81de14f41b14bea7da", "is_disabled": 0, "rental_uris": {"ios": "https://dc.lft.to/lastmile_qr_scan", "android": "https://dc.lft.to/lastmile_qr_scan"}, "is_reserved": 0}, {"lon": -76.96384666666667, "bike_id": "70576d8db4a2df931b3c42220b2df57e", "lat": 38.951801333333336, "fusion_lon": 0.0, "fusion_lat": 0.0, "type": "electric_bike", "name": "70576d8db4a2df931b3c42220b2df57e", "is_disabled": 0, "rental_uris": {"ios": "https://dc.lft.to/lastmile_qr_scan", "android": "https://dc.lft.to/lastmile_qr_scan"}, "is_reserved": 0}, {"lon": -77.00042983333333, "bike_id": "a8ed868c56abb293efbd6a88712a37c2", "lat": 38.90873416666667, "fusion_lon": 0.0, "fusion_lat": 0.0, "type": "electric_scooter", "name": "a8ed868c56abb293efbd6a88712a37c2", "is_disabled": 0, "rental_uris": {"ios": "https://dc.lft.to/lastmile_qr_scan", "android": "https://dc.lft.to/lastmile_qr_scan"}, "is_reserved": 0}, {"lon": -77.04816366666667, "bike_id": "fbd51d79fb32a68121e77ee7d25a71e4", "lat": 38.916371833333336, "fusion_lon": 0.0, "fusion_lat": 0.0, "type": "electric_scooter", "name": "fbd51d79fb32a68121e77ee7d25a71e4", "is_disabled": 0, "rental_uris": {"ios": "https://dc.lft.to/lastmile_qr_scan", "android": "https://dc.lft.to/lastmile_qr_scan"}, "is_reserved": 0}, {"lon": -77.02808, "bike_id": "42935f17e71e6ddbd603967c829dacdf", "lat": 38.881755166666665, "fusion_lon": 0.0, "fusion_lat": 0.0, "type": "electric_scooter", "name": "42935f17e71e6ddbd603967c829dacdf", "is_disabled": 0, "rental_uris": {"ios": "https://dc.lft.to/lastmile_qr_scan", "android": "https://dc.lft.to/lastmile_qr_scan"}, "is_reserved": 0}, {"lon": -76.99130566666666, "bike_id": "4d6c93e504c9d99c0c6314e133e2f4ee", "lat": 38.922670333333336, "fusion_lon": 0.0, "fusion_lat": 0.0, "type": "electric_scooter", "name": "4d6c93e504c9d99c0c6314e133e2f4ee", "is_disabled": 0, "rental_uris": {"ios": "https://dc.lft.to/lastmile_qr_scan", "android": "https://dc.lft.to/lastmile_qr_scan"}, "is_reserved": 0}, {"lon": -77.026794, "bike_id": "f1e81e1f93e28e8643c1a07312e189d2", "lat": 38.9847095, "fusion_lon": 0.0, "fusion_lat": 0.0, "type": "electric_scooter", "name": "f1e81e1f93e28e8643c1a07312e189d2", "is_disabled": 0, "rental_uris": {"ios": "https://dc.lft.to/lastmile_qr_scan", "android": "https://dc.lft.to/lastmile_qr_scan"}, "is_reserved": 0}, {"lon": -77.02373616666667, "bike_id": "0575ffb8a4d7bd92b73ec97aa75a77ac", "lat": 38.90207016666667, "fusion_lon": 0.0, "fusion_lat": 0.0, "type": "electric_scooter", "name": "0575ffb8a4d7bd92b73ec97aa75a77ac", "is_disabled": 0, "rental_uris": {"ios": "https://dc.lft.to/lastmile_qr_scan", "android": "https://dc.lft.to/lastmile_qr_scan"}, "is_reserved": 0}, {"lon": -77.02004133333334, "bike_id": "938aaae92db10516bd0942774553e106", "lat": 38.904561666666666, "fusion_lon": 0.0, "fusion_lat": 0.0, "type": "electric_scooter", "name": "938aaae92db10516bd0942774553e106", "is_disabled": 0, "rental_uris": {"ios": "https://dc.lft.to/lastmile_qr_scan", "android": "https://dc.lft.to/lastmile_qr_scan"}, "is_reserved": 0}, {"lon": -77.03256916666666, "bike_id": "fcb1d9e747c1fc6468867278e496f6c2", "lat": 38.94271833333333, "fusion_lon": 0.0, "fusion_lat": 0.0, "type": "electric_scooter", "name": "fcb1d9e747c1fc6468867278e496f6c2", "is_disabled": 0, "rental_uris": {"ios": "https://dc.lft.to/lastmile_qr_scan", "android": "https://dc.lft.to/lastmile_qr_scan"}, "is_reserved": 0}, {"lon": -77.02983733333333, "bike_id": "df8f51118619f08f0c842bd1d575e25d", "lat": 38.92201566666667, "fusion_lon": 0.0, "fusion_lat": 0.0, "type": "electric_scooter", "name": "df8f51118619f08f0c842bd1d575e25d", "is_disabled": 0, "rental_uris": {"ios": "https://dc.lft.to/lastmile_qr_scan", "android": "https://dc.lft.to/lastmile_qr_scan"}, "is_reserved": 0}, {"lon": -76.98712, "bike_id": "e96669dc87755beee89dba159f32a88e", "lat": 38.90018283333333, "fusion_lon": 0.0, "fusion_lat": 0.0, "type": "electric_scooter", "name": "e96669dc87755beee89dba159f32a88e", "is_disabled": 0, "rental_uris": {"ios": "https://dc.lft.to/lastmile_qr_scan", "android": "https://dc.lft.to/lastmile_qr_scan"}, "is_reserved": 0}, {"lon": -77.036742, "bike_id": "4a31ee20dbb9818a9c993abf674b68ea", "lat": 38.93637833333333, "fusion_lon": 0.0, "fusion_lat": 0.0, "type": "electric_bike", "name": "4a31ee20dbb9818a9c993abf674b68ea", "is_disabled": 0, "rental_uris": {"ios": "https://dc.lft.to/lastmile_qr_scan", "android": "https://dc.lft.to/lastmile_qr_scan"}, "is_reserved": 0}, {"lon": -77.03427, "bike_id": "5b6cf0502eb2aa2cea010f80bec591a3", "lat": 38.90283216666667, "fusion_lon": 0.0, "fusion_lat": 0.0, "type": "electric_scooter", "name": "5b6cf0502eb2aa2cea010f80bec591a3", "is_disabled": 0, "rental_uris": {"ios": "https://dc.lft.to/lastmile_qr_scan", "android": "https://dc.lft.to/lastmile_qr_scan"}, "is_reserved": 0}, {"lon": -77.01211283333333, "bike_id": "719ff70a0060ae019450fc59deab398c", "lat": 38.914390166666664, "fusion_lon": 0.0, "fusion_lat": 0.0, "type": "electric_scooter", "name": "719ff70a0060ae019450fc59deab398c", "is_disabled": 0, "rental_uris": {"ios": "https://dc.lft.to/lastmile_qr_scan", "android": "https://dc.lft.to/lastmile_qr_scan"}, "is_reserved": 0}, {"lon": -77.02436166666666, "bike_id": "a683e3fdf101dae5f5487895f8e22895", "lat": 38.9249885, "fusion_lon": 0.0, "fusion_lat": 0.0, "type": "electric_scooter", "name": "a683e3fdf101dae5f5487895f8e22895", "is_disabled": 0, "rental_uris": {"ios": "https://dc.lft.to/lastmile_qr_scan", "android": "https://dc.lft.to/lastmile_qr_scan"}, "is_reserved": 0}, {"lon": -77.03466716666667, "bike_id": "b1843cc584384ade9c430287da09e1d2", "lat": 38.934455666666665, "fusion_lon": 0.0, "fusion_lat": 0.0, "type": "electric_scooter", "name": "b1843cc584384ade9c430287da09e1d2", "is_disabled": 0, "rental_uris": {"ios": "https://dc.lft.to/lastmile_qr_scan", "android": "https://dc.lft.to/lastmile_qr_scan"}, "is_reserved": 0}, {"lon": -77.0344275, "bike_id": "5cced8cecd31fbb0e279ffad27e9667c", "lat": 38.90958116666667, "fusion_lon": 0.0, "fusion_lat": 0.0, "type": "electric_scooter", "name": "5cced8cecd31fbb0e279ffad27e9667c", "is_disabled": 0, "rental_uris": {"ios": "https://dc.lft.to/lastmile_qr_scan", "android": "https://dc.lft.to/lastmile_qr_scan"}, "is_reserved": 0}, {"lon": -76.9968365, "bike_id": "fe381d772ea60e421323487354edbf74", "lat": 38.881322, "fusion_lon": 0.0, "fusion_lat": 0.0, "type": "electric_scooter", "name": "fe381d772ea60e421323487354edbf74", "is_disabled": 0, "rental_uris": {"ios": "https://dc.lft.to/lastmile_qr_scan", "android": "https://dc.lft.to/lastmile_qr_scan"}, "is_reserved": 0}, {"lon": -77.019937, "bike_id": "b811aad5ccb4500f17df9026b7769c81", "lat": 38.91143266666667, "fusion_lon": 0.0, "fusion_lat": 0.0, "type": "electric_scooter", "name": "b811aad5ccb4500f17df9026b7769c81", "is_disabled": 0, "rental_uris": {"ios": "https://dc.lft.to/lastmile_qr_scan", "android": "https://dc.lft.to/lastmile_qr_scan"}, "is_reserved": 0}, {"lon": -77.02983766666667, "bike_id": "cb631aca6e7ee4de4ed9a64676bdbf52", "lat": 38.92193816666666, "fusion_lon": 0.0, "fusion_lat": 0.0, "type": "electric_scooter", "name": "cb631aca6e7ee4de4ed9a64676bdbf52", "is_disabled": 0, "rental_uris": {"ios": "https://dc.lft.to/lastmile_qr_scan", "android": "https://dc.lft.to/lastmile_qr_scan"}, "is_reserved": 0}, {"lon": -77.01240383333334, "bike_id": "e55e74857b1a03d1a39bd579a6050080", "lat": 38.91576716666667, "fusion_lon": 0.0, "fusion_lat": 0.0, "type": "electric_scooter", "name": "e55e74857b1a03d1a39bd579a6050080", "is_disabled": 0, "rental_uris": {"ios": "https://dc.lft.to/lastmile_qr_scan", "android": "https://dc.lft.to/lastmile_qr_scan"}, "is_reserved": 0}, {"lon": -77.04825183333334, "bike_id": "b50ef070821d6ec296bba7d5eba4936c", "lat": 38.897363, "fusion_lon": 0.0, "fusion_lat": 0.0, "type": "electric_scooter", "name": "b50ef070821d6ec296bba7d5eba4936c", "is_disabled": 0, "rental_uris": {"ios": "https://dc.lft.to/lastmile_qr_scan", "android": "https://dc.lft.to/lastmile_qr_scan"}, "is_reserved": 0}, {"lon": -77.0220825, "bike_id": "cf51060f37f896c90c3fd0723378c18a", "lat": 38.91057433333334, "fusion_lon": 0.0, "fusion_lat": 0.0, "type": "electric_scooter", "name": "cf51060f37f896c90c3fd0723378c18a", "is_disabled": 0, "rental_uris": {"ios": "https://dc.lft.to/lastmile_qr_scan", "android": "https://dc.lft.to/lastmile_qr_scan"}, "is_reserved": 0}, {"lon": -77.01208183333334, "bike_id": "712eff0a07c0dcd056fba6df0d53efe8", "lat": 38.89993033333333, "fusion_lon": 0.0, "fusion_lat": 0.0, "type": "electric_scooter", "name": "712eff0a07c0dcd056fba6df0d53efe8", "is_disabled": 0, "rental_uris": {"ios": "https://dc.lft.to/lastmile_qr_scan", "android": "https://dc.lft.to/lastmile_qr_scan"}, "is_reserved": 0}, {"lon": -77.02383416666666, "bike_id": "2b87e337556f0bd71ac92f00958dfbeb", "lat": 38.90961133333333, "fusion_lon": 0.0, "fusion_lat": 0.0, "type": "electric_scooter", "name": "2b87e337556f0bd71ac92f00958dfbeb", "is_disabled": 0, "rental_uris": {"ios": "https://dc.lft.to/lastmile_qr_scan", "android": "https://dc.lft.to/lastmile_qr_scan"}, "is_reserved": 0}, {"lon": -77.0322925, "bike_id": "5ae41fd560b3770a16f5d2e902ae9309", "lat": 38.914053333333335, "fusion_lon": 0.0, "fusion_lat": 0.0, "type": "electric_scooter", "name": "5ae41fd560b3770a16f5d2e902ae9309", "is_disabled": 0, "rental_uris": {"ios": "https://dc.lft.to/lastmile_qr_scan", "android": "https://dc.lft.to/lastmile_qr_scan"}, "is_reserved": 0}, {"lon": -77.03397783333334, "bike_id": "20a4755cda62648d9727bdfe1abece6f", "lat": 38.931200833333335, "fusion_lon": 0.0, "fusion_lat": 0.0, "type": "electric_scooter", "name": "20a4755cda62648d9727bdfe1abece6f", "is_disabled": 0, "rental_uris": {"ios": "https://dc.lft.to/lastmile_qr_scan", "android": "https://dc.lft.to/lastmile_qr_scan"}, "is_reserved": 0}, {"lon": -77.02671116666667, "bike_id": "adf2a7291576c8cf0b1959cc5695a3bf", "lat": 38.98429633333333, "fusion_lon": 0.0, "fusion_lat": 0.0, "type": "electric_scooter", "name": "adf2a7291576c8cf0b1959cc5695a3bf", "is_disabled": 0, "rental_uris": {"ios": "https://dc.lft.to/lastmile_qr_scan", "android": "https://dc.lft.to/lastmile_qr_scan"}, "is_reserved": 0}, {"lon": -77.02383366666666, "bike_id": "fd214b111bcb899d00ff4f92803be5cd", "lat": 38.90855833333333, "fusion_lon": 0.0, "fusion_lat": 0.0, "type": "electric_scooter", "name": "fd214b111bcb899d00ff4f92803be5cd", "is_disabled": 0, "rental_uris": {"ios": "https://dc.lft.to/lastmile_qr_scan", "android": "https://dc.lft.to/lastmile_qr_scan"}, "is_reserved": 0}, {"lon": -77.0648735, "bike_id": "524971486c863009112881bd62e9f487", "lat": 38.92903416666667, "fusion_lon": 0.0, "fusion_lat": 0.0, "type": "electric_scooter", "name": "524971486c863009112881bd62e9f487", "is_disabled": 0, "rental_uris": {"ios": "https://dc.lft.to/lastmile_qr_scan", "android": "https://dc.lft.to/lastmile_qr_scan"}, "is_reserved": 0}, {"lon": -77.048052, "bike_id": "a37e85edcee47b1bcd657e64e5d2f42a", "lat": 38.92030483333333, "fusion_lon": 0.0, "fusion_lat": 0.0, "type": "electric_scooter", "name": "a37e85edcee47b1bcd657e64e5d2f42a", "is_disabled": 0, "rental_uris": {"ios": "https://dc.lft.to/lastmile_qr_scan", "android": "https://dc.lft.to/lastmile_qr_scan"}, "is_reserved": 0}, {"lon": -77.03777983333333, "bike_id": "c8ce84f83a7fde034d3451bca4c7e016", "lat": 38.92568766666667, "fusion_lon": 0.0, "fusion_lat": 0.0, "type": "electric_scooter", "name": "c8ce84f83a7fde034d3451bca4c7e016", "is_disabled": 0, "rental_uris": {"ios": "https://dc.lft.to/lastmile_qr_scan", "android": "https://dc.lft.to/lastmile_qr_scan"}, "is_reserved": 0}, {"lon": -77.00882683333333, "bike_id": "047abf6c509c81c4f7436d20cdbcd1ff", "lat": 38.917147, "fusion_lon": 0.0, "fusion_lat": 0.0, "type": "electric_scooter", "name": "047abf6c509c81c4f7436d20cdbcd1ff", "is_disabled": 0, "rental_uris": {"ios": "https://dc.lft.to/lastmile_qr_scan", "android": "https://dc.lft.to/lastmile_qr_scan"}, "is_reserved": 0}, {"lon": -77.02587316666667, "bike_id": "4193f3e1a0bf3fab0b6219cb5a0c3d5a", "lat": 38.892265, "fusion_lon": 0.0, "fusion_lat": 0.0, "type": "electric_scooter", "name": "4193f3e1a0bf3fab0b6219cb5a0c3d5a", "is_disabled": 0, "rental_uris": {"ios": "https://dc.lft.to/lastmile_qr_scan", "android": "https://dc.lft.to/lastmile_qr_scan"}, "is_reserved": 0}, {"lon": -76.99467783333333, "bike_id": "5ad2c6f7c75fa899f3ae73d8a70cda24", "lat": 38.862220666666666, "fusion_lon": 0.0, "fusion_lat": 0.0, "type": "electric_scooter", "name": "5ad2c6f7c75fa899f3ae73d8a70cda24", "is_disabled": 0, "rental_uris": {"ios": "https://dc.lft.to/lastmile_qr_scan", "android": "https://dc.lft.to/lastmile_qr_scan"}, "is_reserved": 0}, {"lon": -76.98240466666667, "bike_id": "4eabd9450f70e5f3ebc4870ff13dcf06", "lat": 38.881313166666665, "fusion_lon": 0.0, "fusion_lat": 0.0, "type": "electric_scooter", "name": "4eabd9450f70e5f3ebc4870ff13dcf06", "is_disabled": 0, "rental_uris": {"ios": "https://dc.lft.to/lastmile_qr_scan", "android": "https://dc.lft.to/lastmile_qr_scan"}, "is_reserved": 0}, {"lon": -77.001958, "bike_id": "0efbb654deded98a662fcd8f4c3ef31d", "lat": 38.900349166666665, "fusion_lon": 0.0, "fusion_lat": 0.0, "type": "electric_scooter", "name": "0efbb654deded98a662fcd8f4c3ef31d", "is_disabled": 0, "rental_uris": {"ios": "https://dc.lft.to/lastmile_qr_scan", "android": "https://dc.lft.to/lastmile_qr_scan"}, "is_reserved": 0}, {"lon": -77.04814733333333, "bike_id": "00e8bdc9c61bbbabf9a713e090586a80", "lat": 38.916301, "fusion_lon": 0.0, "fusion_lat": 0.0, "type": "electric_scooter", "name": "00e8bdc9c61bbbabf9a713e090586a80", "is_disabled": 0, "rental_uris": {"ios": "https://dc.lft.to/lastmile_qr_scan", "android": "https://dc.lft.to/lastmile_qr_scan"}, "is_reserved": 0}, {"lon": -77.02304716666667, "bike_id": "b34881f9078ca56ca25724a4282426ea", "lat": 38.90960066666667, "fusion_lon": 0.0, "fusion_lat": 0.0, "type": "electric_scooter", "name": "b34881f9078ca56ca25724a4282426ea", "is_disabled": 0, "rental_uris": {"ios": "https://dc.lft.to/lastmile_qr_scan", "android": "https://dc.lft.to/lastmile_qr_scan"}, "is_reserved": 0}, {"lon": -77.05126783333333, "bike_id": "cee8d70a770e7a9b1e62b83fe8964681", "lat": 38.92360383333333, "fusion_lon": 0.0, "fusion_lat": 0.0, "type": "electric_scooter", "name": "cee8d70a770e7a9b1e62b83fe8964681", "is_disabled": 0, "rental_uris": {"ios": "https://dc.lft.to/lastmile_qr_scan", "android": "https://dc.lft.to/lastmile_qr_scan"}, "is_reserved": 0}, {"lon": -77.00337783333333, "bike_id": "3dfe1abb5b07572b7ee605fee22b5cf6", "lat": 38.895243, "fusion_lon": 0.0, "fusion_lat": 0.0, "type": "electric_scooter", "name": "3dfe1abb5b07572b7ee605fee22b5cf6", "is_disabled": 0, "rental_uris": {"ios": "https://dc.lft.to/lastmile_qr_scan", "android": "https://dc.lft.to/lastmile_qr_scan"}, "is_reserved": 0}, {"lon": -77.05867583333334, "bike_id": "8ed17beb168622ec0b3b84d018df7126", "lat": 38.93608416666667, "fusion_lon": 0.0, "fusion_lat": 0.0, "type": "electric_scooter", "name": "8ed17beb168622ec0b3b84d018df7126", "is_disabled": 0, "rental_uris": {"ios": "https://dc.lft.to/lastmile_qr_scan", "android": "https://dc.lft.to/lastmile_qr_scan"}, "is_reserved": 0}, {"lon": -77.030767, "bike_id": "5c9cef76a1185266940e496fc9745313", "lat": 38.88591016666667, "fusion_lon": 0.0, "fusion_lat": 0.0, "type": "electric_scooter", "name": "5c9cef76a1185266940e496fc9745313", "is_disabled": 0, "rental_uris": {"ios": "https://dc.lft.to/lastmile_qr_scan", "android": "https://dc.lft.to/lastmile_qr_scan"}, "is_reserved": 0}, {"lon": -77.05001966666667, "bike_id": "50e40101e77f180ce41e889792cdcdea", "lat": 38.897851333333335, "fusion_lon": 0.0, "fusion_lat": 0.0, "type": "electric_scooter", "name": "50e40101e77f180ce41e889792cdcdea", "is_disabled": 0, "rental_uris": {"ios": "https://dc.lft.to/lastmile_qr_scan", "android": "https://dc.lft.to/lastmile_qr_scan"}, "is_reserved": 0}, {"lon": -77.04739716666667, "bike_id": "249185a82b4c679fb4ff8b50c01953ff", "lat": 38.909705, "fusion_lon": 0.0, "fusion_lat": 0.0, "type": "electric_scooter", "name": "249185a82b4c679fb4ff8b50c01953ff", "is_disabled": 0, "rental_uris": {"ios": "https://dc.lft.to/lastmile_qr_scan", "android": "https://dc.lft.to/lastmile_qr_scan"}, "is_reserved": 0}, {"lon": -77.00036433333334, "bike_id": "cb21a1c8636ab4e0caba5495ad20d4b7", "lat": 38.90007333333333, "fusion_lon": 0.0, "fusion_lat": 0.0, "type": "electric_scooter", "name": "cb21a1c8636ab4e0caba5495ad20d4b7", "is_disabled": 0, "rental_uris": {"ios": "https://dc.lft.to/lastmile_qr_scan", "android": "https://dc.lft.to/lastmile_qr_scan"}, "is_reserved": 0}, {"lon": -77.01889166666666, "bike_id": "f75af011a9176b2ead06091c84a8c43a", "lat": 38.9149185, "fusion_lon": 0.0, "fusion_lat": 0.0, "type": "electric_scooter", "name": "f75af011a9176b2ead06091c84a8c43a", "is_disabled": 0, "rental_uris": {"ios": "https://dc.lft.to/lastmile_qr_scan", "android": "https://dc.lft.to/lastmile_qr_scan"}, "is_reserved": 0}, {"lon": -77.029872, "bike_id": "8332ff54bbdb1c0fd9ac8ff35ef25766", "lat": 38.9744015, "fusion_lon": 0.0, "fusion_lat": 0.0, "type": "electric_bike", "name": "8332ff54bbdb1c0fd9ac8ff35ef25766", "is_disabled": 0, "rental_uris": {"ios": "https://dc.lft.to/lastmile_qr_scan", "android": "https://dc.lft.to/lastmile_qr_scan"}, "is_reserved": 0}, {"lon": -76.997679, "bike_id": "345d243fd0980864d77eb6a5db164467", "lat": 38.9245065, "fusion_lon": 0.0, "fusion_lat": 0.0, "type": "electric_scooter", "name": "345d243fd0980864d77eb6a5db164467", "is_disabled": 0, "rental_uris": {"ios": "https://dc.lft.to/lastmile_qr_scan", "android": "https://dc.lft.to/lastmile_qr_scan"}, "is_reserved": 0}, {"lon": -77.0486745, "bike_id": "9e7ccc3817fe5a79885330f10174490a", "lat": 38.89219666666666, "fusion_lon": 0.0, "fusion_lat": 0.0, "type": "electric_scooter", "name": "9e7ccc3817fe5a79885330f10174490a", "is_disabled": 0, "rental_uris": {"ios": "https://dc.lft.to/lastmile_qr_scan", "android": "https://dc.lft.to/lastmile_qr_scan"}, "is_reserved": 0}, {"lon": -77.02836083333334, "bike_id": "15ff1b5e18862bdfdaa144b755f8383d", "lat": 38.88767633333333, "fusion_lon": 0.0, "fusion_lat": 0.0, "type": "electric_scooter", "name": "15ff1b5e18862bdfdaa144b755f8383d", "is_disabled": 0, "rental_uris": {"ios": "https://dc.lft.to/lastmile_qr_scan", "android": "https://dc.lft.to/lastmile_qr_scan"}, "is_reserved": 0}, {"lon": -77.03044416666667, "bike_id": "0a75bf5ca2e91ad76f16dffd8857219d", "lat": 38.88428916666667, "fusion_lon": 0.0, "fusion_lat": 0.0, "type": "electric_scooter", "name": "0a75bf5ca2e91ad76f16dffd8857219d", "is_disabled": 0, "rental_uris": {"ios": "https://dc.lft.to/lastmile_qr_scan", "android": "https://dc.lft.to/lastmile_qr_scan"}, "is_reserved": 0}, {"lon": -76.978125, "bike_id": "702df87ea04bacd5435cec96382dd08e", "lat": 38.906733833333334, "fusion_lon": 0.0, "fusion_lat": 0.0, "type": "electric_scooter", "name": "702df87ea04bacd5435cec96382dd08e", "is_disabled": 0, "rental_uris": {"ios": "https://dc.lft.to/lastmile_qr_scan", "android": "https://dc.lft.to/lastmile_qr_scan"}, "is_reserved": 0}, {"lon": -77.0748, "bike_id": "a8801de9e7372085db6abbb64952db6b", "lat": 38.963162833333335, "fusion_lon": 0.0, "fusion_lat": 0.0, "type": "electric_scooter", "name": "a8801de9e7372085db6abbb64952db6b", "is_disabled": 0, "rental_uris": {"ios": "https://dc.lft.to/lastmile_qr_scan", "android": "https://dc.lft.to/lastmile_qr_scan"}, "is_reserved": 0}, {"lon": -77.094532, "bike_id": "9fefcb50f3b31511edbcf3dca4397ab5", "lat": 38.807559166666664, "fusion_lon": 0.0, "fusion_lat": 0.0, "type": "electric_bike", "name": "9fefcb50f3b31511edbcf3dca4397ab5", "is_disabled": 0, "rental_uris": {"ios": "https://dc.lft.to/lastmile_qr_scan", "android": "https://dc.lft.to/lastmile_qr_scan"}, "is_reserved": 0}, {"lon": -77.04007, "bike_id": "27851e8e24d14bd6ffb2dddfd3d214f9", "lat": 38.91004266666667, "fusion_lon": 0.0, "fusion_lat": 0.0, "type": "electric_scooter", "name": "27851e8e24d14bd6ffb2dddfd3d214f9", "is_disabled": 0, "rental_uris": {"ios": "https://dc.lft.to/lastmile_qr_scan", "android": "https://dc.lft.to/lastmile_qr_scan"}, "is_reserved": 0}, {"lon": -77.00111633333333, "bike_id": "227d520f9d21657d9a487352508bc75f", "lat": 38.91706166666667, "fusion_lon": 0.0, "fusion_lat": 0.0, "type": "electric_scooter", "name": "227d520f9d21657d9a487352508bc75f", "is_disabled": 0, "rental_uris": {"ios": "https://dc.lft.to/lastmile_qr_scan", "android": "https://dc.lft.to/lastmile_qr_scan"}, "is_reserved": 0}, {"lon": -77.05594883333333, "bike_id": "fefbd6a6938a6370d52300be5e58460c", "lat": 38.9161945, "fusion_lon": 0.0, "fusion_lat": 0.0, "type": "electric_scooter", "name": "fefbd6a6938a6370d52300be5e58460c", "is_disabled": 0, "rental_uris": {"ios": "https://dc.lft.to/lastmile_qr_scan", "android": "https://dc.lft.to/lastmile_qr_scan"}, "is_reserved": 0}, {"lon": -76.89537833333333, "bike_id": "67a92868abbbf2946e4864e9d9048ae1", "lat": 38.94549683333334, "fusion_lon": 0.0, "fusion_lat": 0.0, "type": "electric_bike", "name": "67a92868abbbf2946e4864e9d9048ae1", "is_disabled": 0, "rental_uris": {"ios": "https://dc.lft.to/lastmile_qr_scan", "android": "https://dc.lft.to/lastmile_qr_scan"}, "is_reserved": 0}, {"lon": -77.0533215, "bike_id": "cd4a32b7c674d2cbf962da3abc02d224", "lat": 38.9071165, "fusion_lon": 0.0, "fusion_lat": 0.0, "type": "electric_scooter", "name": "cd4a32b7c674d2cbf962da3abc02d224", "is_disabled": 0, "rental_uris": {"ios": "https://dc.lft.to/lastmile_qr_scan", "android": "https://dc.lft.to/lastmile_qr_scan"}, "is_reserved": 0}, {"lon": -77.04454966666667, "bike_id": "01cf1508610443acbac898f0bb05c6f4", "lat": 38.917813333333335, "fusion_lon": 0.0, "fusion_lat": 0.0, "type": "electric_scooter", "name": "01cf1508610443acbac898f0bb05c6f4", "is_disabled": 0, "rental_uris": {"ios": "https://dc.lft.to/lastmile_qr_scan", "android": "https://dc.lft.to/lastmile_qr_scan"}, "is_reserved": 0}, {"lon": -77.03838133333333, "bike_id": "2a33e10bdc121e7cd45bd97b3458c18b", "lat": 38.910953166666665, "fusion_lon": 0.0, "fusion_lat": 0.0, "type": "electric_scooter", "name": "2a33e10bdc121e7cd45bd97b3458c18b", "is_disabled": 0, "rental_uris": {"ios": "https://dc.lft.to/lastmile_qr_scan", "android": "https://dc.lft.to/lastmile_qr_scan"}, "is_reserved": 0}, {"lon": -77.038373, "bike_id": "f062b069c1180df149f3eee1d23ab72a", "lat": 38.90796116666667, "fusion_lon": 0.0, "fusion_lat": 0.0, "type": "electric_scooter", "name": "f062b069c1180df149f3eee1d23ab72a", "is_disabled": 0, "rental_uris": {"ios": "https://dc.lft.to/lastmile_qr_scan", "android": "https://dc.lft.to/lastmile_qr_scan"}, "is_reserved": 0}, {"lon": -77.02727166666666, "bike_id": "04bd6d86fc1f32140e4ddf41b16b70b9", "lat": 38.940842333333336, "fusion_lon": 0.0, "fusion_lat": 0.0, "type": "electric_scooter", "name": "04bd6d86fc1f32140e4ddf41b16b70b9", "is_disabled": 0, "rental_uris": {"ios": "https://dc.lft.to/lastmile_qr_scan", "android": "https://dc.lft.to/lastmile_qr_scan"}, "is_reserved": 0}, {"lon": -77.009238, "bike_id": "035cdff540847fa00eafb3bc4fd9117e", "lat": 38.896037666666665, "fusion_lon": 0.0, "fusion_lat": 0.0, "type": "electric_scooter", "name": "035cdff540847fa00eafb3bc4fd9117e", "is_disabled": 0, "rental_uris": {"ios": "https://dc.lft.to/lastmile_qr_scan", "android": "https://dc.lft.to/lastmile_qr_scan"}, "is_reserved": 0}, {"lon": -77.02159433333334, "bike_id": "359f4a53277e7d7943890242858e1c56", "lat": 38.892121333333336, "fusion_lon": 0.0, "fusion_lat": 0.0, "type": "electric_scooter", "name": "359f4a53277e7d7943890242858e1c56", "is_disabled": 0, "rental_uris": {"ios": "https://dc.lft.to/lastmile_qr_scan", "android": "https://dc.lft.to/lastmile_qr_scan"}, "is_reserved": 0}, {"lon": -77.0197205, "bike_id": "20273beb26bc3649dd24c7870f899c20", "lat": 38.91492233333334, "fusion_lon": 0.0, "fusion_lat": 0.0, "type": "electric_scooter", "name": "20273beb26bc3649dd24c7870f899c20", "is_disabled": 0, "rental_uris": {"ios": "https://dc.lft.to/lastmile_qr_scan", "android": "https://dc.lft.to/lastmile_qr_scan"}, "is_reserved": 0}, {"lon": -77.02454683333333, "bike_id": "8ce732f233dc7d8d0e6fd2e679ece577", "lat": 38.9310025, "fusion_lon": 0.0, "fusion_lat": 0.0, "type": "electric_scooter", "name": "8ce732f233dc7d8d0e6fd2e679ece577", "is_disabled": 0, "rental_uris": {"ios": "https://dc.lft.to/lastmile_qr_scan", "android": "https://dc.lft.to/lastmile_qr_scan"}, "is_reserved": 0}, {"lon": -77.035406, "bike_id": "342a54e536c475e050fa28efc59bae52", "lat": 38.91831916666667, "fusion_lon": 0.0, "fusion_lat": 0.0, "type": "electric_scooter", "name": "342a54e536c475e050fa28efc59bae52", "is_disabled": 0, "rental_uris": {"ios": "https://dc.lft.to/lastmile_qr_scan", "android": "https://dc.lft.to/lastmile_qr_scan"}, "is_reserved": 0}, {"lon": -77.04269783333334, "bike_id": "e8f025b44c2412cedf00048ce7afdea0", "lat": 38.91783183333333, "fusion_lon": 0.0, "fusion_lat": 0.0, "type": "electric_scooter", "name": "e8f025b44c2412cedf00048ce7afdea0", "is_disabled": 0, "rental_uris": {"ios": "https://dc.lft.to/lastmile_qr_scan", "android": "https://dc.lft.to/lastmile_qr_scan"}, "is_reserved": 0}, {"lon": -77.000654, "bike_id": "6fe6363787c5aa9ee047fec02912ff96", "lat": 38.924338, "fusion_lon": 0.0, "fusion_lat": 0.0, "type": "electric_scooter", "name": "6fe6363787c5aa9ee047fec02912ff96", "is_disabled": 0, "rental_uris": {"ios": "https://dc.lft.to/lastmile_qr_scan", "android": "https://dc.lft.to/lastmile_qr_scan"}, "is_reserved": 0}, {"lon": -77.0520095, "bike_id": "c3d37bb4e4ee69d70821c6aa657eb891", "lat": 38.90000533333333, "fusion_lon": 0.0, "fusion_lat": 0.0, "type": "electric_scooter", "name": "c3d37bb4e4ee69d70821c6aa657eb891", "is_disabled": 0, "rental_uris": {"ios": "https://dc.lft.to/lastmile_qr_scan", "android": "https://dc.lft.to/lastmile_qr_scan"}, "is_reserved": 0}, {"lon": -77.02362983333333, "bike_id": "e8b3d5fa47af734f1cc9c947a03351c8", "lat": 38.91759066666667, "fusion_lon": 0.0, "fusion_lat": 0.0, "type": "electric_scooter", "name": "e8b3d5fa47af734f1cc9c947a03351c8", "is_disabled": 0, "rental_uris": {"ios": "https://dc.lft.to/lastmile_qr_scan", "android": "https://dc.lft.to/lastmile_qr_scan"}, "is_reserved": 0}, {"lon": -76.93607733333333, "bike_id": "218776891aca6860e57d01179a56ed06", "lat": 38.896817, "fusion_lon": 0.0, "fusion_lat": 0.0, "type": "electric_scooter", "name": "218776891aca6860e57d01179a56ed06", "is_disabled": 0, "rental_uris": {"ios": "https://dc.lft.to/lastmile_qr_scan", "android": "https://dc.lft.to/lastmile_qr_scan"}, "is_reserved": 0}, {"lon": -76.97612916666667, "bike_id": "0d6df967f4ac7f27005b31fe6b6a1245", "lat": 38.90387666666667, "fusion_lon": 0.0, "fusion_lat": 0.0, "type": "electric_scooter", "name": "0d6df967f4ac7f27005b31fe6b6a1245", "is_disabled": 0, "rental_uris": {"ios": "https://dc.lft.to/lastmile_qr_scan", "android": "https://dc.lft.to/lastmile_qr_scan"}, "is_reserved": 0}, {"lon": -77.0290535, "bike_id": "7568bae076e7b0bf75cf192e4a36c8ae", "lat": 38.9040155, "fusion_lon": 0.0, "fusion_lat": 0.0, "type": "electric_scooter", "name": "7568bae076e7b0bf75cf192e4a36c8ae", "is_disabled": 0, "rental_uris": {"ios": "https://dc.lft.to/lastmile_qr_scan", "android": "https://dc.lft.to/lastmile_qr_scan"}, "is_reserved": 0}, {"lon": -76.9992715, "bike_id": "ebb67fd92149bc3130103e804c4a7ec9", "lat": 38.9091245, "fusion_lon": 0.0, "fusion_lat": 0.0, "type": "electric_scooter", "name": "ebb67fd92149bc3130103e804c4a7ec9", "is_disabled": 0, "rental_uris": {"ios": "https://dc.lft.to/lastmile_qr_scan", "android": "https://dc.lft.to/lastmile_qr_scan"}, "is_reserved": 0}, {"lon": -77.012064, "bike_id": "2f874d0395036470590a7d8992854b75", "lat": 38.90010516666667, "fusion_lon": 0.0, "fusion_lat": 0.0, "type": "electric_scooter", "name": "2f874d0395036470590a7d8992854b75", "is_disabled": 0, "rental_uris": {"ios": "https://dc.lft.to/lastmile_qr_scan", "android": "https://dc.lft.to/lastmile_qr_scan"}, "is_reserved": 0}, {"lon": -76.9866925, "bike_id": "cda2c588319fe844a47716a222f80298", "lat": 38.902517, "fusion_lon": 0.0, "fusion_lat": 0.0, "type": "electric_scooter", "name": "cda2c588319fe844a47716a222f80298", "is_disabled": 0, "rental_uris": {"ios": "https://dc.lft.to/lastmile_qr_scan", "android": "https://dc.lft.to/lastmile_qr_scan"}, "is_reserved": 0}, {"lon": -77.03850683333333, "bike_id": "cead3e745f1be147cb1b1fe715ed1131", "lat": 38.906666333333334, "fusion_lon": 0.0, "fusion_lat": 0.0, "type": "electric_scooter", "name": "cead3e745f1be147cb1b1fe715ed1131", "is_disabled": 0, "rental_uris": {"ios": "https://dc.lft.to/lastmile_qr_scan", "android": "https://dc.lft.to/lastmile_qr_scan"}, "is_reserved": 0}, {"lon": -77.047244, "bike_id": "d2fb33ed7562bb805480a288db8bbf8d", "lat": 38.92233983333333, "fusion_lon": 0.0, "fusion_lat": 0.0, "type": "electric_scooter", "name": "d2fb33ed7562bb805480a288db8bbf8d", "is_disabled": 0, "rental_uris": {"ios": "https://dc.lft.to/lastmile_qr_scan", "android": "https://dc.lft.to/lastmile_qr_scan"}, "is_reserved": 0}, {"lon": -77.02794683333333, "bike_id": "97ffb1d7caebd1044a84a185d8ac2ea9", "lat": 38.920144666666666, "fusion_lon": 0.0, "fusion_lat": 0.0, "type": "electric_scooter", "name": "97ffb1d7caebd1044a84a185d8ac2ea9", "is_disabled": 0, "rental_uris": {"ios": "https://dc.lft.to/lastmile_qr_scan", "android": "https://dc.lft.to/lastmile_qr_scan"}, "is_reserved": 0}, {"lon": -77.03944066666666, "bike_id": "19c8e701c56d9baaa613335633c038e4", "lat": 38.91941033333333, "fusion_lon": 0.0, "fusion_lat": 0.0, "type": "electric_scooter", "name": "19c8e701c56d9baaa613335633c038e4", "is_disabled": 0, "rental_uris": {"ios": "https://dc.lft.to/lastmile_qr_scan", "android": "https://dc.lft.to/lastmile_qr_scan"}, "is_reserved": 0}, {"lon": -77.02167733333333, "bike_id": "47c9c8256f48addf65fe690f795832cd", "lat": 38.94291233333333, "fusion_lon": 0.0, "fusion_lat": 0.0, "type": "electric_scooter", "name": "47c9c8256f48addf65fe690f795832cd", "is_disabled": 0, "rental_uris": {"ios": "https://dc.lft.to/lastmile_qr_scan", "android": "https://dc.lft.to/lastmile_qr_scan"}, "is_reserved": 0}, {"lon": -77.07671833333333, "bike_id": "e61e3e3be672635608e3f8f148dcb656", "lat": 38.943192833333335, "fusion_lon": 0.0, "fusion_lat": 0.0, "type": "electric_scooter", "name": "e61e3e3be672635608e3f8f148dcb656", "is_disabled": 0, "rental_uris": {"ios": "https://dc.lft.to/lastmile_qr_scan", "android": "https://dc.lft.to/lastmile_qr_scan"}, "is_reserved": 0}, {"lon": -76.99854333333333, "bike_id": "39d26e7d7445e01b48005fb8b633c1e0", "lat": 38.907781166666666, "fusion_lon": 0.0, "fusion_lat": 0.0, "type": "electric_scooter", "name": "39d26e7d7445e01b48005fb8b633c1e0", "is_disabled": 0, "rental_uris": {"ios": "https://dc.lft.to/lastmile_qr_scan", "android": "https://dc.lft.to/lastmile_qr_scan"}, "is_reserved": 0}, {"lon": -77.05620216666667, "bike_id": "edc0e4a8e10aa8bc310d5402dcc43e9c", "lat": 38.923369666666666, "fusion_lon": 0.0, "fusion_lat": 0.0, "type": "electric_scooter", "name": "edc0e4a8e10aa8bc310d5402dcc43e9c", "is_disabled": 0, "rental_uris": {"ios": "https://dc.lft.to/lastmile_qr_scan", "android": "https://dc.lft.to/lastmile_qr_scan"}, "is_reserved": 0}, {"lon": -77.024436, "bike_id": "e8d857273f95a3b2abc4309af98ac610", "lat": 38.920601, "fusion_lon": 0.0, "fusion_lat": 0.0, "type": "electric_scooter", "name": "e8d857273f95a3b2abc4309af98ac610", "is_disabled": 0, "rental_uris": {"ios": "https://dc.lft.to/lastmile_qr_scan", "android": "https://dc.lft.to/lastmile_qr_scan"}, "is_reserved": 0}, {"lon": -76.96525016666666, "bike_id": "d9a4e2133a89fe12ae5ea0b12276b522", "lat": 38.8748025, "fusion_lon": 0.0, "fusion_lat": 0.0, "type": "electric_scooter", "name": "d9a4e2133a89fe12ae5ea0b12276b522", "is_disabled": 0, "rental_uris": {"ios": "https://dc.lft.to/lastmile_qr_scan", "android": "https://dc.lft.to/lastmile_qr_scan"}, "is_reserved": 0}, {"lon": -76.99742, "bike_id": "b4e3e0c8e182fe2049da7951d9a3cec2", "lat": 38.920366333333334, "fusion_lon": 0.0, "fusion_lat": 0.0, "type": "electric_scooter", "name": "b4e3e0c8e182fe2049da7951d9a3cec2", "is_disabled": 0, "rental_uris": {"ios": "https://dc.lft.to/lastmile_qr_scan", "android": "https://dc.lft.to/lastmile_qr_scan"}, "is_reserved": 0}, {"lon": -76.99199383333334, "bike_id": "35357535b6754f7bde40c379c2724982", "lat": 38.89829983333333, "fusion_lon": 0.0, "fusion_lat": 0.0, "type": "electric_scooter", "name": "35357535b6754f7bde40c379c2724982", "is_disabled": 0, "rental_uris": {"ios": "https://dc.lft.to/lastmile_qr_scan", "android": "https://dc.lft.to/lastmile_qr_scan"}, "is_reserved": 0}, {"lon": -77.042482, "bike_id": "2ea95d05aa3302f9761de45a035aa2dc", "lat": 38.906402166666666, "fusion_lon": 0.0, "fusion_lat": 0.0, "type": "electric_scooter", "name": "2ea95d05aa3302f9761de45a035aa2dc", "is_disabled": 0, "rental_uris": {"ios": "https://dc.lft.to/lastmile_qr_scan", "android": "https://dc.lft.to/lastmile_qr_scan"}, "is_reserved": 0}, {"lon": -77.04217266666667, "bike_id": "60d6e462d2ec4116ac89c637a77f0341", "lat": 38.911222, "fusion_lon": 0.0, "fusion_lat": 0.0, "type": "electric_scooter", "name": "60d6e462d2ec4116ac89c637a77f0341", "is_disabled": 0, "rental_uris": {"ios": "https://dc.lft.to/lastmile_qr_scan", "android": "https://dc.lft.to/lastmile_qr_scan"}, "is_reserved": 0}, {"lon": -77.00915933333333, "bike_id": "098cb3cf338739ea5f0e2a3682f72149", "lat": 38.8964755, "fusion_lon": 0.0, "fusion_lat": 0.0, "type": "electric_scooter", "name": "098cb3cf338739ea5f0e2a3682f72149", "is_disabled": 0, "rental_uris": {"ios": "https://dc.lft.to/lastmile_qr_scan", "android": "https://dc.lft.to/lastmile_qr_scan"}, "is_reserved": 0}, {"lon": -76.99234733333333, "bike_id": "0a1204572003c0a0393c908e580c6d4c", "lat": 38.907925166666665, "fusion_lon": 0.0, "fusion_lat": 0.0, "type": "electric_scooter", "name": "0a1204572003c0a0393c908e580c6d4c", "is_disabled": 0, "rental_uris": {"ios": "https://dc.lft.to/lastmile_qr_scan", "android": "https://dc.lft.to/lastmile_qr_scan"}, "is_reserved": 0}, {"lon": -77.04560716666667, "bike_id": "77e54e27f54a904bc762eaa7d82d774a", "lat": 38.9192305, "fusion_lon": 0.0, "fusion_lat": 0.0, "type": "electric_scooter", "name": "77e54e27f54a904bc762eaa7d82d774a", "is_disabled": 0, "rental_uris": {"ios": "https://dc.lft.to/lastmile_qr_scan", "android": "https://dc.lft.to/lastmile_qr_scan"}, "is_reserved": 0}, {"lon": -77.02318583333333, "bike_id": "730fa6d5b50a6ce1025725494bff30be", "lat": 38.90731366666667, "fusion_lon": 0.0, "fusion_lat": 0.0, "type": "electric_scooter", "name": "730fa6d5b50a6ce1025725494bff30be", "is_disabled": 0, "rental_uris": {"ios": "https://dc.lft.to/lastmile_qr_scan", "android": "https://dc.lft.to/lastmile_qr_scan"}, "is_reserved": 0}, {"lon": -76.94633433333334, "bike_id": "a68da46cb31b29fe747b2cfe81ebf0c3", "lat": 38.898323166666664, "fusion_lon": 0.0, "fusion_lat": 0.0, "type": "electric_scooter", "name": "a68da46cb31b29fe747b2cfe81ebf0c3", "is_disabled": 0, "rental_uris": {"ios": "https://dc.lft.to/lastmile_qr_scan", "android": "https://dc.lft.to/lastmile_qr_scan"}, "is_reserved": 0}, {"lon": -77.038225, "bike_id": "f9a3bacf687c768924824724d7f2c73f", "lat": 38.902634666666664, "fusion_lon": 0.0, "fusion_lat": 0.0, "type": "electric_scooter", "name": "f9a3bacf687c768924824724d7f2c73f", "is_disabled": 0, "rental_uris": {"ios": "https://dc.lft.to/lastmile_qr_scan", "android": "https://dc.lft.to/lastmile_qr_scan"}, "is_reserved": 0}, {"lon": -77.02368766666666, "bike_id": "53ccc3b9d4530bce98bd2656d6baa22e", "lat": 38.937654333333334, "fusion_lon": 0.0, "fusion_lat": 0.0, "type": "electric_scooter", "name": "53ccc3b9d4530bce98bd2656d6baa22e", "is_disabled": 0, "rental_uris": {"ios": "https://dc.lft.to/lastmile_qr_scan", "android": "https://dc.lft.to/lastmile_qr_scan"}, "is_reserved": 0}, {"lon": -77.01380016666667, "bike_id": "2861c0d398f23cd5fa51924544a2c223", "lat": 38.91501216666666, "fusion_lon": 0.0, "fusion_lat": 0.0, "type": "electric_scooter", "name": "2861c0d398f23cd5fa51924544a2c223", "is_disabled": 0, "rental_uris": {"ios": "https://dc.lft.to/lastmile_qr_scan", "android": "https://dc.lft.to/lastmile_qr_scan"}, "is_reserved": 0}, {"lon": -77.03936483333334, "bike_id": "ac8a8dabc81655f6816ccdbff84060d6", "lat": 38.9156, "fusion_lon": 0.0, "fusion_lat": 0.0, "type": "electric_scooter", "name": "ac8a8dabc81655f6816ccdbff84060d6", "is_disabled": 0, "rental_uris": {"ios": "https://dc.lft.to/lastmile_qr_scan", "android": "https://dc.lft.to/lastmile_qr_scan"}, "is_reserved": 0}, {"lon": -77.03247883333333, "bike_id": "f87e1c8e347cc7b70b81e95d62eaa12f", "lat": 38.93765583333333, "fusion_lon": 0.0, "fusion_lat": 0.0, "type": "electric_scooter", "name": "f87e1c8e347cc7b70b81e95d62eaa12f", "is_disabled": 0, "rental_uris": {"ios": "https://dc.lft.to/lastmile_qr_scan", "android": "https://dc.lft.to/lastmile_qr_scan"}, "is_reserved": 0}, {"lon": -77.04335383333333, "bike_id": "f5f32760057beef2419dade6c8fabea5", "lat": 38.9078835, "fusion_lon": 0.0, "fusion_lat": 0.0, "type": "electric_scooter", "name": "f5f32760057beef2419dade6c8fabea5", "is_disabled": 0, "rental_uris": {"ios": "https://dc.lft.to/lastmile_qr_scan", "android": "https://dc.lft.to/lastmile_qr_scan"}, "is_reserved": 0}, {"lon": -77.0340235, "bike_id": "7555ae161a1db9b8dedca4350c702696", "lat": 38.92256033333334, "fusion_lon": 0.0, "fusion_lat": 0.0, "type": "electric_scooter", "name": "7555ae161a1db9b8dedca4350c702696", "is_disabled": 0, "rental_uris": {"ios": "https://dc.lft.to/lastmile_qr_scan", "android": "https://dc.lft.to/lastmile_qr_scan"}, "is_reserved": 0}, {"lon": -77.08459416666666, "bike_id": "e136bd2500b09121580762cb6cb76f9e", "lat": 38.8481975, "fusion_lon": 0.0, "fusion_lat": 0.0, "type": "electric_bike", "name": "e136bd2500b09121580762cb6cb76f9e", "is_disabled": 0, "rental_uris": {"ios": "https://dc.lft.to/lastmile_qr_scan", "android": "https://dc.lft.to/lastmile_qr_scan"}, "is_reserved": 0}, {"lon": -77.05339716666667, "bike_id": "e2c5cfb0b6313069a2d38b690784417b", "lat": 38.90363516666667, "fusion_lon": 0.0, "fusion_lat": 0.0, "type": "electric_scooter", "name": "e2c5cfb0b6313069a2d38b690784417b", "is_disabled": 0, "rental_uris": {"ios": "https://dc.lft.to/lastmile_qr_scan", "android": "https://dc.lft.to/lastmile_qr_scan"}, "is_reserved": 0}, {"lon": -77.03264483333334, "bike_id": "cfe11d5351ff7f588bcf76880542cd9f", "lat": 38.91996566666667, "fusion_lon": 0.0, "fusion_lat": 0.0, "type": "electric_scooter", "name": "cfe11d5351ff7f588bcf76880542cd9f", "is_disabled": 0, "rental_uris": {"ios": "https://dc.lft.to/lastmile_qr_scan", "android": "https://dc.lft.to/lastmile_qr_scan"}, "is_reserved": 0}, {"lon": -77.02418183333333, "bike_id": "a272b15c9c35d4509ff43566b5356a6f", "lat": 38.909713833333335, "fusion_lon": 0.0, "fusion_lat": 0.0, "type": "electric_scooter", "name": "a272b15c9c35d4509ff43566b5356a6f", "is_disabled": 0, "rental_uris": {"ios": "https://dc.lft.to/lastmile_qr_scan", "android": "https://dc.lft.to/lastmile_qr_scan"}, "is_reserved": 0}, {"lon": -77.0132175, "bike_id": "b3fd486c9b1f6d8a8f6d55a6fcf738b2", "lat": 38.8792565, "fusion_lon": 0.0, "fusion_lat": 0.0, "type": "electric_scooter", "name": "b3fd486c9b1f6d8a8f6d55a6fcf738b2", "is_disabled": 0, "rental_uris": {"ios": "https://dc.lft.to/lastmile_qr_scan", "android": "https://dc.lft.to/lastmile_qr_scan"}, "is_reserved": 0}, {"lon": -77.05535866666666, "bike_id": "e625eff738be6051b5fcd7d2001b3845", "lat": 38.9342805, "fusion_lon": 0.0, "fusion_lat": 0.0, "type": "electric_scooter", "name": "e625eff738be6051b5fcd7d2001b3845", "is_disabled": 0, "rental_uris": {"ios": "https://dc.lft.to/lastmile_qr_scan", "android": "https://dc.lft.to/lastmile_qr_scan"}, "is_reserved": 0}, {"lon": -77.035013, "bike_id": "2d26a0f2ec447b77baae7ea7068845f2", "lat": 38.93751833333334, "fusion_lon": 0.0, "fusion_lat": 0.0, "type": "electric_scooter", "name": "2d26a0f2ec447b77baae7ea7068845f2", "is_disabled": 0, "rental_uris": {"ios": "https://dc.lft.to/lastmile_qr_scan", "android": "https://dc.lft.to/lastmile_qr_scan"}, "is_reserved": 0}, {"lon": -77.03866416666666, "bike_id": "9170f2eb1f89a09d0cf3bd84b2d60021", "lat": 38.915549, "fusion_lon": 0.0, "fusion_lat": 0.0, "type": "electric_scooter", "name": "9170f2eb1f89a09d0cf3bd84b2d60021", "is_disabled": 0, "rental_uris": {"ios": "https://dc.lft.to/lastmile_qr_scan", "android": "https://dc.lft.to/lastmile_qr_scan"}, "is_reserved": 0}, {"lon": -76.98836416666667, "bike_id": "cb87a56df8f0fccd5b5e8c78d30963cc", "lat": 38.9007255, "fusion_lon": 0.0, "fusion_lat": 0.0, "type": "electric_scooter", "name": "cb87a56df8f0fccd5b5e8c78d30963cc", "is_disabled": 0, "rental_uris": {"ios": "https://dc.lft.to/lastmile_qr_scan", "android": "https://dc.lft.to/lastmile_qr_scan"}, "is_reserved": 0}, {"lon": -77.00609033333333, "bike_id": "e0398b1e8f7c0bcff370cb202aab10ae", "lat": 38.90628366666667, "fusion_lon": 0.0, "fusion_lat": 0.0, "type": "electric_scooter", "name": "e0398b1e8f7c0bcff370cb202aab10ae", "is_disabled": 0, "rental_uris": {"ios": "https://dc.lft.to/lastmile_qr_scan", "android": "https://dc.lft.to/lastmile_qr_scan"}, "is_reserved": 0}, {"lon": -77.05116383333333, "bike_id": "4dcc31ed4baeac79c9dd4362e7b44bff", "lat": 38.923477, "fusion_lon": 0.0, "fusion_lat": 0.0, "type": "electric_scooter", "name": "4dcc31ed4baeac79c9dd4362e7b44bff", "is_disabled": 0, "rental_uris": {"ios": "https://dc.lft.to/lastmile_qr_scan", "android": "https://dc.lft.to/lastmile_qr_scan"}, "is_reserved": 0}, {"lon": -77.0779515, "bike_id": "2dcbf64374ef411fdfa3014cc2fdfa3b", "lat": 38.99599933333333, "fusion_lon": 0.0, "fusion_lat": 0.0, "type": "electric_bike", "name": "2dcbf64374ef411fdfa3014cc2fdfa3b", "is_disabled": 0, "rental_uris": {"ios": "https://dc.lft.to/lastmile_qr_scan", "android": "https://dc.lft.to/lastmile_qr_scan"}, "is_reserved": 0}, {"lon": -76.99780983333333, "bike_id": "a9b4b9f6d4f7064500f0caf095b2247d", "lat": 38.9106685, "fusion_lon": 0.0, "fusion_lat": 0.0, "type": "electric_scooter", "name": "a9b4b9f6d4f7064500f0caf095b2247d", "is_disabled": 0, "rental_uris": {"ios": "https://dc.lft.to/lastmile_qr_scan", "android": "https://dc.lft.to/lastmile_qr_scan"}, "is_reserved": 0}, {"lon": -77.043463, "bike_id": "9bd664d3677c736c20e00f83cac3c5fc", "lat": 38.907806666666666, "fusion_lon": 0.0, "fusion_lat": 0.0, "type": "electric_scooter", "name": "9bd664d3677c736c20e00f83cac3c5fc", "is_disabled": 0, "rental_uris": {"ios": "https://dc.lft.to/lastmile_qr_scan", "android": "https://dc.lft.to/lastmile_qr_scan"}, "is_reserved": 0}, {"lon": -76.9956245, "bike_id": "d8d8d74d320f269f1bde8636f19d739a", "lat": 38.862218, "fusion_lon": 0.0, "fusion_lat": 0.0, "type": "electric_scooter", "name": "d8d8d74d320f269f1bde8636f19d739a", "is_disabled": 0, "rental_uris": {"ios": "https://dc.lft.to/lastmile_qr_scan", "android": "https://dc.lft.to/lastmile_qr_scan"}, "is_reserved": 0}, {"lon": -77.03500883333334, "bike_id": "fb63f3372e2cbe22601f3b6effc50484", "lat": 38.92478966666667, "fusion_lon": 0.0, "fusion_lat": 0.0, "type": "electric_scooter", "name": "fb63f3372e2cbe22601f3b6effc50484", "is_disabled": 0, "rental_uris": {"ios": "https://dc.lft.to/lastmile_qr_scan", "android": "https://dc.lft.to/lastmile_qr_scan"}, "is_reserved": 0}, {"lon": -77.0119615, "bike_id": "3b5c6c3b84b4c6f5c62d4073e6c4b1de", "lat": 38.893173, "fusion_lon": 0.0, "fusion_lat": 0.0, "type": "electric_scooter", "name": "3b5c6c3b84b4c6f5c62d4073e6c4b1de", "is_disabled": 0, "rental_uris": {"ios": "https://dc.lft.to/lastmile_qr_scan", "android": "https://dc.lft.to/lastmile_qr_scan"}, "is_reserved": 0}, {"lon": -77.00284016666667, "bike_id": "64984944241f4ecfc989c71e1898532d", "lat": 38.91810533333334, "fusion_lon": 0.0, "fusion_lat": 0.0, "type": "electric_scooter", "name": "64984944241f4ecfc989c71e1898532d", "is_disabled": 0, "rental_uris": {"ios": "https://dc.lft.to/lastmile_qr_scan", "android": "https://dc.lft.to/lastmile_qr_scan"}, "is_reserved": 0}, {"lon": -77.00130566666667, "bike_id": "e1e686820bb06281ab79c3930dabfd98", "lat": 38.885250166666665, "fusion_lon": 0.0, "fusion_lat": 0.0, "type": "electric_scooter", "name": "e1e686820bb06281ab79c3930dabfd98", "is_disabled": 0, "rental_uris": {"ios": "https://dc.lft.to/lastmile_qr_scan", "android": "https://dc.lft.to/lastmile_qr_scan"}, "is_reserved": 0}, {"lon": -77.00925566666666, "bike_id": "d24b13cc1bf4f74b0b2c30ef4da38db9", "lat": 38.91807516666667, "fusion_lon": 0.0, "fusion_lat": 0.0, "type": "electric_scooter", "name": "d24b13cc1bf4f74b0b2c30ef4da38db9", "is_disabled": 0, "rental_uris": {"ios": "https://dc.lft.to/lastmile_qr_scan", "android": "https://dc.lft.to/lastmile_qr_scan"}, "is_reserved": 0}, {"lon": -77.02596483333333, "bike_id": "7bfbad128fe5179a91b428748c4c72ad", "lat": 38.90367083333334, "fusion_lon": 0.0, "fusion_lat": 0.0, "type": "electric_scooter", "name": "7bfbad128fe5179a91b428748c4c72ad", "is_disabled": 0, "rental_uris": {"ios": "https://dc.lft.to/lastmile_qr_scan", "android": "https://dc.lft.to/lastmile_qr_scan"}, "is_reserved": 0}, {"lon": -76.98883983333333, "bike_id": "e107fcb0fbc63c6d302c55846f6e4d64", "lat": 38.866572833333336, "fusion_lon": 0.0, "fusion_lat": 0.0, "type": "electric_scooter", "name": "e107fcb0fbc63c6d302c55846f6e4d64", "is_disabled": 0, "rental_uris": {"ios": "https://dc.lft.to/lastmile_qr_scan", "android": "https://dc.lft.to/lastmile_qr_scan"}, "is_reserved": 0}, {"lon": -77.024884, "bike_id": "30d414c8dd93305f100e7518f66de216", "lat": 38.94182883333333, "fusion_lon": 0.0, "fusion_lat": 0.0, "type": "electric_scooter", "name": "30d414c8dd93305f100e7518f66de216", "is_disabled": 0, "rental_uris": {"ios": "https://dc.lft.to/lastmile_qr_scan", "android": "https://dc.lft.to/lastmile_qr_scan"}, "is_reserved": 0}, {"lon": -77.022947, "bike_id": "c8c7a8851ce797889daa26154ddd17a0", "lat": 38.9232705, "fusion_lon": 0.0, "fusion_lat": 0.0, "type": "electric_bike", "name": "c8c7a8851ce797889daa26154ddd17a0", "is_disabled": 0, "rental_uris": {"ios": "https://dc.lft.to/lastmile_qr_scan", "android": "https://dc.lft.to/lastmile_qr_scan"}, "is_reserved": 0}, {"lon": -77.06138766666666, "bike_id": "7a8a0e08ad3d55e396843d72c826172c", "lat": 38.9436255, "fusion_lon": 0.0, "fusion_lat": 0.0, "type": "electric_scooter", "name": "7a8a0e08ad3d55e396843d72c826172c", "is_disabled": 0, "rental_uris": {"ios": "https://dc.lft.to/lastmile_qr_scan", "android": "https://dc.lft.to/lastmile_qr_scan"}, "is_reserved": 0}, {"lon": -76.9978735, "bike_id": "1bbd51f9fcf42d09ffc060914cfdfdea", "lat": 38.8909055, "fusion_lon": 0.0, "fusion_lat": 0.0, "type": "electric_scooter", "name": "1bbd51f9fcf42d09ffc060914cfdfdea", "is_disabled": 0, "rental_uris": {"ios": "https://dc.lft.to/lastmile_qr_scan", "android": "https://dc.lft.to/lastmile_qr_scan"}, "is_reserved": 0}, {"lon": -77.02621816666667, "bike_id": "7f8e5b9365c25019656bbbfc9a006f27", "lat": 38.92989566666667, "fusion_lon": 0.0, "fusion_lat": 0.0, "type": "electric_scooter", "name": "7f8e5b9365c25019656bbbfc9a006f27", "is_disabled": 0, "rental_uris": {"ios": "https://dc.lft.to/lastmile_qr_scan", "android": "https://dc.lft.to/lastmile_qr_scan"}, "is_reserved": 0}, {"lon": -76.981047, "bike_id": "aef6f54b6971ccc82085e0b69602119e", "lat": 38.877301333333335, "fusion_lon": 0.0, "fusion_lat": 0.0, "type": "electric_bike", "name": "aef6f54b6971ccc82085e0b69602119e", "is_disabled": 0, "rental_uris": {"ios": "https://dc.lft.to/lastmile_qr_scan", "android": "https://dc.lft.to/lastmile_qr_scan"}, "is_reserved": 0}, {"lon": -77.02157333333334, "bike_id": "ebb24eba4025cbae8c1f596693d4e735", "lat": 38.90968983333333, "fusion_lon": 0.0, "fusion_lat": 0.0, "type": "electric_scooter", "name": "ebb24eba4025cbae8c1f596693d4e735", "is_disabled": 0, "rental_uris": {"ios": "https://dc.lft.to/lastmile_qr_scan", "android": "https://dc.lft.to/lastmile_qr_scan"}, "is_reserved": 0}, {"lon": -77.05862366666666, "bike_id": "4e6ab2c2afa7be41e7c4ef4ff3949731", "lat": 38.936044333333335, "fusion_lon": 0.0, "fusion_lat": 0.0, "type": "electric_scooter", "name": "4e6ab2c2afa7be41e7c4ef4ff3949731", "is_disabled": 0, "rental_uris": {"ios": "https://dc.lft.to/lastmile_qr_scan", "android": "https://dc.lft.to/lastmile_qr_scan"}, "is_reserved": 0}, {"lon": -77.0061165, "bike_id": "17b75b92ba90f77cc917e8fb64c2141a", "lat": 38.90009883333333, "fusion_lon": 0.0, "fusion_lat": 0.0, "type": "electric_scooter", "name": "17b75b92ba90f77cc917e8fb64c2141a", "is_disabled": 0, "rental_uris": {"ios": "https://dc.lft.to/lastmile_qr_scan", "android": "https://dc.lft.to/lastmile_qr_scan"}, "is_reserved": 0}, {"lon": -76.98246966666666, "bike_id": "a242c9ac5d902681404f016245411d53", "lat": 38.864572333333335, "fusion_lon": 0.0, "fusion_lat": 0.0, "type": "electric_scooter", "name": "a242c9ac5d902681404f016245411d53", "is_disabled": 0, "rental_uris": {"ios": "https://dc.lft.to/lastmile_qr_scan", "android": "https://dc.lft.to/lastmile_qr_scan"}, "is_reserved": 0}, {"lon": -77.046893, "bike_id": "59243a30b34d29429aadf00ff8bba39b", "lat": 38.9189625, "fusion_lon": 0.0, "fusion_lat": 0.0, "type": "electric_scooter", "name": "59243a30b34d29429aadf00ff8bba39b", "is_disabled": 0, "rental_uris": {"ios": "https://dc.lft.to/lastmile_qr_scan", "android": "https://dc.lft.to/lastmile_qr_scan"}, "is_reserved": 0}, {"lon": -77.0048625, "bike_id": "9eaa6b93c98ac087a440130e7f61cc3e", "lat": 38.9056535, "fusion_lon": 0.0, "fusion_lat": 0.0, "type": "electric_scooter", "name": "9eaa6b93c98ac087a440130e7f61cc3e", "is_disabled": 0, "rental_uris": {"ios": "https://dc.lft.to/lastmile_qr_scan", "android": "https://dc.lft.to/lastmile_qr_scan"}, "is_reserved": 0}, {"lon": -77.030665, "bike_id": "8dc08f118fa90f0f5bf5e73582ce7af8", "lat": 38.924700333333334, "fusion_lon": 0.0, "fusion_lat": 0.0, "type": "electric_scooter", "name": "8dc08f118fa90f0f5bf5e73582ce7af8", "is_disabled": 0, "rental_uris": {"ios": "https://dc.lft.to/lastmile_qr_scan", "android": "https://dc.lft.to/lastmile_qr_scan"}, "is_reserved": 0}, {"lon": -77.00189833333333, "bike_id": "51d50d91c569c7ce20f91f52bbee698c", "lat": 38.8947455, "fusion_lon": 0.0, "fusion_lat": 0.0, "type": "electric_scooter", "name": "51d50d91c569c7ce20f91f52bbee698c", "is_disabled": 0, "rental_uris": {"ios": "https://dc.lft.to/lastmile_qr_scan", "android": "https://dc.lft.to/lastmile_qr_scan"}, "is_reserved": 0}, {"lon": -77.01502666666667, "bike_id": "f549694a825a89e061a0038a3aba1a04", "lat": 38.945323333333334, "fusion_lon": 0.0, "fusion_lat": 0.0, "type": "electric_scooter", "name": "f549694a825a89e061a0038a3aba1a04", "is_disabled": 0, "rental_uris": {"ios": "https://dc.lft.to/lastmile_qr_scan", "android": "https://dc.lft.to/lastmile_qr_scan"}, "is_reserved": 0}, {"lon": -76.94931683333333, "bike_id": "64ca98449daf3b60741799def199e2d4", "lat": 38.895428833333334, "fusion_lon": 0.0, "fusion_lat": 0.0, "type": "electric_scooter", "name": "64ca98449daf3b60741799def199e2d4", "is_disabled": 0, "rental_uris": {"ios": "https://dc.lft.to/lastmile_qr_scan", "android": "https://dc.lft.to/lastmile_qr_scan"}, "is_reserved": 0}, {"lon": -77.02389616666666, "bike_id": "f4cbbef48bcfc3d8f47b6c9adba2efd4", "lat": 38.92071133333334, "fusion_lon": 0.0, "fusion_lat": 0.0, "type": "electric_scooter", "name": "f4cbbef48bcfc3d8f47b6c9adba2efd4", "is_disabled": 0, "rental_uris": {"ios": "https://dc.lft.to/lastmile_qr_scan", "android": "https://dc.lft.to/lastmile_qr_scan"}, "is_reserved": 0}, {"lon": -77.0011, "bike_id": "28ecba7ad44c0f738161440b3f38caac", "lat": 38.9196645, "fusion_lon": 0.0, "fusion_lat": 0.0, "type": "electric_scooter", "name": "28ecba7ad44c0f738161440b3f38caac", "is_disabled": 0, "rental_uris": {"ios": "https://dc.lft.to/lastmile_qr_scan", "android": "https://dc.lft.to/lastmile_qr_scan"}, "is_reserved": 0}, {"lon": -77.0337895, "bike_id": "4db2bc658ad2b4a9ffd1b112a258b4c3", "lat": 38.921573333333335, "fusion_lon": 0.0, "fusion_lat": 0.0, "type": "electric_scooter", "name": "4db2bc658ad2b4a9ffd1b112a258b4c3", "is_disabled": 0, "rental_uris": {"ios": "https://dc.lft.to/lastmile_qr_scan", "android": "https://dc.lft.to/lastmile_qr_scan"}, "is_reserved": 0}, {"lon": -77.05096066666667, "bike_id": "a1df734a2a8bb3793a3595f886d765c2", "lat": 38.923027166666664, "fusion_lon": 0.0, "fusion_lat": 0.0, "type": "electric_scooter", "name": "a1df734a2a8bb3793a3595f886d765c2", "is_disabled": 0, "rental_uris": {"ios": "https://dc.lft.to/lastmile_qr_scan", "android": "https://dc.lft.to/lastmile_qr_scan"}, "is_reserved": 0}, {"lon": -77.00552433333333, "bike_id": "0e22f39e467ff4d7871471612f9d3009", "lat": 38.88755066666667, "fusion_lon": 0.0, "fusion_lat": 0.0, "type": "electric_scooter", "name": "0e22f39e467ff4d7871471612f9d3009", "is_disabled": 0, "rental_uris": {"ios": "https://dc.lft.to/lastmile_qr_scan", "android": "https://dc.lft.to/lastmile_qr_scan"}, "is_reserved": 0}, {"lon": -77.01314166666667, "bike_id": "094e934c11e03ef4eccfce460a6f193b", "lat": 38.90737333333333, "fusion_lon": 0.0, "fusion_lat": 0.0, "type": "electric_scooter", "name": "094e934c11e03ef4eccfce460a6f193b", "is_disabled": 0, "rental_uris": {"ios": "https://dc.lft.to/lastmile_qr_scan", "android": "https://dc.lft.to/lastmile_qr_scan"}, "is_reserved": 0}, {"lon": -77.01014733333334, "bike_id": "035857d3888785fe7a596517c0e905ba", "lat": 38.8666485, "fusion_lon": 0.0, "fusion_lat": 0.0, "type": "electric_scooter", "name": "035857d3888785fe7a596517c0e905ba", "is_disabled": 0, "rental_uris": {"ios": "https://dc.lft.to/lastmile_qr_scan", "android": "https://dc.lft.to/lastmile_qr_scan"}, "is_reserved": 0}, {"lon": -77.025723, "bike_id": "f5e0120696001b211f738162ba467a72", "lat": 38.91407933333333, "fusion_lon": 0.0, "fusion_lat": 0.0, "type": "electric_scooter", "name": "f5e0120696001b211f738162ba467a72", "is_disabled": 0, "rental_uris": {"ios": "https://dc.lft.to/lastmile_qr_scan", "android": "https://dc.lft.to/lastmile_qr_scan"}, "is_reserved": 0}, {"lon": -77.02637366666667, "bike_id": "5d181e610c2b83b4e146763a2bd802b6", "lat": 38.904196666666664, "fusion_lon": 0.0, "fusion_lat": 0.0, "type": "electric_scooter", "name": "5d181e610c2b83b4e146763a2bd802b6", "is_disabled": 0, "rental_uris": {"ios": "https://dc.lft.to/lastmile_qr_scan", "android": "https://dc.lft.to/lastmile_qr_scan"}, "is_reserved": 0}, {"lon": -77.003061, "bike_id": "4ab83028ea9a2ad4d1481133befc4b82", "lat": 38.894944, "fusion_lon": 0.0, "fusion_lat": 0.0, "type": "electric_scooter", "name": "4ab83028ea9a2ad4d1481133befc4b82", "is_disabled": 0, "rental_uris": {"ios": "https://dc.lft.to/lastmile_qr_scan", "android": "https://dc.lft.to/lastmile_qr_scan"}, "is_reserved": 0}, {"lon": -77.02012716666667, "bike_id": "20a88f7811e32d6eee2271f035d5767c", "lat": 38.9240625, "fusion_lon": 0.0, "fusion_lat": 0.0, "type": "electric_scooter", "name": "20a88f7811e32d6eee2271f035d5767c", "is_disabled": 0, "rental_uris": {"ios": "https://dc.lft.to/lastmile_qr_scan", "android": "https://dc.lft.to/lastmile_qr_scan"}, "is_reserved": 0}, {"lon": -77.03886783333333, "bike_id": "0473c126facd9f0c66c66d8b86ca4e75", "lat": 38.925279, "fusion_lon": 0.0, "fusion_lat": 0.0, "type": "electric_scooter", "name": "0473c126facd9f0c66c66d8b86ca4e75", "is_disabled": 0, "rental_uris": {"ios": "https://dc.lft.to/lastmile_qr_scan", "android": "https://dc.lft.to/lastmile_qr_scan"}, "is_reserved": 0}, {"lon": -77.01110066666666, "bike_id": "7b940c4d7158b756124d79b01b441053", "lat": 38.90353833333333, "fusion_lon": 0.0, "fusion_lat": 0.0, "type": "electric_scooter", "name": "7b940c4d7158b756124d79b01b441053", "is_disabled": 0, "rental_uris": {"ios": "https://dc.lft.to/lastmile_qr_scan", "android": "https://dc.lft.to/lastmile_qr_scan"}, "is_reserved": 0}, {"lon": -77.03978016666667, "bike_id": "5e11f2a309b583df40806fc6668c2742", "lat": 38.92080266666667, "fusion_lon": 0.0, "fusion_lat": 0.0, "type": "electric_scooter", "name": "5e11f2a309b583df40806fc6668c2742", "is_disabled": 0, "rental_uris": {"ios": "https://dc.lft.to/lastmile_qr_scan", "android": "https://dc.lft.to/lastmile_qr_scan"}, "is_reserved": 0}, {"lon": -77.0249495, "bike_id": "2142d2758ca5cb7445186d6e6445f40d", "lat": 38.907318833333335, "fusion_lon": 0.0, "fusion_lat": 0.0, "type": "electric_scooter", "name": "2142d2758ca5cb7445186d6e6445f40d", "is_disabled": 0, "rental_uris": {"ios": "https://dc.lft.to/lastmile_qr_scan", "android": "https://dc.lft.to/lastmile_qr_scan"}, "is_reserved": 0}, {"lon": -77.04130566666667, "bike_id": "7bfd2ee1eb09dbc81f973cddf87a115a", "lat": 38.90626066666667, "fusion_lon": 0.0, "fusion_lat": 0.0, "type": "electric_scooter", "name": "7bfd2ee1eb09dbc81f973cddf87a115a", "is_disabled": 0, "rental_uris": {"ios": "https://dc.lft.to/lastmile_qr_scan", "android": "https://dc.lft.to/lastmile_qr_scan"}, "is_reserved": 0}, {"lon": -77.01818333333334, "bike_id": "ed18682af11f34f0665526adf10c8596", "lat": 38.923700333333336, "fusion_lon": 0.0, "fusion_lat": 0.0, "type": "electric_scooter", "name": "ed18682af11f34f0665526adf10c8596", "is_disabled": 0, "rental_uris": {"ios": "https://dc.lft.to/lastmile_qr_scan", "android": "https://dc.lft.to/lastmile_qr_scan"}, "is_reserved": 0}, {"lon": -77.03042366666666, "bike_id": "df185535b4c0b4ac9f2e944add4e6cdb", "lat": 38.878398833333335, "fusion_lon": 0.0, "fusion_lat": 0.0, "type": "electric_scooter", "name": "df185535b4c0b4ac9f2e944add4e6cdb", "is_disabled": 0, "rental_uris": {"ios": "https://dc.lft.to/lastmile_qr_scan", "android": "https://dc.lft.to/lastmile_qr_scan"}, "is_reserved": 0}, {"lon": -77.04264216666667, "bike_id": "7e25034b0c90bb6013ed0ddb3edf4388", "lat": 38.91484416666667, "fusion_lon": 0.0, "fusion_lat": 0.0, "type": "electric_scooter", "name": "7e25034b0c90bb6013ed0ddb3edf4388", "is_disabled": 0, "rental_uris": {"ios": "https://dc.lft.to/lastmile_qr_scan", "android": "https://dc.lft.to/lastmile_qr_scan"}, "is_reserved": 0}, {"lon": -76.990858, "bike_id": "d64ad3bd253020547de51cd7eae81870", "lat": 38.86239, "fusion_lon": 0.0, "fusion_lat": 0.0, "type": "electric_bike", "name": "d64ad3bd253020547de51cd7eae81870", "is_disabled": 0, "rental_uris": {"ios": "https://dc.lft.to/lastmile_qr_scan", "android": "https://dc.lft.to/lastmile_qr_scan"}, "is_reserved": 0}, {"lon": -77.0217695, "bike_id": "448da2376706c2649a245da1cb5bef3f", "lat": 38.919134166666666, "fusion_lon": 0.0, "fusion_lat": 0.0, "type": "electric_scooter", "name": "448da2376706c2649a245da1cb5bef3f", "is_disabled": 0, "rental_uris": {"ios": "https://dc.lft.to/lastmile_qr_scan", "android": "https://dc.lft.to/lastmile_qr_scan"}, "is_reserved": 0}, {"lon": -77.03976983333334, "bike_id": "49527bb2f86c668ba8d916a9abca855d", "lat": 38.920234666666666, "fusion_lon": 0.0, "fusion_lat": 0.0, "type": "electric_scooter", "name": "49527bb2f86c668ba8d916a9abca855d", "is_disabled": 0, "rental_uris": {"ios": "https://dc.lft.to/lastmile_qr_scan", "android": "https://dc.lft.to/lastmile_qr_scan"}, "is_reserved": 0}, {"lon": -77.0438645, "bike_id": "e0f940961f985f536b3ffebf740dc866", "lat": 38.92309366666667, "fusion_lon": 0.0, "fusion_lat": 0.0, "type": "electric_scooter", "name": "e0f940961f985f536b3ffebf740dc866", "is_disabled": 0, "rental_uris": {"ios": "https://dc.lft.to/lastmile_qr_scan", "android": "https://dc.lft.to/lastmile_qr_scan"}, "is_reserved": 0}, {"lon": -77.02854566666667, "bike_id": "5dc201ceb2b1426b5d34146411cd373d", "lat": 38.9562855, "fusion_lon": 0.0, "fusion_lat": 0.0, "type": "electric_scooter", "name": "5dc201ceb2b1426b5d34146411cd373d", "is_disabled": 0, "rental_uris": {"ios": "https://dc.lft.to/lastmile_qr_scan", "android": "https://dc.lft.to/lastmile_qr_scan"}, "is_reserved": 0}, {"lon": -76.99015433333334, "bike_id": "4d0f70fee056d68c734e742ad2892d34", "lat": 38.866431666666664, "fusion_lon": 0.0, "fusion_lat": 0.0, "type": "electric_scooter", "name": "4d0f70fee056d68c734e742ad2892d34", "is_disabled": 0, "rental_uris": {"ios": "https://dc.lft.to/lastmile_qr_scan", "android": "https://dc.lft.to/lastmile_qr_scan"}, "is_reserved": 0}, {"lon": -77.02800316666666, "bike_id": "0ddd3a094423a64f2e6631cac85d6867", "lat": 38.931446, "fusion_lon": 0.0, "fusion_lat": 0.0, "type": "electric_scooter", "name": "0ddd3a094423a64f2e6631cac85d6867", "is_disabled": 0, "rental_uris": {"ios": "https://dc.lft.to/lastmile_qr_scan", "android": "https://dc.lft.to/lastmile_qr_scan"}, "is_reserved": 0}, {"lon": -77.02459, "bike_id": "f600c5f4875516b7381b32085bef4450", "lat": 38.93881366666667, "fusion_lon": 0.0, "fusion_lat": 0.0, "type": "electric_scooter", "name": "f600c5f4875516b7381b32085bef4450", "is_disabled": 0, "rental_uris": {"ios": "https://dc.lft.to/lastmile_qr_scan", "android": "https://dc.lft.to/lastmile_qr_scan"}, "is_reserved": 0}, {"lon": -77.020785, "bike_id": "9781245b2eb7d73444d6baa70e497e1c", "lat": 38.89724, "fusion_lon": 0.0, "fusion_lat": 0.0, "type": "electric_scooter", "name": "9781245b2eb7d73444d6baa70e497e1c", "is_disabled": 0, "rental_uris": {"ios": "https://dc.lft.to/lastmile_qr_scan", "android": "https://dc.lft.to/lastmile_qr_scan"}, "is_reserved": 0}, {"lon": -77.04192266666666, "bike_id": "aa5b3a7a7b733c684c2557c3432ca553", "lat": 38.906711, "fusion_lon": 0.0, "fusion_lat": 0.0, "type": "electric_scooter", "name": "aa5b3a7a7b733c684c2557c3432ca553", "is_disabled": 0, "rental_uris": {"ios": "https://dc.lft.to/lastmile_qr_scan", "android": "https://dc.lft.to/lastmile_qr_scan"}, "is_reserved": 0}, {"lon": -76.97482816666667, "bike_id": "d92015772f3a5284a07a6498b915a286", "lat": 38.903526166666666, "fusion_lon": 0.0, "fusion_lat": 0.0, "type": "electric_scooter", "name": "d92015772f3a5284a07a6498b915a286", "is_disabled": 0, "rental_uris": {"ios": "https://dc.lft.to/lastmile_qr_scan", "android": "https://dc.lft.to/lastmile_qr_scan"}, "is_reserved": 0}, {"lon": -77.00678683333334, "bike_id": "25ee2413c04688890b21138a61084832", "lat": 38.90017566666667, "fusion_lon": 0.0, "fusion_lat": 0.0, "type": "electric_scooter", "name": "25ee2413c04688890b21138a61084832", "is_disabled": 0, "rental_uris": {"ios": "https://dc.lft.to/lastmile_qr_scan", "android": "https://dc.lft.to/lastmile_qr_scan"}, "is_reserved": 0}, {"lon": -77.03869216666666, "bike_id": "0fbc54728fec241cf63df76f733b1f49", "lat": 38.915606833333335, "fusion_lon": 0.0, "fusion_lat": 0.0, "type": "electric_scooter", "name": "0fbc54728fec241cf63df76f733b1f49", "is_disabled": 0, "rental_uris": {"ios": "https://dc.lft.to/lastmile_qr_scan", "android": "https://dc.lft.to/lastmile_qr_scan"}, "is_reserved": 0}, {"lon": -77.04879616666666, "bike_id": "1655a64d1293f7e448fa72c96a344633", "lat": 38.915772, "fusion_lon": 0.0, "fusion_lat": 0.0, "type": "electric_scooter", "name": "1655a64d1293f7e448fa72c96a344633", "is_disabled": 0, "rental_uris": {"ios": "https://dc.lft.to/lastmile_qr_scan", "android": "https://dc.lft.to/lastmile_qr_scan"}, "is_reserved": 0}, {"lon": -77.0347045, "bike_id": "c45258bbce4e7b25275e21767d1bd222", "lat": 38.90690983333333, "fusion_lon": 0.0, "fusion_lat": 0.0, "type": "electric_scooter", "name": "c45258bbce4e7b25275e21767d1bd222", "is_disabled": 0, "rental_uris": {"ios": "https://dc.lft.to/lastmile_qr_scan", "android": "https://dc.lft.to/lastmile_qr_scan"}, "is_reserved": 0}, {"lon": -77.0806585, "bike_id": "1b77dc0fba2d1cc97de68b7ef7e8e089", "lat": 39.05284016666667, "fusion_lon": 0.0, "fusion_lat": 0.0, "type": "electric_bike", "name": "1b77dc0fba2d1cc97de68b7ef7e8e089", "is_disabled": 0, "rental_uris": {"ios": "https://dc.lft.to/lastmile_qr_scan", "android": "https://dc.lft.to/lastmile_qr_scan"}, "is_reserved": 0},