{"data": {"bikes": [{"fusion_lat": 0.0, "lon": -77.04359866666667, "is_reserved": 0, "bike_id": "d44416f605cf8a4524cd4a4c0e23d562", "fusion_lon": 0.0, "rental_uris": {"android": "https://dc.lft.to/lastmile_qr_scan", "ios": "https://dc.lft.to/lastmile_qr_scan"}, "name": "d44416f605cf8a4524cd4a4c0e23d562", "type": "electric_scooter", "lat": 38.90283516666667, "is_disabled": 0}, {"fusion_lat": 0.0, "lon": -77.02872266666667, "is_reserved": 0, "bike_id": "8954273874fb65352775dbac407a3358", "fusion_lon": 0.0, "rental_uris": {"android": "https://dc.lft.to/lastmile_qr_scan", "ios": "https://dc.lft.to/lastmile_qr_scan"}, "name": "8954273874fb65352775dbac407a3358", "type": "electric_scooter", "lat": 38.9257335, "is_disabled": 0}, {"fusion_lat": 0.0, "lon": -77.0569215, "is_reserved": 0, "bike_id": "72e16a8e85993f72aabdd11e5f452595", "fusion_lon": 0.0, "rental_uris": {"android": "https://dc.lft.to/lastmile_qr_scan", "ios": "https://dc.lft.to/lastmile_qr_scan"}, "name": "72e16a8e85993f72aabdd11e5f452595", "type": "electric_scooter", "lat": 38.906013, "is_disabled": 0}, {"fusion_lat": 0.0, "lon": -77.08399083333333, "is_reserved": 0, "bike_id": "83d866d38e95dc297d843bb888357b23", "fusion_lon": 0.0, "rental_uris": {"android": "https://dc.lft.to/lastmile_qr_scan", "ios": "https://dc.lft.to/lastmile_qr_scan"}, "name": "83d866d38e95dc297d843bb888357b23", "type": "electric_scooter", "lat": 38.90803583333334, "is_disabled": 0}, {"fusion_lat": 0.0, "lon": -77.026159, "is_reserved": 0, "bike_id": "724e47f04257040487e18d4639626525", "fusion_lon": 0.0, "rental_uris": {"android": "https://dc.lft.to/lastmile_qr_scan", "ios": "https://dc.lft.to/lastmile_qr_scan"}, "name": "724e47f04257040487e18d4639626525", "type": "electric_scooter", "lat": 38.92980883333333, "is_disabled": 0}, {"fusion_lat": 0.0, "lon": -77.03685833333333, "is_reserved": 0, "bike_id": "fb8e76d3fccd2549059ea0786a084766", "fusion_lon": 0.0, "rental_uris": {"android": "https://dc.lft.to/lastmile_qr_scan", "ios": "https://dc.lft.to/lastmile_qr_scan"}, "name": "fb8e76d3fccd2549059ea0786a084766", "type": "electric_scooter", "lat": 38.916814, "is_disabled": 0}, {"fusion_lat": 0.0, "lon": -77.049905, "is_reserved": 0, "bike_id": "c33e9b029b45ac519b64311fe6317b6b", "fusion_lon": 0.0, "rental_uris": {"android": "https://dc.lft.to/lastmile_qr_scan", "ios": "https://dc.lft.to/lastmile_qr_scan"}, "name": "c33e9b029b45ac519b64311fe6317b6b", "type": "electric_scooter", "lat": 38.897380166666665, "is_disabled": 0}, {"fusion_lat": 0.0, "lon": -77.03258866666667, "is_reserved": 0, "bike_id": "5493bbad9d5df5bd125449c9932ef5b2", "fusion_lon": 0.0, "rental_uris": {"android": "https://dc.lft.to/lastmile_qr_scan", "ios": "https://dc.lft.to/lastmile_qr_scan"}, "name": "5493bbad9d5df5bd125449c9932ef5b2", "type": "electric_scooter", "lat": 38.94156616666667, "is_disabled": 0}, {"fusion_lat": 0.0, "lon": -77.0385855, "is_reserved": 0, "bike_id": "d4defb7aa1bcd062d4d43cf583f61f2b", "fusion_lon": 0.0, "rental_uris": {"android": "https://dc.lft.to/lastmile_qr_scan", "ios": "https://dc.lft.to/lastmile_qr_scan"}, "name": "d4defb7aa1bcd062d4d43cf583f61f2b", "type": "electric_scooter", "lat": 38.916575, "is_disabled": 0}, {"fusion_lat": 0.0, "lon": -77.045029, "is_reserved": 0, "bike_id": "910f5a70b59fad18962b6c9d31362395", "fusion_lon": 0.0, "rental_uris": {"android": "https://dc.lft.to/lastmile_qr_scan", "ios": "https://dc.lft.to/lastmile_qr_scan"}, "name": "910f5a70b59fad18962b6c9d31362395", "type": "electric_scooter", "lat": 38.907877, "is_disabled": 0}, {"fusion_lat": 0.0, "lon": -77.00449566666667, "is_reserved": 0, "bike_id": "fa875a57aa4a315fbb421c85759e6e4d", "fusion_lon": 0.0, "rental_uris": {"android": "https://dc.lft.to/lastmile_qr_scan", "ios": "https://dc.lft.to/lastmile_qr_scan"}, "name": "fa875a57aa4a315fbb421c85759e6e4d", "type": "electric_scooter", "lat": 38.876569333333336, "is_disabled": 0}, {"fusion_lat": 0.0, "lon": -76.98267983333334, "is_reserved": 0, "bike_id": "cafa645d179999295fd8a3a98bfe174f", "fusion_lon": 0.0, "rental_uris": {"android": "https://dc.lft.to/lastmile_qr_scan", "ios": "https://dc.lft.to/lastmile_qr_scan"}, "name": "cafa645d179999295fd8a3a98bfe174f", "type": "electric_scooter", "lat": 38.8992885, "is_disabled": 0}, {"fusion_lat": 0.0, "lon": -77.1832875, "is_reserved": 0, "bike_id": "e707257b3bc9ba6d07fe8d2311d758a3", "fusion_lon": 0.0, "rental_uris": {"android": "https://dc.lft.to/lastmile_qr_scan", "ios": "https://dc.lft.to/lastmile_qr_scan"}, "name": "e707257b3bc9ba6d07fe8d2311d758a3", "type": "electric_bike", "lat": 38.8909525, "is_disabled": 0}, {"fusion_lat": 0.0, "lon": -77.03843683333334, "is_reserved": 0, "bike_id": "36c952932bc23d737df04b2229f15fde", "fusion_lon": 0.0, "rental_uris": {"android": "https://dc.lft.to/lastmile_qr_scan", "ios": "https://dc.lft.to/lastmile_qr_scan"}, "name": "36c952932bc23d737df04b2229f15fde", "type": "electric_scooter", "lat": 38.91635566666667, "is_disabled": 0}, {"fusion_lat": 0.0, "lon": -77.03637066666667, "is_reserved": 0, "bike_id": "a477defd75915d0f7175b8d512fbc598", "fusion_lon": 0.0, "rental_uris": {"android": "https://dc.lft.to/lastmile_qr_scan", "ios": "https://dc.lft.to/lastmile_qr_scan"}, "name": "a477defd75915d0f7175b8d512fbc598", "type": "electric_scooter", "lat": 38.93675616666667, "is_disabled": 0}, {"fusion_lat": 0.0, "lon": -77.0367055, "is_reserved": 0, "bike_id": "936f51b89391a166945762ef558d5ee2", "fusion_lon": 0.0, "rental_uris": {"android": "https://dc.lft.to/lastmile_qr_scan", "ios": "https://dc.lft.to/lastmile_qr_scan"}, "name": "936f51b89391a166945762ef558d5ee2", "type": "electric_scooter", "lat": 38.9231955, "is_disabled": 0}, {"fusion_lat": 0.0, "lon": -77.03674033333333, "is_reserved": 0, "bike_id": "88b0ad4732f4c2c72d741657c7c1d9a9", "fusion_lon": 0.0, "rental_uris": {"android": "https://dc.lft.to/lastmile_qr_scan", "ios": "https://dc.lft.to/lastmile_qr_scan"}, "name": "88b0ad4732f4c2c72d741657c7c1d9a9", "type": "electric_scooter", "lat": 38.920297, "is_disabled": 0}, {"fusion_lat": 0.0, "lon": -77.00033333333333, "is_reserved": 0, "bike_id": "85a556ff0cf4bd9f096e07906503b050", "fusion_lon": 0.0, "rental_uris": {"android": "https://dc.lft.to/lastmile_qr_scan", "ios": "https://dc.lft.to/lastmile_qr_scan"}, "name": "85a556ff0cf4bd9f096e07906503b050", "type": "electric_scooter", "lat": 38.89736116666667, "is_disabled": 0}, {"fusion_lat": 0.0, "lon": -77.02392133333333, "is_reserved": 0, "bike_id": "de26f3bb8462002fcf8a68c364644cd9", "fusion_lon": 0.0, "rental_uris": {"android": "https://dc.lft.to/lastmile_qr_scan", "ios": "https://dc.lft.to/lastmile_qr_scan"}, "name": "de26f3bb8462002fcf8a68c364644cd9", "type": "electric_scooter", "lat": 38.89777083333333, "is_disabled": 0}, {"fusion_lat": 0.0, "lon": -76.98652416666667, "is_reserved": 0, "bike_id": "e2b80d082b5bd37d6c435a4a0e19ea54", "fusion_lon": 0.0, "rental_uris": {"android": "https://dc.lft.to/lastmile_qr_scan", "ios": "https://dc.lft.to/lastmile_qr_scan"}, "name": "e2b80d082b5bd37d6c435a4a0e19ea54", "type": "electric_scooter", "lat": 38.86735133333333, "is_disabled": 0}, {"fusion_lat": 0.0, "lon": -76.95464066666666, "is_reserved": 0, "bike_id": "eca28c0467b638cc184e7260e507ffd3", "fusion_lon": 0.0, "rental_uris": {"android": "https://dc.lft.to/lastmile_qr_scan", "ios": "https://dc.lft.to/lastmile_qr_scan"}, "name": "eca28c0467b638cc184e7260e507ffd3", "type": "electric_scooter", "lat": 38.886365833333336, "is_disabled": 0}, {"fusion_lat": 0.0, "lon": -77.00968066666667, "is_reserved": 0, "bike_id": "06dbd6509b249e044bfde674070acb34", "fusion_lon": 0.0, "rental_uris": {"android": "https://dc.lft.to/lastmile_qr_scan", "ios": "https://dc.lft.to/lastmile_qr_scan"}, "name": "06dbd6509b249e044bfde674070acb34", "type": "electric_scooter", "lat": 38.907947166666666, "is_disabled": 0}, {"fusion_lat": 0.0, "lon": -76.94536016666666, "is_reserved": 0, "bike_id": "dfcf556d091f0abc46737f1bc88cf92d", "fusion_lon": 0.0, "rental_uris": {"android": "https://dc.lft.to/lastmile_qr_scan", "ios": "https://dc.lft.to/lastmile_qr_scan"}, "name": "dfcf556d091f0abc46737f1bc88cf92d", "type": "electric_bike", "lat": 38.867610666666664, "is_disabled": 0}, {"fusion_lat": 0.0, "lon": -77.0222905, "is_reserved": 0, "bike_id": "7a68c44b2dcdfbd52f82f063e448ed15", "fusion_lon": 0.0, "rental_uris": {"android": "https://dc.lft.to/lastmile_qr_scan", "ios": "https://dc.lft.to/lastmile_qr_scan"}, "name": "7a68c44b2dcdfbd52f82f063e448ed15", "type": "electric_scooter", "lat": 38.89221216666667, "is_disabled": 0}, {"fusion_lat": 0.0, "lon": -77.000474, "is_reserved": 0, "bike_id": "eaf1801510c1ffb768e18e2727e44b1c", "fusion_lon": 0.0, "rental_uris": {"android": "https://dc.lft.to/lastmile_qr_scan", "ios": "https://dc.lft.to/lastmile_qr_scan"}, "name": "eaf1801510c1ffb768e18e2727e44b1c", "type": "electric_scooter", "lat": 38.89631166666667, "is_disabled": 0}, {"fusion_lat": 0.0, "lon": -76.93989266666667, "is_reserved": 0, "bike_id": "e243c20683a81989dea07b47eb725d8e", "fusion_lon": 0.0, "rental_uris": {"android": "https://dc.lft.to/lastmile_qr_scan", "ios": "https://dc.lft.to/lastmile_qr_scan"}, "name": "e243c20683a81989dea07b47eb725d8e", "type": "electric_scooter", "lat": 38.899824833333334, "is_disabled": 0}, {"fusion_lat": 0.0, "lon": -77.02349266666667, "is_reserved": 0, "bike_id": "62c1b7b8503203096ab4a535b33dbb9b", "fusion_lon": 0.0, "rental_uris": {"android": "https://dc.lft.to/lastmile_qr_scan", "ios": "https://dc.lft.to/lastmile_qr_scan"}, "name": "62c1b7b8503203096ab4a535b33dbb9b", "type": "electric_scooter", "lat": 38.89971233333333, "is_disabled": 0}, {"fusion_lat": 0.0, "lon": -77.034352, "is_reserved": 0, "bike_id": "70aa6657dcf6c09e6b0ef44b9b444eb2", "fusion_lon": 0.0, "rental_uris": {"android": "https://dc.lft.to/lastmile_qr_scan", "ios": "https://dc.lft.to/lastmile_qr_scan"}, "name": "70aa6657dcf6c09e6b0ef44b9b444eb2", "type": "electric_scooter", "lat": 38.918064, "is_disabled": 0}, {"fusion_lat": 0.0, "lon": -76.96599533333334, "is_reserved": 0, "bike_id": "dd47bde06f3eca42986603bee33b0bdc", "fusion_lon": 0.0, "rental_uris": {"android": "https://dc.lft.to/lastmile_qr_scan", "ios": "https://dc.lft.to/lastmile_qr_scan"}, "name": "dd47bde06f3eca42986603bee33b0bdc", "type": "electric_scooter", "lat": 38.87115983333333, "is_disabled": 0}, {"fusion_lat": 0.0, "lon": -77.032109, "is_reserved": 0, "bike_id": "1f50e87a270854468f8aadb932c64b74", "fusion_lon": 0.0, "rental_uris": {"android": "https://dc.lft.to/lastmile_qr_scan", "ios": "https://dc.lft.to/lastmile_qr_scan"}, "name": "1f50e87a270854468f8aadb932c64b74", "type": "electric_bike", "lat": 38.933142833333335, "is_disabled": 0}, {"fusion_lat": 0.0, "lon": -77.03868116666666, "is_reserved": 0, "bike_id": "6b1e94d23c51d137b8dda9a4880a8846", "fusion_lon": 0.0, "rental_uris": {"android": "https://dc.lft.to/lastmile_qr_scan", "ios": "https://dc.lft.to/lastmile_qr_scan"}, "name": "6b1e94d23c51d137b8dda9a4880a8846", "type": "electric_scooter", "lat": 38.921491333333336, "is_disabled": 0}, {"fusion_lat": 0.0, "lon": -77.00621666666666, "is_reserved": 0, "bike_id": "bcfafa99c156fd95aad3869a68092ea4", "fusion_lon": 0.0, "rental_uris": {"android": "https://dc.lft.to/lastmile_qr_scan", "ios": "https://dc.lft.to/lastmile_qr_scan"}, "name": "bcfafa99c156fd95aad3869a68092ea4", "type": "electric_scooter", "lat": 38.871707, "is_disabled": 0}, {"fusion_lat": 0.0, "lon": -77.02624283333333, "is_reserved": 0, "bike_id": "20f3d8b376a05f9f5df4f842d0eb57db", "fusion_lon": 0.0, "rental_uris": {"android": "https://dc.lft.to/lastmile_qr_scan", "ios": "https://dc.lft.to/lastmile_qr_scan"}, "name": "20f3d8b376a05f9f5df4f842d0eb57db", "type": "electric_bike", "lat": 38.96229666666667, "is_disabled": 0}, {"fusion_lat": 0.0, "lon": -77.05480266666666, "is_reserved": 0, "bike_id": "6b14b692a523002ffa8bbf19e4485faa", "fusion_lon": 0.0, "rental_uris": {"android": "https://dc.lft.to/lastmile_qr_scan", "ios": "https://dc.lft.to/lastmile_qr_scan"}, "name": "6b14b692a523002ffa8bbf19e4485faa", "type": "electric_scooter", "lat": 38.910619833333335, "is_disabled": 0}, {"fusion_lat": 0.0, "lon": -77.0667455, "is_reserved": 0, "bike_id": "c82ec0cce2373defefae3fc500682c7b", "fusion_lon": 0.0, "rental_uris": {"android": "https://dc.lft.to/lastmile_qr_scan", "ios": "https://dc.lft.to/lastmile_qr_scan"}, "name": "c82ec0cce2373defefae3fc500682c7b", "type": "electric_scooter", "lat": 38.949578, "is_disabled": 0}, {"fusion_lat": 0.0, "lon": -77.0276405, "is_reserved": 0, "bike_id": "bd1e811e8f476ddb05076a018d283b0a", "fusion_lon": 0.0, "rental_uris": {"android": "https://dc.lft.to/lastmile_qr_scan", "ios": "https://dc.lft.to/lastmile_qr_scan"}, "name": "bd1e811e8f476ddb05076a018d283b0a", "type": "electric_scooter", "lat": 38.95430433333333, "is_disabled": 0}, {"fusion_lat": 0.0, "lon": -77.07142883333333, "is_reserved": 0, "bike_id": "58226aa8b6acc98ec1f9662f70dc6455", "fusion_lon": 0.0, "rental_uris": {"android": "https://dc.lft.to/lastmile_qr_scan", "ios": "https://dc.lft.to/lastmile_qr_scan"}, "name": "58226aa8b6acc98ec1f9662f70dc6455", "type": "electric_scooter", "lat": 38.945608666666665, "is_disabled": 0}, {"fusion_lat": 0.0, "lon": -77.01919, "is_reserved": 0, "bike_id": "5ca59290ae1bbe6008180e306ce1c54d", "fusion_lon": 0.0, "rental_uris": {"android": "https://dc.lft.to/lastmile_qr_scan", "ios": "https://dc.lft.to/lastmile_qr_scan"}, "name": "5ca59290ae1bbe6008180e306ce1c54d", "type": "electric_scooter", "lat": 38.902548, "is_disabled": 0}, {"fusion_lat": 0.0, "lon": -77.02175716666666, "is_reserved": 0, "bike_id": "d9161e8fb79bae874fd8ddf3c691aba2", "fusion_lon": 0.0, "rental_uris": {"android": "https://dc.lft.to/lastmile_qr_scan", "ios": "https://dc.lft.to/lastmile_qr_scan"}, "name": "d9161e8fb79bae874fd8ddf3c691aba2", "type": "electric_scooter", "lat": 38.942854, "is_disabled": 0}, {"fusion_lat": 0.0, "lon": -77.03484666666667, "is_reserved": 0, "bike_id": "e90fa327b5055a4cac17ac2e9622a757", "fusion_lon": 0.0, "rental_uris": {"android": "https://dc.lft.to/lastmile_qr_scan", "ios": "https://dc.lft.to/lastmile_qr_scan"}, "name": "e90fa327b5055a4cac17ac2e9622a757", "type": "electric_scooter", "lat": 38.925325, "is_disabled": 0}, {"fusion_lat": 0.0, "lon": -77.00370883333333, "is_reserved": 0, "bike_id": "419a564d74e400cbbe202a6dd6efffb6", "fusion_lon": 0.0, "rental_uris": {"android": "https://dc.lft.to/lastmile_qr_scan", "ios": "https://dc.lft.to/lastmile_qr_scan"}, "name": "419a564d74e400cbbe202a6dd6efffb6", "type": "electric_scooter", "lat": 38.89730266666667, "is_disabled": 0}, {"fusion_lat": 0.0, "lon": -77.03958466666667, "is_reserved": 0, "bike_id": "9861d46704d416fe786740d868083da0", "fusion_lon": 0.0, "rental_uris": {"android": "https://dc.lft.to/lastmile_qr_scan", "ios": "https://dc.lft.to/lastmile_qr_scan"}, "name": "9861d46704d416fe786740d868083da0", "type": "electric_scooter", "lat": 38.907310833333334, "is_disabled": 0}, {"fusion_lat": 0.0, "lon": -77.0354475, "is_reserved": 0, "bike_id": "11f8b48156419e0e75ddf994c0f59ee9", "fusion_lon": 0.0, "rental_uris": {"android": "https://dc.lft.to/lastmile_qr_scan", "ios": "https://dc.lft.to/lastmile_qr_scan"}, "name": "11f8b48156419e0e75ddf994c0f59ee9", "type": "electric_scooter", "lat": 38.917122666666664, "is_disabled": 0}, {"fusion_lat": 0.0, "lon": -76.9954655, "is_reserved": 0, "bike_id": "0a7325c0c5d555cb334393777bad7f02", "fusion_lon": 0.0, "rental_uris": {"android": "https://dc.lft.to/lastmile_qr_scan", "ios": "https://dc.lft.to/lastmile_qr_scan"}, "name": "0a7325c0c5d555cb334393777bad7f02", "type": "electric_scooter", "lat": 38.86258933333333, "is_disabled": 0}, {"fusion_lat": 0.0, "lon": -77.03043366666667, "is_reserved": 0, "bike_id": "f3dfb0996381618788e96a9964992d01", "fusion_lon": 0.0, "rental_uris": {"android": "https://dc.lft.to/lastmile_qr_scan", "ios": "https://dc.lft.to/lastmile_qr_scan"}, "name": "f3dfb0996381618788e96a9964992d01", "type": "electric_scooter", "lat": 38.88408733333333, "is_disabled": 0}, {"fusion_lat": 0.0, "lon": -77.04692383333334, "is_reserved": 0, "bike_id": "a408b5705ea632289ee4df1bc88193d4", "fusion_lon": 0.0, "rental_uris": {"android": "https://dc.lft.to/lastmile_qr_scan", "ios": "https://dc.lft.to/lastmile_qr_scan"}, "name": "a408b5705ea632289ee4df1bc88193d4", "type": "electric_scooter", "lat": 38.92165, "is_disabled": 0}, {"fusion_lat": 0.0, "lon": -77.00060566666667, "is_reserved": 0, "bike_id": "842925882cd42d7832da9f3c3a446604", "fusion_lon": 0.0, "rental_uris": {"android": "https://dc.lft.to/lastmile_qr_scan", "ios": "https://dc.lft.to/lastmile_qr_scan"}, "name": "842925882cd42d7832da9f3c3a446604", "type": "electric_scooter", "lat": 38.896396833333334, "is_disabled": 0}, {"fusion_lat": 0.0, "lon": -77.02421133333333, "is_reserved": 0, "bike_id": "68762b05c758af4fd1bc5a0cd4dbdc55", "fusion_lon": 0.0, "rental_uris": {"android": "https://dc.lft.to/lastmile_qr_scan", "ios": "https://dc.lft.to/lastmile_qr_scan"}, "name": "68762b05c758af4fd1bc5a0cd4dbdc55", "type": "electric_scooter", "lat": 38.900035, "is_disabled": 0}, {"fusion_lat": 0.0, "lon": -77.00854333333334, "is_reserved": 0, "bike_id": "463b0131659f97f860fe6447365036bf", "fusion_lon": 0.0, "rental_uris": {"android": "https://dc.lft.to/lastmile_qr_scan", "ios": "https://dc.lft.to/lastmile_qr_scan"}, "name": "463b0131659f97f860fe6447365036bf", "type": "electric_scooter", "lat": 38.9121285, "is_disabled": 0}, {"fusion_lat": 0.0, "lon": -76.99453266666667, "is_reserved": 0, "bike_id": "218d46fe208e6a1e4c9caffbe35a4e92", "fusion_lon": 0.0, "rental_uris": {"android": "https://dc.lft.to/lastmile_qr_scan", "ios": "https://dc.lft.to/lastmile_qr_scan"}, "name": "218d46fe208e6a1e4c9caffbe35a4e92", "type": "electric_bike", "lat": 38.96622416666666, "is_disabled": 0}, {"fusion_lat": 0.0, "lon": -77.08653766666667, "is_reserved": 0, "bike_id": "570339b11414e6293a74bd2af8bbb079", "fusion_lon": 0.0, "rental_uris": {"android": "https://dc.lft.to/lastmile_qr_scan", "ios": "https://dc.lft.to/lastmile_qr_scan"}, "name": "570339b11414e6293a74bd2af8bbb079", "type": "electric_bike", "lat": 38.86252116666667, "is_disabled": 0}, {"fusion_lat": 0.0, "lon": -77.03074183333334, "is_reserved": 0, "bike_id": "b1075161c67a2f54c18cf6939006b648", "fusion_lon": 0.0, "rental_uris": {"android": "https://dc.lft.to/lastmile_qr_scan", "ios": "https://dc.lft.to/lastmile_qr_scan"}, "name": "b1075161c67a2f54c18cf6939006b648", "type": "electric_scooter", "lat": 38.92383783333333, "is_disabled": 0}, {"fusion_lat": 0.0, "lon": -77.027985, "is_reserved": 0, "bike_id": "1302bf55048be24f1141a3b3e66debc5", "fusion_lon": 0.0, "rental_uris": {"android": "https://dc.lft.to/lastmile_qr_scan", "ios": "https://dc.lft.to/lastmile_qr_scan"}, "name": "1302bf55048be24f1141a3b3e66debc5", "type": "electric_scooter", "lat": 38.89235983333333, "is_disabled": 0}, {"fusion_lat": 0.0, "lon": -77.01739083333334, "is_reserved": 0, "bike_id": "360d34801f9383e2848ec44ddf4b3d9a", "fusion_lon": 0.0, "rental_uris": {"android": "https://dc.lft.to/lastmile_qr_scan", "ios": "https://dc.lft.to/lastmile_qr_scan"}, "name": "360d34801f9383e2848ec44ddf4b3d9a", "type": "electric_scooter", "lat": 38.88334183333333, "is_disabled": 0}, {"fusion_lat": 0.0, "lon": -77.01305016666667, "is_reserved": 0, "bike_id": "145b7cb1a595e3c55a3a31eecd3c8c47", "fusion_lon": 0.0, "rental_uris": {"android": "https://dc.lft.to/lastmile_qr_scan", "ios": "https://dc.lft.to/lastmile_qr_scan"}, "name": "145b7cb1a595e3c55a3a31eecd3c8c47", "type": "electric_scooter", "lat": 38.87159583333333, "is_disabled": 0}, {"fusion_lat": 0.0, "lon": -77.04300066666667, "is_reserved": 0, "bike_id": "804a4248048d9a59b419e917eca600e0", "fusion_lon": 0.0, "rental_uris": {"android": "https://dc.lft.to/lastmile_qr_scan", "ios": "https://dc.lft.to/lastmile_qr_scan"}, "name": "804a4248048d9a59b419e917eca600e0", "type": "electric_scooter", "lat": 38.92328333333333, "is_disabled": 0}, {"fusion_lat": 0.0, "lon": -77.00860616666667, "is_reserved": 0, "bike_id": "3cdca055a19ae4f23f64bd9285a8786c", "fusion_lon": 0.0, "rental_uris": {"android": "https://dc.lft.to/lastmile_qr_scan", "ios": "https://dc.lft.to/lastmile_qr_scan"}, "name": "3cdca055a19ae4f23f64bd9285a8786c", "type": "electric_scooter", "lat": 38.906861166666665, "is_disabled": 0}, {"fusion_lat": 0.0, "lon": -77.08588133333333, "is_reserved": 0, "bike_id": "f260826d4d9299cf2ca58899c6e998c6", "fusion_lon": 0.0, "rental_uris": {"android": "https://dc.lft.to/lastmile_qr_scan", "ios": "https://dc.lft.to/lastmile_qr_scan"}, "name": "f260826d4d9299cf2ca58899c6e998c6", "type": "electric_bike", "lat": 38.8443755, "is_disabled": 0}, {"fusion_lat": 0.0, "lon": -76.972364, "is_reserved": 0, "bike_id": "3c3d95a48b42e0338484316fac14cf52", "fusion_lon": 0.0, "rental_uris": {"android": "https://dc.lft.to/lastmile_qr_scan", "ios": "https://dc.lft.to/lastmile_qr_scan"}, "name": "3c3d95a48b42e0338484316fac14cf52", "type": "electric_bike", "lat": 38.949051833333336, "is_disabled": 0}, {"fusion_lat": 0.0, "lon": -77.02292466666667, "is_reserved": 0, "bike_id": "2e1201be70b04faa74ba9b6479260451", "fusion_lon": 0.0, "rental_uris": {"android": "https://dc.lft.to/lastmile_qr_scan", "ios": "https://dc.lft.to/lastmile_qr_scan"}, "name": "2e1201be70b04faa74ba9b6479260451", "type": "electric_scooter", "lat": 38.88643616666667, "is_disabled": 0}, {"fusion_lat": 0.0, "lon": -77.05742833333333, "is_reserved": 0, "bike_id": "d89f7ad92cfb7e24e2a7b5276d8f963e", "fusion_lon": 0.0, "rental_uris": {"android": "https://dc.lft.to/lastmile_qr_scan", "ios": "https://dc.lft.to/lastmile_qr_scan"}, "name": "d89f7ad92cfb7e24e2a7b5276d8f963e", "type": "electric_scooter", "lat": 38.933914, "is_disabled": 0}, {"fusion_lat": 0.0, "lon": -77.04306316666667, "is_reserved": 0, "bike_id": "93682915fead482f36fc94fb59601847", "fusion_lon": 0.0, "rental_uris": {"android": "https://dc.lft.to/lastmile_qr_scan", "ios": "https://dc.lft.to/lastmile_qr_scan"}, "name": "93682915fead482f36fc94fb59601847", "type": "electric_scooter", "lat": 38.92332366666667, "is_disabled": 0}, {"fusion_lat": 0.0, "lon": -77.03431883333333, "is_reserved": 0, "bike_id": "290011415c70f52718210dd66b5d93be", "fusion_lon": 0.0, "rental_uris": {"android": "https://dc.lft.to/lastmile_qr_scan", "ios": "https://dc.lft.to/lastmile_qr_scan"}, "name": "290011415c70f52718210dd66b5d93be", "type": "electric_scooter", "lat": 38.91934083333334, "is_disabled": 0}, {"fusion_lat": 0.0, "lon": -76.97326416666667, "is_reserved": 0, "bike_id": "608930fee2f3bca5b4cbc00bab85a649", "fusion_lon": 0.0, "rental_uris": {"android": "https://dc.lft.to/lastmile_qr_scan", "ios": "https://dc.lft.to/lastmile_qr_scan"}, "name": "608930fee2f3bca5b4cbc00bab85a649", "type": "electric_scooter", "lat": 38.9177345, "is_disabled": 0}, {"fusion_lat": 0.0, "lon": -77.03485416666666, "is_reserved": 0, "bike_id": "0675945cc4d41de462c12fe03738dbef", "fusion_lon": 0.0, "rental_uris": {"android": "https://dc.lft.to/lastmile_qr_scan", "ios": "https://dc.lft.to/lastmile_qr_scan"}, "name": "0675945cc4d41de462c12fe03738dbef", "type": "electric_scooter", "lat": 38.9214045, "is_disabled": 0}, {"fusion_lat": 0.0, "lon": -77.02562783333333, "is_reserved": 0, "bike_id": "4b6c5e59c2f650cadf209e4d0691945a", "fusion_lon": 0.0, "rental_uris": {"android": "https://dc.lft.to/lastmile_qr_scan", "ios": "https://dc.lft.to/lastmile_qr_scan"}, "name": "4b6c5e59c2f650cadf209e4d0691945a", "type": "electric_scooter", "lat": 38.914139, "is_disabled": 0}, {"fusion_lat": 0.0, "lon": -77.00677816666666, "is_reserved": 0, "bike_id": "93cc4979186d4169fb368c1f72078715", "fusion_lon": 0.0, "rental_uris": {"android": "https://dc.lft.to/lastmile_qr_scan", "ios": "https://dc.lft.to/lastmile_qr_scan"}, "name": "93cc4979186d4169fb368c1f72078715", "type": "electric_scooter", "lat": 38.90019683333333, "is_disabled": 0}, {"fusion_lat": 0.0, "lon": -77.01434816666666, "is_reserved": 0, "bike_id": "bb41f980b4be351422a3f5c3898ecf45", "fusion_lon": 0.0, "rental_uris": {"android": "https://dc.lft.to/lastmile_qr_scan", "ios": "https://dc.lft.to/lastmile_qr_scan"}, "name": "bb41f980b4be351422a3f5c3898ecf45", "type": "electric_bike", "lat": 38.876771166666664, "is_disabled": 0}, {"fusion_lat": 0.0, "lon": -76.99231516666667, "is_reserved": 0, "bike_id": "4d331fbc925544a3e0eae2e193833dfd", "fusion_lon": 0.0, "rental_uris": {"android": "https://dc.lft.to/lastmile_qr_scan", "ios": "https://dc.lft.to/lastmile_qr_scan"}, "name": "4d331fbc925544a3e0eae2e193833dfd", "type": "electric_bike", "lat": 38.93862, "is_disabled": 0}, {"fusion_lat": 0.0, "lon": -77.01340316666666, "is_reserved": 0, "bike_id": "bb05007475b082bf57550d1a6ec57d11", "fusion_lon": 0.0, "rental_uris": {"android": "https://dc.lft.to/lastmile_qr_scan", "ios": "https://dc.lft.to/lastmile_qr_scan"}, "name": "bb05007475b082bf57550d1a6ec57d11", "type": "electric_scooter", "lat": 38.92641166666667, "is_disabled": 0}, {"fusion_lat": 0.0, "lon": -77.0180105, "is_reserved": 0, "bike_id": "8229cf5e791e6b62395b08c6d5e6dd49", "fusion_lon": 0.0, "rental_uris": {"android": "https://dc.lft.to/lastmile_qr_scan", "ios": "https://dc.lft.to/lastmile_qr_scan"}, "name": "8229cf5e791e6b62395b08c6d5e6dd49", "type": "electric_bike", "lat": 38.917638833333335, "is_disabled": 0}, {"fusion_lat": 0.0, "lon": -77.01365033333333, "is_reserved": 0, "bike_id": "a0a119a2df651d301b2082b0895168e2", "fusion_lon": 0.0, "rental_uris": {"android": "https://dc.lft.to/lastmile_qr_scan", "ios": "https://dc.lft.to/lastmile_qr_scan"}, "name": "a0a119a2df651d301b2082b0895168e2", "type": "electric_scooter", "lat": 38.8870645, "is_disabled": 0}, {"fusion_lat": 0.0, "lon": -77.05592416666667, "is_reserved": 0, "bike_id": "f97345583bca0f74400f2d1fd0bb2fc0", "fusion_lon": 0.0, "rental_uris": {"android": "https://dc.lft.to/lastmile_qr_scan", "ios": "https://dc.lft.to/lastmile_qr_scan"}, "name": "f97345583bca0f74400f2d1fd0bb2fc0", "type": "electric_scooter", "lat": 38.937140166666666, "is_disabled": 0}, {"fusion_lat": 0.0, "lon": -77.009195, "is_reserved": 0, "bike_id": "ca81b947fe77055d9f5fe4d29aa11d26", "fusion_lon": 0.0, "rental_uris": {"android": "https://dc.lft.to/lastmile_qr_scan", "ios": "https://dc.lft.to/lastmile_qr_scan"}, "name": "ca81b947fe77055d9f5fe4d29aa11d26", "type": "electric_scooter", "lat": 38.896441, "is_disabled": 0}, {"fusion_lat": 0.0, "lon": -76.99605733333334, "is_reserved": 0, "bike_id": "ebbe9093c0ee9758b928d7328c1d9e83", "fusion_lon": 0.0, "rental_uris": {"android": "https://dc.lft.to/lastmile_qr_scan", "ios": "https://dc.lft.to/lastmile_qr_scan"}, "name": "ebbe9093c0ee9758b928d7328c1d9e83", "type": "electric_scooter", "lat": 38.85700633333333, "is_disabled": 0}, {"fusion_lat": 0.0, "lon": -77.03836466666667, "is_reserved": 0, "bike_id": "8405e01b3fe80341211a5ec48885934f", "fusion_lon": 0.0, "rental_uris": {"android": "https://dc.lft.to/lastmile_qr_scan", "ios": "https://dc.lft.to/lastmile_qr_scan"}, "name": "8405e01b3fe80341211a5ec48885934f", "type": "electric_scooter", "lat": 38.9086365, "is_disabled": 0}, {"fusion_lat": 0.0, "lon": -76.98822266666667, "is_reserved": 0, "bike_id": "6497423a2d981a09c55be15d53a3ffef", "fusion_lon": 0.0, "rental_uris": {"android": "https://dc.lft.to/lastmile_qr_scan", "ios": "https://dc.lft.to/lastmile_qr_scan"}, "name": "6497423a2d981a09c55be15d53a3ffef", "type": "electric_scooter", "lat": 38.890745, "is_disabled": 0}, {"fusion_lat": 0.0, "lon": -77.0011425, "is_reserved": 0, "bike_id": "e7cef43e5f2089c180972f757a466be3", "fusion_lon": 0.0, "rental_uris": {"android": "https://dc.lft.to/lastmile_qr_scan", "ios": "https://dc.lft.to/lastmile_qr_scan"}, "name": "e7cef43e5f2089c180972f757a466be3", "type": "electric_scooter", "lat": 38.907918333333335, "is_disabled": 0}, {"fusion_lat": 0.0, "lon": -77.04656316666667, "is_reserved": 0, "bike_id": "b4c8ba2cb07b766cc4cd2efeb62bad71", "fusion_lon": 0.0, "rental_uris": {"android": "https://dc.lft.to/lastmile_qr_scan", "ios": "https://dc.lft.to/lastmile_qr_scan"}, "name": "b4c8ba2cb07b766cc4cd2efeb62bad71", "type": "electric_scooter", "lat": 38.912704833333336, "is_disabled": 0}, {"fusion_lat": 0.0, "lon": -76.92996783333334, "is_reserved": 0, "bike_id": "b01834bd17aba1823f8bcaddccc37ef9", "fusion_lon": 0.0, "rental_uris": {"android": "https://dc.lft.to/lastmile_qr_scan", "ios": "https://dc.lft.to/lastmile_qr_scan"}, "name": "b01834bd17aba1823f8bcaddccc37ef9", "type": "electric_scooter", "lat": 38.901889, "is_disabled": 0}, {"fusion_lat": 0.0, "lon": -77.10910183333333, "is_reserved": 0, "bike_id": "28b270efceb3f68cce0298b6c5acfa11", "fusion_lon": 0.0, "rental_uris": {"android": "https://dc.lft.to/lastmile_qr_scan", "ios": "https://dc.lft.to/lastmile_qr_scan"}, "name": "28b270efceb3f68cce0298b6c5acfa11", "type": "electric_bike", "lat": 39.05204666666667, "is_disabled": 0}, {"fusion_lat": 0.0, "lon": -77.032072, "is_reserved": 0, "bike_id": "85f55a431f162647174214536c556401", "fusion_lon": 0.0, "rental_uris": {"android": "https://dc.lft.to/lastmile_qr_scan", "ios": "https://dc.lft.to/lastmile_qr_scan"}, "name": "85f55a431f162647174214536c556401", "type": "electric_scooter", "lat": 38.91961883333333, "is_disabled": 0}, {"fusion_lat": 0.0, "lon": -77.0283695, "is_reserved": 0, "bike_id": "102797b520532c1b388dfca10da1aaf8", "fusion_lon": 0.0, "rental_uris": {"android": "https://dc.lft.to/lastmile_qr_scan", "ios": "https://dc.lft.to/lastmile_qr_scan"}, "name": "102797b520532c1b388dfca10da1aaf8", "type": "electric_scooter", "lat": 38.924728, "is_disabled": 0}, {"fusion_lat": 0.0, "lon": -77.00114133333334, "is_reserved": 0, "bike_id": "0c07fb8194c531f2dd81a3dc80fd9358", "fusion_lon": 0.0, "rental_uris": {"android": "https://dc.lft.to/lastmile_qr_scan", "ios": "https://dc.lft.to/lastmile_qr_scan"}, "name": "0c07fb8194c531f2dd81a3dc80fd9358", "type": "electric_scooter", "lat": 38.917085666666665, "is_disabled": 0}, {"fusion_lat": 0.0, "lon": -77.036607, "is_reserved": 0, "bike_id": "984c3ff6c7aaa1ad7c1f0e1951ccc3c2", "fusion_lon": 0.0, "rental_uris": {"android": "https://dc.lft.to/lastmile_qr_scan", "ios": "https://dc.lft.to/lastmile_qr_scan"}, "name": "984c3ff6c7aaa1ad7c1f0e1951ccc3c2", "type": "electric_scooter", "lat": 38.92297333333333, "is_disabled": 0}, {"fusion_lat": 0.0, "lon": -77.0559455, "is_reserved": 0, "bike_id": "817748d127bbf29ef1f93b04b757bdf9", "fusion_lon": 0.0, "rental_uris": {"android": "https://dc.lft.to/lastmile_qr_scan", "ios": "https://dc.lft.to/lastmile_qr_scan"}, "name": "817748d127bbf29ef1f93b04b757bdf9", "type": "electric_scooter", "lat": 38.93703766666667, "is_disabled": 0}, {"fusion_lat": 0.0, "lon": -77.02780033333333, "is_reserved": 0, "bike_id": "b357cb531a0cc2c241d63733eb13e6d5", "fusion_lon": 0.0, "rental_uris": {"android": "https://dc.lft.to/lastmile_qr_scan", "ios": "https://dc.lft.to/lastmile_qr_scan"}, "name": "b357cb531a0cc2c241d63733eb13e6d5", "type": "electric_scooter", "lat": 38.927770833333334, "is_disabled": 0}, {"fusion_lat": 0.0, "lon": -77.0141005, "is_reserved": 0, "bike_id": "c143d3f6260228354e9767f835e6efff", "fusion_lon": 0.0, "rental_uris": {"android": "https://dc.lft.to/lastmile_qr_scan", "ios": "https://dc.lft.to/lastmile_qr_scan"}, "name": "c143d3f6260228354e9767f835e6efff", "type": "electric_scooter", "lat": 38.9286745, "is_disabled": 0}, {"fusion_lat": 0.0, "lon": -77.04658966666666, "is_reserved": 0, "bike_id": "d647670e728bcffb7795027575939aa0", "fusion_lon": 0.0, "rental_uris": {"android": "https://dc.lft.to/lastmile_qr_scan", "ios": "https://dc.lft.to/lastmile_qr_scan"}, "name": "d647670e728bcffb7795027575939aa0", "type": "electric_scooter", "lat": 38.90349583333333, "is_disabled": 0}, {"fusion_lat": 0.0, "lon": -77.04653783333333, "is_reserved": 0, "bike_id": "45407d8fa3502bac647f24bf2156da98", "fusion_lon": 0.0, "rental_uris": {"android": "https://dc.lft.to/lastmile_qr_scan", "ios": "https://dc.lft.to/lastmile_qr_scan"}, "name": "45407d8fa3502bac647f24bf2156da98", "type": "electric_scooter", "lat": 38.912716333333336, "is_disabled": 0}, {"fusion_lat": 0.0, "lon": -77.00266783333333, "is_reserved": 0, "bike_id": "3a2c61e2ba226a5bdd9283bc8ec0d1d5", "fusion_lon": 0.0, "rental_uris": {"android": "https://dc.lft.to/lastmile_qr_scan", "ios": "https://dc.lft.to/lastmile_qr_scan"}, "name": "3a2c61e2ba226a5bdd9283bc8ec0d1d5", "type": "electric_bike", "lat": 38.911571, "is_disabled": 0}, {"fusion_lat": 0.0, "lon": -77.0595115, "is_reserved": 0, "bike_id": "e271a826358ce068de584b74b34a9f6c", "fusion_lon": 0.0, "rental_uris": {"android": "https://dc.lft.to/lastmile_qr_scan", "ios": "https://dc.lft.to/lastmile_qr_scan"}, "name": "e271a826358ce068de584b74b34a9f6c", "type": "electric_scooter", "lat": 38.90532683333333, "is_disabled": 0}, {"fusion_lat": 0.0, "lon": -77.04299816666666, "is_reserved": 0, "bike_id": "8dc6bbba817328529deb9963cf72f43e", "fusion_lon": 0.0, "rental_uris": {"android": "https://dc.lft.to/lastmile_qr_scan", "ios": "https://dc.lft.to/lastmile_qr_scan"}, "name": "8dc6bbba817328529deb9963cf72f43e", "type": "electric_scooter", "lat": 38.92307516666666, "is_disabled": 0}, {"fusion_lat": 0.0, "lon": -77.03065733333334, "is_reserved": 0, "bike_id": "52f38612f72ce7281a0a23d4b62d1ea2", "fusion_lon": 0.0, "rental_uris": {"android": "https://dc.lft.to/lastmile_qr_scan", "ios": "https://dc.lft.to/lastmile_qr_scan"}, "name": "52f38612f72ce7281a0a23d4b62d1ea2", "type": "electric_scooter", "lat": 38.9057165, "is_disabled": 0}, {"fusion_lat": 0.0, "lon": -77.026561, "is_reserved": 0, "bike_id": "aa431efd85988494f0cf81c7da315501", "fusion_lon": 0.0, "rental_uris": {"android": "https://dc.lft.to/lastmile_qr_scan", "ios": "https://dc.lft.to/lastmile_qr_scan"}, "name": "aa431efd85988494f0cf81c7da315501", "type": "electric_scooter", "lat": 38.89216483333333, "is_disabled": 0}, {"fusion_lat": 0.0, "lon": -77.01219166666667, "is_reserved": 0, "bike_id": "5ebd54b401e3cdd05b981ab7195fc23c", "fusion_lon": 0.0, "rental_uris": {"android": "https://dc.lft.to/lastmile_qr_scan", "ios": "https://dc.lft.to/lastmile_qr_scan"}, "name": "5ebd54b401e3cdd05b981ab7195fc23c", "type": "electric_bike", "lat": 38.8719485, "is_disabled": 0}, {"fusion_lat": 0.0, "lon": -76.95656833333334, "is_reserved": 0, "bike_id": "a3cd42ebe5911b061aae50ff2746bddb", "fusion_lon": 0.0, "rental_uris": {"android": "https://dc.lft.to/lastmile_qr_scan", "ios": "https://dc.lft.to/lastmile_qr_scan"}, "name": "a3cd42ebe5911b061aae50ff2746bddb", "type": "electric_scooter", "lat": 38.8955555, "is_disabled": 0}, {"fusion_lat": 0.0, "lon": -76.99163883333334, "is_reserved": 0, "bike_id": "45f890ae8287e6a91446c76afe30887b", "fusion_lon": 0.0, "rental_uris": {"android": "https://dc.lft.to/lastmile_qr_scan", "ios": "https://dc.lft.to/lastmile_qr_scan"}, "name": "45f890ae8287e6a91446c76afe30887b", "type": "electric_scooter", "lat": 38.898015666666666, "is_disabled": 0}, {"fusion_lat": 0.0, "lon": -76.99005916666667, "is_reserved": 0, "bike_id": "6d94a1e1141975d052ce211a44c08dd6", "fusion_lon": 0.0, "rental_uris": {"android": "https://dc.lft.to/lastmile_qr_scan", "ios": "https://dc.lft.to/lastmile_qr_scan"}, "name": "6d94a1e1141975d052ce211a44c08dd6", "type": "electric_scooter", "lat": 38.903937166666665, "is_disabled": 0}, {"fusion_lat": 0.0, "lon": -77.04287883333333, "is_reserved": 0, "bike_id": "9e72b768bdfb9d9f5ba3908f275f77a8", "fusion_lon": 0.0, "rental_uris": {"android": "https://dc.lft.to/lastmile_qr_scan", "ios": "https://dc.lft.to/lastmile_qr_scan"}, "name": "9e72b768bdfb9d9f5ba3908f275f77a8", "type": "electric_scooter", "lat": 38.91703, "is_disabled": 0}, {"fusion_lat": 0.0, "lon": -77.01404283333333, "is_reserved": 0, "bike_id": "5700b6d2d7755a082cbb6ef5b589e6bc", "fusion_lon": 0.0, "rental_uris": {"android": "https://dc.lft.to/lastmile_qr_scan", "ios": "https://dc.lft.to/lastmile_qr_scan"}, "name": "5700b6d2d7755a082cbb6ef5b589e6bc", "type": "electric_scooter", "lat": 38.88745566666667, "is_disabled": 0}, {"fusion_lat": 0.0, "lon": -76.98475283333333, "is_reserved": 0, "bike_id": "8b1a641322af2c1df32629a121c80e66", "fusion_lon": 0.0, "rental_uris": {"android": "https://dc.lft.to/lastmile_qr_scan", "ios": "https://dc.lft.to/lastmile_qr_scan"}, "name": "8b1a641322af2c1df32629a121c80e66", "type": "electric_bike", "lat": 38.92891866666667, "is_disabled": 0}, {"fusion_lat": 0.0, "lon": -77.02084533333333, "is_reserved": 0, "bike_id": "335a076d7edb7696efcdf851b9c99621", "fusion_lon": 0.0, "rental_uris": {"android": "https://dc.lft.to/lastmile_qr_scan", "ios": "https://dc.lft.to/lastmile_qr_scan"}, "name": "335a076d7edb7696efcdf851b9c99621", "type": "electric_scooter", "lat": 38.88183383333333, "is_disabled": 0}, {"fusion_lat": 0.0, "lon": -77.17845633333333, "is_reserved": 0, "bike_id": "53ac61a723aca011a2ecfa95a3376f82", "fusion_lon": 0.0, "rental_uris": {"android": "https://dc.lft.to/lastmile_qr_scan", "ios": "https://dc.lft.to/lastmile_qr_scan"}, "name": "53ac61a723aca011a2ecfa95a3376f82", "type": "electric_bike", "lat": 39.08857283333333, "is_disabled": 0}, {"fusion_lat": 0.0, "lon": -77.032066, "is_reserved": 0, "bike_id": "9786b6533226642417fe92995791b804", "fusion_lon": 0.0, "rental_uris": {"android": "https://dc.lft.to/lastmile_qr_scan", "ios": "https://dc.lft.to/lastmile_qr_scan"}, "name": "9786b6533226642417fe92995791b804", "type": "electric_scooter", "lat": 38.91776183333333, "is_disabled": 0}, {"fusion_lat": 0.0, "lon": -77.02724916666666, "is_reserved": 0, "bike_id": "1d4c5d800e29e452385c7ba37f1b8bb6", "fusion_lon": 0.0, "rental_uris": {"android": "https://dc.lft.to/lastmile_qr_scan", "ios": "https://dc.lft.to/lastmile_qr_scan"}, "name": "1d4c5d800e29e452385c7ba37f1b8bb6", "type": "electric_scooter", "lat": 38.9354655, "is_disabled": 0}, {"fusion_lat": 0.0, "lon": -76.98589816666667, "is_reserved": 0, "bike_id": "0d6bd22d1f3eb0a1250a71d2cf4d3c50", "fusion_lon": 0.0, "rental_uris": {"android": "https://dc.lft.to/lastmile_qr_scan", "ios": "https://dc.lft.to/lastmile_qr_scan"}, "name": "0d6bd22d1f3eb0a1250a71d2cf4d3c50", "type": "electric_scooter", "lat": 38.906505333333335, "is_disabled": 0}, {"fusion_lat": 0.0, "lon": -76.97709816666666, "is_reserved": 0, "bike_id": "6e62814bc21a1162dd16d6e5767d86d8", "fusion_lon": 0.0, "rental_uris": {"android": "https://dc.lft.to/lastmile_qr_scan", "ios": "https://dc.lft.to/lastmile_qr_scan"}, "name": "6e62814bc21a1162dd16d6e5767d86d8", "type": "electric_scooter", "lat": 38.887765, "is_disabled": 0}, {"fusion_lat": 0.0, "lon": -77.01753233333334, "is_reserved": 0, "bike_id": "77edada4df598675af41a5057a846b77", "fusion_lon": 0.0, "rental_uris": {"android": "https://dc.lft.to/lastmile_qr_scan", "ios": "https://dc.lft.to/lastmile_qr_scan"}, "name": "77edada4df598675af41a5057a846b77", "type": "electric_scooter", "lat": 38.89460566666666, "is_disabled": 0}, {"fusion_lat": 0.0, "lon": -76.91605566666667, "is_reserved": 0, "bike_id": "59276f0be20a849af00305064cd53f46", "fusion_lon": 0.0, "rental_uris": {"android": "https://dc.lft.to/lastmile_qr_scan", "ios": "https://dc.lft.to/lastmile_qr_scan"}, "name": "59276f0be20a849af00305064cd53f46", "type": "electric_bike", "lat": 38.8796715, "is_disabled": 0}, {"fusion_lat": 0.0, "lon": -77.0079575, "is_reserved": 0, "bike_id": "180d12d1f6a86adeb567dfb50c721b2d", "fusion_lon": 0.0, "rental_uris": {"android": "https://dc.lft.to/lastmile_qr_scan", "ios": "https://dc.lft.to/lastmile_qr_scan"}, "name": "180d12d1f6a86adeb567dfb50c721b2d", "type": "electric_scooter", "lat": 38.89644033333333, "is_disabled": 0}, {"fusion_lat": 0.0, "lon": -76.97867066666667, "is_reserved": 0, "bike_id": "17beea17a054b21cf1f30a94f6ccf900", "fusion_lon": 0.0, "rental_uris": {"android": "https://dc.lft.to/lastmile_qr_scan", "ios": "https://dc.lft.to/lastmile_qr_scan"}, "name": "17beea17a054b21cf1f30a94f6ccf900", "type": "electric_scooter", "lat": 38.88302733333333, "is_disabled": 0}, {"fusion_lat": 0.0, "lon": -77.07238583333333, "is_reserved": 0, "bike_id": "ba54fba81d781758e9baab44a54b63b9", "fusion_lon": 0.0, "rental_uris": {"android": "https://dc.lft.to/lastmile_qr_scan", "ios": "https://dc.lft.to/lastmile_qr_scan"}, "name": "ba54fba81d781758e9baab44a54b63b9", "type": "electric_scooter", "lat": 38.94004, "is_disabled": 0}, {"fusion_lat": 0.0, "lon": -77.027326, "is_reserved": 0, "bike_id": "c72bf63a2af8c0f4d7f648e3eb203901", "fusion_lon": 0.0, "rental_uris": {"android": "https://dc.lft.to/lastmile_qr_scan", "ios": "https://dc.lft.to/lastmile_qr_scan"}, "name": "c72bf63a2af8c0f4d7f648e3eb203901", "type": "electric_scooter", "lat": 38.89719633333333, "is_disabled": 0}, {"fusion_lat": 0.0, "lon": -77.003596, "is_reserved": 0, "bike_id": "f5f05a25e3c2700b3c374c5ae9b68460", "fusion_lon": 0.0, "rental_uris": {"android": "https://dc.lft.to/lastmile_qr_scan", "ios": "https://dc.lft.to/lastmile_qr_scan"}, "name": "f5f05a25e3c2700b3c374c5ae9b68460", "type": "electric_scooter", "lat": 38.897285833333335, "is_disabled": 0}, {"fusion_lat": 0.0, "lon": -76.96771683333333, "is_reserved": 0, "bike_id": "3612cd8276f59db64cd2a3c9b668dbb4", "fusion_lon": 0.0, "rental_uris": {"android": "https://dc.lft.to/lastmile_qr_scan", "ios": "https://dc.lft.to/lastmile_qr_scan"}, "name": "3612cd8276f59db64cd2a3c9b668dbb4", "type": "electric_scooter", "lat": 38.8592155, "is_disabled": 0}, {"fusion_lat": 0.0, "lon": -76.98377133333334, "is_reserved": 0, "bike_id": "b9442c98513eeb9c1372500c757dd5a9", "fusion_lon": 0.0, "rental_uris": {"android": "https://dc.lft.to/lastmile_qr_scan", "ios": "https://dc.lft.to/lastmile_qr_scan"}, "name": "b9442c98513eeb9c1372500c757dd5a9", "type": "electric_scooter", "lat": 38.8612735, "is_disabled": 0}, {"fusion_lat": 0.0, "lon": -77.01886183333333, "is_reserved": 0, "bike_id": "a42054906d6fcb97178958c40cd5c598", "fusion_lon": 0.0, "rental_uris": {"android": "https://dc.lft.to/lastmile_qr_scan", "ios": "https://dc.lft.to/lastmile_qr_scan"}, "name": "a42054906d6fcb97178958c40cd5c598", "type": "electric_scooter", "lat": 38.904446666666665, "is_disabled": 0}, {"fusion_lat": 0.0, "lon": -77.026417, "is_reserved": 0, "bike_id": "ad00ddd2d3a277a7412d89c8140d2382", "fusion_lon": 0.0, "rental_uris": {"android": "https://dc.lft.to/lastmile_qr_scan", "ios": "https://dc.lft.to/lastmile_qr_scan"}, "name": "ad00ddd2d3a277a7412d89c8140d2382", "type": "electric_scooter", "lat": 38.9847295, "is_disabled": 0}, {"fusion_lat": 0.0, "lon": -77.023092, "is_reserved": 0, "bike_id": "09f27c8cd008610472dfd4003938420f", "fusion_lon": 0.0, "rental_uris": {"android": "https://dc.lft.to/lastmile_qr_scan", "ios": "https://dc.lft.to/lastmile_qr_scan"}, "name": "09f27c8cd008610472dfd4003938420f", "type": "electric_scooter", "lat": 38.917785, "is_disabled": 0}, {"fusion_lat": 0.0, "lon": -77.0328755, "is_reserved": 0, "bike_id": "87b98d95f498733d733573ada29e707a", "fusion_lon": 0.0, "rental_uris": {"android": "https://dc.lft.to/lastmile_qr_scan", "ios": "https://dc.lft.to/lastmile_qr_scan"}, "name": "87b98d95f498733d733573ada29e707a", "type": "electric_scooter", "lat": 38.928352333333336, "is_disabled": 0}, {"fusion_lat": 0.0, "lon": -76.995237, "is_reserved": 0, "bike_id": "ad120d5bd12b098c9f4400c2dd63ff9a", "fusion_lon": 0.0, "rental_uris": {"android": "https://dc.lft.to/lastmile_qr_scan", "ios": "https://dc.lft.to/lastmile_qr_scan"}, "name": "ad120d5bd12b098c9f4400c2dd63ff9a", "type": "electric_scooter", "lat": 38.895448, "is_disabled": 0}, {"fusion_lat": 0.0, "lon": -76.99625733333333, "is_reserved": 0, "bike_id": "ce1eb50a4591b410fb8222cfdc3a5e16", "fusion_lon": 0.0, "rental_uris": {"android": "https://dc.lft.to/lastmile_qr_scan", "ios": "https://dc.lft.to/lastmile_qr_scan"}, "name": "ce1eb50a4591b410fb8222cfdc3a5e16", "type": "electric_scooter", "lat": 38.88547766666667, "is_disabled": 0}, {"fusion_lat": 0.0, "lon": -77.08773666666667, "is_reserved": 0, "bike_id": "6ba21238f866e75854142bc5597e6a03", "fusion_lon": 0.0, "rental_uris": {"android": "https://dc.lft.to/lastmile_qr_scan", "ios": "https://dc.lft.to/lastmile_qr_scan"}, "name": "6ba21238f866e75854142bc5597e6a03", "type": "electric_bike", "lat": 38.83900333333333, "is_disabled": 0}, {"fusion_lat": 0.0, "lon": -77.0085195, "is_reserved": 0, "bike_id": "772c9336da55a0c89197bdb0d284721f", "fusion_lon": 0.0, "rental_uris": {"android": "https://dc.lft.to/lastmile_qr_scan", "ios": "https://dc.lft.to/lastmile_qr_scan"}, "name": "772c9336da55a0c89197bdb0d284721f", "type": "electric_scooter", "lat": 38.8765405, "is_disabled": 0}, {"fusion_lat": 0.0, "lon": -77.0221165, "is_reserved": 0, "bike_id": "8bd487e0d7941c1949eab0dfb189902c", "fusion_lon": 0.0, "rental_uris": {"android": "https://dc.lft.to/lastmile_qr_scan", "ios": "https://dc.lft.to/lastmile_qr_scan"}, "name": "8bd487e0d7941c1949eab0dfb189902c", "type": "electric_scooter", "lat": 38.902148, "is_disabled": 0}, {"fusion_lat": 0.0, "lon": -77.00400633333334, "is_reserved": 0, "bike_id": "3d9b0c623885e4724848e26b2f496187", "fusion_lon": 0.0, "rental_uris": {"android": "https://dc.lft.to/lastmile_qr_scan", "ios": "https://dc.lft.to/lastmile_qr_scan"}, "name": "3d9b0c623885e4724848e26b2f496187", "type": "electric_bike", "lat": 38.985451166666664, "is_disabled": 0}, {"fusion_lat": 0.0, "lon": -76.96234266666667, "is_reserved": 0, "bike_id": "7ef4c708c082c8ea40b374e46959465a", "fusion_lon": 0.0, "rental_uris": {"android": "https://dc.lft.to/lastmile_qr_scan", "ios": "https://dc.lft.to/lastmile_qr_scan"}, "name": "7ef4c708c082c8ea40b374e46959465a", "type": "electric_scooter", "lat": 38.87764166666667, "is_disabled": 0}, {"fusion_lat": 0.0, "lon": -76.99751716666667, "is_reserved": 0, "bike_id": "1dfbb8563ea18a7824d8460921cf1a84", "fusion_lon": 0.0, "rental_uris": {"android": "https://dc.lft.to/lastmile_qr_scan", "ios": "https://dc.lft.to/lastmile_qr_scan"}, "name": "1dfbb8563ea18a7824d8460921cf1a84", "type": "electric_scooter", "lat": 38.90007, "is_disabled": 0}, {"fusion_lat": 0.0, "lon": -77.03867466666667, "is_reserved": 0, "bike_id": "18461a6e2b16e0f23591f6148716a783", "fusion_lon": 0.0, "rental_uris": {"android": "https://dc.lft.to/lastmile_qr_scan", "ios": "https://dc.lft.to/lastmile_qr_scan"}, "name": "18461a6e2b16e0f23591f6148716a783", "type": "electric_scooter", "lat": 38.921576333333334, "is_disabled": 0}, {"fusion_lat": 0.0, "lon": -77.04019883333333, "is_reserved": 0, "bike_id": "1cf38b5760b430ef7da58f45f178bd70", "fusion_lon": 0.0, "rental_uris": {"android": "https://dc.lft.to/lastmile_qr_scan", "ios": "https://dc.lft.to/lastmile_qr_scan"}, "name": "1cf38b5760b430ef7da58f45f178bd70", "type": "electric_scooter", "lat": 38.918402666666665, "is_disabled": 0}, {"fusion_lat": 0.0, "lon": -77.0121515, "is_reserved": 0, "bike_id": "aed72606988474aaf52a2f35042ac532", "fusion_lon": 0.0, "rental_uris": {"android": "https://dc.lft.to/lastmile_qr_scan", "ios": "https://dc.lft.to/lastmile_qr_scan"}, "name": "aed72606988474aaf52a2f35042ac532", "type": "electric_scooter", "lat": 38.91832466666666, "is_disabled": 0}, {"fusion_lat": 0.0, "lon": -77.0739, "is_reserved": 0, "bike_id": "8fce0a8e4e4dba4035c8f9ba4c571a07", "fusion_lon": 0.0, "rental_uris": {"android": "https://dc.lft.to/lastmile_qr_scan", "ios": "https://dc.lft.to/lastmile_qr_scan"}, "name": "8fce0a8e4e4dba4035c8f9ba4c571a07", "type": "electric_bike", "lat": 38.961932, "is_disabled": 0}, {"fusion_lat": 0.0, "lon": -77.0455165, "is_reserved": 0, "bike_id": "38fdb13563b695d270e75efe9c078523", "fusion_lon": 0.0, "rental_uris": {"android": "https://dc.lft.to/lastmile_qr_scan", "ios": "https://dc.lft.to/lastmile_qr_scan"}, "name": "38fdb13563b695d270e75efe9c078523", "type": "electric_scooter", "lat": 38.93405283333333, "is_disabled": 0}, {"fusion_lat": 0.0, "lon": -77.0294935, "is_reserved": 0, "bike_id": "e3de23179993917721fc5201823255d8", "fusion_lon": 0.0, "rental_uris": {"android": "https://dc.lft.to/lastmile_qr_scan", "ios": "https://dc.lft.to/lastmile_qr_scan"}, "name": "e3de23179993917721fc5201823255d8", "type": "electric_scooter", "lat": 38.92857866666667, "is_disabled": 0}, {"fusion_lat": 0.0, "lon": -77.03931666666666, "is_reserved": 0, "bike_id": "5273d3c8c2abb4b5a68996d06cd059b9", "fusion_lon": 0.0, "rental_uris": {"android": "https://dc.lft.to/lastmile_qr_scan", "ios": "https://dc.lft.to/lastmile_qr_scan"}, "name": "5273d3c8c2abb4b5a68996d06cd059b9", "type": "electric_scooter", "lat": 38.9175945, "is_disabled": 0}, {"fusion_lat": 0.0, "lon": -77.02667016666666, "is_reserved": 0, "bike_id": "9c915394276474b95a182bdc4e6d071c", "fusion_lon": 0.0, "rental_uris": {"android": "https://dc.lft.to/lastmile_qr_scan", "ios": "https://dc.lft.to/lastmile_qr_scan"}, "name": "9c915394276474b95a182bdc4e6d071c", "type": "electric_scooter", "lat": 38.931029833333334, "is_disabled": 0}, {"fusion_lat": 0.0, "lon": -77.0377225, "is_reserved": 0, "bike_id": "27bdaf1810cd6aee6c6c7abc43fa2d00", "fusion_lon": 0.0, "rental_uris": {"android": "https://dc.lft.to/lastmile_qr_scan", "ios": "https://dc.lft.to/lastmile_qr_scan"}, "name": "27bdaf1810cd6aee6c6c7abc43fa2d00", "type": "electric_scooter", "lat": 38.922042833333336, "is_disabled": 0}, {"fusion_lat": 0.0, "lon": -76.9950355, "is_reserved": 0, "bike_id": "584fec35e9848932dccdcbfb9d39b9c8", "fusion_lon": 0.0, "rental_uris": {"android": "https://dc.lft.to/lastmile_qr_scan", "ios": "https://dc.lft.to/lastmile_qr_scan"}, "name": "584fec35e9848932dccdcbfb9d39b9c8", "type": "electric_scooter", "lat": 38.882813, "is_disabled": 0}, {"fusion_lat": 0.0, "lon": -77.042494, "is_reserved": 0, "bike_id": "fd2db293595b323d8553b3c0237af1b5", "fusion_lon": 0.0, "rental_uris": {"android": "https://dc.lft.to/lastmile_qr_scan", "ios": "https://dc.lft.to/lastmile_qr_scan"}, "name": "fd2db293595b323d8553b3c0237af1b5", "type": "electric_scooter", "lat": 38.925402166666665, "is_disabled": 0}, {"fusion_lat": 0.0, "lon": -76.9273605, "is_reserved": 0, "bike_id": "ab44c35758f73b745817c5cf0a8a8325", "fusion_lon": 0.0, "rental_uris": {"android": "https://dc.lft.to/lastmile_qr_scan", "ios": "https://dc.lft.to/lastmile_qr_scan"}, "name": "ab44c35758f73b745817c5cf0a8a8325", "type": "electric_scooter", "lat": 38.88963566666666, "is_disabled": 0}, {"fusion_lat": 0.0, "lon": -77.03865316666666, "is_reserved": 0, "bike_id": "9d2ab6996bffeec414a093be36266d4e", "fusion_lon": 0.0, "rental_uris": {"android": "https://dc.lft.to/lastmile_qr_scan", "ios": "https://dc.lft.to/lastmile_qr_scan"}, "name": "9d2ab6996bffeec414a093be36266d4e", "type": "electric_scooter", "lat": 38.9078835, "is_disabled": 0}, {"fusion_lat": 0.0, "lon": -76.98282333333333, "is_reserved": 0, "bike_id": "e42ca0dfbeb41a642d2f6b49f0e109f8", "fusion_lon": 0.0, "rental_uris": {"android": "https://dc.lft.to/lastmile_qr_scan", "ios": "https://dc.lft.to/lastmile_qr_scan"}, "name": "e42ca0dfbeb41a642d2f6b49f0e109f8", "type": "electric_scooter", "lat": 38.900480333333334, "is_disabled": 0}, {"fusion_lat": 0.0, "lon": -77.05721816666667, "is_reserved": 0, "bike_id": "56dba5961b0dd4d871a401e204fb68f2", "fusion_lon": 0.0, "rental_uris": {"android": "https://dc.lft.to/lastmile_qr_scan", "ios": "https://dc.lft.to/lastmile_qr_scan"}, "name": "56dba5961b0dd4d871a401e204fb68f2", "type": "electric_scooter", "lat": 38.93364233333333, "is_disabled": 0}, {"fusion_lat": 0.0, "lon": -76.93155533333334, "is_reserved": 0, "bike_id": "d03d5bd0b5a31de303111df1f2a8ebe5", "fusion_lon": 0.0, "rental_uris": {"android": "https://dc.lft.to/lastmile_qr_scan", "ios": "https://dc.lft.to/lastmile_qr_scan"}, "name": "d03d5bd0b5a31de303111df1f2a8ebe5", "type": "electric_scooter", "lat": 38.898759, "is_disabled": 0}, {"fusion_lat": 0.0, "lon": -77.0174555, "is_reserved": 0, "bike_id": "89741df0fd17e3a8056e3139f32c2664", "fusion_lon": 0.0, "rental_uris": {"android": "https://dc.lft.to/lastmile_qr_scan", "ios": "https://dc.lft.to/lastmile_qr_scan"}, "name": "89741df0fd17e3a8056e3139f32c2664", "type": "electric_scooter", "lat": 38.90261916666667, "is_disabled": 0}, {"fusion_lat": 0.0, "lon": -77.036716, "is_reserved": 0, "bike_id": "36c1fc0f1dc9f8633d5611976f4af484", "fusion_lon": 0.0, "rental_uris": {"android": "https://dc.lft.to/lastmile_qr_scan", "ios": "https://dc.lft.to/lastmile_qr_scan"}, "name": "36c1fc0f1dc9f8633d5611976f4af484", "type": "electric_scooter", "lat": 38.90692583333333, "is_disabled": 0}, {"fusion_lat": 0.0, "lon": -77.02082016666667, "is_reserved": 0, "bike_id": "c8591c0ebeb965ff88a792c5fd3614f3", "fusion_lon": 0.0, "rental_uris": {"android": "https://dc.lft.to/lastmile_qr_scan", "ios": "https://dc.lft.to/lastmile_qr_scan"}, "name": "c8591c0ebeb965ff88a792c5fd3614f3", "type": "electric_scooter", "lat": 38.884976, "is_disabled": 0}, {"fusion_lat": 0.0, "lon": -77.03955066666667, "is_reserved": 0, "bike_id": "f728eed66348aede38337b398b1971ba", "fusion_lon": 0.0, "rental_uris": {"android": "https://dc.lft.to/lastmile_qr_scan", "ios": "https://dc.lft.to/lastmile_qr_scan"}, "name": "f728eed66348aede38337b398b1971ba", "type": "electric_scooter", "lat": 38.8924445, "is_disabled": 0}, {"fusion_lat": 0.0, "lon": -77.07975916666666, "is_reserved": 0, "bike_id": "b18375c4cf5bc3dc278f9526887567ac", "fusion_lon": 0.0, "rental_uris": {"android": "https://dc.lft.to/lastmile_qr_scan", "ios": "https://dc.lft.to/lastmile_qr_scan"}, "name": "b18375c4cf5bc3dc278f9526887567ac", "type": "electric_scooter", "lat": 38.92576716666667, "is_disabled": 0}, {"fusion_lat": 0.0, "lon": -77.03640933333334, "is_reserved": 0, "bike_id": "1e724204c8fae95bc3672ea774701d6c", "fusion_lon": 0.0, "rental_uris": {"android": "https://dc.lft.to/lastmile_qr_scan", "ios": "https://dc.lft.to/lastmile_qr_scan"}, "name": "1e724204c8fae95bc3672ea774701d6c", "type": "electric_scooter", "lat": 38.92262383333333, "is_disabled": 0}, {"fusion_lat": 0.0, "lon": -77.01946583333333, "is_reserved": 0, "bike_id": "0dd2a54a00487003e979ed3be6d23100", "fusion_lon": 0.0, "rental_uris": {"android": "https://dc.lft.to/lastmile_qr_scan", "ios": "https://dc.lft.to/lastmile_qr_scan"}, "name": "0dd2a54a00487003e979ed3be6d23100", "type": "electric_bike", "lat": 38.924204, "is_disabled": 0}, {"fusion_lat": 0.0, "lon": -77.02087466666667, "is_reserved": 0, "bike_id": "5011acf250afb540adb6c264c6ed8e19", "fusion_lon": 0.0, "rental_uris": {"android": "https://dc.lft.to/lastmile_qr_scan", "ios": "https://dc.lft.to/lastmile_qr_scan"}, "name": "5011acf250afb540adb6c264c6ed8e19", "type": "electric_scooter", "lat": 38.911261, "is_disabled": 0}, {"fusion_lat": 0.0, "lon": -77.051518, "is_reserved": 0, "bike_id": "7a7fc8cfa993e9e4a21e94eaf6e6474c", "fusion_lon": 0.0, "rental_uris": {"android": "https://dc.lft.to/lastmile_qr_scan", "ios": "https://dc.lft.to/lastmile_qr_scan"}, "name": "7a7fc8cfa993e9e4a21e94eaf6e6474c", "type": "electric_scooter", "lat": 38.8995035, "is_disabled": 0}, {"fusion_lat": 0.0, "lon": -77.01946383333333, "is_reserved": 0, "bike_id": "1c453322f6ceef3ae18f2d37a3b5e93b", "fusion_lon": 0.0, "rental_uris": {"android": "https://dc.lft.to/lastmile_qr_scan", "ios": "https://dc.lft.to/lastmile_qr_scan"}, "name": "1c453322f6ceef3ae18f2d37a3b5e93b", "type": "electric_scooter", "lat": 38.947015, "is_disabled": 0}, {"fusion_lat": 0.0, "lon": -77.0221945, "is_reserved": 0, "bike_id": "8aa3efa8729676554c812b16a78b479f", "fusion_lon": 0.0, "rental_uris": {"android": "https://dc.lft.to/lastmile_qr_scan", "ios": "https://dc.lft.to/lastmile_qr_scan"}, "name": "8aa3efa8729676554c812b16a78b479f", "type": "electric_scooter", "lat": 38.935492333333336, "is_disabled": 0}, {"fusion_lat": 0.0, "lon": -76.9957605, "is_reserved": 0, "bike_id": "3ac59e1073f657427c7e53f63f8bd79f", "fusion_lon": 0.0, "rental_uris": {"android": "https://dc.lft.to/lastmile_qr_scan", "ios": "https://dc.lft.to/lastmile_qr_scan"}, "name": "3ac59e1073f657427c7e53f63f8bd79f", "type": "electric_bike", "lat": 38.85290716666667, "is_disabled": 0}, {"fusion_lat": 0.0, "lon": -77.02135866666667, "is_reserved": 0, "bike_id": "239dc2c7e961a1db98a151bb776206f5", "fusion_lon": 0.0, "rental_uris": {"android": "https://dc.lft.to/lastmile_qr_scan", "ios": "https://dc.lft.to/lastmile_qr_scan"}, "name": "239dc2c7e961a1db98a151bb776206f5", "type": "electric_scooter", "lat": 38.92412783333333, "is_disabled": 0}, {"fusion_lat": 0.0, "lon": -77.04106866666666, "is_reserved": 0, "bike_id": "a91481ff256c44073ac2aba66b300cf4", "fusion_lon": 0.0, "rental_uris": {"android": "https://dc.lft.to/lastmile_qr_scan", "ios": "https://dc.lft.to/lastmile_qr_scan"}, "name": "a91481ff256c44073ac2aba66b300cf4", "type": "electric_scooter", "lat": 38.92805533333333, "is_disabled": 0}, {"fusion_lat": 0.0, "lon": -77.024675, "is_reserved": 0, "bike_id": "56555dab649b3bfb2ad797a0333d6c53", "fusion_lon": 0.0, "rental_uris": {"android": "https://dc.lft.to/lastmile_qr_scan", "ios": "https://dc.lft.to/lastmile_qr_scan"}, "name": "56555dab649b3bfb2ad797a0333d6c53", "type": "electric_scooter", "lat": 38.93303866666667, "is_disabled": 0}, {"fusion_lat": 0.0, "lon": -77.0272235, "is_reserved": 0, "bike_id": "66024c768c7c8f67375f6ec397df1417", "fusion_lon": 0.0, "rental_uris": {"android": "https://dc.lft.to/lastmile_qr_scan", "ios": "https://dc.lft.to/lastmile_qr_scan"}, "name": "66024c768c7c8f67375f6ec397df1417", "type": "electric_scooter", "lat": 38.89724783333333, "is_disabled": 0}, {"fusion_lat": 0.0, "lon": -77.02411133333334, "is_reserved": 0, "bike_id": "c8f23c4f3649d532d0e8c5f1e620616e", "fusion_lon": 0.0, "rental_uris": {"android": "https://dc.lft.to/lastmile_qr_scan", "ios": "https://dc.lft.to/lastmile_qr_scan"}, "name": "c8f23c4f3649d532d0e8c5f1e620616e", "type": "electric_scooter", "lat": 38.8925335, "is_disabled": 0}, {"fusion_lat": 0.0, "lon": -77.0321705, "is_reserved": 0, "bike_id": "9ad5c70659eceb9d539cfb431357efe0", "fusion_lon": 0.0, "rental_uris": {"android": "https://dc.lft.to/lastmile_qr_scan", "ios": "https://dc.lft.to/lastmile_qr_scan"}, "name": "9ad5c70659eceb9d539cfb431357efe0", "type": "electric_scooter", "lat": 38.92643616666667, "is_disabled": 0}, {"fusion_lat": 0.0, "lon": -77.03378716666667, "is_reserved": 0, "bike_id": "1093a42267a4a62a354fc4e2f55e30d6", "fusion_lon": 0.0, "rental_uris": {"android": "https://dc.lft.to/lastmile_qr_scan", "ios": "https://dc.lft.to/lastmile_qr_scan"}, "name": "1093a42267a4a62a354fc4e2f55e30d6", "type": "electric_scooter", "lat": 38.90820566666667, "is_disabled": 0}, {"fusion_lat": 0.0, "lon": -77.00911966666666, "is_reserved": 0, "bike_id": "912f45d4f9cfd554791341755cba4160", "fusion_lon": 0.0, "rental_uris": {"android": "https://dc.lft.to/lastmile_qr_scan", "ios": "https://dc.lft.to/lastmile_qr_scan"}, "name": "912f45d4f9cfd554791341755cba4160", "type": "electric_scooter", "lat": 38.895610166666664, "is_disabled": 0}, {"fusion_lat": 0.0, "lon": -77.01966966666667, "is_reserved": 0, "bike_id": "6cafbc8a55006be7c970a2182313e522", "fusion_lon": 0.0, "rental_uris": {"android": "https://dc.lft.to/lastmile_qr_scan", "ios": "https://dc.lft.to/lastmile_qr_scan"}, "name": "6cafbc8a55006be7c970a2182313e522", "type": "electric_scooter", "lat": 38.883295333333336, "is_disabled": 0}, {"fusion_lat": 0.0, "lon": -77.04595733333333, "is_reserved": 0, "bike_id": "4285825efa7c03ec79ddd35c67e49ded", "fusion_lon": 0.0, "rental_uris": {"android": "https://dc.lft.to/lastmile_qr_scan", "ios": "https://dc.lft.to/lastmile_qr_scan"}, "name": "4285825efa7c03ec79ddd35c67e49ded", "type": "electric_scooter", "lat": 38.91610033333333, "is_disabled": 0}, {"fusion_lat": 0.0, "lon": -77.34304, "is_reserved": 0, "bike_id": "da6c5e21d4e1ae83556bcf0b882f7894", "fusion_lon": 0.0, "rental_uris": {"android": "https://dc.lft.to/lastmile_qr_scan", "ios": "https://dc.lft.to/lastmile_qr_scan"}, "name": "da6c5e21d4e1ae83556bcf0b882f7894", "type": "electric_bike", "lat": 38.94600466666667, "is_disabled": 0}, {"fusion_lat": 0.0, "lon": -77.0237925, "is_reserved": 0, "bike_id": "06be324136bfb7bf680d8d24505c2599", "fusion_lon": 0.0, "rental_uris": {"android": "https://dc.lft.to/lastmile_qr_scan", "ios": "https://dc.lft.to/lastmile_qr_scan"}, "name": "06be324136bfb7bf680d8d24505c2599", "type": "electric_scooter", "lat": 38.90815, "is_disabled": 0}, {"fusion_lat": 0.0, "lon": -77.038311, "is_reserved": 0, "bike_id": "0a5123d9885ad88c6f012a8be17d7443", "fusion_lon": 0.0, "rental_uris": {"android": "https://dc.lft.to/lastmile_qr_scan", "ios": "https://dc.lft.to/lastmile_qr_scan"}, "name": "0a5123d9885ad88c6f012a8be17d7443", "type": "electric_scooter", "lat": 38.931352333333336, "is_disabled": 0}, {"fusion_lat": 0.0, "lon": -77.036659, "is_reserved": 0, "bike_id": "a0d8e542fdb9cd4ca0a1e006df584b40", "fusion_lon": 0.0, "rental_uris": {"android": "https://dc.lft.to/lastmile_qr_scan", "ios": "https://dc.lft.to/lastmile_qr_scan"}, "name": "a0d8e542fdb9cd4ca0a1e006df584b40", "type": "electric_scooter", "lat": 38.932204, "is_disabled": 0}, {"fusion_lat": 0.0, "lon": -77.03821966666666, "is_reserved": 0, "bike_id": "4f056946dc560d7c0a71778b741fe6b0", "fusion_lon": 0.0, "rental_uris": {"android": "https://dc.lft.to/lastmile_qr_scan", "ios": "https://dc.lft.to/lastmile_qr_scan"}, "name": "4f056946dc560d7c0a71778b741fe6b0", "type": "electric_scooter", "lat": 38.91687783333333, "is_disabled": 0}, {"fusion_lat": 0.0, "lon": -77.06490316666667, "is_reserved": 0, "bike_id": "a99cf6fe792e9aa9688b4fa0d13fa6ec", "fusion_lon": 0.0, "rental_uris": {"android": "https://dc.lft.to/lastmile_qr_scan", "ios": "https://dc.lft.to/lastmile_qr_scan"}, "name": "a99cf6fe792e9aa9688b4fa0d13fa6ec", "type": "electric_scooter", "lat": 38.92906083333333, "is_disabled": 0}, {"fusion_lat": 0.0, "lon": -77.008876, "is_reserved": 0, "bike_id": "f400c001bc6b243e756333d9b00fccf9", "fusion_lon": 0.0, "rental_uris": {"android": "https://dc.lft.to/lastmile_qr_scan", "ios": "https://dc.lft.to/lastmile_qr_scan"}, "name": "f400c001bc6b243e756333d9b00fccf9", "type": "electric_scooter", "lat": 38.917077, "is_disabled": 0}, {"fusion_lat": 0.0, "lon": -77.01211616666667, "is_reserved": 0, "bike_id": "5f675d6f53bd0265a044b724e94c71b2", "fusion_lon": 0.0, "rental_uris": {"android": "https://dc.lft.to/lastmile_qr_scan", "ios": "https://dc.lft.to/lastmile_qr_scan"}, "name": "5f675d6f53bd0265a044b724e94c71b2", "type": "electric_scooter", "lat": 38.91836466666667, "is_disabled": 0}, {"fusion_lat": 0.0, "lon": -76.99467016666667, "is_reserved": 0, "bike_id": "409a04f3fc5ef76c7283e2b820b2ba82", "fusion_lon": 0.0, "rental_uris": {"android": "https://dc.lft.to/lastmile_qr_scan", "ios": "https://dc.lft.to/lastmile_qr_scan"}, "name": "409a04f3fc5ef76c7283e2b820b2ba82", "type": "electric_scooter", "lat": 38.86220083333333, "is_disabled": 0}, {"fusion_lat": 0.0, "lon": -77.02837066666666, "is_reserved": 0, "bike_id": "a916f518246a1303d1a8b8bd4053501a", "fusion_lon": 0.0, "rental_uris": {"android": "https://dc.lft.to/lastmile_qr_scan", "ios": "https://dc.lft.to/lastmile_qr_scan"}, "name": "a916f518246a1303d1a8b8bd4053501a", "type": "electric_scooter", "lat": 38.928614, "is_disabled": 0}, {"fusion_lat": 0.0, "lon": -77.01368416666666, "is_reserved": 0, "bike_id": "e63fe976c26e6a3c2997abdedd38a7ce", "fusion_lon": 0.0, "rental_uris": {"android": "https://dc.lft.to/lastmile_qr_scan", "ios": "https://dc.lft.to/lastmile_qr_scan"}, "name": "e63fe976c26e6a3c2997abdedd38a7ce", "type": "electric_scooter", "lat": 38.887058, "is_disabled": 0}, {"fusion_lat": 0.0, "lon": -77.02609066666666, "is_reserved": 0, "bike_id": "77f0c2c569c27147356ada7278ce2ea5", "fusion_lon": 0.0, "rental_uris": {"android": "https://dc.lft.to/lastmile_qr_scan", "ios": "https://dc.lft.to/lastmile_qr_scan"}, "name": "77f0c2c569c27147356ada7278ce2ea5", "type": "electric_scooter", "lat": 38.89224516666667, "is_disabled": 0}, {"fusion_lat": 0.0, "lon": -77.0516735, "is_reserved": 0, "bike_id": "4119629e00b6d73000cc4b075c38c555", "fusion_lon": 0.0, "rental_uris": {"android": "https://dc.lft.to/lastmile_qr_scan", "ios": "https://dc.lft.to/lastmile_qr_scan"}, "name": "4119629e00b6d73000cc4b075c38c555", "type": "electric_scooter", "lat": 38.90532666666667, "is_disabled": 0}, {"fusion_lat": 0.0, "lon": -77.04335566666667, "is_reserved": 0, "bike_id": "b6a4b046e7449ee3a33fbffe95c543e8", "fusion_lon": 0.0, "rental_uris": {"android": "https://dc.lft.to/lastmile_qr_scan", "ios": "https://dc.lft.to/lastmile_qr_scan"}, "name": "b6a4b046e7449ee3a33fbffe95c543e8", "type": "electric_scooter", "lat": 38.90422483333333, "is_disabled": 0}, {"fusion_lat": 0.0, "lon": -77.0339935, "is_reserved": 0, "bike_id": "5df72692f0894352c482a3e75f4293c4", "fusion_lon": 0.0, "rental_uris": {"android": "https://dc.lft.to/lastmile_qr_scan", "ios": "https://dc.lft.to/lastmile_qr_scan"}, "name": "5df72692f0894352c482a3e75f4293c4", "type": "electric_scooter", "lat": 38.9234455, "is_disabled": 0}, {"fusion_lat": 0.0, "lon": -76.991176, "is_reserved": 0, "bike_id": "d61d0ba47d1df6c4668b8b7f594fc164", "fusion_lon": 0.0, "rental_uris": {"android": "https://dc.lft.to/lastmile_qr_scan", "ios": "https://dc.lft.to/lastmile_qr_scan"}, "name": "d61d0ba47d1df6c4668b8b7f594fc164", "type": "electric_scooter", "lat": 38.8620645, "is_disabled": 0}, {"fusion_lat": 0.0, "lon": -77.00761683333333, "is_reserved": 0, "bike_id": "47d4ef80417c0d91c0916a3db39b79af", "fusion_lon": 0.0, "rental_uris": {"android": "https://dc.lft.to/lastmile_qr_scan", "ios": "https://dc.lft.to/lastmile_qr_scan"}, "name": "47d4ef80417c0d91c0916a3db39b79af", "type": "electric_scooter", "lat": 38.9267305, "is_disabled": 0}, {"fusion_lat": 0.0, "lon": -77.031612, "is_reserved": 0, "bike_id": "a6e4e4adfa82f5fba3de2ef6a0f204f4", "fusion_lon": 0.0, "rental_uris": {"android": "https://dc.lft.to/lastmile_qr_scan", "ios": "https://dc.lft.to/lastmile_qr_scan"}, "name": "a6e4e4adfa82f5fba3de2ef6a0f204f4", "type": "electric_scooter", "lat": 38.88778166666667, "is_disabled": 0}, {"fusion_lat": 0.0, "lon": -77.00193433333334, "is_reserved": 0, "bike_id": "6069ba8c194afbaff36251d5b2e344a9", "fusion_lon": 0.0, "rental_uris": {"android": "https://dc.lft.to/lastmile_qr_scan", "ios": "https://dc.lft.to/lastmile_qr_scan"}, "name": "6069ba8c194afbaff36251d5b2e344a9", "type": "electric_scooter", "lat": 38.902932, "is_disabled": 0}, {"fusion_lat": 0.0, "lon": -77.03432283333333, "is_reserved": 0, "bike_id": "af1f4bcd419b073e78f54c40c5c1c96e", "fusion_lon": 0.0, "rental_uris": {"android": "https://dc.lft.to/lastmile_qr_scan", "ios": "https://dc.lft.to/lastmile_qr_scan"}, "name": "af1f4bcd419b073e78f54c40c5c1c96e", "type": "electric_scooter", "lat": 38.91011116666667, "is_disabled": 0}, {"fusion_lat": 0.0, "lon": -77.01149933333333, "is_reserved": 0, "bike_id": "7f25a2cac1cb14cc97c37834dea44f86", "fusion_lon": 0.0, "rental_uris": {"android": "https://dc.lft.to/lastmile_qr_scan", "ios": "https://dc.lft.to/lastmile_qr_scan"}, "name": "7f25a2cac1cb14cc97c37834dea44f86", "type": "electric_bike", "lat": 38.9115615, "is_disabled": 0}, {"fusion_lat": 0.0, "lon": -77.03951483333333, "is_reserved": 0, "bike_id": "461c617c9d672bb8cc5a4b6a34b0516d", "fusion_lon": 0.0, "rental_uris": {"android": "https://dc.lft.to/lastmile_qr_scan", "ios": "https://dc.lft.to/lastmile_qr_scan"}, "name": "461c617c9d672bb8cc5a4b6a34b0516d", "type": "electric_scooter", "lat": 38.911968, "is_disabled": 0}, {"fusion_lat": 0.0, "lon": -77.03322416666667, "is_reserved": 0, "bike_id": "257c73822d6a5154f3aae1bc47fc5976", "fusion_lon": 0.0, "rental_uris": {"android": "https://dc.lft.to/lastmile_qr_scan", "ios": "https://dc.lft.to/lastmile_qr_scan"}, "name": "257c73822d6a5154f3aae1bc47fc5976", "type": "electric_scooter", "lat": 38.897519, "is_disabled": 0}, {"fusion_lat": 0.0, "lon": -77.11850466666667, "is_reserved": 0, "bike_id": "9b8d69b8290c5fef9de45549bcaecdc7", "fusion_lon": 0.0, "rental_uris": {"android": "https://dc.lft.to/lastmile_qr_scan", "ios": "https://dc.lft.to/lastmile_qr_scan"}, "name": "9b8d69b8290c5fef9de45549bcaecdc7", "type": "electric_bike", "lat": 38.877369333333334, "is_disabled": 0}, {"fusion_lat": 0.0, "lon": -77.013137, "is_reserved": 0, "bike_id": "f1b9ba6ba9c996153c126342378c5f38", "fusion_lon": 0.0, "rental_uris": {"android": "https://dc.lft.to/lastmile_qr_scan", "ios": "https://dc.lft.to/lastmile_qr_scan"}, "name": "f1b9ba6ba9c996153c126342378c5f38", "type": "electric_scooter", "lat": 38.870693833333334, "is_disabled": 0}, {"fusion_lat": 0.0, "lon": -77.04246733333333, "is_reserved": 0, "bike_id": "0e4c098d65b100cc93cd1e353b3b4d34", "fusion_lon": 0.0, "rental_uris": {"android": "https://dc.lft.to/lastmile_qr_scan", "ios": "https://dc.lft.to/lastmile_qr_scan"}, "name": "0e4c098d65b100cc93cd1e353b3b4d34", "type": "electric_scooter", "lat": 38.9225045, "is_disabled": 0}, {"fusion_lat": 0.0, "lon": -77.00334683333334, "is_reserved": 0, "bike_id": "47b4013e6c06ec912efd12db6eb9d6e2", "fusion_lon": 0.0, "rental_uris": {"android": "https://dc.lft.to/lastmile_qr_scan", "ios": "https://dc.lft.to/lastmile_qr_scan"}, "name": "47b4013e6c06ec912efd12db6eb9d6e2", "type": "electric_scooter", "lat": 38.889888166666665, "is_disabled": 0}, {"fusion_lat": 0.0, "lon": -76.99568816666667, "is_reserved": 0, "bike_id": "7075d8be036ec7d3b5f73fcbe09a306d", "fusion_lon": 0.0, "rental_uris": {"android": "https://dc.lft.to/lastmile_qr_scan", "ios": "https://dc.lft.to/lastmile_qr_scan"}, "name": "7075d8be036ec7d3b5f73fcbe09a306d", "type": "electric_scooter", "lat": 38.884234, "is_disabled": 0}, {"fusion_lat": 0.0, "lon": -77.03257916666666, "is_reserved": 0, "bike_id": "704bb0c472d02976c7cfc642d43e622c", "fusion_lon": 0.0, "rental_uris": {"android": "https://dc.lft.to/lastmile_qr_scan", "ios": "https://dc.lft.to/lastmile_qr_scan"}, "name": "704bb0c472d02976c7cfc642d43e622c", "type": "electric_scooter", "lat": 38.90257066666667, "is_disabled": 0}, {"fusion_lat": 0.0, "lon": -77.07605833333334, "is_reserved": 0, "bike_id": "db0b6ccd0baadc5161dd1c5d812f1fba", "fusion_lon": 0.0, "rental_uris": {"android": "https://dc.lft.to/lastmile_qr_scan", "ios": "https://dc.lft.to/lastmile_qr_scan"}, "name": "db0b6ccd0baadc5161dd1c5d812f1fba", "type": "electric_scooter", "lat": 38.920602833333334, "is_disabled": 0}, {"fusion_lat": 0.0, "lon": -77.01976333333333, "is_reserved": 0, "bike_id": "f5c8f88d9dc0e6b5c12c0c2c7b756d34", "fusion_lon": 0.0, "rental_uris": {"android": "https://dc.lft.to/lastmile_qr_scan", "ios": "https://dc.lft.to/lastmile_qr_scan"}, "name": "f5c8f88d9dc0e6b5c12c0c2c7b756d34", "type": "electric_scooter", "lat": 38.895559, "is_disabled": 0}, {"fusion_lat": 0.0, "lon": -77.0205165, "is_reserved": 0, "bike_id": "51b48c0f67beb14bd0a61fb8710f478e", "fusion_lon": 0.0, "rental_uris": {"android": "https://dc.lft.to/lastmile_qr_scan", "ios": "https://dc.lft.to/lastmile_qr_scan"}, "name": "51b48c0f67beb14bd0a61fb8710f478e", "type": "electric_bike", "lat": 38.957589166666665, "is_disabled": 0}, {"fusion_lat": 0.0, "lon": -77.0032695, "is_reserved": 0, "bike_id": "df98d4494769537f2563bbb6b6661001", "fusion_lon": 0.0, "rental_uris": {"android": "https://dc.lft.to/lastmile_qr_scan", "ios": "https://dc.lft.to/lastmile_qr_scan"}, "name": "df98d4494769537f2563bbb6b6661001", "type": "electric_scooter", "lat": 38.902603666666664, "is_disabled": 0}, {"fusion_lat": 0.0, "lon": -77.006126, "is_reserved": 0, "bike_id": "6f0a0cc3210f4887a44d602d07bf2bf7", "fusion_lon": 0.0, "rental_uris": {"android": "https://dc.lft.to/lastmile_qr_scan", "ios": "https://dc.lft.to/lastmile_qr_scan"}, "name": "6f0a0cc3210f4887a44d602d07bf2bf7", "type": "electric_scooter", "lat": 38.87547716666667, "is_disabled": 0}, {"fusion_lat": 0.0, "lon": -77.00049466666667, "is_reserved": 0, "bike_id": "d51fbde67e54d1cbbb8c8d1ac499df61", "fusion_lon": 0.0, "rental_uris": {"android": "https://dc.lft.to/lastmile_qr_scan", "ios": "https://dc.lft.to/lastmile_qr_scan"}, "name": "d51fbde67e54d1cbbb8c8d1ac499df61", "type": "electric_scooter", "lat": 38.90797966666667, "is_disabled": 0}, {"fusion_lat": 0.0, "lon": -77.02738416666666, "is_reserved": 0, "bike_id": "5dece6b2310cbfbf2581c323833bd718", "fusion_lon": 0.0, "rental_uris": {"android": "https://dc.lft.to/lastmile_qr_scan", "ios": "https://dc.lft.to/lastmile_qr_scan"}, "name": "5dece6b2310cbfbf2581c323833bd718", "type": "electric_scooter", "lat": 38.923863833333336, "is_disabled": 0}, {"fusion_lat": 0.0, "lon": -77.01694033333334, "is_reserved": 0, "bike_id": "0cb518ea79c6f389b08c340e89989135", "fusion_lon": 0.0, "rental_uris": {"android": "https://dc.lft.to/lastmile_qr_scan", "ios": "https://dc.lft.to/lastmile_qr_scan"}, "name": "0cb518ea79c6f389b08c340e89989135", "type": "electric_scooter", "lat": 38.975002833333335, "is_disabled": 0}, {"fusion_lat": 0.0, "lon": -77.03898083333333, "is_reserved": 0, "bike_id": "b413093c270d41471585763cd3953bc6", "fusion_lon": 0.0, "rental_uris": {"android": "https://dc.lft.to/lastmile_qr_scan", "ios": "https://dc.lft.to/lastmile_qr_scan"}, "name": "b413093c270d41471585763cd3953bc6", "type": "electric_scooter", "lat": 38.91475883333333, "is_disabled": 0}, {"fusion_lat": 0.0, "lon": -76.98764116666666, "is_reserved": 0, "bike_id": "85f2f1d46d7d32df1c2e12a490da808f", "fusion_lon": 0.0, "rental_uris": {"android": "https://dc.lft.to/lastmile_qr_scan", "ios": "https://dc.lft.to/lastmile_qr_scan"}, "name": "85f2f1d46d7d32df1c2e12a490da808f", "type": "electric_scooter", "lat": 38.900294333333335, "is_disabled": 0}, {"fusion_lat": 0.0, "lon": -77.0092575, "is_reserved": 0, "bike_id": "d1963ee87d7741db921ef124f063af56", "fusion_lon": 0.0, "rental_uris": {"android": "https://dc.lft.to/lastmile_qr_scan", "ios": "https://dc.lft.to/lastmile_qr_scan"}, "name": "d1963ee87d7741db921ef124f063af56", "type": "electric_scooter", "lat": 38.896035499999996, "is_disabled": 0}, {"fusion_lat": 0.0, "lon": -77.03124933333334, "is_reserved": 0, "bike_id": "568444db98815a01a000612b75eaca4c", "fusion_lon": 0.0, "rental_uris": {"android": "https://dc.lft.to/lastmile_qr_scan", "ios": "https://dc.lft.to/lastmile_qr_scan"}, "name": "568444db98815a01a000612b75eaca4c", "type": "electric_scooter", "lat": 38.9236915, "is_disabled": 0}, {"fusion_lat": 0.0, "lon": -76.99704866666667, "is_reserved": 0, "bike_id": "f6119c73998e4ec12927887f16796309", "fusion_lon": 0.0, "rental_uris": {"android": "https://dc.lft.to/lastmile_qr_scan", "ios": "https://dc.lft.to/lastmile_qr_scan"}, "name": "f6119c73998e4ec12927887f16796309", "type": "electric_scooter", "lat": 38.8443085, "is_disabled": 0}, {"fusion_lat": 0.0, "lon": -77.022119, "is_reserved": 0, "bike_id": "29701deb6e646eec65794307b339e756", "fusion_lon": 0.0, "rental_uris": {"android": "https://dc.lft.to/lastmile_qr_scan", "ios": "https://dc.lft.to/lastmile_qr_scan"}, "name": "29701deb6e646eec65794307b339e756", "type": "electric_scooter", "lat": 38.9204825, "is_disabled": 0}, {"fusion_lat": 0.0, "lon": -77.0021765, "is_reserved": 0, "bike_id": "ddd843d8fb24a025a27624a2ad9a9bd4", "fusion_lon": 0.0, "rental_uris": {"android": "https://dc.lft.to/lastmile_qr_scan", "ios": "https://dc.lft.to/lastmile_qr_scan"}, "name": "ddd843d8fb24a025a27624a2ad9a9bd4", "type": "electric_scooter", "lat": 38.900443833333334, "is_disabled": 0}, {"fusion_lat": 0.0, "lon": -77.02189633333333, "is_reserved": 0, "bike_id": "38b5b144c9ced50e4a86571b81ec23e4", "fusion_lon": 0.0, "rental_uris": {"android": "https://dc.lft.to/lastmile_qr_scan", "ios": "https://dc.lft.to/lastmile_qr_scan"}, "name": "38b5b144c9ced50e4a86571b81ec23e4", "type": "electric_scooter", "lat": 38.920592, "is_disabled": 0}, {"fusion_lat": 0.0, "lon": -77.0481865, "is_reserved": 0, "bike_id": "18f7071dac5208895459863e211683e2", "fusion_lon": 0.0, "rental_uris": {"android": "https://dc.lft.to/lastmile_qr_scan", "ios": "https://dc.lft.to/lastmile_qr_scan"}, "name": "18f7071dac5208895459863e211683e2", "type": "electric_scooter", "lat": 38.910511166666666, "is_disabled": 0}, {"fusion_lat": 0.0, "lon": -76.99810533333333, "is_reserved": 0, "bike_id": "ddf7237f4c1b3a8ee2ce612991de3010", "fusion_lon": 0.0, "rental_uris": {"android": "https://dc.lft.to/lastmile_qr_scan", "ios": "https://dc.lft.to/lastmile_qr_scan"}, "name": "ddf7237f4c1b3a8ee2ce612991de3010", "type": "electric_scooter", "lat": 38.88557866666667, "is_disabled": 0}, {"fusion_lat": 0.0, "lon": -77.12525016666666, "is_reserved": 0, "bike_id": "5615574c01529402d7fc727f04c3d6e4", "fusion_lon": 0.0, "rental_uris": {"android": "https://dc.lft.to/lastmile_qr_scan", "ios": "https://dc.lft.to/lastmile_qr_scan"}, "name": "5615574c01529402d7fc727f04c3d6e4", "type": "electric_bike", "lat": 39.056348, "is_disabled": 0}, {"fusion_lat": 0.0, "lon": -77.04994666666667, "is_reserved": 0, "bike_id": "207277c331333e550e3c3a5c789104e9", "fusion_lon": 0.0, "rental_uris": {"android": "https://dc.lft.to/lastmile_qr_scan", "ios": "https://dc.lft.to/lastmile_qr_scan"}, "name": "207277c331333e550e3c3a5c789104e9", "type": "electric_scooter", "lat": 38.89733483333333, "is_disabled": 0}, {"fusion_lat": 0.0, "lon": -77.03312133333333, "is_reserved": 0, "bike_id": "90b9abda4ad2851b55c1d288b2fbd166", "fusion_lon": 0.0, "rental_uris": {"android": "https://dc.lft.to/lastmile_qr_scan", "ios": "https://dc.lft.to/lastmile_qr_scan"}, "name": "90b9abda4ad2851b55c1d288b2fbd166", "type": "electric_scooter", "lat": 38.95614116666667, "is_disabled": 0}, {"fusion_lat": 0.0, "lon": -76.985482, "is_reserved": 0, "bike_id": "081600cf2ceed62c0f9c30c00f7f17bf", "fusion_lon": 0.0, "rental_uris": {"android": "https://dc.lft.to/lastmile_qr_scan", "ios": "https://dc.lft.to/lastmile_qr_scan"}, "name": "081600cf2ceed62c0f9c30c00f7f17bf", "type": "electric_scooter", "lat": 38.910298833333336, "is_disabled": 0}, {"fusion_lat": 0.0, "lon": -77.02405983333334, "is_reserved": 0, "bike_id": "d5504eb76d60829b2ac0c84ea99eec16", "fusion_lon": 0.0, "rental_uris": {"android": "https://dc.lft.to/lastmile_qr_scan", "ios": "https://dc.lft.to/lastmile_qr_scan"}, "name": "d5504eb76d60829b2ac0c84ea99eec16", "type": "electric_scooter", "lat": 38.91523466666666, "is_disabled": 0}, {"fusion_lat": 0.0, "lon": -77.0511715, "is_reserved": 0, "bike_id": "758e092b4f1cbdc7c9d83c4974e2a703", "fusion_lon": 0.0, "rental_uris": {"android": "https://dc.lft.to/lastmile_qr_scan", "ios": "https://dc.lft.to/lastmile_qr_scan"}, "name": "758e092b4f1cbdc7c9d83c4974e2a703", "type": "electric_scooter", "lat": 38.923418166666664, "is_disabled": 0}, {"fusion_lat": 0.0, "lon": -76.99147183333334, "is_reserved": 0, "bike_id": "ec33cfce305104344d6b7aa4b2cfb283", "fusion_lon": 0.0, "rental_uris": {"android": "https://dc.lft.to/lastmile_qr_scan", "ios": "https://dc.lft.to/lastmile_qr_scan"}, "name": "ec33cfce305104344d6b7aa4b2cfb283", "type": "electric_scooter", "lat": 38.901195333333334, "is_disabled": 0}, {"fusion_lat": 0.0, "lon": -77.075079, "is_reserved": 0, "bike_id": "1cf3a8a16e80f2841781343c1b222be8", "fusion_lon": 0.0, "rental_uris": {"android": "https://dc.lft.to/lastmile_qr_scan", "ios": "https://dc.lft.to/lastmile_qr_scan"}, "name": "1cf3a8a16e80f2841781343c1b222be8", "type": "electric_scooter", "lat": 38.8946925, "is_disabled": 0}, {"fusion_lat": 0.0, "lon": -76.98956383333334, "is_reserved": 0, "bike_id": "6cc570a58b9d2553615d2ece12398130", "fusion_lon": 0.0, "rental_uris": {"android": "https://dc.lft.to/lastmile_qr_scan", "ios": "https://dc.lft.to/lastmile_qr_scan"}, "name": "6cc570a58b9d2553615d2ece12398130", "type": "electric_scooter", "lat": 38.900271333333336, "is_disabled": 0}, {"fusion_lat": 0.0, "lon": -76.9762915, "is_reserved": 0, "bike_id": "ac857a11a168ff788fa2821021c29698", "fusion_lon": 0.0, "rental_uris": {"android": "https://dc.lft.to/lastmile_qr_scan", "ios": "https://dc.lft.to/lastmile_qr_scan"}, "name": "ac857a11a168ff788fa2821021c29698", "type": "electric_scooter", "lat": 38.905731833333334, "is_disabled": 0}, {"fusion_lat": 0.0, "lon": -77.02367866666667, "is_reserved": 0, "bike_id": "b9db58e2b6c236f8ed028fafc19ee104", "fusion_lon": 0.0, "rental_uris": {"android": "https://dc.lft.to/lastmile_qr_scan", "ios": "https://dc.lft.to/lastmile_qr_scan"}, "name": "b9db58e2b6c236f8ed028fafc19ee104", "type": "electric_scooter", "lat": 38.92057283333333, "is_disabled": 0}, {"fusion_lat": 0.0, "lon": -77.03246416666667, "is_reserved": 0, "bike_id": "e10a960ce72cddf0828a61d3da31c0d6", "fusion_lon": 0.0, "rental_uris": {"android": "https://dc.lft.to/lastmile_qr_scan", "ios": "https://dc.lft.to/lastmile_qr_scan"}, "name": "e10a960ce72cddf0828a61d3da31c0d6", "type": "electric_scooter", "lat": 38.902868833333336, "is_disabled": 0}, {"fusion_lat": 0.0, "lon": -77.02286933333333, "is_reserved": 0, "bike_id": "86d3f9b395abf3409dddc7339c381929", "fusion_lon": 0.0, "rental_uris": {"android": "https://dc.lft.to/lastmile_qr_scan", "ios": "https://dc.lft.to/lastmile_qr_scan"}, "name": "86d3f9b395abf3409dddc7339c381929", "type": "electric_scooter", "lat": 38.89493316666667, "is_disabled": 0}, {"fusion_lat": 0.0, "lon": -76.946376, "is_reserved": 0, "bike_id": "d5982579074ee98302b07d722ade1f13", "fusion_lon": 0.0, "rental_uris": {"android": "https://dc.lft.to/lastmile_qr_scan", "ios": "https://dc.lft.to/lastmile_qr_scan"}, "name": "d5982579074ee98302b07d722ade1f13", "type": "electric_scooter", "lat": 38.89845, "is_disabled": 0}, {"fusion_lat": 0.0, "lon": -76.98639383333334, "is_reserved": 0, "bike_id": "4410aa8527bfde6c2fdbae00544bb4cd", "fusion_lon": 0.0, "rental_uris": {"android": "https://dc.lft.to/lastmile_qr_scan", "ios": "https://dc.lft.to/lastmile_qr_scan"}, "name": "4410aa8527bfde6c2fdbae00544bb4cd", "type": "electric_scooter", "lat": 38.865241, "is_disabled": 0}, {"fusion_lat": 0.0, "lon": -77.01158883333333, "is_reserved": 0, "bike_id": "16cb3d7ea5667235fd58a5a5f7def263", "fusion_lon": 0.0, "rental_uris": {"android": "https://dc.lft.to/lastmile_qr_scan", "ios": "https://dc.lft.to/lastmile_qr_scan"}, "name": "16cb3d7ea5667235fd58a5a5f7def263", "type": "electric_scooter", "lat": 38.90026816666666, "is_disabled": 0}, {"fusion_lat": 0.0, "lon": -77.063254, "is_reserved": 0, "bike_id": "0baf9839a065af30eaf3c71ecbe6fc29", "fusion_lon": 0.0, "rental_uris": {"android": "https://dc.lft.to/lastmile_qr_scan", "ios": "https://dc.lft.to/lastmile_qr_scan"}, "name": "0baf9839a065af30eaf3c71ecbe6fc29", "type": "electric_scooter", "lat": 38.90767983333333, "is_disabled": 0}, {"fusion_lat": 0.0, "lon": -76.9868515, "is_reserved": 0, "bike_id": "be4fc30fea9dea0e09292288c8243f2d", "fusion_lon": 0.0, "rental_uris": {"android": "https://dc.lft.to/lastmile_qr_scan", "ios": "https://dc.lft.to/lastmile_qr_scan"}, "name": "be4fc30fea9dea0e09292288c8243f2d", "type": "electric_scooter", "lat": 38.8624995, "is_disabled": 0}, {"fusion_lat": 0.0, "lon": -77.0287045, "is_reserved": 0, "bike_id": "fef5096422e434d5e3b451968ae41ad4", "fusion_lon": 0.0, "rental_uris": {"android": "https://dc.lft.to/lastmile_qr_scan", "ios": "https://dc.lft.to/lastmile_qr_scan"}, "name": "fef5096422e434d5e3b451968ae41ad4", "type": "electric_scooter", "lat": 38.95090116666667, "is_disabled": 0}, {"fusion_lat": 0.0, "lon": -77.0629845, "is_reserved": 0, "bike_id": "72f5662ddc13763a00bf3f0112c7ccfd", "fusion_lon": 0.0, "rental_uris": {"android": "https://dc.lft.to/lastmile_qr_scan", "ios": "https://dc.lft.to/lastmile_qr_scan"}, "name": "72f5662ddc13763a00bf3f0112c7ccfd", "type": "electric_scooter", "lat": 38.903975333333335, "is_disabled": 0}, {"fusion_lat": 0.0, "lon": -77.0216645, "is_reserved": 0, "bike_id": "ab4b4bdfa1ae260ec7b2f30cf60d81d8", "fusion_lon": 0.0, "rental_uris": {"android": "https://dc.lft.to/lastmile_qr_scan", "ios": "https://dc.lft.to/lastmile_qr_scan"}, "name": "ab4b4bdfa1ae260ec7b2f30cf60d81d8", "type": "electric_scooter", "lat": 38.897436, "is_disabled": 0}, {"fusion_lat": 0.0, "lon": -77.021474, "is_reserved": 0, "bike_id": "b4c00693cb08ea68a5e421e4b7e14611", "fusion_lon": 0.0, "rental_uris": {"android": "https://dc.lft.to/lastmile_qr_scan", "ios": "https://dc.lft.to/lastmile_qr_scan"}, "name": "b4c00693cb08ea68a5e421e4b7e14611", "type": "electric_scooter", "lat": 38.923243166666666, "is_disabled": 0}, {"fusion_lat": 0.0, "lon": -77.03280066666666, "is_reserved": 0, "bike_id": "c9e35e2b23499d32b924833d0b34208c", "fusion_lon": 0.0, "rental_uris": {"android": "https://dc.lft.to/lastmile_qr_scan", "ios": "https://dc.lft.to/lastmile_qr_scan"}, "name": "c9e35e2b23499d32b924833d0b34208c", "type": "electric_scooter", "lat": 38.90444633333333, "is_disabled": 0}, {"fusion_lat": 0.0, "lon": -77.02762966666667, "is_reserved": 0, "bike_id": "ee74accead01cb301597bcd1a1a6631f", "fusion_lon": 0.0, "rental_uris": {"android": "https://dc.lft.to/lastmile_qr_scan", "ios": "https://dc.lft.to/lastmile_qr_scan"}, "name": "ee74accead01cb301597bcd1a1a6631f", "type": "electric_scooter", "lat": 38.954253, "is_disabled": 0}, {"fusion_lat": 0.0, "lon": -76.98192333333333, "is_reserved": 0, "bike_id": "9b6c21fbe76dff18bd762dcfd59d6544", "fusion_lon": 0.0, "rental_uris": {"android": "https://dc.lft.to/lastmile_qr_scan", "ios": "https://dc.lft.to/lastmile_qr_scan"}, "name": "9b6c21fbe76dff18bd762dcfd59d6544", "type": "electric_scooter", "lat": 38.902847666666666, "is_disabled": 0}, {"fusion_lat": 0.0, "lon": -77.03156383333334, "is_reserved": 0, "bike_id": "302101fd70c3f7aa3506bea187f0ac2a", "fusion_lon": 0.0, "rental_uris": {"android": "https://dc.lft.to/lastmile_qr_scan", "ios": "https://dc.lft.to/lastmile_qr_scan"}, "name": "302101fd70c3f7aa3506bea187f0ac2a", "type": "electric_scooter", "lat": 38.906101666666665, "is_disabled": 0}, {"fusion_lat": 0.0, "lon": -77.05347416666666, "is_reserved": 0, "bike_id": "cf9287840d6d03ff0cc931bcc1610cf0", "fusion_lon": 0.0, "rental_uris": {"android": "https://dc.lft.to/lastmile_qr_scan", "ios": "https://dc.lft.to/lastmile_qr_scan"}, "name": "cf9287840d6d03ff0cc931bcc1610cf0", "type": "electric_scooter", "lat": 38.923354833333335, "is_disabled": 0}, {"fusion_lat": 0.0, "lon": -77.02285716666667, "is_reserved": 0, "bike_id": "f34bf65834f5492cd368c8a4b63870e7", "fusion_lon": 0.0, "rental_uris": {"android": "https://dc.lft.to/lastmile_qr_scan", "ios": "https://dc.lft.to/lastmile_qr_scan"}, "name": "f34bf65834f5492cd368c8a4b63870e7", "type": "electric_scooter", "lat": 38.935335, "is_disabled": 0}, {"fusion_lat": 0.0, "lon": -77.000236, "is_reserved": 0, "bike_id": "357da95ae76abb037e70c76b378d2b29", "fusion_lon": 0.0, "rental_uris": {"android": "https://dc.lft.to/lastmile_qr_scan", "ios": "https://dc.lft.to/lastmile_qr_scan"}, "name": "357da95ae76abb037e70c76b378d2b29", "type": "electric_scooter", "lat": 38.9078045, "is_disabled": 0}, {"fusion_lat": 0.0, "lon": -77.04515283333333, "is_reserved": 0, "bike_id": "e1a7138a567ac3e41633c41e16a94d30", "fusion_lon": 0.0, "rental_uris": {"android": "https://dc.lft.to/lastmile_qr_scan", "ios": "https://dc.lft.to/lastmile_qr_scan"}, "name": "e1a7138a567ac3e41633c41e16a94d30", "type": "electric_scooter", "lat": 38.923276333333334, "is_disabled": 0}, {"fusion_lat": 0.0, "lon": -77.03847166666667, "is_reserved": 0, "bike_id": "fecff9613e9420b7b865e5461fc33278", "fusion_lon": 0.0, "rental_uris": {"android": "https://dc.lft.to/lastmile_qr_scan", "ios": "https://dc.lft.to/lastmile_qr_scan"}, "name": "fecff9613e9420b7b865e5461fc33278", "type": "electric_scooter", "lat": 38.913502, "is_disabled": 0}, {"fusion_lat": 0.0, "lon": -77.04511716666667, "is_reserved": 0, "bike_id": "d37bf5fcf7f3b686b613827f725b66a0", "fusion_lon": 0.0, "rental_uris": {"android": "https://dc.lft.to/lastmile_qr_scan", "ios": "https://dc.lft.to/lastmile_qr_scan"}, "name": "d37bf5fcf7f3b686b613827f725b66a0", "type": "electric_scooter", "lat": 38.9049515, "is_disabled": 0}, {"fusion_lat": 0.0, "lon": -76.98018116666667, "is_reserved": 0, "bike_id": "03b665ad71c3b249da6d60c72889f4ad", "fusion_lon": 0.0, "rental_uris": {"android": "https://dc.lft.to/lastmile_qr_scan", "ios": "https://dc.lft.to/lastmile_qr_scan"}, "name": "03b665ad71c3b249da6d60c72889f4ad", "type": "electric_scooter", "lat": 38.8886595, "is_disabled": 0}, {"fusion_lat": 0.0, "lon": -77.0417235, "is_reserved": 0, "bike_id": "52a3f52a0448bde98f56b105b2b222c7", "fusion_lon": 0.0, "rental_uris": {"android": "https://dc.lft.to/lastmile_qr_scan", "ios": "https://dc.lft.to/lastmile_qr_scan"}, "name": "52a3f52a0448bde98f56b105b2b222c7", "type": "electric_scooter", "lat": 38.91265333333333, "is_disabled": 0}, {"fusion_lat": 0.0, "lon": -77.04427733333333, "is_reserved": 0, "bike_id": "e363652b0469872e0d31767b16c1401b", "fusion_lon": 0.0, "rental_uris": {"android": "https://dc.lft.to/lastmile_qr_scan", "ios": "https://dc.lft.to/lastmile_qr_scan"}, "name": "e363652b0469872e0d31767b16c1401b", "type": "electric_scooter", "lat": 38.921108333333336, "is_disabled": 0}, {"fusion_lat": 0.0, "lon": -77.13895533333333, "is_reserved": 0, "bike_id": "2d6c540eceab7344d9c2372abdf0261b", "fusion_lon": 0.0, "rental_uris": {"android": "https://dc.lft.to/lastmile_qr_scan", "ios": "https://dc.lft.to/lastmile_qr_scan"}, "name": "2d6c540eceab7344d9c2372abdf0261b", "type": "electric_bike", "lat": 38.896793833333334, "is_disabled": 0}, {"fusion_lat": 0.0, "lon": -77.02080166666667, "is_reserved": 0, "bike_id": "cfd10c82aa0205664988ab7e9656b9e9", "fusion_lon": 0.0, "rental_uris": {"android": "https://dc.lft.to/lastmile_qr_scan", "ios": "https://dc.lft.to/lastmile_qr_scan"}, "name": "cfd10c82aa0205664988ab7e9656b9e9", "type": "electric_scooter", "lat": 38.93016016666667, "is_disabled": 0}, {"fusion_lat": 0.0, "lon": -77.01370733333333, "is_reserved": 0, "bike_id": "7dd08d5875e9967a93655488362db1ad", "fusion_lon": 0.0, "rental_uris": {"android": "https://dc.lft.to/lastmile_qr_scan", "ios": "https://dc.lft.to/lastmile_qr_scan"}, "name": "7dd08d5875e9967a93655488362db1ad", "type": "electric_scooter", "lat": 38.8922375, "is_disabled": 0}, {"fusion_lat": 0.0, "lon": -77.02437433333333, "is_reserved": 0, "bike_id": "b91700a64fe4700a7a4f4414bbf070e2", "fusion_lon": 0.0, "rental_uris": {"android": "https://dc.lft.to/lastmile_qr_scan", "ios": "https://dc.lft.to/lastmile_qr_scan"}, "name": "b91700a64fe4700a7a4f4414bbf070e2", "type": "electric_scooter", "lat": 38.916956, "is_disabled": 0}, {"fusion_lat": 0.0, "lon": -77.012925, "is_reserved": 0, "bike_id": "6b5268fb7d590fbded0012cf92220211", "fusion_lon": 0.0, "rental_uris": {"android": "https://dc.lft.to/lastmile_qr_scan", "ios": "https://dc.lft.to/lastmile_qr_scan"}, "name": "6b5268fb7d590fbded0012cf92220211", "type": "electric_scooter", "lat": 38.894741333333336, "is_disabled": 0}, {"fusion_lat": 0.0, "lon": -77.00891733333333, "is_reserved": 0, "bike_id": "612f7d32695c05e363592db0c192d6e1", "fusion_lon": 0.0, "rental_uris": {"android": "https://dc.lft.to/lastmile_qr_scan", "ios": "https://dc.lft.to/lastmile_qr_scan"}, "name": "612f7d32695c05e363592db0c192d6e1", "type": "electric_scooter", "lat": 38.96817333333333, "is_disabled": 0}, {"fusion_lat": 0.0, "lon": -76.98880583333333, "is_reserved": 0, "bike_id": "f7d026b59af9bc40c7f8596f032c9c49", "fusion_lon": 0.0, "rental_uris": {"android": "https://dc.lft.to/lastmile_qr_scan", "ios": "https://dc.lft.to/lastmile_qr_scan"}, "name": "f7d026b59af9bc40c7f8596f032c9c49", "type": "electric_scooter", "lat": 38.86657366666667, "is_disabled": 0}, {"fusion_lat": 0.0, "lon": -77.01962633333333, "is_reserved": 0, "bike_id": "2186e9fd05e2f32132a3547f2f8d7774", "fusion_lon": 0.0, "rental_uris": {"android": "https://dc.lft.to/lastmile_qr_scan", "ios": "https://dc.lft.to/lastmile_qr_scan"}, "name": "2186e9fd05e2f32132a3547f2f8d7774", "type": "electric_scooter", "lat": 38.95656283333334, "is_disabled": 0}, {"fusion_lat": 0.0, "lon": -77.115757, "is_reserved": 0, "bike_id": "6f4a7541e41677225068f45e4ffa7531", "fusion_lon": 0.0, "rental_uris": {"android": "https://dc.lft.to/lastmile_qr_scan", "ios": "https://dc.lft.to/lastmile_qr_scan"}, "name": "6f4a7541e41677225068f45e4ffa7531", "type": "electric_bike", "lat": 38.993415666666664, "is_disabled": 0}, {"fusion_lat": 0.0, "lon": -77.02185933333334, "is_reserved": 0, "bike_id": "a0689608e30ce547d166726527990124", "fusion_lon": 0.0, "rental_uris": {"android": "https://dc.lft.to/lastmile_qr_scan", "ios": "https://dc.lft.to/lastmile_qr_scan"}, "name": "a0689608e30ce547d166726527990124", "type": "electric_scooter", "lat": 38.90951416666667, "is_disabled": 0}, {"fusion_lat": 0.0, "lon": -77.0346115, "is_reserved": 0, "bike_id": "31b4759002e98c26e2f7417f0bf59b22", "fusion_lon": 0.0, "rental_uris": {"android": "https://dc.lft.to/lastmile_qr_scan", "ios": "https://dc.lft.to/lastmile_qr_scan"}, "name": "31b4759002e98c26e2f7417f0bf59b22", "type": "electric_scooter", "lat": 38.9062555, "is_disabled": 0}, {"fusion_lat": 0.0, "lon": -77.04829666666667, "is_reserved": 0, "bike_id": "90ece4051533260b6d0b43c9fa9ca780", "fusion_lon": 0.0, "rental_uris": {"android": "https://dc.lft.to/lastmile_qr_scan", "ios": "https://dc.lft.to/lastmile_qr_scan"}, "name": "90ece4051533260b6d0b43c9fa9ca780", "type": "electric_scooter", "lat": 38.907262, "is_disabled": 0}, {"fusion_lat": 0.0, "lon": -77.02845716666667, "is_reserved": 0, "bike_id": "893e3763ffaf8e71b6b6113d35b91304", "fusion_lon": 0.0, "rental_uris": {"android": "https://dc.lft.to/lastmile_qr_scan", "ios": "https://dc.lft.to/lastmile_qr_scan"}, "name": "893e3763ffaf8e71b6b6113d35b91304", "type": "electric_scooter", "lat": 38.912668, "is_disabled": 0}, {"fusion_lat": 0.0, "lon": -77.01803016666666, "is_reserved": 0, "bike_id": "103cfd5d265dfc0161dae38adbef2ac1", "fusion_lon": 0.0, "rental_uris": {"android": "https://dc.lft.to/lastmile_qr_scan", "ios": "https://dc.lft.to/lastmile_qr_scan"}, "name": "103cfd5d265dfc0161dae38adbef2ac1", "type": "electric_scooter", "lat": 38.920233833333334, "is_disabled": 0}, {"fusion_lat": 0.0, "lon": -77.058098, "is_reserved": 0, "bike_id": "445f5a20280e5e4e9206d54daa1b94ec", "fusion_lon": 0.0, "rental_uris": {"android": "https://dc.lft.to/lastmile_qr_scan", "ios": "https://dc.lft.to/lastmile_qr_scan"}, "name": "445f5a20280e5e4e9206d54daa1b94ec", "type": "electric_scooter", "lat": 38.93511066666667, "is_disabled": 0}, {"fusion_lat": 0.0, "lon": -77.002217, "is_reserved": 0, "bike_id": "3ef21315b03c26bda5b02e48d697f493", "fusion_lon": 0.0, "rental_uris": {"android": "https://dc.lft.to/lastmile_qr_scan", "ios": "https://dc.lft.to/lastmile_qr_scan"}, "name": "3ef21315b03c26bda5b02e48d697f493", "type": "electric_scooter", "lat": 38.89485916666667, "is_disabled": 0}, {"fusion_lat": 0.0, "lon": -77.02532483333333, "is_reserved": 0, "bike_id": "1d8ede0abe244e0f772230c43e1cfa64", "fusion_lon": 0.0, "rental_uris": {"android": "https://dc.lft.to/lastmile_qr_scan", "ios": "https://dc.lft.to/lastmile_qr_scan"}, "name": "1d8ede0abe244e0f772230c43e1cfa64", "type": "electric_scooter", "lat": 38.9274485, "is_disabled": 0}, {"fusion_lat": 0.0, "lon": -77.04503683333333, "is_reserved": 0, "bike_id": "2995ad86df7cd07fec2bc9fef77da9ac", "fusion_lon": 0.0, "rental_uris": {"android": "https://dc.lft.to/lastmile_qr_scan", "ios": "https://dc.lft.to/lastmile_qr_scan"}, "name": "2995ad86df7cd07fec2bc9fef77da9ac", "type": "electric_scooter", "lat": 38.907213, "is_disabled": 0}, {"fusion_lat": 0.0, "lon": -77.02206816666667, "is_reserved": 0, "bike_id": "4c2428e86cb684067b54db07736a54db", "fusion_lon": 0.0, "rental_uris": {"android": "https://dc.lft.to/lastmile_qr_scan", "ios": "https://dc.lft.to/lastmile_qr_scan"}, "name": "4c2428e86cb684067b54db07736a54db", "type": "electric_scooter", "lat": 38.9004305, "is_disabled": 0}, {"fusion_lat": 0.0, "lon": -77.0611585, "is_reserved": 0, "bike_id": "dbc5114d3dcaba282e2f00c4b4d77bc2", "fusion_lon": 0.0, "rental_uris": {"android": "https://dc.lft.to/lastmile_qr_scan", "ios": "https://dc.lft.to/lastmile_qr_scan"}, "name": "dbc5114d3dcaba282e2f00c4b4d77bc2", "type": "electric_scooter", "lat": 38.943632, "is_disabled": 0}, {"fusion_lat": 0.0, "lon": -77.00614516666667, "is_reserved": 0, "bike_id": "2178f02621bd8800f4e1a5d730e31198", "fusion_lon": 0.0, "rental_uris": {"android": "https://dc.lft.to/lastmile_qr_scan", "ios": "https://dc.lft.to/lastmile_qr_scan"}, "name": "2178f02621bd8800f4e1a5d730e31198", "type": "electric_scooter", "lat": 38.908507166666666, "is_disabled": 0}, {"fusion_lat": 0.0, "lon": -77.04894383333334, "is_reserved": 0, "bike_id": "01ae14a582584aafed76fd3cffe681da", "fusion_lon": 0.0, "rental_uris": {"android": "https://dc.lft.to/lastmile_qr_scan", "ios": "https://dc.lft.to/lastmile_qr_scan"}, "name": "01ae14a582584aafed76fd3cffe681da", "type": "electric_scooter", "lat": 38.8900225, "is_disabled": 0}, {"fusion_lat": 0.0, "lon": -77.04259683333333, "is_reserved": 0, "bike_id": "5b23f43eae4de2b057647e0e98745711", "fusion_lon": 0.0, "rental_uris": {"android": "https://dc.lft.to/lastmile_qr_scan", "ios": "https://dc.lft.to/lastmile_qr_scan"}, "name": "5b23f43eae4de2b057647e0e98745711", "type": "electric_scooter", "lat": 38.91342016666667, "is_disabled": 0}, {"fusion_lat": 0.0, "lon": -77.0245805, "is_reserved": 0, "bike_id": "5b818a9e481475a9dfe8dca741ba59c8", "fusion_lon": 0.0, "rental_uris": {"android": "https://dc.lft.to/lastmile_qr_scan", "ios": "https://dc.lft.to/lastmile_qr_scan"}, "name": "5b818a9e481475a9dfe8dca741ba59c8", "type": "electric_scooter", "lat": 38.897285333333336, "is_disabled": 0}, {"fusion_lat": 0.0, "lon": -77.03474883333334, "is_reserved": 0, "bike_id": "3de4e3fec23f2a236bfbe9ef7e7577c9", "fusion_lon": 0.0, "rental_uris": {"android": "https://dc.lft.to/lastmile_qr_scan", "ios": "https://dc.lft.to/lastmile_qr_scan"}, "name": "3de4e3fec23f2a236bfbe9ef7e7577c9", "type": "electric_scooter", "lat": 38.92532416666667, "is_disabled": 0}, {"fusion_lat": 0.0, "lon": -77.04244133333333, "is_reserved": 0, "bike_id": "a963cc51c0753dd6bd30f0181731c62d", "fusion_lon": 0.0, "rental_uris": {"android": "https://dc.lft.to/lastmile_qr_scan", "ios": "https://dc.lft.to/lastmile_qr_scan"}, "name": "a963cc51c0753dd6bd30f0181731c62d", "type": "electric_scooter", "lat": 38.92238033333334, "is_disabled": 0}, {"fusion_lat": 0.0, "lon": -77.044481, "is_reserved": 0, "bike_id": "18941ae86fca9e94d283f864ea26580d", "fusion_lon": 0.0, "rental_uris": {"android": "https://dc.lft.to/lastmile_qr_scan", "ios": "https://dc.lft.to/lastmile_qr_scan"}, "name": "18941ae86fca9e94d283f864ea26580d", "type": "electric_scooter", "lat": 38.918776, "is_disabled": 0}, {"fusion_lat": 0.0, "lon": -76.9326555, "is_reserved": 0, "bike_id": "815fde0b5174fac4b7ff1f683a6bf3eb", "fusion_lon": 0.0, "rental_uris": {"android": "https://dc.lft.to/lastmile_qr_scan", "ios": "https://dc.lft.to/lastmile_qr_scan"}, "name": "815fde0b5174fac4b7ff1f683a6bf3eb", "type": "electric_scooter", "lat": 38.8988525, "is_disabled": 0}, {"fusion_lat": 0.0, "lon": -77.00611433333333, "is_reserved": 0, "bike_id": "609bb12653c914bb6d67544bfb73b9f4", "fusion_lon": 0.0, "rental_uris": {"android": "https://dc.lft.to/lastmile_qr_scan", "ios": "https://dc.lft.to/lastmile_qr_scan"}, "name": "609bb12653c914bb6d67544bfb73b9f4", "type": "electric_scooter", "lat": 38.9055255, "is_disabled": 0}, {"fusion_lat": 0.0, "lon": -77.0113865, "is_reserved": 0, "bike_id": "604a35f9aa3b28c5d6568af01c1bf8e4", "fusion_lon": 0.0, "rental_uris": {"android": "https://dc.lft.to/lastmile_qr_scan", "ios": "https://dc.lft.to/lastmile_qr_scan"}, "name": "604a35f9aa3b28c5d6568af01c1bf8e4", "type": "electric_scooter", "lat": 38.906522833333334, "is_disabled": 0}, {"fusion_lat": 0.0, "lon": -77.02380816666667, "is_reserved": 0, "bike_id": "ba5f4fcbd68fd4a82c685b84ed3ce3d9", "fusion_lon": 0.0, "rental_uris": {"android": "https://dc.lft.to/lastmile_qr_scan", "ios": "https://dc.lft.to/lastmile_qr_scan"}, "name": "ba5f4fcbd68fd4a82c685b84ed3ce3d9", "type": "electric_scooter", "lat": 38.91996066666667, "is_disabled": 0}, {"fusion_lat": 0.0, "lon": -77.11589183333334, "is_reserved": 0, "bike_id": "f071f6c4e7d36e95c7e51c6faa664790", "fusion_lon": 0.0, "rental_uris": {"android": "https://dc.lft.to/lastmile_qr_scan", "ios": "https://dc.lft.to/lastmile_qr_scan"}, "name": "f071f6c4e7d36e95c7e51c6faa664790", "type": "electric_bike", "lat": 39.07494966666667, "is_disabled": 0}, {"fusion_lat": 0.0, "lon": -77.02980083333334, "is_reserved": 0, "bike_id": "aa8b33bd7a4768154eed97ed5281fcd3", "fusion_lon": 0.0, "rental_uris": {"android": "https://dc.lft.to/lastmile_qr_scan", "ios": "https://dc.lft.to/lastmile_qr_scan"}, "name": "aa8b33bd7a4768154eed97ed5281fcd3", "type": "electric_bike", "lat": 38.92445133333333, "is_disabled": 0}, {"fusion_lat": 0.0, "lon": -77.0456595, "is_reserved": 0, "bike_id": "c6473c540410658039a6def49bdf8fa1", "fusion_lon": 0.0, "rental_uris": {"android": "https://dc.lft.to/lastmile_qr_scan", "ios": "https://dc.lft.to/lastmile_qr_scan"},