{"data": {"bikes": [{"rental_uris": {"ios": "https://dc.lft.to/lastmile_qr_scan", "android": "https://dc.lft.to/lastmile_qr_scan"}, "type": "electric_scooter", "name": "b08ae0696f0f26f8c07967a98c46fa87", "is_reserved": 0, "lon": -76.93293, "is_disabled": 0, "fusion_lat": 0.0, "lat": 38.89684283333333, "bike_id": "b08ae0696f0f26f8c07967a98c46fa87", "fusion_lon": 0.0}, {"rental_uris": {"ios": "https://dc.lft.to/lastmile_qr_scan", "android": "https://dc.lft.to/lastmile_qr_scan"}, "type": "electric_scooter", "name": "dd12ec24fffd6a0304935531036f4dcc", "is_reserved": 0, "lon": -76.98885466666667, "is_disabled": 0, "fusion_lat": 0.0, "lat": 38.866581833333335, "bike_id": "dd12ec24fffd6a0304935531036f4dcc", "fusion_lon": 0.0}, {"rental_uris": {"ios": "https://dc.lft.to/lastmile_qr_scan", "android": "https://dc.lft.to/lastmile_qr_scan"}, "type": "electric_scooter", "name": "48e73ceb3489c1f5f0f3c312863ba2fe", "is_reserved": 0, "lon": -76.9995705, "is_disabled": 0, "fusion_lat": 0.0, "lat": 38.894214, "bike_id": "48e73ceb3489c1f5f0f3c312863ba2fe", "fusion_lon": 0.0}, {"rental_uris": {"ios": "https://dc.lft.to/lastmile_qr_scan", "android": "https://dc.lft.to/lastmile_qr_scan"}, "type": "electric_bike", "name": "28af6eef3a11187b84b658bd53218d16", "is_reserved": 0, "lon": -77.12978183333334, "is_disabled": 0, "fusion_lat": 0.0, "lat": 38.79985416666667, "bike_id": "28af6eef3a11187b84b658bd53218d16", "fusion_lon": 0.0}, {"rental_uris": {"ios": "https://dc.lft.to/lastmile_qr_scan", "android": "https://dc.lft.to/lastmile_qr_scan"}, "type": "electric_scooter", "name": "dd29393fdd490625b1e01bfc5e1c51ef", "is_reserved": 0, "lon": -77.03243783333333, "is_disabled": 0, "fusion_lat": 0.0, "lat": 38.90570433333333, "bike_id": "dd29393fdd490625b1e01bfc5e1c51ef", "fusion_lon": 0.0}, {"rental_uris": {"ios": "https://dc.lft.to/lastmile_qr_scan", "android": "https://dc.lft.to/lastmile_qr_scan"}, "type": "electric_scooter", "name": "be6e0b6a67735df83185d2222d3d5eb8", "is_reserved": 0, "lon": -77.03190416666666, "is_disabled": 0, "fusion_lat": 0.0, "lat": 38.9157985, "bike_id": "be6e0b6a67735df83185d2222d3d5eb8", "fusion_lon": 0.0}, {"rental_uris": {"ios": "https://dc.lft.to/lastmile_qr_scan", "android": "https://dc.lft.to/lastmile_qr_scan"}, "type": "electric_scooter", "name": "e8187f76b6d2c62b5457fb5155d9732a", "is_reserved": 0, "lon": -77.01778683333333, "is_disabled": 0, "fusion_lat": 0.0, "lat": 38.88629683333333, "bike_id": "e8187f76b6d2c62b5457fb5155d9732a", "fusion_lon": 0.0}, {"rental_uris": {"ios": "https://dc.lft.to/lastmile_qr_scan", "android": "https://dc.lft.to/lastmile_qr_scan"}, "type": "electric_bike", "name": "de6758efc8280a9e00b98b17eb625130", "is_reserved": 0, "lon": -76.91802116666666, "is_disabled": 0, "fusion_lat": 0.0, "lat": 39.000069833333335, "bike_id": "de6758efc8280a9e00b98b17eb625130", "fusion_lon": 0.0}, {"rental_uris": {"ios": "https://dc.lft.to/lastmile_qr_scan", "android": "https://dc.lft.to/lastmile_qr_scan"}, "type": "electric_bike", "name": "2d05a952f147513c500586d1c66eafba", "is_reserved": 0, "lon": -76.99506416666667, "is_disabled": 0, "fusion_lat": 0.0, "lat": 38.8830025, "bike_id": "2d05a952f147513c500586d1c66eafba", "fusion_lon": 0.0}, {"rental_uris": {"ios": "https://dc.lft.to/lastmile_qr_scan", "android": "https://dc.lft.to/lastmile_qr_scan"}, "type": "electric_scooter", "name": "4eb66f8f982a0db0c585abeb2fce5698", "is_reserved": 0, "lon": -77.0198885, "is_disabled": 0, "fusion_lat": 0.0, "lat": 38.92287283333334, "bike_id": "4eb66f8f982a0db0c585abeb2fce5698", "fusion_lon": 0.0}, {"rental_uris": {"ios": "https://dc.lft.to/lastmile_qr_scan", "android": "https://dc.lft.to/lastmile_qr_scan"}, "type": "electric_scooter", "name": "f64b0aa15c35745277a8c858cd7058bf", "is_reserved": 0, "lon": -76.95272266666667, "is_disabled": 0, "fusion_lat": 0.0, "lat": 38.891899, "bike_id": "f64b0aa15c35745277a8c858cd7058bf", "fusion_lon": 0.0}, {"rental_uris": {"ios": "https://dc.lft.to/lastmile_qr_scan", "android": "https://dc.lft.to/lastmile_qr_scan"}, "type": "electric_bike", "name": "3d4f8d860e4d5084157a50b1b78a6c89", "is_reserved": 0, "lon": -76.9967865, "is_disabled": 0, "fusion_lat": 0.0, "lat": 38.8382045, "bike_id": "3d4f8d860e4d5084157a50b1b78a6c89", "fusion_lon": 0.0}, {"rental_uris": {"ios": "https://dc.lft.to/lastmile_qr_scan", "android": "https://dc.lft.to/lastmile_qr_scan"}, "type": "electric_scooter", "name": "b7a50d0ce92cf2fa2ccb204a63f2c81e", "is_reserved": 0, "lon": -77.02001383333334, "is_disabled": 0, "fusion_lat": 0.0, "lat": 38.90400183333333, "bike_id": "b7a50d0ce92cf2fa2ccb204a63f2c81e", "fusion_lon": 0.0}, {"rental_uris": {"ios": "https://dc.lft.to/lastmile_qr_scan", "android": "https://dc.lft.to/lastmile_qr_scan"}, "type": "electric_bike", "name": "f1767516ecaa847e089c2875942ec3a8", "is_reserved": 0, "lon": -77.01222466666667, "is_disabled": 0, "fusion_lat": 0.0, "lat": 38.95078566666667, "bike_id": "f1767516ecaa847e089c2875942ec3a8", "fusion_lon": 0.0}, {"rental_uris": {"ios": "https://dc.lft.to/lastmile_qr_scan", "android": "https://dc.lft.to/lastmile_qr_scan"}, "type": "electric_scooter", "name": "4795daa2d74c8733efe0659131f8a15d", "is_reserved": 0, "lon": -77.0468445, "is_disabled": 0, "fusion_lat": 0.0, "lat": 38.892235, "bike_id": "4795daa2d74c8733efe0659131f8a15d", "fusion_lon": 0.0}, {"rental_uris": {"ios": "https://dc.lft.to/lastmile_qr_scan", "android": "https://dc.lft.to/lastmile_qr_scan"}, "type": "electric_scooter", "name": "9d3270138c6c012cdaa31ff15f53b29c", "is_reserved": 0, "lon": -77.038691, "is_disabled": 0, "fusion_lat": 0.0, "lat": 38.9127465, "bike_id": "9d3270138c6c012cdaa31ff15f53b29c", "fusion_lon": 0.0}, {"rental_uris": {"ios": "https://dc.lft.to/lastmile_qr_scan", "android": "https://dc.lft.to/lastmile_qr_scan"}, "type": "electric_scooter", "name": "3b20866baa6d20611b816d02ad56b2b5", "is_reserved": 0, "lon": -77.04088333333333, "is_disabled": 0, "fusion_lat": 0.0, "lat": 38.8922575, "bike_id": "3b20866baa6d20611b816d02ad56b2b5", "fusion_lon": 0.0}, {"rental_uris": {"ios": "https://dc.lft.to/lastmile_qr_scan", "android": "https://dc.lft.to/lastmile_qr_scan"}, "type": "electric_scooter", "name": "1335c7ba5ffc7a82bc3b5cad5795bead", "is_reserved": 0, "lon": -77.00874283333333, "is_disabled": 0, "fusion_lat": 0.0, "lat": 38.8975225, "bike_id": "1335c7ba5ffc7a82bc3b5cad5795bead", "fusion_lon": 0.0}, {"rental_uris": {"ios": "https://dc.lft.to/lastmile_qr_scan", "android": "https://dc.lft.to/lastmile_qr_scan"}, "type": "electric_scooter", "name": "c2b1fef689eb1bcc2c23e33de6e6d118", "is_reserved": 0, "lon": -76.93422516666666, "is_disabled": 0, "fusion_lat": 0.0, "lat": 38.893455333333335, "bike_id": "c2b1fef689eb1bcc2c23e33de6e6d118", "fusion_lon": 0.0}, {"rental_uris": {"ios": "https://dc.lft.to/lastmile_qr_scan", "android": "https://dc.lft.to/lastmile_qr_scan"}, "type": "electric_scooter", "name": "b41dd6f5c0fe26c53ccbf62b319eb30c", "is_reserved": 0, "lon": -77.0321945, "is_disabled": 0, "fusion_lat": 0.0, "lat": 38.896247333333335, "bike_id": "b41dd6f5c0fe26c53ccbf62b319eb30c", "fusion_lon": 0.0}, {"rental_uris": {"ios": "https://dc.lft.to/lastmile_qr_scan", "android": "https://dc.lft.to/lastmile_qr_scan"}, "type": "electric_scooter", "name": "c66c8335c6bd8170a45b0fd1570020fd", "is_reserved": 0, "lon": -77.03654233333333, "is_disabled": 0, "fusion_lat": 0.0, "lat": 38.912044333333334, "bike_id": "c66c8335c6bd8170a45b0fd1570020fd", "fusion_lon": 0.0}, {"rental_uris": {"ios": "https://dc.lft.to/lastmile_qr_scan", "android": "https://dc.lft.to/lastmile_qr_scan"}, "type": "electric_scooter", "name": "89e60479350159be7fc6c304b998cbb8", "is_reserved": 0, "lon": -77.0207975, "is_disabled": 0, "fusion_lat": 0.0, "lat": 38.92110366666667, "bike_id": "89e60479350159be7fc6c304b998cbb8", "fusion_lon": 0.0}, {"rental_uris": {"ios": "https://dc.lft.to/lastmile_qr_scan", "android": "https://dc.lft.to/lastmile_qr_scan"}, "type": "electric_scooter", "name": "4229049d915cf244df06f3da3a10efcc", "is_reserved": 0, "lon": -77.00750483333333, "is_disabled": 0, "fusion_lat": 0.0, "lat": 38.90366933333333, "bike_id": "4229049d915cf244df06f3da3a10efcc", "fusion_lon": 0.0}, {"rental_uris": {"ios": "https://dc.lft.to/lastmile_qr_scan", "android": "https://dc.lft.to/lastmile_qr_scan"}, "type": "electric_bike", "name": "6b75ebbb4c2a7c60a223ecac7c3b83b5", "is_reserved": 0, "lon": -76.98696916666667, "is_disabled": 0, "fusion_lat": 0.0, "lat": 38.94468283333333, "bike_id": "6b75ebbb4c2a7c60a223ecac7c3b83b5", "fusion_lon": 0.0}, {"rental_uris": {"ios": "https://dc.lft.to/lastmile_qr_scan", "android": "https://dc.lft.to/lastmile_qr_scan"}, "type": "electric_scooter", "name": "e504e0eb1c27624a8b277679e6238738", "is_reserved": 0, "lon": -77.0217955, "is_disabled": 0, "fusion_lat": 0.0, "lat": 38.92008466666667, "bike_id": "e504e0eb1c27624a8b277679e6238738", "fusion_lon": 0.0}, {"rental_uris": {"ios": "https://dc.lft.to/lastmile_qr_scan", "android": "https://dc.lft.to/lastmile_qr_scan"}, "type": "electric_scooter", "name": "6837ec534ae80abf5716e563ebfe04a3", "is_reserved": 0, "lon": -77.021008, "is_disabled": 0, "fusion_lat": 0.0, "lat": 38.9164925, "bike_id": "6837ec534ae80abf5716e563ebfe04a3", "fusion_lon": 0.0}, {"rental_uris": {"ios": "https://dc.lft.to/lastmile_qr_scan", "android": "https://dc.lft.to/lastmile_qr_scan"}, "type": "electric_scooter", "name": "2cccc58e0db5e25154f4b85a9c27f451", "is_reserved": 0, "lon": -77.035699, "is_disabled": 0, "fusion_lat": 0.0, "lat": 38.91629233333333, "bike_id": "2cccc58e0db5e25154f4b85a9c27f451", "fusion_lon": 0.0}, {"rental_uris": {"ios": "https://dc.lft.to/lastmile_qr_scan", "android": "https://dc.lft.to/lastmile_qr_scan"}, "type": "electric_scooter", "name": "cc9cb43d158b2f9cee955df97ff32283", "is_reserved": 0, "lon": -76.99424766666667, "is_disabled": 0, "fusion_lat": 0.0, "lat": 38.91688033333333, "bike_id": "cc9cb43d158b2f9cee955df97ff32283", "fusion_lon": 0.0}, {"rental_uris": {"ios": "https://dc.lft.to/lastmile_qr_scan", "android": "https://dc.lft.to/lastmile_qr_scan"}, "type": "electric_scooter", "name": "334e5ef9d6a79ee1719204aa1dfc189e", "is_reserved": 0, "lon": -77.0451765, "is_disabled": 0, "fusion_lat": 0.0, "lat": 38.91821616666667, "bike_id": "334e5ef9d6a79ee1719204aa1dfc189e", "fusion_lon": 0.0}, {"rental_uris": {"ios": "https://dc.lft.to/lastmile_qr_scan", "android": "https://dc.lft.to/lastmile_qr_scan"}, "type": "electric_scooter", "name": "aefa6ef31a8067eb4385b783328d8f5d", "is_reserved": 0, "lon": -77.04737816666666, "is_disabled": 0, "fusion_lat": 0.0, "lat": 38.895563333333335, "bike_id": "aefa6ef31a8067eb4385b783328d8f5d", "fusion_lon": 0.0}, {"rental_uris": {"ios": "https://dc.lft.to/lastmile_qr_scan", "android": "https://dc.lft.to/lastmile_qr_scan"}, "type": "electric_scooter", "name": "a0184126c53be22cef72ffbf5baae137", "is_reserved": 0, "lon": -77.0279445, "is_disabled": 0, "fusion_lat": 0.0, "lat": 38.92973083333333, "bike_id": "a0184126c53be22cef72ffbf5baae137", "fusion_lon": 0.0}, {"rental_uris": {"ios": "https://dc.lft.to/lastmile_qr_scan", "android": "https://dc.lft.to/lastmile_qr_scan"}, "type": "electric_scooter", "name": "eea022dd62b485620bef0cf1d4201411", "is_reserved": 0, "lon": -77.02609233333334, "is_disabled": 0, "fusion_lat": 0.0, "lat": 38.89312533333333, "bike_id": "eea022dd62b485620bef0cf1d4201411", "fusion_lon": 0.0}, {"rental_uris": {"ios": "https://dc.lft.to/lastmile_qr_scan", "android": "https://dc.lft.to/lastmile_qr_scan"}, "type": "electric_scooter", "name": "624574657f1e6f9fb36b27de35bd788e", "is_reserved": 0, "lon": -77.045073, "is_disabled": 0, "fusion_lat": 0.0, "lat": 38.89221516666667, "bike_id": "624574657f1e6f9fb36b27de35bd788e", "fusion_lon": 0.0}, {"rental_uris": {"ios": "https://dc.lft.to/lastmile_qr_scan", "android": "https://dc.lft.to/lastmile_qr_scan"}, "type": "electric_scooter", "name": "66f15120a4ffd224b2155e0eb42c9834", "is_reserved": 0, "lon": -77.041535, "is_disabled": 0, "fusion_lat": 0.0, "lat": 38.9141705, "bike_id": "66f15120a4ffd224b2155e0eb42c9834", "fusion_lon": 0.0}, {"rental_uris": {"ios": "https://dc.lft.to/lastmile_qr_scan", "android": "https://dc.lft.to/lastmile_qr_scan"}, "type": "electric_scooter", "name": "b245ddae76e12260401fc6fcc6496d24", "is_reserved": 0, "lon": -77.03180383333333, "is_disabled": 0, "fusion_lat": 0.0, "lat": 38.913497166666666, "bike_id": "b245ddae76e12260401fc6fcc6496d24", "fusion_lon": 0.0}, {"rental_uris": {"ios": "https://dc.lft.to/lastmile_qr_scan", "android": "https://dc.lft.to/lastmile_qr_scan"}, "type": "electric_scooter", "name": "d24ff13d72d863947260576697fa24be", "is_reserved": 0, "lon": -77.04158433333333, "is_disabled": 0, "fusion_lat": 0.0, "lat": 38.9111775, "bike_id": "d24ff13d72d863947260576697fa24be", "fusion_lon": 0.0}, {"rental_uris": {"ios": "https://dc.lft.to/lastmile_qr_scan", "android": "https://dc.lft.to/lastmile_qr_scan"}, "type": "electric_scooter", "name": "f11fb7f80e835592b75043831dfdc66f", "is_reserved": 0, "lon": -76.98533366666666, "is_disabled": 0, "fusion_lat": 0.0, "lat": 38.880787, "bike_id": "f11fb7f80e835592b75043831dfdc66f", "fusion_lon": 0.0}, {"rental_uris": {"ios": "https://dc.lft.to/lastmile_qr_scan", "android": "https://dc.lft.to/lastmile_qr_scan"}, "type": "electric_scooter", "name": "5e149cf20298b9e9d8ce0860e5bf94e9", "is_reserved": 0, "lon": -77.04072316666667, "is_disabled": 0, "fusion_lat": 0.0, "lat": 38.947772666666665, "bike_id": "5e149cf20298b9e9d8ce0860e5bf94e9", "fusion_lon": 0.0}, {"rental_uris": {"ios": "https://dc.lft.to/lastmile_qr_scan", "android": "https://dc.lft.to/lastmile_qr_scan"}, "type": "electric_scooter", "name": "b3f626702957a687756a5297175b9358", "is_reserved": 0, "lon": -77.01725733333333, "is_disabled": 0, "fusion_lat": 0.0, "lat": 38.89222766666666, "bike_id": "b3f626702957a687756a5297175b9358", "fusion_lon": 0.0}, {"rental_uris": {"ios": "https://dc.lft.to/lastmile_qr_scan", "android": "https://dc.lft.to/lastmile_qr_scan"}, "type": "electric_scooter", "name": "70adc3afb21a47a4bada014c8e83c43b", "is_reserved": 0, "lon": -77.01967933333333, "is_disabled": 0, "fusion_lat": 0.0, "lat": 38.9565275, "bike_id": "70adc3afb21a47a4bada014c8e83c43b", "fusion_lon": 0.0}, {"rental_uris": {"ios": "https://dc.lft.to/lastmile_qr_scan", "android": "https://dc.lft.to/lastmile_qr_scan"}, "type": "electric_bike", "name": "fff02212958c2443cf9e78fceb6e0459", "is_reserved": 0, "lon": -76.99915283333333, "is_disabled": 0, "fusion_lat": 0.0, "lat": 38.86450266666667, "bike_id": "fff02212958c2443cf9e78fceb6e0459", "fusion_lon": 0.0}, {"rental_uris": {"ios": "https://dc.lft.to/lastmile_qr_scan", "android": "https://dc.lft.to/lastmile_qr_scan"}, "type": "electric_scooter", "name": "12b21b9bad1fdb15840ec95c64306d16", "is_reserved": 0, "lon": -77.026957, "is_disabled": 0, "fusion_lat": 0.0, "lat": 38.91716683333333, "bike_id": "12b21b9bad1fdb15840ec95c64306d16", "fusion_lon": 0.0}, {"rental_uris": {"ios": "https://dc.lft.to/lastmile_qr_scan", "android": "https://dc.lft.to/lastmile_qr_scan"}, "type": "electric_scooter", "name": "dff677a9afd5cb7e2b6b8195667e9fcb", "is_reserved": 0, "lon": -76.988385, "is_disabled": 0, "fusion_lat": 0.0, "lat": 38.90044533333333, "bike_id": "dff677a9afd5cb7e2b6b8195667e9fcb", "fusion_lon": 0.0}, {"rental_uris": {"ios": "https://dc.lft.to/lastmile_qr_scan", "android": "https://dc.lft.to/lastmile_qr_scan"}, "type": "electric_scooter", "name": "55c962a45977d547ac3591252ba5e008", "is_reserved": 0, "lon": -76.99543383333334, "is_disabled": 0, "fusion_lat": 0.0, "lat": 38.879230166666666, "bike_id": "55c962a45977d547ac3591252ba5e008", "fusion_lon": 0.0}, {"rental_uris": {"ios": "https://dc.lft.to/lastmile_qr_scan", "android": "https://dc.lft.to/lastmile_qr_scan"}, "type": "electric_scooter", "name": "378e2a5b4a91f3e9fbd6ac3c077d1d7e", "is_reserved": 0, "lon": -77.0067565, "is_disabled": 0, "fusion_lat": 0.0, "lat": 38.871489833333335, "bike_id": "378e2a5b4a91f3e9fbd6ac3c077d1d7e", "fusion_lon": 0.0}, {"rental_uris": {"ios": "https://dc.lft.to/lastmile_qr_scan", "android": "https://dc.lft.to/lastmile_qr_scan"}, "type": "electric_bike", "name": "1df8c216e2e654d5c5cc3055c6ce7dbc", "is_reserved": 0, "lon": -77.02722016666667, "is_disabled": 0, "fusion_lat": 0.0, "lat": 38.97191133333333, "bike_id": "1df8c216e2e654d5c5cc3055c6ce7dbc", "fusion_lon": 0.0}, {"rental_uris": {"ios": "https://dc.lft.to/lastmile_qr_scan", "android": "https://dc.lft.to/lastmile_qr_scan"}, "type": "electric_scooter", "name": "b02655e195020f44604006119035d4cb", "is_reserved": 0, "lon": -77.02689066666667, "is_disabled": 0, "fusion_lat": 0.0, "lat": 38.98109483333333, "bike_id": "b02655e195020f44604006119035d4cb", "fusion_lon": 0.0}, {"rental_uris": {"ios": "https://dc.lft.to/lastmile_qr_scan", "android": "https://dc.lft.to/lastmile_qr_scan"}, "type": "electric_scooter", "name": "30b0a43e5e5431c080c20b356c71c384", "is_reserved": 0, "lon": -77.03956616666666, "is_disabled": 0, "fusion_lat": 0.0, "lat": 38.89246883333333, "bike_id": "30b0a43e5e5431c080c20b356c71c384", "fusion_lon": 0.0}, {"rental_uris": {"ios": "https://dc.lft.to/lastmile_qr_scan", "android": "https://dc.lft.to/lastmile_qr_scan"}, "type": "electric_scooter", "name": "44456e2f524c2de79f3c2a398a840d14", "is_reserved": 0, "lon": -77.0382435, "is_disabled": 0, "fusion_lat": 0.0, "lat": 38.912712166666665, "bike_id": "44456e2f524c2de79f3c2a398a840d14", "fusion_lon": 0.0}, {"rental_uris": {"ios": "https://dc.lft.to/lastmile_qr_scan", "android": "https://dc.lft.to/lastmile_qr_scan"}, "type": "electric_scooter", "name": "7cfd5f15d59b35a52f1c066d77b7f630", "is_reserved": 0, "lon": -77.040893, "is_disabled": 0, "fusion_lat": 0.0, "lat": 38.9199575, "bike_id": "7cfd5f15d59b35a52f1c066d77b7f630", "fusion_lon": 0.0}, {"rental_uris": {"ios": "https://dc.lft.to/lastmile_qr_scan", "android": "https://dc.lft.to/lastmile_qr_scan"}, "type": "electric_scooter", "name": "5cbabedc7a6e4fce1dfac1cf7e3c30bd", "is_reserved": 0, "lon": -77.00675116666666, "is_disabled": 0, "fusion_lat": 0.0, "lat": 38.9061085, "bike_id": "5cbabedc7a6e4fce1dfac1cf7e3c30bd", "fusion_lon": 0.0}, {"rental_uris": {"ios": "https://dc.lft.to/lastmile_qr_scan", "android": "https://dc.lft.to/lastmile_qr_scan"}, "type": "electric_scooter", "name": "a69d1ee36c21591fa6b40ca99d6b6cb9", "is_reserved": 0, "lon": -77.0173555, "is_disabled": 0, "fusion_lat": 0.0, "lat": 38.900687, "bike_id": "a69d1ee36c21591fa6b40ca99d6b6cb9", "fusion_lon": 0.0}, {"rental_uris": {"ios": "https://dc.lft.to/lastmile_qr_scan", "android": "https://dc.lft.to/lastmile_qr_scan"}, "type": "electric_scooter", "name": "843db06cc257c7fe3c93c415fcab8b32", "is_reserved": 0, "lon": -77.063218, "is_disabled": 0, "fusion_lat": 0.0, "lat": 38.91337216666667, "bike_id": "843db06cc257c7fe3c93c415fcab8b32", "fusion_lon": 0.0}, {"rental_uris": {"ios": "https://dc.lft.to/lastmile_qr_scan", "android": "https://dc.lft.to/lastmile_qr_scan"}, "type": "electric_scooter", "name": "f772a1d2af79f81ddb90f256d0684c37", "is_reserved": 0, "lon": -77.0878325, "is_disabled": 0, "fusion_lat": 0.0, "lat": 38.93559166666667, "bike_id": "f772a1d2af79f81ddb90f256d0684c37", "fusion_lon": 0.0}, {"rental_uris": {"ios": "https://dc.lft.to/lastmile_qr_scan", "android": "https://dc.lft.to/lastmile_qr_scan"}, "type": "electric_scooter", "name": "bdb3f5dbea670e7c2b68089814acab24", "is_reserved": 0, "lon": -77.03212, "is_disabled": 0, "fusion_lat": 0.0, "lat": 38.91710783333333, "bike_id": "bdb3f5dbea670e7c2b68089814acab24", "fusion_lon": 0.0}, {"rental_uris": {"ios": "https://dc.lft.to/lastmile_qr_scan", "android": "https://dc.lft.to/lastmile_qr_scan"}, "type": "electric_scooter", "name": "c060ce3695d3f5dc969fb924364711f2", "is_reserved": 0, "lon": -77.04181383333334, "is_disabled": 0, "fusion_lat": 0.0, "lat": 38.8996985, "bike_id": "c060ce3695d3f5dc969fb924364711f2", "fusion_lon": 0.0}, {"rental_uris": {"ios": "https://dc.lft.to/lastmile_qr_scan", "android": "https://dc.lft.to/lastmile_qr_scan"}, "type": "electric_bike", "name": "f0838f77d7ff4091c4574a30465615b8", "is_reserved": 0, "lon": -77.11283233333333, "is_disabled": 0, "fusion_lat": 0.0, "lat": 38.83104016666667, "bike_id": "f0838f77d7ff4091c4574a30465615b8", "fusion_lon": 0.0}, {"rental_uris": {"ios": "https://dc.lft.to/lastmile_qr_scan", "android": "https://dc.lft.to/lastmile_qr_scan"}, "type": "electric_scooter", "name": "367864187ddbd0acb49284952b4c2b25", "is_reserved": 0, "lon": -77.03181733333334, "is_disabled": 0, "fusion_lat": 0.0, "lat": 38.9135085, "bike_id": "367864187ddbd0acb49284952b4c2b25", "fusion_lon": 0.0}, {"rental_uris": {"ios": "https://dc.lft.to/lastmile_qr_scan", "android": "https://dc.lft.to/lastmile_qr_scan"}, "type": "electric_scooter", "name": "277b1ab43d7fe41ae609e7c8fe57b5bb", "is_reserved": 0, "lon": -77.03863516666667, "is_disabled": 0, "fusion_lat": 0.0, "lat": 38.91113, "bike_id": "277b1ab43d7fe41ae609e7c8fe57b5bb", "fusion_lon": 0.0}, {"rental_uris": {"ios": "https://dc.lft.to/lastmile_qr_scan", "android": "https://dc.lft.to/lastmile_qr_scan"}, "type": "electric_bike", "name": "e85c877f50814344d769560694e5a0b1", "is_reserved": 0, "lon": -76.95737933333334, "is_disabled": 0, "fusion_lat": 0.0, "lat": 38.888471333333335, "bike_id": "e85c877f50814344d769560694e5a0b1", "fusion_lon": 0.0}, {"rental_uris": {"ios": "https://dc.lft.to/lastmile_qr_scan", "android": "https://dc.lft.to/lastmile_qr_scan"}, "type": "electric_scooter", "name": "86d995ffe925a4f458824643cee38dbe", "is_reserved": 0, "lon": -77.06779416666667, "is_disabled": 0, "fusion_lat": 0.0, "lat": 38.908842166666666, "bike_id": "86d995ffe925a4f458824643cee38dbe", "fusion_lon": 0.0}, {"rental_uris": {"ios": "https://dc.lft.to/lastmile_qr_scan", "android": "https://dc.lft.to/lastmile_qr_scan"}, "type": "electric_bike", "name": "9097453530effe5c1dad160fc878ad55", "is_reserved": 0, "lon": -76.99789333333334, "is_disabled": 0, "fusion_lat": 0.0, "lat": 38.908723, "bike_id": "9097453530effe5c1dad160fc878ad55", "fusion_lon": 0.0}, {"rental_uris": {"ios": "https://dc.lft.to/lastmile_qr_scan", "android": "https://dc.lft.to/lastmile_qr_scan"}, "type": "electric_scooter", "name": "f8a6404a6d79e3a643a22b2e7cb34e29", "is_reserved": 0, "lon": -76.94716416666667, "is_disabled": 0, "fusion_lat": 0.0, "lat": 38.89082783333333, "bike_id": "f8a6404a6d79e3a643a22b2e7cb34e29", "fusion_lon": 0.0}, {"rental_uris": {"ios": "https://dc.lft.to/lastmile_qr_scan", "android": "https://dc.lft.to/lastmile_qr_scan"}, "type": "electric_scooter", "name": "42cbf43cacf769d80a3c830df0d25203", "is_reserved": 0, "lon": -77.025904, "is_disabled": 0, "fusion_lat": 0.0, "lat": 38.91952933333334, "bike_id": "42cbf43cacf769d80a3c830df0d25203", "fusion_lon": 0.0}, {"rental_uris": {"ios": "https://dc.lft.to/lastmile_qr_scan", "android": "https://dc.lft.to/lastmile_qr_scan"}, "type": "electric_scooter", "name": "0622cb82051d5a0aed2ee24609a768bd", "is_reserved": 0, "lon": -77.02890466666666, "is_disabled": 0, "fusion_lat": 0.0, "lat": 38.931588, "bike_id": "0622cb82051d5a0aed2ee24609a768bd", "fusion_lon": 0.0}, {"rental_uris": {"ios": "https://dc.lft.to/lastmile_qr_scan", "android": "https://dc.lft.to/lastmile_qr_scan"}, "type": "electric_scooter", "name": "793d7c60c766d5ddcbb72506ac62b52f", "is_reserved": 0, "lon": -77.047685, "is_disabled": 0, "fusion_lat": 0.0, "lat": 38.90519716666667, "bike_id": "793d7c60c766d5ddcbb72506ac62b52f", "fusion_lon": 0.0}, {"rental_uris": {"ios": "https://dc.lft.to/lastmile_qr_scan", "android": "https://dc.lft.to/lastmile_qr_scan"}, "type": "electric_scooter", "name": "b17eaecc76811029e9815663bdfdf46b", "is_reserved": 0, "lon": -77.04054716666667, "is_disabled": 0, "fusion_lat": 0.0, "lat": 38.904743333333336, "bike_id": "b17eaecc76811029e9815663bdfdf46b", "fusion_lon": 0.0}, {"rental_uris": {"ios": "https://dc.lft.to/lastmile_qr_scan", "android": "https://dc.lft.to/lastmile_qr_scan"}, "type": "electric_scooter", "name": "8b2d34d33d71ab1a0a310ed85cf88afe", "is_reserved": 0, "lon": -77.0438495, "is_disabled": 0, "fusion_lat": 0.0, "lat": 38.917093, "bike_id": "8b2d34d33d71ab1a0a310ed85cf88afe", "fusion_lon": 0.0}, {"rental_uris": {"ios": "https://dc.lft.to/lastmile_qr_scan", "android": "https://dc.lft.to/lastmile_qr_scan"}, "type": "electric_scooter", "name": "331a55576f583b49852e9b0e3e3239fc", "is_reserved": 0, "lon": -77.04546583333334, "is_disabled": 0, "fusion_lat": 0.0, "lat": 38.9096305, "bike_id": "331a55576f583b49852e9b0e3e3239fc", "fusion_lon": 0.0}, {"rental_uris": {"ios": "https://dc.lft.to/lastmile_qr_scan", "android": "https://dc.lft.to/lastmile_qr_scan"}, "type": "electric_scooter", "name": "d3f0feda5e951ed1d0f5a6009e81bd56", "is_reserved": 0, "lon": -77.03958216666666, "is_disabled": 0, "fusion_lat": 0.0, "lat": 38.892511666666664, "bike_id": "d3f0feda5e951ed1d0f5a6009e81bd56", "fusion_lon": 0.0}, {"rental_uris": {"ios": "https://dc.lft.to/lastmile_qr_scan", "android": "https://dc.lft.to/lastmile_qr_scan"}, "type": "electric_scooter", "name": "cd950780747e050cd242da9e10fbdc52", "is_reserved": 0, "lon": -77.04563, "is_disabled": 0, "fusion_lat": 0.0, "lat": 38.91466783333333, "bike_id": "cd950780747e050cd242da9e10fbdc52", "fusion_lon": 0.0}, {"rental_uris": {"ios": "https://dc.lft.to/lastmile_qr_scan", "android": "https://dc.lft.to/lastmile_qr_scan"}, "type": "electric_scooter", "name": "7779c41a580f547a467ac00f31460b99", "is_reserved": 0, "lon": -77.000605, "is_disabled": 0, "fusion_lat": 0.0, "lat": 38.961350833333334, "bike_id": "7779c41a580f547a467ac00f31460b99", "fusion_lon": 0.0}, {"rental_uris": {"ios": "https://dc.lft.to/lastmile_qr_scan", "android": "https://dc.lft.to/lastmile_qr_scan"}, "type": "electric_scooter", "name": "206d69b6c4d7854dec110560a6adef0d", "is_reserved": 0, "lon": -77.04246733333333, "is_disabled": 0, "fusion_lat": 0.0, "lat": 38.92198466666667, "bike_id": "206d69b6c4d7854dec110560a6adef0d", "fusion_lon": 0.0}, {"rental_uris": {"ios": "https://dc.lft.to/lastmile_qr_scan", "android": "https://dc.lft.to/lastmile_qr_scan"}, "type": "electric_scooter", "name": "80d21c2042a3f8e6001133d7514e1906", "is_reserved": 0, "lon": -77.037596, "is_disabled": 0, "fusion_lat": 0.0, "lat": 38.92915583333333, "bike_id": "80d21c2042a3f8e6001133d7514e1906", "fusion_lon": 0.0}, {"rental_uris": {"ios": "https://dc.lft.to/lastmile_qr_scan", "android": "https://dc.lft.to/lastmile_qr_scan"}, "type": "electric_scooter", "name": "ca7c29f48a5041ddceabd3ceaff555d1", "is_reserved": 0, "lon": -76.97630533333333, "is_disabled": 0, "fusion_lat": 0.0, "lat": 38.905704, "bike_id": "ca7c29f48a5041ddceabd3ceaff555d1", "fusion_lon": 0.0}, {"rental_uris": {"ios": "https://dc.lft.to/lastmile_qr_scan", "android": "https://dc.lft.to/lastmile_qr_scan"}, "type": "electric_bike", "name": "69b5a9d348814daa726e2751e68fc890", "is_reserved": 0, "lon": -77.234081, "is_disabled": 0, "fusion_lat": 0.0, "lat": 38.87578516666667, "bike_id": "69b5a9d348814daa726e2751e68fc890", "fusion_lon": 0.0}, {"rental_uris": {"ios": "https://dc.lft.to/lastmile_qr_scan", "android": "https://dc.lft.to/lastmile_qr_scan"}, "type": "electric_scooter", "name": "8bea499acbf51ef6ec2e6bfc9c351cd1", "is_reserved": 0, "lon": -77.03208416666666, "is_disabled": 0, "fusion_lat": 0.0, "lat": 38.90899733333333, "bike_id": "8bea499acbf51ef6ec2e6bfc9c351cd1", "fusion_lon": 0.0}, {"rental_uris": {"ios": "https://dc.lft.to/lastmile_qr_scan", "android": "https://dc.lft.to/lastmile_qr_scan"}, "type": "electric_scooter", "name": "df194773fff830c0ccd54db763e8631d", "is_reserved": 0, "lon": -77.02575, "is_disabled": 0, "fusion_lat": 0.0, "lat": 38.918177, "bike_id": "df194773fff830c0ccd54db763e8631d", "fusion_lon": 0.0}, {"rental_uris": {"ios": "https://dc.lft.to/lastmile_qr_scan", "android": "https://dc.lft.to/lastmile_qr_scan"}, "type": "electric_scooter", "name": "05cec0462a1a4f505551cbef0fbaaa4e", "is_reserved": 0, "lon": -77.00128533333333, "is_disabled": 0, "fusion_lat": 0.0, "lat": 38.903672, "bike_id": "05cec0462a1a4f505551cbef0fbaaa4e", "fusion_lon": 0.0}, {"rental_uris": {"ios": "https://dc.lft.to/lastmile_qr_scan", "android": "https://dc.lft.to/lastmile_qr_scan"}, "type": "electric_scooter", "name": "d6d1d1c019f20c1301a5f90448db13d4", "is_reserved": 0, "lon": -77.05520133333333, "is_disabled": 0, "fusion_lat": 0.0, "lat": 38.8972755, "bike_id": "d6d1d1c019f20c1301a5f90448db13d4", "fusion_lon": 0.0}, {"rental_uris": {"ios": "https://dc.lft.to/lastmile_qr_scan", "android": "https://dc.lft.to/lastmile_qr_scan"}, "type": "electric_scooter", "name": "d476ac210fd08e2a7f74a4f1915aef52", "is_reserved": 0, "lon": -77.03363933333333, "is_disabled": 0, "fusion_lat": 0.0, "lat": 38.93225566666667, "bike_id": "d476ac210fd08e2a7f74a4f1915aef52", "fusion_lon": 0.0}, {"rental_uris": {"ios": "https://dc.lft.to/lastmile_qr_scan", "android": "https://dc.lft.to/lastmile_qr_scan"}, "type": "electric_bike", "name": "8a98f7a224fa65f7058c8901f336ee1c", "is_reserved": 0, "lon": -77.01222466666667, "is_disabled": 0, "fusion_lat": 0.0, "lat": 38.912075, "bike_id": "8a98f7a224fa65f7058c8901f336ee1c", "fusion_lon": 0.0}, {"rental_uris": {"ios": "https://dc.lft.to/lastmile_qr_scan", "android": "https://dc.lft.to/lastmile_qr_scan"}, "type": "electric_scooter", "name": "905f0ec7a7c7cbf71fd7fb17486adecd", "is_reserved": 0, "lon": -77.02109933333334, "is_disabled": 0, "fusion_lat": 0.0, "lat": 38.912484, "bike_id": "905f0ec7a7c7cbf71fd7fb17486adecd", "fusion_lon": 0.0}, {"rental_uris": {"ios": "https://dc.lft.to/lastmile_qr_scan", "android": "https://dc.lft.to/lastmile_qr_scan"}, "type": "electric_scooter", "name": "ac98221d861f609a0ef37ac7def6ca81", "is_reserved": 0, "lon": -77.014529, "is_disabled": 0, "fusion_lat": 0.0, "lat": 38.89951216666667, "bike_id": "ac98221d861f609a0ef37ac7def6ca81", "fusion_lon": 0.0}, {"rental_uris": {"ios": "https://dc.lft.to/lastmile_qr_scan", "android": "https://dc.lft.to/lastmile_qr_scan"}, "type": "electric_scooter", "name": "feb317c3ed3ac524ca1604d4033a4c64", "is_reserved": 0, "lon": -77.04149583333333, "is_disabled": 0, "fusion_lat": 0.0, "lat": 38.903716, "bike_id": "feb317c3ed3ac524ca1604d4033a4c64", "fusion_lon": 0.0}, {"rental_uris": {"ios": "https://dc.lft.to/lastmile_qr_scan", "android": "https://dc.lft.to/lastmile_qr_scan"}, "type": "electric_scooter", "name": "e85f4efc02c00a1ba68c23e1bf5d9ce3", "is_reserved": 0, "lon": -77.04667066666667, "is_disabled": 0, "fusion_lat": 0.0, "lat": 38.89279966666667, "bike_id": "e85f4efc02c00a1ba68c23e1bf5d9ce3", "fusion_lon": 0.0}, {"rental_uris": {"ios": "https://dc.lft.to/lastmile_qr_scan", "android": "https://dc.lft.to/lastmile_qr_scan"}, "type": "electric_scooter", "name": "1af5e5340b23464d60d78a3b90b09acb", "is_reserved": 0, "lon": -77.04151766666666, "is_disabled": 0, "fusion_lat": 0.0, "lat": 38.9175075, "bike_id": "1af5e5340b23464d60d78a3b90b09acb", "fusion_lon": 0.0}, {"rental_uris": {"ios": "https://dc.lft.to/lastmile_qr_scan", "android": "https://dc.lft.to/lastmile_qr_scan"}, "type": "electric_bike", "name": "f01da956126f1c1b0fda4eeb314f38e2", "is_reserved": 0, "lon": -77.05689516666666, "is_disabled": 0, "fusion_lat": 0.0, "lat": 38.90501033333334, "bike_id": "f01da956126f1c1b0fda4eeb314f38e2", "fusion_lon": 0.0}, {"rental_uris": {"ios": "https://dc.lft.to/lastmile_qr_scan", "android": "https://dc.lft.to/lastmile_qr_scan"}, "type": "electric_scooter", "name": "f8ad7c345284734c83ed089f03967cb6", "is_reserved": 0, "lon": -77.0659995, "is_disabled": 0, "fusion_lat": 0.0, "lat": 38.91113083333333, "bike_id": "f8ad7c345284734c83ed089f03967cb6", "fusion_lon": 0.0}, {"rental_uris": {"ios": "https://dc.lft.to/lastmile_qr_scan", "android": "https://dc.lft.to/lastmile_qr_scan"}, "type": "electric_scooter", "name": "bbb8f6da018a140825088565a3e91e0b", "is_reserved": 0, "lon": -77.04683383333334, "is_disabled": 0, "fusion_lat": 0.0, "lat": 38.8922355, "bike_id": "bbb8f6da018a140825088565a3e91e0b", "fusion_lon": 0.0}, {"rental_uris": {"ios": "https://dc.lft.to/lastmile_qr_scan", "android": "https://dc.lft.to/lastmile_qr_scan"}, "type": "electric_scooter", "name": "786e3a2d191ec1e02c8216673ad16c2d", "is_reserved": 0, "lon": -77.0162165, "is_disabled": 0, "fusion_lat": 0.0, "lat": 38.911749, "bike_id": "786e3a2d191ec1e02c8216673ad16c2d", "fusion_lon": 0.0}, {"rental_uris": {"ios": "https://dc.lft.to/lastmile_qr_scan", "android": "https://dc.lft.to/lastmile_qr_scan"}, "type": "electric_scooter", "name": "d8a206259c65f72e3ef407c7574ad107", "is_reserved": 0, "lon": -77.044502, "is_disabled": 0, "fusion_lat": 0.0, "lat": 38.922345166666666, "bike_id": "d8a206259c65f72e3ef407c7574ad107", "fusion_lon": 0.0}, {"rental_uris": {"ios": "https://dc.lft.to/lastmile_qr_scan", "android": "https://dc.lft.to/lastmile_qr_scan"}, "type": "electric_scooter", "name": "32c9989b81e4879959eec0ebc0b5a140", "is_reserved": 0, "lon": -77.03474916666667, "is_disabled": 0, "fusion_lat": 0.0, "lat": 38.916901833333334, "bike_id": "32c9989b81e4879959eec0ebc0b5a140", "fusion_lon": 0.0}, {"rental_uris": {"ios": "https://dc.lft.to/lastmile_qr_scan", "android": "https://dc.lft.to/lastmile_qr_scan"}, "type": "electric_bike", "name": "92045ca6c6f32be12ca362c018d65847", "is_reserved": 0, "lon": -77.05519066666666, "is_disabled": 0, "fusion_lat": 0.0, "lat": 38.94407366666667, "bike_id": "92045ca6c6f32be12ca362c018d65847", "fusion_lon": 0.0}, {"rental_uris": {"ios": "https://dc.lft.to/lastmile_qr_scan", "android": "https://dc.lft.to/lastmile_qr_scan"}, "type": "electric_scooter", "name": "797d733575cf7ffd6ec2dce72a409991", "is_reserved": 0, "lon": -77.00376516666667, "is_disabled": 0, "fusion_lat": 0.0, "lat": 38.9406375, "bike_id": "797d733575cf7ffd6ec2dce72a409991", "fusion_lon": 0.0}, {"rental_uris": {"ios": "https://dc.lft.to/lastmile_qr_scan", "android": "https://dc.lft.to/lastmile_qr_scan"}, "type": "electric_scooter", "name": "03716f87ed32af41af595ac24c04ab4d", "is_reserved": 0, "lon": -77.04170383333333, "is_disabled": 0, "fusion_lat": 0.0, "lat": 38.91725133333333, "bike_id": "03716f87ed32af41af595ac24c04ab4d", "fusion_lon": 0.0}, {"rental_uris": {"ios": "https://dc.lft.to/lastmile_qr_scan", "android": "https://dc.lft.to/lastmile_qr_scan"}, "type": "electric_scooter", "name": "6acd7985ce99d27d0e041fd37985c05e", "is_reserved": 0, "lon": -77.03859066666666, "is_disabled": 0, "fusion_lat": 0.0, "lat": 38.908069, "bike_id": "6acd7985ce99d27d0e041fd37985c05e", "fusion_lon": 0.0}, {"rental_uris": {"ios": "https://dc.lft.to/lastmile_qr_scan", "android": "https://dc.lft.to/lastmile_qr_scan"}, "type": "electric_scooter", "name": "862af4f4a230412c1e3eea4d72b23062", "is_reserved": 0, "lon": -77.00557416666666, "is_disabled": 0, "fusion_lat": 0.0, "lat": 38.874702166666665, "bike_id": "862af4f4a230412c1e3eea4d72b23062", "fusion_lon": 0.0}, {"rental_uris": {"ios": "https://dc.lft.to/lastmile_qr_scan", "android": "https://dc.lft.to/lastmile_qr_scan"}, "type": "electric_scooter", "name": "7f28df4c7dc47b47d42cef82d4d16976", "is_reserved": 0, "lon": -77.04154166666666, "is_disabled": 0, "fusion_lat": 0.0, "lat": 38.919217, "bike_id": "7f28df4c7dc47b47d42cef82d4d16976", "fusion_lon": 0.0}, {"rental_uris": {"ios": "https://dc.lft.to/lastmile_qr_scan", "android": "https://dc.lft.to/lastmile_qr_scan"}, "type": "electric_scooter", "name": "d3f4cd03bb7e188bd09fd089b2044d57", "is_reserved": 0, "lon": -77.002059, "is_disabled": 0, "fusion_lat": 0.0, "lat": 38.911039333333335, "bike_id": "d3f4cd03bb7e188bd09fd089b2044d57", "fusion_lon": 0.0}, {"rental_uris": {"ios": "https://dc.lft.to/lastmile_qr_scan", "android": "https://dc.lft.to/lastmile_qr_scan"}, "type": "electric_scooter", "name": "bd3db2b99e1120e09384e6438dd6d8c6", "is_reserved": 0, "lon": -77.03676083333333, "is_disabled": 0, "fusion_lat": 0.0, "lat": 38.90840566666667, "bike_id": "bd3db2b99e1120e09384e6438dd6d8c6", "fusion_lon": 0.0}, {"rental_uris": {"ios": "https://dc.lft.to/lastmile_qr_scan", "android": "https://dc.lft.to/lastmile_qr_scan"}, "type": "electric_scooter", "name": "09bad638b40f09c99eb258f217792f2f", "is_reserved": 0, "lon": -76.93701266666666, "is_disabled": 0, "fusion_lat": 0.0, "lat": 38.890187166666664, "bike_id": "09bad638b40f09c99eb258f217792f2f", "fusion_lon": 0.0}, {"rental_uris": {"ios": "https://dc.lft.to/lastmile_qr_scan", "android": "https://dc.lft.to/lastmile_qr_scan"}, "type": "electric_scooter", "name": "1c73838ccabde1f300f440523cedef3a", "is_reserved": 0, "lon": -77.03241183333333, "is_disabled": 0, "fusion_lat": 0.0, "lat": 38.91560366666667, "bike_id": "1c73838ccabde1f300f440523cedef3a", "fusion_lon": 0.0}, {"rental_uris": {"ios": "https://dc.lft.to/lastmile_qr_scan", "android": "https://dc.lft.to/lastmile_qr_scan"}, "type": "electric_scooter", "name": "f8d51bbf1e4517a442db7c923d5593a6", "is_reserved": 0, "lon": -77.06417533333334, "is_disabled": 0, "fusion_lat": 0.0, "lat": 38.91400083333333, "bike_id": "f8d51bbf1e4517a442db7c923d5593a6", "fusion_lon": 0.0}, {"rental_uris": {"ios": "https://dc.lft.to/lastmile_qr_scan", "android": "https://dc.lft.to/lastmile_qr_scan"}, "type": "electric_scooter", "name": "c82aa3a706f402d1e85d2f2e519d1702", "is_reserved": 0, "lon": -77.02069483333334, "is_disabled": 0, "fusion_lat": 0.0, "lat": 38.931112666666664, "bike_id": "c82aa3a706f402d1e85d2f2e519d1702", "fusion_lon": 0.0}, {"rental_uris": {"ios": "https://dc.lft.to/lastmile_qr_scan", "android": "https://dc.lft.to/lastmile_qr_scan"}, "type": "electric_scooter", "name": "d57e21e7866616eb11273aa3affd7b62", "is_reserved": 0, "lon": -77.032035, "is_disabled": 0, "fusion_lat": 0.0, "lat": 38.9082345, "bike_id": "d57e21e7866616eb11273aa3affd7b62", "fusion_lon": 0.0}, {"rental_uris": {"ios": "https://dc.lft.to/lastmile_qr_scan", "android": "https://dc.lft.to/lastmile_qr_scan"}, "type": "electric_scooter", "name": "73bb83aa482fc0a4057184d22aa98576", "is_reserved": 0, "lon": -77.023261, "is_disabled": 0, "fusion_lat": 0.0, "lat": 38.929917833333334, "bike_id": "73bb83aa482fc0a4057184d22aa98576", "fusion_lon": 0.0}, {"rental_uris": {"ios": "https://dc.lft.to/lastmile_qr_scan", "android": "https://dc.lft.to/lastmile_qr_scan"}, "type": "electric_scooter", "name": "412ebc54fe5d572b8fc5fa6e2e9bafde", "is_reserved": 0, "lon": -77.00983266666667, "is_disabled": 0, "fusion_lat": 0.0, "lat": 38.905667, "bike_id": "412ebc54fe5d572b8fc5fa6e2e9bafde", "fusion_lon": 0.0}, {"rental_uris": {"ios": "https://dc.lft.to/lastmile_qr_scan", "android": "https://dc.lft.to/lastmile_qr_scan"}, "type": "electric_scooter", "name": "445ad58bf68d99599215e6e0abc75f02", "is_reserved": 0, "lon": -77.00722383333333, "is_disabled": 0, "fusion_lat": 0.0, "lat": 38.911127, "bike_id": "445ad58bf68d99599215e6e0abc75f02", "fusion_lon": 0.0}, {"rental_uris": {"ios": "https://dc.lft.to/lastmile_qr_scan", "android": "https://dc.lft.to/lastmile_qr_scan"}, "type": "electric_bike", "name": "1ee67e3b7a29aabf729ee77a2a43ee31", "is_reserved": 0, "lon": -76.97772483333334, "is_disabled": 0, "fusion_lat": 0.0, "lat": 38.8572325, "bike_id": "1ee67e3b7a29aabf729ee77a2a43ee31", "fusion_lon": 0.0}, {"rental_uris": {"ios": "https://dc.lft.to/lastmile_qr_scan", "android": "https://dc.lft.to/lastmile_qr_scan"}, "type": "electric_scooter", "name": "31e5f1335616b1d7710db16a9da350bb", "is_reserved": 0, "lon": -77.03173366666667, "is_disabled": 0, "fusion_lat": 0.0, "lat": 38.914193833333336, "bike_id": "31e5f1335616b1d7710db16a9da350bb", "fusion_lon": 0.0}, {"rental_uris": {"ios": "https://dc.lft.to/lastmile_qr_scan", "android": "https://dc.lft.to/lastmile_qr_scan"}, "type": "electric_scooter", "name": "adaf6a9be7daeaa0e17ced7a398a9dcf", "is_reserved": 0, "lon": -77.042298, "is_disabled": 0, "fusion_lat": 0.0, "lat": 38.91189683333333, "bike_id": "adaf6a9be7daeaa0e17ced7a398a9dcf", "fusion_lon": 0.0}, {"rental_uris": {"ios": "https://dc.lft.to/lastmile_qr_scan", "android": "https://dc.lft.to/lastmile_qr_scan"}, "type": "electric_scooter", "name": "dbee138fea947e0000a667ae3ed9ef57", "is_reserved": 0, "lon": -77.0337125, "is_disabled": 0, "fusion_lat": 0.0, "lat": 38.937776, "bike_id": "dbee138fea947e0000a667ae3ed9ef57", "fusion_lon": 0.0}, {"rental_uris": {"ios": "https://dc.lft.to/lastmile_qr_scan", "android": "https://dc.lft.to/lastmile_qr_scan"}, "type": "electric_scooter", "name": "e6dd4445c45a0a87e2cbd4d4398cbbee", "is_reserved": 0, "lon": -77.04728466666667, "is_disabled": 0, "fusion_lat": 0.0, "lat": 38.90181616666667, "bike_id": "e6dd4445c45a0a87e2cbd4d4398cbbee", "fusion_lon": 0.0}, {"rental_uris": {"ios": "https://dc.lft.to/lastmile_qr_scan", "android": "https://dc.lft.to/lastmile_qr_scan"}, "type": "electric_scooter", "name": "1cb2dc289489f4121d99a8cb297dab61", "is_reserved": 0, "lon": -77.04821216666667, "is_disabled": 0, "fusion_lat": 0.0, "lat": 38.904803666666666, "bike_id": "1cb2dc289489f4121d99a8cb297dab61", "fusion_lon": 0.0}, {"rental_uris": {"ios": "https://dc.lft.to/lastmile_qr_scan", "android": "https://dc.lft.to/lastmile_qr_scan"}, "type": "electric_scooter", "name": "89ecbc20e0ed5e93db26f0083e7fe67b", "is_reserved": 0, "lon": -77.02978016666667, "is_disabled": 0, "fusion_lat": 0.0, "lat": 38.917692333333335, "bike_id": "89ecbc20e0ed5e93db26f0083e7fe67b", "fusion_lon": 0.0}, {"rental_uris": {"ios": "https://dc.lft.to/lastmile_qr_scan", "android": "https://dc.lft.to/lastmile_qr_scan"}, "type": "electric_scooter", "name": "44e8756eb100e0d188d49f18ac589639", "is_reserved": 0, "lon": -77.036967, "is_disabled": 0, "fusion_lat": 0.0, "lat": 38.92777866666667, "bike_id": "44e8756eb100e0d188d49f18ac589639", "fusion_lon": 0.0}, {"rental_uris": {"ios": "https://dc.lft.to/lastmile_qr_scan", "android": "https://dc.lft.to/lastmile_qr_scan"}, "type": "electric_scooter", "name": "0d225d077c4e5e4df689e2fdbed51556", "is_reserved": 0, "lon": -76.9979135, "is_disabled": 0, "fusion_lat": 0.0, "lat": 38.88562316666667, "bike_id": "0d225d077c4e5e4df689e2fdbed51556", "fusion_lon": 0.0}, {"rental_uris": {"ios": "https://dc.lft.to/lastmile_qr_scan", "android": "https://dc.lft.to/lastmile_qr_scan"}, "type": "electric_scooter", "name": "ed856ff141db4261d6865d0ff1c6041c", "is_reserved": 0, "lon": -77.01935033333334, "is_disabled": 0, "fusion_lat": 0.0, "lat": 38.876720666666664, "bike_id": "ed856ff141db4261d6865d0ff1c6041c", "fusion_lon": 0.0}, {"rental_uris": {"ios": "https://dc.lft.to/lastmile_qr_scan", "android": "https://dc.lft.to/lastmile_qr_scan"}, "type": "electric_bike", "name": "6bfa1c399c92da8a256ac150d821387c", "is_reserved": 0, "lon": -76.983405, "is_disabled": 0, "fusion_lat": 0.0, "lat": 38.86260216666667, "bike_id": "6bfa1c399c92da8a256ac150d821387c", "fusion_lon": 0.0}, {"rental_uris": {"ios": "https://dc.lft.to/lastmile_qr_scan", "android": "https://dc.lft.to/lastmile_qr_scan"}, "type": "electric_scooter", "name": "618e76b37b8255c371a3cc96cb96af6f", "is_reserved": 0, "lon": -77.00936133333333, "is_disabled": 0, "fusion_lat": 0.0, "lat": 38.876721333333336, "bike_id": "618e76b37b8255c371a3cc96cb96af6f", "fusion_lon": 0.0}, {"rental_uris": {"ios": "https://dc.lft.to/lastmile_qr_scan", "android": "https://dc.lft.to/lastmile_qr_scan"}, "type": "electric_scooter", "name": "0fab42f9d37acef1c7244919bd6e73ba", "is_reserved": 0, "lon": -77.0347025, "is_disabled": 0, "fusion_lat": 0.0, "lat": 38.93027216666667, "bike_id": "0fab42f9d37acef1c7244919bd6e73ba", "fusion_lon": 0.0}, {"rental_uris": {"ios": "https://dc.lft.to/lastmile_qr_scan", "android": "https://dc.lft.to/lastmile_qr_scan"}, "type": "electric_scooter", "name": "50b7dc6cfdec2e7161907dc93b3f61d0", "is_reserved": 0, "lon": -77.02948883333333, "is_disabled": 0, "fusion_lat": 0.0, "lat": 38.918018000000004, "bike_id": "50b7dc6cfdec2e7161907dc93b3f61d0", "fusion_lon": 0.0}, {"rental_uris": {"ios": "https://dc.lft.to/lastmile_qr_scan", "android": "https://dc.lft.to/lastmile_qr_scan"}, "type": "electric_scooter", "name": "7a796273456703a32f8993fd55a0f949", "is_reserved": 0, "lon": -77.02190483333334, "is_disabled": 0, "fusion_lat": 0.0, "lat": 38.91074183333333, "bike_id": "7a796273456703a32f8993fd55a0f949", "fusion_lon": 0.0}, {"rental_uris": {"ios": "https://dc.lft.to/lastmile_qr_scan", "android": "https://dc.lft.to/lastmile_qr_scan"}, "type": "electric_scooter", "name": "0cd2d4b29f971461c999292b62b2cc36", "is_reserved": 0, "lon": -77.047405, "is_disabled": 0, "fusion_lat": 0.0, "lat": 38.912648833333336, "bike_id": "0cd2d4b29f971461c999292b62b2cc36", "fusion_lon": 0.0}, {"rental_uris": {"ios": "https://dc.lft.to/lastmile_qr_scan", "android": "https://dc.lft.to/lastmile_qr_scan"}, "type": "electric_scooter", "name": "c4752eb587f9b447f7c79d0cd850ddf8", "is_reserved": 0, "lon": -77.02345966666667, "is_disabled": 0, "fusion_lat": 0.0, "lat": 38.91763616666667, "bike_id": "c4752eb587f9b447f7c79d0cd850ddf8", "fusion_lon": 0.0}, {"rental_uris": {"ios": "https://dc.lft.to/lastmile_qr_scan", "android": "https://dc.lft.to/lastmile_qr_scan"}, "type": "electric_bike", "name": "7de2a3d320c9a17d621b5a43a10e0c4b", "is_reserved": 0, "lon": -76.99588733333333, "is_disabled": 0, "fusion_lat": 0.0, "lat": 38.862353, "bike_id": "7de2a3d320c9a17d621b5a43a10e0c4b", "fusion_lon": 0.0}, {"rental_uris": {"ios": "https://dc.lft.to/lastmile_qr_scan", "android": "https://dc.lft.to/lastmile_qr_scan"}, "type": "electric_scooter", "name": "26bff69b217d95312c5dcdf56bf52bad", "is_reserved": 0, "lon": -77.02055683333333, "is_disabled": 0, "fusion_lat": 0.0, "lat": 38.92248566666667, "bike_id": "26bff69b217d95312c5dcdf56bf52bad", "fusion_lon": 0.0}, {"rental_uris": {"ios": "https://dc.lft.to/lastmile_qr_scan", "android": "https://dc.lft.to/lastmile_qr_scan"}, "type": "electric_scooter", "name": "4d1a6078d4979b8485021fedfc17a78a", "is_reserved": 0, "lon": -76.994118, "is_disabled": 0, "fusion_lat": 0.0, "lat": 38.877874, "bike_id": "4d1a6078d4979b8485021fedfc17a78a", "fusion_lon": 0.0}, {"rental_uris": {"ios": "https://dc.lft.to/lastmile_qr_scan", "android": "https://dc.lft.to/lastmile_qr_scan"}, "type": "electric_scooter", "name": "6421ea87604c2d99f07e4eaf24d1024a", "is_reserved": 0, "lon": -77.05917, "is_disabled": 0, "fusion_lat": 0.0, "lat": 38.905066833333336, "bike_id": "6421ea87604c2d99f07e4eaf24d1024a", "fusion_lon": 0.0}, {"rental_uris": {"ios": "https://dc.lft.to/lastmile_qr_scan", "android": "https://dc.lft.to/lastmile_qr_scan"}, "type": "electric_bike", "name": "c6c3af41fac1738c48597b29d1fb6deb", "is_reserved": 0, "lon": -76.98340416666667, "is_disabled": 0, "fusion_lat": 0.0, "lat": 38.9351985, "bike_id": "c6c3af41fac1738c48597b29d1fb6deb", "fusion_lon": 0.0}, {"rental_uris": {"ios": "https://dc.lft.to/lastmile_qr_scan", "android": "https://dc.lft.to/lastmile_qr_scan"}, "type": "electric_scooter", "name": "2eca9367fb331ba5c7a65083a63c9fb2", "is_reserved": 0, "lon": -77.03689916666667, "is_disabled": 0, "fusion_lat": 0.0, "lat": 38.932882166666666, "bike_id": "2eca9367fb331ba5c7a65083a63c9fb2", "fusion_lon": 0.0}, {"rental_uris": {"ios": "https://dc.lft.to/lastmile_qr_scan", "android": "https://dc.lft.to/lastmile_qr_scan"}, "type": "electric_scooter", "name": "f15dc0fd33889315e330a304a80439f5", "is_reserved": 0, "lon": -77.04177283333334, "is_disabled": 0, "fusion_lat": 0.0, "lat": 38.91555266666667, "bike_id": "f15dc0fd33889315e330a304a80439f5", "fusion_lon": 0.0}, {"rental_uris": {"ios": "https://dc.lft.to/lastmile_qr_scan", "android": "https://dc.lft.to/lastmile_qr_scan"}, "type": "electric_scooter", "name": "bac4f98da2ae0004ac3d9792f49c95a2", "is_reserved": 0, "lon": -77.03289233333334, "is_disabled": 0, "fusion_lat": 0.0, "lat": 38.924536333333336, "bike_id": "bac4f98da2ae0004ac3d9792f49c95a2", "fusion_lon": 0.0}, {"rental_uris": {"ios": "https://dc.lft.to/lastmile_qr_scan", "android": "https://dc.lft.to/lastmile_qr_scan"}, "type": "electric_scooter", "name": "425d863183ea594c7d1709275db06021", "is_reserved": 0, "lon": -77.0383755, "is_disabled": 0, "fusion_lat": 0.0, "lat": 38.91044933333333, "bike_id": "425d863183ea594c7d1709275db06021", "fusion_lon": 0.0}, {"rental_uris": {"ios": "https://dc.lft.to/lastmile_qr_scan", "android": "https://dc.lft.to/lastmile_qr_scan"}, "type": "electric_scooter", "name": "c0b1bc3959547e76da409c4185548888", "is_reserved": 0, "lon": -77.042486, "is_disabled": 0, "fusion_lat": 0.0, "lat": 38.92205833333333, "bike_id": "c0b1bc3959547e76da409c4185548888", "fusion_lon": 0.0}, {"rental_uris": {"ios": "https://dc.lft.to/lastmile_qr_scan", "android": "https://dc.lft.to/lastmile_qr_scan"}, "type": "electric_scooter", "name": "d971d4459ecb013baae38925b3734520", "is_reserved": 0, "lon": -77.0384985, "is_disabled": 0, "fusion_lat": 0.0, "lat": 38.90965516666667, "bike_id": "d971d4459ecb013baae38925b3734520", "fusion_lon": 0.0}, {"rental_uris": {"ios": "https://dc.lft.to/lastmile_qr_scan", "android": "https://dc.lft.to/lastmile_qr_scan"}, "type": "electric_scooter", "name": "f1de602180f225ddac72f937576f4075", "is_reserved": 0, "lon": -77.06510533333334, "is_disabled": 0, "fusion_lat": 0.0, "lat": 38.905883, "bike_id": "f1de602180f225ddac72f937576f4075", "fusion_lon": 0.0}, {"rental_uris": {"ios": "https://dc.lft.to/lastmile_qr_scan", "android": "https://dc.lft.to/lastmile_qr_scan"}, "type": "electric_scooter", "name": "1c7aedc345b28255912bb1da3f3733be", "is_reserved": 0, "lon": -77.04360383333334, "is_disabled": 0, "fusion_lat": 0.0, "lat": 38.914178, "bike_id": "1c7aedc345b28255912bb1da3f3733be", "fusion_lon": 0.0}, {"rental_uris": {"ios": "https://dc.lft.to/lastmile_qr_scan", "android": "https://dc.lft.to/lastmile_qr_scan"}, "type": "electric_scooter", "name": "7414b7e1d81b33c8561d8a41dc39897d", "is_reserved": 0, "lon": -77.064562, "is_disabled": 0, "fusion_lat": 0.0, "lat": 38.909859833333336, "bike_id": "7414b7e1d81b33c8561d8a41dc39897d", "fusion_lon": 0.0}, {"rental_uris": {"ios": "https://dc.lft.to/lastmile_qr_scan", "android": "https://dc.lft.to/lastmile_qr_scan"}, "type": "electric_scooter", "name": "8d79a79ef38b972e0d16ba89d1d8504e", "is_reserved": 0, "lon": -77.01916833333334, "is_disabled": 0, "fusion_lat": 0.0, "lat": 38.922686166666665, "bike_id": "8d79a79ef38b972e0d16ba89d1d8504e", "fusion_lon": 0.0}, {"rental_uris": {"ios": "https://dc.lft.to/lastmile_qr_scan", "android": "https://dc.lft.to/lastmile_qr_scan"}, "type": "electric_scooter", "name": "bb4726e3cfb4fdbef8bc4683f1029f88", "is_reserved": 0, "lon": -77.03131983333333, "is_disabled": 0, "fusion_lat": 0.0, "lat": 38.923762333333336, "bike_id": "bb4726e3cfb4fdbef8bc4683f1029f88", "fusion_lon": 0.0}, {"rental_uris": {"ios": "https://dc.lft.to/lastmile_qr_scan", "android": "https://dc.lft.to/lastmile_qr_scan"}, "type": "electric_scooter", "name": "61ae2693b5027e608e33c0e5b4b0f0ae", "is_reserved": 0, "lon": -76.94663366666667, "is_disabled": 0, "fusion_lat": 0.0, "lat": 38.89870716666667, "bike_id": "61ae2693b5027e608e33c0e5b4b0f0ae", "fusion_lon": 0.0}, {"rental_uris": {"ios": "https://dc.lft.to/lastmile_qr_scan", "android": "https://dc.lft.to/lastmile_qr_scan"}, "type": "electric_scooter", "name": "0f135844ecb15de99de632d70337d549", "is_reserved": 0, "lon": -76.99717766666667, "is_disabled": 0, "fusion_lat": 0.0, "lat": 38.91109466666666, "bike_id": "0f135844ecb15de99de632d70337d549", "fusion_lon": 0.0}, {"rental_uris": {"ios": "https://dc.lft.to/lastmile_qr_scan", "android": "https://dc.lft.to/lastmile_qr_scan"}, "type": "electric_bike", "name": "74c94140ce8430624e3d678b7807f586", "is_reserved": 0, "lon": -77.07907666666667, "is_disabled": 0, "fusion_lat": 0.0, "lat": 38.83831433333334, "bike_id": "74c94140ce8430624e3d678b7807f586", "fusion_lon": 0.0}, {"rental_uris": {"ios": "https://dc.lft.to/lastmile_qr_scan", "android": "https://dc.lft.to/lastmile_qr_scan"}, "type": "electric_scooter", "name": "98dabbc9882edee1593332be1cf9ffa4", "is_reserved": 0, "lon": -77.036566, "is_disabled": 0, "fusion_lat": 0.0, "lat": 38.9359545, "bike_id": "98dabbc9882edee1593332be1cf9ffa4", "fusion_lon": 0.0}, {"rental_uris": {"ios": "https://dc.lft.to/lastmile_qr_scan", "android": "https://dc.lft.to/lastmile_qr_scan"}, "type": "electric_bike", "name": "4aaf90b58a89d06dc4b6999ed469bb81", "is_reserved": 0, "lon": -77.04070433333334, "is_disabled": 0, "fusion_lat": 0.0, "lat": 38.9938065, "bike_id": "4aaf90b58a89d06dc4b6999ed469bb81", "fusion_lon": 0.0}, {"rental_uris": {"ios": "https://dc.lft.to/lastmile_qr_scan", "android": "https://dc.lft.to/lastmile_qr_scan"}, "type": "electric_scooter", "name": "cb19c2e79d4ed0716d93dbb2923d4bac", "is_reserved": 0, "lon": -76.99958533333333, "is_disabled": 0, "fusion_lat": 0.0, "lat": 38.909113, "bike_id": "cb19c2e79d4ed0716d93dbb2923d4bac", "fusion_lon": 0.0}, {"rental_uris": {"ios": "https://dc.lft.to/lastmile_qr_scan", "android": "https://dc.lft.to/lastmile_qr_scan"}, "type": "electric_scooter", "name": "ab9997b6302e719f8093f5c77ae8856b", "is_reserved": 0, "lon": -77.02180766666666, "is_disabled": 0, "fusion_lat": 0.0, "lat": 38.91650516666667, "bike_id": "ab9997b6302e719f8093f5c77ae8856b", "fusion_lon": 0.0}, {"rental_uris": {"ios": "https://dc.lft.to/lastmile_qr_scan", "android": "https://dc.lft.to/lastmile_qr_scan"}, "type": "electric_scooter", "name": "71ff9393396cbd9a48605ab89169e257", "is_reserved": 0, "lon": -77.083951, "is_disabled": 0, "fusion_lat": 0.0, "lat": 38.908050833333334, "bike_id": "71ff9393396cbd9a48605ab89169e257", "fusion_lon": 0.0}, {"rental_uris": {"ios": "https://dc.lft.to/lastmile_qr_scan", "android": "https://dc.lft.to/lastmile_qr_scan"}, "type": "electric_scooter", "name": "4b98bc72f98cea01ed920ad0ea5dc2ca", "is_reserved": 0, "lon": -77.06701733333334, "is_disabled": 0, "fusion_lat": 0.0, "lat": 38.94801833333333, "bike_id": "4b98bc72f98cea01ed920ad0ea5dc2ca", "fusion_lon": 0.0}, {"rental_uris": {"ios": "https://dc.lft.to/lastmile_qr_scan", "android": "https://dc.lft.to/lastmile_qr_scan"}, "type": "electric_scooter", "name": "6a5c4c1b70e50afd695c6e5518aa9ade", "is_reserved": 0, "lon": -77.07356333333334, "is_disabled": 0, "fusion_lat": 0.0, "lat": 38.93739083333333, "bike_id": "6a5c4c1b70e50afd695c6e5518aa9ade", "fusion_lon": 0.0}, {"rental_uris": {"ios": "https://dc.lft.to/lastmile_qr_scan", "android": "https://dc.lft.to/lastmile_qr_scan"}, "type": "electric_bike", "name": "59030c2b56d8227a69d5b9abc88744c5", "is_reserved": 0, "lon": -76.9453905, "is_disabled": 0, "fusion_lat": 0.0, "lat": 38.9830255, "bike_id": "59030c2b56d8227a69d5b9abc88744c5", "fusion_lon": 0.0}, {"rental_uris": {"ios": "https://dc.lft.to/lastmile_qr_scan", "android": "https://dc.lft.to/lastmile_qr_scan"}, "type": "electric_scooter", "name": "3e5f9e8ca18025c73aca30f52a505568", "is_reserved": 0, "lon": -77.0437445, "is_disabled": 0, "fusion_lat": 0.0, "lat": 38.93501283333333, "bike_id": "3e5f9e8ca18025c73aca30f52a505568", "fusion_lon": 0.0}, {"rental_uris": {"ios": "https://dc.lft.to/lastmile_qr_scan", "android": "https://dc.lft.to/lastmile_qr_scan"}, "type": "electric_bike", "name": "b69b8d504c42ffb805abb531c56c6b56", "is_reserved": 0, "lon": -76.95240433333333, "is_disabled": 0, "fusion_lat": 0.0, "lat": 38.88466433333333, "bike_id": "b69b8d504c42ffb805abb531c56c6b56", "fusion_lon": 0.0}, {"rental_uris": {"ios": "https://dc.lft.to/lastmile_qr_scan", "android": "https://dc.lft.to/lastmile_qr_scan"}, "type": "electric_scooter", "name": "024270a2039b681b4c220c1c3c1b78fa", "is_reserved": 0, "lon": -77.025821, "is_disabled": 0, "fusion_lat": 0.0, "lat": 38.927826333333336, "bike_id": "024270a2039b681b4c220c1c3c1b78fa", "fusion_lon": 0.0}, {"rental_uris": {"ios": "https://dc.lft.to/lastmile_qr_scan", "android": "https://dc.lft.to/lastmile_qr_scan"}, "type": "electric_scooter", "name": "e5780ed2e65997a5243be441f8e5d7d0", "is_reserved": 0, "lon": -77.024866, "is_disabled": 0, "fusion_lat": 0.0, "lat": 38.89763883333333, "bike_id": "e5780ed2e65997a5243be441f8e5d7d0", "fusion_lon": 0.0}, {"rental_uris": {"ios": "https://dc.lft.to/lastmile_qr_scan", "android": "https://dc.lft.to/lastmile_qr_scan"}, "type": "electric_scooter", "name": "6811f787b900175f546d66687859d0de", "is_reserved": 0, "lon": -77.0332055, "is_disabled": 0, "fusion_lat": 0.0, "lat": 38.8988545, "bike_id": "6811f787b900175f546d66687859d0de", "fusion_lon": 0.0}, {"rental_uris": {"ios": "https://dc.lft.to/lastmile_qr_scan", "android": "https://dc.lft.to/lastmile_qr_scan"}, "type": "electric_scooter", "name": "851dd53131acb504a9288681703a390f", "is_reserved": 0, "lon": -77.03956316666667, "is_disabled": 0, "fusion_lat": 0.0, "lat": 38.901770166666665, "bike_id": "851dd53131acb504a9288681703a390f", "fusion_lon": 0.0}, {"rental_uris": {"ios": "https://dc.lft.to/lastmile_qr_scan", "android": "https://dc.lft.to/lastmile_qr_scan"}, "type": "electric_scooter", "name": "fe7bcb42ac7626e6d0feb2dd309f6345", "is_reserved": 0, "lon": -77.032044, "is_disabled": 0, "fusion_lat": 0.0, "lat": 38.91193533333333, "bike_id": "fe7bcb42ac7626e6d0feb2dd309f6345", "fusion_lon": 0.0}, {"rental_uris": {"ios": "https://dc.lft.to/lastmile_qr_scan", "android": "https://dc.lft.to/lastmile_qr_scan"}, "type": "electric_scooter", "name": "311668002a6d6042a722f34075b5e8cf", "is_reserved": 0, "lon": -77.03204233333334, "is_disabled": 0, "fusion_lat": 0.0, "lat": 38.9036785, "bike_id": "311668002a6d6042a722f34075b5e8cf", "fusion_lon": 0.0}, {"rental_uris": {"ios": "https://dc.lft.to/lastmile_qr_scan", "android": "https://dc.lft.to/lastmile_qr_scan"}, "type": "electric_scooter", "name": "fcffcdc3251fb383d794a2db9ce12950", "is_reserved": 0, "lon": -77.03324783333333, "is_disabled": 0, "fusion_lat": 0.0, "lat": 38.890138, "bike_id": "fcffcdc3251fb383d794a2db9ce12950", "fusion_lon": 0.0}, {"rental_uris": {"ios": "https://dc.lft.to/lastmile_qr_scan", "android": "https://dc.lft.to/lastmile_qr_scan"}, "type": "electric_scooter", "name": "4cb630868c35da08d5d2554a043e468b", "is_reserved": 0, "lon": -77.04327466666666, "is_disabled": 0, "fusion_lat": 0.0, "lat": 38.92208083333333, "bike_id": "4cb630868c35da08d5d2554a043e468b", "fusion_lon": 0.0}, {"rental_uris": {"ios": "https://dc.lft.to/lastmile_qr_scan", "android": "https://dc.lft.to/lastmile_qr_scan"}, "type": "electric_scooter", "name": "62de22dfd799b77ace906ff5b2306f0f", "is_reserved": 0, "lon": -77.024015, "is_disabled": 0, "fusion_lat": 0.0, "lat": 38.91756916666667, "bike_id": "62de22dfd799b77ace906ff5b2306f0f", "fusion_lon": 0.0}, {"rental_uris": {"ios": "https://dc.lft.to/lastmile_qr_scan", "android": "https://dc.lft.to/lastmile_qr_scan"}, "type": "electric_scooter", "name": "880cb68df3e8118fc642512e4253da0b", "is_reserved": 0, "lon": -77.04499966666667, "is_disabled": 0, "fusion_lat": 0.0, "lat": 38.89947, "bike_id": "880cb68df3e8118fc642512e4253da0b", "fusion_lon": 0.0}, {"rental_uris": {"ios": "https://dc.lft.to/lastmile_qr_scan", "android": "https://dc.lft.to/lastmile_qr_scan"}, "type": "electric_scooter", "name": "96b2d9198b7d97e1e5d29f79d3875aab", "is_reserved": 0, "lon": -77.03051, "is_disabled": 0, "fusion_lat": 0.0, "lat": 38.932075, "bike_id": "96b2d9198b7d97e1e5d29f79d3875aab", "fusion_lon": 0.0}, {"rental_uris": {"ios": "https://dc.lft.to/lastmile_qr_scan", "android": "https://dc.lft.to/lastmile_qr_scan"}, "type": "electric_scooter", "name": "bf1df59d41496cf5fc7c3cbb36a2916b", "is_reserved": 0, "lon": -77.061144, "is_disabled": 0, "fusion_lat": 0.0, "lat": 38.90500633333333, "bike_id": "bf1df59d41496cf5fc7c3cbb36a2916b", "fusion_lon": 0.0}, {"rental_uris": {"ios": "https://dc.lft.to/lastmile_qr_scan", "android": "https://dc.lft.to/lastmile_qr_scan"}, "type": "electric_scooter", "name": "82df9644e98c4cd6650f5a9c96f77c7e", "is_reserved": 0, "lon": -76.9994475, "is_disabled": 0, "fusion_lat": 0.0, "lat": 38.84261883333333, "bike_id": "82df9644e98c4cd6650f5a9c96f77c7e", "fusion_lon": 0.0}, {"rental_uris": {"ios": "https://dc.lft.to/lastmile_qr_scan", "android": "https://dc.lft.to/lastmile_qr_scan"}, "type": "electric_bike", "name": "4bccb972c58320900f9561eb3061c582", "is_reserved": 0, "lon": -77.024303, "is_disabled": 0, "fusion_lat": 0.0, "lat": 38.9336725, "bike_id": "4bccb972c58320900f9561eb3061c582", "fusion_lon": 0.0}, {"rental_uris": {"ios": "https://dc.lft.to/lastmile_qr_scan", "android": "https://dc.lft.to/lastmile_qr_scan"}, "type": "electric_scooter", "name": "3cd6dc36d4c216e3a7138bcd1453187d", "is_reserved": 0, "lon": -77.03806483333334, "is_disabled": 0, "fusion_lat": 0.0, "lat": 38.911841, "bike_id": "3cd6dc36d4c216e3a7138bcd1453187d", "fusion_lon": 0.0}, {"rental_uris": {"ios": "https://dc.lft.to/lastmile_qr_scan", "android": "https://dc.lft.to/lastmile_qr_scan"}, "type": "electric_scooter", "name": "8bc51a0960e787ba5dbb87072a097330", "is_reserved": 0, "lon": -77.03244766666667, "is_disabled": 0, "fusion_lat": 0.0, "lat": 38.9011365, "bike_id": "8bc51a0960e787ba5dbb87072a097330", "fusion_lon": 0.0}, {"rental_uris": {"ios": "https://dc.lft.to/lastmile_qr_scan", "android": "https://dc.lft.to/lastmile_qr_scan"}, "type": "electric_scooter", "name": "9f5073ebe1009a404af55c33ff96b04b", "is_reserved": 0, "lon": -77.01230016666666, "is_disabled": 0, "fusion_lat": 0.0, "lat": 38.88110116666667, "bike_id": "9f5073ebe1009a404af55c33ff96b04b", "fusion_lon": 0.0}, {"rental_uris": {"ios": "https://dc.lft.to/lastmile_qr_scan", "android": "https://dc.lft.to/lastmile_qr_scan"}, "type": "electric_scooter", "name": "4d573b6d2e43c309342d4361e260a784", "is_reserved": 0, "lon": -77.05820366666667, "is_disabled": 0, "fusion_lat": 0.0, "lat": 38.905142, "bike_id": "4d573b6d2e43c309342d4361e260a784", "fusion_lon": 0.0}, {"rental_uris": {"ios": "https://dc.lft.to/lastmile_qr_scan", "android": "https://dc.lft.to/lastmile_qr_scan"}, "type": "electric_scooter", "name": "54d1c087bb1730a17b1e699db4badc1a", "is_reserved": 0, "lon": -77.02358966666667, "is_disabled": 0, "fusion_lat": 0.0, "lat": 38.879141833333335, "bike_id": "54d1c087bb1730a17b1e699db4badc1a", "fusion_lon": 0.0}, {"rental_uris": {"ios": "https://dc.lft.to/lastmile_qr_scan", "android": "https://dc.lft.to/lastmile_qr_scan"}, "type": "electric_scooter", "name": "0c04edee6614fdf85f64aa7d6350396d", "is_reserved": 0, "lon": -77.0147665, "is_disabled": 0, "fusion_lat": 0.0, "lat": 38.943340666666664, "bike_id": "0c04edee6614fdf85f64aa7d6350396d", "fusion_lon": 0.0}, {"rental_uris": {"ios": "https://dc.lft.to/lastmile_qr_scan", "android": "https://dc.lft.to/lastmile_qr_scan"}, "type": "electric_scooter", "name": "287bf24e60047939a7c26c4bf017c1d2", "is_reserved": 0, "lon": -77.01224233333333, "is_disabled": 0, "fusion_lat": 0.0, "lat": 38.9008365, "bike_id": "287bf24e60047939a7c26c4bf017c1d2", "fusion_lon": 0.0}, {"rental_uris": {"ios": "https://dc.lft.to/lastmile_qr_scan", "android": "https://dc.lft.to/lastmile_qr_scan"}, "type": "electric_scooter", "name": "60ee054408b6211eb82df749ef9d84b4", "is_reserved": 0, "lon": -77.044609, "is_disabled": 0, "fusion_lat": 0.0, "lat": 38.909905, "bike_id": "60ee054408b6211eb82df749ef9d84b4", "fusion_lon": 0.0}, {"rental_uris": {"ios": "https://dc.lft.to/lastmile_qr_scan", "android": "https://dc.lft.to/lastmile_qr_scan"}, "type": "electric_scooter", "name": "9cf69703c00aeaf8c3d40a485e6432f2", "is_reserved": 0, "lon": -77.01728783333333, "is_disabled": 0, "fusion_lat": 0.0, "lat": 38.88746916666667, "bike_id": "9cf69703c00aeaf8c3d40a485e6432f2", "fusion_lon": 0.0}, {"rental_uris": {"ios": "https://dc.lft.to/lastmile_qr_scan", "android": "https://dc.lft.to/lastmile_qr_scan"}, "type": "electric_scooter", "name": "03934c4ebe0495d6c2a262f087425958", "is_reserved": 0, "lon": -77.03064466666666, "is_disabled": 0, "fusion_lat": 0.0, "lat": 38.92476333333333, "bike_id": "03934c4ebe0495d6c2a262f087425958", "fusion_lon": 0.0}, {"rental_uris": {"ios": "https://dc.lft.to/lastmile_qr_scan", "android": "https://dc.lft.to/lastmile_qr_scan"}, "type": "electric_scooter", "name": "405fbdd80756262aeab4c2738aefd772", "is_reserved": 0, "lon": -76.9957225, "is_disabled": 0, "fusion_lat": 0.0, "lat": 38.86267266666667, "bike_id": "405fbdd80756262aeab4c2738aefd772", "fusion_lon": 0.0}, {"rental_uris": {"ios": "https://dc.lft.to/lastmile_qr_scan", "android": "https://dc.lft.to/lastmile_qr_scan"}, "type": "electric_scooter", "name": "efa59b90126c2ad916e47fe9585a4cb6", "is_reserved": 0, "lon": -77.04159683333333, "is_disabled": 0, "fusion_lat": 0.0, "lat": 38.9195435, "bike_id": "efa59b90126c2ad916e47fe9585a4cb6", "fusion_lon": 0.0}, {"rental_uris": {"ios": "https://dc.lft.to/lastmile_qr_scan", "android": "https://dc.lft.to/lastmile_qr_scan"}, "type": "electric_scooter", "name": "e0c83933678376967e55c1ea4ef464f3", "is_reserved": 0, "lon": -76.93378633333333, "is_disabled": 0, "fusion_lat": 0.0, "lat": 38.899101, "bike_id": "e0c83933678376967e55c1ea4ef464f3", "fusion_lon": 0.0}, {"rental_uris": {"ios": "https://dc.lft.to/lastmile_qr_scan", "android": "https://dc.lft.to/lastmile_qr_scan"}, "type": "electric_scooter", "name": "e70970312b0253d9df264b776a8ac872", "is_reserved": 0, "lon": -76.994865, "is_disabled": 0, "fusion_lat": 0.0, "lat": 38.8773675, "bike_id": "e70970312b0253d9df264b776a8ac872", "fusion_lon": 0.0}, {"rental_uris": {"ios": "https://dc.lft.to/lastmile_qr_scan", "android": "https://dc.lft.to/lastmile_qr_scan"}, "type": "electric_scooter", "name": "9ba8bfc0b7548e927f8f7a036aba7852", "is_reserved": 0, "lon": -77.00792666666666, "is_disabled": 0, "fusion_lat": 0.0, "lat": 38.89717783333333, "bike_id": "9ba8bfc0b7548e927f8f7a036aba7852", "fusion_lon": 0.0}, {"rental_uris": {"ios": "https://dc.lft.to/lastmile_qr_scan", "android": "https://dc.lft.to/lastmile_qr_scan"}, "type": "electric_scooter", "name": "5f8f892715b2390e0b98a306651d49ff", "is_reserved": 0, "lon": -77.06692066666666, "is_disabled": 0, "fusion_lat": 0.0, "lat": 38.9037615, "bike_id": "5f8f892715b2390e0b98a306651d49ff", "fusion_lon": 0.0}, {"rental_uris": {"ios": "https://dc.lft.to/lastmile_qr_scan", "android": "https://dc.lft.to/lastmile_qr_scan"}, "type": "electric_scooter", "name": "fd4871f6ee18e55a4a6493a4f3f2e514", "is_reserved": 0, "lon": -76.99321183333333, "is_disabled": 0, "fusion_lat": 0.0, "lat": 38.8764265, "bike_id": "fd4871f6ee18e55a4a6493a4f3f2e514", "fusion_lon": 0.0}, {"rental_uris": {"ios": "https://dc.lft.to/lastmile_qr_scan", "android": "https://dc.lft.to/lastmile_qr_scan"}, "type": "electric_scooter", "name": "de7461f57d1a5479a6ad01e4c9f42e1e", "is_reserved": 0, "lon": -77.04329766666666, "is_disabled": 0, "fusion_lat": 0.0, "lat": 38.89224433333333, "bike_id": "de7461f57d1a5479a6ad01e4c9f42e1e", "fusion_lon": 0.0}, {"rental_uris": {"ios": "https://dc.lft.to/lastmile_qr_scan", "android": "https://dc.lft.to/lastmile_qr_scan"}, "type": "electric_scooter", "name": "2dadb054da548da1f291c46ae075512a", "is_reserved": 0, "lon": -77.02718783333333, "is_disabled": 0, "fusion_lat": 0.0, "lat": 38.9357635, "bike_id": "2dadb054da548da1f291c46ae075512a", "fusion_lon": 0.0}, {"rental_uris": {"ios": "https://dc.lft.to/lastmile_qr_scan", "android": "https://dc.lft.to/lastmile_qr_scan"}, "type": "electric_scooter", "name": "5179d1b0ba2680d2779da964b510998a", "is_reserved": 0, "lon": -77.03246, "is_disabled": 0, "fusion_lat": 0.0, "lat": 38.920638, "bike_id": "5179d1b0ba2680d2779da964b510998a", "fusion_lon": 0.0}, {"rental_uris": {"ios": "https://dc.lft.to/lastmile_qr_scan", "android": "https://dc.lft.to/lastmile_qr_scan"}, "type": "electric_scooter", "name": "6cbba0f4113e9e7c40cccc35be24815b", "is_reserved": 0, "lon": -77.00292116666667, "is_disabled": 0, "fusion_lat": 0.0, "lat": 38.905645666666665, "bike_id": "6cbba0f4113e9e7c40cccc35be24815b", "fusion_lon": 0.0}, {"rental_uris": {"ios": "https://dc.lft.to/lastmile_qr_scan", "android": "https://dc.lft.to/lastmile_qr_scan"}, "type": "electric_scooter", "name": "9d3b0b0e68b51746dd85f417f64b5d8c", "is_reserved": 0, "lon": -77.03879133333334, "is_disabled": 0, "fusion_lat": 0.0, "lat": 38.9250735, "bike_id": "9d3b0b0e68b51746dd85f417f64b5d8c", "fusion_lon": 0.0}, {"rental_uris": {"ios": "https://dc.lft.to/lastmile_qr_scan", "android": "https://dc.lft.to/lastmile_qr_scan"}, "type": "electric_scooter", "name": "81a51b4f9e89d3473c71d4e652f4c2d3", "is_reserved": 0, "lon": -77.03860133333333, "is_disabled": 0, "fusion_lat": 0.0, "lat": 38.91686966666666, "bike_id": "81a51b4f9e89d3473c71d4e652f4c2d3", "fusion_lon": 0.0}, {"rental_uris": {"ios": "https://dc.lft.to/lastmile_qr_scan", "android": "https://dc.lft.to/lastmile_qr_scan"}, "type": "electric_scooter", "name": "e7dc7d7e078dcdefdc03abfaf8ee2fa6", "is_reserved": 0, "lon": -77.0399825, "is_disabled": 0, "fusion_lat": 0.0, "lat": 38.914122666666664, "bike_id": "e7dc7d7e078dcdefdc03abfaf8ee2fa6", "fusion_lon": 0.0}, {"rental_uris": {"ios": "https://dc.lft.to/lastmile_qr_scan", "android": "https://dc.lft.to/lastmile_qr_scan"}, "type": "electric_scooter", "name": "b31d9061dca0cd555ca8a132b8637c9a", "is_reserved": 0, "lon": -77.01952516666667, "is_disabled": 0, "fusion_lat": 0.0, "lat": 38.92253383333333, "bike_id": "b31d9061dca0cd555ca8a132b8637c9a", "fusion_lon": 0.0}, {"rental_uris": {"ios": "https://dc.lft.to/lastmile_qr_scan", "android": "https://dc.lft.to/lastmile_qr_scan"}, "type": "electric_bike", "name": "bf64b9b241dd09f164e4f7257a7c5d8c", "is_reserved": 0, "lon": -76.99498, "is_disabled": 0, "fusion_lat": 0.0, "lat": 38.8621845, "bike_id": "bf64b9b241dd09f164e4f7257a7c5d8c", "fusion_lon": 0.0}, {"rental_uris": {"ios": "https://dc.lft.to/lastmile_qr_scan", "android": "https://dc.lft.to/lastmile_qr_scan"}, "type": "electric_scooter", "name": "7f7e1c597a59c3df4e730b4ecedb9a4c", "is_reserved": 0, "lon": -77.03327416666667, "is_disabled": 0, "fusion_lat": 0.0, "lat": 38.89893, "bike_id": "7f7e1c597a59c3df4e730b4ecedb9a4c", "fusion_lon": 0.0}, {"rental_uris": {"ios": "https://dc.lft.to/lastmile_qr_scan", "android": "https://dc.lft.to/lastmile_qr_scan"}, "type": "electric_scooter", "name": "2045bcccc1ea8fc5efa96da985612f39", "is_reserved": 0, "lon": -77.038622, "is_disabled": 0, "fusion_lat": 0.0, "lat": 38.91692283333333, "bike_id": "2045bcccc1ea8fc5efa96da985612f39", "fusion_lon": 0.0}, {"rental_uris": {"ios": "https://dc.lft.to/lastmile_qr_scan", "android": "https://dc.lft.to/lastmile_qr_scan"}, "type": "electric_bike", "name": "efc65aeb7488bc7f08ff575bf513de4c", "is_reserved": 0, "lon": -76.9074285, "is_disabled": 0, "fusion_lat": 0.0, "lat": 38.896179000000004, "bike_id": "efc65aeb7488bc7f08ff575bf513de4c", "fusion_lon": 0.0}, {"rental_uris": {"ios": "https://dc.lft.to/lastmile_qr_scan", "android": "https://dc.lft.to/lastmile_qr_scan"}, "type": "electric_scooter", "name": "853ce5f05f6ffc5465548b10325f1c64", "is_reserved": 0, "lon": -77.024003, "is_disabled": 0, "fusion_lat": 0.0, "lat": 38.9196615, "bike_id": "853ce5f05f6ffc5465548b10325f1c64", "fusion_lon": 0.0}, {"rental_uris": {"ios": "https://dc.lft.to/lastmile_qr_scan", "android": "https://dc.lft.to/lastmile_qr_scan"}, "type": "electric_scooter", "name": "9400b0ef5de5dc1cef94c36958832923", "is_reserved": 0, "lon": -77.02268483333333, "is_disabled": 0, "fusion_lat": 0.0, "lat": 38.9241055, "bike_id": "9400b0ef5de5dc1cef94c36958832923", "fusion_lon": 0.0}, {"rental_uris": {"ios": "https://dc.lft.to/lastmile_qr_scan", "android": "https://dc.lft.to/lastmile_qr_scan"}, "type": "electric_scooter", "name": "2a4feed2d7fd1735d430af4ca2dbac3a", "is_reserved": 0, "lon": -77.04099866666667, "is_disabled": 0, "fusion_lat": 0.0, "lat": 38.92371333333333, "bike_id": "2a4feed2d7fd1735d430af4ca2dbac3a", "fusion_lon": 0.0}, {"rental_uris": {"ios": "https://dc.lft.to/lastmile_qr_scan", "android": "https://dc.lft.to/lastmile_qr_scan"}, "type": "electric_scooter", "name": "f93cf5646cbccd4aa986404b50444cee", "is_reserved": 0, "lon": -77.0242985, "is_disabled": 0, "fusion_lat": 0.0, "lat": 38.92323416666667, "bike_id": "f93cf5646cbccd4aa986404b50444cee", "fusion_lon": 0.0}, {"rental_uris": {"ios": "https://dc.lft.to/lastmile_qr_scan", "android": "https://dc.lft.to/lastmile_qr_scan"}, "type": "electric_scooter", "name": "eaa42a8731664a00d785a5d3c9c0dc88", "is_reserved": 0, "lon": -77.0398745, "is_disabled": 0, "fusion_lat": 0.0, "lat": 38.892254666666666, "bike_id": "eaa42a8731664a00d785a5d3c9c0dc88", "fusion_lon": 0.0}, {"rental_uris": {"ios": "https://dc.lft.to/lastmile_qr_scan", "android": "https://dc.lft.to/lastmile_qr_scan"}, "type": "electric_scooter", "name": "07d08a8d9ce0936d8c62bdcd3b85b236", "is_reserved": 0, "lon": -76.93704016666666, "is_disabled": 0, "fusion_lat": 0.0, "lat": 38.890253, "bike_id": "07d08a8d9ce0936d8c62bdcd3b85b236", "fusion_lon": 0.0}, {"rental_uris": {"ios": "https://dc.lft.to/lastmile_qr_scan", "android": "https://dc.lft.to/lastmile_qr_scan"}, "type": "electric_bike", "name": "342e056e2385945cd02c60a144e9a128", "is_reserved": 0, "lon": -77.02956783333333, "is_disabled": 0, "fusion_lat": 0.0, "lat": 38.911554333333335, "bike_id": "342e056e2385945cd02c60a144e9a128", "fusion_lon": 0.0}, {"rental_uris": {"ios": "https://dc.lft.to/lastmile_qr_scan", "android": "https://dc.lft.to/lastmile_qr_scan"}, "type": "electric_scooter", "name": "94aff18e6680ec26bb58a7a1d4d71680", "is_reserved": 0, "lon": -77.05864966666667, "is_disabled": 0, "fusion_lat": 0.0, "lat": 38.942412833333336, "bike_id": "94aff18e6680ec26bb58a7a1d4d71680", "fusion_lon": 0.0}, {"rental_uris": {"ios": "https://dc.lft.to/lastmile_qr_scan", "android": "https://dc.lft.to/lastmile_qr_scan"}, "type": "electric_scooter", "name": "7e06c47d4b2f08ef8099ebe242b9e717", "is_reserved": 0, "lon": -77.067688, "is_disabled": 0, "fusion_lat": 0.0, "lat": 38.904071333333334, "bike_id": "7e06c47d4b2f08ef8099ebe242b9e717", "fusion_lon": 0.0}, {"rental_uris": {"ios": "https://dc.lft.to/lastmile_qr_scan", "android": "https://dc.lft.to/lastmile_qr_scan"}, "type": "electric_scooter", "name": "9634a4eeb63214bb14c3f7359cb4207a", "is_reserved": 0, "lon": -77.0193835, "is_disabled": 0, "fusion_lat": 0.0, "lat": 38.923761999999996, "bike_id": "9634a4eeb63214bb14c3f7359cb4207a", "fusion_lon": 0.0}, {"rental_uris": {"ios": "https://dc.lft.to/lastmile_qr_scan", "android": "https://dc.lft.to/lastmile_qr_scan"}, "type": "electric_scooter", "name": "2cff8c7d16880385b89c37ef6c526294", "is_reserved": 0, "lon": -77.04219816666667, "is_disabled": 0, "fusion_lat": 0.0, "lat": 38.92309216666666, "bike_id": "2cff8c7d16880385b89c37ef6c526294", "fusion_lon": 0.0}, {"rental_uris": {"ios": "https://dc.lft.to/lastmile_qr_scan", "android": "https://dc.lft.to/lastmile_qr_scan"}, "type": "electric_scooter", "name": "8f96341ec93df3b3f18a28869182319e", "is_reserved": 0, "lon": -77.03127166666667, "is_disabled": 0, "fusion_lat": 0.0, "lat": 38.92105733333333, "bike_id": "8f96341ec93df3b3f18a28869182319e", "fusion_lon": 0.0}, {"rental_uris": {"ios": "https://dc.lft.to/lastmile_qr_scan", "android": "https://dc.lft.to/lastmile_qr_scan"}, "type": "electric_scooter", "name": "37ae17af4bb358d0106fffa307baa794", "is_reserved": 0, "lon": -77.03912583333333, "is_disabled": 0, "fusion_lat": 0.0, "lat": 38.924368333333334, "bike_id": "37ae17af4bb358d0106fffa307baa794", "fusion_lon": 0.0}, {"rental_uris": {"ios": "https://dc.lft.to/lastmile_qr_scan", "android": "https://dc.lft.to/lastmile_qr_scan"}, "type": "electric_scooter", "name": "b2d149b386d70756bcda42dac479517a", "is_reserved": 0, "lon": -77.01835383333334, "is_disabled": 0, "fusion_lat": 0.0, "lat": 38.91535583333334, "bike_id": "b2d149b386d70756bcda42dac479517a", "fusion_lon": 0.0}, {"rental_uris": {"ios": "https://dc.lft.to/lastmile_qr_scan", "android": "https://dc.lft.to/lastmile_qr_scan"}, "type": "electric_scooter", "name": "383668ba6cc49da4b087e4b5f30d6a34", "is_reserved": 0, "lon": -76.99518633333334, "is_disabled": 0, "fusion_lat": 0.0, "lat": 38.883736166666665, "bike_id": "383668ba6cc49da4b087e4b5f30d6a34", "fusion_lon": 0.0}, {"rental_uris": {"ios": "https://dc.lft.to/lastmile_qr_scan", "android": "https://dc.lft.to/lastmile_qr_scan"}, "type": "electric_scooter", "name": "63f56ebb95a4a65197f05fd4725294f8", "is_reserved": 0, "lon": -77.02248083333333, "is_disabled": 0, "fusion_lat": 0.0, "lat": 38.95650966666667, "bike_id": "63f56ebb95a4a65197f05fd4725294f8", "fusion_lon": 0.0}, {"rental_uris": {"ios": "https://dc.lft.to/lastmile_qr_scan", "android": "https://dc.lft.to/lastmile_qr_scan"}, "type": "electric_scooter", "name": "45df7045f1ed99c20791fcd3772d5e10", "is_reserved": 0, "lon": -76.99490433333334, "is_disabled": 0, "fusion_lat": 0.0, "lat": 38.92609483333333, "bike_id": "45df7045f1ed99c20791fcd3772d5e10", "fusion_lon": 0.0}, {"rental_uris": {"ios": "https://dc.lft.to/lastmile_qr_scan", "android": "https://dc.lft.to/lastmile_qr_scan"}, "type": "electric_scooter", "name": "202a1f3c0a6a5eda84a9efe1888c24cc", "is_reserved": 0, "lon": -77.0247485, "is_disabled": 0, "fusion_lat": 0.0, "lat": 38.901667, "bike_id": "202a1f3c0a6a5eda84a9efe1888c24cc", "fusion_lon": 0.0}, {"rental_uris": {"ios": "https://dc.lft.to/lastmile_qr_scan", "android": "https://dc.lft.to/lastmile_qr_scan"}, "type": "electric_scooter", "name": "e8404eb6e721a93058800f84f830c7a6", "is_reserved": 0, "lon": -77.04191783333333, "is_disabled": 0, "fusion_lat": 0.0, "lat": 38.92205966666667, "bike_id": "e8404eb6e721a93058800f84f830c7a6", "fusion_lon": 0.0}, {"rental_uris": {"ios": "https://dc.lft.to/lastmile_qr_scan", "android": "https://dc.lft.to/lastmile_qr_scan"}, "type": "electric_scooter", "name": "cf9d29ea1510cf136963c32a726e724d", "is_reserved": 0, "lon": -76.99596116666666, "is_disabled": 0, "fusion_lat": 0.0, "lat": 38.877686, "bike_id": "cf9d29ea1510cf136963c32a726e724d", "fusion_lon": 0.0}, {"rental_uris": {"ios": "https://dc.lft.to/lastmile_qr_scan", "android": "https://dc.lft.to/lastmile_qr_scan"}, "type": "electric_scooter", "name": "a69827d82fc79be08aa941061b18a736", "is_reserved": 0, "lon": -77.04646983333333, "is_disabled": 0, "fusion_lat": 0.0, "lat": 38.9196595, "bike_id": "a69827d82fc79be08aa941061b18a736", "fusion_lon": 0.0}, {"rental_uris": {"ios": "https://dc.lft.to/lastmile_qr_scan", "android": "https://dc.lft.to/lastmile_qr_scan"}, "type": "electric_scooter", "name": "c529f3baa2a8e68f31f9142cb0bf0888", "is_reserved": 0, "lon": -77.04987066666666, "is_disabled": 0, "fusion_lat": 0.0, "lat": 38.90078783333333, "bike_id": "c529f3baa2a8e68f31f9142cb0bf0888", "fusion_lon": 0.0}, {"rental_uris": {"ios": "https://dc.lft.to/lastmile_qr_scan", "android": "https://dc.lft.to/lastmile_qr_scan"}, "type": "electric_scooter", "name": "a2c91def2af7477b2516db9a78de2dce", "is_reserved": 0, "lon": -77.020923, "is_disabled": 0, "fusion_lat": 0.0, "lat": 38.881888000000004, "bike_id": "a2c91def2af7477b2516db9a78de2dce", "fusion_lon": 0.0}, {"rental_uris": {"ios": "https://dc.lft.to/lastmile_qr_scan", "android": "https://dc.lft.to/lastmile_qr_scan"}, "type": "electric_scooter", "name": "2c0a54ae38f3fee111b1b718819e94a3", "is_reserved": 0, "lon": -77.01985233333333, "is_disabled": 0, "fusion_lat": 0.0, "lat": 38.93057266666667, "bike_id": "2c0a54ae38f3fee111b1b718819e94a3", "fusion_lon": 0.0}, {"rental_uris": {"ios": "https://dc.lft.to/lastmile_qr_scan", "android": "https://dc.lft.to/lastmile_qr_scan"}, "type": "electric_scooter", "name": "367032a31c66c39e6c5b445c3deed07f", "is_reserved": 0, "lon": -77.009165, "is_disabled": 0, "fusion_lat": 0.0, "lat": 38.88191716666667, "bike_id": "367032a31c66c39e6c5b445c3deed07f", "fusion_lon": 0.0}, {"rental_uris": {"ios": "https://dc.lft.to/lastmile_qr_scan", "android": "https://dc.lft.to/lastmile_qr_scan"}, "type": "electric_scooter", "name": "7c40781baed56bee99696fbcdf12d1a0", "is_reserved": 0, "lon": -77.026, "is_disabled": 0, "fusion_lat": 0.0, "lat": 38.91957, "bike_id": "7c40781baed56bee99696fbcdf12d1a0", "fusion_lon": 0.0}, {"rental_uris": {"ios": "https://dc.lft.to/lastmile_qr_scan", "android": "https://dc.lft.to/lastmile_qr_scan"}, "type": "electric_scooter", "name": "20dd585fb86b29ea580806df42fdde2f", "is_reserved": 0, "lon": -77.02123316666666, "is_disabled": 0, "fusion_lat": 0.0, "lat": 38.922480666666665, "bike_id": "20dd585fb86b29ea580806df42fdde2f", "fusion_lon": 0.0}, {"rental_uris": {"ios": "https://dc.lft.to/lastmile_qr_scan", "android": "https://dc.lft.to/lastmile_qr_scan"}, "type": "electric_scooter", "name": "17dac89c8b287cf0cd6f6728a3e876b7", "is_reserved": 0, "lon": -77.02715066666667, "is_disabled": 0, "fusion_lat": 0.0, "lat": 38.90565266666667, "bike_id": "17dac89c8b287cf0cd6f6728a3e876b7", "fusion_lon": 0.0}, {"rental_uris": {"ios": "https://dc.lft.to/lastmile_qr_scan", "android": "https://dc.lft.to/lastmile_qr_scan"}, "type": "electric_bike", "name": "1b6469d3aeda06bef247d8e799c0d042", "is_reserved": 0, "lon": -77.00380233333334, "is_disabled": 0, "fusion_lat": 0.0, "lat": 38.83610083333333, "bike_id": "1b6469d3aeda06bef247d8e799c0d042", "fusion_lon": 0.0}, {"rental_uris": {"ios": "https://dc.lft.to/lastmile_qr_scan", "android": "https://dc.lft.to/lastmile_qr_scan"}, "type": "electric_scooter", "name": "be103d45a722c48e47818ca888a025ba", "is_reserved": 0, "lon": -77.0366735, "is_disabled": 0, "fusion_lat": 0.0, "lat": 38.912695166666666, "bike_id": "be103d45a722c48e47818ca888a025ba", "fusion_lon": 0.0}, {"rental_uris": {"ios": "https://dc.lft.to/lastmile_qr_scan", "android": "https://dc.lft.to/lastmile_qr_scan"}, "type": "electric_scooter", "name": "eaa1d63297bbd025f5b2eb100147e1c6", "is_reserved": 0, "lon": -77.0386775, "is_disabled": 0, "fusion_lat": 0.0, "lat": 38.91117083333334, "bike_id": "eaa1d63297bbd025f5b2eb100147e1c6", "fusion_lon": 0.0}, {"rental_uris": {"ios": "https://dc.lft.to/lastmile_qr_scan", "android": "https://dc.lft.to/lastmile_qr_scan"}, "type": "electric_scooter", "name": "a79f92c0f452af9dd74084fcc8e17a1d", "is_reserved": 0, "lon": -77.051504, "is_disabled": 0, "fusion_lat": 0.0, "lat": 38.905451166666666, "bike_id": "a79f92c0f452af9dd74084fcc8e17a1d", "fusion_lon": 0.0}, {"rental_uris": {"ios": "https://dc.lft.to/lastmile_qr_scan", "android": "https://dc.lft.to/lastmile_qr_scan"}, "type": "electric_scooter", "name": "0eeb45c99fe3717533140e8b8731a0f3", "is_reserved": 0, "lon": -77.0320195, "is_disabled": 0, "fusion_lat": 0.0, "lat": 38.917914, "bike_id": "0eeb45c99fe3717533140e8b8731a0f3", "fusion_lon": 0.0}, {"rental_uris": {"ios": "https://dc.lft.to/lastmile_qr_scan", "android": "https://dc.lft.to/lastmile_qr_scan"}, "type": "electric_scooter", "name": "1eb910e81f08fab11bfc441ab78f94af", "is_reserved": 0, "lon": -76.92586833333333, "is_disabled": 0, "fusion_lat": 0.0, "lat": 38.897655666666665, "bike_id": "1eb910e81f08fab11bfc441ab78f94af", "fusion_lon": 0.0}, {"rental_uris": {"ios": "https://dc.lft.to/lastmile_qr_scan", "android": "https://dc.lft.to/lastmile_qr_scan"}, "type": "electric_scooter", "name": "ad9cbcac34656dc8109f3095149b107d", "is_reserved": 0, "lon": -76.996214, "is_disabled": 0, "fusion_lat": 0.0, "lat": 38.93165166666667, "bike_id": "ad9cbcac34656dc8109f3095149b107d", "fusion_lon": 0.0}, {"rental_uris": {"ios": "https://dc.lft.to/lastmile_qr_scan", "android": "https://dc.lft.to/lastmile_qr_scan"}, "type": "electric_scooter", "name": "5964adfe297b767a26d20d845290ffe4", "is_reserved": 0, "lon": -77.0487065, "is_disabled": 0, "fusion_lat": 0.0, "lat": 38.89233566666667, "bike_id": "5964adfe297b767a26d20d845290ffe4", "fusion_lon": 0.0}, {"rental_uris": {"ios": "https://dc.lft.to/lastmile_qr_scan", "android": "https://dc.lft.to/lastmile_qr_scan"}, "type": "electric_scooter", "name": "f36187a2c4c8d9a2dedc7801c04719b3", "is_reserved": 0, "lon": -77.03206666666667, "is_disabled": 0, "fusion_lat": 0.0, "lat": 38.91428966666667, "bike_id": "f36187a2c4c8d9a2dedc7801c04719b3", "fusion_lon": 0.0}, {"rental_uris": {"ios": "https://dc.lft.to/lastmile_qr_scan", "android": "https://dc.lft.to/lastmile_qr_scan"}, "type": "electric_scooter", "name": "53bfa92d0ff74d16e74f66ade6816327", "is_reserved": 0, "lon": -77.042703, "is_disabled": 0, "fusion_lat": 0.0, "lat": 38.91789, "bike_id": "53bfa92d0ff74d16e74f66ade6816327", "fusion_lon": 0.0}, {"rental_uris": {"ios": "https://dc.lft.to/lastmile_qr_scan", "android": "https://dc.lft.to/lastmile_qr_scan"}, "type": "electric_scooter", "name": "cc6432924c109d3742b0fb2cf1b772e4", "is_reserved": 0, "lon": -77.0339095, "is_disabled": 0, "fusion_lat": 0.0, "lat": 38.93848166666667, "bike_id": "cc6432924c109d3742b0fb2cf1b772e4", "fusion_lon": 0.0}, {"rental_uris": {"ios": "https://dc.lft.to/lastmile_qr_scan", "android": "https://dc.lft.to/lastmile_qr_scan"}, "type": "electric_scooter", "name": "c60644dfe4da0af6eb9c590ece32cef7", "is_reserved": 0, "lon": -77.022104, "is_disabled": 0, "fusion_lat": 0.0, "lat": 38.8789675, "bike_id": "c60644dfe4da0af6eb9c590ece32cef7", "fusion_lon": 0.0}, {"rental_uris": {"ios": "https://dc.lft.to/lastmile_qr_scan", "android": "https://dc.lft.to/lastmile_qr_scan"}, "type": "electric_scooter", "name": "faef6e8e73088cd171a5cabec9951600", "is_reserved": 0, "lon": -77.02367966666667, "is_disabled": 0, "fusion_lat": 0.0, "lat": 38.931585166666665, "bike_id": "faef6e8e73088cd171a5cabec9951600", "fusion_lon": 0.0}, {"rental_uris": {"ios": "https://dc.lft.to/lastmile_qr_scan", "android": "https://dc.lft.to/lastmile_qr_scan"}, "type": "electric_scooter", "name": "0d93e133568b07fc2597eb0d00d74292", "is_reserved": 0, "lon": -77.019803, "is_disabled": 0, "fusion_lat": 0.0, "lat": 38.95214216666667, "bike_id": "0d93e133568b07fc2597eb0d00d74292", "fusion_lon": 0.0}, {"rental_uris": {"ios": "https://dc.lft.to/lastmile_qr_scan", "android": "https://dc.lft.to/lastmile_qr_scan"}, "type": "electric_scooter", "name": "da841a128048c74ffb59dd7630d99d33", "is_reserved": 0, "lon": -77.0654565, "is_disabled": 0, "fusion_lat": 0.0, "lat": 38.905165833333335, "bike_id": "da841a128048c74ffb59dd7630d99d33", "fusion_lon": 0.0}, {"rental_uris": {"ios": "https://dc.lft.to/lastmile_qr_scan", "android": "https://dc.lft.to/lastmile_qr_scan"}, "type": "electric_scooter", "name": "7e573ac6c652f3b2d816d0d33a977ab5", "is_reserved": 0, "lon": -77.04675966666667, "is_disabled": 0, "fusion_lat": 0.0, "lat": 38.89236183333333, "bike_id": "7e573ac6c652f3b2d816d0d33a977ab5", "fusion_lon": 0.0}, {"rental_uris": {"ios": "https://dc.lft.to/lastmile_qr_scan", "android": "https://dc.lft.to/lastmile_qr_scan"}, "type": "electric_scooter", "name": "b319178c5783abd54168451687301113", "is_reserved": 0, "lon": -77.032641, "is_disabled": 0, "fusion_lat": 0.0, "lat": 38.93238933333333, "bike_id": "b319178c5783abd54168451687301113", "fusion_lon": 0.0}, {"rental_uris": {"ios": "https://dc.lft.to/lastmile_qr_scan", "android": "https://dc.lft.to/lastmile_qr_scan"}, "type": "electric_scooter", "name": "cd9f03ffb8bb50b40739a42ede01c41e", "is_reserved": 0, "lon": -77.050244, "is_disabled": 0, "fusion_lat": 0.0, "lat": 38.9105385, "bike_id": "cd9f03ffb8bb50b40739a42ede01c41e", "fusion_lon": 0.0}, {"rental_uris": {"ios": "https://dc.lft.to/lastmile_qr_scan", "android": "https://dc.lft.to/lastmile_qr_scan"}, "type": "electric_scooter", "name": "44e692a0cdabf6fdc935a92fa1cda21b", "is_reserved": 0, "lon": -77.022011, "is_disabled": 0, "fusion_lat": 0.0, "lat": 38.921646, "bike_id": "44e692a0cdabf6fdc935a92fa1cda21b", "fusion_lon": 0.0}, {"rental_uris": {"ios": "https://dc.lft.to/lastmile_qr_scan", "android": "https://dc.lft.to/lastmile_qr_scan"}, "type": "electric_scooter", "name": "af10a3e5e1a2d85df893210e6feb549d", "is_reserved": 0, "lon": -77.03837066666667, "is_disabled": 0, "fusion_lat": 0.0, "lat": 38.91046933333333, "bike_id": "af10a3e5e1a2d85df893210e6feb549d", "fusion_lon": 0.0}, {"rental_uris": {"ios": "https://dc.lft.to/lastmile_qr_scan", "android": "https://dc.lft.to/lastmile_qr_scan"}, "type": "electric_scooter", "name": "97c74585a31ac882f16a1c4270b5e04d", "is_reserved": 0, "lon": -77.02520316666667, "is_disabled": 0, "fusion_lat": 0.0, "lat": 38.920017, "bike_id": "97c74585a31ac882f16a1c4270b5e04d", "fusion_lon": 0.0}, {"rental_uris": {"ios": "https://dc.lft.to/lastmile_qr_scan", "android": "https://dc.lft.to/lastmile_qr_scan"}, "type": "electric_scooter", "name": "e11afc27de569b47469d3ed20d3d3f06", "is_reserved": 0, "lon": -77.009142, "is_disabled": 0, "fusion_lat": 0.0, "lat": 38.8819705, "bike_id": "e11afc27de569b47469d3ed20d3d3f06", "fusion_lon": 0.0}, {"rental_uris": {"ios": "https://dc.lft.to/lastmile_qr_scan", "android": "https://dc.lft.to/lastmile_qr_scan"}, "type": "electric_scooter", "name": "c684218a3a9dbb19d050471a2f8e7e72", "is_reserved": 0, "lon": -77.04895216666667, "is_disabled": 0, "fusion_lat": 0.0, "lat": 38.9091215, "bike_id": "c684218a3a9dbb19d050471a2f8e7e72", "fusion_lon": 0.0}, {"rental_uris": {"ios": "https://dc.lft.to/lastmile_qr_scan", "android": "https://dc.lft.to/lastmile_qr_scan"}, "type": "electric_scooter", "name": "214208c7247bea4b1c28223f691b7e54", "is_reserved": 0, "lon": -77.03966866666667, "is_disabled": 0, "fusion_lat": 0.0, "lat": 38.915550833333334, "bike_id": "214208c7247bea4b1c28223f691b7e54", "fusion_lon": 0.0}, {"rental_uris": {"ios": "https://dc.lft.to/lastmile_qr_scan", "android": "https://dc.lft.to/lastmile_qr_scan"}, "type": "electric_bike", "name": "bd399762e426fac1935cceb7f271c9e2", "is_reserved": 0, "lon": -76.97958866666667, "is_disabled": 0, "fusion_lat": 0.0, "lat": 38.95231366666667, "bike_id": "bd399762e426fac1935cceb7f271c9e2", "fusion_lon": 0.0}, {"rental_uris": {"ios": "https://dc.lft.to/lastmile_qr_scan", "android": "https://dc.lft.to/lastmile_qr_scan"}, "type": "electric_scooter", "name": "fa390299251ade835ec04ab809bd6db1", "is_reserved": 0, "lon": -77.0190405, "is_disabled": 0, "fusion_lat": 0.0, "lat": 38.92340816666667, "bike_id": "fa390299251ade835ec04ab809bd6db1", "fusion_lon": 0.0}, {"rental_uris": {"ios": "https://dc.lft.to/lastmile_qr_scan", "android": "https://dc.lft.to/lastmile_qr_scan"}, "type": "electric_scooter", "name": "6451cb18bbe52cdd190eb809a67245c3", "is_reserved": 0, "lon": -77.04424533333334, "is_disabled": 0, "fusion_lat": 0.0, "lat": 38.93428466666667, "bike_id": "6451cb18bbe52cdd190eb809a67245c3", "fusion_lon": 0.0}, {"rental_uris": {"ios": "https://dc.lft.to/lastmile_qr_scan", "android": "https://dc.lft.to/lastmile_qr_scan"}, "type": "electric_bike", "name": "da301d34ea92e778c249d76c4550a036", "is_reserved": 0, "lon": -76.97321816666667, "is_disabled": 0, "fusion_lat": 0.0, "lat": 38.8577855, "bike_id": "da301d34ea92e778c249d76c4550a036", "fusion_lon": 0.0}, {"rental_uris": {"ios": "https://dc.lft.to/lastmile_qr_scan", "android": "https://dc.lft.to/lastmile_qr_scan"}, "type": "electric_scooter", "name": "5e955f488aeb4c46644d43204ff5129c", "is_reserved": 0, "lon": -77.00524983333334, "is_disabled": 0, "fusion_lat": 0.0, "lat": 38.879268, "bike_id": "5e955f488aeb4c46644d43204ff5129c", "fusion_lon": 0.0}, {"rental_uris": {"ios": "https://dc.lft.to/lastmile_qr_scan", "android": "https://dc.lft.to/lastmile_qr_scan"}, "type": "electric_scooter", "name": "af7801b23fe09705de3322a1787ee3b4", "is_reserved": 0, "lon": -77.049983, "is_disabled": 0, "fusion_lat": 0.0, "lat": 38.89754816666667, "bike_id": "af7801b23fe09705de3322a1787ee3b4", "fusion_lon": 0.0}, {"rental_uris": {"ios": "https://dc.lft.to/lastmile_qr_scan", "android": "https://dc.lft.to/lastmile_qr_scan"}, "type": "electric_scooter", "name": "a76fc151f04898f1083671386a6a11d1", "is_reserved": 0, "lon": -76.98502683333334, "is_disabled": 0, "fusion_lat": 0.0, "lat": 38.880863, "bike_id": "a76fc151f04898f1083671386a6a11d1", "fusion_lon": 0.0}, {"rental_uris": {"ios": "https://dc.lft.to/lastmile_qr_scan", "android": "https://dc.lft.to/lastmile_qr_scan"}, "type": "electric_scooter", "name": "97e4c1c54ca96de913272d57dab1db79", "is_reserved": 0, "lon": -77.03554566666666, "is_disabled": 0, "fusion_lat": 0.0, "lat": 38.92422333333333, "bike_id": "97e4c1c54ca96de913272d57dab1db79", "fusion_lon": 0.0}, {"rental_uris": {"ios": "https://dc.lft.to/lastmile_qr_scan", "android": "https://dc.lft.to/lastmile_qr_scan"}, "type": "electric_bike", "name": "b546086d74c37801e9ff13913c33cbd8", "is_reserved": 0, "lon": -76.99442733333333, "is_disabled": 0, "fusion_lat": 0.0, "lat": 38.831051, "bike_id": "b546086d74c37801e9ff13913c33cbd8", "fusion_lon": 0.0}, {"rental_uris": {"ios": "https://dc.lft.to/lastmile_qr_scan", "android": "https://dc.lft.to/lastmile_qr_scan"}, "type": "electric_scooter", "name": "da86de2259097b62a19c1c47e55d99ec", "is_reserved": 0, "lon": -77.04685833333333, "is_disabled": 0, "fusion_lat": 0.0, "lat": 38.892244166666664, "bike_id": "da86de2259097b62a19c1c47e55d99ec", "fusion_lon": 0.0}, {"rental_uris": {"ios": "https://dc.lft.to/lastmile_qr_scan", "android": "https://dc.lft.to/lastmile_qr_scan"}, "type": "electric_scooter", "name": "e9bc8ebeede77a88d0625e96bb94e5cf", "is_reserved": 0, "lon": -77.0242705, "is_disabled": 0, "fusion_lat": 0.0, "lat": 38.92399066666667, "bike_id": "e9bc8ebeede77a88d0625e96bb94e5cf", "fusion_lon": 0.0}, {"rental_uris": {"ios": "https://dc.lft.to/lastmile_qr_scan", "android": "https://dc.lft.to/lastmile_qr_scan"}, "type": "electric_scooter", "name": "4c2a60f2fcb8a3420951f6138a827039", "is_reserved": 0, "lon": -77.03865216666667, "is_disabled": 0, "fusion_lat": 0.0, "lat": 38.911839, "bike_id": "4c2a60f2fcb8a3420951f6138a827039", "fusion_lon": 0.0}, {"rental_uris": {"ios": "https://dc.lft.to/lastmile_qr_scan", "android": "https://dc.lft.to/lastmile_qr_scan"}, "type": "electric_scooter", "name": "616bd673fca931103004c5797b63c7d7", "is_reserved": 0, "lon": -77.022422, "is_disabled": 0, "fusion_lat": 0.0, "lat": 38.92287616666667, "bike_id": "616bd673fca931103004c5797b63c7d7", "fusion_lon": 0.0}, {"rental_uris": {"ios": "https://dc.lft.to/lastmile_qr_scan", "android": "https://dc.lft.to/lastmile_qr_scan"}, "type": "electric_scooter", "name": "565b297829e44ed543a582a79a738773", "is_reserved": 0, "lon": -77.018768, "is_disabled": 0, "fusion_lat": 0.0, "lat": 38.90251716666667, "bike_id": "565b297829e44ed543a582a79a738773", "fusion_lon": 0.0}, {"rental_uris": {"ios": "https://dc.lft.to/lastmile_qr_scan", "android": "https://dc.lft.to/lastmile_qr_scan"}, "type": "electric_scooter", "name": "a877db17c054a76fed438394b316229e", "is_reserved": 0, "lon": -76.98068166666667, "is_disabled": 0, "fusion_lat": 0.0, "lat": 38.901776166666664, "bike_id": "a877db17c054a76fed438394b316229e", "fusion_lon": 0.0}, {"rental_uris": {"ios": "https://dc.lft.to/lastmile_qr_scan", "android": "https://dc.lft.to/lastmile_qr_scan"}, "type": "electric_bike", "name": "29301cd306b2ec35c45f17d1056f1590", "is_reserved": 0, "lon": -76.91718816666666, "is_disabled": 0, "fusion_lat": 0.0, "lat": 38.8803045, "bike_id": "29301cd306b2ec35c45f17d1056f1590", "fusion_lon": 0.0}, {"rental_uris": {"ios": "https://dc.lft.to/lastmile_qr_scan", "android": "https://dc.lft.to/lastmile_qr_scan"}, "type": "electric_scooter", "name": "5c3c4796866a1e187d2725deeaa345d6", "is_reserved": 0, "lon": -77.04141483333333, "is_disabled": 0, "fusion_lat": 0.0, "lat": 38.915553, "bike_id": "5c3c4796866a1e187d2725deeaa345d6", "fusion_lon": 0.0}, {"rental_uris": {"ios": "https://dc.lft.to/lastmile_qr_scan", "android": "https://dc.lft.to/lastmile_qr_scan"}, "type": "electric_scooter", "name": "ce858320ca061b497f5e00bdb1a57ede", "is_reserved": 0, "lon": -77.063356, "is_disabled": 0, "fusion_lat": 0.0, "lat": 38.905299166666666, "bike_id": "ce858320ca061b497f5e00bdb1a57ede", "fusion_lon": 0.0}, {"rental_uris": {"ios": "https://dc.lft.to/lastmile_qr_scan", "android": "https://dc.lft.to/lastmile_qr_scan"}, "type": "electric_bike", "name": "2e922b0f4d154b2ca74f108f15266812", "is_reserved": 0, "lon": -77.09452466666667, "is_disabled": 0, "fusion_lat": 0.0, "lat": 38.807513666666665, "bike_id": "2e922b0f4d154b2ca74f108f15266812", "fusion_lon": 0.0}, {"rental_uris": {"ios": "https://dc.lft.to/lastmile_qr_scan", "android": "https://dc.lft.to/lastmile_qr_scan"}, "type": "electric_scooter", "name": "1b61144dba6d7d9bc27ba9afefd49b68", "is_reserved": 0, "lon": -77.01920033333333, "is_disabled": 0, "fusion_lat": 0.0, "lat": 38.92258416666667, "bike_id": "1b61144dba6d7d9bc27ba9afefd49b68", "fusion_lon": 0.0}, {"rental_uris": {"ios": "https://dc.lft.to/lastmile_qr_scan", "android": "https://dc.lft.to/lastmile_qr_scan"}, "type": "electric_bike", "name": "8f5712e756ffc7db9f1f4466f593878f", "is_reserved": 0, "lon": -77.08568233333334, "is_disabled": 0, "fusion_lat": 0.0, "lat": 38.87427016666667, "bike_id": "8f5712e756ffc7db9f1f4466f593878f", "fusion_lon": 0.0}, {"rental_uris": {"ios": "https://dc.lft.to/lastmile_qr_scan", "android": "https://dc.lft.to/lastmile_qr_scan"}, "type": "electric_scooter", "name": "e3da0ba6db546eaa74ef0c50cf892ce4", "is_reserved": 0, "lon": -77.02201916666667, "is_disabled": 0, "fusion_lat": 0.0, "lat": 38.87908616666667, "bike_id": "e3da0ba6db546eaa74ef0c50cf892ce4", "fusion_lon": 0.0}, {"rental_uris": {"ios": "https://dc.lft.to/lastmile_qr_scan", "android": "https://dc.lft.to/lastmile_qr_scan"}, "type": "electric_scooter", "name": "f8c3c8c3369991723e39fd7aa1dbf7eb", "is_reserved": 0, "lon": -77.023963, "is_disabled": 0, "fusion_lat": 0.0, "lat": 38.957111, "bike_id": "f8c3c8c3369991723e39fd7aa1dbf7eb", "fusion_lon": 0.0}, {"rental_uris": {"ios": "https://dc.lft.to/lastmile_qr_scan", "android": "https://dc.lft.to/lastmile_qr_scan"}, "type": "electric_scooter", "name": "bb758f7d5ea5ff25f2a64cd6a6792300", "is_reserved": 0, "lon": -77.0316685, "is_disabled": 0, "fusion_lat": 0.0, "lat": 38.892194833333335, "bike_id": "bb758f7d5ea5ff25f2a64cd6a6792300", "fusion_lon": 0.0}, {"rental_uris": {"ios": "https://dc.lft.to/lastmile_qr_scan", "android": "https://dc.lft.to/lastmile_qr_scan"}, "type": "electric_scooter", "name": "010503d06c639323f5d5ead7e2dcffde", "is_reserved": 0, "lon": -77.02925083333334, "is_disabled": 0, "fusion_lat": 0.0, "lat": 38.898080666666665, "bike_id": "010503d06c639323f5d5ead7e2dcffde", "fusion_lon": 0.0}, {"rental_uris": {"ios": "https://dc.lft.to/lastmile_qr_scan", "android": "https://dc.lft.to/lastmile_qr_scan"}, "type": "electric_scooter", "name": "77ee9ffe99c5c8ec7825bd7b362b618b", "is_reserved": 0, "lon": -77.07868533333334, "is_disabled": 0, "fusion_lat": 0.0, "lat": 38.94610316666667, "bike_id": "77ee9ffe99c5c8ec7825bd7b362b618b", "fusion_lon": 0.0}, {"rental_uris": {"ios": "https://dc.lft.to/lastmile_qr_scan", "android": "https://dc.lft.to/lastmile_qr_scan"}, "type": "electric_scooter", "name": "6b443e762f08a4d5703f963d97fff799", "is_reserved": 0, "lon": -77.0126985, "is_disabled": 0, "fusion_lat": 0.0, "lat": 38.89720366666667, "bike_id": "6b443e762f08a4d5703f963d97fff799", "fusion_lon": 0.0}, {"rental_uris": {"ios": "https://dc.lft.to/lastmile_qr_scan", "android": "https://dc.lft.to/lastmile_qr_scan"}, "type": "electric_scooter", "name": "9e6bd234e3345afbf350af689478ef87", "is_reserved": 0, "lon": -77.031338, "is_disabled": 0, "fusion_lat": 0.0, "lat": 38.92017083333333, "bike_id": "9e6bd234e3345afbf350af689478ef87", "fusion_lon": 0.0}, {"rental_uris": {"ios": "https://dc.lft.to/lastmile_qr_scan", "android": "https://dc.lft.to/lastmile_qr_scan"}, "type": "electric_scooter", "name": "584e8b27f2a1a7a8c9e4428db76c0a9d", "is_reserved": 0, "lon": -77.03031566666667, "is_disabled": 0, "fusion_lat": 0.0, "lat": 38.89227533333333, "bike_id": "584e8b27f2a1a7a8c9e4428db76c0a9d", "fusion_lon": 0.0}, {"rental_uris": {"ios": "https://dc.lft.to/lastmile_qr_scan", "android": "https://dc.lft.to/lastmile_qr_scan"}, "type": "electric_scooter", "name": "95f79e25b74ec1d674b61744dc4b8f3f", "is_reserved": 0, "lon": -76.97151333333333, "is_disabled": 0, "fusion_lat": 0.0, "lat": 38.91618733333333, "bike_id": "95f79e25b74ec1d674b61744dc4b8f3f", "fusion_lon": 0.0}, {"rental_uris": {"ios": "https://dc.lft.to/lastmile_qr_scan", "android": "https://dc.lft.to/lastmile_qr_scan"}, "type": "electric_scooter", "name": "81c3dbc7c1b43bacd86ce5cdbae714df", "is_reserved": 0, "lon": -77.043767, "is_disabled": 0, "fusion_lat": 0.0, "lat": 38.92069933333333, "bike_id": "81c3dbc7c1b43bacd86ce5cdbae714df", "fusion_lon": 0.0}, {"rental_uris": {"ios": "https://dc.lft.to/lastmile_qr_scan", "android": "https://dc.lft.to/lastmile_qr_scan"}, "type": "electric_scooter", "name": "b073ada621346b94096a158f413f632c", "is_reserved": 0, "lon": -77.01908483333334, "is_disabled": 0, "fusion_lat": 0.0, "lat": 38.93718416666667, "bike_id": "b073ada621346b94096a158f413f632c", "fusion_lon": 0.0}, {"rental_uris": {"ios": "https://dc.lft.to/lastmile_qr_scan", "android": "https://dc.lft.to/lastmile_qr_scan"},