{"data": {"bikes": [{"lat": 38.91803216666667, "is_disabled": 0, "type": "electric_bike", "lon": -77.22329216666667, "bike_id": "b25738d4e4834cfa9eb541cdfa4b10a0", "fusion_lat": 0.0, "name": "b25738d4e4834cfa9eb541cdfa4b10a0", "is_reserved": 0, "rental_uris": {"android": "https://dc.lft.to/lastmile_qr_scan", "ios": "https://dc.lft.to/lastmile_qr_scan"}, "fusion_lon": 0.0}, {"lat": 38.89680116666667, "is_disabled": 0, "type": "electric_scooter", "lon": -77.05126933333334, "bike_id": "55045c0915c29a71e9c888e008c29946", "fusion_lat": 0.0, "name": "55045c0915c29a71e9c888e008c29946", "is_reserved": 0, "rental_uris": {"android": "https://dc.lft.to/lastmile_qr_scan", "ios": "https://dc.lft.to/lastmile_qr_scan"}, "fusion_lon": 0.0}, {"lat": 38.926495, "is_disabled": 0, "type": "electric_scooter", "lon": -77.04323766666667, "bike_id": "66b32e5354fd7798580b487fd9fa2765", "fusion_lat": 0.0, "name": "66b32e5354fd7798580b487fd9fa2765", "is_reserved": 0, "rental_uris": {"android": "https://dc.lft.to/lastmile_qr_scan", "ios": "https://dc.lft.to/lastmile_qr_scan"}, "fusion_lon": 0.0}, {"lat": 38.928977333333336, "is_disabled": 0, "type": "electric_bike", "lon": -77.05782433333333, "bike_id": "74305b48bbe32262d2b798fcebfeb3d8", "fusion_lat": 0.0, "name": "74305b48bbe32262d2b798fcebfeb3d8", "is_reserved": 0, "rental_uris": {"android": "https://dc.lft.to/lastmile_qr_scan", "ios": "https://dc.lft.to/lastmile_qr_scan"}, "fusion_lon": 0.0}, {"lat": 38.930316, "is_disabled": 0, "type": "electric_scooter", "lon": -77.02963683333333, "bike_id": "449aa52411ea8e49bd4a94b2a4692000", "fusion_lat": 0.0, "name": "449aa52411ea8e49bd4a94b2a4692000", "is_reserved": 0, "rental_uris": {"android": "https://dc.lft.to/lastmile_qr_scan", "ios": "https://dc.lft.to/lastmile_qr_scan"}, "fusion_lon": 0.0}, {"lat": 38.93786766666667, "is_disabled": 0, "type": "electric_scooter", "lon": -77.02437183333333, "bike_id": "bfe7cf5cfa065daac2030350e3ce57e3", "fusion_lat": 0.0, "name": "bfe7cf5cfa065daac2030350e3ce57e3", "is_reserved": 0, "rental_uris": {"android": "https://dc.lft.to/lastmile_qr_scan", "ios": "https://dc.lft.to/lastmile_qr_scan"}, "fusion_lon": 0.0}, {"lat": 38.908543, "is_disabled": 0, "type": "electric_scooter", "lon": -77.00625733333334, "bike_id": "c7c630fc4475cae7b599da9b1bed5933", "fusion_lat": 0.0, "name": "c7c630fc4475cae7b599da9b1bed5933", "is_reserved": 0, "rental_uris": {"android": "https://dc.lft.to/lastmile_qr_scan", "ios": "https://dc.lft.to/lastmile_qr_scan"}, "fusion_lon": 0.0}, {"lat": 38.9097345, "is_disabled": 0, "type": "electric_scooter", "lon": -77.03869116666667, "bike_id": "0da78f2b658fedebb3838b05c5a3c252", "fusion_lat": 0.0, "name": "0da78f2b658fedebb3838b05c5a3c252", "is_reserved": 0, "rental_uris": {"android": "https://dc.lft.to/lastmile_qr_scan", "ios": "https://dc.lft.to/lastmile_qr_scan"}, "fusion_lon": 0.0}, {"lat": 38.95184666666667, "is_disabled": 0, "type": "electric_bike", "lon": -76.9354645, "bike_id": "7ce44fb697a9f438331d96790cef66ac", "fusion_lat": 0.0, "name": "7ce44fb697a9f438331d96790cef66ac", "is_reserved": 0, "rental_uris": {"android": "https://dc.lft.to/lastmile_qr_scan", "ios": "https://dc.lft.to/lastmile_qr_scan"}, "fusion_lon": 0.0}, {"lat": 38.90665216666667, "is_disabled": 0, "type": "electric_scooter", "lon": -77.01533083333334, "bike_id": "4677e7c7a908edacb0b14914062e71dd", "fusion_lat": 0.0, "name": "4677e7c7a908edacb0b14914062e71dd", "is_reserved": 0, "rental_uris": {"android": "https://dc.lft.to/lastmile_qr_scan", "ios": "https://dc.lft.to/lastmile_qr_scan"}, "fusion_lon": 0.0}, {"lat": 38.910505666666666, "is_disabled": 0, "type": "electric_scooter", "lon": -77.01521816666667, "bike_id": "a7dc3a949b5a17bb9dd32d26dfe6b643", "fusion_lat": 0.0, "name": "a7dc3a949b5a17bb9dd32d26dfe6b643", "is_reserved": 0, "rental_uris": {"android": "https://dc.lft.to/lastmile_qr_scan", "ios": "https://dc.lft.to/lastmile_qr_scan"}, "fusion_lon": 0.0}, {"lat": 38.862551833333335, "is_disabled": 0, "type": "electric_scooter", "lon": -76.98702633333333, "bike_id": "6d60d6a71be49613353dc2451e0625ca", "fusion_lat": 0.0, "name": "6d60d6a71be49613353dc2451e0625ca", "is_reserved": 0, "rental_uris": {"android": "https://dc.lft.to/lastmile_qr_scan", "ios": "https://dc.lft.to/lastmile_qr_scan"}, "fusion_lon": 0.0}, {"lat": 38.90390433333334, "is_disabled": 0, "type": "electric_scooter", "lon": -77.01653583333334, "bike_id": "2670e8088d05fe169e6eecaabbdfeed0", "fusion_lat": 0.0, "name": "2670e8088d05fe169e6eecaabbdfeed0", "is_reserved": 0, "rental_uris": {"android": "https://dc.lft.to/lastmile_qr_scan", "ios": "https://dc.lft.to/lastmile_qr_scan"}, "fusion_lon": 0.0}, {"lat": 38.93913166666667, "is_disabled": 0, "type": "electric_scooter", "lon": -77.0248255, "bike_id": "157f4bd6bbfd204786428367229ba455", "fusion_lat": 0.0, "name": "157f4bd6bbfd204786428367229ba455", "is_reserved": 0, "rental_uris": {"android": "https://dc.lft.to/lastmile_qr_scan", "ios": "https://dc.lft.to/lastmile_qr_scan"}, "fusion_lon": 0.0}, {"lat": 38.877320833333336, "is_disabled": 0, "type": "electric_bike", "lon": -77.1185365, "bike_id": "b550f1377acac6f2bbf4ff89899add4d", "fusion_lat": 0.0, "name": "b550f1377acac6f2bbf4ff89899add4d", "is_reserved": 0, "rental_uris": {"android": "https://dc.lft.to/lastmile_qr_scan", "ios": "https://dc.lft.to/lastmile_qr_scan"}, "fusion_lon": 0.0}, {"lat": 38.867505333333334, "is_disabled": 0, "type": "electric_scooter", "lon": -76.97661683333334, "bike_id": "c3c944d46b5211ce73ae0963ca295699", "fusion_lat": 0.0, "name": "c3c944d46b5211ce73ae0963ca295699", "is_reserved": 0, "rental_uris": {"android": "https://dc.lft.to/lastmile_qr_scan", "ios": "https://dc.lft.to/lastmile_qr_scan"}, "fusion_lon": 0.0}, {"lat": 38.907334, "is_disabled": 0, "type": "electric_scooter", "lon": -77.04201966666666, "bike_id": "898ea96bdc7b8ed069b618505e1157db", "fusion_lat": 0.0, "name": "898ea96bdc7b8ed069b618505e1157db", "is_reserved": 0, "rental_uris": {"android": "https://dc.lft.to/lastmile_qr_scan", "ios": "https://dc.lft.to/lastmile_qr_scan"}, "fusion_lon": 0.0}, {"lat": 38.91111033333333, "is_disabled": 0, "type": "electric_scooter", "lon": -77.04815483333333, "bike_id": "99684c251984322d3d4741f67e009553", "fusion_lat": 0.0, "name": "99684c251984322d3d4741f67e009553", "is_reserved": 0, "rental_uris": {"android": "https://dc.lft.to/lastmile_qr_scan", "ios": "https://dc.lft.to/lastmile_qr_scan"}, "fusion_lon": 0.0}, {"lat": 38.81355533333333, "is_disabled": 0, "type": "electric_bike", "lon": -77.0493205, "bike_id": "e71554bb115b7ef640b3a23f5545c3c0", "fusion_lat": 0.0, "name": "e71554bb115b7ef640b3a23f5545c3c0", "is_reserved": 0, "rental_uris": {"android": "https://dc.lft.to/lastmile_qr_scan", "ios": "https://dc.lft.to/lastmile_qr_scan"}, "fusion_lon": 0.0}, {"lat": 38.92036866666667, "is_disabled": 0, "type": "electric_scooter", "lon": -77.041811, "bike_id": "fba2dddbbc8f5f31d4906fedd1896dee", "fusion_lat": 0.0, "name": "fba2dddbbc8f5f31d4906fedd1896dee", "is_reserved": 0, "rental_uris": {"android": "https://dc.lft.to/lastmile_qr_scan", "ios": "https://dc.lft.to/lastmile_qr_scan"}, "fusion_lon": 0.0}, {"lat": 38.89011983333333, "is_disabled": 0, "type": "electric_scooter", "lon": -77.0004175, "bike_id": "e710c39fbcf923790cd1fbb204c3daa2", "fusion_lat": 0.0, "name": "e710c39fbcf923790cd1fbb204c3daa2", "is_reserved": 0, "rental_uris": {"android": "https://dc.lft.to/lastmile_qr_scan", "ios": "https://dc.lft.to/lastmile_qr_scan"}, "fusion_lon": 0.0}, {"lat": 38.90262516666667, "is_disabled": 0, "type": "electric_scooter", "lon": -77.0364775, "bike_id": "ea45880633cd6ec4fe4b3813742eab5c", "fusion_lat": 0.0, "name": "ea45880633cd6ec4fe4b3813742eab5c", "is_reserved": 0, "rental_uris": {"android": "https://dc.lft.to/lastmile_qr_scan", "ios": "https://dc.lft.to/lastmile_qr_scan"}, "fusion_lon": 0.0}, {"lat": 38.93694633333333, "is_disabled": 0, "type": "electric_scooter", "lon": -77.03266516666666, "bike_id": "43b67498ebbb7b88cd869e4a636562df", "fusion_lat": 0.0, "name": "43b67498ebbb7b88cd869e4a636562df", "is_reserved": 0, "rental_uris": {"android": "https://dc.lft.to/lastmile_qr_scan", "ios": "https://dc.lft.to/lastmile_qr_scan"}, "fusion_lon": 0.0}, {"lat": 38.897606333333336, "is_disabled": 0, "type": "electric_scooter", "lon": -76.941851, "bike_id": "4bbe23650199aa1f71d6751a93194a15", "fusion_lat": 0.0, "name": "4bbe23650199aa1f71d6751a93194a15", "is_reserved": 0, "rental_uris": {"android": "https://dc.lft.to/lastmile_qr_scan", "ios": "https://dc.lft.to/lastmile_qr_scan"}, "fusion_lon": 0.0}, {"lat": 38.85513816666667, "is_disabled": 0, "type": "electric_bike", "lon": -76.98430016666667, "bike_id": "e498e48108e8fc6d9a02b432e0b032af", "fusion_lat": 0.0, "name": "e498e48108e8fc6d9a02b432e0b032af", "is_reserved": 0, "rental_uris": {"android": "https://dc.lft.to/lastmile_qr_scan", "ios": "https://dc.lft.to/lastmile_qr_scan"}, "fusion_lon": 0.0}, {"lat": 38.905372166666666, "is_disabled": 0, "type": "electric_scooter", "lon": -77.05679233333333, "bike_id": "ec100c56b63a20790456f5718512f858", "fusion_lat": 0.0, "name": "ec100c56b63a20790456f5718512f858", "is_reserved": 0, "rental_uris": {"android": "https://dc.lft.to/lastmile_qr_scan", "ios": "https://dc.lft.to/lastmile_qr_scan"}, "fusion_lon": 0.0}, {"lat": 38.90167683333333, "is_disabled": 0, "type": "electric_scooter", "lon": -77.01872833333333, "bike_id": "1dfdcf766c9b33fff3e1faad0da81eed", "fusion_lat": 0.0, "name": "1dfdcf766c9b33fff3e1faad0da81eed", "is_reserved": 0, "rental_uris": {"android": "https://dc.lft.to/lastmile_qr_scan", "ios": "https://dc.lft.to/lastmile_qr_scan"}, "fusion_lon": 0.0}, {"lat": 38.9238365, "is_disabled": 0, "type": "electric_scooter", "lon": -77.03056066666667, "bike_id": "b793d66618224767eb5df5519f894b05", "fusion_lat": 0.0, "name": "b793d66618224767eb5df5519f894b05", "is_reserved": 0, "rental_uris": {"android": "https://dc.lft.to/lastmile_qr_scan", "ios": "https://dc.lft.to/lastmile_qr_scan"}, "fusion_lon": 0.0}, {"lat": 38.91485216666667, "is_disabled": 0, "type": "electric_scooter", "lon": -77.01383433333334, "bike_id": "deb2ee887a4c86188072cae155d4beb5", "fusion_lat": 0.0, "name": "deb2ee887a4c86188072cae155d4beb5", "is_reserved": 0, "rental_uris": {"android": "https://dc.lft.to/lastmile_qr_scan", "ios": "https://dc.lft.to/lastmile_qr_scan"}, "fusion_lon": 0.0}, {"lat": 38.87733333333333, "is_disabled": 0, "type": "electric_scooter", "lon": -77.00352383333333, "bike_id": "95b942021f12c563422c98f9d53f2c54", "fusion_lat": 0.0, "name": "95b942021f12c563422c98f9d53f2c54", "is_reserved": 0, "rental_uris": {"android": "https://dc.lft.to/lastmile_qr_scan", "ios": "https://dc.lft.to/lastmile_qr_scan"}, "fusion_lon": 0.0}, {"lat": 38.88803766666667, "is_disabled": 0, "type": "electric_scooter", "lon": -76.933596, "bike_id": "30f24ca80437e0cf987dd4139416fd7a", "fusion_lat": 0.0, "name": "30f24ca80437e0cf987dd4139416fd7a", "is_reserved": 0, "rental_uris": {"android": "https://dc.lft.to/lastmile_qr_scan", "ios": "https://dc.lft.to/lastmile_qr_scan"}, "fusion_lon": 0.0}, {"lat": 38.87071616666667, "is_disabled": 0, "type": "electric_bike", "lon": -76.97844316666666, "bike_id": "0219315c0583d6011c585e047fae7868", "fusion_lat": 0.0, "name": "0219315c0583d6011c585e047fae7868", "is_reserved": 0, "rental_uris": {"android": "https://dc.lft.to/lastmile_qr_scan", "ios": "https://dc.lft.to/lastmile_qr_scan"}, "fusion_lon": 0.0}, {"lat": 38.92349316666667, "is_disabled": 0, "type": "electric_scooter", "lon": -77.05436566666667, "bike_id": "adb2e44f3f4f7ab038582404d169ec40", "fusion_lat": 0.0, "name": "adb2e44f3f4f7ab038582404d169ec40", "is_reserved": 0, "rental_uris": {"android": "https://dc.lft.to/lastmile_qr_scan", "ios": "https://dc.lft.to/lastmile_qr_scan"}, "fusion_lon": 0.0}, {"lat": 38.91569716666667, "is_disabled": 0, "type": "electric_scooter", "lon": -77.01041483333333, "bike_id": "9f17a775d4da5422e15b2321dca15b93", "fusion_lat": 0.0, "name": "9f17a775d4da5422e15b2321dca15b93", "is_reserved": 0, "rental_uris": {"android": "https://dc.lft.to/lastmile_qr_scan", "ios": "https://dc.lft.to/lastmile_qr_scan"}, "fusion_lon": 0.0}, {"lat": 38.82787, "is_disabled": 0, "type": "electric_bike", "lon": -77.00921166666667, "bike_id": "d54bbbb882c0106b35d7d5233ab0ce25", "fusion_lat": 0.0, "name": "d54bbbb882c0106b35d7d5233ab0ce25", "is_reserved": 0, "rental_uris": {"android": "https://dc.lft.to/lastmile_qr_scan", "ios": "https://dc.lft.to/lastmile_qr_scan"}, "fusion_lon": 0.0}, {"lat": 38.909746166666665, "is_disabled": 0, "type": "electric_bike", "lon": -77.08820116666666, "bike_id": "b27423811021326840de662936e4b398", "fusion_lat": 0.0, "name": "b27423811021326840de662936e4b398", "is_reserved": 0, "rental_uris": {"android": "https://dc.lft.to/lastmile_qr_scan", "ios": "https://dc.lft.to/lastmile_qr_scan"}, "fusion_lon": 0.0}, {"lat": 38.93298083333333, "is_disabled": 0, "type": "electric_scooter", "lon": -77.0453455, "bike_id": "33ab8b701d6472b112cf26b9e1804146", "fusion_lat": 0.0, "name": "33ab8b701d6472b112cf26b9e1804146", "is_reserved": 0, "rental_uris": {"android": "https://dc.lft.to/lastmile_qr_scan", "ios": "https://dc.lft.to/lastmile_qr_scan"}, "fusion_lon": 0.0}, {"lat": 38.984328833333336, "is_disabled": 0, "type": "electric_scooter", "lon": -77.02671583333333, "bike_id": "31aa71dab68bc1ef779b3fc769705d10", "fusion_lat": 0.0, "name": "31aa71dab68bc1ef779b3fc769705d10", "is_reserved": 0, "rental_uris": {"android": "https://dc.lft.to/lastmile_qr_scan", "ios": "https://dc.lft.to/lastmile_qr_scan"}, "fusion_lon": 0.0}, {"lat": 38.91461616666667, "is_disabled": 0, "type": "electric_scooter", "lon": -77.01429633333333, "bike_id": "fbdd7ea2a802985ac84f131e7462209b", "fusion_lat": 0.0, "name": "fbdd7ea2a802985ac84f131e7462209b", "is_reserved": 0, "rental_uris": {"android": "https://dc.lft.to/lastmile_qr_scan", "ios": "https://dc.lft.to/lastmile_qr_scan"}, "fusion_lon": 0.0}, {"lat": 38.91684866666667, "is_disabled": 0, "type": "electric_scooter", "lon": -77.0019905, "bike_id": "022e10b29b308c5fc2847b67c4847990", "fusion_lat": 0.0, "name": "022e10b29b308c5fc2847b67c4847990", "is_reserved": 0, "rental_uris": {"android": "https://dc.lft.to/lastmile_qr_scan", "ios": "https://dc.lft.to/lastmile_qr_scan"}, "fusion_lon": 0.0}, {"lat": 38.883662, "is_disabled": 0, "type": "electric_scooter", "lon": -76.94154866666666, "bike_id": "133b7bc533e4002da5c99cf4ba0c366f", "fusion_lat": 0.0, "name": "133b7bc533e4002da5c99cf4ba0c366f", "is_reserved": 0, "rental_uris": {"android": "https://dc.lft.to/lastmile_qr_scan", "ios": "https://dc.lft.to/lastmile_qr_scan"}, "fusion_lon": 0.0}, {"lat": 38.988279, "is_disabled": 0, "type": "electric_bike", "lon": -76.99648566666667, "bike_id": "2290de60820a88e02301586907909d40", "fusion_lat": 0.0, "name": "2290de60820a88e02301586907909d40", "is_reserved": 0, "rental_uris": {"android": "https://dc.lft.to/lastmile_qr_scan", "ios": "https://dc.lft.to/lastmile_qr_scan"}, "fusion_lon": 0.0}, {"lat": 38.91762283333333, "is_disabled": 0, "type": "electric_scooter", "lon": -76.97629616666667, "bike_id": "e006e6bcede044967195b91cb96d8861", "fusion_lat": 0.0, "name": "e006e6bcede044967195b91cb96d8861", "is_reserved": 0, "rental_uris": {"android": "https://dc.lft.to/lastmile_qr_scan", "ios": "https://dc.lft.to/lastmile_qr_scan"}, "fusion_lon": 0.0}, {"lat": 38.907644166666664, "is_disabled": 0, "type": "electric_scooter", "lon": -77.00104683333333, "bike_id": "48f20fbbe829a2ebc6f9724e5e7f2ccc", "fusion_lat": 0.0, "name": "48f20fbbe829a2ebc6f9724e5e7f2ccc", "is_reserved": 0, "rental_uris": {"android": "https://dc.lft.to/lastmile_qr_scan", "ios": "https://dc.lft.to/lastmile_qr_scan"}, "fusion_lon": 0.0}, {"lat": 38.94125416666667, "is_disabled": 0, "type": "electric_scooter", "lon": -77.00075866666667, "bike_id": "6cc2acd6af51ba1a39246da412043750", "fusion_lat": 0.0, "name": "6cc2acd6af51ba1a39246da412043750", "is_reserved": 0, "rental_uris": {"android": "https://dc.lft.to/lastmile_qr_scan", "ios": "https://dc.lft.to/lastmile_qr_scan"}, "fusion_lon": 0.0}, {"lat": 38.95911233333333, "is_disabled": 0, "type": "electric_bike", "lon": -76.92480433333333, "bike_id": "f689d0db49b858dca28308be79aae3e3", "fusion_lat": 0.0, "name": "f689d0db49b858dca28308be79aae3e3", "is_reserved": 0, "rental_uris": {"android": "https://dc.lft.to/lastmile_qr_scan", "ios": "https://dc.lft.to/lastmile_qr_scan"}, "fusion_lon": 0.0}, {"lat": 38.93255083333333, "is_disabled": 0, "type": "electric_scooter", "lon": -77.032841, "bike_id": "522e874c4c437a2d8ebac8f33435f74a", "fusion_lat": 0.0, "name": "522e874c4c437a2d8ebac8f33435f74a", "is_reserved": 0, "rental_uris": {"android": "https://dc.lft.to/lastmile_qr_scan", "ios": "https://dc.lft.to/lastmile_qr_scan"}, "fusion_lon": 0.0}, {"lat": 38.90610383333333, "is_disabled": 0, "type": "electric_scooter", "lon": -77.06283033333334, "bike_id": "f3fa42ccf0038d2f0cf2c4b2d7c8d946", "fusion_lat": 0.0, "name": "f3fa42ccf0038d2f0cf2c4b2d7c8d946", "is_reserved": 0, "rental_uris": {"android": "https://dc.lft.to/lastmile_qr_scan", "ios": "https://dc.lft.to/lastmile_qr_scan"}, "fusion_lon": 0.0}, {"lat": 38.91882316666667, "is_disabled": 0, "type": "electric_scooter", "lon": -77.0445215, "bike_id": "8da76e4f962b61de9c53e08bc0c47467", "fusion_lat": 0.0, "name": "8da76e4f962b61de9c53e08bc0c47467", "is_reserved": 0, "rental_uris": {"android": "https://dc.lft.to/lastmile_qr_scan", "ios": "https://dc.lft.to/lastmile_qr_scan"}, "fusion_lon": 0.0}, {"lat": 38.9178065, "is_disabled": 0, "type": "electric_scooter", "lon": -77.023529, "bike_id": "f96b3b8d00c8d2ee70004872e45836b4", "fusion_lat": 0.0, "name": "f96b3b8d00c8d2ee70004872e45836b4", "is_reserved": 0, "rental_uris": {"android": "https://dc.lft.to/lastmile_qr_scan", "ios": "https://dc.lft.to/lastmile_qr_scan"}, "fusion_lon": 0.0}, {"lat": 38.9314825, "is_disabled": 0, "type": "electric_scooter", "lon": -77.04146483333334, "bike_id": "6b6d944fd5f1171d5df74039a9b16f35", "fusion_lat": 0.0, "name": "6b6d944fd5f1171d5df74039a9b16f35", "is_reserved": 0, "rental_uris": {"android": "https://dc.lft.to/lastmile_qr_scan", "ios": "https://dc.lft.to/lastmile_qr_scan"}, "fusion_lon": 0.0}, {"lat": 38.86655616666667, "is_disabled": 0, "type": "electric_scooter", "lon": -76.9888395, "bike_id": "aefdc4c82325336550708314939f0ae1", "fusion_lat": 0.0, "name": "aefdc4c82325336550708314939f0ae1", "is_reserved": 0, "rental_uris": {"android": "https://dc.lft.to/lastmile_qr_scan", "ios": "https://dc.lft.to/lastmile_qr_scan"}, "fusion_lon": 0.0}, {"lat": 38.92159616666667, "is_disabled": 0, "type": "electric_scooter", "lon": -77.0334905, "bike_id": "0aa9a33548e66da3626c6bac695ffb07", "fusion_lat": 0.0, "name": "0aa9a33548e66da3626c6bac695ffb07", "is_reserved": 0, "rental_uris": {"android": "https://dc.lft.to/lastmile_qr_scan", "ios": "https://dc.lft.to/lastmile_qr_scan"}, "fusion_lon": 0.0}, {"lat": 38.923137, "is_disabled": 0, "type": "electric_scooter", "lon": -77.03960383333333, "bike_id": "06f85969a12527c521c8c252cabc535c", "fusion_lat": 0.0, "name": "06f85969a12527c521c8c252cabc535c", "is_reserved": 0, "rental_uris": {"android": "https://dc.lft.to/lastmile_qr_scan", "ios": "https://dc.lft.to/lastmile_qr_scan"}, "fusion_lon": 0.0}, {"lat": 38.90565816666667, "is_disabled": 0, "type": "electric_scooter", "lon": -77.02962416666666, "bike_id": "f6147fa33b3324d80c4a9f694124cdc4", "fusion_lat": 0.0, "name": "f6147fa33b3324d80c4a9f694124cdc4", "is_reserved": 0, "rental_uris": {"android": "https://dc.lft.to/lastmile_qr_scan", "ios": "https://dc.lft.to/lastmile_qr_scan"}, "fusion_lon": 0.0}, {"lat": 38.9135935, "is_disabled": 0, "type": "electric_scooter", "lon": -77.069235, "bike_id": "a4cddc72ed4305ba822693c3cf45cc77", "fusion_lat": 0.0, "name": "a4cddc72ed4305ba822693c3cf45cc77", "is_reserved": 0, "rental_uris": {"android": "https://dc.lft.to/lastmile_qr_scan", "ios": "https://dc.lft.to/lastmile_qr_scan"}, "fusion_lon": 0.0}, {"lat": 38.807447833333335, "is_disabled": 0, "type": "electric_bike", "lon": -77.09429433333334, "bike_id": "e16275c4f4a9c5ae7aaaa857d0af4fd8", "fusion_lat": 0.0, "name": "e16275c4f4a9c5ae7aaaa857d0af4fd8", "is_reserved": 0, "rental_uris": {"android": "https://dc.lft.to/lastmile_qr_scan", "ios": "https://dc.lft.to/lastmile_qr_scan"}, "fusion_lon": 0.0}, {"lat": 38.94709133333333, "is_disabled": 0, "type": "electric_scooter", "lon": -77.01943, "bike_id": "c6b95cf02c33fa3dc713813e581268ce", "fusion_lat": 0.0, "name": "c6b95cf02c33fa3dc713813e581268ce", "is_reserved": 0, "rental_uris": {"android": "https://dc.lft.to/lastmile_qr_scan", "ios": "https://dc.lft.to/lastmile_qr_scan"}, "fusion_lon": 0.0}, {"lat": 38.93541866666666, "is_disabled": 0, "type": "electric_scooter", "lon": -77.03419433333333, "bike_id": "788208ba108041e9fef59cc9ebc5ce3a", "fusion_lat": 0.0, "name": "788208ba108041e9fef59cc9ebc5ce3a", "is_reserved": 0, "rental_uris": {"android": "https://dc.lft.to/lastmile_qr_scan", "ios": "https://dc.lft.to/lastmile_qr_scan"}, "fusion_lon": 0.0}, {"lat": 38.921853666666664, "is_disabled": 0, "type": "electric_scooter", "lon": -77.04129566666667, "bike_id": "f085a05f67647055bf69c3b99978c098", "fusion_lat": 0.0, "name": "f085a05f67647055bf69c3b99978c098", "is_reserved": 0, "rental_uris": {"android": "https://dc.lft.to/lastmile_qr_scan", "ios": "https://dc.lft.to/lastmile_qr_scan"}, "fusion_lon": 0.0}, {"lat": 38.93637016666667, "is_disabled": 0, "type": "electric_scooter", "lon": -77.0248765, "bike_id": "fc10ccb4cfb1982362c9f94784516d9e", "fusion_lat": 0.0, "name": "fc10ccb4cfb1982362c9f94784516d9e", "is_reserved": 0, "rental_uris": {"android": "https://dc.lft.to/lastmile_qr_scan", "ios": "https://dc.lft.to/lastmile_qr_scan"}, "fusion_lon": 0.0}, {"lat": 38.908036833333334, "is_disabled": 0, "type": "electric_scooter", "lon": -77.06370833333334, "bike_id": "37ffc85172b4f67b1727a14d03d14ef1", "fusion_lat": 0.0, "name": "37ffc85172b4f67b1727a14d03d14ef1", "is_reserved": 0, "rental_uris": {"android": "https://dc.lft.to/lastmile_qr_scan", "ios": "https://dc.lft.to/lastmile_qr_scan"}, "fusion_lon": 0.0}, {"lat": 38.88487, "is_disabled": 0, "type": "electric_scooter", "lon": -77.03477333333333, "bike_id": "026fad370ef783126f0607c31901c6df", "fusion_lat": 0.0, "name": "026fad370ef783126f0607c31901c6df", "is_reserved": 0, "rental_uris": {"android": "https://dc.lft.to/lastmile_qr_scan", "ios": "https://dc.lft.to/lastmile_qr_scan"}, "fusion_lon": 0.0}, {"lat": 38.9253805, "is_disabled": 0, "type": "electric_scooter", "lon": -77.044293, "bike_id": "1890982a6fc4df7054300cc04c2f47bb", "fusion_lat": 0.0, "name": "1890982a6fc4df7054300cc04c2f47bb", "is_reserved": 0, "rental_uris": {"android": "https://dc.lft.to/lastmile_qr_scan", "ios": "https://dc.lft.to/lastmile_qr_scan"}, "fusion_lon": 0.0}, {"lat": 38.90032883333333, "is_disabled": 0, "type": "electric_scooter", "lon": -76.993802, "bike_id": "b1d3347b45561fb873e43a2f7108a4a6", "fusion_lat": 0.0, "name": "b1d3347b45561fb873e43a2f7108a4a6", "is_reserved": 0, "rental_uris": {"android": "https://dc.lft.to/lastmile_qr_scan", "ios": "https://dc.lft.to/lastmile_qr_scan"}, "fusion_lon": 0.0}, {"lat": 38.928546833333336, "is_disabled": 0, "type": "electric_bike", "lon": -77.10680466666666, "bike_id": "03576ecc0c6e05096cc2139dd0e622c1", "fusion_lat": 0.0, "name": "03576ecc0c6e05096cc2139dd0e622c1", "is_reserved": 0, "rental_uris": {"android": "https://dc.lft.to/lastmile_qr_scan", "ios": "https://dc.lft.to/lastmile_qr_scan"}, "fusion_lon": 0.0}, {"lat": 38.91489266666667, "is_disabled": 0, "type": "electric_scooter", "lon": -77.032661, "bike_id": "7675965060196b3d00cf2efec42b2894", "fusion_lat": 0.0, "name": "7675965060196b3d00cf2efec42b2894", "is_reserved": 0, "rental_uris": {"android": "https://dc.lft.to/lastmile_qr_scan", "ios": "https://dc.lft.to/lastmile_qr_scan"}, "fusion_lon": 0.0}, {"lat": 38.865101833333334, "is_disabled": 0, "type": "electric_scooter", "lon": -76.99006866666667, "bike_id": "fb53ff901a72a51acb2bab771c6fc613", "fusion_lat": 0.0, "name": "fb53ff901a72a51acb2bab771c6fc613", "is_reserved": 0, "rental_uris": {"android": "https://dc.lft.to/lastmile_qr_scan", "ios": "https://dc.lft.to/lastmile_qr_scan"}, "fusion_lon": 0.0}, {"lat": 38.881079, "is_disabled": 0, "type": "electric_scooter", "lon": -77.016439, "bike_id": "6db19538f70882acdcc28f81a021c477", "fusion_lat": 0.0, "name": "6db19538f70882acdcc28f81a021c477", "is_reserved": 0, "rental_uris": {"android": "https://dc.lft.to/lastmile_qr_scan", "ios": "https://dc.lft.to/lastmile_qr_scan"}, "fusion_lon": 0.0}, {"lat": 38.86713116666667, "is_disabled": 0, "type": "electric_scooter", "lon": -76.98726583333334, "bike_id": "0ae789730b0cbccdba6f47a9096f5c24", "fusion_lat": 0.0, "name": "0ae789730b0cbccdba6f47a9096f5c24", "is_reserved": 0, "rental_uris": {"android": "https://dc.lft.to/lastmile_qr_scan", "ios": "https://dc.lft.to/lastmile_qr_scan"}, "fusion_lon": 0.0}, {"lat": 38.92508816666667, "is_disabled": 0, "type": "electric_scooter", "lon": -76.9823235, "bike_id": "f173d453fff60601e7c4f0c91aeb2d6d", "fusion_lat": 0.0, "name": "f173d453fff60601e7c4f0c91aeb2d6d", "is_reserved": 0, "rental_uris": {"android": "https://dc.lft.to/lastmile_qr_scan", "ios": "https://dc.lft.to/lastmile_qr_scan"}, "fusion_lon": 0.0}, {"lat": 38.9492235, "is_disabled": 0, "type": "electric_bike", "lon": -77.0079535, "bike_id": "8fa245557c5b8e9552312881db0973db", "fusion_lat": 0.0, "name": "8fa245557c5b8e9552312881db0973db", "is_reserved": 0, "rental_uris": {"android": "https://dc.lft.to/lastmile_qr_scan", "ios": "https://dc.lft.to/lastmile_qr_scan"}, "fusion_lon": 0.0}, {"lat": 38.90530666666667, "is_disabled": 0, "type": "electric_scooter", "lon": -77.04886133333333, "bike_id": "88bda89233580e87c27accad08d16654", "fusion_lat": 0.0, "name": "88bda89233580e87c27accad08d16654", "is_reserved": 0, "rental_uris": {"android": "https://dc.lft.to/lastmile_qr_scan", "ios": "https://dc.lft.to/lastmile_qr_scan"}, "fusion_lon": 0.0}, {"lat": 38.9001415, "is_disabled": 0, "type": "electric_scooter", "lon": -77.01203216666667, "bike_id": "22ab67c0e99661d09e0433b367308e5b", "fusion_lat": 0.0, "name": "22ab67c0e99661d09e0433b367308e5b", "is_reserved": 0, "rental_uris": {"android": "https://dc.lft.to/lastmile_qr_scan", "ios": "https://dc.lft.to/lastmile_qr_scan"}, "fusion_lon": 0.0}, {"lat": 38.90076233333333, "is_disabled": 0, "type": "electric_scooter", "lon": -77.05067266666667, "bike_id": "cf52bfb2cb8ce28922dba33f061fc788", "fusion_lat": 0.0, "name": "cf52bfb2cb8ce28922dba33f061fc788", "is_reserved": 0, "rental_uris": {"android": "https://dc.lft.to/lastmile_qr_scan", "ios": "https://dc.lft.to/lastmile_qr_scan"}, "fusion_lon": 0.0}, {"lat": 38.884759833333334, "is_disabled": 0, "type": "electric_scooter", "lon": -77.024263, "bike_id": "b7fe9da4c5b617139c65d6c470ff2431", "fusion_lat": 0.0, "name": "b7fe9da4c5b617139c65d6c470ff2431", "is_reserved": 0, "rental_uris": {"android": "https://dc.lft.to/lastmile_qr_scan", "ios": "https://dc.lft.to/lastmile_qr_scan"}, "fusion_lon": 0.0}, {"lat": 38.892598666666665, "is_disabled": 0, "type": "electric_scooter", "lon": -76.941512, "bike_id": "7f0783c8b893c7bfccb5d7a8ae2859e3", "fusion_lat": 0.0, "name": "7f0783c8b893c7bfccb5d7a8ae2859e3", "is_reserved": 0, "rental_uris": {"android": "https://dc.lft.to/lastmile_qr_scan", "ios": "https://dc.lft.to/lastmile_qr_scan"}, "fusion_lon": 0.0}, {"lat": 38.931959166666665, "is_disabled": 0, "type": "electric_scooter", "lon": -77.03746816666667, "bike_id": "375b13e1f2a143589ef5a7cc273f0b02", "fusion_lat": 0.0, "name": "375b13e1f2a143589ef5a7cc273f0b02", "is_reserved": 0, "rental_uris": {"android": "https://dc.lft.to/lastmile_qr_scan", "ios": "https://dc.lft.to/lastmile_qr_scan"}, "fusion_lon": 0.0}, {"lat": 38.80682066666667, "is_disabled": 0, "type": "electric_bike", "lon": -77.081238, "bike_id": "533ec8a8de8bf91e353139bed58b6629", "fusion_lat": 0.0, "name": "533ec8a8de8bf91e353139bed58b6629", "is_reserved": 0, "rental_uris": {"android": "https://dc.lft.to/lastmile_qr_scan", "ios": "https://dc.lft.to/lastmile_qr_scan"}, "fusion_lon": 0.0}, {"lat": 38.912735833333336, "is_disabled": 0, "type": "electric_bike", "lon": -77.012226, "bike_id": "ce1be0d5c61aba9eb1a8e1a327edd5de", "fusion_lat": 0.0, "name": "ce1be0d5c61aba9eb1a8e1a327edd5de", "is_reserved": 0, "rental_uris": {"android": "https://dc.lft.to/lastmile_qr_scan", "ios": "https://dc.lft.to/lastmile_qr_scan"}, "fusion_lon": 0.0}, {"lat": 38.87412416666667, "is_disabled": 0, "type": "electric_scooter", "lon": -76.973104, "bike_id": "7555fb53c1a7071b306e4e5da1fb2d8e", "fusion_lat": 0.0, "name": "7555fb53c1a7071b306e4e5da1fb2d8e", "is_reserved": 0, "rental_uris": {"android": "https://dc.lft.to/lastmile_qr_scan", "ios": "https://dc.lft.to/lastmile_qr_scan"}, "fusion_lon": 0.0}, {"lat": 38.93993433333333, "is_disabled": 0, "type": "electric_scooter", "lon": -77.07179166666667, "bike_id": "7508bd971d4c748b12ea5baa506cf191", "fusion_lat": 0.0, "name": "7508bd971d4c748b12ea5baa506cf191", "is_reserved": 0, "rental_uris": {"android": "https://dc.lft.to/lastmile_qr_scan", "ios": "https://dc.lft.to/lastmile_qr_scan"}, "fusion_lon": 0.0}, {"lat": 38.897646333333334, "is_disabled": 0, "type": "electric_scooter", "lon": -77.04546133333334, "bike_id": "81380bf1232009bcd3ddb79a776fbecb", "fusion_lat": 0.0, "name": "81380bf1232009bcd3ddb79a776fbecb", "is_reserved": 0, "rental_uris": {"android": "https://dc.lft.to/lastmile_qr_scan", "ios": "https://dc.lft.to/lastmile_qr_scan"}, "fusion_lon": 0.0}, {"lat": 38.90376583333333, "is_disabled": 0, "type": "electric_scooter", "lon": -77.01758766666667, "bike_id": "ec1fc111609e31085819dc3ba48ade85", "fusion_lat": 0.0, "name": "ec1fc111609e31085819dc3ba48ade85", "is_reserved": 0, "rental_uris": {"android": "https://dc.lft.to/lastmile_qr_scan", "ios": "https://dc.lft.to/lastmile_qr_scan"}, "fusion_lon": 0.0}, {"lat": 38.899112, "is_disabled": 0, "type": "electric_scooter", "lon": -76.93349216666667, "bike_id": "a9e702a11c80ba07e7b188ec260f7582", "fusion_lat": 0.0, "name": "a9e702a11c80ba07e7b188ec260f7582", "is_reserved": 0, "rental_uris": {"android": "https://dc.lft.to/lastmile_qr_scan", "ios": "https://dc.lft.to/lastmile_qr_scan"}, "fusion_lon": 0.0}, {"lat": 38.866581, "is_disabled": 0, "type": "electric_scooter", "lon": -76.98885166666666, "bike_id": "0227122c576480c7e8d31f8f56aafc5e", "fusion_lat": 0.0, "name": "0227122c576480c7e8d31f8f56aafc5e", "is_reserved": 0, "rental_uris": {"android": "https://dc.lft.to/lastmile_qr_scan", "ios": "https://dc.lft.to/lastmile_qr_scan"}, "fusion_lon": 0.0}, {"lat": 38.9178835, "is_disabled": 0, "type": "electric_scooter", "lon": -77.04355166666667, "bike_id": "a28e6abbbb51319ec8a83481ab9ac490", "fusion_lat": 0.0, "name": "a28e6abbbb51319ec8a83481ab9ac490", "is_reserved": 0, "rental_uris": {"android": "https://dc.lft.to/lastmile_qr_scan", "ios": "https://dc.lft.to/lastmile_qr_scan"}, "fusion_lon": 0.0}, {"lat": 38.925702333333334, "is_disabled": 0, "type": "electric_scooter", "lon": -77.0576085, "bike_id": "276636f36df3a72e27b315cd60d75d6f", "fusion_lat": 0.0, "name": "276636f36df3a72e27b315cd60d75d6f", "is_reserved": 0, "rental_uris": {"android": "https://dc.lft.to/lastmile_qr_scan", "ios": "https://dc.lft.to/lastmile_qr_scan"}, "fusion_lon": 0.0}, {"lat": 38.92145583333333, "is_disabled": 0, "type": "electric_scooter", "lon": -77.04367216666667, "bike_id": "ef502ad5196792e6dbf2cf00ffc32b19", "fusion_lat": 0.0, "name": "ef502ad5196792e6dbf2cf00ffc32b19", "is_reserved": 0, "rental_uris": {"android": "https://dc.lft.to/lastmile_qr_scan", "ios": "https://dc.lft.to/lastmile_qr_scan"}, "fusion_lon": 0.0}, {"lat": 38.903689666666665, "is_disabled": 0, "type": "electric_scooter", "lon": -77.01736883333334, "bike_id": "8b355d789efd9a56352f75ffa55ff30d", "fusion_lat": 0.0, "name": "8b355d789efd9a56352f75ffa55ff30d", "is_reserved": 0, "rental_uris": {"android": "https://dc.lft.to/lastmile_qr_scan", "ios": "https://dc.lft.to/lastmile_qr_scan"}, "fusion_lon": 0.0}, {"lat": 38.90330683333333, "is_disabled": 0, "type": "electric_scooter", "lon": -76.97595466666667, "bike_id": "ec2de84eeb70c013adb6d3fe68377829", "fusion_lat": 0.0, "name": "ec2de84eeb70c013adb6d3fe68377829", "is_reserved": 0, "rental_uris": {"android": "https://dc.lft.to/lastmile_qr_scan", "ios": "https://dc.lft.to/lastmile_qr_scan"}, "fusion_lon": 0.0}, {"lat": 38.92787, "is_disabled": 0, "type": "electric_scooter", "lon": -77.05253266666666, "bike_id": "00be5611b3f0dc8b984e2f324292fad6", "fusion_lat": 0.0, "name": "00be5611b3f0dc8b984e2f324292fad6", "is_reserved": 0, "rental_uris": {"android": "https://dc.lft.to/lastmile_qr_scan", "ios": "https://dc.lft.to/lastmile_qr_scan"}, "fusion_lon": 0.0}, {"lat": 38.89851766666666, "is_disabled": 0, "type": "electric_bike", "lon": -76.9318895, "bike_id": "9e11f2332e6b8da71c0fedafa5304e8c", "fusion_lat": 0.0, "name": "9e11f2332e6b8da71c0fedafa5304e8c", "is_reserved": 0, "rental_uris": {"android": "https://dc.lft.to/lastmile_qr_scan", "ios": "https://dc.lft.to/lastmile_qr_scan"}, "fusion_lon": 0.0}, {"lat": 38.8960605, "is_disabled": 0, "type": "electric_scooter", "lon": -77.00926, "bike_id": "6a2426cd77fa60fcb3520f352b8eab63", "fusion_lat": 0.0, "name": "6a2426cd77fa60fcb3520f352b8eab63", "is_reserved": 0, "rental_uris": {"android": "https://dc.lft.to/lastmile_qr_scan", "ios": "https://dc.lft.to/lastmile_qr_scan"}, "fusion_lon": 0.0}, {"lat": 38.93707966666667, "is_disabled": 0, "type": "electric_scooter", "lon": -77.06104783333333, "bike_id": "f366ebf609ad2f1769f0f44838fb82ea", "fusion_lat": 0.0, "name": "f366ebf609ad2f1769f0f44838fb82ea", "is_reserved": 0, "rental_uris": {"android": "https://dc.lft.to/lastmile_qr_scan", "ios": "https://dc.lft.to/lastmile_qr_scan"}, "fusion_lon": 0.0}, {"lat": 38.915221, "is_disabled": 0, "type": "electric_scooter", "lon": -77.0384055, "bike_id": "19cb3391db3aa179ca09f47281b8a4d1", "fusion_lat": 0.0, "name": "19cb3391db3aa179ca09f47281b8a4d1", "is_reserved": 0, "rental_uris": {"android": "https://dc.lft.to/lastmile_qr_scan", "ios": "https://dc.lft.to/lastmile_qr_scan"}, "fusion_lon": 0.0}, {"lat": 38.933853, "is_disabled": 0, "type": "electric_scooter", "lon": -76.99512783333333, "bike_id": "0bf3417d23364c36c1e9327d091c4cb5", "fusion_lat": 0.0, "name": "0bf3417d23364c36c1e9327d091c4cb5", "is_reserved": 0, "rental_uris": {"android": "https://dc.lft.to/lastmile_qr_scan", "ios": "https://dc.lft.to/lastmile_qr_scan"}, "fusion_lon": 0.0}, {"lat": 38.93120566666666, "is_disabled": 0, "type": "electric_scooter", "lon": -77.0301825, "bike_id": "636c2e07646f617df410e0cf0523316a", "fusion_lat": 0.0, "name": "636c2e07646f617df410e0cf0523316a", "is_reserved": 0, "rental_uris": {"android": "https://dc.lft.to/lastmile_qr_scan", "ios": "https://dc.lft.to/lastmile_qr_scan"}, "fusion_lon": 0.0}, {"lat": 38.917634, "is_disabled": 0, "type": "electric_scooter", "lon": -77.03660166666667, "bike_id": "2a84e0185bdf777790cd04f76b29bb14", "fusion_lat": 0.0, "name": "2a84e0185bdf777790cd04f76b29bb14", "is_reserved": 0, "rental_uris": {"android": "https://dc.lft.to/lastmile_qr_scan", "ios": "https://dc.lft.to/lastmile_qr_scan"}, "fusion_lon": 0.0}, {"lat": 38.93575283333333, "is_disabled": 0, "type": "electric_scooter", "lon": -77.03262233333334, "bike_id": "3c9bc2f7d0a0007b13ff93e81c1dabab", "fusion_lat": 0.0, "name": "3c9bc2f7d0a0007b13ff93e81c1dabab", "is_reserved": 0, "rental_uris": {"android": "https://dc.lft.to/lastmile_qr_scan", "ios": "https://dc.lft.to/lastmile_qr_scan"}, "fusion_lon": 0.0}, {"lat": 38.90580283333333, "is_disabled": 0, "type": "electric_scooter", "lon": -77.03638766666667, "bike_id": "3204cc9455f0ed255ba0364c82d8ba79", "fusion_lat": 0.0, "name": "3204cc9455f0ed255ba0364c82d8ba79", "is_reserved": 0, "rental_uris": {"android": "https://dc.lft.to/lastmile_qr_scan", "ios": "https://dc.lft.to/lastmile_qr_scan"}, "fusion_lon": 0.0}, {"lat": 38.9153035, "is_disabled": 0, "type": "electric_scooter", "lon": -77.032045, "bike_id": "2e4e9c8ceee5522e0d50f77b9c079bab", "fusion_lat": 0.0, "name": "2e4e9c8ceee5522e0d50f77b9c079bab", "is_reserved": 0, "rental_uris": {"android": "https://dc.lft.to/lastmile_qr_scan", "ios": "https://dc.lft.to/lastmile_qr_scan"}, "fusion_lon": 0.0}, {"lat": 38.9027345, "is_disabled": 0, "type": "electric_scooter", "lon": -77.0338075, "bike_id": "3bb501294bd5ac36a3bba86e00ba5e65", "fusion_lat": 0.0, "name": "3bb501294bd5ac36a3bba86e00ba5e65", "is_reserved": 0, "rental_uris": {"android": "https://dc.lft.to/lastmile_qr_scan", "ios": "https://dc.lft.to/lastmile_qr_scan"}, "fusion_lon": 0.0}, {"lat": 38.9174115, "is_disabled": 0, "type": "electric_scooter", "lon": -77.0252215, "bike_id": "93b261a22e19578d5e68274f802b676c", "fusion_lat": 0.0, "name": "93b261a22e19578d5e68274f802b676c", "is_reserved": 0, "rental_uris": {"android": "https://dc.lft.to/lastmile_qr_scan", "ios": "https://dc.lft.to/lastmile_qr_scan"}, "fusion_lon": 0.0}, {"lat": 38.921514333333334, "is_disabled": 0, "type": "electric_scooter", "lon": -77.03871733333334, "bike_id": "a15b4daa6fead2c748c45eebeecdaa2a", "fusion_lat": 0.0, "name": "a15b4daa6fead2c748c45eebeecdaa2a", "is_reserved": 0, "rental_uris": {"android": "https://dc.lft.to/lastmile_qr_scan", "ios": "https://dc.lft.to/lastmile_qr_scan"}, "fusion_lon": 0.0}, {"lat": 38.93616016666667, "is_disabled": 0, "type": "electric_scooter", "lon": -77.05748433333333, "bike_id": "6c55ee114b0357ae853a99a95eb3bb7b", "fusion_lat": 0.0, "name": "6c55ee114b0357ae853a99a95eb3bb7b", "is_reserved": 0, "rental_uris": {"android": "https://dc.lft.to/lastmile_qr_scan", "ios": "https://dc.lft.to/lastmile_qr_scan"}, "fusion_lon": 0.0}, {"lat": 38.87989066666667, "is_disabled": 0, "type": "electric_scooter", "lon": -76.98684266666666, "bike_id": "8673fd3ba1389497412f3ccdc9ea26d6", "fusion_lat": 0.0, "name": "8673fd3ba1389497412f3ccdc9ea26d6", "is_reserved": 0, "rental_uris": {"android": "https://dc.lft.to/lastmile_qr_scan", "ios": "https://dc.lft.to/lastmile_qr_scan"}, "fusion_lon": 0.0}, {"lat": 38.8670165, "is_disabled": 0, "type": "electric_scooter", "lon": -76.98710833333334, "bike_id": "e409a9689d24e237129ccfba55a5db25", "fusion_lat": 0.0, "name": "e409a9689d24e237129ccfba55a5db25", "is_reserved": 0, "rental_uris": {"android": "https://dc.lft.to/lastmile_qr_scan", "ios": "https://dc.lft.to/lastmile_qr_scan"}, "fusion_lon": 0.0}, {"lat": 38.90249933333333, "is_disabled": 0, "type": "electric_scooter", "lon": -77.0176545, "bike_id": "22ca21356ba5246dd749915e6d4a6dd8", "fusion_lat": 0.0, "name": "22ca21356ba5246dd749915e6d4a6dd8", "is_reserved": 0, "rental_uris": {"android": "https://dc.lft.to/lastmile_qr_scan", "ios": "https://dc.lft.to/lastmile_qr_scan"}, "fusion_lon": 0.0}, {"lat": 38.92500016666666, "is_disabled": 0, "type": "electric_scooter", "lon": -77.07645833333333, "bike_id": "14353a58a9acfcfdd3dd0caa4ff497d2", "fusion_lat": 0.0, "name": "14353a58a9acfcfdd3dd0caa4ff497d2", "is_reserved": 0, "rental_uris": {"android": "https://dc.lft.to/lastmile_qr_scan", "ios": "https://dc.lft.to/lastmile_qr_scan"}, "fusion_lon": 0.0}, {"lat": 38.932496666666665, "is_disabled": 0, "type": "electric_scooter", "lon": -77.066544, "bike_id": "9d0ca69d9061fe48f15a266fd8109397", "fusion_lat": 0.0, "name": "9d0ca69d9061fe48f15a266fd8109397", "is_reserved": 0, "rental_uris": {"android": "https://dc.lft.to/lastmile_qr_scan", "ios": "https://dc.lft.to/lastmile_qr_scan"}, "fusion_lon": 0.0}, {"lat": 38.94633016666667, "is_disabled": 0, "type": "electric_scooter", "lon": -77.0252495, "bike_id": "e6f3196ce89cdeb05c9917e12c7e557d", "fusion_lat": 0.0, "name": "e6f3196ce89cdeb05c9917e12c7e557d", "is_reserved": 0, "rental_uris": {"android": "https://dc.lft.to/lastmile_qr_scan", "ios": "https://dc.lft.to/lastmile_qr_scan"}, "fusion_lon": 0.0}, {"lat": 38.922967166666666, "is_disabled": 0, "type": "electric_scooter", "lon": -77.042669, "bike_id": "d5e36027d5758162eef51f56b85a3726", "fusion_lat": 0.0, "name": "d5e36027d5758162eef51f56b85a3726", "is_reserved": 0, "rental_uris": {"android": "https://dc.lft.to/lastmile_qr_scan", "ios": "https://dc.lft.to/lastmile_qr_scan"}, "fusion_lon": 0.0}, {"lat": 38.897460833333334, "is_disabled": 0, "type": "electric_scooter", "lon": -77.046782, "bike_id": "13f228bdf2916326bbc95f67a47346df", "fusion_lat": 0.0, "name": "13f228bdf2916326bbc95f67a47346df", "is_reserved": 0, "rental_uris": {"android": "https://dc.lft.to/lastmile_qr_scan", "ios": "https://dc.lft.to/lastmile_qr_scan"}, "fusion_lon": 0.0}, {"lat": 38.9275055, "is_disabled": 0, "type": "electric_scooter", "lon": -77.02421583333333, "bike_id": "a30fba417f6fce0b8246677a29e5a7ec", "fusion_lat": 0.0, "name": "a30fba417f6fce0b8246677a29e5a7ec", "is_reserved": 0, "rental_uris": {"android": "https://dc.lft.to/lastmile_qr_scan", "ios": "https://dc.lft.to/lastmile_qr_scan"}, "fusion_lon": 0.0}, {"lat": 38.90144516666667, "is_disabled": 0, "type": "electric_scooter", "lon": -77.000651, "bike_id": "6e1dbaf0eac93d9def4c7fc8e3a1e68f", "fusion_lat": 0.0, "name": "6e1dbaf0eac93d9def4c7fc8e3a1e68f", "is_reserved": 0, "rental_uris": {"android": "https://dc.lft.to/lastmile_qr_scan", "ios": "https://dc.lft.to/lastmile_qr_scan"}, "fusion_lon": 0.0}, {"lat": 38.9274565, "is_disabled": 0, "type": "electric_bike", "lon": -77.03419516666666, "bike_id": "42b351fc880a921fad4cb54d06f65097", "fusion_lat": 0.0, "name": "42b351fc880a921fad4cb54d06f65097", "is_reserved": 0, "rental_uris": {"android": "https://dc.lft.to/lastmile_qr_scan", "ios": "https://dc.lft.to/lastmile_qr_scan"}, "fusion_lon": 0.0}, {"lat": 38.923571, "is_disabled": 0, "type": "electric_scooter", "lon": -77.04143883333333, "bike_id": "f6916999cf51817d9359a34119792d54", "fusion_lat": 0.0, "name": "f6916999cf51817d9359a34119792d54", "is_reserved": 0, "rental_uris": {"android": "https://dc.lft.to/lastmile_qr_scan", "ios": "https://dc.lft.to/lastmile_qr_scan"}, "fusion_lon": 0.0}, {"lat": 38.957336, "is_disabled": 0, "type": "electric_scooter", "lon": -77.02401083333334, "bike_id": "b31a45f285a9bc19675306789014b903", "fusion_lat": 0.0, "name": "b31a45f285a9bc19675306789014b903", "is_reserved": 0, "rental_uris": {"android": "https://dc.lft.to/lastmile_qr_scan", "ios": "https://dc.lft.to/lastmile_qr_scan"}, "fusion_lon": 0.0}, {"lat": 38.90684566666667, "is_disabled": 0, "type": "electric_scooter", "lon": -77.0362545, "bike_id": "12fc67f91a7a90e7738d45cbbd644737", "fusion_lat": 0.0, "name": "12fc67f91a7a90e7738d45cbbd644737", "is_reserved": 0, "rental_uris": {"android": "https://dc.lft.to/lastmile_qr_scan", "ios": "https://dc.lft.to/lastmile_qr_scan"}, "fusion_lon": 0.0}, {"lat": 38.9161435, "is_disabled": 0, "type": "electric_scooter", "lon": -77.036444, "bike_id": "b42d673930bcbeb9d25e9fb2306a705e", "fusion_lat": 0.0, "name": "b42d673930bcbeb9d25e9fb2306a705e", "is_reserved": 0, "rental_uris": {"android": "https://dc.lft.to/lastmile_qr_scan", "ios": "https://dc.lft.to/lastmile_qr_scan"}, "fusion_lon": 0.0}, {"lat": 38.92383683333333, "is_disabled": 0, "type": "electric_scooter", "lon": -77.057505, "bike_id": "18b46eacbba651c445a66f4fe501bf9b", "fusion_lat": 0.0, "name": "18b46eacbba651c445a66f4fe501bf9b", "is_reserved": 0, "rental_uris": {"android": "https://dc.lft.to/lastmile_qr_scan", "ios": "https://dc.lft.to/lastmile_qr_scan"}, "fusion_lon": 0.0}, {"lat": 38.915602666666665, "is_disabled": 0, "type": "electric_scooter", "lon": -77.03844083333334, "bike_id": "6f3e60a33bcbb96d18fa7a9e79ac346d", "fusion_lat": 0.0, "name": "6f3e60a33bcbb96d18fa7a9e79ac346d", "is_reserved": 0, "rental_uris": {"android": "https://dc.lft.to/lastmile_qr_scan", "ios": "https://dc.lft.to/lastmile_qr_scan"}, "fusion_lon": 0.0}, {"lat": 38.95496766666667, "is_disabled": 0, "type": "electric_scooter", "lon": -77.06567916666667, "bike_id": "38da683eee3ad2b9653b7f6d9dce37b6", "fusion_lat": 0.0, "name": "38da683eee3ad2b9653b7f6d9dce37b6", "is_reserved": 0, "rental_uris": {"android": "https://dc.lft.to/lastmile_qr_scan", "ios": "https://dc.lft.to/lastmile_qr_scan"}, "fusion_lon": 0.0}, {"lat": 38.91203516666667, "is_disabled": 0, "type": "electric_scooter", "lon": -77.01467316666667, "bike_id": "f11cf28f602af7a77681b03d1f672e0b", "fusion_lat": 0.0, "name": "f11cf28f602af7a77681b03d1f672e0b", "is_reserved": 0, "rental_uris": {"android": "https://dc.lft.to/lastmile_qr_scan", "ios": "https://dc.lft.to/lastmile_qr_scan"}, "fusion_lon": 0.0}, {"lat": 38.952568166666666, "is_disabled": 0, "type": "electric_scooter", "lon": -77.06979533333333, "bike_id": "1d5e1e014ba70cbd61bfef35c67bcd53", "fusion_lat": 0.0, "name": "1d5e1e014ba70cbd61bfef35c67bcd53", "is_reserved": 0, "rental_uris": {"android": "https://dc.lft.to/lastmile_qr_scan", "ios": "https://dc.lft.to/lastmile_qr_scan"}, "fusion_lon": 0.0}, {"lat": 38.916848333333334, "is_disabled": 0, "type": "electric_scooter", "lon": -77.02946733333333, "bike_id": "9ea4a8337579e57f07bcbc5d8867b9cf", "fusion_lat": 0.0, "name": "9ea4a8337579e57f07bcbc5d8867b9cf", "is_reserved": 0, "rental_uris": {"android": "https://dc.lft.to/lastmile_qr_scan", "ios": "https://dc.lft.to/lastmile_qr_scan"}, "fusion_lon": 0.0}, {"lat": 38.92793016666667, "is_disabled": 0, "type": "electric_scooter", "lon": -77.05527416666666, "bike_id": "220dab932de16055fba45b6fd72bd13c", "fusion_lat": 0.0, "name": "220dab932de16055fba45b6fd72bd13c", "is_reserved": 0, "rental_uris": {"android": "https://dc.lft.to/lastmile_qr_scan", "ios": "https://dc.lft.to/lastmile_qr_scan"}, "fusion_lon": 0.0}, {"lat": 38.938772666666665, "is_disabled": 0, "type": "electric_scooter", "lon": -77.02006816666666, "bike_id": "384df5678941eb79723f58d19c1b8a70", "fusion_lat": 0.0, "name": "384df5678941eb79723f58d19c1b8a70", "is_reserved": 0, "rental_uris": {"android": "https://dc.lft.to/lastmile_qr_scan", "ios": "https://dc.lft.to/lastmile_qr_scan"}, "fusion_lon": 0.0}, {"lat": 38.90285866666667, "is_disabled": 0, "type": "electric_scooter", "lon": -77.03331816666666, "bike_id": "9b18d3b503a0e317d790e944cd902e39", "fusion_lat": 0.0, "name": "9b18d3b503a0e317d790e944cd902e39", "is_reserved": 0, "rental_uris": {"android": "https://dc.lft.to/lastmile_qr_scan", "ios": "https://dc.lft.to/lastmile_qr_scan"}, "fusion_lon": 0.0}, {"lat": 38.93370016666667, "is_disabled": 0, "type": "electric_scooter", "lon": -77.0238575, "bike_id": "774c885a72df44a88d7e76fc3634386d", "fusion_lat": 0.0, "name": "774c885a72df44a88d7e76fc3634386d", "is_reserved": 0, "rental_uris": {"android": "https://dc.lft.to/lastmile_qr_scan", "ios": "https://dc.lft.to/lastmile_qr_scan"}, "fusion_lon": 0.0}, {"lat": 38.9257745, "is_disabled": 0, "type": "electric_scooter", "lon": -77.0282175, "bike_id": "d90a15dc88de39b90395a082d1ba52ac", "fusion_lat": 0.0, "name": "d90a15dc88de39b90395a082d1ba52ac", "is_reserved": 0, "rental_uris": {"android": "https://dc.lft.to/lastmile_qr_scan", "ios": "https://dc.lft.to/lastmile_qr_scan"}, "fusion_lon": 0.0}, {"lat": 38.95335566666667, "is_disabled": 0, "type": "electric_bike", "lon": -76.97363333333334, "bike_id": "d13c6c9d92c454816bb64c1dd7af8c83", "fusion_lat": 0.0, "name": "d13c6c9d92c454816bb64c1dd7af8c83", "is_reserved": 0, "rental_uris": {"android": "https://dc.lft.to/lastmile_qr_scan", "ios": "https://dc.lft.to/lastmile_qr_scan"}, "fusion_lon": 0.0}, {"lat": 39.00004083333334, "is_disabled": 0, "type": "electric_bike", "lon": -76.910872, "bike_id": "ad312e7017ddb33dcb8e3f0741c59854", "fusion_lat": 0.0, "name": "ad312e7017ddb33dcb8e3f0741c59854", "is_reserved": 0, "rental_uris": {"android": "https://dc.lft.to/lastmile_qr_scan", "ios": "https://dc.lft.to/lastmile_qr_scan"}, "fusion_lon": 0.0}, {"lat": 38.8655355, "is_disabled": 0, "type": "electric_scooter", "lon": -76.97420183333334, "bike_id": "ca2c5c3820783403367010246439ba49", "fusion_lat": 0.0, "name": "ca2c5c3820783403367010246439ba49", "is_reserved": 0, "rental_uris": {"android": "https://dc.lft.to/lastmile_qr_scan", "ios": "https://dc.lft.to/lastmile_qr_scan"}, "fusion_lon": 0.0}, {"lat": 38.86389, "is_disabled": 0, "type": "electric_bike", "lon": -76.989939, "bike_id": "fa6f67f3a41cf46c79367d748d34e774", "fusion_lat": 0.0, "name": "fa6f67f3a41cf46c79367d748d34e774", "is_reserved": 0, "rental_uris": {"android": "https://dc.lft.to/lastmile_qr_scan", "ios": "https://dc.lft.to/lastmile_qr_scan"}, "fusion_lon": 0.0}, {"lat": 38.853208333333335, "is_disabled": 0, "type": "electric_bike", "lon": -76.98012633333333, "bike_id": "903859111e40f2418d0a53dab18cf99a", "fusion_lat": 0.0, "name": "903859111e40f2418d0a53dab18cf99a", "is_reserved": 0, "rental_uris": {"android": "https://dc.lft.to/lastmile_qr_scan", "ios": "https://dc.lft.to/lastmile_qr_scan"}, "fusion_lon": 0.0}, {"lat": 38.900923666666664, "is_disabled": 0, "type": "electric_scooter", "lon": -77.04930383333334, "bike_id": "212c127d49c26f86401467661c763d7e", "fusion_lat": 0.0, "name": "212c127d49c26f86401467661c763d7e", "is_reserved": 0, "rental_uris": {"android": "https://dc.lft.to/lastmile_qr_scan", "ios": "https://dc.lft.to/lastmile_qr_scan"}, "fusion_lon": 0.0}, {"lat": 38.93295766666667, "is_disabled": 0, "type": "electric_scooter", "lon": -77.028485, "bike_id": "27134995a232205814c5cb686ae48b6d", "fusion_lat": 0.0, "name": "27134995a232205814c5cb686ae48b6d", "is_reserved": 0, "rental_uris": {"android": "https://dc.lft.to/lastmile_qr_scan", "ios": "https://dc.lft.to/lastmile_qr_scan"}, "fusion_lon": 0.0}, {"lat": 38.970904833333336, "is_disabled": 0, "type": "electric_bike", "lon": -77.06960783333334, "bike_id": "8e5f09ada3a34ce0d9583b6716b0dafe", "fusion_lat": 0.0, "name": "8e5f09ada3a34ce0d9583b6716b0dafe", "is_reserved": 0, "rental_uris": {"android": "https://dc.lft.to/lastmile_qr_scan", "ios": "https://dc.lft.to/lastmile_qr_scan"}, "fusion_lon": 0.0}, {"lat": 38.926815166666664, "is_disabled": 0, "type": "electric_scooter", "lon": -77.02855383333333, "bike_id": "77a3fb5d533777569d22efe2d16fd38f", "fusion_lat": 0.0, "name": "77a3fb5d533777569d22efe2d16fd38f", "is_reserved": 0, "rental_uris": {"android": "https://dc.lft.to/lastmile_qr_scan", "ios": "https://dc.lft.to/lastmile_qr_scan"}, "fusion_lon": 0.0}, {"lat": 38.85207066666667, "is_disabled": 0, "type": "electric_bike", "lon": -77.10130366666667, "bike_id": "998fd303d18969e6eeb157b4a04ed8ec", "fusion_lat": 0.0, "name": "998fd303d18969e6eeb157b4a04ed8ec", "is_reserved": 0, "rental_uris": {"android": "https://dc.lft.to/lastmile_qr_scan", "ios": "https://dc.lft.to/lastmile_qr_scan"}, "fusion_lon": 0.0}, {"lat": 38.9201415, "is_disabled": 0, "type": "electric_scooter", "lon": -77.023861, "bike_id": "afde184d9fe8e9a9fa9236e0c7bdf048", "fusion_lat": 0.0, "name": "afde184d9fe8e9a9fa9236e0c7bdf048", "is_reserved": 0, "rental_uris": {"android": "https://dc.lft.to/lastmile_qr_scan", "ios": "https://dc.lft.to/lastmile_qr_scan"}, "fusion_lon": 0.0}, {"lat": 38.923314833333336, "is_disabled": 0, "type": "electric_scooter", "lon": -77.03572866666667, "bike_id": "29c83f1bb1480626e4bd180401368aff", "fusion_lat": 0.0, "name": "29c83f1bb1480626e4bd180401368aff", "is_reserved": 0, "rental_uris": {"android": "https://dc.lft.to/lastmile_qr_scan", "ios": "https://dc.lft.to/lastmile_qr_scan"}, "fusion_lon": 0.0}, {"lat": 38.91005033333333, "is_disabled": 0, "type": "electric_scooter", "lon": -77.02684766666667, "bike_id": "251932e0be9f2a57cb3a6ebf35876c06", "fusion_lat": 0.0, "name": "251932e0be9f2a57cb3a6ebf35876c06", "is_reserved": 0, "rental_uris": {"android": "https://dc.lft.to/lastmile_qr_scan", "ios": "https://dc.lft.to/lastmile_qr_scan"}, "fusion_lon": 0.0}, {"lat": 38.895155833333334, "is_disabled": 0, "type": "electric_scooter", "lon": -76.94900666666666, "bike_id": "21b0a6984f5450aa5773e439a91501df", "fusion_lat": 0.0, "name": "21b0a6984f5450aa5773e439a91501df", "is_reserved": 0, "rental_uris": {"android": "https://dc.lft.to/lastmile_qr_scan", "ios": "https://dc.lft.to/lastmile_qr_scan"}, "fusion_lon": 0.0}, {"lat": 38.9129785, "is_disabled": 0, "type": "electric_scooter", "lon": -77.04013733333333, "bike_id": "ca4e74f185e5240a8598e69a69c207f0", "fusion_lat": 0.0, "name": "ca4e74f185e5240a8598e69a69c207f0", "is_reserved": 0, "rental_uris": {"android": "https://dc.lft.to/lastmile_qr_scan", "ios": "https://dc.lft.to/lastmile_qr_scan"}, "fusion_lon": 0.0}, {"lat": 38.917098833333334, "is_disabled": 0, "type": "electric_scooter", "lon": -77.03474316666667, "bike_id": "4e2c17b7cc2c2ae5f9e11f9416518f7a", "fusion_lat": 0.0, "name": "4e2c17b7cc2c2ae5f9e11f9416518f7a", "is_reserved": 0, "rental_uris": {"android": "https://dc.lft.to/lastmile_qr_scan", "ios": "https://dc.lft.to/lastmile_qr_scan"}, "fusion_lon": 0.0}, {"lat": 38.909831, "is_disabled": 0, "type": "electric_scooter", "lon": -77.03433333333334, "bike_id": "62f3f4faf423503ab1a492ebd2c4c58f", "fusion_lat": 0.0, "name": "62f3f4faf423503ab1a492ebd2c4c58f", "is_reserved": 0, "rental_uris": {"android": "https://dc.lft.to/lastmile_qr_scan", "ios": "https://dc.lft.to/lastmile_qr_scan"}, "fusion_lon": 0.0}, {"lat": 38.9000875, "is_disabled": 0, "type": "electric_scooter", "lon": -77.01200783333333, "bike_id": "2c30ee4829d169269bdf611094c3faa5", "fusion_lat": 0.0, "name": "2c30ee4829d169269bdf611094c3faa5", "is_reserved": 0, "rental_uris": {"android": "https://dc.lft.to/lastmile_qr_scan", "ios": "https://dc.lft.to/lastmile_qr_scan"}, "fusion_lon": 0.0}, {"lat": 38.925763, "is_disabled": 0, "type": "electric_scooter", "lon": -76.98608883333333, "bike_id": "4013e796698146b86d0c46efc1b834c1", "fusion_lat": 0.0, "name": "4013e796698146b86d0c46efc1b834c1", "is_reserved": 0, "rental_uris": {"android": "https://dc.lft.to/lastmile_qr_scan", "ios": "https://dc.lft.to/lastmile_qr_scan"}, "fusion_lon": 0.0}, {"lat": 38.84290466666667, "is_disabled": 0, "type": "electric_scooter", "lon": -76.99944883333333, "bike_id": "64f51c414e25374ee00caa9009633c6b", "fusion_lat": 0.0, "name": "64f51c414e25374ee00caa9009633c6b", "is_reserved": 0, "rental_uris": {"android": "https://dc.lft.to/lastmile_qr_scan", "ios": "https://dc.lft.to/lastmile_qr_scan"}, "fusion_lon": 0.0}, {"lat": 38.93494183333333, "is_disabled": 0, "type": "electric_scooter", "lon": -77.036186, "bike_id": "c16f7827a7c87a9174dc0578a2b551aa", "fusion_lat": 0.0, "name": "c16f7827a7c87a9174dc0578a2b551aa", "is_reserved": 0, "rental_uris": {"android": "https://dc.lft.to/lastmile_qr_scan", "ios": "https://dc.lft.to/lastmile_qr_scan"}, "fusion_lon": 0.0}, {"lat": 38.923685166666665, "is_disabled": 0, "type": "electric_scooter", "lon": -77.0292515, "bike_id": "23e8b9dcd961d19055becf27ac12321b", "fusion_lat": 0.0, "name": "23e8b9dcd961d19055becf27ac12321b", "is_reserved": 0, "rental_uris": {"android": "https://dc.lft.to/lastmile_qr_scan", "ios": "https://dc.lft.to/lastmile_qr_scan"}, "fusion_lon": 0.0}, {"lat": 38.901358333333334, "is_disabled": 0, "type": "electric_scooter", "lon": -77.03333833333333, "bike_id": "b887f43eb54a2b62dde1c418f38efd40", "fusion_lat": 0.0, "name": "b887f43eb54a2b62dde1c418f38efd40", "is_reserved": 0, "rental_uris": {"android": "https://dc.lft.to/lastmile_qr_scan", "ios": "https://dc.lft.to/lastmile_qr_scan"}, "fusion_lon": 0.0}, {"lat": 38.9026885, "is_disabled": 0, "type": "electric_scooter", "lon": -77.05355283333333, "bike_id": "045cef20cbf9bc0597563ff907982e34", "fusion_lat": 0.0, "name": "045cef20cbf9bc0597563ff907982e34", "is_reserved": 0, "rental_uris": {"android": "https://dc.lft.to/lastmile_qr_scan", "ios": "https://dc.lft.to/lastmile_qr_scan"}, "fusion_lon": 0.0}, {"lat": 38.877788833333334, "is_disabled": 0, "type": "electric_scooter", "lon": -76.99509016666667, "bike_id": "c96a79bf3650302873e8e6371b8a5a9c", "fusion_lat": 0.0, "name": "c96a79bf3650302873e8e6371b8a5a9c", "is_reserved": 0, "rental_uris": {"android": "https://dc.lft.to/lastmile_qr_scan", "ios": "https://dc.lft.to/lastmile_qr_scan"}, "fusion_lon": 0.0}, {"lat": 38.99397666666667, "is_disabled": 0, "type": "electric_bike", "lon": -77.03161333333334, "bike_id": "6045f01f4c6860c1d5b2f7c43769e861", "fusion_lat": 0.0, "name": "6045f01f4c6860c1d5b2f7c43769e861", "is_reserved": 0, "rental_uris": {"android": "https://dc.lft.to/lastmile_qr_scan", "ios": "https://dc.lft.to/lastmile_qr_scan"}, "fusion_lon": 0.0}, {"lat": 38.8849055, "is_disabled": 0, "type": "electric_scooter", "lon": -77.00714966666666, "bike_id": "1c358fa992c6400518804bd68123482b", "fusion_lat": 0.0, "name": "1c358fa992c6400518804bd68123482b", "is_reserved": 0, "rental_uris": {"android": "https://dc.lft.to/lastmile_qr_scan", "ios": "https://dc.lft.to/lastmile_qr_scan"}, "fusion_lon": 0.0}, {"lat": 38.92012533333333, "is_disabled": 0, "type": "electric_scooter", "lon": -77.02383933333333, "bike_id": "90c6da018b8fb232fac3495dc54f1650", "fusion_lat": 0.0, "name": "90c6da018b8fb232fac3495dc54f1650", "is_reserved": 0, "rental_uris": {"android": "https://dc.lft.to/lastmile_qr_scan", "ios": "https://dc.lft.to/lastmile_qr_scan"}, "fusion_lon": 0.0}, {"lat": 38.89731783333333, "is_disabled": 0, "type": "electric_scooter", "lon": -77.04989683333334, "bike_id": "63ef189e08bda7051cf6b612e05b303d", "fusion_lat": 0.0, "name": "63ef189e08bda7051cf6b612e05b303d", "is_reserved": 0, "rental_uris": {"android": "https://dc.lft.to/lastmile_qr_scan", "ios": "https://dc.lft.to/lastmile_qr_scan"}, "fusion_lon": 0.0}, {"lat": 38.90394966666667, "is_disabled": 0, "type": "electric_scooter", "lon": -76.99006383333334, "bike_id": "4e6b0f793565fbbe42b941a0530ca514", "fusion_lat": 0.0, "name": "4e6b0f793565fbbe42b941a0530ca514", "is_reserved": 0, "rental_uris": {"android": "https://dc.lft.to/lastmile_qr_scan", "ios": "https://dc.lft.to/lastmile_qr_scan"}, "fusion_lon": 0.0}, {"lat": 38.886745, "is_disabled": 0, "type": "electric_bike", "lon": -77.16246833333334, "bike_id": "2e95cb0e2f9edccdbf2df5469492c7f8", "fusion_lat": 0.0, "name": "2e95cb0e2f9edccdbf2df5469492c7f8", "is_reserved": 0, "rental_uris": {"android": "https://dc.lft.to/lastmile_qr_scan", "ios": "https://dc.lft.to/lastmile_qr_scan"}, "fusion_lon": 0.0}, {"lat": 38.88615683333333, "is_disabled": 0, "type": "electric_scooter", "lon": -77.01881133333333, "bike_id": "2cacd1c2d38d3f5ab1bcc69621c22f79", "fusion_lat": 0.0, "name": "2cacd1c2d38d3f5ab1bcc69621c22f79", "is_reserved": 0, "rental_uris": {"android": "https://dc.lft.to/lastmile_qr_scan", "ios": "https://dc.lft.to/lastmile_qr_scan"}, "fusion_lon": 0.0}, {"lat": 38.9570635, "is_disabled": 0, "type": "electric_scooter", "lon": -77.02402, "bike_id": "619d56e3e406b5c21bc0f8663b31b0e0", "fusion_lat": 0.0, "name": "619d56e3e406b5c21bc0f8663b31b0e0", "is_reserved": 0, "rental_uris": {"android": "https://dc.lft.to/lastmile_qr_scan", "ios": "https://dc.lft.to/lastmile_qr_scan"}, "fusion_lon": 0.0}, {"lat": 38.919674666666666, "is_disabled": 0, "type": "electric_scooter", "lon": -77.014378, "bike_id": "db46812a2e7f8c50b53133375aa42ed3", "fusion_lat": 0.0, "name": "db46812a2e7f8c50b53133375aa42ed3", "is_reserved": 0, "rental_uris": {"android": "https://dc.lft.to/lastmile_qr_scan", "ios": "https://dc.lft.to/lastmile_qr_scan"}, "fusion_lon": 0.0}, {"lat": 38.91547033333333, "is_disabled": 0, "type": "electric_scooter", "lon": -77.03181633333334, "bike_id": "0cba0ba65c5d380ff30453b1d1cecba1", "fusion_lat": 0.0, "name": "0cba0ba65c5d380ff30453b1d1cecba1", "is_reserved": 0, "rental_uris": {"android": "https://dc.lft.to/lastmile_qr_scan", "ios": "https://dc.lft.to/lastmile_qr_scan"}, "fusion_lon": 0.0}, {"lat": 38.899938, "is_disabled": 0, "type": "electric_scooter", "lon": -77.0422895, "bike_id": "853c885c901402301ee35fa451a9ab25", "fusion_lat": 0.0, "name": "853c885c901402301ee35fa451a9ab25", "is_reserved": 0, "rental_uris": {"android": "https://dc.lft.to/lastmile_qr_scan", "ios": "https://dc.lft.to/lastmile_qr_scan"}, "fusion_lon": 0.0}, {"lat": 38.94822083333333, "is_disabled": 0, "type": "electric_scooter", "lon": -76.99904883333333, "bike_id": "48ac19e91a4a9ab3d7698bdb162e6e18", "fusion_lat": 0.0, "name": "48ac19e91a4a9ab3d7698bdb162e6e18", "is_reserved": 0, "rental_uris": {"android": "https://dc.lft.to/lastmile_qr_scan", "ios": "https://dc.lft.to/lastmile_qr_scan"}, "fusion_lon": 0.0}, {"lat": 38.90575166666667, "is_disabled": 0, "type": "electric_scooter", "lon": -77.00495966666666, "bike_id": "68fc454c2382c11c9caa2ab06743a452", "fusion_lat": 0.0, "name": "68fc454c2382c11c9caa2ab06743a452", "is_reserved": 0, "rental_uris": {"android": "https://dc.lft.to/lastmile_qr_scan", "ios": "https://dc.lft.to/lastmile_qr_scan"}, "fusion_lon": 0.0}, {"lat": 38.885470833333336, "is_disabled": 0, "type": "electric_bike", "lon": -77.117866, "bike_id": "09e69a6576ad4586b697baeb479d9b88", "fusion_lat": 0.0, "name": "09e69a6576ad4586b697baeb479d9b88", "is_reserved": 0, "rental_uris": {"android": "https://dc.lft.to/lastmile_qr_scan", "ios": "https://dc.lft.to/lastmile_qr_scan"}, "fusion_lon": 0.0}, {"lat": 38.884555666666664, "is_disabled": 0, "type": "electric_scooter", "lon": -76.92962516666667, "bike_id": "4910dc1553d9d72b3bd02d1329346d75", "fusion_lat": 0.0, "name": "4910dc1553d9d72b3bd02d1329346d75", "is_reserved": 0, "rental_uris": {"android": "https://dc.lft.to/lastmile_qr_scan", "ios": "https://dc.lft.to/lastmile_qr_scan"}, "fusion_lon": 0.0}, {"lat": 38.90653316666667, "is_disabled": 0, "type": "electric_scooter", "lon": -77.0082165, "bike_id": "7ac1db262c3b5caecaea2f973afa0490", "fusion_lat": 0.0, "name": "7ac1db262c3b5caecaea2f973afa0490", "is_reserved": 0, "rental_uris": {"android": "https://dc.lft.to/lastmile_qr_scan", "ios": "https://dc.lft.to/lastmile_qr_scan"}, "fusion_lon": 0.0}, {"lat": 38.9338375, "is_disabled": 0, "type": "electric_scooter", "lon": -77.035605, "bike_id": "17b7b64c5eb959ff017c6b67f78538be", "fusion_lat": 0.0, "name": "17b7b64c5eb959ff017c6b67f78538be", "is_reserved": 0, "rental_uris": {"android": "https://dc.lft.to/lastmile_qr_scan", "ios": "https://dc.lft.to/lastmile_qr_scan"}, "fusion_lon": 0.0}, {"lat": 38.91175616666666, "is_disabled": 0, "type": "electric_scooter", "lon": -77.03850766666666, "bike_id": "6245167dc3f7ff19b3e1b17e6250f197", "fusion_lat": 0.0, "name": "6245167dc3f7ff19b3e1b17e6250f197", "is_reserved": 0, "rental_uris": {"android": "https://dc.lft.to/lastmile_qr_scan", "ios": "https://dc.lft.to/lastmile_qr_scan"}, "fusion_lon": 0.0}, {"lat": 38.907424, "is_disabled": 0, "type": "electric_scooter", "lon": -77.0421475, "bike_id": "c94298aed137d532933003b02aa623e4", "fusion_lat": 0.0, "name": "c94298aed137d532933003b02aa623e4", "is_reserved": 0, "rental_uris": {"android": "https://dc.lft.to/lastmile_qr_scan", "ios": "https://dc.lft.to/lastmile_qr_scan"}, "fusion_lon": 0.0}, {"lat": 38.95890266666667, "is_disabled": 0, "type": "electric_bike", "lon": -76.92476966666666, "bike_id": "e5273c68cd6818218fa04bebe9ef8dcc", "fusion_lat": 0.0, "name": "e5273c68cd6818218fa04bebe9ef8dcc", "is_reserved": 0, "rental_uris": {"android": "https://dc.lft.to/lastmile_qr_scan", "ios": "https://dc.lft.to/lastmile_qr_scan"}, "fusion_lon": 0.0}, {"lat": 38.858487833333335, "is_disabled": 0, "type": "electric_bike", "lon": -77.097611, "bike_id": "b140a0151d8baf0a7b80ac2278ec7daf", "fusion_lat": 0.0, "name": "b140a0151d8baf0a7b80ac2278ec7daf", "is_reserved": 0, "rental_uris": {"android": "https://dc.lft.to/lastmile_qr_scan", "ios": "https://dc.lft.to/lastmile_qr_scan"}, "fusion_lon": 0.0}, {"lat": 38.921166166666666, "is_disabled": 0, "type": "electric_bike", "lon": -76.9857585, "bike_id": "db271c5fbe099883dee881b19bbc696a", "fusion_lat": 0.0, "name": "db271c5fbe099883dee881b19bbc696a", "is_reserved": 0, "rental_uris": {"android": "https://dc.lft.to/lastmile_qr_scan", "ios": "https://dc.lft.to/lastmile_qr_scan"}, "fusion_lon": 0.0}, {"lat": 38.918035333333336, "is_disabled": 0, "type": "electric_scooter", "lon": -77.04417683333334, "bike_id": "c4257649f2896de473ad0d4287b73a20", "fusion_lat": 0.0, "name": "c4257649f2896de473ad0d4287b73a20", "is_reserved": 0, "rental_uris": {"android": "https://dc.lft.to/lastmile_qr_scan", "ios": "https://dc.lft.to/lastmile_qr_scan"}, "fusion_lon": 0.0}, {"lat": 38.9310035, "is_disabled": 0, "type": "electric_scooter", "lon": -77.02497233333334, "bike_id": "52fc19ad427ddc0461ab84288fc32b66", "fusion_lat": 0.0, "name": "52fc19ad427ddc0461ab84288fc32b66", "is_reserved": 0, "rental_uris": {"android": "https://dc.lft.to/lastmile_qr_scan", "ios": "https://dc.lft.to/lastmile_qr_scan"}, "fusion_lon": 0.0}, {"lat": 38.931136333333335, "is_disabled": 0, "type": "electric_scooter", "lon": -77.03398283333334, "bike_id": "a2aa99a7ff3d376c308c35d2ec4793c4", "fusion_lat": 0.0, "name": "a2aa99a7ff3d376c308c35d2ec4793c4", "is_reserved": 0, "rental_uris": {"android": "https://dc.lft.to/lastmile_qr_scan", "ios": "https://dc.lft.to/lastmile_qr_scan"}, "fusion_lon": 0.0}, {"lat": 38.922498833333336, "is_disabled": 0, "type": "electric_scooter", "lon": -77.03106766666667, "bike_id": "dad0e2576f476b7d5326be42f65ff7e8", "fusion_lat": 0.0, "name": "dad0e2576f476b7d5326be42f65ff7e8", "is_reserved": 0, "rental_uris": {"android": "https://dc.lft.to/lastmile_qr_scan", "ios": "https://dc.lft.to/lastmile_qr_scan"}, "fusion_lon": 0.0}, {"lat": 38.94042566666667, "is_disabled": 0, "type": "electric_bike", "lon": -77.05161483333333, "bike_id": "ed559c2bd5f505803230284c635e435e", "fusion_lat": 0.0, "name": "ed559c2bd5f505803230284c635e435e", "is_reserved": 0, "rental_uris": {"android": "https://dc.lft.to/lastmile_qr_scan", "ios": "https://dc.lft.to/lastmile_qr_scan"}, "fusion_lon": 0.0}, {"lat": 38.92070233333333, "is_disabled": 0, "type": "electric_scooter", "lon": -77.01431566666666, "bike_id": "48eaef108683f19c21220a079ce5d8a0", "fusion_lat": 0.0, "name": "48eaef108683f19c21220a079ce5d8a0", "is_reserved": 0, "rental_uris": {"android": "https://dc.lft.to/lastmile_qr_scan", "ios": "https://dc.lft.to/lastmile_qr_scan"}, "fusion_lon": 0.0}, {"lat": 38.913885666666665, "is_disabled": 0, "type": "electric_scooter", "lon": -77.01904216666667, "bike_id": "cad1cd8afe74fb7b2b0045ddb40932ed", "fusion_lat": 0.0, "name": "cad1cd8afe74fb7b2b0045ddb40932ed", "is_reserved": 0, "rental_uris": {"android": "https://dc.lft.to/lastmile_qr_scan", "ios": "https://dc.lft.to/lastmile_qr_scan"}, "fusion_lon": 0.0}, {"lat": 38.90297233333333, "is_disabled": 0, "type": "electric_scooter", "lon": -77.0635195, "bike_id": "8f0ab831ccab14667644b5fd18ee7f17", "fusion_lat": 0.0, "name": "8f0ab831ccab14667644b5fd18ee7f17", "is_reserved": 0, "rental_uris": {"android": "https://dc.lft.to/lastmile_qr_scan", "ios": "https://dc.lft.to/lastmile_qr_scan"}, "fusion_lon": 0.0}, {"lat": 38.929649, "is_disabled": 0, "type": "electric_scooter", "lon": -77.03075883333334, "bike_id": "7efb0239b863d781b91c47049ab0698c", "fusion_lat": 0.0, "name": "7efb0239b863d781b91c47049ab0698c", "is_reserved": 0, "rental_uris": {"android": "https://dc.lft.to/lastmile_qr_scan", "ios": "https://dc.lft.to/lastmile_qr_scan"}, "fusion_lon": 0.0}, {"lat": 38.90567166666666, "is_disabled": 0, "type": "electric_scooter", "lon": -77.02211983333333, "bike_id": "08ea7034389f6c58150b8808ef9f54b1", "fusion_lat": 0.0, "name": "08ea7034389f6c58150b8808ef9f54b1", "is_reserved": 0, "rental_uris": {"android": "https://dc.lft.to/lastmile_qr_scan", "ios": "https://dc.lft.to/lastmile_qr_scan"}, "fusion_lon": 0.0}, {"lat": 38.902650333333334, "is_disabled": 0, "type": "electric_scooter", "lon": -77.0321065, "bike_id": "ac27ee54584b7212830d8a9c0b126e46", "fusion_lat": 0.0, "name": "ac27ee54584b7212830d8a9c0b126e46", "is_reserved": 0, "rental_uris": {"android": "https://dc.lft.to/lastmile_qr_scan", "ios": "https://dc.lft.to/lastmile_qr_scan"}, "fusion_lon": 0.0}, {"lat": 38.89045616666667, "is_disabled": 0, "type": "electric_scooter", "lon": -76.94075533333333, "bike_id": "933e2dad339ac96c347a9f2cc3fc0b3b", "fusion_lat": 0.0, "name": "933e2dad339ac96c347a9f2cc3fc0b3b", "is_reserved": 0, "rental_uris": {"android": "https://dc.lft.to/lastmile_qr_scan", "ios": "https://dc.lft.to/lastmile_qr_scan"}, "fusion_lon": 0.0}, {"lat": 38.8973955, "is_disabled": 0, "type": "electric_scooter", "lon": -77.04770516666666, "bike_id": "dbee83c0b3e882df5b5bbf1ec445c419", "fusion_lat": 0.0, "name": "dbee83c0b3e882df5b5bbf1ec445c419", "is_reserved": 0, "rental_uris": {"android": "https://dc.lft.to/lastmile_qr_scan", "ios": "https://dc.lft.to/lastmile_qr_scan"}, "fusion_lon": 0.0}, {"lat": 38.922382666666664, "is_disabled": 0, "type": "electric_scooter", "lon": -77.04571216666666, "bike_id": "1215d75ed997f565ddff5eccd0911c0a", "fusion_lat": 0.0, "name": "1215d75ed997f565ddff5eccd0911c0a", "is_reserved": 0, "rental_uris": {"android": "https://dc.lft.to/lastmile_qr_scan", "ios": "https://dc.lft.to/lastmile_qr_scan"}, "fusion_lon": 0.0}, {"lat": 38.9002915, "is_disabled": 0, "type": "electric_scooter", "lon": -77.02596883333334, "bike_id": "a3b988a167d5810b17f2ea2a8a6eb6c7", "fusion_lat": 0.0, "name": "a3b988a167d5810b17f2ea2a8a6eb6c7", "is_reserved": 0, "rental_uris": {"android": "https://dc.lft.to/lastmile_qr_scan", "ios": "https://dc.lft.to/lastmile_qr_scan"}, "fusion_lon": 0.0}, {"lat": 38.91389216666666, "is_disabled": 0, "type": "electric_scooter", "lon": -77.04159333333334, "bike_id": "e1ac15396c7b1625478addf1e3cf6b00", "fusion_lat": 0.0, "name": "e1ac15396c7b1625478addf1e3cf6b00", "is_reserved": 0, "rental_uris": {"android": "https://dc.lft.to/lastmile_qr_scan", "ios": "https://dc.lft.to/lastmile_qr_scan"}, "fusion_lon": 0.0}, {"lat": 38.932285, "is_disabled": 0, "type": "electric_scooter", "lon": -76.99602166666666, "bike_id": "bd243e0dad9010c86efd5efe98817548", "fusion_lat": 0.0, "name": "bd243e0dad9010c86efd5efe98817548", "is_reserved": 0, "rental_uris": {"android": "https://dc.lft.to/lastmile_qr_scan", "ios": "https://dc.lft.to/lastmile_qr_scan"}, "fusion_lon": 0.0}, {"lat": 38.90162866666667, "is_disabled": 0, "type": "electric_scooter", "lon": -77.02512916666667, "bike_id": "155fc9a2d8c2bb716af602cad09e13ca", "fusion_lat": 0.0, "name": "155fc9a2d8c2bb716af602cad09e13ca", "is_reserved": 0, "rental_uris": {"android": "https://dc.lft.to/lastmile_qr_scan", "ios": "https://dc.lft.to/lastmile_qr_scan"}, "fusion_lon": 0.0}, {"lat": 38.850518, "is_disabled": 0, "type": "electric_bike", "lon": -76.97317783333334, "bike_id": "ebc9ab996692f334d43617a29dfb27f8", "fusion_lat": 0.0, "name": "ebc9ab996692f334d43617a29dfb27f8", "is_reserved": 0, "rental_uris": {"android": "https://dc.lft.to/lastmile_qr_scan", "ios": "https://dc.lft.to/lastmile_qr_scan"}, "fusion_lon": 0.0}, {"lat": 38.93330866666667, "is_disabled": 0, "type": "electric_bike", "lon": -77.04202566666666, "bike_id": "18dbb2384ff250b241c7c0a0b9d665dd", "fusion_lat": 0.0, "name": "18dbb2384ff250b241c7c0a0b9d665dd", "is_reserved": 0, "rental_uris": {"android": "https://dc.lft.to/lastmile_qr_scan", "ios": "https://dc.lft.to/lastmile_qr_scan"}, "fusion_lon": 0.0}, {"lat": 38.897166666666664, "is_disabled": 0, "type": "electric_scooter", "lon": -77.00795166666667, "bike_id": "5136fa60084a19ffb9b51b983b9d5395", "fusion_lat": 0.0, "name": "5136fa60084a19ffb9b51b983b9d5395", "is_reserved": 0, "rental_uris": {"android": "https://dc.lft.to/lastmile_qr_scan", "ios": "https://dc.lft.to/lastmile_qr_scan"}, "fusion_lon": 0.0}, {"lat": 38.906735, "is_disabled": 0, "type": "electric_scooter", "lon": -77.0272065, "bike_id": "cdcefa457082ee061d455372026fc67a", "fusion_lat": 0.0, "name": "cdcefa457082ee061d455372026fc67a", "is_reserved": 0, "rental_uris": {"android": "https://dc.lft.to/lastmile_qr_scan", "ios": "https://dc.lft.to/lastmile_qr_scan"}, "fusion_lon": 0.0}, {"lat": 38.89884766666667, "is_disabled": 0, "type": "electric_scooter", "lon": -76.93176433333333, "bike_id": "7f799258bdbc1393cd2f0a533a590aae", "fusion_lat": 0.0, "name": "7f799258bdbc1393cd2f0a533a590aae", "is_reserved": 0, "rental_uris": {"android": "https://dc.lft.to/lastmile_qr_scan", "ios": "https://dc.lft.to/lastmile_qr_scan"}, "fusion_lon": 0.0}, {"lat": 38.908261, "is_disabled": 0, "type": "electric_scooter", "lon": -77.06380766666666, "bike_id": "882ed83952516e4bb863f795d56f7a1a", "fusion_lat": 0.0, "name": "882ed83952516e4bb863f795d56f7a1a", "is_reserved": 0, "rental_uris": {"android": "https://dc.lft.to/lastmile_qr_scan", "ios": "https://dc.lft.to/lastmile_qr_scan"}, "fusion_lon": 0.0}, {"lat": 38.91933316666667, "is_disabled": 0, "type": "electric_scooter", "lon": -77.0230125, "bike_id": "02f8cf305794adca6c2a8f70936544c1", "fusion_lat": 0.0, "name": "02f8cf305794adca6c2a8f70936544c1", "is_reserved": 0, "rental_uris": {"android": "https://dc.lft.to/lastmile_qr_scan", "ios": "https://dc.lft.to/lastmile_qr_scan"}, "fusion_lon": 0.0}, {"lat": 38.907007666666665, "is_disabled": 0, "type": "electric_scooter", "lon": -77.03769883333334, "bike_id": "15a47bb0bf7788aaf520dab010f18e24", "fusion_lat": 0.0, "name": "15a47bb0bf7788aaf520dab010f18e24", "is_reserved": 0, "rental_uris": {"android": "https://dc.lft.to/lastmile_qr_scan", "ios": "https://dc.lft.to/lastmile_qr_scan"}, "fusion_lon": 0.0}, {"lat": 38.92147383333333, "is_disabled": 0, "type": "electric_scooter", "lon": -77.0338775, "bike_id": "e7fd031e05a023fb73bae4db2df08f13", "fusion_lat": 0.0, "name": "e7fd031e05a023fb73bae4db2df08f13", "is_reserved": 0, "rental_uris": {"android": "https://dc.lft.to/lastmile_qr_scan", "ios": "https://dc.lft.to/lastmile_qr_scan"}, "fusion_lon": 0.0}, {"lat": 38.9072055, "is_disabled": 0, "type": "electric_scooter", "lon": -76.9981705, "bike_id": "55871c4adbe802b5dddb9e5ebc2a7b6d", "fusion_lat": 0.0, "name": "55871c4adbe802b5dddb9e5ebc2a7b6d", "is_reserved": 0, "rental_uris": {"android": "https://dc.lft.to/lastmile_qr_scan", "ios": "https://dc.lft.to/lastmile_qr_scan"}, "fusion_lon": 0.0}, {"lat": 38.86703983333334, "is_disabled": 0, "type": "electric_scooter", "lon": -76.98713333333333, "bike_id": "93a30b96ea78fdd4d26dac07252b202f", "fusion_lat": 0.0, "name": "93a30b96ea78fdd4d26dac07252b202f", "is_reserved": 0, "rental_uris": {"android": "https://dc.lft.to/lastmile_qr_scan", "ios": "https://dc.lft.to/lastmile_qr_scan"}, "fusion_lon": 0.0}, {"lat": 38.917917, "is_disabled": 0, "type": "electric_bike", "lon": -76.971893, "bike_id": "3d2a90a4dc997ac0e6ad3d92a4f7e3bf", "fusion_lat": 0.0, "name": "3d2a90a4dc997ac0e6ad3d92a4f7e3bf", "is_reserved": 0, "rental_uris": {"android": "https://dc.lft.to/lastmile_qr_scan", "ios": "https://dc.lft.to/lastmile_qr_scan"}, "fusion_lon": 0.0}, {"lat": 38.917098333333335, "is_disabled": 0, "type": "electric_scooter", "lon": -77.032229, "bike_id": "67f6a7410cd1f54802e3cd6c484831ae", "fusion_lat": 0.0, "name": "67f6a7410cd1f54802e3cd6c484831ae", "is_reserved": 0, "rental_uris": {"android": "https://dc.lft.to/lastmile_qr_scan", "ios": "https://dc.lft.to/lastmile_qr_scan"}, "fusion_lon": 0.0}, {"lat": 38.905732, "is_disabled": 0, "type": "electric_scooter", "lon": -77.04868316666666, "bike_id": "988b135dafabc482df3dee4a4fda834f", "fusion_lat": 0.0, "name": "988b135dafabc482df3dee4a4fda834f", "is_reserved": 0, "rental_uris": {"android": "https://dc.lft.to/lastmile_qr_scan", "ios": "https://dc.lft.to/lastmile_qr_scan"}, "fusion_lon": 0.0}, {"lat": 38.8616905, "is_disabled": 0, "type": "electric_bike", "lon": -77.13145083333333, "bike_id": "afff6f22db840b379cfb563c12cf6f5c", "fusion_lat": 0.0, "name": "afff6f22db840b379cfb563c12cf6f5c", "is_reserved": 0, "rental_uris": {"android": "https://dc.lft.to/lastmile_qr_scan", "ios": "https://dc.lft.to/lastmile_qr_scan"}, "fusion_lon": 0.0}, {"lat": 38.928689, "is_disabled": 0, "type": "electric_bike", "lon": -76.989395, "bike_id": "8fe9c647b30e04e3c93a7e5276fe72c7", "fusion_lat": 0.0, "name": "8fe9c647b30e04e3c93a7e5276fe72c7", "is_reserved": 0, "rental_uris": {"android": "https://dc.lft.to/lastmile_qr_scan", "ios": "https://dc.lft.to/lastmile_qr_scan"}, "fusion_lon": 0.0}, {"lat": 38.911126833333334, "is_disabled": 0, "type": "electric_scooter", "lon": -77.03831466666666, "bike_id": "73af33e83482993edf3847121bfe0c3a", "fusion_lat": 0.0, "name": "73af33e83482993edf3847121bfe0c3a", "is_reserved": 0, "rental_uris": {"android": "https://dc.lft.to/lastmile_qr_scan", "ios": "https://dc.lft.to/lastmile_qr_scan"}, "fusion_lon": 0.0}, {"lat": 38.917895666666666, "is_disabled": 0, "type": "electric_scooter", "lon": -77.0231745, "bike_id": "a7d5e89efd061fc06a975b863dc4698e", "fusion_lat": 0.0, "name": "a7d5e89efd061fc06a975b863dc4698e", "is_reserved": 0, "rental_uris": {"android": "https://dc.lft.to/lastmile_qr_scan", "ios": "https://dc.lft.to/lastmile_qr_scan"}, "fusion_lon": 0.0}, {"lat": 38.90087316666666, "is_disabled": 0, "type": "electric_scooter", "lon": -77.0034215, "bike_id": "6f2314dd27e2c727b41a6fd3d2bd395e", "fusion_lat": 0.0, "name": "6f2314dd27e2c727b41a6fd3d2bd395e", "is_reserved": 0, "rental_uris": {"android": "https://dc.lft.to/lastmile_qr_scan", "ios": "https://dc.lft.to/lastmile_qr_scan"}, "fusion_lon": 0.0}, {"lat": 38.908224833333335, "is_disabled": 0, "type": "electric_scooter", "lon": -77.03455966666667, "bike_id": "8cf02457d6a9aa5951819707bcfdb8aa", "fusion_lat": 0.0, "name": "8cf02457d6a9aa5951819707bcfdb8aa", "is_reserved": 0, "rental_uris": {"android": "https://dc.lft.to/lastmile_qr_scan", "ios": "https://dc.lft.to/lastmile_qr_scan"}, "fusion_lon": 0.0}, {"lat": 38.90682916666667, "is_disabled": 0, "type": "electric_scooter", "lon": -77.02933983333334, "bike_id": "3ae910ae3f14188e05a31d735589d922", "fusion_lat": 0.0, "name": "3ae910ae3f14188e05a31d735589d922", "is_reserved": 0, "rental_uris": {"android": "https://dc.lft.to/lastmile_qr_scan", "ios": "https://dc.lft.to/lastmile_qr_scan"}, "fusion_lon": 0.0}, {"lat": 38.909637000000004, "is_disabled": 0, "type": "electric_scooter", "lon": -77.023833, "bike_id": "6fdd50d79ee8192b82400b1ca13c32fa", "fusion_lat": 0.0, "name": "6fdd50d79ee8192b82400b1ca13c32fa", "is_reserved": 0, "rental_uris": {"android": "https://dc.lft.to/lastmile_qr_scan", "ios": "https://dc.lft.to/lastmile_qr_scan"}, "fusion_lon": 0.0}, {"lat": 38.912040166666664, "is_disabled": 0, "type": "electric_scooter", "lon": -77.0234425, "bike_id": "9390096876464dbf043db7a1d12152b7", "fusion_lat": 0.0, "name": "9390096876464dbf043db7a1d12152b7", "is_reserved": 0, "rental_uris": {"android": "https://dc.lft.to/lastmile_qr_scan", "ios": "https://dc.lft.to/lastmile_qr_scan"}, "fusion_lon": 0.0}, {"lat": 38.90739283333333, "is_disabled": 0, "type": "electric_scooter", "lon": -77.00930383333333, "bike_id": "84a4ed95e6cb24ddc009955341c3af51", "fusion_lat": 0.0, "name": "84a4ed95e6cb24ddc009955341c3af51", "is_reserved": 0, "rental_uris": {"android": "https://dc.lft.to/lastmile_qr_scan", "ios": "https://dc.lft.to/lastmile_qr_scan"}, "fusion_lon": 0.0}, {"lat": 38.9017885, "is_disabled": 0, "type": "electric_scooter", "lon": -77.02502333333334, "bike_id": "3bb4d08918dc5aca8e63aa4eb3c37a3b", "fusion_lat": 0.0, "name": "3bb4d08918dc5aca8e63aa4eb3c37a3b", "is_reserved": 0, "rental_uris": {"android": "https://dc.lft.to/lastmile_qr_scan", "ios": "https://dc.lft.to/lastmile_qr_scan"}, "fusion_lon": 0.0}, {"lat": 38.894978333333334, "is_disabled": 0, "type": "electric_scooter", "lon": -77.002128, "bike_id": "dafa120fc0eb1f5a30c3ac064e814d2f", "fusion_lat": 0.0, "name": "dafa120fc0eb1f5a30c3ac064e814d2f", "is_reserved": 0, "rental_uris": {"android": "https://dc.lft.to/lastmile_qr_scan", "ios": "https://dc.lft.to/lastmile_qr_scan"}, "fusion_lon": 0.0}, {"lat": 38.91257266666667, "is_disabled": 0, "type": "electric_scooter", "lon": -77.071109, "bike_id": "e606e9cd437a69e1c1710ee8c92d3e07", "fusion_lat": 0.0, "name": "e606e9cd437a69e1c1710ee8c92d3e07", "is_reserved": 0, "rental_uris": {"android": "https://dc.lft.to/lastmile_qr_scan", "ios": "https://dc.lft.to/lastmile_qr_scan"}, "fusion_lon": 0.0}, {"lat": 38.926230833333335, "is_disabled": 0, "type": "electric_scooter", "lon": -77.04189650000001, "bike_id": "daa7d04e80c4294ecf084518988379fa", "fusion_lat": 0.0, "name": "daa7d04e80c4294ecf084518988379fa", "is_reserved": 0, "rental_uris": {"android": "https://dc.lft.to/lastmile_qr_scan", "ios": "https://dc.lft.to/lastmile_qr_scan"}, "fusion_lon": 0.0}, {"lat": 38.920292833333335, "is_disabled": 0, "type": "electric_scooter", "lon": -77.01323883333333, "bike_id": "4a7144535a1f46b8093d9ffab6dc0231", "fusion_lat": 0.0, "name": "4a7144535a1f46b8093d9ffab6dc0231", "is_reserved": 0, "rental_uris": {"android": "https://dc.lft.to/lastmile_qr_scan", "ios": "https://dc.lft.to/lastmile_qr_scan"}, "fusion_lon": 0.0}, {"lat": 38.92205283333333, "is_disabled": 0, "type": "electric_scooter", "lon": -76.95660083333334, "bike_id": "3a8a16ce98a1bf252150ded0f209c4b5", "fusion_lat": 0.0, "name": "3a8a16ce98a1bf252150ded0f209c4b5", "is_reserved": 0, "rental_uris": {"android": "https://dc.lft.to/lastmile_qr_scan", "ios": "https://dc.lft.to/lastmile_qr_scan"}, "fusion_lon": 0.0}, {"lat": 38.87207016666667, "is_disabled": 0, "type": "electric_bike", "lon": -77.01521566666666, "bike_id": "65def87f581612e16eee44862cd8124d", "fusion_lat": 0.0, "name": "65def87f581612e16eee44862cd8124d", "is_reserved": 0, "rental_uris": {"android": "https://dc.lft.to/lastmile_qr_scan", "ios": "https://dc.lft.to/lastmile_qr_scan"}, "fusion_lon": 0.0}, {"lat": 38.92858533333333, "is_disabled": 0, "type": "electric_bike", "lon": -77.2222605, "bike_id": "0d88ff2d46798e5f54afb563936793d7", "fusion_lat": 0.0, "name": "0d88ff2d46798e5f54afb563936793d7", "is_reserved": 0, "rental_uris": {"android": "https://dc.lft.to/lastmile_qr_scan", "ios": "https://dc.lft.to/lastmile_qr_scan"}, "fusion_lon": 0.0}, {"lat": 38.902213, "is_disabled": 0, "type": "electric_scooter", "lon": -77.04300233333333, "bike_id": "8a4294109c92e47baadcda7ebc596d5f", "fusion_lat": 0.0, "name": "8a4294109c92e47baadcda7ebc596d5f", "is_reserved": 0, "rental_uris": {"android": "https://dc.lft.to/lastmile_qr_scan", "ios": "https://dc.lft.to/lastmile_qr_scan"}, "fusion_lon": 0.0}, {"lat": 38.90336766666667, "is_disabled": 0, "type": "electric_scooter", "lon": -77.0290105, "bike_id": "1a2955e70c24ad4617682ed543f9bc48", "fusion_lat": 0.0, "name": "1a2955e70c24ad4617682ed543f9bc48", "is_reserved": 0, "rental_uris": {"android": "https://dc.lft.to/lastmile_qr_scan", "ios": "https://dc.lft.to/lastmile_qr_scan"}, "fusion_lon": 0.0}, {"lat": 38.8997245, "is_disabled": 0, "type": "electric_scooter", "lon": -77.02300383333333, "bike_id": "2b07fed72417bb8b7cffec3befaa76c3", "fusion_lat": 0.0, "name": "2b07fed72417bb8b7cffec3befaa76c3", "is_reserved": 0, "rental_uris": {"android": "https://dc.lft.to/lastmile_qr_scan", "ios": "https://dc.lft.to/lastmile_qr_scan"}, "fusion_lon": 0.0}, {"lat": 38.96556283333334, "is_disabled": 0, "type": "electric_bike", "lon": -77.02040316666667, "bike_id": "29ea4e043ac650192398e5ff4b0170a9", "fusion_lat": 0.0, "name": "29ea4e043ac650192398e5ff4b0170a9", "is_reserved": 0, "rental_uris": {"android": "https://dc.lft.to/lastmile_qr_scan", "ios": "https://dc.lft.to/lastmile_qr_scan"}, "fusion_lon": 0.0}, {"lat": 38.92262616666667, "is_disabled": 0, "type": "electric_scooter", "lon": -77.04292066666666, "bike_id": "53d10bc4c7590309dd88a7328534ac13", "fusion_lat": 0.0, "name": "53d10bc4c7590309dd88a7328534ac13", "is_reserved": 0, "rental_uris": {"android": "https://dc.lft.to/lastmile_qr_scan", "ios": "https://dc.lft.to/lastmile_qr_scan"}, "fusion_lon": 0.0}, {"lat": 38.906359333333334, "is_disabled": 0, "type": "electric_scooter", "lon": -77.046887, "bike_id": "4c67739d8697ec8707c6a8b42985f19b", "fusion_lat": 0.0, "name": "4c67739d8697ec8707c6a8b42985f19b", "is_reserved": 0, "rental_uris": {"android": "https://dc.lft.to/lastmile_qr_scan", "ios": "https://dc.lft.to/lastmile_qr_scan"}, "fusion_lon": 0.0}, {"lat": 39.08858466666667, "is_disabled": 0, "type": "electric_bike", "lon": -77.17846416666667, "bike_id": "31ca7c8e31f6ad05a50e7dbc763f2157", "fusion_lat": 0.0, "name": "31ca7c8e31f6ad05a50e7dbc763f2157", "is_reserved": 0, "rental_uris": {"android": "https://dc.lft.to/lastmile_qr_scan", "ios": "https://dc.lft.to/lastmile_qr_scan"}, "fusion_lon": 0.0}, {"lat": 38.91776866666667, "is_disabled": 0, "type": "electric_scooter", "lon": -77.02873083333333, "bike_id": "d1e2fed03ba9d7daab4dcac8915c971a", "fusion_lat": 0.0, "name": "d1e2fed03ba9d7daab4dcac8915c971a", "is_reserved": 0, "rental_uris": {"android": "https://dc.lft.to/lastmile_qr_scan", "ios": "https://dc.lft.to/lastmile_qr_scan"}, "fusion_lon": 0.0}, {"lat": 38.9313495, "is_disabled": 0, "type": "electric_scooter", "lon": -77.032539, "bike_id": "cbdd09f7f27a31143c6458e93b3fbcae", "fusion_lat": 0.0, "name": "cbdd09f7f27a31143c6458e93b3fbcae", "is_reserved": 0, "rental_uris": {"android": "https://dc.lft.to/lastmile_qr_scan", "ios": "https://dc.lft.to/lastmile_qr_scan"}, "fusion_lon": 0.0}, {"lat": 38.883404666666664, "is_disabled": 0, "type": "electric_scooter", "lon": -77.03144833333333, "bike_id": "5f181d25f535b35ba6fc36a151b72278", "fusion_lat": 0.0, "name": "5f181d25f535b35ba6fc36a151b72278", "is_reserved": 0, "rental_uris": {"android": "https://dc.lft.to/lastmile_qr_scan", "ios": "https://dc.lft.to/lastmile_qr_scan"}, "fusion_lon": 0.0}, {"lat": 38.92393, "is_disabled": 0, "type": "electric_scooter", "lon": -77.00067466666667, "bike_id": "5affd8cf7d4c78a62c79844c1033ba92", "fusion_lat": 0.0, "name": "5affd8cf7d4c78a62c79844c1033ba92", "is_reserved": 0, "rental_uris": {"android": "https://dc.lft.to/lastmile_qr_scan", "ios": "https://dc.lft.to/lastmile_qr_scan"}, "fusion_lon": 0.0}, {"lat": 38.86113183333333, "is_disabled": 0, "type": "electric_scooter", "lon": -76.9676935, "bike_id": "f912c04033c0c971a1d5dd0629361ff4", "fusion_lat": 0.0, "name": "f912c04033c0c971a1d5dd0629361ff4", "is_reserved": 0, "rental_uris": {"android": "https://dc.lft.to/lastmile_qr_scan", "ios": "https://dc.lft.to/lastmile_qr_scan"}, "fusion_lon": 0.0}, {"lat": 38.89891, "is_disabled": 0, "type": "electric_scooter", "lon": -77.02191733333333, "bike_id": "00703e09344e9330fe486b30212c2e3b", "fusion_lat": 0.0, "name": "00703e09344e9330fe486b30212c2e3b", "is_reserved": 0, "rental_uris": {"android": "https://dc.lft.to/lastmile_qr_scan", "ios": "https://dc.lft.to/lastmile_qr_scan"}, "fusion_lon": 0.0}, {"lat": 38.92410516666666, "is_disabled": 0, "type": "electric_scooter", "lon": -77.0354555, "bike_id": "a0cab2eee1e6b4e7f61653e9987e97ee", "fusion_lat": 0.0, "name": "a0cab2eee1e6b4e7f61653e9987e97ee", "is_reserved": 0, "rental_uris": {"android": "https://dc.lft.to/lastmile_qr_scan", "ios": "https://dc.lft.to/lastmile_qr_scan"}, "fusion_lon": 0.0}, {"lat": 38.91706716666667, "is_disabled": 0, "type": "electric_scooter", "lon": -77.03219816666666, "bike_id": "a60f5804fc99c022fcf0ae05c3d95274", "fusion_lat": 0.0, "name": "a60f5804fc99c022fcf0ae05c3d95274", "is_reserved": 0, "rental_uris": {"android": "https://dc.lft.to/lastmile_qr_scan", "ios": "https://dc.lft.to/lastmile_qr_scan"}, "fusion_lon": 0.0}, {"lat": 38.9133755, "is_disabled": 0, "type": "electric_scooter", "lon": -77.00227716666667, "bike_id": "4e41ccdd7e15e3e099955c2e22221fe6", "fusion_lat": 0.0, "name": "4e41ccdd7e15e3e099955c2e22221fe6", "is_reserved": 0, "rental_uris": {"android": "https://dc.lft.to/lastmile_qr_scan", "ios": "https://dc.lft.to/lastmile_qr_scan"}, "fusion_lon": 0.0}, {"lat": 38.923302, "is_disabled": 0, "type": "electric_scooter", "lon": -77.01897883333334, "bike_id": "fe37f42937ef5723beb1de8b537ca43a", "fusion_lat": 0.0, "name": "fe37f42937ef5723beb1de8b537ca43a", "is_reserved": 0, "rental_uris": {"android": "https://dc.lft.to/lastmile_qr_scan", "ios": "https://dc.lft.to/lastmile_qr_scan"}, "fusion_lon": 0.0}, {"lat": 38.917372666666665, "is_disabled": 0, "type": "electric_scooter", "lon": -77.06893916666667, "bike_id": "56f6f3d859015d01024048e0ab4273b8", "fusion_lat": 0.0, "name": "56f6f3d859015d01024048e0ab4273b8", "is_reserved": 0, "rental_uris": {"android": "https://dc.lft.to/lastmile_qr_scan", "ios": "https://dc.lft.to/lastmile_qr_scan"}, "fusion_lon": 0.0}, {"lat": 38.9224705, "is_disabled": 0, "type": "electric_scooter", "lon": -77.04250183333333, "bike_id": "2b22be0196cb6710f69551339921562d", "fusion_lat": 0.0, "name": "2b22be0196cb6710f69551339921562d", "is_reserved": 0, "rental_uris": {"android": "https://dc.lft.to/lastmile_qr_scan", "ios": "https://dc.lft.to/lastmile_qr_scan"}, "fusion_lon": 0.0}, {"lat": 38.91805566666667, "is_disabled": 0, "type": "electric_scooter", "lon": -77.03436966666666, "bike_id": "1910ce1617af8df35fd334ada4151fa1", "fusion_lat": 0.0, "name": "1910ce1617af8df35fd334ada4151fa1", "is_reserved": 0, "rental_uris": {"android": "https://dc.lft.to/lastmile_qr_scan", "ios": "https://dc.lft.to/lastmile_qr_scan"}, "fusion_lon": 0.0}, {"lat": 38.912257333333336, "is_disabled": 0, "type": "electric_scooter", "lon": -77.04483183333333, "bike_id": "f785a6f49aec51dcdc6e145cac77b530", "fusion_lat": 0.0, "name": "f785a6f49aec51dcdc6e145cac77b530", "is_reserved": 0, "rental_uris": {"android": "https://dc.lft.to/lastmile_qr_scan", "ios": "https://dc.lft.to/lastmile_qr_scan"}, "fusion_lon": 0.0}, {"lat": 38.87935933333333, "is_disabled": 0, "type": "electric_scooter", "lon": -77.0073315, "bike_id": "e77bbc943aac75c570cbd93f8d29aa45", "fusion_lat": 0.0, "name": "e77bbc943aac75c570cbd93f8d29aa45", "is_reserved": 0, "rental_uris": {"android": "https://dc.lft.to/lastmile_qr_scan", "ios": "https://dc.lft.to/lastmile_qr_scan"}, "fusion_lon": 0.0}, {"lat": 38.858052666666666, "is_disabled": 0, "type": "electric_scooter", "lon": -76.9871675, "bike_id": "f567a27575d99a870d89cc56733f5dbf", "fusion_lat": 0.0, "name": "f567a27575d99a870d89cc56733f5dbf", "is_reserved": 0, "rental_uris": {"android": "https://dc.lft.to/lastmile_qr_scan", "ios": "https://dc.lft.to/lastmile_qr_scan"}, "fusion_lon": 0.0}, {"lat": 38.912590333333334, "is_disabled": 0, "type": "electric_scooter", "lon": -77.0386405, "bike_id": "c25c99aaa38ab45e3aea0f16da8d4817", "fusion_lat": 0.0, "name": "c25c99aaa38ab45e3aea0f16da8d4817", "is_reserved": 0, "rental_uris": {"android": "https://dc.lft.to/lastmile_qr_scan", "ios": "https://dc.lft.to/lastmile_qr_scan"}, "fusion_lon": 0.0}, {"lat": 38.904394, "is_disabled": 0, "type": "electric_scooter", "lon": -77.02518716666667, "bike_id": "7f375adbd7c1a0d26bbd01bfab2fdec1", "fusion_lat": 0.0, "name": "7f375adbd7c1a0d26bbd01bfab2fdec1", "is_reserved": 0, "rental_uris": {"android": "https://dc.lft.to/lastmile_qr_scan", "ios": "https://dc.lft.to/lastmile_qr_scan"}, "fusion_lon": 0.0}, {"lat": 38.9099595, "is_disabled": 0, "type": "electric_scooter", "lon": -76.9846875, "bike_id": "be234861acc90dd73dbae094d7552727", "fusion_lat": 0.0, "name": "be234861acc90dd73dbae094d7552727", "is_reserved": 0, "rental_uris": {"android": "https://dc.lft.to/lastmile_qr_scan", "ios": "https://dc.lft.to/lastmile_qr_scan"}, "fusion_lon": 0.0}, {"lat": 38.900430666666665, "is_disabled": 0, "type": "electric_scooter", "lon": -76.99501533333333, "bike_id": "41b18f730267588c57cee7996f3c4daf", "fusion_lat": 0.0, "name": "41b18f730267588c57cee7996f3c4daf", "is_reserved": 0, "rental_uris": {"android": "https://dc.lft.to/lastmile_qr_scan", "ios": "https://dc.lft.to/lastmile_qr_scan"}, "fusion_lon": 0.0}, {"lat": 38.929162, "is_disabled": 0, "type": "electric_scooter", "lon": -77.03632516666667, "bike_id": "5a679233fe75c5d5a79bee3daee6c289", "fusion_lat": 0.0, "name": "5a679233fe75c5d5a79bee3daee6c289", "is_reserved": 0, "rental_uris": {"android": "https://dc.lft.to/lastmile_qr_scan", "ios": "https://dc.lft.to/lastmile_qr_scan"}, "fusion_lon": 0.0}, {"lat": 38.83980366666667, "is_disabled": 0, "type": "electric_bike", "lon": -77.00568566666666, "bike_id": "ca38591a47578412acdae3b12b1239e1", "fusion_lat": 0.0, "name": "ca38591a47578412acdae3b12b1239e1", "is_reserved": 0, "rental_uris": {"android": "https://dc.lft.to/lastmile_qr_scan", "ios": "https://dc.lft.to/lastmile_qr_scan"}, "fusion_lon": 0.0}, {"lat": 38.924050666666666, "is_disabled": 0, "type": "electric_scooter", "lon": -77.02564866666667, "bike_id": "ff750e861a1c7e0ec2e2ecb4804048fb", "fusion_lat": 0.0, "name": "ff750e861a1c7e0ec2e2ecb4804048fb", "is_reserved": 0, "rental_uris": {"android": "https://dc.lft.to/lastmile_qr_scan", "ios": "https://dc.lft.to/lastmile_qr_scan"}, "fusion_lon": 0.0}, {"lat": 38.90826783333333, "is_disabled": 0, "type": "electric_scooter", "lon": -76.94149866666666, "bike_id": "2a2a39af0d82f2ff6a55fc148be30e93", "fusion_lat": 0.0, "name": "2a2a39af0d82f2ff6a55fc148be30e93", "is_reserved": 0, "rental_uris": {"android": "https://dc.lft.to/lastmile_qr_scan", "ios": "https://dc.lft.to/lastmile_qr_scan"}, "fusion_lon": 0.0}, {"lat": 38.93635583333333, "is_disabled": 0, "type": "electric_scooter", "lon": -77.03662383333334, "bike_id": "1dc6337212c4c2f9660d1f12cbe8efa2", "fusion_lat": 0.0, "name": "1dc6337212c4c2f9660d1f12cbe8efa2", "is_reserved": 0, "rental_uris": {"android": "https://dc.lft.to/lastmile_qr_scan", "ios": "https://dc.lft.to/lastmile_qr_scan"}, "fusion_lon": 0.0}, {"lat": 38.924041, "is_disabled": 0, "type": "electric_scooter", "lon": -77.05255083333333, "bike_id": "ea386831a7affd2263b18f5e3a9c17b5", "fusion_lat": 0.0, "name": "ea386831a7affd2263b18f5e3a9c17b5", "is_reserved": 0, "rental_uris": {"android": "https://dc.lft.to/lastmile_qr_scan", "ios": "https://dc.lft.to/lastmile_qr_scan"}, "fusion_lon": 0.0}, {"lat": 38.8811155, "is_disabled": 0, "type": "electric_scooter", "lon": -77.01645433333333, "bike_id": "46b672dae39dd53136383d46821b8cf3", "fusion_lat": 0.0, "name": "46b672dae39dd53136383d46821b8cf3", "is_reserved": 0, "rental_uris": {"android": "https://dc.lft.to/lastmile_qr_scan", "ios": "https://dc.lft.to/lastmile_qr_scan"}, "fusion_lon": 0.0}, {"lat": 38.9296715, "is_disabled": 0, "type": "electric_scooter", "lon": -77.03165183333333, "bike_id": "e9005d1d48ec8da23f039939dc0943ac", "fusion_lat": 0.0, "name": "e9005d1d48ec8da23f039939dc0943ac", "is_reserved": 0, "rental_uris": {"android": "https://dc.lft.to/lastmile_qr_scan", "ios": "https://dc.lft.to/lastmile_qr_scan"}, "fusion_lon": 0.0}, {"lat": 38.884074166666664, "is_disabled": 0, "type": "electric_bike", "lon": -76.96056216666666, "bike_id": "34acb9a81882f1413b5681ccaf2b8e75", "fusion_lat": 0.0, "name": "34acb9a81882f1413b5681ccaf2b8e75", "is_reserved": 0, "rental_uris": {"android": "https://dc.lft.to/lastmile_qr_scan", "ios": "https://dc.lft.to/lastmile_qr_scan"}, "fusion_lon": 0.0}, {"lat": 38.862847, "is_disabled": 0, "type": "electric_scooter", "lon": -76.99227666666667, "bike_id": "2de9678f90a9bd0aae8b36c568e771f1", "fusion_lat": 0.0, "name": "2de9678f90a9bd0aae8b36c568e771f1", "is_reserved": 0, "rental_uris": {"android": "https://dc.lft.to/lastmile_qr_scan", "ios": "https://dc.lft.to/lastmile_qr_scan"}, "fusion_lon": 0.0}, {"lat": 39.0750085, "is_disabled": 0, "type": "electric_bike", "lon": -77.11893966666666, "bike_id": "4411a69cdb1a7a95a874642e2724de53", "fusion_lat": 0.0, "name": "4411a69cdb1a7a95a874642e2724de53", "is_reserved": 0, "rental_uris": {"android": "https://dc.lft.to/lastmile_qr_scan", "ios": "https://dc.lft.to/lastmile_qr_scan"}, "fusion_lon": 0.0}, {"lat": 38.928208, "is_disabled": 0, "type": "electric_scooter", "lon": -77.05421833333334, "bike_id": "a89b4d4fafb70a4e49c7ffcc621e573a", "fusion_lat": 0.0, "name": "a89b4d4fafb70a4e49c7ffcc621e573a", "is_reserved": 0, "rental_uris": {"android": "https://dc.lft.to/lastmile_qr_scan", "ios": "https://dc.lft.to/lastmile_qr_scan"}, "fusion_lon": 0.0}, {"lat": 38.92112566666667, "is_disabled": 0, "type": "electric_scooter", "lon": -77.04569066666667, "bike_id": "8ea7c329a751a3ea52d61805870bdec4", "fusion_lat": 0.0, "name": "8ea7c329a751a3ea52d61805870bdec4", "is_reserved": 0, "rental_uris": {"android": "https://dc.lft.to/lastmile_qr_scan", "ios": "https://dc.lft.to/lastmile_qr_scan"}, "fusion_lon": 0.0}, {"lat": 38.92570766666667, "is_disabled": 0, "type": "electric_scooter", "lon": -77.05294683333334, "bike_id": "7b881bb2c7cb41cb27b5096c59caab98", "fusion_lat": 0.0, "name": "7b881bb2c7cb41cb27b5096c59caab98", "is_reserved": 0, "rental_uris": {"android": "https://dc.lft.to/lastmile_qr_scan", "ios": "https://dc.lft.to/lastmile_qr_scan"}, "fusion_lon": 0.0}, {"lat": 38.89842816666667, "is_disabled": 0, "type": "electric_scooter", "lon": -76.94462516666667, "bike_id": "b366f133664c65a97a960a4f10f137d3", "fusion_lat": 0.0, "name": "b366f133664c65a97a960a4f10f137d3", "is_reserved": 0, "rental_uris": {"android": "https://dc.lft.to/lastmile_qr_scan", "ios": "https://dc.lft.to/lastmile_qr_scan"}, "fusion_lon": 0.0}, {"lat": 38.914622666666666, "is_disabled": 0, "type": "electric_scooter", "lon": -77.0021585, "bike_id": "77edbb14dc73fead9e8ccae365997402", "fusion_lat": 0.0, "name": "77edbb14dc73fead9e8ccae365997402", "is_reserved": 0, "rental_uris": {"android": "https://dc.lft.to/lastmile_qr_scan", "ios": "https://dc.lft.to/lastmile_qr_scan"}, "fusion_lon": 0.0}, {"lat": 38.884397166666666, "is_disabled": 0, "type": "electric_scooter", "lon": -77.01741033333333, "bike_id": "533a80010b30bd7c82bc2032d749bb2a", "fusion_lat": 0.0, "name": "533a80010b30bd7c82bc2032d749bb2a", "is_reserved": 0, "rental_uris": {"android": "https://dc.lft.to/lastmile_qr_scan", "ios": "https://dc.lft.to/lastmile_qr_scan"}, "fusion_lon": 0.0}, {"lat": 38.87067483333333, "is_disabled": 0, "type": "electric_scooter", "lon": -77.0084015, "bike_id": "a752e54fa4f113d0bbba9ec7b141e72f", "fusion_lat": 0.0, "name": "a752e54fa4f113d0bbba9ec7b141e72f", "is_reserved": 0, "rental_uris": {"android": "https://dc.lft.to/lastmile_qr_scan", "ios": "https://dc.lft.to/lastmile_qr_scan"}, "fusion_lon": 0.0}, {"lat": 38.920593, "is_disabled": 0, "type": "electric_scooter", "lon": -77.02458466666667, "bike_id": "185fb9c2589cc4fb75392f1273153359", "fusion_lat": 0.0, "name": "185fb9c2589cc4fb75392f1273153359", "is_reserved": 0, "rental_uris": {"android": "https://dc.lft.to/lastmile_qr_scan", "ios": "https://dc.lft.to/lastmile_qr_scan"}, "fusion_lon": 0.0}, {"lat": 38.902736166666664, "is_disabled": 0, "type": "electric_scooter", "lon": -77.003277, "bike_id": "b713b6bd7bff08b5fd70d7b1adb044f8", "fusion_lat": 0.0, "name": "b713b6bd7bff08b5fd70d7b1adb044f8", "is_reserved": 0, "rental_uris": {"android": "https://dc.lft.to/lastmile_qr_scan", "ios": "https://dc.lft.to/lastmile_qr_scan"}, "fusion_lon": 0.0}, {"lat": 38.9001445, "is_disabled": 0, "type": "electric_scooter", "lon": -77.02154466666667, "bike_id": "2ef5e9fd387a38c41ee85e37ce1b4bbc", "fusion_lat": 0.0, "name": "2ef5e9fd387a38c41ee85e37ce1b4bbc", "is_reserved": 0, "rental_uris": {"android": "https://dc.lft.to/lastmile_qr_scan", "ios": "https://dc.lft.to/lastmile_qr_scan"}, "fusion_lon": 0.0}, {"lat": 38.89497083333333, "is_disabled": 0, "type": "electric_scooter", "lon": -77.003197, "bike_id": "2a047c7e7d39a51a48b1154c91f4cc90", "fusion_lat": 0.0, "name": "2a047c7e7d39a51a48b1154c91f4cc90", "is_reserved": 0, "rental_uris": {"android": "https://dc.lft.to/lastmile_qr_scan", "ios": "https://dc.lft.to/lastmile_qr_scan"}, "fusion_lon": 0.0}, {"lat": 38.920372666666665, "is_disabled": 0, "type": "electric_scooter", "lon": -77.04181716666666, "bike_id": "415a78fc69468ac362c7d6ac9321ccd2", "fusion_lat": 0.0, "name": "415a78fc69468ac362c7d6ac9321ccd2", "is_reserved": 0, "rental_uris": {"android": "https://dc.lft.to/lastmile_qr_scan", "ios": "https://dc.lft.to/lastmile_qr_scan"}, "fusion_lon": 0.0}, {"lat": 38.879155, "is_disabled": 0, "type": "electric_scooter", "lon": -77.00882883333334, "bike_id": "37c5e4a051ec28fd0a1a7ac036259cd9", "fusion_lat": 0.0, "name": "37c5e4a051ec28fd0a1a7ac036259cd9", "is_reserved": 0, "rental_uris": {"android": "https://dc.lft.to/lastmile_qr_scan", "ios": "https://dc.lft.to/lastmile_qr_scan"}, "fusion_lon": 0.0}, {"lat": 38.91821433333333, "is_disabled": 0, "type": "electric_scooter", "lon": -77.01209566666667, "bike_id": "ab151a704b0e26f4b1994a26b0f58eec", "fusion_lat": 0.0, "name": "ab151a704b0e26f4b1994a26b0f58eec", "is_reserved": 0, "rental_uris": {"android": "https://dc.lft.to/lastmile_qr_scan", "ios": "https://dc.lft.to/lastmile_qr_scan"}, "fusion_lon": 0.0}, {"lat": 38.8977955, "is_disabled": 0, "type": "electric_scooter", "lon": -77.009175, "bike_id": "4e0be4b2cad0df40d0e5bb40f0fd62be", "fusion_lat": 0.0, "name": "4e0be4b2cad0df40d0e5bb40f0fd62be", "is_reserved": 0, "rental_uris": {"android": "https://dc.lft.to/lastmile_qr_scan", "ios": "https://dc.lft.to/lastmile_qr_scan"}, "fusion_lon": 0.0},