{"data": {"bikes": [{"fusion_lat": 0.0, "type": "electric_scooter", "name": "7dc08e84f6122e113cec79717b83b758", "is_disabled": 0, "lon": -77.06306516666666, "fusion_lon": 0.0, "rental_uris": {"ios": "https://dc.lft.to/lastmile_qr_scan", "android": "https://dc.lft.to/lastmile_qr_scan"}, "lat": 38.903987, "bike_id": "7dc08e84f6122e113cec79717b83b758", "is_reserved": 0}, {"fusion_lat": 0.0, "type": "electric_scooter", "name": "a8ab2e16ec339c6a1eb70fbc24f39fcc", "is_disabled": 0, "lon": -77.03942916666666, "fusion_lon": 0.0, "rental_uris": {"ios": "https://dc.lft.to/lastmile_qr_scan", "android": "https://dc.lft.to/lastmile_qr_scan"}, "lat": 38.902543, "bike_id": "a8ab2e16ec339c6a1eb70fbc24f39fcc", "is_reserved": 0}, {"fusion_lat": 0.0, "type": "electric_scooter", "name": "788c8c2f1df1b62fd07803c589575f4f", "is_disabled": 0, "lon": -77.0412995, "fusion_lon": 0.0, "rental_uris": {"ios": "https://dc.lft.to/lastmile_qr_scan", "android": "https://dc.lft.to/lastmile_qr_scan"}, "lat": 38.917100166666664, "bike_id": "788c8c2f1df1b62fd07803c589575f4f", "is_reserved": 0}, {"fusion_lat": 0.0, "type": "electric_scooter", "name": "a96055e44c051edd1e6af701d2559876", "is_disabled": 0, "lon": -77.04462316666667, "fusion_lon": 0.0, "rental_uris": {"ios": "https://dc.lft.to/lastmile_qr_scan", "android": "https://dc.lft.to/lastmile_qr_scan"}, "lat": 38.9246305, "bike_id": "a96055e44c051edd1e6af701d2559876", "is_reserved": 0}, {"fusion_lat": 0.0, "type": "electric_scooter", "name": "b978b91d648e34f6667973e0d9013e94", "is_disabled": 0, "lon": -77.01282283333333, "fusion_lon": 0.0, "rental_uris": {"ios": "https://dc.lft.to/lastmile_qr_scan", "android": "https://dc.lft.to/lastmile_qr_scan"}, "lat": 38.95657383333333, "bike_id": "b978b91d648e34f6667973e0d9013e94", "is_reserved": 0}, {"fusion_lat": 0.0, "type": "electric_scooter", "name": "374ebced62f65a84517298c338c39f20", "is_disabled": 0, "lon": -77.0154795, "fusion_lon": 0.0, "rental_uris": {"ios": "https://dc.lft.to/lastmile_qr_scan", "android": "https://dc.lft.to/lastmile_qr_scan"}, "lat": 38.8916865, "bike_id": "374ebced62f65a84517298c338c39f20", "is_reserved": 0}, {"fusion_lat": 0.0, "type": "electric_scooter", "name": "f655b2f442955e0b7843f043552ddb78", "is_disabled": 0, "lon": -77.0298615, "fusion_lon": 0.0, "rental_uris": {"ios": "https://dc.lft.to/lastmile_qr_scan", "android": "https://dc.lft.to/lastmile_qr_scan"}, "lat": 38.942994666666664, "bike_id": "f655b2f442955e0b7843f043552ddb78", "is_reserved": 0}, {"fusion_lat": 0.0, "type": "electric_scooter", "name": "6474cdae6a930b76cc312d0f7d4c0fe3", "is_disabled": 0, "lon": -77.04476816666667, "fusion_lon": 0.0, "rental_uris": {"ios": "https://dc.lft.to/lastmile_qr_scan", "android": "https://dc.lft.to/lastmile_qr_scan"}, "lat": 38.9111945, "bike_id": "6474cdae6a930b76cc312d0f7d4c0fe3", "is_reserved": 0}, {"fusion_lat": 0.0, "type": "electric_scooter", "name": "7e082c1e686266ee453045804e8dde5f", "is_disabled": 0, "lon": -77.020898, "fusion_lon": 0.0, "rental_uris": {"ios": "https://dc.lft.to/lastmile_qr_scan", "android": "https://dc.lft.to/lastmile_qr_scan"}, "lat": 38.92365933333333, "bike_id": "7e082c1e686266ee453045804e8dde5f", "is_reserved": 0}, {"fusion_lat": 0.0, "type": "electric_scooter", "name": "28f47a5049d250ae9e5dcc0a81223677", "is_disabled": 0, "lon": -77.03542483333334, "fusion_lon": 0.0, "rental_uris": {"ios": "https://dc.lft.to/lastmile_qr_scan", "android": "https://dc.lft.to/lastmile_qr_scan"}, "lat": 38.92419533333333, "bike_id": "28f47a5049d250ae9e5dcc0a81223677", "is_reserved": 0}, {"fusion_lat": 0.0, "type": "electric_scooter", "name": "44f0f76c85a570e0f4296adcef826d6c", "is_disabled": 0, "lon": -77.017725, "fusion_lon": 0.0, "rental_uris": {"ios": "https://dc.lft.to/lastmile_qr_scan", "android": "https://dc.lft.to/lastmile_qr_scan"}, "lat": 38.9199325, "bike_id": "44f0f76c85a570e0f4296adcef826d6c", "is_reserved": 0}, {"fusion_lat": 0.0, "type": "electric_bike", "name": "2d066a190e527d5fe114fcfb43a61b35", "is_disabled": 0, "lon": -77.01207916666667, "fusion_lon": 0.0, "rental_uris": {"ios": "https://dc.lft.to/lastmile_qr_scan", "android": "https://dc.lft.to/lastmile_qr_scan"}, "lat": 38.95074783333333, "bike_id": "2d066a190e527d5fe114fcfb43a61b35", "is_reserved": 0}, {"fusion_lat": 0.0, "type": "electric_scooter", "name": "160ef31ed253d9890a4dd0dac1ec54e5", "is_disabled": 0, "lon": -77.023721, "fusion_lon": 0.0, "rental_uris": {"ios": "https://dc.lft.to/lastmile_qr_scan", "android": "https://dc.lft.to/lastmile_qr_scan"}, "lat": 38.892136, "bike_id": "160ef31ed253d9890a4dd0dac1ec54e5", "is_reserved": 0}, {"fusion_lat": 0.0, "type": "electric_scooter", "name": "f6681693014dc534d107766522c0f373", "is_disabled": 0, "lon": -77.01983716666666, "fusion_lon": 0.0, "rental_uris": {"ios": "https://dc.lft.to/lastmile_qr_scan", "android": "https://dc.lft.to/lastmile_qr_scan"}, "lat": 38.8872145, "bike_id": "f6681693014dc534d107766522c0f373", "is_reserved": 0}, {"fusion_lat": 0.0, "type": "electric_scooter", "name": "bc857eb922002c35b10274f3e7f4d61d", "is_disabled": 0, "lon": -77.03189283333333, "fusion_lon": 0.0, "rental_uris": {"ios": "https://dc.lft.to/lastmile_qr_scan", "android": "https://dc.lft.to/lastmile_qr_scan"}, "lat": 38.90199833333333, "bike_id": "bc857eb922002c35b10274f3e7f4d61d", "is_reserved": 0}, {"fusion_lat": 0.0, "type": "electric_scooter", "name": "675a4d37853338ddcde1836e2fef1dfb", "is_disabled": 0, "lon": -77.0111675, "fusion_lon": 0.0, "rental_uris": {"ios": "https://dc.lft.to/lastmile_qr_scan", "android": "https://dc.lft.to/lastmile_qr_scan"}, "lat": 38.895417333333334, "bike_id": "675a4d37853338ddcde1836e2fef1dfb", "is_reserved": 0}, {"fusion_lat": 0.0, "type": "electric_scooter", "name": "fd0c2c39710662f65ccd09c51ae376ab", "is_disabled": 0, "lon": -77.02795466666667, "fusion_lon": 0.0, "rental_uris": {"ios": "https://dc.lft.to/lastmile_qr_scan", "android": "https://dc.lft.to/lastmile_qr_scan"}, "lat": 38.9175175, "bike_id": "fd0c2c39710662f65ccd09c51ae376ab", "is_reserved": 0}, {"fusion_lat": 0.0, "type": "electric_bike", "name": "06404d93ba3ce99f5f0731e7dba83335", "is_disabled": 0, "lon": -76.95563816666666, "fusion_lon": 0.0, "rental_uris": {"ios": "https://dc.lft.to/lastmile_qr_scan", "android": "https://dc.lft.to/lastmile_qr_scan"}, "lat": 38.9850445, "bike_id": "06404d93ba3ce99f5f0731e7dba83335", "is_reserved": 0}, {"fusion_lat": 0.0, "type": "electric_scooter", "name": "6000bbe7eaa090d1f8360776efc0232f", "is_disabled": 0, "lon": -77.09096, "fusion_lon": 0.0, "rental_uris": {"ios": "https://dc.lft.to/lastmile_qr_scan", "android": "https://dc.lft.to/lastmile_qr_scan"}, "lat": 38.93099683333333, "bike_id": "6000bbe7eaa090d1f8360776efc0232f", "is_reserved": 0}, {"fusion_lat": 0.0, "type": "electric_scooter", "name": "c7e4165c318a43401e177a7c9e7b5ea7", "is_disabled": 0, "lon": -77.05336883333334, "fusion_lon": 0.0, "rental_uris": {"ios": "https://dc.lft.to/lastmile_qr_scan", "android": "https://dc.lft.to/lastmile_qr_scan"}, "lat": 38.90645266666667, "bike_id": "c7e4165c318a43401e177a7c9e7b5ea7", "is_reserved": 0}, {"fusion_lat": 0.0, "type": "electric_scooter", "name": "e5c9aaa9815cd5eb60ec773b66300fd9", "is_disabled": 0, "lon": -76.94652616666667, "fusion_lon": 0.0, "rental_uris": {"ios": "https://dc.lft.to/lastmile_qr_scan", "android": "https://dc.lft.to/lastmile_qr_scan"}, "lat": 38.89827966666667, "bike_id": "e5c9aaa9815cd5eb60ec773b66300fd9", "is_reserved": 0}, {"fusion_lat": 0.0, "type": "electric_scooter", "name": "7c7dbe888eb0c95df1d445787a28bd40", "is_disabled": 0, "lon": -77.0240895, "fusion_lon": 0.0, "rental_uris": {"ios": "https://dc.lft.to/lastmile_qr_scan", "android": "https://dc.lft.to/lastmile_qr_scan"}, "lat": 38.915640833333335, "bike_id": "7c7dbe888eb0c95df1d445787a28bd40", "is_reserved": 0}, {"fusion_lat": 0.0, "type": "electric_scooter", "name": "4739fd722cc6ba75b4edf6172a9cb88f", "is_disabled": 0, "lon": -77.02153783333333, "fusion_lon": 0.0, "rental_uris": {"ios": "https://dc.lft.to/lastmile_qr_scan", "android": "https://dc.lft.to/lastmile_qr_scan"}, "lat": 38.9413065, "bike_id": "4739fd722cc6ba75b4edf6172a9cb88f", "is_reserved": 0}, {"fusion_lat": 0.0, "type": "electric_scooter", "name": "c0c18dc46ebdb83da5bfcfbe069eb9c8", "is_disabled": 0, "lon": -77.046865, "fusion_lon": 0.0, "rental_uris": {"ios": "https://dc.lft.to/lastmile_qr_scan", "android": "https://dc.lft.to/lastmile_qr_scan"}, "lat": 38.8922435, "bike_id": "c0c18dc46ebdb83da5bfcfbe069eb9c8", "is_reserved": 0}, {"fusion_lat": 0.0, "type": "electric_scooter", "name": "0c2f79fc4e8e550171373d6303676e50", "is_disabled": 0, "lon": -77.04697083333333, "fusion_lon": 0.0, "rental_uris": {"ios": "https://dc.lft.to/lastmile_qr_scan", "android": "https://dc.lft.to/lastmile_qr_scan"}, "lat": 38.89606366666667, "bike_id": "0c2f79fc4e8e550171373d6303676e50", "is_reserved": 0}, {"fusion_lat": 0.0, "type": "electric_scooter", "name": "53a13c78f2315f7a81ff87ed86921b16", "is_disabled": 0, "lon": -77.0208095, "fusion_lon": 0.0, "rental_uris": {"ios": "https://dc.lft.to/lastmile_qr_scan", "android": "https://dc.lft.to/lastmile_qr_scan"}, "lat": 38.92704583333333, "bike_id": "53a13c78f2315f7a81ff87ed86921b16", "is_reserved": 0}, {"fusion_lat": 0.0, "type": "electric_scooter", "name": "be265d84220ac91daf3bce5544b55724", "is_disabled": 0, "lon": -77.03179983333334, "fusion_lon": 0.0, "rental_uris": {"ios": "https://dc.lft.to/lastmile_qr_scan", "android": "https://dc.lft.to/lastmile_qr_scan"}, "lat": 38.9182425, "bike_id": "be265d84220ac91daf3bce5544b55724", "is_reserved": 0}, {"fusion_lat": 0.0, "type": "electric_scooter", "name": "66819e9bf591c63de5114d49500b06e3", "is_disabled": 0, "lon": -77.0698385, "fusion_lon": 0.0, "rental_uris": {"ios": "https://dc.lft.to/lastmile_qr_scan", "android": "https://dc.lft.to/lastmile_qr_scan"}, "lat": 38.955283, "bike_id": "66819e9bf591c63de5114d49500b06e3", "is_reserved": 0}, {"fusion_lat": 0.0, "type": "electric_scooter", "name": "8ffe54d0d1eb0969a29e79c6c2d8f049", "is_disabled": 0, "lon": -77.05013716666667, "fusion_lon": 0.0, "rental_uris": {"ios": "https://dc.lft.to/lastmile_qr_scan", "android": "https://dc.lft.to/lastmile_qr_scan"}, "lat": 38.905392166666665, "bike_id": "8ffe54d0d1eb0969a29e79c6c2d8f049", "is_reserved": 0}, {"fusion_lat": 0.0, "type": "electric_scooter", "name": "c064f061d8a5e1d2700b935229de7a6f", "is_disabled": 0, "lon": -77.04338716666666, "fusion_lon": 0.0, "rental_uris": {"ios": "https://dc.lft.to/lastmile_qr_scan", "android": "https://dc.lft.to/lastmile_qr_scan"}, "lat": 38.9232545, "bike_id": "c064f061d8a5e1d2700b935229de7a6f", "is_reserved": 0}, {"fusion_lat": 0.0, "type": "electric_scooter", "name": "9ccb13e05e30e38397646bf4e0b5c2c6", "is_disabled": 0, "lon": -76.93189566666666, "fusion_lon": 0.0, "rental_uris": {"ios": "https://dc.lft.to/lastmile_qr_scan", "android": "https://dc.lft.to/lastmile_qr_scan"}, "lat": 38.8985685, "bike_id": "9ccb13e05e30e38397646bf4e0b5c2c6", "is_reserved": 0}, {"fusion_lat": 0.0, "type": "electric_scooter", "name": "22e6a62f5b2e4c9541051cb273c18e4f", "is_disabled": 0, "lon": -77.010184, "fusion_lon": 0.0, "rental_uris": {"ios": "https://dc.lft.to/lastmile_qr_scan", "android": "https://dc.lft.to/lastmile_qr_scan"}, "lat": 38.91252883333333, "bike_id": "22e6a62f5b2e4c9541051cb273c18e4f", "is_reserved": 0}, {"fusion_lat": 0.0, "type": "electric_scooter", "name": "7f7f209783034ccd3b52ca7bcb6d7dc6", "is_disabled": 0, "lon": -77.05754383333333, "fusion_lon": 0.0, "rental_uris": {"ios": "https://dc.lft.to/lastmile_qr_scan", "android": "https://dc.lft.to/lastmile_qr_scan"}, "lat": 38.92451466666667, "bike_id": "7f7f209783034ccd3b52ca7bcb6d7dc6", "is_reserved": 0}, {"fusion_lat": 0.0, "type": "electric_scooter", "name": "e6888cee123c1f35308c56bd0fc7701e", "is_disabled": 0, "lon": -77.03840266666667, "fusion_lon": 0.0, "rental_uris": {"ios": "https://dc.lft.to/lastmile_qr_scan", "android": "https://dc.lft.to/lastmile_qr_scan"}, "lat": 38.909437833333335, "bike_id": "e6888cee123c1f35308c56bd0fc7701e", "is_reserved": 0}, {"fusion_lat": 0.0, "type": "electric_scooter", "name": "7ae8b9d24cc960f7ce738a87f94e1fac", "is_disabled": 0, "lon": -77.04620683333333, "fusion_lon": 0.0, "rental_uris": {"ios": "https://dc.lft.to/lastmile_qr_scan", "android": "https://dc.lft.to/lastmile_qr_scan"}, "lat": 38.90269416666667, "bike_id": "7ae8b9d24cc960f7ce738a87f94e1fac", "is_reserved": 0}, {"fusion_lat": 0.0, "type": "electric_scooter", "name": "5ea3c360996374b755e273cf934d5b2d", "is_disabled": 0, "lon": -77.01558166666666, "fusion_lon": 0.0, "rental_uris": {"ios": "https://dc.lft.to/lastmile_qr_scan", "android": "https://dc.lft.to/lastmile_qr_scan"}, "lat": 38.8860095, "bike_id": "5ea3c360996374b755e273cf934d5b2d", "is_reserved": 0}, {"fusion_lat": 0.0, "type": "electric_scooter", "name": "9f3ee6a3b73f031bb46c9992c5b0fa5b", "is_disabled": 0, "lon": -77.06888266666667, "fusion_lon": 0.0, "rental_uris": {"ios": "https://dc.lft.to/lastmile_qr_scan", "android": "https://dc.lft.to/lastmile_qr_scan"}, "lat": 38.90526633333333, "bike_id": "9f3ee6a3b73f031bb46c9992c5b0fa5b", "is_reserved": 0}, {"fusion_lat": 0.0, "type": "electric_scooter", "name": "f90b1b9ff9ff6142e9886a22d7711fcb", "is_disabled": 0, "lon": -77.03222016666666, "fusion_lon": 0.0, "rental_uris": {"ios": "https://dc.lft.to/lastmile_qr_scan", "android": "https://dc.lft.to/lastmile_qr_scan"}, "lat": 38.928694166666666, "bike_id": "f90b1b9ff9ff6142e9886a22d7711fcb", "is_reserved": 0}, {"fusion_lat": 0.0, "type": "electric_scooter", "name": "1f7f81174a8d8a6fdce135da04db4f84", "is_disabled": 0, "lon": -77.01187383333334, "fusion_lon": 0.0, "rental_uris": {"ios": "https://dc.lft.to/lastmile_qr_scan", "android": "https://dc.lft.to/lastmile_qr_scan"}, "lat": 38.9001385, "bike_id": "1f7f81174a8d8a6fdce135da04db4f84", "is_reserved": 0}, {"fusion_lat": 0.0, "type": "electric_scooter", "name": "84a4400a7dd5df9979a37145173560e8", "is_disabled": 0, "lon": -77.0239505, "fusion_lon": 0.0, "rental_uris": {"ios": "https://dc.lft.to/lastmile_qr_scan", "android": "https://dc.lft.to/lastmile_qr_scan"}, "lat": 38.937038, "bike_id": "84a4400a7dd5df9979a37145173560e8", "is_reserved": 0}, {"fusion_lat": 0.0, "type": "electric_scooter", "name": "9030fa0e670b7a9517e9bdef3ce9d218", "is_disabled": 0, "lon": -76.99669083333333, "fusion_lon": 0.0, "rental_uris": {"ios": "https://dc.lft.to/lastmile_qr_scan", "android": "https://dc.lft.to/lastmile_qr_scan"}, "lat": 38.93245783333333, "bike_id": "9030fa0e670b7a9517e9bdef3ce9d218", "is_reserved": 0}, {"fusion_lat": 0.0, "type": "electric_scooter", "name": "c392bed8138771c4bfaf6f063ea41aad", "is_disabled": 0, "lon": -77.047343, "fusion_lon": 0.0, "rental_uris": {"ios": "https://dc.lft.to/lastmile_qr_scan", "android": "https://dc.lft.to/lastmile_qr_scan"}, "lat": 38.89556866666667, "bike_id": "c392bed8138771c4bfaf6f063ea41aad", "is_reserved": 0}, {"fusion_lat": 0.0, "type": "electric_scooter", "name": "4b9858a6cd2962eaa3f60816accb65a6", "is_disabled": 0, "lon": -77.03638733333334, "fusion_lon": 0.0, "rental_uris": {"ios": "https://dc.lft.to/lastmile_qr_scan", "android": "https://dc.lft.to/lastmile_qr_scan"}, "lat": 38.9161635, "bike_id": "4b9858a6cd2962eaa3f60816accb65a6", "is_reserved": 0}, {"fusion_lat": 0.0, "type": "electric_scooter", "name": "fe1e0078e3c12e37c94323a2019a3f06", "is_disabled": 0, "lon": -77.00605083333333, "fusion_lon": 0.0, "rental_uris": {"ios": "https://dc.lft.to/lastmile_qr_scan", "android": "https://dc.lft.to/lastmile_qr_scan"}, "lat": 38.9030225, "bike_id": "fe1e0078e3c12e37c94323a2019a3f06", "is_reserved": 0}, {"fusion_lat": 0.0, "type": "electric_scooter", "name": "f7c0f2ef17b58cde17c407625f7febf5", "is_disabled": 0, "lon": -77.034458, "fusion_lon": 0.0, "rental_uris": {"ios": "https://dc.lft.to/lastmile_qr_scan", "android": "https://dc.lft.to/lastmile_qr_scan"}, "lat": 38.90810583333333, "bike_id": "f7c0f2ef17b58cde17c407625f7febf5", "is_reserved": 0}, {"fusion_lat": 0.0, "type": "electric_scooter", "name": "4bc4aaf5f3a89691526cf848abb10535", "is_disabled": 0, "lon": -77.02409016666667, "fusion_lon": 0.0, "rental_uris": {"ios": "https://dc.lft.to/lastmile_qr_scan", "android": "https://dc.lft.to/lastmile_qr_scan"}, "lat": 38.9097585, "bike_id": "4bc4aaf5f3a89691526cf848abb10535", "is_reserved": 0}, {"fusion_lat": 0.0, "type": "electric_scooter", "name": "428c8e97cc6f39d9784a9631d591eb7f", "is_disabled": 0, "lon": -77.02650016666666, "fusion_lon": 0.0, "rental_uris": {"ios": "https://dc.lft.to/lastmile_qr_scan", "android": "https://dc.lft.to/lastmile_qr_scan"}, "lat": 38.9309975, "bike_id": "428c8e97cc6f39d9784a9631d591eb7f", "is_reserved": 0}, {"fusion_lat": 0.0, "type": "electric_scooter", "name": "8cce4e0660bd364a04870c08498d79ad", "is_disabled": 0, "lon": -77.051305, "fusion_lon": 0.0, "rental_uris": {"ios": "https://dc.lft.to/lastmile_qr_scan", "android": "https://dc.lft.to/lastmile_qr_scan"}, "lat": 38.923607833333335, "bike_id": "8cce4e0660bd364a04870c08498d79ad", "is_reserved": 0}, {"fusion_lat": 0.0, "type": "electric_scooter", "name": "27eeb1097f99a091078c52a01cd54f3b", "is_disabled": 0, "lon": -77.024086, "fusion_lon": 0.0, "rental_uris": {"ios": "https://dc.lft.to/lastmile_qr_scan", "android": "https://dc.lft.to/lastmile_qr_scan"}, "lat": 38.920701, "bike_id": "27eeb1097f99a091078c52a01cd54f3b", "is_reserved": 0}, {"fusion_lat": 0.0, "type": "electric_scooter", "name": "4b5f914368f6a1b85b57ed2446fa562f", "is_disabled": 0, "lon": -76.99446383333333, "fusion_lon": 0.0, "rental_uris": {"ios": "https://dc.lft.to/lastmile_qr_scan", "android": "https://dc.lft.to/lastmile_qr_scan"}, "lat": 38.82767883333333, "bike_id": "4b5f914368f6a1b85b57ed2446fa562f", "is_reserved": 0}, {"fusion_lat": 0.0, "type": "electric_scooter", "name": "e40aaba7302b0c0d6d9ed24f0f736d5a", "is_disabled": 0, "lon": -77.046863, "fusion_lon": 0.0, "rental_uris": {"ios": "https://dc.lft.to/lastmile_qr_scan", "android": "https://dc.lft.to/lastmile_qr_scan"}, "lat": 38.899592, "bike_id": "e40aaba7302b0c0d6d9ed24f0f736d5a", "is_reserved": 0}, {"fusion_lat": 0.0, "type": "electric_scooter", "name": "8a5f1596d8f1ff8fc6d13e2e25eaf671", "is_disabled": 0, "lon": -77.02680516666666, "fusion_lon": 0.0, "rental_uris": {"ios": "https://dc.lft.to/lastmile_qr_scan", "android": "https://dc.lft.to/lastmile_qr_scan"}, "lat": 38.91416566666667, "bike_id": "8a5f1596d8f1ff8fc6d13e2e25eaf671", "is_reserved": 0}, {"fusion_lat": 0.0, "type": "electric_bike", "name": "63dc42aa1251e33c5c4258f0d41eb842", "is_disabled": 0, "lon": -76.974387, "fusion_lon": 0.0, "rental_uris": {"ios": "https://dc.lft.to/lastmile_qr_scan", "android": "https://dc.lft.to/lastmile_qr_scan"}, "lat": 38.85592916666667, "bike_id": "63dc42aa1251e33c5c4258f0d41eb842", "is_reserved": 0}, {"fusion_lat": 0.0, "type": "electric_scooter", "name": "23e9daaa9aa7abe5d69f6869edacb825", "is_disabled": 0, "lon": -77.04255316666666, "fusion_lon": 0.0, "rental_uris": {"ios": "https://dc.lft.to/lastmile_qr_scan", "android": "https://dc.lft.to/lastmile_qr_scan"}, "lat": 38.9094495, "bike_id": "23e9daaa9aa7abe5d69f6869edacb825", "is_reserved": 0}, {"fusion_lat": 0.0, "type": "electric_scooter", "name": "95ba5bfdfc686dc9df1a8b0fb1acd16c", "is_disabled": 0, "lon": -77.04339, "fusion_lon": 0.0, "rental_uris": {"ios": "https://dc.lft.to/lastmile_qr_scan", "android": "https://dc.lft.to/lastmile_qr_scan"}, "lat": 38.90433083333333, "bike_id": "95ba5bfdfc686dc9df1a8b0fb1acd16c", "is_reserved": 0}, {"fusion_lat": 0.0, "type": "electric_scooter", "name": "c378a29951a3782d88fce6c49492f1de", "is_disabled": 0, "lon": -76.93368033333333, "fusion_lon": 0.0, "rental_uris": {"ios": "https://dc.lft.to/lastmile_qr_scan", "android": "https://dc.lft.to/lastmile_qr_scan"}, "lat": 38.898378666666666, "bike_id": "c378a29951a3782d88fce6c49492f1de", "is_reserved": 0}, {"fusion_lat": 0.0, "type": "electric_scooter", "name": "163689865a9c04ae8eea45804a85b1fc", "is_disabled": 0, "lon": -77.03248566666667, "fusion_lon": 0.0, "rental_uris": {"ios": "https://dc.lft.to/lastmile_qr_scan", "android": "https://dc.lft.to/lastmile_qr_scan"}, "lat": 38.9198495, "bike_id": "163689865a9c04ae8eea45804a85b1fc", "is_reserved": 0}, {"fusion_lat": 0.0, "type": "electric_scooter", "name": "fb2eaf178cfb892ad9874abcf41a17b3", "is_disabled": 0, "lon": -77.03858666666666, "fusion_lon": 0.0, "rental_uris": {"ios": "https://dc.lft.to/lastmile_qr_scan", "android": "https://dc.lft.to/lastmile_qr_scan"}, "lat": 38.91689916666667, "bike_id": "fb2eaf178cfb892ad9874abcf41a17b3", "is_reserved": 0}, {"fusion_lat": 0.0, "type": "electric_bike", "name": "4ee02247c535ce9a31530d636969b395", "is_disabled": 0, "lon": -77.07912483333334, "fusion_lon": 0.0, "rental_uris": {"ios": "https://dc.lft.to/lastmile_qr_scan", "android": "https://dc.lft.to/lastmile_qr_scan"}, "lat": 38.83830783333333, "bike_id": "4ee02247c535ce9a31530d636969b395", "is_reserved": 0}, {"fusion_lat": 0.0, "type": "electric_scooter", "name": "00039b7cdf44e35d34334c14313daf7e", "is_disabled": 0, "lon": -77.04520466666666, "fusion_lon": 0.0, "rental_uris": {"ios": "https://dc.lft.to/lastmile_qr_scan", "android": "https://dc.lft.to/lastmile_qr_scan"}, "lat": 38.9182315, "bike_id": "00039b7cdf44e35d34334c14313daf7e", "is_reserved": 0}, {"fusion_lat": 0.0, "type": "electric_scooter", "name": "a74764d547b3fe336f6832541a8d8ed8", "is_disabled": 0, "lon": -77.01857883333334, "fusion_lon": 0.0, "rental_uris": {"ios": "https://dc.lft.to/lastmile_qr_scan", "android": "https://dc.lft.to/lastmile_qr_scan"}, "lat": 38.91497616666667, "bike_id": "a74764d547b3fe336f6832541a8d8ed8", "is_reserved": 0}, {"fusion_lat": 0.0, "type": "electric_scooter", "name": "a9d0c6d902d467d16509b2aa60d5be58", "is_disabled": 0, "lon": -77.01450716666666, "fusion_lon": 0.0, "rental_uris": {"ios": "https://dc.lft.to/lastmile_qr_scan", "android": "https://dc.lft.to/lastmile_qr_scan"}, "lat": 38.95816766666667, "bike_id": "a9d0c6d902d467d16509b2aa60d5be58", "is_reserved": 0}, {"fusion_lat": 0.0, "type": "electric_scooter", "name": "228dd3b4fab7f0e322210bc77e745330", "is_disabled": 0, "lon": -77.03355566666667, "fusion_lon": 0.0, "rental_uris": {"ios": "https://dc.lft.to/lastmile_qr_scan", "android": "https://dc.lft.to/lastmile_qr_scan"}, "lat": 38.93583016666667, "bike_id": "228dd3b4fab7f0e322210bc77e745330", "is_reserved": 0}, {"fusion_lat": 0.0, "type": "electric_scooter", "name": "7cda288de83a9958b9adb742e6a8227d", "is_disabled": 0, "lon": -77.01948116666667, "fusion_lon": 0.0, "rental_uris": {"ios": "https://dc.lft.to/lastmile_qr_scan", "android": "https://dc.lft.to/lastmile_qr_scan"}, "lat": 38.923355, "bike_id": "7cda288de83a9958b9adb742e6a8227d", "is_reserved": 0}, {"fusion_lat": 0.0, "type": "electric_scooter", "name": "d10a1b81b0370467b13dda96d72c47f6", "is_disabled": 0, "lon": -77.0257295, "fusion_lon": 0.0, "rental_uris": {"ios": "https://dc.lft.to/lastmile_qr_scan", "android": "https://dc.lft.to/lastmile_qr_scan"}, "lat": 38.94852, "bike_id": "d10a1b81b0370467b13dda96d72c47f6", "is_reserved": 0}, {"fusion_lat": 0.0, "type": "electric_scooter", "name": "79e52e0da01bb034b142e306a344629d", "is_disabled": 0, "lon": -77.0355255, "fusion_lon": 0.0, "rental_uris": {"ios": "https://dc.lft.to/lastmile_qr_scan", "android": "https://dc.lft.to/lastmile_qr_scan"}, "lat": 38.9182345, "bike_id": "79e52e0da01bb034b142e306a344629d", "is_reserved": 0}, {"fusion_lat": 0.0, "type": "electric_scooter", "name": "66a6420beac786a03b6555da21f3dfa0", "is_disabled": 0, "lon": -77.024366, "fusion_lon": 0.0, "rental_uris": {"ios": "https://dc.lft.to/lastmile_qr_scan", "android": "https://dc.lft.to/lastmile_qr_scan"}, "lat": 38.920916166666665, "bike_id": "66a6420beac786a03b6555da21f3dfa0", "is_reserved": 0}, {"fusion_lat": 0.0, "type": "electric_scooter", "name": "2f0a7909fadff0cde44626d0d00d30c1", "is_disabled": 0, "lon": -77.006538, "fusion_lon": 0.0, "rental_uris": {"ios": "https://dc.lft.to/lastmile_qr_scan", "android": "https://dc.lft.to/lastmile_qr_scan"}, "lat": 38.909782166666666, "bike_id": "2f0a7909fadff0cde44626d0d00d30c1", "is_reserved": 0}, {"fusion_lat": 0.0, "type": "electric_scooter", "name": "a5fcc4131e789766fccffad5aeb1306a", "is_disabled": 0, "lon": -77.06527216666667, "fusion_lon": 0.0, "rental_uris": {"ios": "https://dc.lft.to/lastmile_qr_scan", "android": "https://dc.lft.to/lastmile_qr_scan"}, "lat": 38.90535333333333, "bike_id": "a5fcc4131e789766fccffad5aeb1306a", "is_reserved": 0}, {"fusion_lat": 0.0, "type": "electric_scooter", "name": "302c39f37cb05b776220a778e7e830c2", "is_disabled": 0, "lon": -77.02379633333334, "fusion_lon": 0.0, "rental_uris": {"ios": "https://dc.lft.to/lastmile_qr_scan", "android": "https://dc.lft.to/lastmile_qr_scan"}, "lat": 38.937106666666665, "bike_id": "302c39f37cb05b776220a778e7e830c2", "is_reserved": 0}, {"fusion_lat": 0.0, "type": "electric_bike", "name": "5738eb5d95b7b210c12d8884eb1b5cdb", "is_disabled": 0, "lon": -77.23180783333333, "fusion_lon": 0.0, "rental_uris": {"ios": "https://dc.lft.to/lastmile_qr_scan", "android": "https://dc.lft.to/lastmile_qr_scan"}, "lat": 38.92894966666667, "bike_id": "5738eb5d95b7b210c12d8884eb1b5cdb", "is_reserved": 0}, {"fusion_lat": 0.0, "type": "electric_bike", "name": "8a2361233f05279a98b06510cbc9c583", "is_disabled": 0, "lon": -76.979625, "fusion_lon": 0.0, "rental_uris": {"ios": "https://dc.lft.to/lastmile_qr_scan", "android": "https://dc.lft.to/lastmile_qr_scan"}, "lat": 38.9203445, "bike_id": "8a2361233f05279a98b06510cbc9c583", "is_reserved": 0}, {"fusion_lat": 0.0, "type": "electric_bike", "name": "7b6a88c6c1cf1f43eea2e8eaf7ac51f7", "is_disabled": 0, "lon": -77.03661566666666, "fusion_lon": 0.0, "rental_uris": {"ios": "https://dc.lft.to/lastmile_qr_scan", "android": "https://dc.lft.to/lastmile_qr_scan"}, "lat": 38.93621066666667, "bike_id": "7b6a88c6c1cf1f43eea2e8eaf7ac51f7", "is_reserved": 0}, {"fusion_lat": 0.0, "type": "electric_bike", "name": "44e80e12d2b9d674485197d4c82c5089", "is_disabled": 0, "lon": -77.1029175, "fusion_lon": 0.0, "rental_uris": {"ios": "https://dc.lft.to/lastmile_qr_scan", "android": "https://dc.lft.to/lastmile_qr_scan"}, "lat": 38.852546, "bike_id": "44e80e12d2b9d674485197d4c82c5089", "is_reserved": 0}, {"fusion_lat": 0.0, "type": "electric_scooter", "name": "19e94045dc233d9558982afab6cc9750", "is_disabled": 0, "lon": -77.0283435, "fusion_lon": 0.0, "rental_uris": {"ios": "https://dc.lft.to/lastmile_qr_scan", "android": "https://dc.lft.to/lastmile_qr_scan"}, "lat": 38.93169733333333, "bike_id": "19e94045dc233d9558982afab6cc9750", "is_reserved": 0}, {"fusion_lat": 0.0, "type": "electric_scooter", "name": "e8dd2b235ad36713e8e29087094c6b7d", "is_disabled": 0, "lon": -77.02321666666667, "fusion_lon": 0.0, "rental_uris": {"ios": "https://dc.lft.to/lastmile_qr_scan", "android": "https://dc.lft.to/lastmile_qr_scan"}, "lat": 38.894873833333335, "bike_id": "e8dd2b235ad36713e8e29087094c6b7d", "is_reserved": 0}, {"fusion_lat": 0.0, "type": "electric_scooter", "name": "4d694624a26b4c88da9d7b0069b19d8b", "is_disabled": 0, "lon": -77.0327015, "fusion_lon": 0.0, "rental_uris": {"ios": "https://dc.lft.to/lastmile_qr_scan", "android": "https://dc.lft.to/lastmile_qr_scan"}, "lat": 38.9289185, "bike_id": "4d694624a26b4c88da9d7b0069b19d8b", "is_reserved": 0}, {"fusion_lat": 0.0, "type": "electric_bike", "name": "69a38c66c1e694f073bb8715ffb1227a", "is_disabled": 0, "lon": -77.0200715, "fusion_lon": 0.0, "rental_uris": {"ios": "https://dc.lft.to/lastmile_qr_scan", "android": "https://dc.lft.to/lastmile_qr_scan"}, "lat": 39.026227, "bike_id": "69a38c66c1e694f073bb8715ffb1227a", "is_reserved": 0}, {"fusion_lat": 0.0, "type": "electric_scooter", "name": "03a36e1c90f200769dd4c682d215d08c", "is_disabled": 0, "lon": -77.00820616666667, "fusion_lon": 0.0, "rental_uris": {"ios": "https://dc.lft.to/lastmile_qr_scan", "android": "https://dc.lft.to/lastmile_qr_scan"}, "lat": 38.91560416666667, "bike_id": "03a36e1c90f200769dd4c682d215d08c", "is_reserved": 0}, {"fusion_lat": 0.0, "type": "electric_scooter", "name": "b24227e3a5a17b3c91697bbdb8e05b48", "is_disabled": 0, "lon": -77.0269025, "fusion_lon": 0.0, "rental_uris": {"ios": "https://dc.lft.to/lastmile_qr_scan", "android": "https://dc.lft.to/lastmile_qr_scan"}, "lat": 38.930892, "bike_id": "b24227e3a5a17b3c91697bbdb8e05b48", "is_reserved": 0}, {"fusion_lat": 0.0, "type": "electric_bike", "name": "427790a23785d700609d6b3bb0b9d380", "is_disabled": 0, "lon": -77.1128605, "fusion_lon": 0.0, "rental_uris": {"ios": "https://dc.lft.to/lastmile_qr_scan", "android": "https://dc.lft.to/lastmile_qr_scan"}, "lat": 38.83102, "bike_id": "427790a23785d700609d6b3bb0b9d380", "is_reserved": 0}, {"fusion_lat": 0.0, "type": "electric_scooter", "name": "afea4ea8b4da5c58d535ea2c8503db29", "is_disabled": 0, "lon": -77.01822266666667, "fusion_lon": 0.0, "rental_uris": {"ios": "https://dc.lft.to/lastmile_qr_scan", "android": "https://dc.lft.to/lastmile_qr_scan"}, "lat": 38.92154, "bike_id": "afea4ea8b4da5c58d535ea2c8503db29", "is_reserved": 0}, {"fusion_lat": 0.0, "type": "electric_bike", "name": "6f52dc4ba3b83800b1e9bbc73a0ab810", "is_disabled": 0, "lon": -76.9955565, "fusion_lon": 0.0, "rental_uris": {"ios": "https://dc.lft.to/lastmile_qr_scan", "android": "https://dc.lft.to/lastmile_qr_scan"}, "lat": 38.862042, "bike_id": "6f52dc4ba3b83800b1e9bbc73a0ab810", "is_reserved": 0}, {"fusion_lat": 0.0, "type": "electric_scooter", "name": "066191809669f82e0ab1b9252f359a27", "is_disabled": 0, "lon": -77.03427383333333, "fusion_lon": 0.0, "rental_uris": {"ios": "https://dc.lft.to/lastmile_qr_scan", "android": "https://dc.lft.to/lastmile_qr_scan"}, "lat": 38.9140605, "bike_id": "066191809669f82e0ab1b9252f359a27", "is_reserved": 0}, {"fusion_lat": 0.0, "type": "electric_scooter", "name": "51712e54984b5e369e806a9266a82edf", "is_disabled": 0, "lon": -77.03804583333333, "fusion_lon": 0.0, "rental_uris": {"ios": "https://dc.lft.to/lastmile_qr_scan", "android": "https://dc.lft.to/lastmile_qr_scan"}, "lat": 38.930695666666665, "bike_id": "51712e54984b5e369e806a9266a82edf", "is_reserved": 0}, {"fusion_lat": 0.0, "type": "electric_scooter", "name": "b6051ab735a499155d1b74b2256a7267", "is_disabled": 0, "lon": -77.02380583333333, "fusion_lon": 0.0, "rental_uris": {"ios": "https://dc.lft.to/lastmile_qr_scan", "android": "https://dc.lft.to/lastmile_qr_scan"}, "lat": 38.952738833333335, "bike_id": "b6051ab735a499155d1b74b2256a7267", "is_reserved": 0}, {"fusion_lat": 0.0, "type": "electric_scooter", "name": "0ab99997ed0e602fba9e22fab73aa02f", "is_disabled": 0, "lon": -77.04161516666667, "fusion_lon": 0.0, "rental_uris": {"ios": "https://dc.lft.to/lastmile_qr_scan", "android": "https://dc.lft.to/lastmile_qr_scan"}, "lat": 38.909436166666666, "bike_id": "0ab99997ed0e602fba9e22fab73aa02f", "is_reserved": 0}, {"fusion_lat": 0.0, "type": "electric_scooter", "name": "3638c44829bfa97525e6fdc01378b273", "is_disabled": 0, "lon": -77.0344205, "fusion_lon": 0.0, "rental_uris": {"ios": "https://dc.lft.to/lastmile_qr_scan", "android": "https://dc.lft.to/lastmile_qr_scan"}, "lat": 38.90269583333333, "bike_id": "3638c44829bfa97525e6fdc01378b273", "is_reserved": 0}, {"fusion_lat": 0.0, "type": "electric_scooter", "name": "11970ca2f09183557c47c2cba050733b", "is_disabled": 0, "lon": -77.04066066666667, "fusion_lon": 0.0, "rental_uris": {"ios": "https://dc.lft.to/lastmile_qr_scan", "android": "https://dc.lft.to/lastmile_qr_scan"}, "lat": 38.90393366666667, "bike_id": "11970ca2f09183557c47c2cba050733b", "is_reserved": 0}, {"fusion_lat": 0.0, "type": "electric_scooter", "name": "161c9704de58b97f40c362944b018417", "is_disabled": 0, "lon": -77.048757, "fusion_lon": 0.0, "rental_uris": {"ios": "https://dc.lft.to/lastmile_qr_scan", "android": "https://dc.lft.to/lastmile_qr_scan"}, "lat": 38.906505833333334, "bike_id": "161c9704de58b97f40c362944b018417", "is_reserved": 0}, {"fusion_lat": 0.0, "type": "electric_scooter", "name": "e9fc614011a027eea0662141557a5ca7", "is_disabled": 0, "lon": -77.03187116666666, "fusion_lon": 0.0, "rental_uris": {"ios": "https://dc.lft.to/lastmile_qr_scan", "android": "https://dc.lft.to/lastmile_qr_scan"}, "lat": 38.919238, "bike_id": "e9fc614011a027eea0662141557a5ca7", "is_reserved": 0}, {"fusion_lat": 0.0, "type": "electric_scooter", "name": "33f0f3ed3be3b79f489b356b7c85ee5b", "is_disabled": 0, "lon": -77.0034215, "fusion_lon": 0.0, "rental_uris": {"ios": "https://dc.lft.to/lastmile_qr_scan", "android": "https://dc.lft.to/lastmile_qr_scan"}, "lat": 38.90262833333333, "bike_id": "33f0f3ed3be3b79f489b356b7c85ee5b", "is_reserved": 0}, {"fusion_lat": 0.0, "type": "electric_scooter", "name": "2c1c8a6690f12e9aaea71e4c47aa6132", "is_disabled": 0, "lon": -77.0325265, "fusion_lon": 0.0, "rental_uris": {"ios": "https://dc.lft.to/lastmile_qr_scan", "android": "https://dc.lft.to/lastmile_qr_scan"}, "lat": 38.93734516666667, "bike_id": "2c1c8a6690f12e9aaea71e4c47aa6132", "is_reserved": 0}, {"fusion_lat": 0.0, "type": "electric_scooter", "name": "206688348a605e5b31133c1bc78101a1", "is_disabled": 0, "lon": -77.02694766666667, "fusion_lon": 0.0, "rental_uris": {"ios": "https://dc.lft.to/lastmile_qr_scan", "android": "https://dc.lft.to/lastmile_qr_scan"}, "lat": 38.90238983333333, "bike_id": "206688348a605e5b31133c1bc78101a1", "is_reserved": 0}, {"fusion_lat": 0.0, "type": "electric_scooter", "name": "3f2ba92440fa14cb16cdcfee06c29807", "is_disabled": 0, "lon": -76.94086383333334, "fusion_lon": 0.0, "rental_uris": {"ios": "https://dc.lft.to/lastmile_qr_scan", "android": "https://dc.lft.to/lastmile_qr_scan"}, "lat": 38.89124833333333, "bike_id": "3f2ba92440fa14cb16cdcfee06c29807", "is_reserved": 0}, {"fusion_lat": 0.0, "type": "electric_scooter", "name": "263d9763175d5df4ce4c455ab8b45a30", "is_disabled": 0, "lon": -77.05326466666666, "fusion_lon": 0.0, "rental_uris": {"ios": "https://dc.lft.to/lastmile_qr_scan", "android": "https://dc.lft.to/lastmile_qr_scan"}, "lat": 38.905016, "bike_id": "263d9763175d5df4ce4c455ab8b45a30", "is_reserved": 0}, {"fusion_lat": 0.0, "type": "electric_scooter", "name": "87ddd6ce8bc28256d38a1f1d3da76f6e", "is_disabled": 0, "lon": -77.02180583333333, "fusion_lon": 0.0, "rental_uris": {"ios": "https://dc.lft.to/lastmile_qr_scan", "android": "https://dc.lft.to/lastmile_qr_scan"}, "lat": 38.90950266666667, "bike_id": "87ddd6ce8bc28256d38a1f1d3da76f6e", "is_reserved": 0}, {"fusion_lat": 0.0, "type": "electric_scooter", "name": "a86d11a84c25e2a10a9a5d0cd2e95e5a", "is_disabled": 0, "lon": -77.04009916666666, "fusion_lon": 0.0, "rental_uris": {"ios": "https://dc.lft.to/lastmile_qr_scan", "android": "https://dc.lft.to/lastmile_qr_scan"}, "lat": 38.907296, "bike_id": "a86d11a84c25e2a10a9a5d0cd2e95e5a", "is_reserved": 0}, {"fusion_lat": 0.0, "type": "electric_scooter", "name": "6d507806586f57d328a59322ed896abd", "is_disabled": 0, "lon": -77.0338485, "fusion_lon": 0.0, "rental_uris": {"ios": "https://dc.lft.to/lastmile_qr_scan", "android": "https://dc.lft.to/lastmile_qr_scan"}, "lat": 38.90139283333333, "bike_id": "6d507806586f57d328a59322ed896abd", "is_reserved": 0}, {"fusion_lat": 0.0, "type": "electric_bike", "name": "2133d7ca249cbd62a6c93d269f84d290", "is_disabled": 0, "lon": -77.07887166666667, "fusion_lon": 0.0, "rental_uris": {"ios": "https://dc.lft.to/lastmile_qr_scan", "android": "https://dc.lft.to/lastmile_qr_scan"}, "lat": 38.950274, "bike_id": "2133d7ca249cbd62a6c93d269f84d290", "is_reserved": 0}, {"fusion_lat": 0.0, "type": "electric_scooter", "name": "c9f86d2a287619d6bc284bc807688407", "is_disabled": 0, "lon": -77.0344265, "fusion_lon": 0.0, "rental_uris": {"ios": "https://dc.lft.to/lastmile_qr_scan", "android": "https://dc.lft.to/lastmile_qr_scan"}, "lat": 38.918018000000004, "bike_id": "c9f86d2a287619d6bc284bc807688407", "is_reserved": 0}, {"fusion_lat": 0.0, "type": "electric_scooter", "name": "569733031818f1db4e77bdc240b1370e", "is_disabled": 0, "lon": -77.01530416666667, "fusion_lon": 0.0, "rental_uris": {"ios": "https://dc.lft.to/lastmile_qr_scan", "android": "https://dc.lft.to/lastmile_qr_scan"}, "lat": 38.909437, "bike_id": "569733031818f1db4e77bdc240b1370e", "is_reserved": 0}, {"fusion_lat": 0.0, "type": "electric_scooter", "name": "de466964b2381409b587ac70948edc8f", "is_disabled": 0, "lon": -77.03443566666667, "fusion_lon": 0.0, "rental_uris": {"ios": "https://dc.lft.to/lastmile_qr_scan", "android": "https://dc.lft.to/lastmile_qr_scan"}, "lat": 38.910083166666666, "bike_id": "de466964b2381409b587ac70948edc8f", "is_reserved": 0}, {"fusion_lat": 0.0, "type": "electric_scooter", "name": "9a29a67ecfc361de05261bd573bf7507", "is_disabled": 0, "lon": -77.024983, "fusion_lon": 0.0, "rental_uris": {"ios": "https://dc.lft.to/lastmile_qr_scan", "android": "https://dc.lft.to/lastmile_qr_scan"}, "lat": 38.919193166666666, "bike_id": "9a29a67ecfc361de05261bd573bf7507", "is_reserved": 0}, {"fusion_lat": 0.0, "type": "electric_scooter", "name": "cbed33c617520760c132383e80a3f0df", "is_disabled": 0, "lon": -77.02866966666667, "fusion_lon": 0.0, "rental_uris": {"ios": "https://dc.lft.to/lastmile_qr_scan", "android": "https://dc.lft.to/lastmile_qr_scan"}, "lat": 38.91710333333333, "bike_id": "cbed33c617520760c132383e80a3f0df", "is_reserved": 0}, {"fusion_lat": 0.0, "type": "electric_scooter", "name": "90327c5090e676709fde7b2a349b6243", "is_disabled": 0, "lon": -77.03197433333334, "fusion_lon": 0.0, "rental_uris": {"ios": "https://dc.lft.to/lastmile_qr_scan", "android": "https://dc.lft.to/lastmile_qr_scan"}, "lat": 38.909846333333334, "bike_id": "90327c5090e676709fde7b2a349b6243", "is_reserved": 0}, {"fusion_lat": 0.0, "type": "electric_scooter", "name": "8fc9bb40e43121197458ad2a56eb3374", "is_disabled": 0, "lon": -77.0189575, "fusion_lon": 0.0, "rental_uris": {"ios": "https://dc.lft.to/lastmile_qr_scan", "android": "https://dc.lft.to/lastmile_qr_scan"}, "lat": 38.903569166666664, "bike_id": "8fc9bb40e43121197458ad2a56eb3374", "is_reserved": 0}, {"fusion_lat": 0.0, "type": "electric_bike", "name": "8265936f2f2bee60b910d7ec15828f31", "is_disabled": 0, "lon": -76.9868795, "fusion_lon": 0.0, "rental_uris": {"ios": "https://dc.lft.to/lastmile_qr_scan", "android": "https://dc.lft.to/lastmile_qr_scan"}, "lat": 38.944749, "bike_id": "8265936f2f2bee60b910d7ec15828f31", "is_reserved": 0}, {"fusion_lat": 0.0, "type": "electric_scooter", "name": "80a3f6ea6ad5372e8ed7ab900af270d6", "is_disabled": 0, "lon": -77.04700966666667, "fusion_lon": 0.0, "rental_uris": {"ios": "https://dc.lft.to/lastmile_qr_scan", "android": "https://dc.lft.to/lastmile_qr_scan"}, "lat": 38.89610233333333, "bike_id": "80a3f6ea6ad5372e8ed7ab900af270d6", "is_reserved": 0}, {"fusion_lat": 0.0, "type": "electric_scooter", "name": "00e6d00c6750e1fc509fc0cde2d399d6", "is_disabled": 0, "lon": -77.05018033333333, "fusion_lon": 0.0, "rental_uris": {"ios": "https://dc.lft.to/lastmile_qr_scan", "android": "https://dc.lft.to/lastmile_qr_scan"}, "lat": 38.90069066666667, "bike_id": "00e6d00c6750e1fc509fc0cde2d399d6", "is_reserved": 0}, {"fusion_lat": 0.0, "type": "electric_scooter", "name": "2d1f1e1319a42297ef1bf99977e577ec", "is_disabled": 0, "lon": -77.0325345, "fusion_lon": 0.0, "rental_uris": {"ios": "https://dc.lft.to/lastmile_qr_scan", "android": "https://dc.lft.to/lastmile_qr_scan"}, "lat": 38.918158166666664, "bike_id": "2d1f1e1319a42297ef1bf99977e577ec", "is_reserved": 0}, {"fusion_lat": 0.0, "type": "electric_scooter", "name": "77e29117e13dcffaa5b13eed6343373a", "is_disabled": 0, "lon": -77.01296766666667, "fusion_lon": 0.0, "rental_uris": {"ios": "https://dc.lft.to/lastmile_qr_scan", "android": "https://dc.lft.to/lastmile_qr_scan"}, "lat": 38.87773416666667, "bike_id": "77e29117e13dcffaa5b13eed6343373a", "is_reserved": 0}, {"fusion_lat": 0.0, "type": "electric_scooter", "name": "be9d5c21185c9e17dfd03eb42668c2a3", "is_disabled": 0, "lon": -77.01887883333333, "fusion_lon": 0.0, "rental_uris": {"ios": "https://dc.lft.to/lastmile_qr_scan", "android": "https://dc.lft.to/lastmile_qr_scan"}, "lat": 38.89749116666667, "bike_id": "be9d5c21185c9e17dfd03eb42668c2a3", "is_reserved": 0}, {"fusion_lat": 0.0, "type": "electric_scooter", "name": "8360a525f9bc534de1515651fec620f7", "is_disabled": 0, "lon": -77.00300766666666, "fusion_lon": 0.0, "rental_uris": {"ios": "https://dc.lft.to/lastmile_qr_scan", "android": "https://dc.lft.to/lastmile_qr_scan"}, "lat": 38.877195, "bike_id": "8360a525f9bc534de1515651fec620f7", "is_reserved": 0}, {"fusion_lat": 0.0, "type": "electric_scooter", "name": "94b810ac1be44b42f7e4465465bdc94a", "is_disabled": 0, "lon": -77.01774733333333, "fusion_lon": 0.0, "rental_uris": {"ios": "https://dc.lft.to/lastmile_qr_scan", "android": "https://dc.lft.to/lastmile_qr_scan"}, "lat": 38.900424, "bike_id": "94b810ac1be44b42f7e4465465bdc94a", "is_reserved": 0}, {"fusion_lat": 0.0, "type": "electric_bike", "name": "e39d0b7f7b34656a1814ae020da29a26", "is_disabled": 0, "lon": -77.040836, "fusion_lon": 0.0, "rental_uris": {"ios": "https://dc.lft.to/lastmile_qr_scan", "android": "https://dc.lft.to/lastmile_qr_scan"}, "lat": 38.83067233333333, "bike_id": "e39d0b7f7b34656a1814ae020da29a26", "is_reserved": 0}, {"fusion_lat": 0.0, "type": "electric_scooter", "name": "f99193994c69dae19fea3fd330bb290b", "is_disabled": 0, "lon": -77.02082416666667, "fusion_lon": 0.0, "rental_uris": {"ios": "https://dc.lft.to/lastmile_qr_scan", "android": "https://dc.lft.to/lastmile_qr_scan"}, "lat": 38.927054, "bike_id": "f99193994c69dae19fea3fd330bb290b", "is_reserved": 0}, {"fusion_lat": 0.0, "type": "electric_scooter", "name": "4d9ff6562195e223a10a0123d151577e", "is_disabled": 0, "lon": -77.05807366666667, "fusion_lon": 0.0, "rental_uris": {"ios": "https://dc.lft.to/lastmile_qr_scan", "android": "https://dc.lft.to/lastmile_qr_scan"}, "lat": 38.929041833333336, "bike_id": "4d9ff6562195e223a10a0123d151577e", "is_reserved": 0}, {"fusion_lat": 0.0, "type": "electric_scooter", "name": "3cc00e258d7ede25d9f7f538f3cee096", "is_disabled": 0, "lon": -77.033257, "fusion_lon": 0.0, "rental_uris": {"ios": "https://dc.lft.to/lastmile_qr_scan", "android": "https://dc.lft.to/lastmile_qr_scan"}, "lat": 38.8988655, "bike_id": "3cc00e258d7ede25d9f7f538f3cee096", "is_reserved": 0}, {"fusion_lat": 0.0, "type": "electric_scooter", "name": "a46869a5fe7dac9c7e16a3cc205b65cc", "is_disabled": 0, "lon": -77.01916583333333, "fusion_lon": 0.0, "rental_uris": {"ios": "https://dc.lft.to/lastmile_qr_scan", "android": "https://dc.lft.to/lastmile_qr_scan"}, "lat": 38.923687666666666, "bike_id": "a46869a5fe7dac9c7e16a3cc205b65cc", "is_reserved": 0}, {"fusion_lat": 0.0, "type": "electric_scooter", "name": "4beaf628394a2902bcb9fdd3a5e1ee9f", "is_disabled": 0, "lon": -77.0717, "fusion_lon": 0.0, "rental_uris": {"ios": "https://dc.lft.to/lastmile_qr_scan", "android": "https://dc.lft.to/lastmile_qr_scan"}, "lat": 38.90774033333334, "bike_id": "4beaf628394a2902bcb9fdd3a5e1ee9f", "is_reserved": 0}, {"fusion_lat": 0.0, "type": "electric_scooter", "name": "ea28405ea6f6e72a11d368324abac59a", "is_disabled": 0, "lon": -77.03265816666666, "fusion_lon": 0.0, "rental_uris": {"ios": "https://dc.lft.to/lastmile_qr_scan", "android": "https://dc.lft.to/lastmile_qr_scan"}, "lat": 38.929092833333335, "bike_id": "ea28405ea6f6e72a11d368324abac59a", "is_reserved": 0}, {"fusion_lat": 0.0, "type": "electric_scooter", "name": "00272e0d39139f93e7fc18613d53eda3", "is_disabled": 0, "lon": -77.0344515, "fusion_lon": 0.0, "rental_uris": {"ios": "https://dc.lft.to/lastmile_qr_scan", "android": "https://dc.lft.to/lastmile_qr_scan"}, "lat": 38.902890666666664, "bike_id": "00272e0d39139f93e7fc18613d53eda3", "is_reserved": 0}, {"fusion_lat": 0.0, "type": "electric_scooter", "name": "61dee4677b603107ec08040b7f034550", "is_disabled": 0, "lon": -76.9973285, "fusion_lon": 0.0, "rental_uris": {"ios": "https://dc.lft.to/lastmile_qr_scan", "android": "https://dc.lft.to/lastmile_qr_scan"}, "lat": 38.84542616666667, "bike_id": "61dee4677b603107ec08040b7f034550", "is_reserved": 0}, {"fusion_lat": 0.0, "type": "electric_scooter", "name": "2f1b7118fd9d8318d8ee88bd17f5bfeb", "is_disabled": 0, "lon": -77.0118955, "fusion_lon": 0.0, "rental_uris": {"ios": "https://dc.lft.to/lastmile_qr_scan", "android": "https://dc.lft.to/lastmile_qr_scan"}, "lat": 38.9001025, "bike_id": "2f1b7118fd9d8318d8ee88bd17f5bfeb", "is_reserved": 0}, {"fusion_lat": 0.0, "type": "electric_bike", "name": "5e494712cb3fab4c7146736b11d60e5f", "is_disabled": 0, "lon": -76.9791975, "fusion_lon": 0.0, "rental_uris": {"ios": "https://dc.lft.to/lastmile_qr_scan", "android": "https://dc.lft.to/lastmile_qr_scan"}, "lat": 38.9585585, "bike_id": "5e494712cb3fab4c7146736b11d60e5f", "is_reserved": 0}, {"fusion_lat": 0.0, "type": "electric_bike", "name": "8ac1c14b5b0e59988d30a532b906a0aa", "is_disabled": 0, "lon": -77.12741, "fusion_lon": 0.0, "rental_uris": {"ios": "https://dc.lft.to/lastmile_qr_scan", "android": "https://dc.lft.to/lastmile_qr_scan"}, "lat": 38.8957075, "bike_id": "8ac1c14b5b0e59988d30a532b906a0aa", "is_reserved": 0}, {"fusion_lat": 0.0, "type": "electric_scooter", "name": "ecef297f037871b5ba7a39120b48432e", "is_disabled": 0, "lon": -76.9457685, "fusion_lon": 0.0, "rental_uris": {"ios": "https://dc.lft.to/lastmile_qr_scan", "android": "https://dc.lft.to/lastmile_qr_scan"}, "lat": 38.899249, "bike_id": "ecef297f037871b5ba7a39120b48432e", "is_reserved": 0}, {"fusion_lat": 0.0, "type": "electric_scooter", "name": "5a04697583eceef0fa6e42cc4fd43dfb", "is_disabled": 0, "lon": -77.0238485, "fusion_lon": 0.0, "rental_uris": {"ios": "https://dc.lft.to/lastmile_qr_scan", "android": "https://dc.lft.to/lastmile_qr_scan"}, "lat": 38.90675266666667, "bike_id": "5a04697583eceef0fa6e42cc4fd43dfb", "is_reserved": 0}, {"fusion_lat": 0.0, "type": "electric_scooter", "name": "ff654f7cf01f9b405f88383fb355f5f8", "is_disabled": 0, "lon": -77.02384266666667, "fusion_lon": 0.0, "rental_uris": {"ios": "https://dc.lft.to/lastmile_qr_scan", "android": "https://dc.lft.to/lastmile_qr_scan"}, "lat": 38.8919855, "bike_id": "ff654f7cf01f9b405f88383fb355f5f8", "is_reserved": 0}, {"fusion_lat": 0.0, "type": "electric_bike", "name": "0528de44d4dfdb6f05578869117a20af", "is_disabled": 0, "lon": -77.038826, "fusion_lon": 0.0, "rental_uris": {"ios": "https://dc.lft.to/lastmile_qr_scan", "android": "https://dc.lft.to/lastmile_qr_scan"}, "lat": 39.02623216666667, "bike_id": "0528de44d4dfdb6f05578869117a20af", "is_reserved": 0}, {"fusion_lat": 0.0, "type": "electric_scooter", "name": "7ad976b0ddd3d72007971c40d6209909", "is_disabled": 0, "lon": -77.027214, "fusion_lon": 0.0, "rental_uris": {"ios": "https://dc.lft.to/lastmile_qr_scan", "android": "https://dc.lft.to/lastmile_qr_scan"}, "lat": 38.92222266666667, "bike_id": "7ad976b0ddd3d72007971c40d6209909", "is_reserved": 0}, {"fusion_lat": 0.0, "type": "electric_scooter", "name": "87f0f68b4577bf640aa46314ffda8c7a", "is_disabled": 0, "lon": -77.01158, "fusion_lon": 0.0, "rental_uris": {"ios": "https://dc.lft.to/lastmile_qr_scan", "android": "https://dc.lft.to/lastmile_qr_scan"}, "lat": 38.896396833333334, "bike_id": "87f0f68b4577bf640aa46314ffda8c7a", "is_reserved": 0}, {"fusion_lat": 0.0, "type": "electric_scooter", "name": "194a35c2900e4ed47b0cc7986e586a5d", "is_disabled": 0, "lon": -77.04365016666667, "fusion_lon": 0.0, "rental_uris": {"ios": "https://dc.lft.to/lastmile_qr_scan", "android": "https://dc.lft.to/lastmile_qr_scan"}, "lat": 38.9224325, "bike_id": "194a35c2900e4ed47b0cc7986e586a5d", "is_reserved": 0}, {"fusion_lat": 0.0, "type": "electric_bike", "name": "28208131bdfa2bf94352b0a015f56750", "is_disabled": 0, "lon": -77.23394616666667, "fusion_lon": 0.0, "rental_uris": {"ios": "https://dc.lft.to/lastmile_qr_scan", "android": "https://dc.lft.to/lastmile_qr_scan"}, "lat": 38.871756, "bike_id": "28208131bdfa2bf94352b0a015f56750", "is_reserved": 0}, {"fusion_lat": 0.0, "type": "electric_scooter", "name": "a40c960befca08758b894d0ebf2468b3", "is_disabled": 0, "lon": -77.03202666666667, "fusion_lon": 0.0, "rental_uris": {"ios": "https://dc.lft.to/lastmile_qr_scan", "android": "https://dc.lft.to/lastmile_qr_scan"}, "lat": 38.91031616666667, "bike_id": "a40c960befca08758b894d0ebf2468b3", "is_reserved": 0}, {"fusion_lat": 0.0, "type": "electric_scooter", "name": "0baef9a7e8488d3962309b650fcab6c1", "is_disabled": 0, "lon": -77.01523333333333, "fusion_lon": 0.0, "rental_uris": {"ios": "https://dc.lft.to/lastmile_qr_scan", "android": "https://dc.lft.to/lastmile_qr_scan"}, "lat": 38.872674333333336, "bike_id": "0baef9a7e8488d3962309b650fcab6c1", "is_reserved": 0}, {"fusion_lat": 0.0, "type": "electric_bike", "name": "a88f2dec81ce422301b826bdd9e87df5", "is_disabled": 0, "lon": -77.09683, "fusion_lon": 0.0, "rental_uris": {"ios": "https://dc.lft.to/lastmile_qr_scan", "android": "https://dc.lft.to/lastmile_qr_scan"}, "lat": 38.807441833333336, "bike_id": "a88f2dec81ce422301b826bdd9e87df5", "is_reserved": 0}, {"fusion_lat": 0.0, "type": "electric_scooter", "name": "d0d99aebe9b13c164cb1e6c12706be4b", "is_disabled": 0, "lon": -77.01955066666666, "fusion_lon": 0.0, "rental_uris": {"ios": "https://dc.lft.to/lastmile_qr_scan", "android": "https://dc.lft.to/lastmile_qr_scan"}, "lat": 38.9243845, "bike_id": "d0d99aebe9b13c164cb1e6c12706be4b", "is_reserved": 0}, {"fusion_lat": 0.0, "type": "electric_scooter", "name": "6019f599ffc3bd937c22ea73e65d9935", "is_disabled": 0, "lon": -77.03506566666667, "fusion_lon": 0.0, "rental_uris": {"ios": "https://dc.lft.to/lastmile_qr_scan", "android": "https://dc.lft.to/lastmile_qr_scan"}, "lat": 38.91881033333333, "bike_id": "6019f599ffc3bd937c22ea73e65d9935", "is_reserved": 0}, {"fusion_lat": 0.0, "type": "electric_scooter", "name": "98913de1b0c611322d2e92338f150e40", "is_disabled": 0, "lon": -77.01314966666666, "fusion_lon": 0.0, "rental_uris": {"ios": "https://dc.lft.to/lastmile_qr_scan", "android": "https://dc.lft.to/lastmile_qr_scan"}, "lat": 38.92104583333333, "bike_id": "98913de1b0c611322d2e92338f150e40", "is_reserved": 0}, {"fusion_lat": 0.0, "type": "electric_scooter", "name": "005a6614220160934b0a2d933e290702", "is_disabled": 0, "lon": -77.02963466666667, "fusion_lon": 0.0, "rental_uris": {"ios": "https://dc.lft.to/lastmile_qr_scan", "android": "https://dc.lft.to/lastmile_qr_scan"}, "lat": 38.90725066666667, "bike_id": "005a6614220160934b0a2d933e290702", "is_reserved": 0}, {"fusion_lat": 0.0, "type": "electric_scooter", "name": "c3d7b1e6ca4e67f0dbdc725fdab9a427", "is_disabled": 0, "lon": -77.038705, "fusion_lon": 0.0, "rental_uris": {"ios": "https://dc.lft.to/lastmile_qr_scan", "android": "https://dc.lft.to/lastmile_qr_scan"}, "lat": 38.917118333333335, "bike_id": "c3d7b1e6ca4e67f0dbdc725fdab9a427", "is_reserved": 0}, {"fusion_lat": 0.0, "type": "electric_scooter", "name": "b409247fb114ee28e5c0d601526ea5a4", "is_disabled": 0, "lon": -77.04684516666667, "fusion_lon": 0.0, "rental_uris": {"ios": "https://dc.lft.to/lastmile_qr_scan", "android": "https://dc.lft.to/lastmile_qr_scan"}, "lat": 38.89222916666667, "bike_id": "b409247fb114ee28e5c0d601526ea5a4", "is_reserved": 0}, {"fusion_lat": 0.0, "type": "electric_scooter", "name": "14ac6f1a2a96dca4534e9544d67a9514", "is_disabled": 0, "lon": -77.02438533333333, "fusion_lon": 0.0, "rental_uris": {"ios": "https://dc.lft.to/lastmile_qr_scan", "android": "https://dc.lft.to/lastmile_qr_scan"}, "lat": 38.902156833333336, "bike_id": "14ac6f1a2a96dca4534e9544d67a9514", "is_reserved": 0}, {"fusion_lat": 0.0, "type": "electric_scooter", "name": "beb137a8556bbfbd204c96cb480b7968", "is_disabled": 0, "lon": -77.06173483333333, "fusion_lon": 0.0, "rental_uris": {"ios": "https://dc.lft.to/lastmile_qr_scan", "android": "https://dc.lft.to/lastmile_qr_scan"}, "lat": 38.94126033333333, "bike_id": "beb137a8556bbfbd204c96cb480b7968", "is_reserved": 0}, {"fusion_lat": 0.0, "type": "electric_scooter", "name": "351790e7253af3f85b142a47ffd7b467", "is_disabled": 0, "lon": -77.0435445, "fusion_lon": 0.0, "rental_uris": {"ios": "https://dc.lft.to/lastmile_qr_scan", "android": "https://dc.lft.to/lastmile_qr_scan"}, "lat": 38.91127066666667, "bike_id": "351790e7253af3f85b142a47ffd7b467", "is_reserved": 0}, {"fusion_lat": 0.0, "type": "electric_scooter", "name": "ecf34720c5961077ff7d1804db28a231", "is_disabled": 0, "lon": -76.98859466666667, "fusion_lon": 0.0, "rental_uris": {"ios": "https://dc.lft.to/lastmile_qr_scan", "android": "https://dc.lft.to/lastmile_qr_scan"}, "lat": 38.900293833333336, "bike_id": "ecf34720c5961077ff7d1804db28a231", "is_reserved": 0}, {"fusion_lat": 0.0, "type": "electric_scooter", "name": "ffcd7e2997528f18918a125a679894dd", "is_disabled": 0, "lon": -77.043834, "fusion_lon": 0.0, "rental_uris": {"ios": "https://dc.lft.to/lastmile_qr_scan", "android": "https://dc.lft.to/lastmile_qr_scan"}, "lat": 38.92060583333333, "bike_id": "ffcd7e2997528f18918a125a679894dd", "is_reserved": 0}, {"fusion_lat": 0.0, "type": "electric_scooter", "name": "b2139ab92019148fb9fc6060ee5c5d5b", "is_disabled": 0, "lon": -77.0319155, "fusion_lon": 0.0, "rental_uris": {"ios": "https://dc.lft.to/lastmile_qr_scan", "android": "https://dc.lft.to/lastmile_qr_scan"}, "lat": 38.918158, "bike_id": "b2139ab92019148fb9fc6060ee5c5d5b", "is_reserved": 0}, {"fusion_lat": 0.0, "type": "electric_scooter", "name": "9963bd4aa2c4b1e852842077e62ab6f3", "is_disabled": 0, "lon": -77.02007666666667, "fusion_lon": 0.0, "rental_uris": {"ios": "https://dc.lft.to/lastmile_qr_scan", "android": "https://dc.lft.to/lastmile_qr_scan"}, "lat": 38.907361333333334, "bike_id": "9963bd4aa2c4b1e852842077e62ab6f3", "is_reserved": 0}, {"fusion_lat": 0.0, "type": "electric_scooter", "name": "7209923e3e36e24c9169246c05a067b2", "is_disabled": 0, "lon": -77.0080055, "fusion_lon": 0.0, "rental_uris": {"ios": "https://dc.lft.to/lastmile_qr_scan", "android": "https://dc.lft.to/lastmile_qr_scan"}, "lat": 38.926682666666665, "bike_id": "7209923e3e36e24c9169246c05a067b2", "is_reserved": 0}, {"fusion_lat": 0.0, "type": "electric_scooter", "name": "92c61c237f63945b15afcf3d3da29522", "is_disabled": 0, "lon": -77.024075, "fusion_lon": 0.0, "rental_uris": {"ios": "https://dc.lft.to/lastmile_qr_scan", "android": "https://dc.lft.to/lastmile_qr_scan"}, "lat": 38.91099916666667, "bike_id": "92c61c237f63945b15afcf3d3da29522", "is_reserved": 0}, {"fusion_lat": 0.0, "type": "electric_scooter", "name": "40973d962483f4e9b7d11216c9f99395", "is_disabled": 0, "lon": -77.043583, "fusion_lon": 0.0, "rental_uris": {"ios": "https://dc.lft.to/lastmile_qr_scan", "android": "https://dc.lft.to/lastmile_qr_scan"}, "lat": 38.8964095, "bike_id": "40973d962483f4e9b7d11216c9f99395", "is_reserved": 0}, {"fusion_lat": 0.0, "type": "electric_scooter", "name": "4cb2cabede9b8a7101882024e2520865", "is_disabled": 0, "lon": -77.019679, "fusion_lon": 0.0, "rental_uris": {"ios": "https://dc.lft.to/lastmile_qr_scan", "android": "https://dc.lft.to/lastmile_qr_scan"}, "lat": 38.9232715, "bike_id": "4cb2cabede9b8a7101882024e2520865", "is_reserved": 0}, {"fusion_lat": 0.0, "type": "electric_scooter", "name": "ade92b5c65dc3065759db0123c8e38b6", "is_disabled": 0, "lon": -77.03257183333334, "fusion_lon": 0.0, "rental_uris": {"ios": "https://dc.lft.to/lastmile_qr_scan", "android": "https://dc.lft.to/lastmile_qr_scan"}, "lat": 38.93975416666667, "bike_id": "ade92b5c65dc3065759db0123c8e38b6", "is_reserved": 0}, {"fusion_lat": 0.0, "type": "electric_scooter", "name": "6d9c882be169b932f61d5ee5420a4109", "is_disabled": 0, "lon": -77.0362965, "fusion_lon": 0.0, "rental_uris": {"ios": "https://dc.lft.to/lastmile_qr_scan", "android": "https://dc.lft.to/lastmile_qr_scan"}, "lat": 38.93683466666667, "bike_id": "6d9c882be169b932f61d5ee5420a4109", "is_reserved": 0}, {"fusion_lat": 0.0, "type": "electric_scooter", "name": "9a56b89ce6af041b1e6b25bf1945aae3", "is_disabled": 0, "lon": -76.98863033333333, "fusion_lon": 0.0, "rental_uris": {"ios": "https://dc.lft.to/lastmile_qr_scan", "android": "https://dc.lft.to/lastmile_qr_scan"}, "lat": 38.906982166666666, "bike_id": "9a56b89ce6af041b1e6b25bf1945aae3", "is_reserved": 0}, {"fusion_lat": 0.0, "type": "electric_scooter", "name": "10bf4cfe3998b62057847a20c7cafc5a", "is_disabled": 0, "lon": -77.0214035, "fusion_lon": 0.0, "rental_uris": {"ios": "https://dc.lft.to/lastmile_qr_scan", "android": "https://dc.lft.to/lastmile_qr_scan"}, "lat": 38.92805233333333, "bike_id": "10bf4cfe3998b62057847a20c7cafc5a", "is_reserved": 0}, {"fusion_lat": 0.0, "type": "electric_scooter", "name": "ee1d31e8febd0e655849bd2083aad6f7", "is_disabled": 0, "lon": -76.983625, "fusion_lon": 0.0, "rental_uris": {"ios": "https://dc.lft.to/lastmile_qr_scan", "android": "https://dc.lft.to/lastmile_qr_scan"}, "lat": 38.92200283333333, "bike_id": "ee1d31e8febd0e655849bd2083aad6f7", "is_reserved": 0}, {"fusion_lat": 0.0, "type": "electric_scooter", "name": "4ccdac0f040199a843cc731c722b800b", "is_disabled": 0, "lon": -77.0260195, "fusion_lon": 0.0, "rental_uris": {"ios": "https://dc.lft.to/lastmile_qr_scan", "android": "https://dc.lft.to/lastmile_qr_scan"}, "lat": 38.92042433333334, "bike_id": "4ccdac0f040199a843cc731c722b800b", "is_reserved": 0}, {"fusion_lat": 0.0, "type": "electric_scooter", "name": "da53167a95c8a72809432bd472e10027", "is_disabled": 0, "lon": -77.00566533333334, "fusion_lon": 0.0, "rental_uris": {"ios": "https://dc.lft.to/lastmile_qr_scan", "android": "https://dc.lft.to/lastmile_qr_scan"}, "lat": 38.885068, "bike_id": "da53167a95c8a72809432bd472e10027", "is_reserved": 0}, {"fusion_lat": 0.0, "type": "electric_scooter", "name": "d55c418cc63bfc3dc0dbfe51418d944b", "is_disabled": 0, "lon": -77.022004, "fusion_lon": 0.0, "rental_uris": {"ios": "https://dc.lft.to/lastmile_qr_scan", "android": "https://dc.lft.to/lastmile_qr_scan"}, "lat": 38.91126116666667, "bike_id": "d55c418cc63bfc3dc0dbfe51418d944b", "is_reserved": 0}, {"fusion_lat": 0.0, "type": "electric_scooter", "name": "77f3f99cb20a4ea81051c03a819b4028", "is_disabled": 0, "lon": -76.9236645, "fusion_lon": 0.0, "rental_uris": {"ios": "https://dc.lft.to/lastmile_qr_scan", "android": "https://dc.lft.to/lastmile_qr_scan"}, "lat": 38.892488666666665, "bike_id": "77f3f99cb20a4ea81051c03a819b4028", "is_reserved": 0}, {"fusion_lat": 0.0, "type": "electric_scooter", "name": "9d9182f28f2a11fa1c9eedceb95489d1", "is_disabled": 0, "lon": -77.02475733333333, "fusion_lon": 0.0, "rental_uris": {"ios": "https://dc.lft.to/lastmile_qr_scan", "android": "https://dc.lft.to/lastmile_qr_scan"}, "lat": 38.93095616666667, "bike_id": "9d9182f28f2a11fa1c9eedceb95489d1", "is_reserved": 0}, {"fusion_lat": 0.0, "type": "electric_scooter", "name": "dcdd91a9316775c1d7c2bb79bc68332b", "is_disabled": 0, "lon": -77.02205066666667, "fusion_lon": 0.0, "rental_uris": {"ios": "https://dc.lft.to/lastmile_qr_scan", "android": "https://dc.lft.to/lastmile_qr_scan"}, "lat": 38.916475, "bike_id": "dcdd91a9316775c1d7c2bb79bc68332b", "is_reserved": 0}, {"fusion_lat": 0.0, "type": "electric_scooter", "name": "9613877c596da4491079c76f02b20228", "is_disabled": 0, "lon": -77.03521566666667, "fusion_lon": 0.0, "rental_uris": {"ios": "https://dc.lft.to/lastmile_qr_scan", "android": "https://dc.lft.to/lastmile_qr_scan"}, "lat": 38.901394333333336, "bike_id": "9613877c596da4491079c76f02b20228", "is_reserved": 0}, {"fusion_lat": 0.0, "type": "electric_scooter", "name": "28b9a17f4c5cedb2c99639881487ef2a", "is_disabled": 0, "lon": -77.066581, "fusion_lon": 0.0, "rental_uris": {"ios": "https://dc.lft.to/lastmile_qr_scan", "android": "https://dc.lft.to/lastmile_qr_scan"}, "lat": 38.95073633333333, "bike_id": "28b9a17f4c5cedb2c99639881487ef2a", "is_reserved": 0}, {"fusion_lat": 0.0, "type": "electric_scooter", "name": "ae5c97ea56bba6e07193cc0809fc779b", "is_disabled": 0, "lon": -77.0611115, "fusion_lon": 0.0, "rental_uris": {"ios": "https://dc.lft.to/lastmile_qr_scan", "android": "https://dc.lft.to/lastmile_qr_scan"}, "lat": 38.90223783333333, "bike_id": "ae5c97ea56bba6e07193cc0809fc779b", "is_reserved": 0}, {"fusion_lat": 0.0, "type": "electric_scooter", "name": "8a16a9579b8b5218177b58f1c34b9cd4", "is_disabled": 0, "lon": -77.022033, "fusion_lon": 0.0, "rental_uris": {"ios": "https://dc.lft.to/lastmile_qr_scan", "android": "https://dc.lft.to/lastmile_qr_scan"}, "lat": 38.90162133333333, "bike_id": "8a16a9579b8b5218177b58f1c34b9cd4", "is_reserved": 0}, {"fusion_lat": 0.0, "type": "electric_bike", "name": "29a30d98db405dab0dd6446ddf376a02", "is_disabled": 0, "lon": -77.2341075, "fusion_lon": 0.0, "rental_uris": {"ios": "https://dc.lft.to/lastmile_qr_scan", "android": "https://dc.lft.to/lastmile_qr_scan"}, "lat": 38.87579133333333, "bike_id": "29a30d98db405dab0dd6446ddf376a02", "is_reserved": 0}, {"fusion_lat": 0.0, "type": "electric_scooter", "name": "5103dac4f3812e5e373653e1f7cd37fd", "is_disabled": 0, "lon": -77.00938166666667, "fusion_lon": 0.0, "rental_uris": {"ios": "https://dc.lft.to/lastmile_qr_scan", "android": "https://dc.lft.to/lastmile_qr_scan"}, "lat": 38.918085166666664, "bike_id": "5103dac4f3812e5e373653e1f7cd37fd", "is_reserved": 0}, {"fusion_lat": 0.0, "type": "electric_scooter", "name": "0fe9fd12b203af249338b3e6085d1785", "is_disabled": 0, "lon": -76.99031483333333, "fusion_lon": 0.0, "rental_uris": {"ios": "https://dc.lft.to/lastmile_qr_scan", "android": "https://dc.lft.to/lastmile_qr_scan"}, "lat": 38.88863666666666, "bike_id": "0fe9fd12b203af249338b3e6085d1785", "is_reserved": 0}, {"fusion_lat": 0.0, "type": "electric_scooter", "name": "cd36b532f50313d8f32f8b7c76798c44", "is_disabled": 0, "lon": -76.9950825, "fusion_lon": 0.0, "rental_uris": {"ios": "https://dc.lft.to/lastmile_qr_scan", "android": "https://dc.lft.to/lastmile_qr_scan"}, "lat": 38.880748, "bike_id": "cd36b532f50313d8f32f8b7c76798c44", "is_reserved": 0}, {"fusion_lat": 0.0, "type": "electric_scooter", "name": "0bcda301201f43b7bd018459d13d6beb", "is_disabled": 0, "lon": -77.0294615, "fusion_lon": 0.0, "rental_uris": {"ios": "https://dc.lft.to/lastmile_qr_scan", "android": "https://dc.lft.to/lastmile_qr_scan"}, "lat": 38.907280166666666, "bike_id": "0bcda301201f43b7bd018459d13d6beb", "is_reserved": 0}, {"fusion_lat": 0.0, "type": "electric_scooter", "name": "05073c46847d5b3bfa220d6029ce7091", "is_disabled": 0, "lon": -77.02171916666667, "fusion_lon": 0.0, "rental_uris": {"ios": "https://dc.lft.to/lastmile_qr_scan", "android": "https://dc.lft.to/lastmile_qr_scan"}, "lat": 38.92005416666667, "bike_id": "05073c46847d5b3bfa220d6029ce7091", "is_reserved": 0}, {"fusion_lat": 0.0, "type": "electric_scooter", "name": "2bc310ff08289b58796c164c70cd935c", "is_disabled": 0, "lon": -77.0227755, "fusion_lon": 0.0, "rental_uris": {"ios": "https://dc.lft.to/lastmile_qr_scan", "android": "https://dc.lft.to/lastmile_qr_scan"}, "lat": 38.91688083333333, "bike_id": "2bc310ff08289b58796c164c70cd935c", "is_reserved": 0}, {"fusion_lat": 0.0, "type": "electric_scooter", "name": "1f3eb1ee2d67c9efc74e6dcd1c0e3eed", "is_disabled": 0, "lon": -76.99144216666667, "fusion_lon": 0.0, "rental_uris": {"ios": "https://dc.lft.to/lastmile_qr_scan", "android": "https://dc.lft.to/lastmile_qr_scan"}, "lat": 38.87338183333333, "bike_id": "1f3eb1ee2d67c9efc74e6dcd1c0e3eed", "is_reserved": 0}, {"fusion_lat": 0.0, "type": "electric_scooter", "name": "45cbf25cbb59f182c4ed34e97f887e6d", "is_disabled": 0, "lon": -77.02709866666666, "fusion_lon": 0.0, "rental_uris": {"ios": "https://dc.lft.to/lastmile_qr_scan", "android": "https://dc.lft.to/lastmile_qr_scan"}, "lat": 38.916529833333335, "bike_id": "45cbf25cbb59f182c4ed34e97f887e6d", "is_reserved": 0}, {"fusion_lat": 0.0, "type": "electric_scooter", "name": "b4406ee7ae4a34682e66d5792da5905d", "is_disabled": 0, "lon": -77.031927, "fusion_lon": 0.0, "rental_uris": {"ios": "https://dc.lft.to/lastmile_qr_scan", "android": "https://dc.lft.to/lastmile_qr_scan"}, "lat": 38.93056683333333, "bike_id": "b4406ee7ae4a34682e66d5792da5905d", "is_reserved": 0}, {"fusion_lat": 0.0, "type": "electric_scooter", "name": "6bd15c59850e82a605ec22ae86e959cc", "is_disabled": 0, "lon": -77.00933533333334, "fusion_lon": 0.0, "rental_uris": {"ios": "https://dc.lft.to/lastmile_qr_scan", "android": "https://dc.lft.to/lastmile_qr_scan"}, "lat": 38.87445916666667, "bike_id": "6bd15c59850e82a605ec22ae86e959cc", "is_reserved": 0}, {"fusion_lat": 0.0, "type": "electric_scooter", "name": "4b98673a84db0ca0b2102f649662414c", "is_disabled": 0, "lon": -76.9964195, "fusion_lon": 0.0, "rental_uris": {"ios": "https://dc.lft.to/lastmile_qr_scan", "android": "https://dc.lft.to/lastmile_qr_scan"}, "lat": 38.87735683333333, "bike_id": "4b98673a84db0ca0b2102f649662414c", "is_reserved": 0}, {"fusion_lat": 0.0, "type": "electric_bike", "name": "639d3778195e7722938e2a32abfbffc4", "is_disabled": 0, "lon": -77.12874266666667, "fusion_lon": 0.0, "rental_uris": {"ios": "https://dc.lft.to/lastmile_qr_scan", "android": "https://dc.lft.to/lastmile_qr_scan"}, "lat": 38.906050666666665, "bike_id": "639d3778195e7722938e2a32abfbffc4", "is_reserved": 0}, {"fusion_lat": 0.0, "type": "electric_scooter", "name": "dfe8b25d1ef1e90fb00d2a4d867a3c54", "is_disabled": 0, "lon": -77.0201115, "fusion_lon": 0.0, "rental_uris": {"ios": "https://dc.lft.to/lastmile_qr_scan", "android": "https://dc.lft.to/lastmile_qr_scan"}, "lat": 38.90163883333334, "bike_id": "dfe8b25d1ef1e90fb00d2a4d867a3c54", "is_reserved": 0}, {"fusion_lat": 0.0, "type": "electric_scooter", "name": "973206594675457f3a8f7dbbffbe7b4e", "is_disabled": 0, "lon": -77.040062, "fusion_lon": 0.0, "rental_uris": {"ios": "https://dc.lft.to/lastmile_qr_scan", "android": "https://dc.lft.to/lastmile_qr_scan"}, "lat": 38.934208166666664, "bike_id": "973206594675457f3a8f7dbbffbe7b4e", "is_reserved": 0}, {"fusion_lat": 0.0, "type": "electric_scooter", "name": "cae4d2dd33e5b3501a3cb695df978aba", "is_disabled": 0, "lon": -77.02369366666667, "fusion_lon": 0.0, "rental_uris": {"ios": "https://dc.lft.to/lastmile_qr_scan", "android": "https://dc.lft.to/lastmile_qr_scan"}, "lat": 38.90221616666667, "bike_id": "cae4d2dd33e5b3501a3cb695df978aba", "is_reserved": 0}, {"fusion_lat": 0.0, "type": "electric_scooter", "name": "c4f0afa4bf532b93fc62e3e2cd5ef89a", "is_disabled": 0, "lon": -77.01621266666666, "fusion_lon": 0.0, "rental_uris": {"ios": "https://dc.lft.to/lastmile_qr_scan", "android": "https://dc.lft.to/lastmile_qr_scan"}, "lat": 38.906059666666664, "bike_id": "c4f0afa4bf532b93fc62e3e2cd5ef89a", "is_reserved": 0}, {"fusion_lat": 0.0, "type": "electric_scooter", "name": "d573849c0e24954cbcd41ec5987c8259", "is_disabled": 0, "lon": -77.0425, "fusion_lon": 0.0, "rental_uris": {"ios": "https://dc.lft.to/lastmile_qr_scan", "android": "https://dc.lft.to/lastmile_qr_scan"}, "lat": 38.91787516666667, "bike_id": "d573849c0e24954cbcd41ec5987c8259", "is_reserved": 0}, {"fusion_lat": 0.0, "type": "electric_scooter", "name": "b9b2e47164bd3d12f7060fca9c55d1c1", "is_disabled": 0, "lon": -77.04459816666666, "fusion_lon": 0.0, "rental_uris": {"ios": "https://dc.lft.to/lastmile_qr_scan", "android": "https://dc.lft.to/lastmile_qr_scan"}, "lat": 38.91872883333333, "bike_id": "b9b2e47164bd3d12f7060fca9c55d1c1", "is_reserved": 0}, {"fusion_lat": 0.0, "type": "electric_scooter", "name": "b6826b1687010c9e962dd4e7ae0ff32b", "is_disabled": 0, "lon": -77.01959716666667, "fusion_lon": 0.0, "rental_uris": {"ios": "https://dc.lft.to/lastmile_qr_scan", "android": "https://dc.lft.to/lastmile_qr_scan"}, "lat": 38.923314500000004, "bike_id": "b6826b1687010c9e962dd4e7ae0ff32b", "is_reserved": 0}, {"fusion_lat": 0.0, "type": "electric_scooter", "name": "85c54c56982577f12db17a6ec288d872", "is_disabled": 0, "lon": -77.04661133333333, "fusion_lon": 0.0, "rental_uris": {"ios": "https://dc.lft.to/lastmile_qr_scan", "android": "https://dc.lft.to/lastmile_qr_scan"}, "lat": 38.90280166666667, "bike_id": "85c54c56982577f12db17a6ec288d872", "is_reserved": 0}, {"fusion_lat": 0.0, "type": "electric_bike", "name": "73a6eed3478669f6503c4d13c0f1ab9c", "is_disabled": 0, "lon": -76.96890016666667, "fusion_lon": 0.0, "rental_uris": {"ios": "https://dc.lft.to/lastmile_qr_scan", "android": "https://dc.lft.to/lastmile_qr_scan"}, "lat": 38.86982066666667, "bike_id": "73a6eed3478669f6503c4d13c0f1ab9c", "is_reserved": 0}, {"fusion_lat": 0.0, "type": "electric_scooter", "name": "6ccece7d6319ee411f1abc76ad38874f", "is_disabled": 0, "lon": -76.98703866666666, "fusion_lon": 0.0, "rental_uris": {"ios": "https://dc.lft.to/lastmile_qr_scan", "android": "https://dc.lft.to/lastmile_qr_scan"}, "lat": 38.900239166666665, "bike_id": "6ccece7d6319ee411f1abc76ad38874f", "is_reserved": 0}, {"fusion_lat": 0.0, "type": "electric_scooter", "name": "16cb01905fd44b2456a36f0ee0fd669d", "is_disabled": 0, "lon": -77.01383183333333, "fusion_lon": 0.0, "rental_uris": {"ios": "https://dc.lft.to/lastmile_qr_scan", "android": "https://dc.lft.to/lastmile_qr_scan"}, "lat": 38.87599683333333, "bike_id": "16cb01905fd44b2456a36f0ee0fd669d", "is_reserved": 0}, {"fusion_lat": 0.0, "type": "electric_scooter", "name": "72c8bca32060491dd3988bbcbd63726c", "is_disabled": 0, "lon": -77.03164666666666, "fusion_lon": 0.0, "rental_uris": {"ios": "https://dc.lft.to/lastmile_qr_scan", "android": "https://dc.lft.to/lastmile_qr_scan"}, "lat": 38.91634083333334, "bike_id": "72c8bca32060491dd3988bbcbd63726c", "is_reserved": 0}, {"fusion_lat": 0.0, "type": "electric_scooter", "name": "5094355aea9412ec9c5452346ceac4fc", "is_disabled": 0, "lon": -77.033229, "fusion_lon": 0.0, "rental_uris": {"ios": "https://dc.lft.to/lastmile_qr_scan", "android": "https://dc.lft.to/lastmile_qr_scan"}, "lat": 38.8988395, "bike_id": "5094355aea9412ec9c5452346ceac4fc", "is_reserved": 0}, {"fusion_lat": 0.0, "type": "electric_scooter", "name": "fcb7d1b33e1f5eda8c2becef63ee7e8d", "is_disabled": 0, "lon": -77.03461783333333, "fusion_lon": 0.0, "rental_uris": {"ios": "https://dc.lft.to/lastmile_qr_scan", "android": "https://dc.lft.to/lastmile_qr_scan"}, "lat": 38.921507, "bike_id": "fcb7d1b33e1f5eda8c2becef63ee7e8d", "is_reserved": 0}, {"fusion_lat": 0.0, "type": "electric_scooter", "name": "394972b21b8c4e462945b7fee4576c06", "is_disabled": 0, "lon": -76.96559066666667, "fusion_lon": 0.0, "rental_uris": {"ios": "https://dc.lft.to/lastmile_qr_scan", "android": "https://dc.lft.to/lastmile_qr_scan"}, "lat": 38.918637333333336, "bike_id": "394972b21b8c4e462945b7fee4576c06", "is_reserved": 0}, {"fusion_lat": 0.0, "type": "electric_bike", "name": "f9be664fb5d9c12dcc991a1b9db7faa5", "is_disabled": 0, "lon": -77.00279333333333, "fusion_lon": 0.0, "rental_uris": {"ios": "https://dc.lft.to/lastmile_qr_scan", "android": "https://dc.lft.to/lastmile_qr_scan"}, "lat": 38.838141, "bike_id": "f9be664fb5d9c12dcc991a1b9db7faa5", "is_reserved": 0}, {"fusion_lat": 0.0, "type": "electric_scooter", "name": "b0a9b375472124a16ad273530f5cc278", "is_disabled": 0, "lon": -77.03095433333333, "fusion_lon": 0.0, "rental_uris": {"ios": "https://dc.lft.to/lastmile_qr_scan", "android": "https://dc.lft.to/lastmile_qr_scan"}, "lat": 38.919182666666664, "bike_id": "b0a9b375472124a16ad273530f5cc278", "is_reserved": 0}, {"fusion_lat": 0.0, "type": "electric_scooter", "name": "2657d100684045e3a006c3783dc3de94", "is_disabled": 0, "lon": -76.98750716666666, "fusion_lon": 0.0, "rental_uris": {"ios": "https://dc.lft.to/lastmile_qr_scan", "android": "https://dc.lft.to/lastmile_qr_scan"}, "lat": 38.879692166666665, "bike_id": "2657d100684045e3a006c3783dc3de94", "is_reserved": 0}, {"fusion_lat": 0.0, "type": "electric_scooter", "name": "ff72d443eb1e5002d825f2fdd8e72d84", "is_disabled": 0, "lon": -77.01861316666667, "fusion_lon": 0.0, "rental_uris": {"ios": "https://dc.lft.to/lastmile_qr_scan", "android": "https://dc.lft.to/lastmile_qr_scan"}, "lat": 38.9492475, "bike_id": "ff72d443eb1e5002d825f2fdd8e72d84", "is_reserved": 0}, {"fusion_lat": 0.0, "type": "electric_scooter", "name": "9619532188d85ec7687c0947d55cb3e4", "is_disabled": 0, "lon": -77.02821316666666, "fusion_lon": 0.0, "rental_uris": {"ios": "https://dc.lft.to/lastmile_qr_scan", "android": "https://dc.lft.to/lastmile_qr_scan"}, "lat": 38.899503333333335, "bike_id": "9619532188d85ec7687c0947d55cb3e4", "is_reserved": 0}, {"fusion_lat": 0.0, "type": "electric_bike", "name": "1086c7a33796a36d296bcfba39ebe48a", "is_disabled": 0, "lon": -77.035868, "fusion_lon": 0.0, "rental_uris": {"ios": "https://dc.lft.to/lastmile_qr_scan", "android": "https://dc.lft.to/lastmile_qr_scan"}, "lat": 38.9922875, "bike_id": "1086c7a33796a36d296bcfba39ebe48a", "is_reserved": 0}, {"fusion_lat": 0.0, "type": "electric_scooter", "name": "0e76f20002273c1a36e39f3ba6b3de81", "is_disabled": 0, "lon": -77.020727, "fusion_lon": 0.0, "rental_uris": {"ios": "https://dc.lft.to/lastmile_qr_scan", "android": "https://dc.lft.to/lastmile_qr_scan"}, "lat": 38.9302535, "bike_id": "0e76f20002273c1a36e39f3ba6b3de81", "is_reserved": 0}, {"fusion_lat": 0.0, "type": "electric_scooter", "name": "f2c74a9a844c2b80df2dfe3090238ad5", "is_disabled": 0, "lon": -77.03730933333334, "fusion_lon": 0.0, "rental_uris": {"ios": "https://dc.lft.to/lastmile_qr_scan", "android": "https://dc.lft.to/lastmile_qr_scan"}, "lat": 38.92030616666667, "bike_id": "f2c74a9a844c2b80df2dfe3090238ad5", "is_reserved": 0}, {"fusion_lat": 0.0, "type": "electric_bike", "name": "0eee542a6ab94affc8c0802f3209f156", "is_disabled": 0, "lon": -77.00377083333333, "fusion_lon": 0.0, "rental_uris": {"ios": "https://dc.lft.to/lastmile_qr_scan", "android": "https://dc.lft.to/lastmile_qr_scan"}, "lat": 38.836061666666666, "bike_id": "0eee542a6ab94affc8c0802f3209f156", "is_reserved": 0}, {"fusion_lat": 0.0, "type": "electric_bike", "name": "1d63c5e6ec3463995dd23d68580ab822", "is_disabled": 0, "lon": -77.0570185, "fusion_lon": 0.0, "rental_uris": {"ios": "https://dc.lft.to/lastmile_qr_scan", "android": "https://dc.lft.to/lastmile_qr_scan"}, "lat": 38.90555366666667, "bike_id": "1d63c5e6ec3463995dd23d68580ab822", "is_reserved": 0}, {"fusion_lat": 0.0, "type": "electric_bike", "name": "7c2358b4ca0a184f698316b322ecafe7", "is_disabled": 0, "lon": -76.963263, "fusion_lon": 0.0, "rental_uris": {"ios": "https://dc.lft.to/lastmile_qr_scan", "android": "https://dc.lft.to/lastmile_qr_scan"}, "lat": 38.9389575, "bike_id": "7c2358b4ca0a184f698316b322ecafe7", "is_reserved": 0}, {"fusion_lat": 0.0, "type": "electric_scooter", "name": "2036beddc416a942acc5ae9c3ed95ae1", "is_disabled": 0, "lon": -77.0210645, "fusion_lon": 0.0, "rental_uris": {"ios": "https://dc.lft.to/lastmile_qr_scan", "android": "https://dc.lft.to/lastmile_qr_scan"}, "lat": 38.921553333333335, "bike_id": "2036beddc416a942acc5ae9c3ed95ae1", "is_reserved": 0}, {"fusion_lat": 0.0, "type": "electric_scooter", "name": "8969b1b9346cf07a0c3b17022ea85331", "is_disabled": 0, "lon": -77.01776066666666, "fusion_lon": 0.0, "rental_uris": {"ios": "https://dc.lft.to/lastmile_qr_scan", "android": "https://dc.lft.to/lastmile_qr_scan"}, "lat": 38.92004416666666, "bike_id": "8969b1b9346cf07a0c3b17022ea85331", "is_reserved": 0}, {"fusion_lat": 0.0, "type": "electric_bike", "name": "db7e3fa570f2ccab10bc0096e2769fa1", "is_disabled": 0, "lon": -76.997175, "fusion_lon": 0.0, "rental_uris": {"ios": "https://dc.lft.to/lastmile_qr_scan", "android": "https://dc.lft.to/lastmile_qr_scan"}, "lat": 38.9985345, "bike_id": "db7e3fa570f2ccab10bc0096e2769fa1", "is_reserved": 0}, {"fusion_lat": 0.0, "type": "electric_scooter", "name": "ac81b2b3112335610b681187a11be7cb", "is_disabled": 0, "lon": -77.02976716666667, "fusion_lon": 0.0, "rental_uris": {"ios": "https://dc.lft.to/lastmile_qr_scan", "android": "https://dc.lft.to/lastmile_qr_scan"}, "lat": 38.924481166666666, "bike_id": "ac81b2b3112335610b681187a11be7cb", "is_reserved": 0}, {"fusion_lat": 0.0, "type": "electric_scooter", "name": "f1e75d53b1789755cead93e18eba130b", "is_disabled": 0, "lon": -77.01782866666667, "fusion_lon": 0.0, "rental_uris": {"ios": "https://dc.lft.to/lastmile_qr_scan", "android": "https://dc.lft.to/lastmile_qr_scan"}, "lat": 38.9199335, "bike_id": "f1e75d53b1789755cead93e18eba130b", "is_reserved": 0}, {"fusion_lat": 0.0, "type": "electric_scooter", "name": "62e097a719c2989cb5e34d9410eb484c", "is_disabled": 0, "lon": -77.0329075, "fusion_lon": 0.0, "rental_uris": {"ios": "https://dc.lft.to/lastmile_qr_scan", "android": "https://dc.lft.to/lastmile_qr_scan"}, "lat": 38.8990735, "bike_id": "62e097a719c2989cb5e34d9410eb484c", "is_reserved": 0}, {"fusion_lat": 0.0, "type": "electric_scooter", "name": "39d87e0dbe9d6e80f6db530c2bcdda7f", "is_disabled": 0, "lon": -77.00211183333333, "fusion_lon": 0.0, "rental_uris": {"ios": "https://dc.lft.to/lastmile_qr_scan", "android": "https://dc.lft.to/lastmile_qr_scan"}, "lat": 38.924708333333335, "bike_id": "39d87e0dbe9d6e80f6db530c2bcdda7f", "is_reserved": 0}, {"fusion_lat": 0.0, "type": "electric_scooter", "name": "c6cf2011a9bb84d65b84014840bdaf5a", "is_disabled": 0, "lon": -76.98599383333334, "fusion_lon": 0.0, "rental_uris": {"ios": "https://dc.lft.to/lastmile_qr_scan", "android": "https://dc.lft.to/lastmile_qr_scan"}, "lat": 38.906558833333335, "bike_id": "c6cf2011a9bb84d65b84014840bdaf5a", "is_reserved": 0}, {"fusion_lat": 0.0, "type": "electric_scooter", "name": "65537b875305e8515f5488449ea2427f", "is_disabled": 0, "lon": -77.06268816666666, "fusion_lon": 0.0, "rental_uris": {"ios": "https://dc.lft.to/lastmile_qr_scan", "android": "https://dc.lft.to/lastmile_qr_scan"}, "lat": 38.905949, "bike_id": "65537b875305e8515f5488449ea2427f", "is_reserved": 0}, {"fusion_lat": 0.0, "type": "electric_scooter", "name": "6b131c83e6f4d68a666d6f4283d98cfa", "is_disabled": 0, "lon": -77.04560666666667, "fusion_lon": 0.0, "rental_uris": {"ios": "https://dc.lft.to/lastmile_qr_scan", "android": "https://dc.lft.to/lastmile_qr_scan"}, "lat": 38.90072033333333, "bike_id": "6b131c83e6f4d68a666d6f4283d98cfa", "is_reserved": 0}, {"fusion_lat": 0.0, "type": "electric_scooter", "name": "c45066091dd4b2b3a206c8aeb2d3e62e", "is_disabled": 0, "lon": -77.038426, "fusion_lon": 0.0, "rental_uris": {"ios": "https://dc.lft.to/lastmile_qr_scan", "android": "https://dc.lft.to/lastmile_qr_scan"}, "lat": 38.90986, "bike_id": "c45066091dd4b2b3a206c8aeb2d3e62e", "is_reserved": 0}, {"fusion_lat": 0.0, "type": "electric_scooter", "name": "d3ad50e438a5f2cd31c052e848a98241", "is_disabled": 0, "lon": -77.03666833333334, "fusion_lon": 0.0, "rental_uris": {"ios": "https://dc.lft.to/lastmile_qr_scan", "android": "https://dc.lft.to/lastmile_qr_scan"}, "lat": 38.92273616666667, "bike_id": "d3ad50e438a5f2cd31c052e848a98241", "is_reserved": 0}, {"fusion_lat": 0.0, "type": "electric_scooter", "name": "8343ad52d5dd5b1584ae55de0bd24b7f", "is_disabled": 0, "lon": -77.04862533333333, "fusion_lon": 0.0, "rental_uris": {"ios": "https://dc.lft.to/lastmile_qr_scan", "android": "https://dc.lft.to/lastmile_qr_scan"}, "lat": 38.90083416666667, "bike_id": "8343ad52d5dd5b1584ae55de0bd24b7f", "is_reserved": 0}, {"fusion_lat": 0.0, "type": "electric_scooter", "name": "b2e451b77c33613d954c17aae5dac2ca", "is_disabled": 0, "lon": -77.02194733333333, "fusion_lon": 0.0, "rental_uris": {"ios": "https://dc.lft.to/lastmile_qr_scan", "android": "https://dc.lft.to/lastmile_qr_scan"}, "lat": 38.911263166666664, "bike_id": "b2e451b77c33613d954c17aae5dac2ca", "is_reserved": 0}, {"fusion_lat": 0.0, "type": "electric_scooter", "name": "ea5e759957ae8a40a3822c6d75bce2cb", "is_disabled": 0, "lon": -77.01455866666667, "fusion_lon": 0.0, "rental_uris": {"ios": "https://dc.lft.to/lastmile_qr_scan", "android": "https://dc.lft.to/lastmile_qr_scan"}, "lat": 38.91769266666667, "bike_id": "ea5e759957ae8a40a3822c6d75bce2cb", "is_reserved": 0}, {"fusion_lat": 0.0, "type": "electric_scooter", "name": "24cede51be4034dc2763c88599b7aa65", "is_disabled": 0, "lon": -77.02813816666666, "fusion_lon": 0.0, "rental_uris": {"ios": "https://dc.lft.to/lastmile_qr_scan", "android": "https://dc.lft.to/lastmile_qr_scan"}, "lat": 38.930816166666666, "bike_id": "24cede51be4034dc2763c88599b7aa65", "is_reserved": 0}, {"fusion_lat": 0.0, "type": "electric_scooter", "name": "139ac2bc7c8e5f5b7bcfc97b38a93e57", "is_disabled": 0, "lon": -77.0517825, "fusion_lon": 0.0, "rental_uris": {"ios": "https://dc.lft.to/lastmile_qr_scan", "android": "https://dc.lft.to/lastmile_qr_scan"}, "lat": 38.9024655, "bike_id": "139ac2bc7c8e5f5b7bcfc97b38a93e57", "is_reserved": 0}, {"fusion_lat": 0.0, "type": "electric_scooter", "name": "2d36ba4c6042275575a0b3688677f9e1", "is_disabled": 0, "lon": -77.02740916666667, "fusion_lon": 0.0, "rental_uris": {"ios": "https://dc.lft.to/lastmile_qr_scan", "android": "https://dc.lft.to/lastmile_qr_scan"}, "lat": 38.923871, "bike_id": "2d36ba4c6042275575a0b3688677f9e1", "is_reserved": 0}, {"fusion_lat": 0.0, "type": "electric_scooter", "name": "4717e34f93aef3d183df5ae3e914b6bc", "is_disabled": 0, "lon": -77.008283, "fusion_lon": 0.0, "rental_uris": {"ios": "https://dc.lft.to/lastmile_qr_scan", "android": "https://dc.lft.to/lastmile_qr_scan"}, "lat": 38.913680666666664, "bike_id": "4717e34f93aef3d183df5ae3e914b6bc", "is_reserved": 0}, {"fusion_lat": 0.0, "type": "electric_scooter", "name": "1cb7d0494ad1ca02c15767ec7ba38186", "is_disabled": 0, "lon": -77.01064166666667, "fusion_lon": 0.0, "rental_uris": {"ios": "https://dc.lft.to/lastmile_qr_scan", "android": "https://dc.lft.to/lastmile_qr_scan"}, "lat": 38.921315166666666, "bike_id": "1cb7d0494ad1ca02c15767ec7ba38186", "is_reserved": 0}, {"fusion_lat": 0.0, "type": "electric_scooter", "name": "20b70892cee6df711b1bdf44b3e83fdc", "is_disabled": 0, "lon": -77.0240255, "fusion_lon": 0.0, "rental_uris": {"ios": "https://dc.lft.to/lastmile_qr_scan", "android": "https://dc.lft.to/lastmile_qr_scan"}, "lat": 38.9171775, "bike_id": "20b70892cee6df711b1bdf44b3e83fdc", "is_reserved": 0}, {"fusion_lat": 0.0, "type": "electric_scooter", "name": "c0af3814e0c65f493983b6f6c1b57249", "is_disabled": 0, "lon": -77.00524633333333, "fusion_lon": 0.0, "rental_uris": {"ios": "https://dc.lft.to/lastmile_qr_scan", "android": "https://dc.lft.to/lastmile_qr_scan"}, "lat": 38.87467983333333, "bike_id": "c0af3814e0c65f493983b6f6c1b57249", "is_reserved": 0}, {"fusion_lat": 0.0, "type": "electric_scooter", "name": "d3e0fb030ed947e5675cb23c1b165434", "is_disabled": 0, "lon": -77.02296666666666, "fusion_lon": 0.0, "rental_uris": {"ios": "https://dc.lft.to/lastmile_qr_scan", "android": "https://dc.lft.to/lastmile_qr_scan"}, "lat": 38.91796816666667, "bike_id": "d3e0fb030ed947e5675cb23c1b165434", "is_reserved": 0}, {"fusion_lat": 0.0, "type": "electric_scooter", "name": "ca7d75120f466cb1532853e08a5d4ee3", "is_disabled": 0, "lon": -77.028295, "fusion_lon": 0.0, "rental_uris": {"ios": "https://dc.lft.to/lastmile_qr_scan", "android": "https://dc.lft.to/lastmile_qr_scan"}, "lat": 38.9143595, "bike_id": "ca7d75120f466cb1532853e08a5d4ee3", "is_reserved": 0}, {"fusion_lat": 0.0, "type": "electric_scooter", "name": "a45c0194b1297ec8dbc43866ce316270", "is_disabled": 0, "lon": -77.04365683333333, "fusion_lon": 0.0, "rental_uris": {"ios": "https://dc.lft.to/lastmile_qr_scan", "android": "https://dc.lft.to/lastmile_qr_scan"}, "lat": 38.921438, "bike_id": "a45c0194b1297ec8dbc43866ce316270", "is_reserved": 0}, {"fusion_lat": 0.0, "type": "electric_scooter", "name": "1693e5bc3d1fd76149575c810273c619", "is_disabled": 0, "lon": -77.0321155, "fusion_lon": 0.0, "rental_uris": {"ios": "https://dc.lft.to/lastmile_qr_scan", "android": "https://dc.lft.to/lastmile_qr_scan"}, "lat": 38.884681, "bike_id": "1693e5bc3d1fd76149575c810273c619", "is_reserved": 0}, {"fusion_lat": 0.0, "type": "electric_bike", "name": "01837af676e8041a755c1509fde02bec", "is_disabled": 0, "lon": -76.907531, "fusion_lon": 0.0, "rental_uris": {"ios": "https://dc.lft.to/lastmile_qr_scan", "android": "https://dc.lft.to/lastmile_qr_scan"}, "lat": 38.896209166666665, "bike_id": "01837af676e8041a755c1509fde02bec", "is_reserved": 0}, {"fusion_lat": 0.0, "type": "electric_bike", "name": "0d5b14fb4a9c53c256a0e641a018d47a", "is_disabled": 0, "lon": -77.00958216666666, "fusion_lon": 0.0, "rental_uris": {"ios": "https://dc.lft.to/lastmile_qr_scan", "android": "https://dc.lft.to/lastmile_qr_scan"}, "lat": 38.92133666666667, "bike_id": "0d5b14fb4a9c53c256a0e641a018d47a", "is_reserved": 0}, {"fusion_lat": 0.0, "type": "electric_scooter", "name": "26c70a52318c3524999cfc719334679f", "is_disabled": 0, "lon": -77.03361933333333, "fusion_lon": 0.0, "rental_uris": {"ios": "https://dc.lft.to/lastmile_qr_scan", "android": "https://dc.lft.to/lastmile_qr_scan"}, "lat": 38.92456883333333, "bike_id": "26c70a52318c3524999cfc719334679f", "is_reserved": 0}, {"fusion_lat": 0.0, "type": "electric_scooter", "name": "749893c2e9c741690311cb53a4412b90", "is_disabled": 0, "lon": -77.03479983333334, "fusion_lon": 0.0, "rental_uris": {"ios": "https://dc.lft.to/lastmile_qr_scan", "android": "https://dc.lft.to/lastmile_qr_scan"}, "lat": 38.92887233333333, "bike_id": "749893c2e9c741690311cb53a4412b90", "is_reserved": 0}, {"fusion_lat": 0.0, "type": "electric_bike", "name": "ccf8d37624f581f61aa2953914f1025b", "is_disabled": 0, "lon": -77.02651266666666, "fusion_lon": 0.0, "rental_uris": {"ios": "https://dc.lft.to/lastmile_qr_scan", "android": "https://dc.lft.to/lastmile_qr_scan"}, "lat": 38.988153833333335, "bike_id": "ccf8d37624f581f61aa2953914f1025b", "is_reserved": 0}, {"fusion_lat": 0.0, "type": "electric_scooter", "name": "c6ae7ef9d36d29511a66305071367e8e", "is_disabled": 0, "lon": -77.03262916666667, "fusion_lon": 0.0, "rental_uris": {"ios": "https://dc.lft.to/lastmile_qr_scan", "android": "https://dc.lft.to/lastmile_qr_scan"}, "lat": 38.935203, "bike_id": "c6ae7ef9d36d29511a66305071367e8e", "is_reserved": 0}, {"fusion_lat": 0.0, "type": "electric_scooter", "name": "02306ebfd55c0b4d84d4c38d9f9bfa6c", "is_disabled": 0, "lon": -77.00294933333333, "fusion_lon": 0.0, "rental_uris": {"ios": "https://dc.lft.to/lastmile_qr_scan", "android": "https://dc.lft.to/lastmile_qr_scan"}, "lat": 38.89203533333333, "bike_id": "02306ebfd55c0b4d84d4c38d9f9bfa6c", "is_reserved": 0}, {"fusion_lat": 0.0, "type": "electric_scooter", "name": "ed4d3dce2de943ae4e0b8510796ce453", "is_disabled": 0, "lon": -77.07015716666666, "fusion_lon": 0.0, "rental_uris": {"ios": "https://dc.lft.to/lastmile_qr_scan", "android": "https://dc.lft.to/lastmile_qr_scan"}, "lat": 38.905890166666666, "bike_id": "ed4d3dce2de943ae4e0b8510796ce453", "is_reserved": 0}, {"fusion_lat": 0.0, "type": "electric_scooter", "name": "0682298252fe942d1d17de6e57e33473", "is_disabled": 0, "lon": -77.03928033333334, "fusion_lon": 0.0, "rental_uris": {"ios": "https://dc.lft.to/lastmile_qr_scan", "android": "https://dc.lft.to/lastmile_qr_scan"}, "lat": 38.915637333333336, "bike_id": "0682298252fe942d1d17de6e57e33473", "is_reserved": 0}, {"fusion_lat": 0.0, "type": "electric_scooter", "name": "d1625b356eaa395f3e24aefd73b4a0d5", "is_disabled": 0, "lon": -77.00480266666666, "fusion_lon": 0.0, "rental_uris": {"ios": "https://dc.lft.to/lastmile_qr_scan", "android": "https://dc.lft.to/lastmile_qr_scan"}, "lat": 38.87456733333333, "bike_id": "d1625b356eaa395f3e24aefd73b4a0d5", "is_reserved": 0}, {"fusion_lat": 0.0, "type": "electric_bike", "name": "3341a41e7e6838ba3ad79a45e4888e4a", "is_disabled": 0, "lon": -76.93809266666666, "fusion_lon": 0.0, "rental_uris": {"ios": "https://dc.lft.to/lastmile_qr_scan", "android": "https://dc.lft.to/lastmile_qr_scan"}, "lat": 38.97978, "bike_id": "3341a41e7e6838ba3ad79a45e4888e4a", "is_reserved": 0}, {"fusion_lat": 0.0, "type": "electric_scooter", "name": "2d7053499c88203cf69edeb9ec413df3", "is_disabled": 0, "lon": -77.04377033333333, "fusion_lon": 0.0, "rental_uris": {"ios": "https://dc.lft.to/lastmile_qr_scan", "android": "https://dc.lft.to/lastmile_qr_scan"}, "lat": 38.920575, "bike_id": "2d7053499c88203cf69edeb9ec413df3", "is_reserved": 0}, {"fusion_lat": 0.0, "type": "electric_scooter", "name": "02a1b17d1915e7f7a35ad0676d60dc66", "is_disabled": 0, "lon": -77.03727366666666, "fusion_lon": 0.0, "rental_uris": {"ios": "https://dc.lft.to/lastmile_qr_scan", "android": "https://dc.lft.to/lastmile_qr_scan"}, "lat": 38.92039316666666, "bike_id": "02a1b17d1915e7f7a35ad0676d60dc66", "is_reserved": 0}, {"fusion_lat": 0.0, "type": "electric_scooter", "name": "3ff0dac7a928e2c5aa1cab48992ac3c2", "is_disabled": 0, "lon": -76.94933816666666, "fusion_lon": 0.0, "rental_uris": {"ios": "https://dc.lft.to/lastmile_qr_scan", "android": "https://dc.lft.to/lastmile_qr_scan"}, "lat": 38.895309166666664, "bike_id": "3ff0dac7a928e2c5aa1cab48992ac3c2", "is_reserved": 0}, {"fusion_lat": 0.0, "type": "electric_scooter", "name": "70be8c90a6da0836792efa6bb64e3ced", "is_disabled": 0, "lon": -77.07267383333334, "fusion_lon": 0.0, "rental_uris": {"ios": "https://dc.lft.to/lastmile_qr_scan", "android": "https://dc.lft.to/lastmile_qr_scan"}, "lat": 38.907842, "bike_id": "70be8c90a6da0836792efa6bb64e3ced", "is_reserved": 0}, {"fusion_lat": 0.0, "type": "electric_bike", "name": "ce21c44bb144e604da7a6843523506af", "is_disabled": 0, "lon": -76.98975716666666, "fusion_lon": 0.0, "rental_uris": {"ios": "https://dc.lft.to/lastmile_qr_scan", "android": "https://dc.lft.to/lastmile_qr_scan"}, "lat": 38.93070083333333, "bike_id": "ce21c44bb144e604da7a6843523506af", "is_reserved": 0}, {"fusion_lat": 0.0, "type": "electric_scooter", "name": "a30f738fd533917769eab1b47c168f93", "is_disabled": 0, "lon": -76.97570766666666, "fusion_lon": 0.0, "rental_uris": {"ios": "https://dc.lft.to/lastmile_qr_scan", "android": "https://dc.lft.to/lastmile_qr_scan"}, "lat": 38.9442175, "bike_id": "a30f738fd533917769eab1b47c168f93", "is_reserved": 0}, {"fusion_lat": 0.0, "type": "electric_scooter", "name": "f9f771e68f9332c19e76b2d25db46e95", "is_disabled": 0, "lon": -77.07331766666667, "fusion_lon": 0.0, "rental_uris": {"ios": "https://dc.lft.to/lastmile_qr_scan", "android": "https://dc.lft.to/lastmile_qr_scan"}, "lat": 38.960874833333335, "bike_id": "f9f771e68f9332c19e76b2d25db46e95", "is_reserved": 0}, {"fusion_lat": 0.0, "type": "electric_scooter", "name": "37985916dc7bfd9415df9705dda89042", "is_disabled": 0, "lon": -77.04495233333333, "fusion_lon": 0.0, "rental_uris": {"ios": "https://dc.lft.to/lastmile_qr_scan", "android": "https://dc.lft.to/lastmile_qr_scan"}, "lat": 38.90367633333334, "bike_id": "37985916dc7bfd9415df9705dda89042", "is_reserved": 0}, {"fusion_lat": 0.0, "type": "electric_bike", "name": "eee5bbda7d72150d281b36804af8d1e4", "is_disabled": 0, "lon": -77.00135816666666, "fusion_lon": 0.0, "rental_uris": {"ios": "https://dc.lft.to/lastmile_qr_scan", "android": "https://dc.lft.to/lastmile_qr_scan"}, "lat": 38.99498616666666, "bike_id": "eee5bbda7d72150d281b36804af8d1e4", "is_reserved": 0}, {"fusion_lat": 0.0, "type": "electric_bike", "name": "44d9f9ab1278429035916d6e6dc8f422", "is_disabled": 0, "lon": -76.9579685, "fusion_lon": 0.0, "rental_uris": {"ios": "https://dc.lft.to/lastmile_qr_scan", "android": "https://dc.lft.to/lastmile_qr_scan"}, "lat": 38.980490333333336, "bike_id": "44d9f9ab1278429035916d6e6dc8f422", "is_reserved": 0}, {"fusion_lat": 0.0, "type": "electric_scooter", "name": "94baae456f2447cccb7274b21f1f3c19", "is_disabled": 0, "lon": -77.02598516666667, "fusion_lon": 0.0, "rental_uris": {"ios": "https://dc.lft.to/lastmile_qr_scan", "android": "https://dc.lft.to/lastmile_qr_scan"}, "lat": 38.90422316666667, "bike_id": "94baae456f2447cccb7274b21f1f3c19", "is_reserved": 0}, {"fusion_lat": 0.0, "type": "electric_scooter", "name": "7127e1118b9469867fbcf65bba70d0ba", "is_disabled": 0, "lon": -77.021958, "fusion_lon": 0.0, "rental_uris": {"ios": "https://dc.lft.to/lastmile_qr_scan", "android": "https://dc.lft.to/lastmile_qr_scan"}, "lat": 38.89948, "bike_id": "7127e1118b9469867fbcf65bba70d0ba", "is_reserved": 0}, {"fusion_lat": 0.0, "type": "electric_scooter", "name": "576465bf3547007db461fea22f848fa2", "is_disabled": 0, "lon": -77.04597916666667, "fusion_lon": 0.0, "rental_uris": {"ios": "https://dc.lft.to/lastmile_qr_scan", "android": "https://dc.lft.to/lastmile_qr_scan"}, "lat": 38.91517783333333, "bike_id": "576465bf3547007db461fea22f848fa2", "is_reserved": 0}, {"fusion_lat": 0.0, "type": "electric_scooter", "name": "74a0ad80f6341f72c278dc623e7a8213", "is_disabled": 0, "lon": -77.025572, "fusion_lon": 0.0, "rental_uris": {"ios": "https://dc.lft.to/lastmile_qr_scan", "android": "https://dc.lft.to/lastmile_qr_scan"}, "lat": 38.8998085, "bike_id": "74a0ad80f6341f72c278dc623e7a8213", "is_reserved": 0}, {"fusion_lat": 0.0, "type": "electric_scooter", "name": "4b2c70e648d57360d3a3d56cd7f0edc5", "is_disabled": 0, "lon": -77.03120183333333, "fusion_lon": 0.0, "rental_uris": {"ios": "https://dc.lft.to/lastmile_qr_scan", "android": "https://dc.lft.to/lastmile_qr_scan"}, "lat": 38.923079666666666, "bike_id": "4b2c70e648d57360d3a3d56cd7f0edc5", "is_reserved": 0}, {"fusion_lat": 0.0, "type": "electric_scooter", "name": "826a0523927687b4d61c22c93588ea1c", "is_disabled": 0, "lon": -77.0357725, "fusion_lon": 0.0, "rental_uris": {"ios": "https://dc.lft.to/lastmile_qr_scan", "android": "https://dc.lft.to/lastmile_qr_scan"}, "lat": 38.927435333333335, "bike_id": "826a0523927687b4d61c22c93588ea1c", "is_reserved": 0}, {"fusion_lat": 0.0, "type": "electric_scooter", "name": "f27572090fbb8b1cb8538cad9773e99f", "is_disabled": 0, "lon": -76.99509016666667, "fusion_lon": 0.0, "rental_uris": {"ios": "https://dc.lft.to/lastmile_qr_scan", "android": "https://dc.lft.to/lastmile_qr_scan"}, "lat": 38.882416666666664, "bike_id": "f27572090fbb8b1cb8538cad9773e99f", "is_reserved": 0}, {"fusion_lat": 0.0, "type": "electric_scooter", "name": "a7fdddb570cd0287e77bce968c7fd8f2", "is_disabled": 0, "lon": -77.03705216666667, "fusion_lon": 0.0, "rental_uris": {"ios": "https://dc.lft.to/lastmile_qr_scan", "android": "https://dc.lft.to/lastmile_qr_scan"}, "lat": 38.92639833333333, "bike_id": "a7fdddb570cd0287e77bce968c7fd8f2", "is_reserved": 0}, {"fusion_lat": 0.0, "type": "electric_scooter", "name": "abcda6c10c9fac48fe6e7bd2f1aeb9d6", "is_disabled": 0, "lon": -77.02661266666667, "fusion_lon": 0.0, "rental_uris": {"ios": "https://dc.lft.to/lastmile_qr_scan", "android": "https://dc.lft.to/lastmile_qr_scan"}, "lat": 38.9026965, "bike_id": "abcda6c10c9fac48fe6e7bd2f1aeb9d6", "is_reserved": 0}, {"fusion_lat": 0.0, "type": "electric_scooter", "name": "7e417e4edf14365b76e64eab5c184503", "is_disabled": 0, "lon": -77.03785466666666, "fusion_lon": 0.0, "rental_uris": {"ios": "https://dc.lft.to/lastmile_qr_scan", "android": "https://dc.lft.to/lastmile_qr_scan"}, "lat": 38.924282833333336, "bike_id": "7e417e4edf14365b76e64eab5c184503", "is_reserved": 0}, {"fusion_lat": 0.0, "type": "electric_bike", "name": "784b00b1bb7b70f3c96dda5665956272", "is_disabled": 0, "lon": -77.14857333333333, "fusion_lon": 0.0, "rental_uris": {"ios": "https://dc.lft.to/lastmile_qr_scan", "android": "https://dc.lft.to/lastmile_qr_scan"}, "lat": 38.87768366666667, "bike_id": "784b00b1bb7b70f3c96dda5665956272", "is_reserved": 0}, {"fusion_lat": 0.0, "type": "electric_scooter", "name": "e0f4549f85f38cc7ab74489696032f87", "is_disabled": 0, "lon": -77.05273116666666, "fusion_lon": 0.0, "rental_uris": {"ios": "https://dc.lft.to/lastmile_qr_scan", "android": "https://dc.lft.to/lastmile_qr_scan"}, "lat": 38.925627666666664, "bike_id": "e0f4549f85f38cc7ab74489696032f87", "is_reserved": 0}, {"fusion_lat": 0.0, "type": "electric_scooter", "name": "a43afca7b968f813c2a4bfe14cbe0895", "is_disabled": 0, "lon": -77.03181166666667, "fusion_lon": 0.0, "rental_uris": {"ios": "https://dc.lft.to/lastmile_qr_scan", "android": "https://dc.lft.to/lastmile_qr_scan"}, "lat": 38.92905716666667, "bike_id": "a43afca7b968f813c2a4bfe14cbe0895", "is_reserved": 0}, {"fusion_lat": 0.0, "type": "electric_scooter", "name": "40f34c3a8f12542652e28af4b8a2a77f", "is_disabled": 0, "lon": -76.98532116666667, "fusion_lon": 0.0, "rental_uris": {"ios": "https://dc.lft.to/lastmile_qr_scan", "android": "https://dc.lft.to/lastmile_qr_scan"}, "lat": 38.85850283333333, "bike_id": "40f34c3a8f12542652e28af4b8a2a77f", "is_reserved": 0}, {"fusion_lat": 0.0, "type": "electric_bike", "name": "9577d2b51af7e48ac9e8795d2ea9962c", "is_disabled": 0, "lon": -77.03708316666666, "fusion_lon": 0.0, "rental_uris": {"ios": "https://dc.lft.to/lastmile_qr_scan", "android": "https://dc.lft.to/lastmile_qr_scan"}, "lat": 38.93553983333334, "bike_id": "9577d2b51af7e48ac9e8795d2ea9962c", "is_reserved": 0}, {"fusion_lat": 0.0, "type": "electric_scooter", "name": "65b478d501f9d1f3b5f9e8914cc325fe", "is_disabled": 0, "lon": -77.04039016666667, "fusion_lon": 0.0, "rental_uris": {"ios": "https://dc.lft.to/lastmile_qr_scan", "android": "https://dc.lft.to/lastmile_qr_scan"}, "lat": 38.90393016666667, "bike_id": "65b478d501f9d1f3b5f9e8914cc325fe", "is_reserved": 0}, {"fusion_lat": 0.0, "type": "electric_scooter", "name": "8d579aa71c7f9cc6b22c0f757416c7c1", "is_disabled": 0, "lon": -77.04144583333333, "fusion_lon": 0.0, "rental_uris": {"ios": "https://dc.lft.to/lastmile_qr_scan", "android": "https://dc.lft.to/lastmile_qr_scan"}, "lat": 38.900065166666664, "bike_id": "8d579aa71c7f9cc6b22c0f757416c7c1", "is_reserved": 0}, {"fusion_lat": 0.0, "type": "electric_scooter", "name": "eaf21cd8e8c528e2c523127aeeef7abe", "is_disabled": 0, "lon": -76.999737, "fusion_lon": 0.0, "rental_uris": {"ios": "https://dc.lft.to/lastmile_qr_scan", "android": "https://dc.lft.to/lastmile_qr_scan"}, "lat": 38.908382333333336, "bike_id": "eaf21cd8e8c528e2c523127aeeef7abe", "is_reserved": 0}, {"fusion_lat": 0.0, "type": "electric_scooter", "name": "69611b31592f561e8ff8580b063e27f2", "is_disabled": 0, "lon": -77.04165583333334, "fusion_lon": 0.0, "rental_uris": {"ios": "https://dc.lft.to/lastmile_qr_scan", "android": "https://dc.lft.to/lastmile_qr_scan"}, "lat": 38.9015995, "bike_id": "69611b31592f561e8ff8580b063e27f2", "is_reserved": 0}, {"fusion_lat": 0.0, "type": "electric_scooter", "name": "1cb1555a3012a33ed954990d4fa95e6f", "is_disabled": 0, "lon": -76.94951316666666, "fusion_lon": 0.0, "rental_uris": {"ios": "https://dc.lft.to/lastmile_qr_scan", "android": "https://dc.lft.to/lastmile_qr_scan"}, "lat": 38.89544433333333, "bike_id": "1cb1555a3012a33ed954990d4fa95e6f", "is_reserved": 0}, {"fusion_lat": 0.0, "type": "electric_scooter", "name": "aa6add2d8c9c0932ba34d36cd9728705", "is_disabled": 0, "lon": -77.04008416666667, "fusion_lon": 0.0, "rental_uris": {"ios": "https://dc.lft.to/lastmile_qr_scan", "android": "https://dc.lft.to/lastmile_qr_scan"}, "lat": 38.910057333333334, "bike_id": "aa6add2d8c9c0932ba34d36cd9728705", "is_reserved": 0}, {"fusion_lat": 0.0, "type": "electric_bike", "name": "defa582b2aacb571f86d7340eab97aed", "is_disabled": 0, "lon": -77.01646266666667, "fusion_lon": 0.0, "rental_uris": {"ios": "https://dc.lft.to/lastmile_qr_scan", "android": "https://dc.lft.to/lastmile_qr_scan"}, "lat": 38.9037535, "bike_id": "defa582b2aacb571f86d7340eab97aed", "is_reserved": 0}, {"fusion_lat": 0.0, "type": "electric_scooter", "name": "c62d08758efcc46b6333bee49c7694bf", "is_disabled": 0, "lon": -76.99504733333333, "fusion_lon": 0.0, "rental_uris": {"ios": "https://dc.lft.to/lastmile_qr_scan", "android": "https://dc.lft.to/lastmile_qr_scan"}, "lat": 38.883441, "bike_id": "c62d08758efcc46b6333bee49c7694bf", "is_reserved": 0}, {"fusion_lat": 0.0, "type": "electric_scooter", "name": "2a62e9a0cf42f2aa2afee6e06be0cd4f", "is_disabled": 0, "lon": -77.00542283333333, "fusion_lon": 0.0, "rental_uris": {"ios": "https://dc.lft.to/lastmile_qr_scan", "android": "https://dc.lft.to/lastmile_qr_scan"}, "lat": 38.87547133333333, "bike_id": "2a62e9a0cf42f2aa2afee6e06be0cd4f", "is_reserved": 0}, {"fusion_lat": 0.0, "type": "electric_scooter", "name": "3acdcc3767014f3ddbe29c42c8bbc8d0", "is_disabled": 0, "lon": -77.04826183333333, "fusion_lon": 0.0, "rental_uris": {"ios": "https://dc.lft.to/lastmile_qr_scan", "android": "https://dc.lft.to/lastmile_qr_scan"}, "lat": 38.898302666666666, "bike_id": "3acdcc3767014f3ddbe29c42c8bbc8d0", "is_reserved": 0}, {"fusion_lat": 0.0, "type": "electric_scooter", "name": "5ce2e3b83eb22a5eaad0d680b3909fb4", "is_disabled": 0, "lon": -77.02287666666666, "fusion_lon": 0.0, "rental_uris": {"ios": "https://dc.lft.to/lastmile_qr_scan", "android": "https://dc.lft.to/lastmile_qr_scan"}, "lat": 38.91782933333333, "bike_id": "5ce2e3b83eb22a5eaad0d680b3909fb4", "is_reserved": 0}, {"fusion_lat": 0.0, "type": "electric_scooter", "name": "f20963fbba5ea73849c4e47b3e8444e5", "is_disabled": 0, "lon": -77.0139165, "fusion_lon": 0.0, "rental_uris": {"ios": "https://dc.lft.to/lastmile_qr_scan", "android": "https://dc.lft.to/lastmile_qr_scan"},