{"data": {"bikes": [{"name": "b31821023d89f6018de6e81729270e6a", "fusion_lat": 0.0, "type": "electric_scooter", "lat": 38.8843275, "is_reserved": 0, "is_disabled": 0, "fusion_lon": 0.0, "bike_id": "b31821023d89f6018de6e81729270e6a", "lon": -76.95754716666667, "rental_uris": {"ios": "https://dc.lft.to/lastmile_qr_scan", "android": "https://dc.lft.to/lastmile_qr_scan"}}, {"name": "46b4816ec7879b53e87da1bd558aceb4", "fusion_lat": 0.0, "type": "electric_scooter", "lat": 38.89731233333333, "is_reserved": 0, "is_disabled": 0, "fusion_lon": 0.0, "bike_id": "46b4816ec7879b53e87da1bd558aceb4", "lon": -77.04679116666667, "rental_uris": {"ios": "https://dc.lft.to/lastmile_qr_scan", "android": "https://dc.lft.to/lastmile_qr_scan"}}, {"name": "e30d2c206d79697fc53eed23772312b8", "fusion_lat": 0.0, "type": "electric_scooter", "lat": 38.89876116666667, "is_reserved": 0, "is_disabled": 0, "fusion_lon": 0.0, "bike_id": "e30d2c206d79697fc53eed23772312b8", "lon": -76.93158783333334, "rental_uris": {"ios": "https://dc.lft.to/lastmile_qr_scan", "android": "https://dc.lft.to/lastmile_qr_scan"}}, {"name": "e6c5b70d57425b67577a8e36b9e1b600", "fusion_lat": 0.0, "type": "electric_scooter", "lat": 38.92534233333333, "is_reserved": 0, "is_disabled": 0, "fusion_lon": 0.0, "bike_id": "e6c5b70d57425b67577a8e36b9e1b600", "lon": -77.05546516666666, "rental_uris": {"ios": "https://dc.lft.to/lastmile_qr_scan", "android": "https://dc.lft.to/lastmile_qr_scan"}}, {"name": "ffc475aed607c669d121f9b6bdc6d22b", "fusion_lat": 0.0, "type": "electric_scooter", "lat": 38.8570875, "is_reserved": 0, "is_disabled": 0, "fusion_lon": 0.0, "bike_id": "ffc475aed607c669d121f9b6bdc6d22b", "lon": -76.98129066666667, "rental_uris": {"ios": "https://dc.lft.to/lastmile_qr_scan", "android": "https://dc.lft.to/lastmile_qr_scan"}}, {"name": "351b601c35c8fc547d767bdbb529ae44", "fusion_lat": 0.0, "type": "electric_scooter", "lat": 38.908397, "is_reserved": 0, "is_disabled": 0, "fusion_lon": 0.0, "bike_id": "351b601c35c8fc547d767bdbb529ae44", "lon": -76.99706866666666, "rental_uris": {"ios": "https://dc.lft.to/lastmile_qr_scan", "android": "https://dc.lft.to/lastmile_qr_scan"}}, {"name": "da5976fbe7cca89824863fb88730d799", "fusion_lat": 0.0, "type": "electric_scooter", "lat": 38.9027745, "is_reserved": 0, "is_disabled": 0, "fusion_lon": 0.0, "bike_id": "da5976fbe7cca89824863fb88730d799", "lon": -77.03422616666667, "rental_uris": {"ios": "https://dc.lft.to/lastmile_qr_scan", "android": "https://dc.lft.to/lastmile_qr_scan"}}, {"name": "10bbaff0d27ae8842eab667d1721cb2d", "fusion_lat": 0.0, "type": "electric_scooter", "lat": 38.90339683333333, "is_reserved": 0, "is_disabled": 0, "fusion_lon": 0.0, "bike_id": "10bbaff0d27ae8842eab667d1721cb2d", "lon": -77.06569716666667, "rental_uris": {"ios": "https://dc.lft.to/lastmile_qr_scan", "android": "https://dc.lft.to/lastmile_qr_scan"}}, {"name": "38658d36ef32e32c27c40568eacbbb65", "fusion_lat": 0.0, "type": "electric_scooter", "lat": 38.890483833333334, "is_reserved": 0, "is_disabled": 0, "fusion_lon": 0.0, "bike_id": "38658d36ef32e32c27c40568eacbbb65", "lon": -76.93747966666666, "rental_uris": {"ios": "https://dc.lft.to/lastmile_qr_scan", "android": "https://dc.lft.to/lastmile_qr_scan"}}, {"name": "5187ae681c3e91eecb4bd679560ba56f", "fusion_lat": 0.0, "type": "electric_bike", "lat": 38.83813266666667, "is_reserved": 0, "is_disabled": 0, "fusion_lon": 0.0, "bike_id": "5187ae681c3e91eecb4bd679560ba56f", "lon": -77.0952405, "rental_uris": {"ios": "https://dc.lft.to/lastmile_qr_scan", "android": "https://dc.lft.to/lastmile_qr_scan"}}, {"name": "f64a5acddf18118d74c6c0fa59f4273c", "fusion_lat": 0.0, "type": "electric_scooter", "lat": 38.93972866666667, "is_reserved": 0, "is_disabled": 0, "fusion_lon": 0.0, "bike_id": "f64a5acddf18118d74c6c0fa59f4273c", "lon": -77.0355625, "rental_uris": {"ios": "https://dc.lft.to/lastmile_qr_scan", "android": "https://dc.lft.to/lastmile_qr_scan"}}, {"name": "2034eb5784db455fa7c23348f3a97704", "fusion_lat": 0.0, "type": "electric_scooter", "lat": 38.887462666666664, "is_reserved": 0, "is_disabled": 0, "fusion_lon": 0.0, "bike_id": "2034eb5784db455fa7c23348f3a97704", "lon": -77.02134316666667, "rental_uris": {"ios": "https://dc.lft.to/lastmile_qr_scan", "android": "https://dc.lft.to/lastmile_qr_scan"}}, {"name": "b814c9145c1cc1fe3fa66d3ca56e385a", "fusion_lat": 0.0, "type": "electric_scooter", "lat": 38.905652833333335, "is_reserved": 0, "is_disabled": 0, "fusion_lon": 0.0, "bike_id": "b814c9145c1cc1fe3fa66d3ca56e385a", "lon": -77.03415916666667, "rental_uris": {"ios": "https://dc.lft.to/lastmile_qr_scan", "android": "https://dc.lft.to/lastmile_qr_scan"}}, {"name": "8014a5367a9683b6101371d51206545f", "fusion_lat": 0.0, "type": "electric_scooter", "lat": 38.87759466666667, "is_reserved": 0, "is_disabled": 0, "fusion_lon": 0.0, "bike_id": "8014a5367a9683b6101371d51206545f", "lon": -77.0199725, "rental_uris": {"ios": "https://dc.lft.to/lastmile_qr_scan", "android": "https://dc.lft.to/lastmile_qr_scan"}}, {"name": "039ea7046b7f5b59e761aa5b845050cb", "fusion_lat": 0.0, "type": "electric_scooter", "lat": 38.93401583333333, "is_reserved": 0, "is_disabled": 0, "fusion_lon": 0.0, "bike_id": "039ea7046b7f5b59e761aa5b845050cb", "lon": -77.03521416666666, "rental_uris": {"ios": "https://dc.lft.to/lastmile_qr_scan", "android": "https://dc.lft.to/lastmile_qr_scan"}}, {"name": "032affb8b993566e8df655607c120046", "fusion_lat": 0.0, "type": "electric_scooter", "lat": 38.8922625, "is_reserved": 0, "is_disabled": 0, "fusion_lon": 0.0, "bike_id": "032affb8b993566e8df655607c120046", "lon": -77.050043, "rental_uris": {"ios": "https://dc.lft.to/lastmile_qr_scan", "android": "https://dc.lft.to/lastmile_qr_scan"}}, {"name": "66672f9fdbd2925388c6af179e51a0cd", "fusion_lat": 0.0, "type": "electric_scooter", "lat": 38.926898, "is_reserved": 0, "is_disabled": 0, "fusion_lon": 0.0, "bike_id": "66672f9fdbd2925388c6af179e51a0cd", "lon": -77.023021, "rental_uris": {"ios": "https://dc.lft.to/lastmile_qr_scan", "android": "https://dc.lft.to/lastmile_qr_scan"}}, {"name": "333380532d0dbd67c4675c9b44ce7fc2", "fusion_lat": 0.0, "type": "electric_scooter", "lat": 38.88051516666667, "is_reserved": 0, "is_disabled": 0, "fusion_lon": 0.0, "bike_id": "333380532d0dbd67c4675c9b44ce7fc2", "lon": -77.00471116666667, "rental_uris": {"ios": "https://dc.lft.to/lastmile_qr_scan", "android": "https://dc.lft.to/lastmile_qr_scan"}}, {"name": "7c0cdc23bfe3b747ddff2b7079c5a0c3", "fusion_lat": 0.0, "type": "electric_scooter", "lat": 38.91812616666667, "is_reserved": 0, "is_disabled": 0, "fusion_lon": 0.0, "bike_id": "7c0cdc23bfe3b747ddff2b7079c5a0c3", "lon": -77.04005283333333, "rental_uris": {"ios": "https://dc.lft.to/lastmile_qr_scan", "android": "https://dc.lft.to/lastmile_qr_scan"}}, {"name": "8ad8e3e513a919d0aa57c7691df6f612", "fusion_lat": 0.0, "type": "electric_scooter", "lat": 38.916984, "is_reserved": 0, "is_disabled": 0, "fusion_lon": 0.0, "bike_id": "8ad8e3e513a919d0aa57c7691df6f612", "lon": -77.01257733333334, "rental_uris": {"ios": "https://dc.lft.to/lastmile_qr_scan", "android": "https://dc.lft.to/lastmile_qr_scan"}}, {"name": "990c96842a0d8688015e6cd28d29cbd5", "fusion_lat": 0.0, "type": "electric_scooter", "lat": 38.94558766666667, "is_reserved": 0, "is_disabled": 0, "fusion_lon": 0.0, "bike_id": "990c96842a0d8688015e6cd28d29cbd5", "lon": -77.0777195, "rental_uris": {"ios": "https://dc.lft.to/lastmile_qr_scan", "android": "https://dc.lft.to/lastmile_qr_scan"}}, {"name": "ea87037a7102d29f64502bf862feb851", "fusion_lat": 0.0, "type": "electric_scooter", "lat": 38.9160395, "is_reserved": 0, "is_disabled": 0, "fusion_lon": 0.0, "bike_id": "ea87037a7102d29f64502bf862feb851", "lon": -77.03176916666666, "rental_uris": {"ios": "https://dc.lft.to/lastmile_qr_scan", "android": "https://dc.lft.to/lastmile_qr_scan"}}, {"name": "2a97848bb11da3405a92bb68cda7aaa1", "fusion_lat": 0.0, "type": "electric_scooter", "lat": 38.92383683333333, "is_reserved": 0, "is_disabled": 0, "fusion_lon": 0.0, "bike_id": "2a97848bb11da3405a92bb68cda7aaa1", "lon": -77.0410805, "rental_uris": {"ios": "https://dc.lft.to/lastmile_qr_scan", "android": "https://dc.lft.to/lastmile_qr_scan"}}, {"name": "6ae389fd7632dd096d62db74845220b3", "fusion_lat": 0.0, "type": "electric_scooter", "lat": 38.90280716666667, "is_reserved": 0, "is_disabled": 0, "fusion_lon": 0.0, "bike_id": "6ae389fd7632dd096d62db74845220b3", "lon": -77.0627965, "rental_uris": {"ios": "https://dc.lft.to/lastmile_qr_scan", "android": "https://dc.lft.to/lastmile_qr_scan"}}, {"name": "748467d0563bdc1aa1fb845ca87b06c3", "fusion_lat": 0.0, "type": "electric_scooter", "lat": 38.89361516666666, "is_reserved": 0, "is_disabled": 0, "fusion_lon": 0.0, "bike_id": "748467d0563bdc1aa1fb845ca87b06c3", "lon": -77.0033395, "rental_uris": {"ios": "https://dc.lft.to/lastmile_qr_scan", "android": "https://dc.lft.to/lastmile_qr_scan"}}, {"name": "4360dd7cc28c62f1271acc1da4d52876", "fusion_lat": 0.0, "type": "electric_scooter", "lat": 38.90040066666667, "is_reserved": 0, "is_disabled": 0, "fusion_lon": 0.0, "bike_id": "4360dd7cc28c62f1271acc1da4d52876", "lon": -77.0018965, "rental_uris": {"ios": "https://dc.lft.to/lastmile_qr_scan", "android": "https://dc.lft.to/lastmile_qr_scan"}}, {"name": "317f004ff1c07cd33eb9c8e512b83934", "fusion_lat": 0.0, "type": "electric_scooter", "lat": 38.93561666666667, "is_reserved": 0, "is_disabled": 0, "fusion_lon": 0.0, "bike_id": "317f004ff1c07cd33eb9c8e512b83934", "lon": -77.03256366666666, "rental_uris": {"ios": "https://dc.lft.to/lastmile_qr_scan", "android": "https://dc.lft.to/lastmile_qr_scan"}}, {"name": "9bc18cde489b41b19f049ceb86106f57", "fusion_lat": 0.0, "type": "electric_scooter", "lat": 38.86963883333333, "is_reserved": 0, "is_disabled": 0, "fusion_lon": 0.0, "bike_id": "9bc18cde489b41b19f049ceb86106f57", "lon": -77.0137475, "rental_uris": {"ios": "https://dc.lft.to/lastmile_qr_scan", "android": "https://dc.lft.to/lastmile_qr_scan"}}, {"name": "f958dbc34ccdba2a13d76210a8c63408", "fusion_lat": 0.0, "type": "electric_scooter", "lat": 38.89465583333333, "is_reserved": 0, "is_disabled": 0, "fusion_lon": 0.0, "bike_id": "f958dbc34ccdba2a13d76210a8c63408", "lon": -77.03049966666667, "rental_uris": {"ios": "https://dc.lft.to/lastmile_qr_scan", "android": "https://dc.lft.to/lastmile_qr_scan"}}, {"name": "978b50ec1785fb51d5b8df90007fe773", "fusion_lat": 0.0, "type": "electric_scooter", "lat": 38.923437166666666, "is_reserved": 0, "is_disabled": 0, "fusion_lon": 0.0, "bike_id": "978b50ec1785fb51d5b8df90007fe773", "lon": -77.05013466666666, "rental_uris": {"ios": "https://dc.lft.to/lastmile_qr_scan", "android": "https://dc.lft.to/lastmile_qr_scan"}}, {"name": "22a5f908806d730626722eac1cb1b120", "fusion_lat": 0.0, "type": "electric_scooter", "lat": 38.8650885, "is_reserved": 0, "is_disabled": 0, "fusion_lon": 0.0, "bike_id": "22a5f908806d730626722eac1cb1b120", "lon": -76.99003366666666, "rental_uris": {"ios": "https://dc.lft.to/lastmile_qr_scan", "android": "https://dc.lft.to/lastmile_qr_scan"}}, {"name": "e4014dcb5208cfb74a4b01a9e3f8789e", "fusion_lat": 0.0, "type": "electric_scooter", "lat": 38.930999166666666, "is_reserved": 0, "is_disabled": 0, "fusion_lon": 0.0, "bike_id": "e4014dcb5208cfb74a4b01a9e3f8789e", "lon": -77.02474483333333, "rental_uris": {"ios": "https://dc.lft.to/lastmile_qr_scan", "android": "https://dc.lft.to/lastmile_qr_scan"}}, {"name": "d77fbc71013d8d2bf6f29bc8987930ec", "fusion_lat": 0.0, "type": "electric_scooter", "lat": 38.902655, "is_reserved": 0, "is_disabled": 0, "fusion_lon": 0.0, "bike_id": "d77fbc71013d8d2bf6f29bc8987930ec", "lon": -77.0093125, "rental_uris": {"ios": "https://dc.lft.to/lastmile_qr_scan", "android": "https://dc.lft.to/lastmile_qr_scan"}}, {"name": "a7ec91707a0721dbf1e108f8857c2f40", "fusion_lat": 0.0, "type": "electric_scooter", "lat": 38.91128366666667, "is_reserved": 0, "is_disabled": 0, "fusion_lon": 0.0, "bike_id": "a7ec91707a0721dbf1e108f8857c2f40", "lon": -77.02200483333333, "rental_uris": {"ios": "https://dc.lft.to/lastmile_qr_scan", "android": "https://dc.lft.to/lastmile_qr_scan"}}, {"name": "38046e029bd00e0b5406388fb9baa4cd", "fusion_lat": 0.0, "type": "electric_scooter", "lat": 38.902135, "is_reserved": 0, "is_disabled": 0, "fusion_lon": 0.0, "bike_id": "38046e029bd00e0b5406388fb9baa4cd", "lon": -77.05026866666667, "rental_uris": {"ios": "https://dc.lft.to/lastmile_qr_scan", "android": "https://dc.lft.to/lastmile_qr_scan"}}, {"name": "e6ca8312d8a3d2076c826de107d2a5a9", "fusion_lat": 0.0, "type": "electric_scooter", "lat": 38.876575833333334, "is_reserved": 0, "is_disabled": 0, "fusion_lon": 0.0, "bike_id": "e6ca8312d8a3d2076c826de107d2a5a9", "lon": -77.01570716666667, "rental_uris": {"ios": "https://dc.lft.to/lastmile_qr_scan", "android": "https://dc.lft.to/lastmile_qr_scan"}}, {"name": "5fc8d7b1c1ca9abf78e198963e741783", "fusion_lat": 0.0, "type": "electric_scooter", "lat": 38.897563, "is_reserved": 0, "is_disabled": 0, "fusion_lon": 0.0, "bike_id": "5fc8d7b1c1ca9abf78e198963e741783", "lon": -77.019723, "rental_uris": {"ios": "https://dc.lft.to/lastmile_qr_scan", "android": "https://dc.lft.to/lastmile_qr_scan"}}, {"name": "911a0d414f82284e29b5c0e90b5e11cb", "fusion_lat": 0.0, "type": "electric_scooter", "lat": 38.91295916666667, "is_reserved": 0, "is_disabled": 0, "fusion_lon": 0.0, "bike_id": "911a0d414f82284e29b5c0e90b5e11cb", "lon": -77.06112483333334, "rental_uris": {"ios": "https://dc.lft.to/lastmile_qr_scan", "android": "https://dc.lft.to/lastmile_qr_scan"}}, {"name": "1cc305a358df91f9b3c031f58692e1ca", "fusion_lat": 0.0, "type": "electric_scooter", "lat": 38.898854166666666, "is_reserved": 0, "is_disabled": 0, "fusion_lon": 0.0, "bike_id": "1cc305a358df91f9b3c031f58692e1ca", "lon": -77.02002083333333, "rental_uris": {"ios": "https://dc.lft.to/lastmile_qr_scan", "android": "https://dc.lft.to/lastmile_qr_scan"}}, {"name": "404862c92a96ff064d61ee521c87acb3", "fusion_lat": 0.0, "type": "electric_scooter", "lat": 38.905157833333334, "is_reserved": 0, "is_disabled": 0, "fusion_lon": 0.0, "bike_id": "404862c92a96ff064d61ee521c87acb3", "lon": -77.05119883333333, "rental_uris": {"ios": "https://dc.lft.to/lastmile_qr_scan", "android": "https://dc.lft.to/lastmile_qr_scan"}}, {"name": "ecd4b285ee3c2bd909778eed8ac5aec1", "fusion_lat": 0.0, "type": "electric_scooter", "lat": 38.907306166666665, "is_reserved": 0, "is_disabled": 0, "fusion_lon": 0.0, "bike_id": "ecd4b285ee3c2bd909778eed8ac5aec1", "lon": -77.01067316666666, "rental_uris": {"ios": "https://dc.lft.to/lastmile_qr_scan", "android": "https://dc.lft.to/lastmile_qr_scan"}}, {"name": "f1430e40a0fde3878e7692ceebd2adf1", "fusion_lat": 0.0, "type": "electric_scooter", "lat": 38.9426255, "is_reserved": 0, "is_disabled": 0, "fusion_lon": 0.0, "bike_id": "f1430e40a0fde3878e7692ceebd2adf1", "lon": -77.0413455, "rental_uris": {"ios": "https://dc.lft.to/lastmile_qr_scan", "android": "https://dc.lft.to/lastmile_qr_scan"}}, {"name": "3af776b8c0b808ba3ba002badb34ea0a", "fusion_lat": 0.0, "type": "electric_scooter", "lat": 38.901512833333335, "is_reserved": 0, "is_disabled": 0, "fusion_lon": 0.0, "bike_id": "3af776b8c0b808ba3ba002badb34ea0a", "lon": -76.97422833333333, "rental_uris": {"ios": "https://dc.lft.to/lastmile_qr_scan", "android": "https://dc.lft.to/lastmile_qr_scan"}}, {"name": "d4b82ee9d7cdfe5d47409e7668075b04", "fusion_lat": 0.0, "type": "electric_scooter", "lat": 38.907732333333335, "is_reserved": 0, "is_disabled": 0, "fusion_lon": 0.0, "bike_id": "d4b82ee9d7cdfe5d47409e7668075b04", "lon": -77.038384, "rental_uris": {"ios": "https://dc.lft.to/lastmile_qr_scan", "android": "https://dc.lft.to/lastmile_qr_scan"}}, {"name": "41581bab2d5a95be8d64bddb164d6631", "fusion_lat": 0.0, "type": "electric_scooter", "lat": 38.937386333333336, "is_reserved": 0, "is_disabled": 0, "fusion_lon": 0.0, "bike_id": "41581bab2d5a95be8d64bddb164d6631", "lon": -77.03271183333334, "rental_uris": {"ios": "https://dc.lft.to/lastmile_qr_scan", "android": "https://dc.lft.to/lastmile_qr_scan"}}, {"name": "4387704744d699aeb46cd86bd7b3edb7", "fusion_lat": 0.0, "type": "electric_scooter", "lat": 38.882748, "is_reserved": 0, "is_disabled": 0, "fusion_lon": 0.0, "bike_id": "4387704744d699aeb46cd86bd7b3edb7", "lon": -76.98838566666667, "rental_uris": {"ios": "https://dc.lft.to/lastmile_qr_scan", "android": "https://dc.lft.to/lastmile_qr_scan"}}, {"name": "e3a4c1d32eed5267ddbb68ac52043128", "fusion_lat": 0.0, "type": "electric_scooter", "lat": 38.8625045, "is_reserved": 0, "is_disabled": 0, "fusion_lon": 0.0, "bike_id": "e3a4c1d32eed5267ddbb68ac52043128", "lon": -76.99528166666667, "rental_uris": {"ios": "https://dc.lft.to/lastmile_qr_scan", "android": "https://dc.lft.to/lastmile_qr_scan"}}, {"name": "261ce85fd445f1d42cb38659fec89b6f", "fusion_lat": 0.0, "type": "electric_scooter", "lat": 38.963874, "is_reserved": 0, "is_disabled": 0, "fusion_lon": 0.0, "bike_id": "261ce85fd445f1d42cb38659fec89b6f", "lon": -77.03506233333333, "rental_uris": {"ios": "https://dc.lft.to/lastmile_qr_scan", "android": "https://dc.lft.to/lastmile_qr_scan"}}, {"name": "bef26331d1ca44780719f2a8c0e97554", "fusion_lat": 0.0, "type": "electric_bike", "lat": 38.9661915, "is_reserved": 0, "is_disabled": 0, "fusion_lon": 0.0, "bike_id": "bef26331d1ca44780719f2a8c0e97554", "lon": -76.9441945, "rental_uris": {"ios": "https://dc.lft.to/lastmile_qr_scan", "android": "https://dc.lft.to/lastmile_qr_scan"}}, {"name": "5e1931f7a2b96dafc62ac22763c95174", "fusion_lat": 0.0, "type": "electric_scooter", "lat": 38.93525366666667, "is_reserved": 0, "is_disabled": 0, "fusion_lon": 0.0, "bike_id": "5e1931f7a2b96dafc62ac22763c95174", "lon": -77.032618, "rental_uris": {"ios": "https://dc.lft.to/lastmile_qr_scan", "android": "https://dc.lft.to/lastmile_qr_scan"}}, {"name": "bcfa2d4dcc460f080a1428bd6e605ad7", "fusion_lat": 0.0, "type": "electric_scooter", "lat": 38.900296, "is_reserved": 0, "is_disabled": 0, "fusion_lon": 0.0, "bike_id": "bcfa2d4dcc460f080a1428bd6e605ad7", "lon": -77.011778, "rental_uris": {"ios": "https://dc.lft.to/lastmile_qr_scan", "android": "https://dc.lft.to/lastmile_qr_scan"}}, {"name": "9f2623cd0f2aa42afe1516a6ee38dbf9", "fusion_lat": 0.0, "type": "electric_scooter", "lat": 38.92270116666667, "is_reserved": 0, "is_disabled": 0, "fusion_lon": 0.0, "bike_id": "9f2623cd0f2aa42afe1516a6ee38dbf9", "lon": -77.03403966666667, "rental_uris": {"ios": "https://dc.lft.to/lastmile_qr_scan", "android": "https://dc.lft.to/lastmile_qr_scan"}}, {"name": "0b3dc685cc4c4d118153015af75be83e", "fusion_lat": 0.0, "type": "electric_bike", "lat": 39.024258833333334, "is_reserved": 0, "is_disabled": 0, "fusion_lon": 0.0, "bike_id": "0b3dc685cc4c4d118153015af75be83e", "lon": -77.12501416666667, "rental_uris": {"ios": "https://dc.lft.to/lastmile_qr_scan", "android": "https://dc.lft.to/lastmile_qr_scan"}}, {"name": "a8d455c7c9846f2416db4131d641220f", "fusion_lat": 0.0, "type": "electric_scooter", "lat": 38.912349666666664, "is_reserved": 0, "is_disabled": 0, "fusion_lon": 0.0, "bike_id": "a8d455c7c9846f2416db4131d641220f", "lon": -77.05110433333333, "rental_uris": {"ios": "https://dc.lft.to/lastmile_qr_scan", "android": "https://dc.lft.to/lastmile_qr_scan"}}, {"name": "2b76a2a20424ba35bbad59393b0c982b", "fusion_lat": 0.0, "type": "electric_scooter", "lat": 38.906079, "is_reserved": 0, "is_disabled": 0, "fusion_lon": 0.0, "bike_id": "2b76a2a20424ba35bbad59393b0c982b", "lon": -77.05619133333333, "rental_uris": {"ios": "https://dc.lft.to/lastmile_qr_scan", "android": "https://dc.lft.to/lastmile_qr_scan"}}, {"name": "56a7470daf390f3fbe9d1c4792e82af1", "fusion_lat": 0.0, "type": "electric_scooter", "lat": 38.9431995, "is_reserved": 0, "is_disabled": 0, "fusion_lon": 0.0, "bike_id": "56a7470daf390f3fbe9d1c4792e82af1", "lon": -77.02479166666667, "rental_uris": {"ios": "https://dc.lft.to/lastmile_qr_scan", "android": "https://dc.lft.to/lastmile_qr_scan"}}, {"name": "093d52926e4b72c2dccee024a19affb5", "fusion_lat": 0.0, "type": "electric_scooter", "lat": 38.91261083333333, "is_reserved": 0, "is_disabled": 0, "fusion_lon": 0.0, "bike_id": "093d52926e4b72c2dccee024a19affb5", "lon": -77.03862733333334, "rental_uris": {"ios": "https://dc.lft.to/lastmile_qr_scan", "android": "https://dc.lft.to/lastmile_qr_scan"}}, {"name": "6a7491b3d9aaf4a5a8df2b70cee6b901", "fusion_lat": 0.0, "type": "electric_scooter", "lat": 38.862468666666665, "is_reserved": 0, "is_disabled": 0, "fusion_lon": 0.0, "bike_id": "6a7491b3d9aaf4a5a8df2b70cee6b901", "lon": -76.99496333333333, "rental_uris": {"ios": "https://dc.lft.to/lastmile_qr_scan", "android": "https://dc.lft.to/lastmile_qr_scan"}}, {"name": "b3b6daf599892b735e59a281afcfc2e6", "fusion_lat": 0.0, "type": "electric_scooter", "lat": 38.929825666666666, "is_reserved": 0, "is_disabled": 0, "fusion_lon": 0.0, "bike_id": "b3b6daf599892b735e59a281afcfc2e6", "lon": -77.0144825, "rental_uris": {"ios": "https://dc.lft.to/lastmile_qr_scan", "android": "https://dc.lft.to/lastmile_qr_scan"}}, {"name": "4b181a2f2f198ea2ed2f23758f39ff71", "fusion_lat": 0.0, "type": "electric_scooter", "lat": 38.891783833333335, "is_reserved": 0, "is_disabled": 0, "fusion_lon": 0.0, "bike_id": "4b181a2f2f198ea2ed2f23758f39ff71", "lon": -77.01564616666667, "rental_uris": {"ios": "https://dc.lft.to/lastmile_qr_scan", "android": "https://dc.lft.to/lastmile_qr_scan"}}, {"name": "ad1a9d606004bdce4cac30bba436ce65", "fusion_lat": 0.0, "type": "electric_bike", "lat": 38.839847, "is_reserved": 0, "is_disabled": 0, "fusion_lon": 0.0, "bike_id": "ad1a9d606004bdce4cac30bba436ce65", "lon": -77.00567216666667, "rental_uris": {"ios": "https://dc.lft.to/lastmile_qr_scan", "android": "https://dc.lft.to/lastmile_qr_scan"}}, {"name": "826d1b6dcce9c388fcc57234842b18b0", "fusion_lat": 0.0, "type": "electric_bike", "lat": 38.887561, "is_reserved": 0, "is_disabled": 0, "fusion_lon": 0.0, "bike_id": "826d1b6dcce9c388fcc57234842b18b0", "lon": -76.9008095, "rental_uris": {"ios": "https://dc.lft.to/lastmile_qr_scan", "android": "https://dc.lft.to/lastmile_qr_scan"}}, {"name": "b6f3911db8396252cd47b9ddc486ebf8", "fusion_lat": 0.0, "type": "electric_scooter", "lat": 38.900837833333334, "is_reserved": 0, "is_disabled": 0, "fusion_lon": 0.0, "bike_id": "b6f3911db8396252cd47b9ddc486ebf8", "lon": -77.05015066666667, "rental_uris": {"ios": "https://dc.lft.to/lastmile_qr_scan", "android": "https://dc.lft.to/lastmile_qr_scan"}}, {"name": "30a0378c1a073561907a277279822473", "fusion_lat": 0.0, "type": "electric_scooter", "lat": 38.91252733333334, "is_reserved": 0, "is_disabled": 0, "fusion_lon": 0.0, "bike_id": "30a0378c1a073561907a277279822473", "lon": -77.03835866666667, "rental_uris": {"ios": "https://dc.lft.to/lastmile_qr_scan", "android": "https://dc.lft.to/lastmile_qr_scan"}}, {"name": "6eaffa12502897fc48dc4acf7f820b13", "fusion_lat": 0.0, "type": "electric_scooter", "lat": 38.862504333333334, "is_reserved": 0, "is_disabled": 0, "fusion_lon": 0.0, "bike_id": "6eaffa12502897fc48dc4acf7f820b13", "lon": -76.99531283333333, "rental_uris": {"ios": "https://dc.lft.to/lastmile_qr_scan", "android": "https://dc.lft.to/lastmile_qr_scan"}}, {"name": "4fe2731fe168a75fb5de7ef943670818", "fusion_lat": 0.0, "type": "electric_scooter", "lat": 38.886021166666666, "is_reserved": 0, "is_disabled": 0, "fusion_lon": 0.0, "bike_id": "4fe2731fe168a75fb5de7ef943670818", "lon": -77.02200316666666, "rental_uris": {"ios": "https://dc.lft.to/lastmile_qr_scan", "android": "https://dc.lft.to/lastmile_qr_scan"}}, {"name": "5b268d40727720fe0afa1ce916c2ec11", "fusion_lat": 0.0, "type": "electric_scooter", "lat": 38.924501166666666, "is_reserved": 0, "is_disabled": 0, "fusion_lon": 0.0, "bike_id": "5b268d40727720fe0afa1ce916c2ec11", "lon": -77.039618, "rental_uris": {"ios": "https://dc.lft.to/lastmile_qr_scan", "android": "https://dc.lft.to/lastmile_qr_scan"}}, {"name": "0cac260e57d1a3988cf72553e2ae7c19", "fusion_lat": 0.0, "type": "electric_bike", "lat": 38.9999595, "is_reserved": 0, "is_disabled": 0, "fusion_lon": 0.0, "bike_id": "0cac260e57d1a3988cf72553e2ae7c19", "lon": -77.08003833333333, "rental_uris": {"ios": "https://dc.lft.to/lastmile_qr_scan", "android": "https://dc.lft.to/lastmile_qr_scan"}}, {"name": "d388299acbfc425e715ee7b615a0ff90", "fusion_lat": 0.0, "type": "electric_scooter", "lat": 38.876572333333336, "is_reserved": 0, "is_disabled": 0, "fusion_lon": 0.0, "bike_id": "d388299acbfc425e715ee7b615a0ff90", "lon": -77.0074985, "rental_uris": {"ios": "https://dc.lft.to/lastmile_qr_scan", "android": "https://dc.lft.to/lastmile_qr_scan"}}, {"name": "4a53a9a47d8c9b6dda6be9aefa80a1f3", "fusion_lat": 0.0, "type": "electric_bike", "lat": 38.862815, "is_reserved": 0, "is_disabled": 0, "fusion_lon": 0.0, "bike_id": "4a53a9a47d8c9b6dda6be9aefa80a1f3", "lon": -77.05949483333333, "rental_uris": {"ios": "https://dc.lft.to/lastmile_qr_scan", "android": "https://dc.lft.to/lastmile_qr_scan"}}, {"name": "fe70a6b7061d0dce876faab020817857", "fusion_lat": 0.0, "type": "electric_scooter", "lat": 38.88504833333333, "is_reserved": 0, "is_disabled": 0, "fusion_lon": 0.0, "bike_id": "fe70a6b7061d0dce876faab020817857", "lon": -77.0056725, "rental_uris": {"ios": "https://dc.lft.to/lastmile_qr_scan", "android": "https://dc.lft.to/lastmile_qr_scan"}}, {"name": "34b24ebad20183ec3788247d3ebf7b2e", "fusion_lat": 0.0, "type": "electric_bike", "lat": 38.88663866666667, "is_reserved": 0, "is_disabled": 0, "fusion_lon": 0.0, "bike_id": "34b24ebad20183ec3788247d3ebf7b2e", "lon": -77.16227433333333, "rental_uris": {"ios": "https://dc.lft.to/lastmile_qr_scan", "android": "https://dc.lft.to/lastmile_qr_scan"}}, {"name": "db76e9af73c88b700d4a87d039b0adfc", "fusion_lat": 0.0, "type": "electric_scooter", "lat": 38.89531816666667, "is_reserved": 0, "is_disabled": 0, "fusion_lon": 0.0, "bike_id": "db76e9af73c88b700d4a87d039b0adfc", "lon": -76.9492985, "rental_uris": {"ios": "https://dc.lft.to/lastmile_qr_scan", "android": "https://dc.lft.to/lastmile_qr_scan"}}, {"name": "e987ddb7614a0d2a38a2c7dddda46366", "fusion_lat": 0.0, "type": "electric_scooter", "lat": 38.876496333333336, "is_reserved": 0, "is_disabled": 0, "fusion_lon": 0.0, "bike_id": "e987ddb7614a0d2a38a2c7dddda46366", "lon": -76.96502616666666, "rental_uris": {"ios": "https://dc.lft.to/lastmile_qr_scan", "android": "https://dc.lft.to/lastmile_qr_scan"}}, {"name": "4dc82126dba9fee4e41861f070cc16fd", "fusion_lat": 0.0, "type": "electric_scooter", "lat": 38.921656166666665, "is_reserved": 0, "is_disabled": 0, "fusion_lon": 0.0, "bike_id": "4dc82126dba9fee4e41861f070cc16fd", "lon": -77.03843833333333, "rental_uris": {"ios": "https://dc.lft.to/lastmile_qr_scan", "android": "https://dc.lft.to/lastmile_qr_scan"}}, {"name": "2c68854dc14345cf61c9f97b40f21852", "fusion_lat": 0.0, "type": "electric_scooter", "lat": 38.8973405, "is_reserved": 0, "is_disabled": 0, "fusion_lon": 0.0, "bike_id": "2c68854dc14345cf61c9f97b40f21852", "lon": -77.04646966666667, "rental_uris": {"ios": "https://dc.lft.to/lastmile_qr_scan", "android": "https://dc.lft.to/lastmile_qr_scan"}}, {"name": "cb869a444221819e1f05c943b64dc31d", "fusion_lat": 0.0, "type": "electric_scooter", "lat": 38.911914833333334, "is_reserved": 0, "is_disabled": 0, "fusion_lon": 0.0, "bike_id": "cb869a444221819e1f05c943b64dc31d", "lon": -77.0449665, "rental_uris": {"ios": "https://dc.lft.to/lastmile_qr_scan", "android": "https://dc.lft.to/lastmile_qr_scan"}}, {"name": "0b6f5998e9b7175a6e51798988b71614", "fusion_lat": 0.0, "type": "electric_scooter", "lat": 38.905748333333335, "is_reserved": 0, "is_disabled": 0, "fusion_lon": 0.0, "bike_id": "0b6f5998e9b7175a6e51798988b71614", "lon": -77.01421533333334, "rental_uris": {"ios": "https://dc.lft.to/lastmile_qr_scan", "android": "https://dc.lft.to/lastmile_qr_scan"}}, {"name": "c70b00a5f9b31d466cab5d4d5b46b3c3", "fusion_lat": 0.0, "type": "electric_bike", "lat": 39.10567183333333, "is_reserved": 0, "is_disabled": 0, "fusion_lon": 0.0, "bike_id": "c70b00a5f9b31d466cab5d4d5b46b3c3", "lon": -77.15266233333334, "rental_uris": {"ios": "https://dc.lft.to/lastmile_qr_scan", "android": "https://dc.lft.to/lastmile_qr_scan"}}, {"name": "382d7b271b381d8e6302adbaa9a21bda", "fusion_lat": 0.0, "type": "electric_scooter", "lat": 38.8960435, "is_reserved": 0, "is_disabled": 0, "fusion_lon": 0.0, "bike_id": "382d7b271b381d8e6302adbaa9a21bda", "lon": -77.04118833333334, "rental_uris": {"ios": "https://dc.lft.to/lastmile_qr_scan", "android": "https://dc.lft.to/lastmile_qr_scan"}}, {"name": "143b2b51a8214ded8dc346e7e8768222", "fusion_lat": 0.0, "type": "electric_scooter", "lat": 38.89623533333334, "is_reserved": 0, "is_disabled": 0, "fusion_lon": 0.0, "bike_id": "143b2b51a8214ded8dc346e7e8768222", "lon": -77.023823, "rental_uris": {"ios": "https://dc.lft.to/lastmile_qr_scan", "android": "https://dc.lft.to/lastmile_qr_scan"}}, {"name": "eb1b394c6e3ccb5b0b244845efc6df57", "fusion_lat": 0.0, "type": "electric_scooter", "lat": 38.91258366666667, "is_reserved": 0, "is_disabled": 0, "fusion_lon": 0.0, "bike_id": "eb1b394c6e3ccb5b0b244845efc6df57", "lon": -77.00957283333334, "rental_uris": {"ios": "https://dc.lft.to/lastmile_qr_scan", "android": "https://dc.lft.to/lastmile_qr_scan"}}, {"name": "bdfab6e53ac99a171d9178b00b534228", "fusion_lat": 0.0, "type": "electric_bike", "lat": 38.893524166666666, "is_reserved": 0, "is_disabled": 0, "fusion_lon": 0.0, "bike_id": "bdfab6e53ac99a171d9178b00b534228", "lon": -77.18739366666667, "rental_uris": {"ios": "https://dc.lft.to/lastmile_qr_scan", "android": "https://dc.lft.to/lastmile_qr_scan"}}, {"name": "fcd106d969cf13e61d33b76ee1ba0681", "fusion_lat": 0.0, "type": "electric_bike", "lat": 38.88462216666667, "is_reserved": 0, "is_disabled": 0, "fusion_lon": 0.0, "bike_id": "fcd106d969cf13e61d33b76ee1ba0681", "lon": -77.10846833333333, "rental_uris": {"ios": "https://dc.lft.to/lastmile_qr_scan", "android": "https://dc.lft.to/lastmile_qr_scan"}}, {"name": "b26c17e7be3cc6c53abbf886aaca9701", "fusion_lat": 0.0, "type": "electric_scooter", "lat": 38.92867183333333, "is_reserved": 0, "is_disabled": 0, "fusion_lon": 0.0, "bike_id": "b26c17e7be3cc6c53abbf886aaca9701", "lon": -77.01387, "rental_uris": {"ios": "https://dc.lft.to/lastmile_qr_scan", "android": "https://dc.lft.to/lastmile_qr_scan"}}, {"name": "8a22974fd6b5e342d52f5f93e32d849c", "fusion_lat": 0.0, "type": "electric_scooter", "lat": 38.90282366666667, "is_reserved": 0, "is_disabled": 0, "fusion_lon": 0.0, "bike_id": "8a22974fd6b5e342d52f5f93e32d849c", "lon": -77.03645566666667, "rental_uris": {"ios": "https://dc.lft.to/lastmile_qr_scan", "android": "https://dc.lft.to/lastmile_qr_scan"}}, {"name": "3f844d2d5f57943dad439c46ad4a8671", "fusion_lat": 0.0, "type": "electric_scooter", "lat": 38.910369, "is_reserved": 0, "is_disabled": 0, "fusion_lon": 0.0, "bike_id": "3f844d2d5f57943dad439c46ad4a8671", "lon": -77.037954, "rental_uris": {"ios": "https://dc.lft.to/lastmile_qr_scan", "android": "https://dc.lft.to/lastmile_qr_scan"}}, {"name": "5f853af9497b2b131ffacbc814ab9ed9", "fusion_lat": 0.0, "type": "electric_scooter", "lat": 38.8918475, "is_reserved": 0, "is_disabled": 0, "fusion_lon": 0.0, "bike_id": "5f853af9497b2b131ffacbc814ab9ed9", "lon": -77.003321, "rental_uris": {"ios": "https://dc.lft.to/lastmile_qr_scan", "android": "https://dc.lft.to/lastmile_qr_scan"}}, {"name": "1b1e5888b3809371c8ef495ab8fa2214", "fusion_lat": 0.0, "type": "electric_scooter", "lat": 38.90666683333333, "is_reserved": 0, "is_disabled": 0, "fusion_lon": 0.0, "bike_id": "1b1e5888b3809371c8ef495ab8fa2214", "lon": -77.02713983333334, "rental_uris": {"ios": "https://dc.lft.to/lastmile_qr_scan", "android": "https://dc.lft.to/lastmile_qr_scan"}}, {"name": "f2e1ada4d719a5fabe3f0935954bacb8", "fusion_lat": 0.0, "type": "electric_bike", "lat": 38.96627133333333, "is_reserved": 0, "is_disabled": 0, "fusion_lon": 0.0, "bike_id": "f2e1ada4d719a5fabe3f0935954bacb8", "lon": -76.97667633333333, "rental_uris": {"ios": "https://dc.lft.to/lastmile_qr_scan", "android": "https://dc.lft.to/lastmile_qr_scan"}}, {"name": "40666990b17ad9bc3b9cfdb7459f5716", "fusion_lat": 0.0, "type": "electric_scooter", "lat": 38.919373, "is_reserved": 0, "is_disabled": 0, "fusion_lon": 0.0, "bike_id": "40666990b17ad9bc3b9cfdb7459f5716", "lon": -77.04176183333334, "rental_uris": {"ios": "https://dc.lft.to/lastmile_qr_scan", "android": "https://dc.lft.to/lastmile_qr_scan"}}, {"name": "fe3a15a52eaf961afc4f61cc4d2bdd28", "fusion_lat": 0.0, "type": "electric_scooter", "lat": 38.93455266666667, "is_reserved": 0, "is_disabled": 0, "fusion_lon": 0.0, "bike_id": "fe3a15a52eaf961afc4f61cc4d2bdd28", "lon": -77.03214116666666, "rental_uris": {"ios": "https://dc.lft.to/lastmile_qr_scan", "android": "https://dc.lft.to/lastmile_qr_scan"}}, {"name": "17998c41f05521504566ffef1e50e241", "fusion_lat": 0.0, "type": "electric_scooter", "lat": 38.88365233333333, "is_reserved": 0, "is_disabled": 0, "fusion_lon": 0.0, "bike_id": "17998c41f05521504566ffef1e50e241", "lon": -77.03172616666667, "rental_uris": {"ios": "https://dc.lft.to/lastmile_qr_scan", "android": "https://dc.lft.to/lastmile_qr_scan"}}, {"name": "a63a0b401a0bfb3f9f0164f49825a897", "fusion_lat": 0.0, "type": "electric_scooter", "lat": 38.895204, "is_reserved": 0, "is_disabled": 0, "fusion_lon": 0.0, "bike_id": "a63a0b401a0bfb3f9f0164f49825a897", "lon": -77.0257795, "rental_uris": {"ios": "https://dc.lft.to/lastmile_qr_scan", "android": "https://dc.lft.to/lastmile_qr_scan"}}, {"name": "357675d497c9d57f09964e2ba9b53d8b", "fusion_lat": 0.0, "type": "electric_scooter", "lat": 38.892015, "is_reserved": 0, "is_disabled": 0, "fusion_lon": 0.0, "bike_id": "357675d497c9d57f09964e2ba9b53d8b", "lon": -76.99202233333334, "rental_uris": {"ios": "https://dc.lft.to/lastmile_qr_scan", "android": "https://dc.lft.to/lastmile_qr_scan"}}, {"name": "c91d9c787f3ddaca9dc155107a19ece0", "fusion_lat": 0.0, "type": "electric_scooter", "lat": 38.858544333333334, "is_reserved": 0, "is_disabled": 0, "fusion_lon": 0.0, "bike_id": "c91d9c787f3ddaca9dc155107a19ece0", "lon": -76.95881516666667, "rental_uris": {"ios": "https://dc.lft.to/lastmile_qr_scan", "android": "https://dc.lft.to/lastmile_qr_scan"}}, {"name": "0731053b4f1f73dbb71dee4db6416687", "fusion_lat": 0.0, "type": "electric_bike", "lat": 38.838289833333334, "is_reserved": 0, "is_disabled": 0, "fusion_lon": 0.0, "bike_id": "0731053b4f1f73dbb71dee4db6416687", "lon": -76.9968305, "rental_uris": {"ios": "https://dc.lft.to/lastmile_qr_scan", "android": "https://dc.lft.to/lastmile_qr_scan"}}, {"name": "eb7b4ae6e606cd8d75964bafc5bd534d", "fusion_lat": 0.0, "type": "electric_scooter", "lat": 38.909595833333334, "is_reserved": 0, "is_disabled": 0, "fusion_lon": 0.0, "bike_id": "eb7b4ae6e606cd8d75964bafc5bd534d", "lon": -77.04649883333333, "rental_uris": {"ios": "https://dc.lft.to/lastmile_qr_scan", "android": "https://dc.lft.to/lastmile_qr_scan"}}, {"name": "6ad7146112198f1c87f32df88a447865", "fusion_lat": 0.0, "type": "electric_scooter", "lat": 38.90034883333333, "is_reserved": 0, "is_disabled": 0, "fusion_lon": 0.0, "bike_id": "6ad7146112198f1c87f32df88a447865", "lon": -77.04330083333333, "rental_uris": {"ios": "https://dc.lft.to/lastmile_qr_scan", "android": "https://dc.lft.to/lastmile_qr_scan"}}, {"name": "0d0f40149d9cf51bfad1b6f5b92da398", "fusion_lat": 0.0, "type": "electric_scooter", "lat": 38.907778, "is_reserved": 0, "is_disabled": 0, "fusion_lon": 0.0, "bike_id": "0d0f40149d9cf51bfad1b6f5b92da398", "lon": -77.0716675, "rental_uris": {"ios": "https://dc.lft.to/lastmile_qr_scan", "android": "https://dc.lft.to/lastmile_qr_scan"}}, {"name": "433a9781cd8580d652e0a03ef9c02683", "fusion_lat": 0.0, "type": "electric_scooter", "lat": 38.917147, "is_reserved": 0, "is_disabled": 0, "fusion_lon": 0.0, "bike_id": "433a9781cd8580d652e0a03ef9c02683", "lon": -77.0278215, "rental_uris": {"ios": "https://dc.lft.to/lastmile_qr_scan", "android": "https://dc.lft.to/lastmile_qr_scan"}}, {"name": "38676652a708415f38619639e53086e0", "fusion_lat": 0.0, "type": "electric_scooter", "lat": 38.932051666666666, "is_reserved": 0, "is_disabled": 0, "fusion_lon": 0.0, "bike_id": "38676652a708415f38619639e53086e0", "lon": -77.0385525, "rental_uris": {"ios": "https://dc.lft.to/lastmile_qr_scan", "android": "https://dc.lft.to/lastmile_qr_scan"}}, {"name": "6d254cfa4439b108ee0f8e1b95135cd3", "fusion_lat": 0.0, "type": "electric_bike", "lat": 38.79986383333333, "is_reserved": 0, "is_disabled": 0, "fusion_lon": 0.0, "bike_id": "6d254cfa4439b108ee0f8e1b95135cd3", "lon": -77.12980066666667, "rental_uris": {"ios": "https://dc.lft.to/lastmile_qr_scan", "android": "https://dc.lft.to/lastmile_qr_scan"}}, {"name": "d791e50c46cca811bbea761f28f80236", "fusion_lat": 0.0, "type": "electric_scooter", "lat": 38.91151516666667, "is_reserved": 0, "is_disabled": 0, "fusion_lon": 0.0, "bike_id": "d791e50c46cca811bbea761f28f80236", "lon": -77.0443055, "rental_uris": {"ios": "https://dc.lft.to/lastmile_qr_scan", "android": "https://dc.lft.to/lastmile_qr_scan"}}, {"name": "934c9d693f9628e828862b527a7847a3", "fusion_lat": 0.0, "type": "electric_scooter", "lat": 38.89742366666667, "is_reserved": 0, "is_disabled": 0, "fusion_lon": 0.0, "bike_id": "934c9d693f9628e828862b527a7847a3", "lon": -76.9385045, "rental_uris": {"ios": "https://dc.lft.to/lastmile_qr_scan", "android": "https://dc.lft.to/lastmile_qr_scan"}}, {"name": "3e71c1051422b3b6d028d138ad045971", "fusion_lat": 0.0, "type": "electric_scooter", "lat": 38.941782, "is_reserved": 0, "is_disabled": 0, "fusion_lon": 0.0, "bike_id": "3e71c1051422b3b6d028d138ad045971", "lon": -77.0251155, "rental_uris": {"ios": "https://dc.lft.to/lastmile_qr_scan", "android": "https://dc.lft.to/lastmile_qr_scan"}}, {"name": "c78b739c2eb429c5ee96efa6c8287deb", "fusion_lat": 0.0, "type": "electric_scooter", "lat": 38.88691716666666, "is_reserved": 0, "is_disabled": 0, "fusion_lon": 0.0, "bike_id": "c78b739c2eb429c5ee96efa6c8287deb", "lon": -76.95760533333333, "rental_uris": {"ios": "https://dc.lft.to/lastmile_qr_scan", "android": "https://dc.lft.to/lastmile_qr_scan"}}, {"name": "222a4caea4038985a20837bf2d11088e", "fusion_lat": 0.0, "type": "electric_scooter", "lat": 38.9111495, "is_reserved": 0, "is_disabled": 0, "fusion_lon": 0.0, "bike_id": "222a4caea4038985a20837bf2d11088e", "lon": -77.03146033333333, "rental_uris": {"ios": "https://dc.lft.to/lastmile_qr_scan", "android": "https://dc.lft.to/lastmile_qr_scan"}}, {"name": "2bebc32dd4aafdcb17210ba8971c20e9", "fusion_lat": 0.0, "type": "electric_scooter", "lat": 38.904984, "is_reserved": 0, "is_disabled": 0, "fusion_lon": 0.0, "bike_id": "2bebc32dd4aafdcb17210ba8971c20e9", "lon": -77.06529, "rental_uris": {"ios": "https://dc.lft.to/lastmile_qr_scan", "android": "https://dc.lft.to/lastmile_qr_scan"}}, {"name": "a5fb9a7448a93dd37c11c8d80fef8f72", "fusion_lat": 0.0, "type": "electric_scooter", "lat": 38.9159965, "is_reserved": 0, "is_disabled": 0, "fusion_lon": 0.0, "bike_id": "a5fb9a7448a93dd37c11c8d80fef8f72", "lon": -77.03849, "rental_uris": {"ios": "https://dc.lft.to/lastmile_qr_scan", "android": "https://dc.lft.to/lastmile_qr_scan"}}, {"name": "7631e5d563b2ae111b333dfdb6982ad5", "fusion_lat": 0.0, "type": "electric_scooter", "lat": 38.91833666666667, "is_reserved": 0, "is_disabled": 0, "fusion_lon": 0.0, "bike_id": "7631e5d563b2ae111b333dfdb6982ad5", "lon": -77.04561116666666, "rental_uris": {"ios": "https://dc.lft.to/lastmile_qr_scan", "android": "https://dc.lft.to/lastmile_qr_scan"}}, {"name": "b0871d0fe5910302f002ecbbddaca41e", "fusion_lat": 0.0, "type": "electric_scooter", "lat": 38.902216333333335, "is_reserved": 0, "is_disabled": 0, "fusion_lon": 0.0, "bike_id": "b0871d0fe5910302f002ecbbddaca41e", "lon": -77.0506395, "rental_uris": {"ios": "https://dc.lft.to/lastmile_qr_scan", "android": "https://dc.lft.to/lastmile_qr_scan"}}, {"name": "e339c66dbdc3e0b975faa87b3882101f", "fusion_lat": 0.0, "type": "electric_scooter", "lat": 38.9176215, "is_reserved": 0, "is_disabled": 0, "fusion_lon": 0.0, "bike_id": "e339c66dbdc3e0b975faa87b3882101f", "lon": -77.0251095, "rental_uris": {"ios": "https://dc.lft.to/lastmile_qr_scan", "android": "https://dc.lft.to/lastmile_qr_scan"}}, {"name": "b56c4813fb0612561ef23b4ca41210b6", "fusion_lat": 0.0, "type": "electric_scooter", "lat": 38.912511333333335, "is_reserved": 0, "is_disabled": 0, "fusion_lon": 0.0, "bike_id": "b56c4813fb0612561ef23b4ca41210b6", "lon": -77.03845183333334, "rental_uris": {"ios": "https://dc.lft.to/lastmile_qr_scan", "android": "https://dc.lft.to/lastmile_qr_scan"}}, {"name": "284b004ec551ec9638ede3fa82198e56", "fusion_lat": 0.0, "type": "electric_scooter", "lat": 38.8900235, "is_reserved": 0, "is_disabled": 0, "fusion_lon": 0.0, "bike_id": "284b004ec551ec9638ede3fa82198e56", "lon": -77.04897683333333, "rental_uris": {"ios": "https://dc.lft.to/lastmile_qr_scan", "android": "https://dc.lft.to/lastmile_qr_scan"}}, {"name": "9803caba7aeb522b19ac206635fba4da", "fusion_lat": 0.0, "type": "electric_bike", "lat": 38.844847666666666, "is_reserved": 0, "is_disabled": 0, "fusion_lon": 0.0, "bike_id": "9803caba7aeb522b19ac206635fba4da", "lon": -76.97217083333334, "rental_uris": {"ios": "https://dc.lft.to/lastmile_qr_scan", "android": "https://dc.lft.to/lastmile_qr_scan"}}, {"name": "959f8b575aee8fb84595786dc696ee19", "fusion_lat": 0.0, "type": "electric_scooter", "lat": 38.91718933333333, "is_reserved": 0, "is_disabled": 0, "fusion_lon": 0.0, "bike_id": "959f8b575aee8fb84595786dc696ee19", "lon": -77.0186395, "rental_uris": {"ios": "https://dc.lft.to/lastmile_qr_scan", "android": "https://dc.lft.to/lastmile_qr_scan"}}, {"name": "c8873833a130bd058256d8adadb06e30", "fusion_lat": 0.0, "type": "electric_scooter", "lat": 38.957852833333334, "is_reserved": 0, "is_disabled": 0, "fusion_lon": 0.0, "bike_id": "c8873833a130bd058256d8adadb06e30", "lon": -77.0275895, "rental_uris": {"ios": "https://dc.lft.to/lastmile_qr_scan", "android": "https://dc.lft.to/lastmile_qr_scan"}}, {"name": "3a048711633457ee8e5d45d684425e53", "fusion_lat": 0.0, "type": "electric_scooter", "lat": 38.9016615, "is_reserved": 0, "is_disabled": 0, "fusion_lon": 0.0, "bike_id": "3a048711633457ee8e5d45d684425e53", "lon": -77.01849316666667, "rental_uris": {"ios": "https://dc.lft.to/lastmile_qr_scan", "android": "https://dc.lft.to/lastmile_qr_scan"}}, {"name": "a5dda2b32b17139954b8bb780b2613eb", "fusion_lat": 0.0, "type": "electric_scooter", "lat": 38.90370883333333, "is_reserved": 0, "is_disabled": 0, "fusion_lon": 0.0, "bike_id": "a5dda2b32b17139954b8bb780b2613eb", "lon": -77.04256966666667, "rental_uris": {"ios": "https://dc.lft.to/lastmile_qr_scan", "android": "https://dc.lft.to/lastmile_qr_scan"}}, {"name": "958227138042f02aaac1d119ca58dc6a", "fusion_lat": 0.0, "type": "electric_bike", "lat": 38.946279, "is_reserved": 0, "is_disabled": 0, "fusion_lon": 0.0, "bike_id": "958227138042f02aaac1d119ca58dc6a", "lon": -77.08048583333333, "rental_uris": {"ios": "https://dc.lft.to/lastmile_qr_scan", "android": "https://dc.lft.to/lastmile_qr_scan"}}, {"name": "885207ed36a721c58ed8a5f87b951bd1", "fusion_lat": 0.0, "type": "electric_bike", "lat": 38.923346333333335, "is_reserved": 0, "is_disabled": 0, "fusion_lon": 0.0, "bike_id": "885207ed36a721c58ed8a5f87b951bd1", "lon": -77.02291966666667, "rental_uris": {"ios": "https://dc.lft.to/lastmile_qr_scan", "android": "https://dc.lft.to/lastmile_qr_scan"}}, {"name": "69906e704f3350e45f414092860d6a06", "fusion_lat": 0.0, "type": "electric_scooter", "lat": 38.89732433333333, "is_reserved": 0, "is_disabled": 0, "fusion_lon": 0.0, "bike_id": "69906e704f3350e45f414092860d6a06", "lon": -77.04643716666666, "rental_uris": {"ios": "https://dc.lft.to/lastmile_qr_scan", "android": "https://dc.lft.to/lastmile_qr_scan"}}, {"name": "af1a90186108336b492f10b4530b0bc5", "fusion_lat": 0.0, "type": "electric_scooter", "lat": 38.91629966666667, "is_reserved": 0, "is_disabled": 0, "fusion_lon": 0.0, "bike_id": "af1a90186108336b492f10b4530b0bc5", "lon": -77.031905, "rental_uris": {"ios": "https://dc.lft.to/lastmile_qr_scan", "android": "https://dc.lft.to/lastmile_qr_scan"}}, {"name": "eee4060a5ebbcb964dedce01ba25db43", "fusion_lat": 0.0, "type": "electric_scooter", "lat": 38.9239175, "is_reserved": 0, "is_disabled": 0, "fusion_lon": 0.0, "bike_id": "eee4060a5ebbcb964dedce01ba25db43", "lon": -77.029802, "rental_uris": {"ios": "https://dc.lft.to/lastmile_qr_scan", "android": "https://dc.lft.to/lastmile_qr_scan"}}, {"name": "d8114b8dd03910353fea8671a6cc2ecc", "fusion_lat": 0.0, "type": "electric_scooter", "lat": 38.86252066666667, "is_reserved": 0, "is_disabled": 0, "fusion_lon": 0.0, "bike_id": "d8114b8dd03910353fea8671a6cc2ecc", "lon": -76.99529266666667, "rental_uris": {"ios": "https://dc.lft.to/lastmile_qr_scan", "android": "https://dc.lft.to/lastmile_qr_scan"}}, {"name": "a54ff39041ce14ca2bf9f70ec25dd8f0", "fusion_lat": 0.0, "type": "electric_scooter", "lat": 38.86420533333333, "is_reserved": 0, "is_disabled": 0, "fusion_lon": 0.0, "bike_id": "a54ff39041ce14ca2bf9f70ec25dd8f0", "lon": -76.98047883333334, "rental_uris": {"ios": "https://dc.lft.to/lastmile_qr_scan", "android": "https://dc.lft.to/lastmile_qr_scan"}}, {"name": "1445e14ddb091ddf039a65073f9a9dba", "fusion_lat": 0.0, "type": "electric_scooter", "lat": 38.900356, "is_reserved": 0, "is_disabled": 0, "fusion_lon": 0.0, "bike_id": "1445e14ddb091ddf039a65073f9a9dba", "lon": -77.00200016666666, "rental_uris": {"ios": "https://dc.lft.to/lastmile_qr_scan", "android": "https://dc.lft.to/lastmile_qr_scan"}}, {"name": "a9a53232f371cef9b8cc40905886db24", "fusion_lat": 0.0, "type": "electric_bike", "lat": 38.89635766666667, "is_reserved": 0, "is_disabled": 0, "fusion_lon": 0.0, "bike_id": "a9a53232f371cef9b8cc40905886db24", "lon": -77.1045445, "rental_uris": {"ios": "https://dc.lft.to/lastmile_qr_scan", "android": "https://dc.lft.to/lastmile_qr_scan"}}, {"name": "7a27e9aaabe9df030cf035a7d72e7295", "fusion_lat": 0.0, "type": "electric_scooter", "lat": 38.8682225, "is_reserved": 0, "is_disabled": 0, "fusion_lon": 0.0, "bike_id": "7a27e9aaabe9df030cf035a7d72e7295", "lon": -76.986166, "rental_uris": {"ios": "https://dc.lft.to/lastmile_qr_scan", "android": "https://dc.lft.to/lastmile_qr_scan"}}, {"name": "a597252f153bff0c04c7137284e33ff4", "fusion_lat": 0.0, "type": "electric_scooter", "lat": 38.907789333333334, "is_reserved": 0, "is_disabled": 0, "fusion_lon": 0.0, "bike_id": "a597252f153bff0c04c7137284e33ff4", "lon": -77.037555, "rental_uris": {"ios": "https://dc.lft.to/lastmile_qr_scan", "android": "https://dc.lft.to/lastmile_qr_scan"}}, {"name": "0968a3de0a499ceb6492f6b4add4b006", "fusion_lat": 0.0, "type": "electric_bike", "lat": 38.885887, "is_reserved": 0, "is_disabled": 0, "fusion_lon": 0.0, "bike_id": "0968a3de0a499ceb6492f6b4add4b006", "lon": -77.103429, "rental_uris": {"ios": "https://dc.lft.to/lastmile_qr_scan", "android": "https://dc.lft.to/lastmile_qr_scan"}}, {"name": "49d597ec46beb59c8af03f0ec59e8e0a", "fusion_lat": 0.0, "type": "electric_scooter", "lat": 38.923565333333336, "is_reserved": 0, "is_disabled": 0, "fusion_lon": 0.0, "bike_id": "49d597ec46beb59c8af03f0ec59e8e0a", "lon": -77.03375783333334, "rental_uris": {"ios": "https://dc.lft.to/lastmile_qr_scan", "android": "https://dc.lft.to/lastmile_qr_scan"}}, {"name": "4fb501ce143dd79701cdf6cf5430a6d4", "fusion_lat": 0.0, "type": "electric_scooter", "lat": 38.88515233333333, "is_reserved": 0, "is_disabled": 0, "fusion_lon": 0.0, "bike_id": "4fb501ce143dd79701cdf6cf5430a6d4", "lon": -77.00338316666667, "rental_uris": {"ios": "https://dc.lft.to/lastmile_qr_scan", "android": "https://dc.lft.to/lastmile_qr_scan"}}, {"name": "f0645bbdc352beda00bddfe47420e804", "fusion_lat": 0.0, "type": "electric_scooter", "lat": 38.930042, "is_reserved": 0, "is_disabled": 0, "fusion_lon": 0.0, "bike_id": "f0645bbdc352beda00bddfe47420e804", "lon": -77.02310916666667, "rental_uris": {"ios": "https://dc.lft.to/lastmile_qr_scan", "android": "https://dc.lft.to/lastmile_qr_scan"}}, {"name": "6468f0ff66660804776932d9c256ffe2", "fusion_lat": 0.0, "type": "electric_scooter", "lat": 38.903851333333336, "is_reserved": 0, "is_disabled": 0, "fusion_lon": 0.0, "bike_id": "6468f0ff66660804776932d9c256ffe2", "lon": -77.04191916666667, "rental_uris": {"ios": "https://dc.lft.to/lastmile_qr_scan", "android": "https://dc.lft.to/lastmile_qr_scan"}}, {"name": "9387db93927d76d574c29274b9f23005", "fusion_lat": 0.0, "type": "electric_scooter", "lat": 38.89049966666666, "is_reserved": 0, "is_disabled": 0, "fusion_lon": 0.0, "bike_id": "9387db93927d76d574c29274b9f23005", "lon": -76.93749283333334, "rental_uris": {"ios": "https://dc.lft.to/lastmile_qr_scan", "android": "https://dc.lft.to/lastmile_qr_scan"}}, {"name": "c0685e9a6a401afa55c9ed83ff5df177", "fusion_lat": 0.0, "type": "electric_bike", "lat": 38.967627666666665, "is_reserved": 0, "is_disabled": 0, "fusion_lon": 0.0, "bike_id": "c0685e9a6a401afa55c9ed83ff5df177", "lon": -77.09163583333333, "rental_uris": {"ios": "https://dc.lft.to/lastmile_qr_scan", "android": "https://dc.lft.to/lastmile_qr_scan"}}, {"name": "17164553faa7d1c6cf28990301bc5cc5", "fusion_lat": 0.0, "type": "electric_scooter", "lat": 38.897363, "is_reserved": 0, "is_disabled": 0, "fusion_lon": 0.0, "bike_id": "17164553faa7d1c6cf28990301bc5cc5", "lon": -77.04946633333333, "rental_uris": {"ios": "https://dc.lft.to/lastmile_qr_scan", "android": "https://dc.lft.to/lastmile_qr_scan"}}, {"name": "a3fafe8edbd9e23af870955341295169", "fusion_lat": 0.0, "type": "electric_scooter", "lat": 38.89237083333333, "is_reserved": 0, "is_disabled": 0, "fusion_lon": 0.0, "bike_id": "a3fafe8edbd9e23af870955341295169", "lon": -77.03173883333334, "rental_uris": {"ios": "https://dc.lft.to/lastmile_qr_scan", "android": "https://dc.lft.to/lastmile_qr_scan"}}, {"name": "9bdff3e501dbf96d819b5ed0a365be2d", "fusion_lat": 0.0, "type": "electric_scooter", "lat": 38.91338483333333, "is_reserved": 0, "is_disabled": 0, "fusion_lon": 0.0, "bike_id": "9bdff3e501dbf96d819b5ed0a365be2d", "lon": -77.0022565, "rental_uris": {"ios": "https://dc.lft.to/lastmile_qr_scan", "android": "https://dc.lft.to/lastmile_qr_scan"}}, {"name": "33d8e97261679d41818dfb67ac0df8f6", "fusion_lat": 0.0, "type": "electric_scooter", "lat": 38.92607483333333, "is_reserved": 0, "is_disabled": 0, "fusion_lon": 0.0, "bike_id": "33d8e97261679d41818dfb67ac0df8f6", "lon": -77.02152983333333, "rental_uris": {"ios": "https://dc.lft.to/lastmile_qr_scan", "android": "https://dc.lft.to/lastmile_qr_scan"}}, {"name": "03b58b45612bf60968edaf549b2b93f1", "fusion_lat": 0.0, "type": "electric_bike", "lat": 38.861642833333335, "is_reserved": 0, "is_disabled": 0, "fusion_lon": 0.0, "bike_id": "03b58b45612bf60968edaf549b2b93f1", "lon": -77.13093233333333, "rental_uris": {"ios": "https://dc.lft.to/lastmile_qr_scan", "android": "https://dc.lft.to/lastmile_qr_scan"}}, {"name": "dfb70ac81d6f45a4fecdbf06c86ec809", "fusion_lat": 0.0, "type": "electric_bike", "lat": 38.903927333333336, "is_reserved": 0, "is_disabled": 0, "fusion_lon": 0.0, "bike_id": "dfb70ac81d6f45a4fecdbf06c86ec809", "lon": -77.03944566666667, "rental_uris": {"ios": "https://dc.lft.to/lastmile_qr_scan", "android": "https://dc.lft.to/lastmile_qr_scan"}}, {"name": "e1066f1563ff35b4fa7b091e774f6e18", "fusion_lat": 0.0, "type": "electric_scooter", "lat": 38.921839166666665, "is_reserved": 0, "is_disabled": 0, "fusion_lon": 0.0, "bike_id": "e1066f1563ff35b4fa7b091e774f6e18", "lon": -77.02659466666667, "rental_uris": {"ios": "https://dc.lft.to/lastmile_qr_scan", "android": "https://dc.lft.to/lastmile_qr_scan"}}, {"name": "b38ea07bce77490a310feccf66b38e85", "fusion_lat": 0.0, "type": "electric_scooter", "lat": 38.887472, "is_reserved": 0, "is_disabled": 0, "fusion_lon": 0.0, "bike_id": "b38ea07bce77490a310feccf66b38e85", "lon": -77.01542466666666, "rental_uris": {"ios": "https://dc.lft.to/lastmile_qr_scan", "android": "https://dc.lft.to/lastmile_qr_scan"}}, {"name": "8d7bcbe739b810bbc669c06718b3ea2c", "fusion_lat": 0.0, "type": "electric_scooter", "lat": 38.9023875, "is_reserved": 0, "is_disabled": 0, "fusion_lon": 0.0, "bike_id": "8d7bcbe739b810bbc669c06718b3ea2c", "lon": -76.974098, "rental_uris": {"ios": "https://dc.lft.to/lastmile_qr_scan", "android": "https://dc.lft.to/lastmile_qr_scan"}}, {"name": "1dca5343391220601f15e9199880e0e1", "fusion_lat": 0.0, "type": "electric_scooter", "lat": 38.902718, "is_reserved": 0, "is_disabled": 0, "fusion_lon": 0.0, "bike_id": "1dca5343391220601f15e9199880e0e1", "lon": -77.030658, "rental_uris": {"ios": "https://dc.lft.to/lastmile_qr_scan", "android": "https://dc.lft.to/lastmile_qr_scan"}}, {"name": "d8d85a9d604434cd0c9709f6eac4c826", "fusion_lat": 0.0, "type": "electric_scooter", "lat": 38.914051, "is_reserved": 0, "is_disabled": 0, "fusion_lon": 0.0, "bike_id": "d8d85a9d604434cd0c9709f6eac4c826", "lon": -77.008045, "rental_uris": {"ios": "https://dc.lft.to/lastmile_qr_scan", "android": "https://dc.lft.to/lastmile_qr_scan"}}, {"name": "00264f11d261cc9cdc7744cde5ab1c1b", "fusion_lat": 0.0, "type": "electric_scooter", "lat": 38.8835855, "is_reserved": 0, "is_disabled": 0, "fusion_lon": 0.0, "bike_id": "00264f11d261cc9cdc7744cde5ab1c1b", "lon": -77.023073, "rental_uris": {"ios": "https://dc.lft.to/lastmile_qr_scan", "android": "https://dc.lft.to/lastmile_qr_scan"}}, {"name": "99ba17b9ac11d5b845ff9968a77b0c9c", "fusion_lat": 0.0, "type": "electric_scooter", "lat": 38.92968533333333, "is_reserved": 0, "is_disabled": 0, "fusion_lon": 0.0, "bike_id": "99ba17b9ac11d5b845ff9968a77b0c9c", "lon": -77.03655966666666, "rental_uris": {"ios": "https://dc.lft.to/lastmile_qr_scan", "android": "https://dc.lft.to/lastmile_qr_scan"}}, {"name": "e9322065e3436bfbee954e46d5ec0b3a", "fusion_lat": 0.0, "type": "electric_scooter", "lat": 38.9583605, "is_reserved": 0, "is_disabled": 0, "fusion_lon": 0.0, "bike_id": "e9322065e3436bfbee954e46d5ec0b3a", "lon": -77.02689133333334, "rental_uris": {"ios": "https://dc.lft.to/lastmile_qr_scan", "android": "https://dc.lft.to/lastmile_qr_scan"}}, {"name": "9c20458f3aa8c2ce85cb50829321a15c", "fusion_lat": 0.0, "type": "electric_scooter", "lat": 38.904924666666666, "is_reserved": 0, "is_disabled": 0, "fusion_lon": 0.0, "bike_id": "9c20458f3aa8c2ce85cb50829321a15c", "lon": -77.04146733333333, "rental_uris": {"ios": "https://dc.lft.to/lastmile_qr_scan", "android": "https://dc.lft.to/lastmile_qr_scan"}}, {"name": "9affdaca5b3aa639ab2b4d84e12b5061", "fusion_lat": 0.0, "type": "electric_scooter", "lat": 38.92422166666667, "is_reserved": 0, "is_disabled": 0, "fusion_lon": 0.0, "bike_id": "9affdaca5b3aa639ab2b4d84e12b5061", "lon": -77.019482, "rental_uris": {"ios": "https://dc.lft.to/lastmile_qr_scan", "android": "https://dc.lft.to/lastmile_qr_scan"}}, {"name": "85995032643b536827426da824357906", "fusion_lat": 0.0, "type": "electric_scooter", "lat": 38.89657583333333, "is_reserved": 0, "is_disabled": 0, "fusion_lon": 0.0, "bike_id": "85995032643b536827426da824357906", "lon": -77.04894683333333, "rental_uris": {"ios": "https://dc.lft.to/lastmile_qr_scan", "android": "https://dc.lft.to/lastmile_qr_scan"}}, {"name": "892acd82f2d69acbaf6675978a00106b", "fusion_lat": 0.0, "type": "electric_scooter", "lat": 38.90673916666667, "is_reserved": 0, "is_disabled": 0, "fusion_lon": 0.0, "bike_id": "892acd82f2d69acbaf6675978a00106b", "lon": -77.03826166666667, "rental_uris": {"ios": "https://dc.lft.to/lastmile_qr_scan", "android": "https://dc.lft.to/lastmile_qr_scan"}}, {"name": "196e64b9de2b7228a8d81fd2e032b1d4", "fusion_lat": 0.0, "type": "electric_scooter", "lat": 38.9028225, "is_reserved": 0, "is_disabled": 0, "fusion_lon": 0.0, "bike_id": "196e64b9de2b7228a8d81fd2e032b1d4", "lon": -77.03224133333333, "rental_uris": {"ios": "https://dc.lft.to/lastmile_qr_scan", "android": "https://dc.lft.to/lastmile_qr_scan"}}, {"name": "89113bbf883d389f7831c8e7ff598642", "fusion_lat": 0.0, "type": "electric_scooter", "lat": 38.89892366666667, "is_reserved": 0, "is_disabled": 0, "fusion_lon": 0.0, "bike_id": "89113bbf883d389f7831c8e7ff598642", "lon": -77.02218316666666, "rental_uris": {"ios": "https://dc.lft.to/lastmile_qr_scan", "android": "https://dc.lft.to/lastmile_qr_scan"}}, {"name": "200c0e397f5085c8ca1aa703afa999fe", "fusion_lat": 0.0, "type": "electric_scooter", "lat": 38.90484333333333, "is_reserved": 0, "is_disabled": 0, "fusion_lon": 0.0, "bike_id": "200c0e397f5085c8ca1aa703afa999fe", "lon": -77.04151966666667, "rental_uris": {"ios": "https://dc.lft.to/lastmile_qr_scan", "android": "https://dc.lft.to/lastmile_qr_scan"}}, {"name": "1112b9ffc89a9e7c9b0bb6d1d20291cf", "fusion_lat": 0.0, "type": "electric_scooter", "lat": 38.919378333333334, "is_reserved": 0, "is_disabled": 0, "fusion_lon": 0.0, "bike_id": "1112b9ffc89a9e7c9b0bb6d1d20291cf", "lon": -77.02373533333333, "rental_uris": {"ios": "https://dc.lft.to/lastmile_qr_scan", "android": "https://dc.lft.to/lastmile_qr_scan"}}, {"name": "33f7efc7cef8cbd949d1a61538f14e42", "fusion_lat": 0.0, "type": "electric_scooter", "lat": 38.89222, "is_reserved": 0, "is_disabled": 0, "fusion_lon": 0.0, "bike_id": "33f7efc7cef8cbd949d1a61538f14e42", "lon": -77.03984383333334, "rental_uris": {"ios": "https://dc.lft.to/lastmile_qr_scan", "android": "https://dc.lft.to/lastmile_qr_scan"}}, {"name": "9d4fac9c33600680316471cd158a513a", "fusion_lat": 0.0, "type": "electric_scooter", "lat": 38.91480883333333, "is_reserved": 0, "is_disabled": 0, "fusion_lon": 0.0, "bike_id": "9d4fac9c33600680316471cd158a513a", "lon": -77.0459425, "rental_uris": {"ios": "https://dc.lft.to/lastmile_qr_scan", "android": "https://dc.lft.to/lastmile_qr_scan"}}, {"name": "8c66b55865587782d8b061aae0740f80", "fusion_lat": 0.0, "type": "electric_bike", "lat": 38.954834, "is_reserved": 0, "is_disabled": 0, "fusion_lon": 0.0, "bike_id": "8c66b55865587782d8b061aae0740f80", "lon": -77.08239083333333, "rental_uris": {"ios": "https://dc.lft.to/lastmile_qr_scan", "android": "https://dc.lft.to/lastmile_qr_scan"}}, {"name": "b340ffbabf95f6275686c8128c70e7b6", "fusion_lat": 0.0, "type": "electric_scooter", "lat": 38.909667166666665, "is_reserved": 0, "is_disabled": 0, "fusion_lon": 0.0, "bike_id": "b340ffbabf95f6275686c8128c70e7b6", "lon": -77.04480183333334, "rental_uris": {"ios": "https://dc.lft.to/lastmile_qr_scan", "android": "https://dc.lft.to/lastmile_qr_scan"}}, {"name": "c96c65ee3f21c57f8fb82687c907450a", "fusion_lat": 0.0, "type": "electric_scooter", "lat": 38.87892216666667, "is_reserved": 0, "is_disabled": 0, "fusion_lon": 0.0, "bike_id": "c96c65ee3f21c57f8fb82687c907450a", "lon": -77.0011905, "rental_uris": {"ios": "https://dc.lft.to/lastmile_qr_scan", "android": "https://dc.lft.to/lastmile_qr_scan"}}, {"name": "ff36b83f4ab8c9486195634b575a52ff", "fusion_lat": 0.0, "type": "electric_scooter", "lat": 38.88490433333333, "is_reserved": 0, "is_disabled": 0, "fusion_lon": 0.0, "bike_id": "ff36b83f4ab8c9486195634b575a52ff", "lon": -77.00707866666667, "rental_uris": {"ios": "https://dc.lft.to/lastmile_qr_scan", "android": "https://dc.lft.to/lastmile_qr_scan"}}, {"name": "23d9439923636d162911eab8986cc7d0", "fusion_lat": 0.0, "type": "electric_scooter", "lat": 38.8831945, "is_reserved": 0, "is_disabled": 0, "fusion_lon": 0.0, "bike_id": "23d9439923636d162911eab8986cc7d0", "lon": -77.00597266666666, "rental_uris": {"ios": "https://dc.lft.to/lastmile_qr_scan", "android": "https://dc.lft.to/lastmile_qr_scan"}}, {"name": "61acf4f6a16aa2d9f50848d09f09f36c", "fusion_lat": 0.0, "type": "electric_bike", "lat": 38.99910716666667, "is_reserved": 0, "is_disabled": 0, "fusion_lon": 0.0, "bike_id": "61acf4f6a16aa2d9f50848d09f09f36c", "lon": -77.04618416666666, "rental_uris": {"ios": "https://dc.lft.to/lastmile_qr_scan", "android": "https://dc.lft.to/lastmile_qr_scan"}}, {"name": "1203abb5083e8310df769a35fccb50d2", "fusion_lat": 0.0, "type": "electric_scooter", "lat": 38.912661166666666, "is_reserved": 0, "is_disabled": 0, "fusion_lon": 0.0, "bike_id": "1203abb5083e8310df769a35fccb50d2", "lon": -77.03143833333333, "rental_uris": {"ios": "https://dc.lft.to/lastmile_qr_scan", "android": "https://dc.lft.to/lastmile_qr_scan"}}, {"name": "90e92910ddf089b7d0fa2df955fa05c8", "fusion_lat": 0.0, "type": "electric_scooter", "lat": 38.922314, "is_reserved": 0, "is_disabled": 0, "fusion_lon": 0.0, "bike_id": "90e92910ddf089b7d0fa2df955fa05c8", "lon": -77.04713666666666, "rental_uris": {"ios": "https://dc.lft.to/lastmile_qr_scan", "android": "https://dc.lft.to/lastmile_qr_scan"}}, {"name": "8170e60eb590e205b3860da268d52c4d", "fusion_lat": 0.0, "type": "electric_scooter", "lat": 38.92262983333333, "is_reserved": 0, "is_disabled": 0, "fusion_lon": 0.0, "bike_id": "8170e60eb590e205b3860da268d52c4d", "lon": -77.02032733333333, "rental_uris": {"ios": "https://dc.lft.to/lastmile_qr_scan", "android": "https://dc.lft.to/lastmile_qr_scan"}}, {"name": "b2588b439d61e40cc3ff6109c9cb6cb3", "fusion_lat": 0.0, "type": "electric_bike", "lat": 38.8457485, "is_reserved": 0, "is_disabled": 0, "fusion_lon": 0.0, "bike_id": "b2588b439d61e40cc3ff6109c9cb6cb3", "lon": -77.09620933333333, "rental_uris": {"ios": "https://dc.lft.to/lastmile_qr_scan", "android": "https://dc.lft.to/lastmile_qr_scan"}}, {"name": "a28ba4b6eb6cf06d88f1c64f5f549e36", "fusion_lat": 0.0, "type": "electric_scooter", "lat": 38.866736333333336, "is_reserved": 0, "is_disabled": 0, "fusion_lon": 0.0, "bike_id": "a28ba4b6eb6cf06d88f1c64f5f549e36", "lon": -77.0109305, "rental_uris": {"ios": "https://dc.lft.to/lastmile_qr_scan", "android": "https://dc.lft.to/lastmile_qr_scan"}}, {"name": "52d684ffa770e1504220020d0872b81c", "fusion_lat": 0.0, "type": "electric_scooter", "lat": 38.937078166666666, "is_reserved": 0, "is_disabled": 0, "fusion_lon": 0.0, "bike_id": "52d684ffa770e1504220020d0872b81c", "lon": -77.060957, "rental_uris": {"ios": "https://dc.lft.to/lastmile_qr_scan", "android": "https://dc.lft.to/lastmile_qr_scan"}}, {"name": "f7568472376392df1f0765abc603662a", "fusion_lat": 0.0, "type": "electric_scooter", "lat": 38.90744866666667, "is_reserved": 0, "is_disabled": 0, "fusion_lon": 0.0, "bike_id": "f7568472376392df1f0765abc603662a", "lon": -77.0346215, "rental_uris": {"ios": "https://dc.lft.to/lastmile_qr_scan", "android": "https://dc.lft.to/lastmile_qr_scan"}}, {"name": "d812f5477b72222ee580ca906f72004d", "fusion_lat": 0.0, "type": "electric_bike", "lat": 38.97384433333333, "is_reserved": 0, "is_disabled": 0, "fusion_lon": 0.0, "bike_id": "d812f5477b72222ee580ca906f72004d", "lon": -77.06470983333334, "rental_uris": {"ios": "https://dc.lft.to/lastmile_qr_scan", "android": "https://dc.lft.to/lastmile_qr_scan"}}, {"name": "4ed5c18c9f62bd32e5235075a45ad217", "fusion_lat": 0.0, "type": "electric_scooter", "lat": 38.85925233333333, "is_reserved": 0, "is_disabled": 0, "fusion_lon": 0.0, "bike_id": "4ed5c18c9f62bd32e5235075a45ad217", "lon": -76.98975816666666, "rental_uris": {"ios": "https://dc.lft.to/lastmile_qr_scan", "android": "https://dc.lft.to/lastmile_qr_scan"}}, {"name": "df75e29f1007caf3e5f4539e9a4df882", "fusion_lat": 0.0, "type": "electric_scooter", "lat": 38.90104516666667, "is_reserved": 0, "is_disabled": 0, "fusion_lon": 0.0, "bike_id": "df75e29f1007caf3e5f4539e9a4df882", "lon": -77.0319765, "rental_uris": {"ios": "https://dc.lft.to/lastmile_qr_scan", "android": "https://dc.lft.to/lastmile_qr_scan"}}, {"name": "1f7126f09a50e54b8c20905700cef6b8", "fusion_lat": 0.0, "type": "electric_scooter", "lat": 38.92187283333333, "is_reserved": 0, "is_disabled": 0, "fusion_lon": 0.0, "bike_id": "1f7126f09a50e54b8c20905700cef6b8", "lon": -77.040085, "rental_uris": {"ios": "https://dc.lft.to/lastmile_qr_scan", "android": "https://dc.lft.to/lastmile_qr_scan"}}, {"name": "ca648d577dfbc120ac48fd93fc9f2c13", "fusion_lat": 0.0, "type": "electric_scooter", "lat": 38.91105066666667, "is_reserved": 0, "is_disabled": 0, "fusion_lon": 0.0, "bike_id": "ca648d577dfbc120ac48fd93fc9f2c13", "lon": -77.07346216666667, "rental_uris": {"ios": "https://dc.lft.to/lastmile_qr_scan", "android": "https://dc.lft.to/lastmile_qr_scan"}}, {"name": "9f0db80cb1016d40c53c71e8e62c2c5c", "fusion_lat": 0.0, "type": "electric_scooter", "lat": 38.9156615, "is_reserved": 0, "is_disabled": 0, "fusion_lon": 0.0, "bike_id": "9f0db80cb1016d40c53c71e8e62c2c5c", "lon": -77.04712733333334, "rental_uris": {"ios": "https://dc.lft.to/lastmile_qr_scan", "android": "https://dc.lft.to/lastmile_qr_scan"}}, {"name": "b85181d6918648892753b133e59ce8b9", "fusion_lat": 0.0, "type": "electric_scooter", "lat": 38.90504966666666, "is_reserved": 0, "is_disabled": 0, "fusion_lon": 0.0, "bike_id": "b85181d6918648892753b133e59ce8b9", "lon": -77.02709133333333, "rental_uris": {"ios": "https://dc.lft.to/lastmile_qr_scan", "android": "https://dc.lft.to/lastmile_qr_scan"}}, {"name": "b544580fad70d0050b87183339465b9f", "fusion_lat": 0.0, "type": "electric_scooter", "lat": 38.88318666666667, "is_reserved": 0, "is_disabled": 0, "fusion_lon": 0.0, "bike_id": "b544580fad70d0050b87183339465b9f", "lon": -77.02386566666667, "rental_uris": {"ios": "https://dc.lft.to/lastmile_qr_scan", "android": "https://dc.lft.to/lastmile_qr_scan"}}, {"name": "aeb4e1cf7992b800dd3a3de2769af718", "fusion_lat": 0.0, "type": "electric_scooter", "lat": 38.9573525, "is_reserved": 0, "is_disabled": 0, "fusion_lon": 0.0, "bike_id": "aeb4e1cf7992b800dd3a3de2769af718", "lon": -77.024044, "rental_uris": {"ios": "https://dc.lft.to/lastmile_qr_scan", "android": "https://dc.lft.to/lastmile_qr_scan"}}, {"name": "17877af15084bb90b8b36a860c04a121", "fusion_lat": 0.0, "type": "electric_scooter", "lat": 38.90973016666667, "is_reserved": 0, "is_disabled": 0, "fusion_lon": 0.0, "bike_id": "17877af15084bb90b8b36a860c04a121", "lon": -77.03880966666667, "rental_uris": {"ios": "https://dc.lft.to/lastmile_qr_scan", "android": "https://dc.lft.to/lastmile_qr_scan"}}, {"name": "835f1fbe9969e819242b18bb6073d812", "fusion_lat": 0.0, "type": "electric_scooter", "lat": 38.94294883333333, "is_reserved": 0, "is_disabled": 0, "fusion_lon": 0.0, "bike_id": "835f1fbe9969e819242b18bb6073d812", "lon": -77.0216935, "rental_uris": {"ios": "https://dc.lft.to/lastmile_qr_scan", "android": "https://dc.lft.to/lastmile_qr_scan"}}, {"name": "ece7665bf18da353b888fb34fa410fad", "fusion_lat": 0.0, "type": "electric_scooter", "lat": 38.912907833333335, "is_reserved": 0, "is_disabled": 0, "fusion_lon": 0.0, "bike_id": "ece7665bf18da353b888fb34fa410fad", "lon": -77.061681, "rental_uris": {"ios": "https://dc.lft.to/lastmile_qr_scan", "android": "https://dc.lft.to/lastmile_qr_scan"}}, {"name": "bafbbc8c99309802f20b4bcbc7210878", "fusion_lat": 0.0, "type": "electric_bike", "lat": 38.89220983333333, "is_reserved": 0, "is_disabled": 0, "fusion_lon": 0.0, "bike_id": "bafbbc8c99309802f20b4bcbc7210878", "lon": -77.10770966666666, "rental_uris": {"ios": "https://dc.lft.to/lastmile_qr_scan", "android": "https://dc.lft.to/lastmile_qr_scan"}}, {"name": "fec490daac396833295d66489ffd2903", "fusion_lat": 0.0, "type": "electric_scooter", "lat": 38.87289333333333, "is_reserved": 0, "is_disabled": 0, "fusion_lon": 0.0, "bike_id": "fec490daac396833295d66489ffd2903", "lon": -77.00986216666666, "rental_uris": {"ios": "https://dc.lft.to/lastmile_qr_scan", "android": "https://dc.lft.to/lastmile_qr_scan"}}, {"name": "b57693bad410086f6d6aeb13d4d822da", "fusion_lat": 0.0, "type": "electric_scooter", "lat": 38.91138516666667, "is_reserved": 0, "is_disabled": 0, "fusion_lon": 0.0, "bike_id": "b57693bad410086f6d6aeb13d4d822da", "lon": -77.041932, "rental_uris": {"ios": "https://dc.lft.to/lastmile_qr_scan", "android": "https://dc.lft.to/lastmile_qr_scan"}}, {"name": "8ba95fb050a4fc09c8a98b0cabcf1667", "fusion_lat": 0.0, "type": "electric_scooter", "lat": 38.891929166666664, "is_reserved": 0, "is_disabled": 0, "fusion_lon": 0.0, "bike_id": "8ba95fb050a4fc09c8a98b0cabcf1667", "lon": -77.01583533333333, "rental_uris": {"ios": "https://dc.lft.to/lastmile_qr_scan", "android": "https://dc.lft.to/lastmile_qr_scan"}}, {"name": "a9560f1c2e18f4231fb185606005bffe", "fusion_lat": 0.0, "type": "electric_scooter", "lat": 38.8853565, "is_reserved": 0, "is_disabled": 0, "fusion_lon": 0.0, "bike_id": "a9560f1c2e18f4231fb185606005bffe", "lon": -76.998248, "rental_uris": {"ios": "https://dc.lft.to/lastmile_qr_scan", "android": "https://dc.lft.to/lastmile_qr_scan"}}, {"name": "71b4d31e5c434e50ddb25d0a881076c6", "fusion_lat": 0.0, "type": "electric_scooter", "lat": 38.897253166666665, "is_reserved": 0, "is_disabled": 0, "fusion_lon": 0.0, "bike_id": "71b4d31e5c434e50ddb25d0a881076c6", "lon": -77.0020925, "rental_uris": {"ios": "https://dc.lft.to/lastmile_qr_scan", "android": "https://dc.lft.to/lastmile_qr_scan"}}, {"name": "d1b90522cde84d85276fa57f35e20858", "fusion_lat": 0.0, "type": "electric_scooter", "lat": 38.8998895, "is_reserved": 0, "is_disabled": 0, "fusion_lon": 0.0, "bike_id": "d1b90522cde84d85276fa57f35e20858", "lon": -77.03157683333333, "rental_uris": {"ios": "https://dc.lft.to/lastmile_qr_scan", "android": "https://dc.lft.to/lastmile_qr_scan"}}, {"name": "88f140a53f44db53a81cd09573381675", "fusion_lat": 0.0, "type": "electric_scooter", "lat": 38.941765333333336, "is_reserved": 0, "is_disabled": 0, "fusion_lon": 0.0, "bike_id": "88f140a53f44db53a81cd09573381675", "lon": -77.02511083333333, "rental_uris": {"ios": "https://dc.lft.to/lastmile_qr_scan", "android": "https://dc.lft.to/lastmile_qr_scan"}}, {"name": "64cc0b1842ece98c58d69d45e7acdad0", "fusion_lat": 0.0, "type": "electric_scooter", "lat": 38.898350666666666, "is_reserved": 0, "is_disabled": 0, "fusion_lon": 0.0, "bike_id": "64cc0b1842ece98c58d69d45e7acdad0", "lon": -76.94642866666666, "rental_uris": {"ios": "https://dc.lft.to/lastmile_qr_scan", "android": "https://dc.lft.to/lastmile_qr_scan"}}, {"name": "0a9f2f2d7e030b10ea345f7ca7a115a7", "fusion_lat": 0.0, "type": "electric_scooter", "lat": 38.919467833333336, "is_reserved": 0, "is_disabled": 0, "fusion_lon": 0.0, "bike_id": "0a9f2f2d7e030b10ea345f7ca7a115a7", "lon": -77.02149966666667, "rental_uris": {"ios": "https://dc.lft.to/lastmile_qr_scan", "android": "https://dc.lft.to/lastmile_qr_scan"}}, {"name": "b242103706ea2d508adf6b547acc128e", "fusion_lat": 0.0, "type": "electric_scooter", "lat": 38.9265625, "is_reserved": 0, "is_disabled": 0, "fusion_lon": 0.0, "bike_id": "b242103706ea2d508adf6b547acc128e", "lon": -77.0241165, "rental_uris": {"ios": "https://dc.lft.to/lastmile_qr_scan", "android": "https://dc.lft.to/lastmile_qr_scan"}}, {"name": "d861e0efcb7fd0bc3aac2b214aeac6c4", "fusion_lat": 0.0, "type": "electric_scooter", "lat": 38.8983245, "is_reserved": 0, "is_disabled": 0, "fusion_lon": 0.0, "bike_id": "d861e0efcb7fd0bc3aac2b214aeac6c4", "lon": -77.00757933333334, "rental_uris": {"ios": "https://dc.lft.to/lastmile_qr_scan", "android": "https://dc.lft.to/lastmile_qr_scan"}}, {"name": "4e4d9477fe2ea6b2c4cb46ae2543c5d7", "fusion_lat": 0.0, "type": "electric_scooter", "lat": 38.917807833333335, "is_reserved": 0, "is_disabled": 0, "fusion_lon": 0.0, "bike_id": "4e4d9477fe2ea6b2c4cb46ae2543c5d7", "lon": -77.03442316666667, "rental_uris": {"ios": "https://dc.lft.to/lastmile_qr_scan", "android": "https://dc.lft.to/lastmile_qr_scan"}}, {"name": "c472d353b5bc90426560786a8fed68af", "fusion_lat": 0.0, "type": "electric_scooter", "lat": 38.927279166666665, "is_reserved": 0, "is_disabled": 0, "fusion_lon": 0.0, "bike_id": "c472d353b5bc90426560786a8fed68af", "lon": -77.02586783333334, "rental_uris": {"ios": "https://dc.lft.to/lastmile_qr_scan", "android": "https://dc.lft.to/lastmile_qr_scan"}}, {"name": "a8e7e06795b2f24b065bfa52e7d4e4e6", "fusion_lat": 0.0, "type": "electric_scooter", "lat": 38.90971116666667, "is_reserved": 0, "is_disabled": 0, "fusion_lon": 0.0, "bike_id": "a8e7e06795b2f24b065bfa52e7d4e4e6", "lon": -77.03886983333334, "rental_uris": {"ios": "https://dc.lft.to/lastmile_qr_scan", "android": "https://dc.lft.to/lastmile_qr_scan"}}, {"name": "9e6043022a80c2c20271139f1f29c4ed", "fusion_lat": 0.0, "type": "electric_bike", "lat": 38.85494466666667, "is_reserved": 0, "is_disabled": 0, "fusion_lon": 0.0, "bike_id": "9e6043022a80c2c20271139f1f29c4ed", "lon": -77.11520566666667, "rental_uris": {"ios": "https://dc.lft.to/lastmile_qr_scan", "android": "https://dc.lft.to/lastmile_qr_scan"}}, {"name": "3245327c8c0242a29f8f0aac74235f3e", "fusion_lat": 0.0, "type": "electric_scooter", "lat": 38.915956, "is_reserved": 0, "is_disabled": 0, "fusion_lon": 0.0, "bike_id": "3245327c8c0242a29f8f0aac74235f3e", "lon": -77.0425275, "rental_uris": {"ios": "https://dc.lft.to/lastmile_qr_scan", "android": "https://dc.lft.to/lastmile_qr_scan"}}, {"name": "9dc9812d23dcf65b663def10c5a0efe9", "fusion_lat": 0.0, "type": "electric_scooter", "lat": 38.928248333333336, "is_reserved": 0, "is_disabled": 0, "fusion_lon": 0.0, "bike_id": "9dc9812d23dcf65b663def10c5a0efe9", "lon": -77.01391033333333, "rental_uris": {"ios": "https://dc.lft.to/lastmile_qr_scan", "android": "https://dc.lft.to/lastmile_qr_scan"}}, {"name": "ebb4368aecc2d2a4b9d08c72f88c2669", "fusion_lat": 0.0, "type": "electric_scooter", "lat": 38.9168415, "is_reserved": 0, "is_disabled": 0, "fusion_lon": 0.0, "bike_id": "ebb4368aecc2d2a4b9d08c72f88c2669", "lon": -77.02973833333333, "rental_uris": {"ios": "https://dc.lft.to/lastmile_qr_scan", "android": "https://dc.lft.to/lastmile_qr_scan"}}, {"name": "da89ae8c53c4cd3001c7e534b552c954", "fusion_lat": 0.0, "type": "electric_scooter", "lat": 38.914081333333336, "is_reserved": 0, "is_disabled": 0, "fusion_lon": 0.0, "bike_id": "da89ae8c53c4cd3001c7e534b552c954", "lon": -77.03953116666666, "rental_uris": {"ios": "https://dc.lft.to/lastmile_qr_scan", "android": "https://dc.lft.to/lastmile_qr_scan"}}, {"name": "041dd7dabbd15113b2819ba491ed73f1", "fusion_lat": 0.0, "type": "electric_scooter", "lat": 38.924913833333335, "is_reserved": 0, "is_disabled": 0, "fusion_lon": 0.0, "bike_id": "041dd7dabbd15113b2819ba491ed73f1", "lon": -77.02711016666667, "rental_uris": {"ios": "https://dc.lft.to/lastmile_qr_scan", "android": "https://dc.lft.to/lastmile_qr_scan"}}, {"name": "919da95c9b9c756f04830d1f2b8d1ee1", "fusion_lat": 0.0, "type": "electric_scooter", "lat": 38.86831316666667, "is_reserved": 0, "is_disabled": 0, "fusion_lon": 0.0, "bike_id": "919da95c9b9c756f04830d1f2b8d1ee1", "lon": -76.98612533333333, "rental_uris": {"ios": "https://dc.lft.to/lastmile_qr_scan", "android": "https://dc.lft.to/lastmile_qr_scan"}}, {"name": "71426ced8551b90d2547da22c87c958e", "fusion_lat": 0.0, "type": "electric_scooter", "lat": 38.938689833333335, "is_reserved": 0, "is_disabled": 0, "fusion_lon": 0.0, "bike_id": "71426ced8551b90d2547da22c87c958e", "lon": -77.02219933333333, "rental_uris": {"ios": "https://dc.lft.to/lastmile_qr_scan", "android": "https://dc.lft.to/lastmile_qr_scan"}}, {"name": "cf7d2d3ef2e68f7ef2573486a50c8895", "fusion_lat": 0.0, "type": "electric_scooter", "lat": 38.9342905, "is_reserved": 0, "is_disabled": 0, "fusion_lon": 0.0, "bike_id": "cf7d2d3ef2e68f7ef2573486a50c8895", "lon": -77.04003766666666, "rental_uris": {"ios": "https://dc.lft.to/lastmile_qr_scan", "android": "https://dc.lft.to/lastmile_qr_scan"}}, {"name": "cc19e3d7b0f15e3e18ff4de7d10acbc7", "fusion_lat": 0.0, "type": "electric_scooter", "lat": 38.885872166666665, "is_reserved": 0, "is_disabled": 0, "fusion_lon": 0.0, "bike_id": "cc19e3d7b0f15e3e18ff4de7d10acbc7", "lon": -76.995047, "rental_uris": {"ios": "https://dc.lft.to/lastmile_qr_scan", "android": "https://dc.lft.to/lastmile_qr_scan"}}, {"name": "68c962ab99d03d01aedf2639f06cd4d1", "fusion_lat": 0.0, "type": "electric_scooter", "lat": 38.915139333333336, "is_reserved": 0, "is_disabled": 0, "fusion_lon": 0.0, "bike_id": "68c962ab99d03d01aedf2639f06cd4d1", "lon": -77.0460425, "rental_uris": {"ios": "https://dc.lft.to/lastmile_qr_scan", "android": "https://dc.lft.to/lastmile_qr_scan"}}, {"name": "bbef22c6c69afa86a00aa59acfd4eab7", "fusion_lat": 0.0, "type": "electric_scooter", "lat": 38.90561816666667, "is_reserved": 0, "is_disabled": 0, "fusion_lon": 0.0, "bike_id": "bbef22c6c69afa86a00aa59acfd4eab7", "lon": -77.03713883333333, "rental_uris": {"ios": "https://dc.lft.to/lastmile_qr_scan", "android": "https://dc.lft.to/lastmile_qr_scan"}}, {"name": "678ff1064f6baa6d303b5442bef9fac8", "fusion_lat": 0.0, "type": "electric_scooter", "lat": 38.905070333333335, "is_reserved": 0, "is_disabled": 0, "fusion_lon": 0.0, "bike_id": "678ff1064f6baa6d303b5442bef9fac8", "lon": -76.99445233333333, "rental_uris": {"ios": "https://dc.lft.to/lastmile_qr_scan", "android": "https://dc.lft.to/lastmile_qr_scan"}}, {"name": "87956d30448cc126d2f072dde6478014", "fusion_lat": 0.0, "type": "electric_scooter", "lat": 38.866615333333336, "is_reserved": 0, "is_disabled": 0, "fusion_lon": 0.0, "bike_id": "87956d30448cc126d2f072dde6478014", "lon": -76.988814, "rental_uris": {"ios": "https://dc.lft.to/lastmile_qr_scan", "android": "https://dc.lft.to/lastmile_qr_scan"}}, {"name": "c3916f5308635d23e4943215fca527ac", "fusion_lat": 0.0, "type": "electric_bike", "lat": 38.92805283333333, "is_reserved": 0, "is_disabled": 0, "fusion_lon": 0.0, "bike_id": "c3916f5308635d23e4943215fca527ac", "lon": -77.04371633333334, "rental_uris": {"ios": "https://dc.lft.to/lastmile_qr_scan", "android": "https://dc.lft.to/lastmile_qr_scan"}}, {"name": "8f6b4bf4a29fabc605380d548820de5a", "fusion_lat": 0.0, "type": "electric_scooter", "lat": 38.88104216666667, "is_reserved": 0, "is_disabled": 0, "fusion_lon": 0.0, "bike_id": "8f6b4bf4a29fabc605380d548820de5a", "lon": -77.012069, "rental_uris": {"ios": "https://dc.lft.to/lastmile_qr_scan", "android": "https://dc.lft.to/lastmile_qr_scan"}}, {"name": "8b3fe127f0020458851ef40a9823ee3e", "fusion_lat": 0.0, "type": "electric_scooter", "lat": 38.923380333333334, "is_reserved": 0, "is_disabled": 0, "fusion_lon": 0.0, "bike_id": "8b3fe127f0020458851ef40a9823ee3e", "lon": -77.0378555, "rental_uris": {"ios": "https://dc.lft.to/lastmile_qr_scan", "android": "https://dc.lft.to/lastmile_qr_scan"}}, {"name": "dae28c66f14bdd1ce101109fb48414a7", "fusion_lat": 0.0, "type": "electric_scooter", "lat": 38.906767333333335, "is_reserved": 0, "is_disabled": 0, "fusion_lon": 0.0, "bike_id": "dae28c66f14bdd1ce101109fb48414a7", "lon": -77.02704766666666, "rental_uris": {"ios": "https://dc.lft.to/lastmile_qr_scan", "android": "https://dc.lft.to/lastmile_qr_scan"}}, {"name": "43ce1d5cf6914314046cfe5a6d7ce6fa", "fusion_lat": 0.0, "type": "electric_scooter", "lat": 38.903838666666665, "is_reserved": 0, "is_disabled": 0, "fusion_lon": 0.0, "bike_id": "43ce1d5cf6914314046cfe5a6d7ce6fa", "lon": -77.04659883333333, "rental_uris": {"ios": "https://dc.lft.to/lastmile_qr_scan", "android": "https://dc.lft.to/lastmile_qr_scan"}}, {"name": "09f6664a08f8a3e176d05a7565141f50", "fusion_lat": 0.0, "type": "electric_scooter", "lat": 38.892242333333336, "is_reserved": 0, "is_disabled": 0, "fusion_lon": 0.0, "bike_id": "09f6664a08f8a3e176d05a7565141f50", "lon": -77.01371466666667, "rental_uris": {"ios": "https://dc.lft.to/lastmile_qr_scan", "android": "https://dc.lft.to/lastmile_qr_scan"}}, {"name": "c85646c9b43281d4f69415f5ac2c73db", "fusion_lat": 0.0, "type": "electric_scooter", "lat": 38.94085116666667, "is_reserved": 0, "is_disabled": 0, "fusion_lon": 0.0, "bike_id": "c85646c9b43281d4f69415f5ac2c73db", "lon": -77.01771233333334, "rental_uris": {"ios": "https://dc.lft.to/lastmile_qr_scan", "android": "https://dc.lft.to/lastmile_qr_scan"}}, {"name": "f77f3b94d82d30c31bba6fe5de99b2e3", "fusion_lat": 0.0, "type": "electric_scooter", "lat": 38.90217166666667, "is_reserved": 0, "is_disabled": 0, "fusion_lon": 0.0, "bike_id": "f77f3b94d82d30c31bba6fe5de99b2e3", "lon": -77.05123583333334, "rental_uris": {"ios": "https://dc.lft.to/lastmile_qr_scan", "android": "https://dc.lft.to/lastmile_qr_scan"}}, {"name": "998dd003c147d65ddf4c75610a5706fa", "fusion_lat": 0.0, "type": "electric_scooter", "lat": 38.89359016666667, "is_reserved": 0, "is_disabled": 0, "fusion_lon": 0.0, "bike_id": "998dd003c147d65ddf4c75610a5706fa", "lon": -76.9498565, "rental_uris": {"ios": "https://dc.lft.to/lastmile_qr_scan", "android": "https://dc.lft.to/lastmile_qr_scan"}}, {"name": "c47a6735d5e543345c016fd19fdaa956", "fusion_lat": 0.0, "type": "electric_scooter", "lat": 38.9111235, "is_reserved": 0, "is_disabled": 0, "fusion_lon": 0.0, "bike_id": "c47a6735d5e543345c016fd19fdaa956", "lon": -77.03917483333333, "rental_uris": {"ios": "https://dc.lft.to/lastmile_qr_scan", "android": "https://dc.lft.to/lastmile_qr_scan"}}, {"name": "dd7e2ddb1479acd6b95ec2ef0f2724ed", "fusion_lat": 0.0, "type": "electric_scooter", "lat": 38.90044433333333, "is_reserved": 0, "is_disabled": 0, "fusion_lon": 0.0, "bike_id": "dd7e2ddb1479acd6b95ec2ef0f2724ed", "lon": -76.98836766666666, "rental_uris": {"ios": "https://dc.lft.to/lastmile_qr_scan", "android": "https://dc.lft.to/lastmile_qr_scan"}}, {"name": "c9803daba38f72113e3d6db442e41e16", "fusion_lat": 0.0, "type": "electric_bike", "lat": 38.8691, "is_reserved": 0, "is_disabled": 0, "fusion_lon": 0.0, "bike_id": "c9803daba38f72113e3d6db442e41e16", "lon": -77.1317965, "rental_uris": {"ios": "https://dc.lft.to/lastmile_qr_scan", "android": "https://dc.lft.to/lastmile_qr_scan"}}, {"name": "35cbc6e437b0863f110dc46d4dc4ed58", "fusion_lat": 0.0, "type": "electric_scooter", "lat": 38.907040333333335, "is_reserved": 0, "is_disabled": 0, "fusion_lon": 0.0, "bike_id": "35cbc6e437b0863f110dc46d4dc4ed58", "lon": -77.023828, "rental_uris": {"ios": "https://dc.lft.to/lastmile_qr_scan", "android": "https://dc.lft.to/lastmile_qr_scan"}}, {"name": "3495f9105781c7fa91f113467084417f", "fusion_lat": 0.0, "type": "electric_bike", "lat": 38.89474933333333, "is_reserved": 0, "is_disabled": 0, "fusion_lon": 0.0, "bike_id": "3495f9105781c7fa91f113467084417f", "lon": -77.02347216666666, "rental_uris": {"ios": "https://dc.lft.to/lastmile_qr_scan", "android": "https://dc.lft.to/lastmile_qr_scan"}}, {"name": "0ad8e184951671933162d9f00dffe845", "fusion_lat": 0.0, "type": "electric_scooter", "lat": 38.91027116666667, "is_reserved": 0, "is_disabled": 0, "fusion_lon": 0.0, "bike_id": "0ad8e184951671933162d9f00dffe845", "lon": -77.0075545, "rental_uris": {"ios": "https://dc.lft.to/lastmile_qr_scan", "android": "https://dc.lft.to/lastmile_qr_scan"}}, {"name": "7b8fc783456db5f1a87076ed1a6d0382", "fusion_lat": 0.0, "type": "electric_scooter", "lat": 38.910547666666666, "is_reserved": 0, "is_disabled": 0, "fusion_lon": 0.0, "bike_id": "7b8fc783456db5f1a87076ed1a6d0382", "lon": -77.04267583333333, "rental_uris": {"ios": "https://dc.lft.to/lastmile_qr_scan", "android": "https://dc.lft.to/lastmile_qr_scan"}}, {"name": "2a163a797dd71727897d10aa03a634c1", "fusion_lat": 0.0, "type": "electric_scooter", "lat": 38.909759666666666, "is_reserved": 0, "is_disabled": 0, "fusion_lon": 0.0, "bike_id": "2a163a797dd71727897d10aa03a634c1", "lon": -77.02178866666667, "rental_uris": {"ios": "https://dc.lft.to/lastmile_qr_scan", "android": "https://dc.lft.to/lastmile_qr_scan"}}, {"name": "4677d4de63420440552015a9f6c36237", "fusion_lat": 0.0, "type": "electric_scooter", "lat": 38.903926166666665, "is_reserved": 0, "is_disabled": 0, "fusion_lon": 0.0, "bike_id": "4677d4de63420440552015a9f6c36237", "lon": -77.03215866666666, "rental_uris": {"ios": "https://dc.lft.to/lastmile_qr_scan", "android": "https://dc.lft.to/lastmile_qr_scan"}}, {"name": "84f0ffcceae0d732ebe3d48746513c0a", "fusion_lat": 0.0, "type": "electric_bike", "lat": 38.834404, "is_reserved": 0, "is_disabled": 0, "fusion_lon": 0.0, "bike_id": "84f0ffcceae0d732ebe3d48746513c0a", "lon": -77.00827816666667, "rental_uris": {"ios": "https://dc.lft.to/lastmile_qr_scan", "android": "https://dc.lft.to/lastmile_qr_scan"}}, {"name": "830c1d97cb0d4a6ef66949d112f948e5", "fusion_lat": 0.0, "type": "electric_scooter", "lat": 38.84429133333333, "is_reserved": 0, "is_disabled": 0, "fusion_lon": 0.0, "bike_id": "830c1d97cb0d4a6ef66949d112f948e5", "lon": -76.99776866666667, "rental_uris": {"ios": "https://dc.lft.to/lastmile_qr_scan", "android": "https://dc.lft.to/lastmile_qr_scan"}}, {"name": "5b903f5a9744aff31906c938cfe199d8", "fusion_lat": 0.0, "type": "electric_scooter", "lat": 38.9057165, "is_reserved": 0, "is_disabled": 0, "fusion_lon": 0.0, "bike_id": "5b903f5a9744aff31906c938cfe199d8", "lon": -77.02213083333334, "rental_uris": {"ios": "https://dc.lft.to/lastmile_qr_scan", "android": "https://dc.lft.to/lastmile_qr_scan"}}, {"name": "736f7dd1866c68e01badb1900b6b8b04", "fusion_lat": 0.0, "type": "electric_scooter", "lat": 38.93154783333333, "is_reserved": 0, "is_disabled": 0, "fusion_lon": 0.0, "bike_id": "736f7dd1866c68e01badb1900b6b8b04", "lon": -77.029648, "rental_uris": {"ios": "https://dc.lft.to/lastmile_qr_scan", "android": "https://dc.lft.to/lastmile_qr_scan"}}, {"name": "7e3621723df78d8745b8da40ae8ab916", "fusion_lat": 0.0, "type": "electric_scooter", "lat": 38.8980275, "is_reserved": 0, "is_disabled": 0, "fusion_lon": 0.0, "bike_id": "7e3621723df78d8745b8da40ae8ab916", "lon": -76.99159566666667, "rental_uris": {"ios": "https://dc.lft.to/lastmile_qr_scan", "android": "https://dc.lft.to/lastmile_qr_scan"}}, {"name": "67d6765752553910fe5a688b7e534586", "fusion_lat": 0.0, "type": "electric_scooter", "lat": 38.91196983333333, "is_reserved": 0, "is_disabled": 0, "fusion_lon": 0.0, "bike_id": "67d6765752553910fe5a688b7e534586", "lon": -77.0384205, "rental_uris": {"ios": "https://dc.lft.to/lastmile_qr_scan", "android": "https://dc.lft.to/lastmile_qr_scan"}}, {"name": "e9e2e05ee0d52d835940a9e8df00222c", "fusion_lat": 0.0, "type": "electric_scooter", "lat": 38.91126466666667, "is_reserved": 0, "is_disabled": 0, "fusion_lon": 0.0, "bike_id": "e9e2e05ee0d52d835940a9e8df00222c", "lon": -77.02195416666666, "rental_uris": {"ios": "https://dc.lft.to/lastmile_qr_scan", "android": "https://dc.lft.to/lastmile_qr_scan"}}, {"name": "fba878b75a63fe2e416b103d6274c8aa", "fusion_lat": 0.0, "type": "electric_scooter", "lat": 38.878729, "is_reserved": 0, "is_disabled": 0, "fusion_lon": 0.0, "bike_id": "fba878b75a63fe2e416b103d6274c8aa", "lon": -76.965287, "rental_uris": {"ios": "https://dc.lft.to/lastmile_qr_scan", "android": "https://dc.lft.to/lastmile_qr_scan"}}, {"name": "4fe0e4adc35dc9f7670b6c84eef53b4a", "fusion_lat": 0.0, "type": "electric_scooter", "lat": 38.918083833333334, "is_reserved": 0, "is_disabled": 0, "fusion_lon": 0.0, "bike_id": "4fe0e4adc35dc9f7670b6c84eef53b4a", "lon": -77.02493483333333, "rental_uris": {"ios": "https://dc.lft.to/lastmile_qr_scan", "android": "https://dc.lft.to/lastmile_qr_scan"}}, {"name": "430c68193ea6cf65f1a45d6c77c2b1c6", "fusion_lat": 0.0, "type": "electric_scooter", "lat": 38.903389833333335, "is_reserved": 0, "is_disabled": 0, "fusion_lon": 0.0, "bike_id": "430c68193ea6cf65f1a45d6c77c2b1c6", "lon": -77.05433533333333, "rental_uris": {"ios": "https://dc.lft.to/lastmile_qr_scan", "android": "https://dc.lft.to/lastmile_qr_scan"}}, {"name": "c06dd6a8c69d5ae075b8a6a0b290d500", "fusion_lat": 0.0, "type": "electric_scooter", "lat": 38.90881066666667, "is_reserved": 0, "is_disabled": 0, "fusion_lon": 0.0, "bike_id": "c06dd6a8c69d5ae075b8a6a0b290d500", "lon": -77.07604366666666, "rental_uris": {"ios": "https://dc.lft.to/lastmile_qr_scan", "android": "https://dc.lft.to/lastmile_qr_scan"}}, {"name": "1a7e4396056e919ac2f966ed8f0c389f", "fusion_lat": 0.0, "type": "electric_scooter", "lat": 38.895152, "is_reserved": 0, "is_disabled": 0, "fusion_lon": 0.0, "bike_id": "1a7e4396056e919ac2f966ed8f0c389f", "lon": -76.99213216666666, "rental_uris": {"ios": "https://dc.lft.to/lastmile_qr_scan", "android": "https://dc.lft.to/lastmile_qr_scan"}}, {"name": "9b8c3fe1d33b75259725876bd70955de", "fusion_lat": 0.0, "type": "electric_scooter", "lat": 38.899168, "is_reserved": 0, "is_disabled": 0, "fusion_lon": 0.0, "bike_id": "9b8c3fe1d33b75259725876bd70955de", "lon": -77.03292683333333, "rental_uris": {"ios": "https://dc.lft.to/lastmile_qr_scan", "android": "https://dc.lft.to/lastmile_qr_scan"}}, {"name": "60132511fb7c17a0f003866ff1ef3afe", "fusion_lat": 0.0, "type": "electric_scooter", "lat": 38.91760133333333, "is_reserved": 0, "is_disabled": 0, "fusion_lon": 0.0, "bike_id": "60132511fb7c17a0f003866ff1ef3afe", "lon": -77.0144825, "rental_uris": {"ios": "https://dc.lft.to/lastmile_qr_scan", "android": "https://dc.lft.to/lastmile_qr_scan"}}, {"name": "2534d02a176d8a1262572a23db23597a", "fusion_lat": 0.0, "type": "electric_scooter", "lat": 38.90031116666667, "is_reserved": 0, "is_disabled": 0, "fusion_lon": 0.0, "bike_id": "2534d02a176d8a1262572a23db23597a", "lon": -77.04684583333334, "rental_uris": {"ios": "https://dc.lft.to/lastmile_qr_scan", "android": "https://dc.lft.to/lastmile_qr_scan"}}, {"name": "baa13f0c7ac7f8323f0a12052baa5f20", "fusion_lat": 0.0, "type": "electric_scooter", "lat": 38.92258566666667, "is_reserved": 0, "is_disabled": 0, "fusion_lon": 0.0, "bike_id": "baa13f0c7ac7f8323f0a12052baa5f20", "lon": -77.04134466666666, "rental_uris": {"ios": "https://dc.lft.to/lastmile_qr_scan", "android": "https://dc.lft.to/lastmile_qr_scan"}}, {"name": "d9f609da0bd26a672de382ab56c11deb", "fusion_lat": 0.0, "type": "electric_scooter", "lat": 38.900249, "is_reserved": 0, "is_disabled": 0, "fusion_lon": 0.0, "bike_id": "d9f609da0bd26a672de382ab56c11deb", "lon": -76.99646983333334, "rental_uris": {"ios": "https://dc.lft.to/lastmile_qr_scan", "android": "https://dc.lft.to/lastmile_qr_scan"}}, {"name": "d060b86f3ffced1d8520a850af19a219", "fusion_lat": 0.0, "type": "electric_scooter", "lat": 38.93631366666666, "is_reserved": 0, "is_disabled": 0, "fusion_lon": 0.0, "bike_id": "d060b86f3ffced1d8520a850af19a219", "lon": -77.03645383333334, "rental_uris": {"ios": "https://dc.lft.to/lastmile_qr_scan", "android": "https://dc.lft.to/lastmile_qr_scan"}}, {"name": "8c488c33bfc5db4f9fbd426d4c9a9b1a", "fusion_lat": 0.0, "type": "electric_bike", "lat": 38.807940333333335, "is_reserved": 0, "is_disabled": 0, "fusion_lon": 0.0, "bike_id": "8c488c33bfc5db4f9fbd426d4c9a9b1a", "lon": -77.1296395, "rental_uris": {"ios": "https://dc.lft.to/lastmile_qr_scan", "android": "https://dc.lft.to/lastmile_qr_scan"}}, {"name": "df946e979ae89ad0b6e315eea8a26e85", "fusion_lat": 0.0, "type": "electric_bike", "lat": 38.957177, "is_reserved": 0, "is_disabled": 0, "fusion_lon": 0.0, "bike_id": "df946e979ae89ad0b6e315eea8a26e85", "lon": -77.014752, "rental_uris": {"ios": "https://dc.lft.to/lastmile_qr_scan", "android": "https://dc.lft.to/lastmile_qr_scan"}}, {"name": "f7b2e651b80a42c4374dd817f6873924", "fusion_lat": 0.0, "type": "electric_scooter", "lat": 38.95910416666667, "is_reserved": 0, "is_disabled": 0, "fusion_lon": 0.0, "bike_id": "f7b2e651b80a42c4374dd817f6873924", "lon": -77.08082666666667, "rental_uris": {"ios": "https://dc.lft.to/lastmile_qr_scan", "android": "https://dc.lft.to/lastmile_qr_scan"}}, {"name": "3747acb4a80b099ea5ade996c4a9332f", "fusion_lat": 0.0, "type": "electric_scooter", "lat": 38.89409216666667, "is_reserved": 0, "is_disabled": 0, "fusion_lon": 0.0, "bike_id": "3747acb4a80b099ea5ade996c4a9332f", "lon": -76.93239583333333, "rental_uris": {"ios": "https://dc.lft.to/lastmile_qr_scan", "android": "https://dc.lft.to/lastmile_qr_scan"}}, {"name": "b4f1009a5d2079588d3a9ea187a6b471", "fusion_lat": 0.0, "type": "electric_scooter", "lat": 38.90262533333333, "is_reserved": 0, "is_disabled": 0, "fusion_lon": 0.0, "bike_id": "b4f1009a5d2079588d3a9ea187a6b471", "lon": -77.04481066666666, "rental_uris": {"ios": "https://dc.lft.to/lastmile_qr_scan", "android": "https://dc.lft.to/lastmile_qr_scan"}}, {"name": "208e273f76e864ba0adf99cb320d8ed3", "fusion_lat": 0.0, "type": "electric_scooter", "lat": 38.9033155, "is_reserved": 0, "is_disabled": 0, "fusion_lon": 0.0, "bike_id": "208e273f76e864ba0adf99cb320d8ed3", "lon": -77.0446175, "rental_uris": {"ios": "https://dc.lft.to/lastmile_qr_scan", "android": "https://dc.lft.to/lastmile_qr_scan"}}, {"name": "2891ea6c15cf1b6da1f1ea302215fe91", "fusion_lat": 0.0, "type": "electric_scooter", "lat": 38.85842233333333, "is_reserved": 0, "is_disabled": 0, "fusion_lon": 0.0, "bike_id": "2891ea6c15cf1b6da1f1ea302215fe91", "lon": -76.98894133333333, "rental_uris": {"ios": "https://dc.lft.to/lastmile_qr_scan", "android": "https://dc.lft.to/lastmile_qr_scan"}}, {"name": "02f4dd82cb26a785ea72d34e2b53e4ba", "fusion_lat": 0.0, "type": "electric_bike", "lat": 38.852127833333334, "is_reserved": 0, "is_disabled": 0, "fusion_lon": 0.0, "bike_id": "02f4dd82cb26a785ea72d34e2b53e4ba", "lon": -77.04644633333334, "rental_uris": {"ios": "https://dc.lft.to/lastmile_qr_scan", "android": "https://dc.lft.to/lastmile_qr_scan"}}, {"name": "a4bb3df81e73c16712d2deb9ff03364e", "fusion_lat": 0.0, "type": "electric_scooter", "lat": 38.92039533333333, "is_reserved": 0, "is_disabled": 0, "fusion_lon": 0.0, "bike_id": "a4bb3df81e73c16712d2deb9ff03364e", "lon": -77.017525, "rental_uris": {"ios": "https://dc.lft.to/lastmile_qr_scan", "android": "https://dc.lft.to/lastmile_qr_scan"}}, {"name": "0470cf1d7448a4bccb2cfa84ad1fdc48", "fusion_lat": 0.0, "type": "electric_bike", "lat": 39.003826333333336, "is_reserved": 0, "is_disabled": 0, "fusion_lon": 0.0, "bike_id": "0470cf1d7448a4bccb2cfa84ad1fdc48", "lon": -77.01292416666666, "rental_uris": {"ios": "https://dc.lft.to/lastmile_qr_scan", "android": "https://dc.lft.to/lastmile_qr_scan"}}, {"name": "6e2c6d792dbd722c644223666924a48d", "fusion_lat": 0.0, "type": "electric_scooter", "lat": 38.93208683333334, "is_reserved": 0, "is_disabled": 0, "fusion_lon": 0.0, "bike_id": "6e2c6d792dbd722c644223666924a48d", "lon": -77.03660716666667, "rental_uris": {"ios": "https://dc.lft.to/lastmile_qr_scan", "android": "https://dc.lft.to/lastmile_qr_scan"}}, {"name": "98d7e01674dd48d23d50cc86186d8aa8", "fusion_lat": 0.0, "type": "electric_scooter", "lat": 38.90419633333333, "is_reserved": 0, "is_disabled": 0, "fusion_lon": 0.0, "bike_id": "98d7e01674dd48d23d50cc86186d8aa8", "lon": -76.990679, "rental_uris": {"ios": "https://dc.lft.to/lastmile_qr_scan", "android": "https://dc.lft.to/lastmile_qr_scan"}}, {"name": "414c2de78cb2f212a7c6e9118661aec3", "fusion_lat": 0.0, "type": "electric_scooter", "lat": 38.92352833333333, "is_reserved": 0, "is_disabled": 0, "fusion_lon": 0.0, "bike_id": "414c2de78cb2f212a7c6e9118661aec3", "lon": -77.0543475, "rental_uris": {"ios": "https://dc.lft.to/lastmile_qr_scan", "android": "https://dc.lft.to/lastmile_qr_scan"}}, {"name": "dfb2d6ea5933251616fcea82f330751c", "fusion_lat": 0.0, "type": "electric_scooter", "lat": 38.94702983333333, "is_reserved": 0, "is_disabled": 0, "fusion_lon": 0.0, "bike_id": "dfb2d6ea5933251616fcea82f330751c", "lon": -77.01938083333333, "rental_uris": {"ios": "https://dc.lft.to/lastmile_qr_scan", "android": "https://dc.lft.to/lastmile_qr_scan"}}, {"name": "2b113eb409addacf48f7856e3184509a", "fusion_lat": 0.0, "type": "electric_scooter", "lat": 38.911974, "is_reserved": 0, "is_disabled": 0, "fusion_lon": 0.0, "bike_id": "2b113eb409addacf48f7856e3184509a", "lon": -77.03446, "rental_uris": {"ios": "https://dc.lft.to/lastmile_qr_scan", "android": "https://dc.lft.to/lastmile_qr_scan"}}, {"name": "92dbc50efc1d5b89152ff3cb3208c29d", "fusion_lat": 0.0, "type": "electric_scooter", "lat": 38.8972955, "is_reserved": 0, "is_disabled": 0, "fusion_lon": 0.0, "bike_id": "92dbc50efc1d5b89152ff3cb3208c29d", "lon": -77.02326833333333, "rental_uris": {"ios": "https://dc.lft.to/lastmile_qr_scan", "android": "https://dc.lft.to/lastmile_qr_scan"}}, {"name": "3e21b7f612042078df6df97c586c6503", "fusion_lat": 0.0, "type": "electric_scooter", "lat": 38.865365, "is_reserved": 0, "is_disabled": 0, "fusion_lon": 0.0, "bike_id": "3e21b7f612042078df6df97c586c6503", "lon": -76.9870615, "rental_uris": {"ios": "https://dc.lft.to/lastmile_qr_scan", "android": "https://dc.lft.to/lastmile_qr_scan"}}, {"name": "e4084f73f9b6e2c730af1298080a0ed5", "fusion_lat": 0.0, "type": "electric_scooter", "lat": 38.902763, "is_reserved": 0, "is_disabled": 0, "fusion_lon": 0.0, "bike_id": "e4084f73f9b6e2c730af1298080a0ed5", "lon": -77.02997366666666, "rental_uris": {"ios": "https://dc.lft.to/lastmile_qr_scan", "android": "https://dc.lft.to/lastmile_qr_scan"}}, {"name": "fc467ee78b96431429369ce458f0ff7b", "fusion_lat": 0.0, "type": "electric_scooter", "lat": 38.920678, "is_reserved": 0, "is_disabled": 0, "fusion_lon": 0.0, "bike_id": "fc467ee78b96431429369ce458f0ff7b", "lon": -76.97802516666667, "rental_uris": {"ios": "https://dc.lft.to/lastmile_qr_scan", "android": "https://dc.lft.to/lastmile_qr_scan"}}, {"name": "db5d10768279ee44ceb8fb491cbc6376", "fusion_lat": 0.0, "type": "electric_scooter", "lat": 38.91115933333333, "is_reserved": 0, "is_disabled": 0, "fusion_lon": 0.0, "bike_id": "db5d10768279ee44ceb8fb491cbc6376", "lon": -77.00603383333333, "rental_uris": {"ios": "https://dc.lft.to/lastmile_qr_scan", "android": "https://dc.lft.to/lastmile_qr_scan"}}, {"name": "6b9c86d5f44e10e57c2ac3f9e4e2a705", "fusion_lat": 0.0, "type": "electric_scooter", "lat": 38.9154885, "is_reserved": 0, "is_disabled": 0, "fusion_lon": 0.0, "bike_id": "6b9c86d5f44e10e57c2ac3f9e4e2a705", "lon": -77.0385215, "rental_uris": {"ios": "https://dc.lft.to/lastmile_qr_scan", "android": "https://dc.lft.to/lastmile_qr_scan"}}, {"name": "9c0631c4b6e70d2b044bb5d672f09ffa", "fusion_lat": 0.0, "type": "electric_scooter", "lat": 38.90029083333334, "is_reserved": 0, "is_disabled": 0, "fusion_lon": 0.0, "bike_id": "9c0631c4b6e70d2b044bb5d672f09ffa", "lon": -77.011884, "rental_uris": {"ios": "https://dc.lft.to/lastmile_qr_scan", "android": "https://dc.lft.to/lastmile_qr_scan"}}, {"name": "b90ef435afa4f5e24d86a17fbe4085bc", "fusion_lat": 0.0, "type": "electric_scooter", "lat": 38.902668166666665, "is_reserved": 0, "is_disabled": 0, "fusion_lon": 0.0, "bike_id": "b90ef435afa4f5e24d86a17fbe4085bc", "lon": -77.04602433333334, "rental_uris": {"ios": "https://dc.lft.to/lastmile_qr_scan", "android": "https://dc.lft.to/lastmile_qr_scan"}}, {"name": "057b8932b48d0bdcf292c1fb6632935d", "fusion_lat": 0.0, "type": "electric_scooter", "lat": 38.919161833333334, "is_reserved": 0, "is_disabled": 0, "fusion_lon": 0.0, "bike_id": "057b8932b48d0bdcf292c1fb6632935d", "lon": -77.024045, "rental_uris": {"ios": "https://dc.lft.to/lastmile_qr_scan", "android": "https://dc.lft.to/lastmile_qr_scan"}}, {"name": "79a5a479b21eb57a04ed3442e3626dc1", "fusion_lat": 0.0, "type": "electric_scooter", "lat": 38.91716783333333, "is_reserved": 0, "is_disabled": 0, "fusion_lon": 0.0, "bike_id": "79a5a479b21eb57a04ed3442e3626dc1", "lon": -77.00812983333333, "rental_uris": {"ios": "https://dc.lft.to/lastmile_qr_scan", "android": "https://dc.lft.to/lastmile_qr_scan"}}, {"name": "d8a669f45999b1f21efa4a4f5bab663e", "fusion_lat": 0.0, "type": "electric_scooter", "lat": 38.8990775, "is_reserved": 0, "is_disabled": 0, "fusion_lon": 0.0, "bike_id": "d8a669f45999b1f21efa4a4f5bab663e", "lon": -77.021776, "rental_uris": {"ios": "https://dc.lft.to/lastmile_qr_scan", "android": "https://dc.lft.to/lastmile_qr_scan"}}, {"name": "31c3d687d48aae9e981bbdde5bfde771", "fusion_lat": 0.0, "type": "electric_scooter", "lat": 38.91194133333333, "is_reserved": 0, "is_disabled": 0, "fusion_lon": 0.0, "bike_id": "31c3d687d48aae9e981bbdde5bfde771", "lon": -77.01781633333333, "rental_uris": {"ios": "https://dc.lft.to/lastmile_qr_scan", "android": "https://dc.lft.to/lastmile_qr_scan"}}, {"name": "692567cb28c57171654edfd86ecff0a0", "fusion_lat": 0.0, "type": "electric_scooter", "lat": 38.9097175, "is_reserved": 0, "is_disabled": 0, "fusion_lon": 0.0, "bike_id": "692567cb28c57171654edfd86ecff0a0", "lon": -77.03886916666667, "rental_uris": {"ios": "https://dc.lft.to/lastmile_qr_scan", "android": "https://dc.lft.to/lastmile_qr_scan"}}, {"name": "3c608d437aab8607ba84f0833dacb7a0", "fusion_lat": 0.0, "type": "electric_scooter", "lat": 38.92117833333333, "is_reserved": 0, "is_disabled": 0, "fusion_lon": 0.0, "bike_id": "3c608d437aab8607ba84f0833dacb7a0", "lon": -77.04375733333333, "rental_uris": {"ios": "https://dc.lft.to/lastmile_qr_scan", "android": "https://dc.lft.to/lastmile_qr_scan"}}, {"name": "dafefc6859d1da4dfaca8b3ac76a3f93", "fusion_lat": 0.0, "type": "electric_scooter", "lat": 38.934994833333334, "is_reserved": 0, "is_disabled": 0, "fusion_lon": 0.0, "bike_id": "dafefc6859d1da4dfaca8b3ac76a3f93", "lon": -77.0254155, "rental_uris": {"ios": "https://dc.lft.to/lastmile_qr_scan", "android": "https://dc.lft.to/lastmile_qr_scan"}},