{"data": {"bikes": [{"bike_id": "9f2fc58d69f5ae81263570a51f21cc3e", "is_reserved": 0, "fusion_lon": 0.0, "lat": 38.94082916666667, "is_disabled": 0, "name": "9f2fc58d69f5ae81263570a51f21cc3e", "fusion_lat": 0.0, "rental_uris": {"ios": "https://dc.lft.to/lastmile_qr_scan", "android": "https://dc.lft.to/lastmile_qr_scan"}, "lon": -77.02723616666667, "type": "electric_scooter"}, {"bike_id": "de6926555eb040ceda5cc0a790511821", "is_reserved": 0, "fusion_lon": 0.0, "lat": 38.820847, "is_disabled": 0, "name": "de6926555eb040ceda5cc0a790511821", "fusion_lat": 0.0, "rental_uris": {"ios": "https://dc.lft.to/lastmile_qr_scan", "android": "https://dc.lft.to/lastmile_qr_scan"}, "lon": -77.0536845, "type": "electric_bike"}, {"bike_id": "71dcaeb313a5d338f3b1b314715ea89a", "is_reserved": 0, "fusion_lon": 0.0, "lat": 38.92190683333333, "is_disabled": 0, "name": "71dcaeb313a5d338f3b1b314715ea89a", "fusion_lat": 0.0, "rental_uris": {"ios": "https://dc.lft.to/lastmile_qr_scan", "android": "https://dc.lft.to/lastmile_qr_scan"}, "lon": -77.042584, "type": "electric_scooter"}, {"bike_id": "8ef542c9fa56a2385369fc7b43d56de5", "is_reserved": 0, "fusion_lon": 0.0, "lat": 38.892306, "is_disabled": 0, "name": "8ef542c9fa56a2385369fc7b43d56de5", "fusion_lat": 0.0, "rental_uris": {"ios": "https://dc.lft.to/lastmile_qr_scan", "android": "https://dc.lft.to/lastmile_qr_scan"}, "lon": -77.02176916666667, "type": "electric_scooter"}, {"bike_id": "056e93abb87ed1883262cb6e61347fa9", "is_reserved": 0, "fusion_lon": 0.0, "lat": 38.935348, "is_disabled": 0, "name": "056e93abb87ed1883262cb6e61347fa9", "fusion_lat": 0.0, "rental_uris": {"ios": "https://dc.lft.to/lastmile_qr_scan", "android": "https://dc.lft.to/lastmile_qr_scan"}, "lon": -77.02348833333333, "type": "electric_scooter"}, {"bike_id": "cfac20cf8d1711b49da342462a3c3f34", "is_reserved": 0, "fusion_lon": 0.0, "lat": 38.909194, "is_disabled": 0, "name": "cfac20cf8d1711b49da342462a3c3f34", "fusion_lat": 0.0, "rental_uris": {"ios": "https://dc.lft.to/lastmile_qr_scan", "android": "https://dc.lft.to/lastmile_qr_scan"}, "lon": -77.03135783333333, "type": "electric_scooter"}, {"bike_id": "34ba404985b3247688b8f7c0a23d575d", "is_reserved": 0, "fusion_lon": 0.0, "lat": 38.9023975, "is_disabled": 0, "name": "34ba404985b3247688b8f7c0a23d575d", "fusion_lat": 0.0, "rental_uris": {"ios": "https://dc.lft.to/lastmile_qr_scan", "android": "https://dc.lft.to/lastmile_qr_scan"}, "lon": -77.02694416666667, "type": "electric_scooter"}, {"bike_id": "11ea0275f16f7d8fa6da56b623188be3", "is_reserved": 0, "fusion_lon": 0.0, "lat": 38.89643433333333, "is_disabled": 0, "name": "11ea0275f16f7d8fa6da56b623188be3", "fusion_lat": 0.0, "rental_uris": {"ios": "https://dc.lft.to/lastmile_qr_scan", "android": "https://dc.lft.to/lastmile_qr_scan"}, "lon": -77.04336383333333, "type": "electric_scooter"}, {"bike_id": "6dd02086cf595053a5202bbf0a2e0248", "is_reserved": 0, "fusion_lon": 0.0, "lat": 38.921861666666665, "is_disabled": 0, "name": "6dd02086cf595053a5202bbf0a2e0248", "fusion_lat": 0.0, "rental_uris": {"ios": "https://dc.lft.to/lastmile_qr_scan", "android": "https://dc.lft.to/lastmile_qr_scan"}, "lon": -77.04284966666667, "type": "electric_scooter"}, {"bike_id": "90bed095398244d3f9562a25d65fd5cc", "is_reserved": 0, "fusion_lon": 0.0, "lat": 38.901363333333336, "is_disabled": 0, "name": "90bed095398244d3f9562a25d65fd5cc", "fusion_lat": 0.0, "rental_uris": {"ios": "https://dc.lft.to/lastmile_qr_scan", "android": "https://dc.lft.to/lastmile_qr_scan"}, "lon": -77.04306616666666, "type": "electric_scooter"}, {"bike_id": "a3bd32c1687eeee4d9941acbc0af79b7", "is_reserved": 0, "fusion_lon": 0.0, "lat": 38.92156766666667, "is_disabled": 0, "name": "a3bd32c1687eeee4d9941acbc0af79b7", "fusion_lat": 0.0, "rental_uris": {"ios": "https://dc.lft.to/lastmile_qr_scan", "android": "https://dc.lft.to/lastmile_qr_scan"}, "lon": -77.02101816666666, "type": "electric_scooter"}, {"bike_id": "580d36a690290e1872bd8af563a594f8", "is_reserved": 0, "fusion_lon": 0.0, "lat": 38.898337, "is_disabled": 0, "name": "580d36a690290e1872bd8af563a594f8", "fusion_lat": 0.0, "rental_uris": {"ios": "https://dc.lft.to/lastmile_qr_scan", "android": "https://dc.lft.to/lastmile_qr_scan"}, "lon": -77.03331916666667, "type": "electric_scooter"}, {"bike_id": "d1d14c88aa9576491ba1da2ca8feb7b1", "is_reserved": 0, "fusion_lon": 0.0, "lat": 38.90235, "is_disabled": 0, "name": "d1d14c88aa9576491ba1da2ca8feb7b1", "fusion_lat": 0.0, "rental_uris": {"ios": "https://dc.lft.to/lastmile_qr_scan", "android": "https://dc.lft.to/lastmile_qr_scan"}, "lon": -77.00593116666667, "type": "electric_scooter"}, {"bike_id": "e872f7e3c6e960166cd25137846bd3dd", "is_reserved": 0, "fusion_lon": 0.0, "lat": 38.9508675, "is_disabled": 0, "name": "e872f7e3c6e960166cd25137846bd3dd", "fusion_lat": 0.0, "rental_uris": {"ios": "https://dc.lft.to/lastmile_qr_scan", "android": "https://dc.lft.to/lastmile_qr_scan"}, "lon": -77.028298, "type": "electric_scooter"}, {"bike_id": "8e17e9d1ca4c71bcb7797fa84b317fdb", "is_reserved": 0, "fusion_lon": 0.0, "lat": 38.93384266666666, "is_disabled": 0, "name": "8e17e9d1ca4c71bcb7797fa84b317fdb", "fusion_lat": 0.0, "rental_uris": {"ios": "https://dc.lft.to/lastmile_qr_scan", "android": "https://dc.lft.to/lastmile_qr_scan"}, "lon": -77.029066, "type": "electric_scooter"}, {"bike_id": "065cdc782021bacd03af35940992c71a", "is_reserved": 0, "fusion_lon": 0.0, "lat": 38.89876316666667, "is_disabled": 0, "name": "065cdc782021bacd03af35940992c71a", "fusion_lat": 0.0, "rental_uris": {"ios": "https://dc.lft.to/lastmile_qr_scan", "android": "https://dc.lft.to/lastmile_qr_scan"}, "lon": -76.93187233333333, "type": "electric_scooter"}, {"bike_id": "527e6ac1d9136798662ba61f1e6c5c54", "is_reserved": 0, "fusion_lon": 0.0, "lat": 38.90846033333333, "is_disabled": 0, "name": "527e6ac1d9136798662ba61f1e6c5c54", "fusion_lat": 0.0, "rental_uris": {"ios": "https://dc.lft.to/lastmile_qr_scan", "android": "https://dc.lft.to/lastmile_qr_scan"}, "lon": -77.08535716666667, "type": "electric_scooter"}, {"bike_id": "a501e8ffa0f2b2316630a2eb08dbf97a", "is_reserved": 0, "fusion_lon": 0.0, "lat": 38.92607483333333, "is_disabled": 0, "name": "a501e8ffa0f2b2316630a2eb08dbf97a", "fusion_lat": 0.0, "rental_uris": {"ios": "https://dc.lft.to/lastmile_qr_scan", "android": "https://dc.lft.to/lastmile_qr_scan"}, "lon": -77.04420316666666, "type": "electric_scooter"}, {"bike_id": "08d223e2dc2f9118ea8012bbbfafdfcf", "is_reserved": 0, "fusion_lon": 0.0, "lat": 38.87073633333333, "is_disabled": 0, "name": "08d223e2dc2f9118ea8012bbbfafdfcf", "fusion_lat": 0.0, "rental_uris": {"ios": "https://dc.lft.to/lastmile_qr_scan", "android": "https://dc.lft.to/lastmile_qr_scan"}, "lon": -76.98238016666667, "type": "electric_scooter"}, {"bike_id": "bc176340a2cc0989feb9ee4ec3d76cee", "is_reserved": 0, "fusion_lon": 0.0, "lat": 38.92469166666667, "is_disabled": 0, "name": "bc176340a2cc0989feb9ee4ec3d76cee", "fusion_lat": 0.0, "rental_uris": {"ios": "https://dc.lft.to/lastmile_qr_scan", "android": "https://dc.lft.to/lastmile_qr_scan"}, "lon": -77.02270133333333, "type": "electric_scooter"}, {"bike_id": "ee658daad3951ae73f46000ff1e77290", "is_reserved": 0, "fusion_lon": 0.0, "lat": 38.8893365, "is_disabled": 0, "name": "ee658daad3951ae73f46000ff1e77290", "fusion_lat": 0.0, "rental_uris": {"ios": "https://dc.lft.to/lastmile_qr_scan", "android": "https://dc.lft.to/lastmile_qr_scan"}, "lon": -76.93619733333334, "type": "electric_scooter"}, {"bike_id": "ef51b26ed1fcab1c9eecd8e46470c83b", "is_reserved": 0, "fusion_lon": 0.0, "lat": 38.892367166666666, "is_disabled": 0, "name": "ef51b26ed1fcab1c9eecd8e46470c83b", "fusion_lat": 0.0, "rental_uris": {"ios": "https://dc.lft.to/lastmile_qr_scan", "android": "https://dc.lft.to/lastmile_qr_scan"}, "lon": -77.02798083333333, "type": "electric_scooter"}, {"bike_id": "9533b6eece3dd39879f510d19f919701", "is_reserved": 0, "fusion_lon": 0.0, "lat": 38.9274585, "is_disabled": 0, "name": "9533b6eece3dd39879f510d19f919701", "fusion_lat": 0.0, "rental_uris": {"ios": "https://dc.lft.to/lastmile_qr_scan", "android": "https://dc.lft.to/lastmile_qr_scan"}, "lon": -77.025341, "type": "electric_scooter"}, {"bike_id": "10ff0cbf07a576780d1236957ec44464", "is_reserved": 0, "fusion_lon": 0.0, "lat": 38.917732666666666, "is_disabled": 0, "name": "10ff0cbf07a576780d1236957ec44464", "fusion_lat": 0.0, "rental_uris": {"ios": "https://dc.lft.to/lastmile_qr_scan", "android": "https://dc.lft.to/lastmile_qr_scan"}, "lon": -77.02309916666667, "type": "electric_scooter"}, {"bike_id": "00759dc25357a3a98052e56efd25e339", "is_reserved": 0, "fusion_lon": 0.0, "lat": 38.88361316666666, "is_disabled": 0, "name": "00759dc25357a3a98052e56efd25e339", "fusion_lat": 0.0, "rental_uris": {"ios": "https://dc.lft.to/lastmile_qr_scan", "android": "https://dc.lft.to/lastmile_qr_scan"}, "lon": -77.03173366666667, "type": "electric_scooter"}, {"bike_id": "9c54be81a3bac8a6f76547ff7cedd015", "is_reserved": 0, "fusion_lon": 0.0, "lat": 38.920581166666665, "is_disabled": 0, "name": "9c54be81a3bac8a6f76547ff7cedd015", "fusion_lat": 0.0, "rental_uris": {"ios": "https://dc.lft.to/lastmile_qr_scan", "android": "https://dc.lft.to/lastmile_qr_scan"}, "lon": -77.04249566666667, "type": "electric_scooter"}, {"bike_id": "80d5531fdbcf7d6d129a0d12e14f0f48", "is_reserved": 0, "fusion_lon": 0.0, "lat": 38.900196333333334, "is_disabled": 0, "name": "80d5531fdbcf7d6d129a0d12e14f0f48", "fusion_lat": 0.0, "rental_uris": {"ios": "https://dc.lft.to/lastmile_qr_scan", "android": "https://dc.lft.to/lastmile_qr_scan"}, "lon": -77.0402125, "type": "electric_scooter"}, {"bike_id": "bfc081a189e53bc185c9f1a22fd05aa1", "is_reserved": 0, "fusion_lon": 0.0, "lat": 38.903628833333336, "is_disabled": 0, "name": "bfc081a189e53bc185c9f1a22fd05aa1", "fusion_lat": 0.0, "rental_uris": {"ios": "https://dc.lft.to/lastmile_qr_scan", "android": "https://dc.lft.to/lastmile_qr_scan"}, "lon": -77.04002466666667, "type": "electric_scooter"}, {"bike_id": "543bf8209ce1bcb27390cda63e4aba5d", "is_reserved": 0, "fusion_lon": 0.0, "lat": 38.9547895, "is_disabled": 0, "name": "543bf8209ce1bcb27390cda63e4aba5d", "fusion_lat": 0.0, "rental_uris": {"ios": "https://dc.lft.to/lastmile_qr_scan", "android": "https://dc.lft.to/lastmile_qr_scan"}, "lon": -77.08240433333333, "type": "electric_bike"}, {"bike_id": "31a9f1a2c989436a87532b6c065dfab9", "is_reserved": 0, "fusion_lon": 0.0, "lat": 38.9168925, "is_disabled": 0, "name": "31a9f1a2c989436a87532b6c065dfab9", "fusion_lat": 0.0, "rental_uris": {"ios": "https://dc.lft.to/lastmile_qr_scan", "android": "https://dc.lft.to/lastmile_qr_scan"}, "lon": -77.03170383333334, "type": "electric_scooter"}, {"bike_id": "90bbed55974011fcf0e88041bd4b5da9", "is_reserved": 0, "fusion_lon": 0.0, "lat": 38.90437283333333, "is_disabled": 0, "name": "90bbed55974011fcf0e88041bd4b5da9", "fusion_lat": 0.0, "rental_uris": {"ios": "https://dc.lft.to/lastmile_qr_scan", "android": "https://dc.lft.to/lastmile_qr_scan"}, "lon": -77.048876, "type": "electric_scooter"}, {"bike_id": "2ff4e8cb9f465c7fa126f14bc6b7ba18", "is_reserved": 0, "fusion_lon": 0.0, "lat": 38.91708, "is_disabled": 0, "name": "2ff4e8cb9f465c7fa126f14bc6b7ba18", "fusion_lat": 0.0, "rental_uris": {"ios": "https://dc.lft.to/lastmile_qr_scan", "android": "https://dc.lft.to/lastmile_qr_scan"}, "lon": -77.02467616666667, "type": "electric_scooter"}, {"bike_id": "cee0b09d00c8ef61c9e876e3f9538fe1", "is_reserved": 0, "fusion_lon": 0.0, "lat": 38.92611516666667, "is_disabled": 0, "name": "cee0b09d00c8ef61c9e876e3f9538fe1", "fusion_lat": 0.0, "rental_uris": {"ios": "https://dc.lft.to/lastmile_qr_scan", "android": "https://dc.lft.to/lastmile_qr_scan"}, "lon": -77.00539, "type": "electric_scooter"}, {"bike_id": "a9e2db349f5d084dee8841b19379796d", "is_reserved": 0, "fusion_lon": 0.0, "lat": 38.884282, "is_disabled": 0, "name": "a9e2db349f5d084dee8841b19379796d", "fusion_lat": 0.0, "rental_uris": {"ios": "https://dc.lft.to/lastmile_qr_scan", "android": "https://dc.lft.to/lastmile_qr_scan"}, "lon": -76.9575545, "type": "electric_scooter"}, {"bike_id": "e68e504ae356b5c0ef810d783b41924a", "is_reserved": 0, "fusion_lon": 0.0, "lat": 38.89756283333333, "is_disabled": 0, "name": "e68e504ae356b5c0ef810d783b41924a", "fusion_lat": 0.0, "rental_uris": {"ios": "https://dc.lft.to/lastmile_qr_scan", "android": "https://dc.lft.to/lastmile_qr_scan"}, "lon": -76.941836, "type": "electric_scooter"}, {"bike_id": "c610e31735451ad82fa90e5eb6969db5", "is_reserved": 0, "fusion_lon": 0.0, "lat": 38.895237, "is_disabled": 0, "name": "c610e31735451ad82fa90e5eb6969db5", "fusion_lat": 0.0, "rental_uris": {"ios": "https://dc.lft.to/lastmile_qr_scan", "android": "https://dc.lft.to/lastmile_qr_scan"}, "lon": -77.041835, "type": "electric_scooter"}, {"bike_id": "0d8a31e51b4412be4afdab156dbf11da", "is_reserved": 0, "fusion_lon": 0.0, "lat": 38.90660733333333, "is_disabled": 0, "name": "0d8a31e51b4412be4afdab156dbf11da", "fusion_lat": 0.0, "rental_uris": {"ios": "https://dc.lft.to/lastmile_qr_scan", "android": "https://dc.lft.to/lastmile_qr_scan"}, "lon": -77.00962516666667, "type": "electric_scooter"}, {"bike_id": "27736f5dc143dddb94c645f83c680ce6", "is_reserved": 0, "fusion_lon": 0.0, "lat": 38.90260833333333, "is_disabled": 0, "name": "27736f5dc143dddb94c645f83c680ce6", "fusion_lat": 0.0, "rental_uris": {"ios": "https://dc.lft.to/lastmile_qr_scan", "android": "https://dc.lft.to/lastmile_qr_scan"}, "lon": -77.0393755, "type": "electric_scooter"}, {"bike_id": "c2e493dcedfabbcfdb72688210181d9e", "is_reserved": 0, "fusion_lon": 0.0, "lat": 38.90271333333333, "is_disabled": 0, "name": "c2e493dcedfabbcfdb72688210181d9e", "fusion_lat": 0.0, "rental_uris": {"ios": "https://dc.lft.to/lastmile_qr_scan", "android": "https://dc.lft.to/lastmile_qr_scan"}, "lon": -77.0384375, "type": "electric_scooter"}, {"bike_id": "ba41815aff9ef7036bd154ed99bec14f", "is_reserved": 0, "fusion_lon": 0.0, "lat": 38.90372883333333, "is_disabled": 0, "name": "ba41815aff9ef7036bd154ed99bec14f", "fusion_lat": 0.0, "rental_uris": {"ios": "https://dc.lft.to/lastmile_qr_scan", "android": "https://dc.lft.to/lastmile_qr_scan"}, "lon": -77.04509616666667, "type": "electric_scooter"}, {"bike_id": "78a0736d68c6b5ec72dd4de7217282d8", "is_reserved": 0, "fusion_lon": 0.0, "lat": 38.890046, "is_disabled": 0, "name": "78a0736d68c6b5ec72dd4de7217282d8", "fusion_lat": 0.0, "rental_uris": {"ios": "https://dc.lft.to/lastmile_qr_scan", "android": "https://dc.lft.to/lastmile_qr_scan"}, "lon": -76.9374255, "type": "electric_scooter"}, {"bike_id": "c235e430ef334998aa9f2dfe703c7d81", "is_reserved": 0, "fusion_lon": 0.0, "lat": 38.845842, "is_disabled": 0, "name": "c235e430ef334998aa9f2dfe703c7d81", "fusion_lat": 0.0, "rental_uris": {"ios": "https://dc.lft.to/lastmile_qr_scan", "android": "https://dc.lft.to/lastmile_qr_scan"}, "lon": -76.98162383333333, "type": "electric_scooter"}, {"bike_id": "aa0555d8ac378488c718168f35ede841", "is_reserved": 0, "fusion_lon": 0.0, "lat": 38.892203333333335, "is_disabled": 0, "name": "aa0555d8ac378488c718168f35ede841", "fusion_lat": 0.0, "rental_uris": {"ios": "https://dc.lft.to/lastmile_qr_scan", "android": "https://dc.lft.to/lastmile_qr_scan"}, "lon": -77.03219933333334, "type": "electric_scooter"}, {"bike_id": "3248570dd5948825dabc612f58473e1e", "is_reserved": 0, "fusion_lon": 0.0, "lat": 38.93513633333333, "is_disabled": 0, "name": "3248570dd5948825dabc612f58473e1e", "fusion_lat": 0.0, "rental_uris": {"ios": "https://dc.lft.to/lastmile_qr_scan", "android": "https://dc.lft.to/lastmile_qr_scan"}, "lon": -77.03297866666666, "type": "electric_scooter"}, {"bike_id": "a99246af50368d938141a736b9810534", "is_reserved": 0, "fusion_lon": 0.0, "lat": 38.914752166666666, "is_disabled": 0, "name": "a99246af50368d938141a736b9810534", "fusion_lat": 0.0, "rental_uris": {"ios": "https://dc.lft.to/lastmile_qr_scan", "android": "https://dc.lft.to/lastmile_qr_scan"}, "lon": -77.03206583333333, "type": "electric_scooter"}, {"bike_id": "148b3cbf513bdd07776a0ba11d19201d", "is_reserved": 0, "fusion_lon": 0.0, "lat": 38.923993, "is_disabled": 0, "name": "148b3cbf513bdd07776a0ba11d19201d", "fusion_lat": 0.0, "rental_uris": {"ios": "https://dc.lft.to/lastmile_qr_scan", "android": "https://dc.lft.to/lastmile_qr_scan"}, "lon": -77.0195955, "type": "electric_scooter"}, {"bike_id": "fcdc3ee57ec00520899040a7a1538182", "is_reserved": 0, "fusion_lon": 0.0, "lat": 38.88674666666667, "is_disabled": 0, "name": "fcdc3ee57ec00520899040a7a1538182", "fusion_lat": 0.0, "rental_uris": {"ios": "https://dc.lft.to/lastmile_qr_scan", "android": "https://dc.lft.to/lastmile_qr_scan"}, "lon": -77.01370933333334, "type": "electric_scooter"}, {"bike_id": "1d6284d56eb76336d9a0bf07d6d045fc", "is_reserved": 0, "fusion_lon": 0.0, "lat": 38.915585666666665, "is_disabled": 0, "name": "1d6284d56eb76336d9a0bf07d6d045fc", "fusion_lat": 0.0, "rental_uris": {"ios": "https://dc.lft.to/lastmile_qr_scan", "android": "https://dc.lft.to/lastmile_qr_scan"}, "lon": -77.0336875, "type": "electric_scooter"}, {"bike_id": "b52dd01bd29e423801ee65c17d1a02ca", "is_reserved": 0, "fusion_lon": 0.0, "lat": 38.903336, "is_disabled": 0, "name": "b52dd01bd29e423801ee65c17d1a02ca", "fusion_lat": 0.0, "rental_uris": {"ios": "https://dc.lft.to/lastmile_qr_scan", "android": "https://dc.lft.to/lastmile_qr_scan"}, "lon": -77.06584966666667, "type": "electric_scooter"}, {"bike_id": "bb012f916c35d310f79916ed91d526c0", "is_reserved": 0, "fusion_lon": 0.0, "lat": 38.9086555, "is_disabled": 0, "name": "bb012f916c35d310f79916ed91d526c0", "fusion_lat": 0.0, "rental_uris": {"ios": "https://dc.lft.to/lastmile_qr_scan", "android": "https://dc.lft.to/lastmile_qr_scan"}, "lon": -77.00630966666667, "type": "electric_scooter"}, {"bike_id": "dea863ba54fe74d46cf7f8cc65dfd2d7", "is_reserved": 0, "fusion_lon": 0.0, "lat": 38.863703666666666, "is_disabled": 0, "name": "dea863ba54fe74d46cf7f8cc65dfd2d7", "fusion_lat": 0.0, "rental_uris": {"ios": "https://dc.lft.to/lastmile_qr_scan", "android": "https://dc.lft.to/lastmile_qr_scan"}, "lon": -76.9904485, "type": "electric_scooter"}, {"bike_id": "72ecc00c7880f4fb3d3d1d61d7617b19", "is_reserved": 0, "fusion_lon": 0.0, "lat": 38.89821583333333, "is_disabled": 0, "name": "72ecc00c7880f4fb3d3d1d61d7617b19", "fusion_lat": 0.0, "rental_uris": {"ios": "https://dc.lft.to/lastmile_qr_scan", "android": "https://dc.lft.to/lastmile_qr_scan"}, "lon": -77.0328625, "type": "electric_scooter"}, {"bike_id": "a49d08493158b47ab320406dd642c2e7", "is_reserved": 0, "fusion_lon": 0.0, "lat": 38.842899833333334, "is_disabled": 0, "name": "a49d08493158b47ab320406dd642c2e7", "fusion_lat": 0.0, "rental_uris": {"ios": "https://dc.lft.to/lastmile_qr_scan", "android": "https://dc.lft.to/lastmile_qr_scan"}, "lon": -76.99950333333334, "type": "electric_scooter"}, {"bike_id": "7803158634d7bf549c4b618beb7d1380", "is_reserved": 0, "fusion_lon": 0.0, "lat": 38.921596, "is_disabled": 0, "name": "7803158634d7bf549c4b618beb7d1380", "fusion_lat": 0.0, "rental_uris": {"ios": "https://dc.lft.to/lastmile_qr_scan", "android": "https://dc.lft.to/lastmile_qr_scan"}, "lon": -77.03335266666667, "type": "electric_scooter"}, {"bike_id": "596725aec0b010fe11d01c090bdc89e2", "is_reserved": 0, "fusion_lon": 0.0, "lat": 38.93115366666667, "is_disabled": 0, "name": "596725aec0b010fe11d01c090bdc89e2", "fusion_lat": 0.0, "rental_uris": {"ios": "https://dc.lft.to/lastmile_qr_scan", "android": "https://dc.lft.to/lastmile_qr_scan"}, "lon": -77.02726566666666, "type": "electric_bike"}, {"bike_id": "06eb0f024ebaea38b94332d8a1ce5474", "is_reserved": 0, "fusion_lon": 0.0, "lat": 38.955622166666664, "is_disabled": 0, "name": "06eb0f024ebaea38b94332d8a1ce5474", "fusion_lat": 0.0, "rental_uris": {"ios": "https://dc.lft.to/lastmile_qr_scan", "android": "https://dc.lft.to/lastmile_qr_scan"}, "lon": -76.93544666666666, "type": "electric_bike"}, {"bike_id": "d0f2799cccf43afd2852b8e157333280", "is_reserved": 0, "fusion_lon": 0.0, "lat": 38.915723, "is_disabled": 0, "name": "d0f2799cccf43afd2852b8e157333280", "fusion_lat": 0.0, "rental_uris": {"ios": "https://dc.lft.to/lastmile_qr_scan", "android": "https://dc.lft.to/lastmile_qr_scan"}, "lon": -77.0460045, "type": "electric_scooter"}, {"bike_id": "1eb24183fef823fe7102be3dcaefca47", "is_reserved": 0, "fusion_lon": 0.0, "lat": 38.91404933333333, "is_disabled": 0, "name": "1eb24183fef823fe7102be3dcaefca47", "fusion_lat": 0.0, "rental_uris": {"ios": "https://dc.lft.to/lastmile_qr_scan", "android": "https://dc.lft.to/lastmile_qr_scan"}, "lon": -77.04142716666667, "type": "electric_scooter"}, {"bike_id": "13cc9a472ffaba82a58364417d0437bd", "is_reserved": 0, "fusion_lon": 0.0, "lat": 38.9236505, "is_disabled": 0, "name": "13cc9a472ffaba82a58364417d0437bd", "fusion_lat": 0.0, "rental_uris": {"ios": "https://dc.lft.to/lastmile_qr_scan", "android": "https://dc.lft.to/lastmile_qr_scan"}, "lon": -77.050296, "type": "electric_scooter"}, {"bike_id": "105eb88c59445694703dd683d7cb608b", "is_reserved": 0, "fusion_lon": 0.0, "lat": 38.89011, "is_disabled": 0, "name": "105eb88c59445694703dd683d7cb608b", "fusion_lat": 0.0, "rental_uris": {"ios": "https://dc.lft.to/lastmile_qr_scan", "android": "https://dc.lft.to/lastmile_qr_scan"}, "lon": -76.937401, "type": "electric_scooter"}, {"bike_id": "f5debc90a871ebadff1994762f257a10", "is_reserved": 0, "fusion_lon": 0.0, "lat": 38.9057965, "is_disabled": 0, "name": "f5debc90a871ebadff1994762f257a10", "fusion_lat": 0.0, "rental_uris": {"ios": "https://dc.lft.to/lastmile_qr_scan", "android": "https://dc.lft.to/lastmile_qr_scan"}, "lon": -77.00264566666667, "type": "electric_scooter"}, {"bike_id": "5b783a40ab3de6bca3065fe9f6c21971", "is_reserved": 0, "fusion_lon": 0.0, "lat": 38.900312666666665, "is_disabled": 0, "name": "5b783a40ab3de6bca3065fe9f6c21971", "fusion_lat": 0.0, "rental_uris": {"ios": "https://dc.lft.to/lastmile_qr_scan", "android": "https://dc.lft.to/lastmile_qr_scan"}, "lon": -77.0467975, "type": "electric_scooter"}, {"bike_id": "c6b4c28fc633084c5f80cc15ea2b0099", "is_reserved": 0, "fusion_lon": 0.0, "lat": 38.903976, "is_disabled": 0, "name": "c6b4c28fc633084c5f80cc15ea2b0099", "fusion_lat": 0.0, "rental_uris": {"ios": "https://dc.lft.to/lastmile_qr_scan", "android": "https://dc.lft.to/lastmile_qr_scan"}, "lon": -77.04339666666667, "type": "electric_scooter"}, {"bike_id": "e660f94fc57433731991b116eb2f2722", "is_reserved": 0, "fusion_lon": 0.0, "lat": 38.89488, "is_disabled": 0, "name": "e660f94fc57433731991b116eb2f2722", "fusion_lat": 0.0, "rental_uris": {"ios": "https://dc.lft.to/lastmile_qr_scan", "android": "https://dc.lft.to/lastmile_qr_scan"}, "lon": -77.021632, "type": "electric_scooter"}, {"bike_id": "dedcb172b1be88e5b4e7f953764281e8", "is_reserved": 0, "fusion_lon": 0.0, "lat": 38.896542, "is_disabled": 0, "name": "dedcb172b1be88e5b4e7f953764281e8", "fusion_lat": 0.0, "rental_uris": {"ios": "https://dc.lft.to/lastmile_qr_scan", "android": "https://dc.lft.to/lastmile_qr_scan"}, "lon": -77.03230216666667, "type": "electric_scooter"}, {"bike_id": "9b610580ca8196cf319a65e615ccff4a", "is_reserved": 0, "fusion_lon": 0.0, "lat": 38.9308015, "is_disabled": 0, "name": "9b610580ca8196cf319a65e615ccff4a", "fusion_lat": 0.0, "rental_uris": {"ios": "https://dc.lft.to/lastmile_qr_scan", "android": "https://dc.lft.to/lastmile_qr_scan"}, "lon": -77.03407016666667, "type": "electric_scooter"}, {"bike_id": "5057b023a3f65b57fe659067ae8bc1b0", "is_reserved": 0, "fusion_lon": 0.0, "lat": 38.866558833333336, "is_disabled": 0, "name": "5057b023a3f65b57fe659067ae8bc1b0", "fusion_lat": 0.0, "rental_uris": {"ios": "https://dc.lft.to/lastmile_qr_scan", "android": "https://dc.lft.to/lastmile_qr_scan"}, "lon": -76.988821, "type": "electric_scooter"}, {"bike_id": "1432aca780fc9f96f88956d638f17933", "is_reserved": 0, "fusion_lon": 0.0, "lat": 38.86537666666667, "is_disabled": 0, "name": "1432aca780fc9f96f88956d638f17933", "fusion_lat": 0.0, "rental_uris": {"ios": "https://dc.lft.to/lastmile_qr_scan", "android": "https://dc.lft.to/lastmile_qr_scan"}, "lon": -76.987098, "type": "electric_scooter"}, {"bike_id": "6c03c9d90337a03c766c285b994af377", "is_reserved": 0, "fusion_lon": 0.0, "lat": 38.892191333333336, "is_disabled": 0, "name": "6c03c9d90337a03c766c285b994af377", "fusion_lat": 0.0, "rental_uris": {"ios": "https://dc.lft.to/lastmile_qr_scan", "android": "https://dc.lft.to/lastmile_qr_scan"}, "lon": -77.03164183333334, "type": "electric_scooter"}, {"bike_id": "89efb1634571d9a0d0a7ffd493d66af0", "is_reserved": 0, "fusion_lon": 0.0, "lat": 38.879131, "is_disabled": 0, "name": "89efb1634571d9a0d0a7ffd493d66af0", "fusion_lat": 0.0, "rental_uris": {"ios": "https://dc.lft.to/lastmile_qr_scan", "android": "https://dc.lft.to/lastmile_qr_scan"}, "lon": -77.00567983333333, "type": "electric_scooter"}, {"bike_id": "08940b9c14c9c9277637f999edc5e152", "is_reserved": 0, "fusion_lon": 0.0, "lat": 38.9166905, "is_disabled": 0, "name": "08940b9c14c9c9277637f999edc5e152", "fusion_lat": 0.0, "rental_uris": {"ios": "https://dc.lft.to/lastmile_qr_scan", "android": "https://dc.lft.to/lastmile_qr_scan"}, "lon": -77.0227395, "type": "electric_scooter"}, {"bike_id": "76f741ac1639a16b53f6390047b0974e", "is_reserved": 0, "fusion_lon": 0.0, "lat": 38.89942933333333, "is_disabled": 0, "name": "76f741ac1639a16b53f6390047b0974e", "fusion_lat": 0.0, "rental_uris": {"ios": "https://dc.lft.to/lastmile_qr_scan", "android": "https://dc.lft.to/lastmile_qr_scan"}, "lon": -77.03201333333334, "type": "electric_scooter"}, {"bike_id": "7f599c7c7d18558fbc69c3e4157370f8", "is_reserved": 0, "fusion_lon": 0.0, "lat": 38.924457, "is_disabled": 0, "name": "7f599c7c7d18558fbc69c3e4157370f8", "fusion_lat": 0.0, "rental_uris": {"ios": "https://dc.lft.to/lastmile_qr_scan", "android": "https://dc.lft.to/lastmile_qr_scan"}, "lon": -77.03396216666667, "type": "electric_scooter"}, {"bike_id": "997ff6bbfa6a1153cd9df1cfff83dda5", "is_reserved": 0, "fusion_lon": 0.0, "lat": 38.92037583333333, "is_disabled": 0, "name": "997ff6bbfa6a1153cd9df1cfff83dda5", "fusion_lat": 0.0, "rental_uris": {"ios": "https://dc.lft.to/lastmile_qr_scan", "android": "https://dc.lft.to/lastmile_qr_scan"}, "lon": -77.0339555, "type": "electric_scooter"}, {"bike_id": "e7c1027ffe0c5f3178dd612646eca107", "is_reserved": 0, "fusion_lon": 0.0, "lat": 38.9076585, "is_disabled": 0, "name": "e7c1027ffe0c5f3178dd612646eca107", "fusion_lat": 0.0, "rental_uris": {"ios": "https://dc.lft.to/lastmile_qr_scan", "android": "https://dc.lft.to/lastmile_qr_scan"}, "lon": -77.06915716666667, "type": "electric_scooter"}, {"bike_id": "17a9d504f0de1ab9378e9f55791691d5", "is_reserved": 0, "fusion_lon": 0.0, "lat": 38.887668, "is_disabled": 0, "name": "17a9d504f0de1ab9378e9f55791691d5", "fusion_lat": 0.0, "rental_uris": {"ios": "https://dc.lft.to/lastmile_qr_scan", "android": "https://dc.lft.to/lastmile_qr_scan"}, "lon": -77.02229266666667, "type": "electric_scooter"}, {"bike_id": "b4717f4109931521a1263b5c55702789", "is_reserved": 0, "fusion_lon": 0.0, "lat": 38.90813716666667, "is_disabled": 0, "name": "b4717f4109931521a1263b5c55702789", "fusion_lat": 0.0, "rental_uris": {"ios": "https://dc.lft.to/lastmile_qr_scan", "android": "https://dc.lft.to/lastmile_qr_scan"}, "lon": -77.03839916666666, "type": "electric_scooter"}, {"bike_id": "0f89a863feecf58be19840ee812e933d", "is_reserved": 0, "fusion_lon": 0.0, "lat": 38.90280883333333, "is_disabled": 0, "name": "0f89a863feecf58be19840ee812e933d", "fusion_lat": 0.0, "rental_uris": {"ios": "https://dc.lft.to/lastmile_qr_scan", "android": "https://dc.lft.to/lastmile_qr_scan"}, "lon": -77.0412965, "type": "electric_scooter"}, {"bike_id": "26b3273e7f61de33ddfbfd0561d66130", "is_reserved": 0, "fusion_lon": 0.0, "lat": 38.96788316666667, "is_disabled": 0, "name": "26b3273e7f61de33ddfbfd0561d66130", "fusion_lat": 0.0, "rental_uris": {"ios": "https://dc.lft.to/lastmile_qr_scan", "android": "https://dc.lft.to/lastmile_qr_scan"}, "lon": -76.97987583333334, "type": "electric_bike"}, {"bike_id": "222e6802a0d2a3ae34774c0d1b8efd4d", "is_reserved": 0, "fusion_lon": 0.0, "lat": 38.91801133333333, "is_disabled": 0, "name": "222e6802a0d2a3ae34774c0d1b8efd4d", "fusion_lat": 0.0, "rental_uris": {"ios": "https://dc.lft.to/lastmile_qr_scan", "android": "https://dc.lft.to/lastmile_qr_scan"}, "lon": -77.03438783333333, "type": "electric_scooter"}, {"bike_id": "c946b4d6a08386890e81439d15f17bbf", "is_reserved": 0, "fusion_lon": 0.0, "lat": 38.99937666666667, "is_disabled": 0, "name": "c946b4d6a08386890e81439d15f17bbf", "fusion_lat": 0.0, "rental_uris": {"ios": "https://dc.lft.to/lastmile_qr_scan", "android": "https://dc.lft.to/lastmile_qr_scan"}, "lon": -77.0176745, "type": "electric_bike"}, {"bike_id": "3b488eb52b73d184ce53207bb6a8bcef", "is_reserved": 0, "fusion_lon": 0.0, "lat": 38.93974716666666, "is_disabled": 0, "name": "3b488eb52b73d184ce53207bb6a8bcef", "fusion_lat": 0.0, "rental_uris": {"ios": "https://dc.lft.to/lastmile_qr_scan", "android": "https://dc.lft.to/lastmile_qr_scan"}, "lon": -77.029024, "type": "electric_scooter"}, {"bike_id": "57c75e05b6f4542e3d19af5d682e8837", "is_reserved": 0, "fusion_lon": 0.0, "lat": 38.9198215, "is_disabled": 0, "name": "57c75e05b6f4542e3d19af5d682e8837", "fusion_lat": 0.0, "rental_uris": {"ios": "https://dc.lft.to/lastmile_qr_scan", "android": "https://dc.lft.to/lastmile_qr_scan"}, "lon": -76.9731175, "type": "electric_scooter"}, {"bike_id": "f1e86a8e8cbe5f7cc03bc1737c550061", "is_reserved": 0, "fusion_lon": 0.0, "lat": 38.887625, "is_disabled": 0, "name": "f1e86a8e8cbe5f7cc03bc1737c550061", "fusion_lat": 0.0, "rental_uris": {"ios": "https://dc.lft.to/lastmile_qr_scan", "android": "https://dc.lft.to/lastmile_qr_scan"}, "lon": -77.03137716666667, "type": "electric_scooter"}, {"bike_id": "099b453acf6b62fe1622f165c6e5867e", "is_reserved": 0, "fusion_lon": 0.0, "lat": 38.902544166666665, "is_disabled": 0, "name": "099b453acf6b62fe1622f165c6e5867e", "fusion_lat": 0.0, "rental_uris": {"ios": "https://dc.lft.to/lastmile_qr_scan", "android": "https://dc.lft.to/lastmile_qr_scan"}, "lon": -77.0280415, "type": "electric_scooter"}, {"bike_id": "cdab9e72fd6f053fffb2c3d2a559fe97", "is_reserved": 0, "fusion_lon": 0.0, "lat": 38.88370033333333, "is_disabled": 0, "name": "cdab9e72fd6f053fffb2c3d2a559fe97", "fusion_lat": 0.0, "rental_uris": {"ios": "https://dc.lft.to/lastmile_qr_scan", "android": "https://dc.lft.to/lastmile_qr_scan"}, "lon": -76.99528383333333, "type": "electric_scooter"}, {"bike_id": "e1c67e0ae83c4533235aea70ecc5abe5", "is_reserved": 0, "fusion_lon": 0.0, "lat": 38.9353705, "is_disabled": 0, "name": "e1c67e0ae83c4533235aea70ecc5abe5", "fusion_lat": 0.0, "rental_uris": {"ios": "https://dc.lft.to/lastmile_qr_scan", "android": "https://dc.lft.to/lastmile_qr_scan"}, "lon": -77.02342616666667, "type": "electric_scooter"}, {"bike_id": "80d74c13f365765869b32f25eb945f10", "is_reserved": 0, "fusion_lon": 0.0, "lat": 38.912569833333336, "is_disabled": 0, "name": "80d74c13f365765869b32f25eb945f10", "fusion_lat": 0.0, "rental_uris": {"ios": "https://dc.lft.to/lastmile_qr_scan", "android": "https://dc.lft.to/lastmile_qr_scan"}, "lon": -77.0120555, "type": "electric_scooter"}, {"bike_id": "5032f7dbd0bd9852b484460e57fdb85d", "is_reserved": 0, "fusion_lon": 0.0, "lat": 38.953869166666664, "is_disabled": 0, "name": "5032f7dbd0bd9852b484460e57fdb85d", "fusion_lat": 0.0, "rental_uris": {"ios": "https://dc.lft.to/lastmile_qr_scan", "android": "https://dc.lft.to/lastmile_qr_scan"}, "lon": -76.99916966666666, "type": "electric_scooter"}, {"bike_id": "693fa254b729ab57670b533b867037c7", "is_reserved": 0, "fusion_lon": 0.0, "lat": 38.896104, "is_disabled": 0, "name": "693fa254b729ab57670b533b867037c7", "fusion_lat": 0.0, "rental_uris": {"ios": "https://dc.lft.to/lastmile_qr_scan", "android": "https://dc.lft.to/lastmile_qr_scan"}, "lon": -77.0454025, "type": "electric_scooter"}, {"bike_id": "9fa93ddd2cc279a81d5fcb4a19562bbc", "is_reserved": 0, "fusion_lon": 0.0, "lat": 38.89614533333334, "is_disabled": 0, "name": "9fa93ddd2cc279a81d5fcb4a19562bbc", "fusion_lat": 0.0, "rental_uris": {"ios": "https://dc.lft.to/lastmile_qr_scan", "android": "https://dc.lft.to/lastmile_qr_scan"}, "lon": -76.98567333333334, "type": "electric_scooter"}, {"bike_id": "c3c5ff9e21bb0a6a63783b07fb18140e", "is_reserved": 0, "fusion_lon": 0.0, "lat": 38.884950333333336, "is_disabled": 0, "name": "c3c5ff9e21bb0a6a63783b07fb18140e", "fusion_lat": 0.0, "rental_uris": {"ios": "https://dc.lft.to/lastmile_qr_scan", "android": "https://dc.lft.to/lastmile_qr_scan"}, "lon": -77.00728733333334, "type": "electric_scooter"}, {"bike_id": "15a9e68aad2dae73cd101c8cbcc8c519", "is_reserved": 0, "fusion_lon": 0.0, "lat": 38.8875055, "is_disabled": 0, "name": "15a9e68aad2dae73cd101c8cbcc8c519", "fusion_lat": 0.0, "rental_uris": {"ios": "https://dc.lft.to/lastmile_qr_scan", "android": "https://dc.lft.to/lastmile_qr_scan"}, "lon": -77.02022, "type": "electric_scooter"}, {"bike_id": "b69aca3f2b2a8009b71b931522173508", "is_reserved": 0, "fusion_lon": 0.0, "lat": 38.88229883333333, "is_disabled": 0, "name": "b69aca3f2b2a8009b71b931522173508", "fusion_lat": 0.0, "rental_uris": {"ios": "https://dc.lft.to/lastmile_qr_scan", "android": "https://dc.lft.to/lastmile_qr_scan"}, "lon": -76.99088916666666, "type": "electric_scooter"}, {"bike_id": "990f6c818f7e0357db0e552501b84de5", "is_reserved": 0, "fusion_lon": 0.0, "lat": 38.943943166666664, "is_disabled": 0, "name": "990f6c818f7e0357db0e552501b84de5", "fusion_lat": 0.0, "rental_uris": {"ios": "https://dc.lft.to/lastmile_qr_scan", "android": "https://dc.lft.to/lastmile_qr_scan"}, "lon": -77.038923, "type": "electric_scooter"}, {"bike_id": "03416650b9e9dea3a3bf8f32ed813fe0", "is_reserved": 0, "fusion_lon": 0.0, "lat": 38.9086485, "is_disabled": 0, "name": "03416650b9e9dea3a3bf8f32ed813fe0", "fusion_lat": 0.0, "rental_uris": {"ios": "https://dc.lft.to/lastmile_qr_scan", "android": "https://dc.lft.to/lastmile_qr_scan"}, "lon": -77.0448535, "type": "electric_scooter"}, {"bike_id": "0b54fcdab2be665a7f3eb35d79b3096b", "is_reserved": 0, "fusion_lon": 0.0, "lat": 38.881446333333336, "is_disabled": 0, "name": "0b54fcdab2be665a7f3eb35d79b3096b", "fusion_lat": 0.0, "rental_uris": {"ios": "https://dc.lft.to/lastmile_qr_scan", "android": "https://dc.lft.to/lastmile_qr_scan"}, "lon": -77.02740266666666, "type": "electric_scooter"}, {"bike_id": "5ea51b28b3c293a6c3a535e745d0e800", "is_reserved": 0, "fusion_lon": 0.0, "lat": 38.9055975, "is_disabled": 0, "name": "5ea51b28b3c293a6c3a535e745d0e800", "fusion_lat": 0.0, "rental_uris": {"ios": "https://dc.lft.to/lastmile_qr_scan", "android": "https://dc.lft.to/lastmile_qr_scan"}, "lon": -77.03971583333333, "type": "electric_scooter"}, {"bike_id": "749e224b297938240838cd76bc4231b5", "is_reserved": 0, "fusion_lon": 0.0, "lat": 38.9047595, "is_disabled": 0, "name": "749e224b297938240838cd76bc4231b5", "fusion_lat": 0.0, "rental_uris": {"ios": "https://dc.lft.to/lastmile_qr_scan", "android": "https://dc.lft.to/lastmile_qr_scan"}, "lon": -77.038554, "type": "electric_scooter"}, {"bike_id": "c670e5318ed37bc8ccbde468499e70bd", "is_reserved": 0, "fusion_lon": 0.0, "lat": 38.876213, "is_disabled": 0, "name": "c670e5318ed37bc8ccbde468499e70bd", "fusion_lat": 0.0, "rental_uris": {"ios": "https://dc.lft.to/lastmile_qr_scan", "android": "https://dc.lft.to/lastmile_qr_scan"}, "lon": -77.00697733333334, "type": "electric_scooter"}, {"bike_id": "4983e9909ed8988ec7f8b9379c5877b2", "is_reserved": 0, "fusion_lon": 0.0, "lat": 38.898801, "is_disabled": 0, "name": "4983e9909ed8988ec7f8b9379c5877b2", "fusion_lat": 0.0, "rental_uris": {"ios": "https://dc.lft.to/lastmile_qr_scan", "android": "https://dc.lft.to/lastmile_qr_scan"}, "lon": -76.93158816666667, "type": "electric_scooter"}, {"bike_id": "8fb2f5a9c7ece2e13dd77e2096132560", "is_reserved": 0, "fusion_lon": 0.0, "lat": 38.90607116666666, "is_disabled": 0, "name": "8fb2f5a9c7ece2e13dd77e2096132560", "fusion_lat": 0.0, "rental_uris": {"ios": "https://dc.lft.to/lastmile_qr_scan", "android": "https://dc.lft.to/lastmile_qr_scan"}, "lon": -77.039863, "type": "electric_scooter"}, {"bike_id": "5ecfc0c804ee00b94d723929fc717e48", "is_reserved": 0, "fusion_lon": 0.0, "lat": 38.91522633333334, "is_disabled": 0, "name": "5ecfc0c804ee00b94d723929fc717e48", "fusion_lat": 0.0, "rental_uris": {"ios": "https://dc.lft.to/lastmile_qr_scan", "android": "https://dc.lft.to/lastmile_qr_scan"}, "lon": -77.018528, "type": "electric_scooter"}, {"bike_id": "7776d6e6962c150a31b789ca5611672d", "is_reserved": 0, "fusion_lon": 0.0, "lat": 38.90966, "is_disabled": 0, "name": "7776d6e6962c150a31b789ca5611672d", "fusion_lat": 0.0, "rental_uris": {"ios": "https://dc.lft.to/lastmile_qr_scan", "android": "https://dc.lft.to/lastmile_qr_scan"}, "lon": -77.0272715, "type": "electric_scooter"}, {"bike_id": "37a633235c2c7501afa4d9edac006587", "is_reserved": 0, "fusion_lon": 0.0, "lat": 38.9206175, "is_disabled": 0, "name": "37a633235c2c7501afa4d9edac006587", "fusion_lat": 0.0, "rental_uris": {"ios": "https://dc.lft.to/lastmile_qr_scan", "android": "https://dc.lft.to/lastmile_qr_scan"}, "lon": -77.0236095, "type": "electric_scooter"}, {"bike_id": "93573f56c1ef17242c6226b2de65f1e3", "is_reserved": 0, "fusion_lon": 0.0, "lat": 38.912081, "is_disabled": 0, "name": "93573f56c1ef17242c6226b2de65f1e3", "fusion_lat": 0.0, "rental_uris": {"ios": "https://dc.lft.to/lastmile_qr_scan", "android": "https://dc.lft.to/lastmile_qr_scan"}, "lon": -77.0488, "type": "electric_scooter"}, {"bike_id": "c2128d02b48888df0946aaf9a137b896", "is_reserved": 0, "fusion_lon": 0.0, "lat": 38.90112033333333, "is_disabled": 0, "name": "c2128d02b48888df0946aaf9a137b896", "fusion_lat": 0.0, "rental_uris": {"ios": "https://dc.lft.to/lastmile_qr_scan", "android": "https://dc.lft.to/lastmile_qr_scan"}, "lon": -77.043758, "type": "electric_scooter"}, {"bike_id": "42b60d7fc9a2d9203cf6380ed18a34c3", "is_reserved": 0, "fusion_lon": 0.0, "lat": 38.912455, "is_disabled": 0, "name": "42b60d7fc9a2d9203cf6380ed18a34c3", "fusion_lat": 0.0, "rental_uris": {"ios": "https://dc.lft.to/lastmile_qr_scan", "android": "https://dc.lft.to/lastmile_qr_scan"}, "lon": -77.0162665, "type": "electric_scooter"}, {"bike_id": "f9c4fa1af3664049cbc3a95cf9df90d7", "is_reserved": 0, "fusion_lon": 0.0, "lat": 38.92167216666667, "is_disabled": 0, "name": "f9c4fa1af3664049cbc3a95cf9df90d7", "fusion_lat": 0.0, "rental_uris": {"ios": "https://dc.lft.to/lastmile_qr_scan", "android": "https://dc.lft.to/lastmile_qr_scan"}, "lon": -77.032832, "type": "electric_scooter"}, {"bike_id": "57cf9ee21d459def1d9f6f9ef4589000", "is_reserved": 0, "fusion_lon": 0.0, "lat": 38.9126935, "is_disabled": 0, "name": "57cf9ee21d459def1d9f6f9ef4589000", "fusion_lat": 0.0, "rental_uris": {"ios": "https://dc.lft.to/lastmile_qr_scan", "android": "https://dc.lft.to/lastmile_qr_scan"}, "lon": -77.02209783333333, "type": "electric_scooter"}, {"bike_id": "e7f62e07e9caf26453186120ed7d5a32", "is_reserved": 0, "fusion_lon": 0.0, "lat": 38.9385285, "is_disabled": 0, "name": "e7f62e07e9caf26453186120ed7d5a32", "fusion_lat": 0.0, "rental_uris": {"ios": "https://dc.lft.to/lastmile_qr_scan", "android": "https://dc.lft.to/lastmile_qr_scan"}, "lon": -77.02453466666667, "type": "electric_scooter"}, {"bike_id": "82b9341477314d6b94a492f80251e4f1", "is_reserved": 0, "fusion_lon": 0.0, "lat": 38.9141205, "is_disabled": 0, "name": "82b9341477314d6b94a492f80251e4f1", "fusion_lat": 0.0, "rental_uris": {"ios": "https://dc.lft.to/lastmile_qr_scan", "android": "https://dc.lft.to/lastmile_qr_scan"}, "lon": -77.02678716666667, "type": "electric_scooter"}, {"bike_id": "ad0bea9e53a200f3dbfabd1b4fbde173", "is_reserved": 0, "fusion_lon": 0.0, "lat": 38.9079625, "is_disabled": 0, "name": "ad0bea9e53a200f3dbfabd1b4fbde173", "fusion_lat": 0.0, "rental_uris": {"ios": "https://dc.lft.to/lastmile_qr_scan", "android": "https://dc.lft.to/lastmile_qr_scan"}, "lon": -77.00017833333334, "type": "electric_scooter"}, {"bike_id": "42fc4fed8416bce91f05bba56df065ce", "is_reserved": 0, "fusion_lon": 0.0, "lat": 38.906627, "is_disabled": 0, "name": "42fc4fed8416bce91f05bba56df065ce", "fusion_lat": 0.0, "rental_uris": {"ios": "https://dc.lft.to/lastmile_qr_scan", "android": "https://dc.lft.to/lastmile_qr_scan"}, "lon": -77.03899833333334, "type": "electric_scooter"}, {"bike_id": "31f99d588ca6f086b9a2d216fcf71fbf", "is_reserved": 0, "fusion_lon": 0.0, "lat": 38.906733333333335, "is_disabled": 0, "name": "31f99d588ca6f086b9a2d216fcf71fbf", "fusion_lat": 0.0, "rental_uris": {"ios": "https://dc.lft.to/lastmile_qr_scan", "android": "https://dc.lft.to/lastmile_qr_scan"}, "lon": -77.0501655, "type": "electric_scooter"}, {"bike_id": "4f55caf0c222c4b137280bcc9e375ef3", "is_reserved": 0, "fusion_lon": 0.0, "lat": 38.926543, "is_disabled": 0, "name": "4f55caf0c222c4b137280bcc9e375ef3", "fusion_lat": 0.0, "rental_uris": {"ios": "https://dc.lft.to/lastmile_qr_scan", "android": "https://dc.lft.to/lastmile_qr_scan"}, "lon": -77.037256, "type": "electric_scooter"}, {"bike_id": "9cf71a0fb90e31f3d0c50cde8278c617", "is_reserved": 0, "fusion_lon": 0.0, "lat": 38.90958716666667, "is_disabled": 0, "name": "9cf71a0fb90e31f3d0c50cde8278c617", "fusion_lat": 0.0, "rental_uris": {"ios": "https://dc.lft.to/lastmile_qr_scan", "android": "https://dc.lft.to/lastmile_qr_scan"}, "lon": -77.0347355, "type": "electric_scooter"}, {"bike_id": "1979ca08369e314ce955560fb91ff1f9", "is_reserved": 0, "fusion_lon": 0.0, "lat": 38.90376, "is_disabled": 0, "name": "1979ca08369e314ce955560fb91ff1f9", "fusion_lat": 0.0, "rental_uris": {"ios": "https://dc.lft.to/lastmile_qr_scan", "android": "https://dc.lft.to/lastmile_qr_scan"}, "lon": -77.0298015, "type": "electric_scooter"}, {"bike_id": "59e578afcdc7093db10282ac62f87e47", "is_reserved": 0, "fusion_lon": 0.0, "lat": 38.90471133333333, "is_disabled": 0, "name": "59e578afcdc7093db10282ac62f87e47", "fusion_lat": 0.0, "rental_uris": {"ios": "https://dc.lft.to/lastmile_qr_scan", "android": "https://dc.lft.to/lastmile_qr_scan"}, "lon": -77.03918483333334, "type": "electric_scooter"}, {"bike_id": "8d7f5aceb8bf5c4f447abfb7e5c94535", "is_reserved": 0, "fusion_lon": 0.0, "lat": 38.9027265, "is_disabled": 0, "name": "8d7f5aceb8bf5c4f447abfb7e5c94535", "fusion_lat": 0.0, "rental_uris": {"ios": "https://dc.lft.to/lastmile_qr_scan", "android": "https://dc.lft.to/lastmile_qr_scan"}, "lon": -77.0333165, "type": "electric_scooter"}, {"bike_id": "28769e769230d8a4c113a2d8c868a413", "is_reserved": 0, "fusion_lon": 0.0, "lat": 38.90377316666667, "is_disabled": 0, "name": "28769e769230d8a4c113a2d8c868a413", "fusion_lat": 0.0, "rental_uris": {"ios": "https://dc.lft.to/lastmile_qr_scan", "android": "https://dc.lft.to/lastmile_qr_scan"}, "lon": -77.0418955, "type": "electric_scooter"}, {"bike_id": "e311eda2268aef79c1f952b1d05d3bca", "is_reserved": 0, "fusion_lon": 0.0, "lat": 38.89960583333333, "is_disabled": 0, "name": "e311eda2268aef79c1f952b1d05d3bca", "fusion_lat": 0.0, "rental_uris": {"ios": "https://dc.lft.to/lastmile_qr_scan", "android": "https://dc.lft.to/lastmile_qr_scan"}, "lon": -77.03918266666666, "type": "electric_bike"}, {"bike_id": "45bcf0139a3b691739f374bc9ff38565", "is_reserved": 0, "fusion_lon": 0.0, "lat": 38.896238833333335, "is_disabled": 0, "name": "45bcf0139a3b691739f374bc9ff38565", "fusion_lat": 0.0, "rental_uris": {"ios": "https://dc.lft.to/lastmile_qr_scan", "android": "https://dc.lft.to/lastmile_qr_scan"}, "lon": -76.98498416666666, "type": "electric_scooter"}, {"bike_id": "8d73e4da1c5767da58a8bb78653b777d", "is_reserved": 0, "fusion_lon": 0.0, "lat": 38.902357, "is_disabled": 0, "name": "8d73e4da1c5767da58a8bb78653b777d", "fusion_lat": 0.0, "rental_uris": {"ios": "https://dc.lft.to/lastmile_qr_scan", "android": "https://dc.lft.to/lastmile_qr_scan"}, "lon": -77.02691516666667, "type": "electric_scooter"}, {"bike_id": "b43db806abb00382610a02abe6040d85", "is_reserved": 0, "fusion_lon": 0.0, "lat": 38.84422416666666, "is_disabled": 0, "name": "b43db806abb00382610a02abe6040d85", "fusion_lat": 0.0, "rental_uris": {"ios": "https://dc.lft.to/lastmile_qr_scan", "android": "https://dc.lft.to/lastmile_qr_scan"}, "lon": -76.99778433333333, "type": "electric_scooter"}, {"bike_id": "80a153e7d7f6f4c8be390743aca5a392", "is_reserved": 0, "fusion_lon": 0.0, "lat": 38.876645833333335, "is_disabled": 0, "name": "80a153e7d7f6f4c8be390743aca5a392", "fusion_lat": 0.0, "rental_uris": {"ios": "https://dc.lft.to/lastmile_qr_scan", "android": "https://dc.lft.to/lastmile_qr_scan"}, "lon": -77.00070416666667, "type": "electric_scooter"}, {"bike_id": "ed023c8265bad3bd9a73fa09684340c3", "is_reserved": 0, "fusion_lon": 0.0, "lat": 38.90389183333333, "is_disabled": 0, "name": "ed023c8265bad3bd9a73fa09684340c3", "fusion_lat": 0.0, "rental_uris": {"ios": "https://dc.lft.to/lastmile_qr_scan", "android": "https://dc.lft.to/lastmile_qr_scan"}, "lon": -77.04374216666666, "type": "electric_scooter"}, {"bike_id": "4602912eab6b661549441f1f79b26320", "is_reserved": 0, "fusion_lon": 0.0, "lat": 38.89542333333333, "is_disabled": 0, "name": "4602912eab6b661549441f1f79b26320", "fusion_lat": 0.0, "rental_uris": {"ios": "https://dc.lft.to/lastmile_qr_scan", "android": "https://dc.lft.to/lastmile_qr_scan"}, "lon": -77.01886283333333, "type": "electric_scooter"}, {"bike_id": "ce99debc0a270ffe66a6dd4c05ad5b15", "is_reserved": 0, "fusion_lon": 0.0, "lat": 38.9056775, "is_disabled": 0, "name": "ce99debc0a270ffe66a6dd4c05ad5b15", "fusion_lat": 0.0, "rental_uris": {"ios": "https://dc.lft.to/lastmile_qr_scan", "android": "https://dc.lft.to/lastmile_qr_scan"}, "lon": -77.03625066666666, "type": "electric_scooter"}, {"bike_id": "a6b1b1356d75c4224883068f38655a0e", "is_reserved": 0, "fusion_lon": 0.0, "lat": 38.928392833333334, "is_disabled": 0, "name": "a6b1b1356d75c4224883068f38655a0e", "fusion_lat": 0.0, "rental_uris": {"ios": "https://dc.lft.to/lastmile_qr_scan", "android": "https://dc.lft.to/lastmile_qr_scan"}, "lon": -77.013743, "type": "electric_scooter"}, {"bike_id": "ca89db831d44d1555ee2591c3057ac6d", "is_reserved": 0, "fusion_lon": 0.0, "lat": 38.89750883333333, "is_disabled": 0, "name": "ca89db831d44d1555ee2591c3057ac6d", "fusion_lat": 0.0, "rental_uris": {"ios": "https://dc.lft.to/lastmile_qr_scan", "android": "https://dc.lft.to/lastmile_qr_scan"}, "lon": -77.02687066666667, "type": "electric_scooter"}, {"bike_id": "40bc28ffdb84acc6d84da2494338a613", "is_reserved": 0, "fusion_lon": 0.0, "lat": 38.959553666666665, "is_disabled": 0, "name": "40bc28ffdb84acc6d84da2494338a613", "fusion_lat": 0.0, "rental_uris": {"ios": "https://dc.lft.to/lastmile_qr_scan", "android": "https://dc.lft.to/lastmile_qr_scan"}, "lon": -77.10087916666667, "type": "electric_bike"}, {"bike_id": "12d8b2ddf65630bdf625f0e90b7a44f8", "is_reserved": 0, "fusion_lon": 0.0, "lat": 38.911971666666666, "is_disabled": 0, "name": "12d8b2ddf65630bdf625f0e90b7a44f8", "fusion_lat": 0.0, "rental_uris": {"ios": "https://dc.lft.to/lastmile_qr_scan", "android": "https://dc.lft.to/lastmile_qr_scan"}, "lon": -77.07318383333333, "type": "electric_scooter"}, {"bike_id": "8c401f87597f16ae09bf050d5c2f7b07", "is_reserved": 0, "fusion_lon": 0.0, "lat": 38.92472866666667, "is_disabled": 0, "name": "8c401f87597f16ae09bf050d5c2f7b07", "fusion_lat": 0.0, "rental_uris": {"ios": "https://dc.lft.to/lastmile_qr_scan", "android": "https://dc.lft.to/lastmile_qr_scan"}, "lon": -77.03918033333333, "type": "electric_scooter"}, {"bike_id": "c916e5846268991cc6adac9fc3014ceb", "is_reserved": 0, "fusion_lon": 0.0, "lat": 38.900647666666664, "is_disabled": 0, "name": "c916e5846268991cc6adac9fc3014ceb", "fusion_lat": 0.0, "rental_uris": {"ios": "https://dc.lft.to/lastmile_qr_scan", "android": "https://dc.lft.to/lastmile_qr_scan"}, "lon": -77.04568266666666, "type": "electric_bike"}, {"bike_id": "3046b6f0f94ba8e29751dc67f7a8bce6", "is_reserved": 0, "fusion_lon": 0.0, "lat": 38.88497366666667, "is_disabled": 0, "name": "3046b6f0f94ba8e29751dc67f7a8bce6", "fusion_lat": 0.0, "rental_uris": {"ios": "https://dc.lft.to/lastmile_qr_scan", "android": "https://dc.lft.to/lastmile_qr_scan"}, "lon": -77.0072645, "type": "electric_scooter"}, {"bike_id": "62b297b3a02f6a7b2732d7045f8928ee", "is_reserved": 0, "fusion_lon": 0.0, "lat": 38.9195115, "is_disabled": 0, "name": "62b297b3a02f6a7b2732d7045f8928ee", "fusion_lat": 0.0, "rental_uris": {"ios": "https://dc.lft.to/lastmile_qr_scan", "android": "https://dc.lft.to/lastmile_qr_scan"}, "lon": -77.0249865, "type": "electric_scooter"}, {"bike_id": "527aacabcb7de7f8b5a7117e2e8e11ab", "is_reserved": 0, "fusion_lon": 0.0, "lat": 38.907327333333335, "is_disabled": 0, "name": "527aacabcb7de7f8b5a7117e2e8e11ab", "fusion_lat": 0.0, "rental_uris": {"ios": "https://dc.lft.to/lastmile_qr_scan", "android": "https://dc.lft.to/lastmile_qr_scan"}, "lon": -77.0304725, "type": "electric_scooter"}, {"bike_id": "2616a1e111eedabd142d2b252102ec0f", "is_reserved": 0, "fusion_lon": 0.0, "lat": 38.900103, "is_disabled": 0, "name": "2616a1e111eedabd142d2b252102ec0f", "fusion_lat": 0.0, "rental_uris": {"ios": "https://dc.lft.to/lastmile_qr_scan", "android": "https://dc.lft.to/lastmile_qr_scan"}, "lon": -77.030128, "type": "electric_scooter"}, {"bike_id": "d7a01d501a746be081570abd82d3f0a2", "is_reserved": 0, "fusion_lon": 0.0, "lat": 38.862884, "is_disabled": 0, "name": "d7a01d501a746be081570abd82d3f0a2", "fusion_lat": 0.0, "rental_uris": {"ios": "https://dc.lft.to/lastmile_qr_scan", "android": "https://dc.lft.to/lastmile_qr_scan"}, "lon": -76.9923815, "type": "electric_scooter"}, {"bike_id": "f7811b49ed914ab9ed6daf862c36715e", "is_reserved": 0, "fusion_lon": 0.0, "lat": 38.905396, "is_disabled": 0, "name": "f7811b49ed914ab9ed6daf862c36715e", "fusion_lat": 0.0, "rental_uris": {"ios": "https://dc.lft.to/lastmile_qr_scan", "android": "https://dc.lft.to/lastmile_qr_scan"}, "lon": -77.059501, "type": "electric_bike"}, {"bike_id": "9375d43d31a62e3db30c0deab4dc849c", "is_reserved": 0, "fusion_lon": 0.0, "lat": 38.941793, "is_disabled": 0, "name": "9375d43d31a62e3db30c0deab4dc849c", "fusion_lat": 0.0, "rental_uris": {"ios": "https://dc.lft.to/lastmile_qr_scan", "android": "https://dc.lft.to/lastmile_qr_scan"}, "lon": -77.0253025, "type": "electric_scooter"}, {"bike_id": "37c0d46b514de15630c2bf63811f4f5b", "is_reserved": 0, "fusion_lon": 0.0, "lat": 38.924187833333335, "is_disabled": 0, "name": "37c0d46b514de15630c2bf63811f4f5b", "fusion_lat": 0.0, "rental_uris": {"ios": "https://dc.lft.to/lastmile_qr_scan", "android": "https://dc.lft.to/lastmile_qr_scan"}, "lon": -77.0194505, "type": "electric_scooter"}, {"bike_id": "da690bde058336b65c50e3f6654238e4", "is_reserved": 0, "fusion_lon": 0.0, "lat": 38.91955466666667, "is_disabled": 0, "name": "da690bde058336b65c50e3f6654238e4", "fusion_lat": 0.0, "rental_uris": {"ios": "https://dc.lft.to/lastmile_qr_scan", "android": "https://dc.lft.to/lastmile_qr_scan"}, "lon": -77.017931, "type": "electric_scooter"}, {"bike_id": "29e2694c67ebb4f333ba3aa0eb148d86", "is_reserved": 0, "fusion_lon": 0.0, "lat": 38.92354983333333, "is_disabled": 0, "name": "29e2694c67ebb4f333ba3aa0eb148d86", "fusion_lat": 0.0, "rental_uris": {"ios": "https://dc.lft.to/lastmile_qr_scan", "android": "https://dc.lft.to/lastmile_qr_scan"}, "lon": -77.05243466666667, "type": "electric_scooter"}, {"bike_id": "f588ffc2a5ee49db5954da538217694b", "is_reserved": 0, "fusion_lon": 0.0, "lat": 38.90476133333333, "is_disabled": 0, "name": "f588ffc2a5ee49db5954da538217694b", "fusion_lat": 0.0, "rental_uris": {"ios": "https://dc.lft.to/lastmile_qr_scan", "android": "https://dc.lft.to/lastmile_qr_scan"}, "lon": -77.04673566666666, "type": "electric_scooter"}, {"bike_id": "eb196d0cc91fc7c5f1e0bbeedf5f0537", "is_reserved": 0, "fusion_lon": 0.0, "lat": 38.8947635, "is_disabled": 0, "name": "eb196d0cc91fc7c5f1e0bbeedf5f0537", "fusion_lat": 0.0, "rental_uris": {"ios": "https://dc.lft.to/lastmile_qr_scan", "android": "https://dc.lft.to/lastmile_qr_scan"}, "lon": -76.99536166666667, "type": "electric_scooter"}, {"bike_id": "28f3e51f8704fd1423d0326be0de22b6", "is_reserved": 0, "fusion_lon": 0.0, "lat": 38.905227, "is_disabled": 0, "name": "28f3e51f8704fd1423d0326be0de22b6", "fusion_lat": 0.0, "rental_uris": {"ios": "https://dc.lft.to/lastmile_qr_scan", "android": "https://dc.lft.to/lastmile_qr_scan"}, "lon": -77.06531883333334, "type": "electric_scooter"}, {"bike_id": "755d56de76a3555c7d23f33533d9cdcb", "is_reserved": 0, "fusion_lon": 0.0, "lat": 38.88400633333333, "is_disabled": 0, "name": "755d56de76a3555c7d23f33533d9cdcb", "fusion_lat": 0.0, "rental_uris": {"ios": "https://dc.lft.to/lastmile_qr_scan", "android": "https://dc.lft.to/lastmile_qr_scan"}, "lon": -77.01778466666667, "type": "electric_scooter"}, {"bike_id": "4bba2b2dd3e0fbb28a6f6960b6d67897", "is_reserved": 0, "fusion_lon": 0.0, "lat": 38.89761566666667, "is_disabled": 0, "name": "4bba2b2dd3e0fbb28a6f6960b6d67897", "fusion_lat": 0.0, "rental_uris": {"ios": "https://dc.lft.to/lastmile_qr_scan", "android": "https://dc.lft.to/lastmile_qr_scan"}, "lon": -77.03201333333334, "type": "electric_scooter"}, {"bike_id": "dd27aed828a46b1a1fb71235d25e40e6", "is_reserved": 0, "fusion_lon": 0.0, "lat": 38.86238733333333, "is_disabled": 0, "name": "dd27aed828a46b1a1fb71235d25e40e6", "fusion_lat": 0.0, "rental_uris": {"ios": "https://dc.lft.to/lastmile_qr_scan", "android": "https://dc.lft.to/lastmile_qr_scan"}, "lon": -76.99493366666667, "type": "electric_scooter"}, {"bike_id": "602dcbd6e186571b6e123f3183a45c63", "is_reserved": 0, "fusion_lon": 0.0, "lat": 38.89773366666667, "is_disabled": 0, "name": "602dcbd6e186571b6e123f3183a45c63", "fusion_lat": 0.0, "rental_uris": {"ios": "https://dc.lft.to/lastmile_qr_scan", "android": "https://dc.lft.to/lastmile_qr_scan"}, "lon": -77.03157566666667, "type": "electric_scooter"}, {"bike_id": "13a60758604c8b7acb5089f311db3523", "is_reserved": 0, "fusion_lon": 0.0, "lat": 38.905102166666666, "is_disabled": 0, "name": "13a60758604c8b7acb5089f311db3523", "fusion_lat": 0.0, "rental_uris": {"ios": "https://dc.lft.to/lastmile_qr_scan", "android": "https://dc.lft.to/lastmile_qr_scan"}, "lon": -77.063845, "type": "electric_scooter"}, {"bike_id": "d2517cb73d41d42e0ef66f1b4b5c8a24", "is_reserved": 0, "fusion_lon": 0.0, "lat": 38.910101, "is_disabled": 0, "name": "d2517cb73d41d42e0ef66f1b4b5c8a24", "fusion_lat": 0.0, "rental_uris": {"ios": "https://dc.lft.to/lastmile_qr_scan", "android": "https://dc.lft.to/lastmile_qr_scan"}, "lon": -76.9938485, "type": "electric_scooter"}, {"bike_id": "471fbf866468ba086a68908501e8e5eb", "is_reserved": 0, "fusion_lon": 0.0, "lat": 38.917107333333334, "is_disabled": 0, "name": "471fbf866468ba086a68908501e8e5eb", "fusion_lat": 0.0, "rental_uris": {"ios": "https://dc.lft.to/lastmile_qr_scan", "android": "https://dc.lft.to/lastmile_qr_scan"}, "lon": -77.03332616666667, "type": "electric_scooter"}, {"bike_id": "54004ebaa5df99f1c4f896a011446d15", "is_reserved": 0, "fusion_lon": 0.0, "lat": 38.92360883333333, "is_disabled": 0, "name": "54004ebaa5df99f1c4f896a011446d15", "fusion_lat": 0.0, "rental_uris": {"ios": "https://dc.lft.to/lastmile_qr_scan", "android": "https://dc.lft.to/lastmile_qr_scan"}, "lon": -77.05132183333333, "type": "electric_scooter"}, {"bike_id": "2270ee7c139abce7069972c3f90550e0", "is_reserved": 0, "fusion_lon": 0.0, "lat": 38.90006983333333, "is_disabled": 0, "name": "2270ee7c139abce7069972c3f90550e0", "fusion_lat": 0.0, "rental_uris": {"ios": "https://dc.lft.to/lastmile_qr_scan", "android": "https://dc.lft.to/lastmile_qr_scan"}, "lon": -76.98871166666666, "type": "electric_scooter"}, {"bike_id": "63c614751a58a5b00c781de53cad0430", "is_reserved": 0, "fusion_lon": 0.0, "lat": 38.9058565, "is_disabled": 0, "name": "63c614751a58a5b00c781de53cad0430", "fusion_lat": 0.0, "rental_uris": {"ios": "https://dc.lft.to/lastmile_qr_scan", "android": "https://dc.lft.to/lastmile_qr_scan"}, "lon": -77.06518366666667, "type": "electric_scooter"}, {"bike_id": "4e82e8c48d99970c54ca1e2ca40deb51", "is_reserved": 0, "fusion_lon": 0.0, "lat": 38.92337416666667, "is_disabled": 0, "name": "4e82e8c48d99970c54ca1e2ca40deb51", "fusion_lat": 0.0, "rental_uris": {"ios": "https://dc.lft.to/lastmile_qr_scan", "android": "https://dc.lft.to/lastmile_qr_scan"}, "lon": -77.01907366666667, "type": "electric_scooter"}, {"bike_id": "0dfea1b0a7afb4a524c06656ee16bcbc", "is_reserved": 0, "fusion_lon": 0.0, "lat": 38.91878633333334, "is_disabled": 0, "name": "0dfea1b0a7afb4a524c06656ee16bcbc", "fusion_lat": 0.0, "rental_uris": {"ios": "https://dc.lft.to/lastmile_qr_scan", "android": "https://dc.lft.to/lastmile_qr_scan"}, "lon": -77.04184566666666, "type": "electric_scooter"}, {"bike_id": "e4457af3bdb29c43bc7dac047d19c386", "is_reserved": 0, "fusion_lon": 0.0, "lat": 38.881462166666665, "is_disabled": 0, "name": "e4457af3bdb29c43bc7dac047d19c386", "fusion_lat": 0.0, "rental_uris": {"ios": "https://dc.lft.to/lastmile_qr_scan", "android": "https://dc.lft.to/lastmile_qr_scan"}, "lon": -77.02745016666667, "type": "electric_scooter"}, {"bike_id": "8e9e297d580291ac4ed1ad5e64ef2977", "is_reserved": 0, "fusion_lon": 0.0, "lat": 38.896715666666665, "is_disabled": 0, "name": "8e9e297d580291ac4ed1ad5e64ef2977", "fusion_lat": 0.0, "rental_uris": {"ios": "https://dc.lft.to/lastmile_qr_scan", "android": "https://dc.lft.to/lastmile_qr_scan"}, "lon": -77.02963816666667, "type": "electric_scooter"}, {"bike_id": "a799ae99ff319a37a1bf29e06b8d3be8", "is_reserved": 0, "fusion_lon": 0.0, "lat": 38.901146833333335, "is_disabled": 0, "name": "a799ae99ff319a37a1bf29e06b8d3be8", "fusion_lat": 0.0, "rental_uris": {"ios": "https://dc.lft.to/lastmile_qr_scan", "android": "https://dc.lft.to/lastmile_qr_scan"}, "lon": -77.03439316666666, "type": "electric_bike"}, {"bike_id": "ee3b375b3dae5b55688d0f0154eb8814", "is_reserved": 0, "fusion_lon": 0.0, "lat": 38.89903266666666, "is_disabled": 0, "name": "ee3b375b3dae5b55688d0f0154eb8814", "fusion_lat": 0.0, "rental_uris": {"ios": "https://dc.lft.to/lastmile_qr_scan", "android": "https://dc.lft.to/lastmile_qr_scan"}, "lon": -77.0405575, "type": "electric_scooter"}, {"bike_id": "d53aab4805a76cb4474b3cc700172e71", "is_reserved": 0, "fusion_lon": 0.0, "lat": 38.918187333333336, "is_disabled": 0, "name": "d53aab4805a76cb4474b3cc700172e71", "fusion_lat": 0.0, "rental_uris": {"ios": "https://dc.lft.to/lastmile_qr_scan", "android": "https://dc.lft.to/lastmile_qr_scan"}, "lon": -77.02472683333333, "type": "electric_scooter"}, {"bike_id": "af7390b3a9ca8c38a8c53fd141bf7cce", "is_reserved": 0, "fusion_lon": 0.0, "lat": 38.934006333333336, "is_disabled": 0, "name": "af7390b3a9ca8c38a8c53fd141bf7cce", "fusion_lat": 0.0, "rental_uris": {"ios": "https://dc.lft.to/lastmile_qr_scan", "android": "https://dc.lft.to/lastmile_qr_scan"}, "lon": -77.02731666666666, "type": "electric_scooter"}, {"bike_id": "b5f5c871b7e29bec487f30e00cdedcef", "is_reserved": 0, "fusion_lon": 0.0, "lat": 38.9032505, "is_disabled": 0, "name": "b5f5c871b7e29bec487f30e00cdedcef", "fusion_lat": 0.0, "rental_uris": {"ios": "https://dc.lft.to/lastmile_qr_scan", "android": "https://dc.lft.to/lastmile_qr_scan"}, "lon": -77.0374105, "type": "electric_scooter"}, {"bike_id": "858426722a4fb8592043022d3dfc41b1", "is_reserved": 0, "fusion_lon": 0.0, "lat": 38.897812, "is_disabled": 0, "name": "858426722a4fb8592043022d3dfc41b1", "fusion_lat": 0.0, "rental_uris": {"ios": "https://dc.lft.to/lastmile_qr_scan", "android": "https://dc.lft.to/lastmile_qr_scan"}, "lon": -77.007195, "type": "electric_scooter"}, {"bike_id": "6625f2f831c4edcaf5fbd13786775bd7", "is_reserved": 0, "fusion_lon": 0.0, "lat": 38.91845633333333, "is_disabled": 0, "name": "6625f2f831c4edcaf5fbd13786775bd7", "fusion_lat": 0.0, "rental_uris": {"ios": "https://dc.lft.to/lastmile_qr_scan", "android": "https://dc.lft.to/lastmile_qr_scan"}, "lon": -77.02287833333334, "type": "electric_scooter"}, {"bike_id": "b9a091a849cc9edb7140887517e1f5dd", "is_reserved": 0, "fusion_lon": 0.0, "lat": 38.9062335, "is_disabled": 0, "name": "b9a091a849cc9edb7140887517e1f5dd", "fusion_lat": 0.0, "rental_uris": {"ios": "https://dc.lft.to/lastmile_qr_scan", "android": "https://dc.lft.to/lastmile_qr_scan"}, "lon": -77.03968233333333, "type": "electric_scooter"}, {"bike_id": "71c7573759287826f25ed6806807cace", "is_reserved": 0, "fusion_lon": 0.0, "lat": 38.90273833333333, "is_disabled": 0, "name": "71c7573759287826f25ed6806807cace", "fusion_lat": 0.0, "rental_uris": {"ios": "https://dc.lft.to/lastmile_qr_scan", "android": "https://dc.lft.to/lastmile_qr_scan"}, "lon": -77.0386535, "type": "electric_scooter"}, {"bike_id": "fdaf3eafc77525b0aaf33b5e1b3ba1b4", "is_reserved": 0, "fusion_lon": 0.0, "lat": 38.9204105, "is_disabled": 0, "name": "fdaf3eafc77525b0aaf33b5e1b3ba1b4", "fusion_lat": 0.0, "rental_uris": {"ios": "https://dc.lft.to/lastmile_qr_scan", "android": "https://dc.lft.to/lastmile_qr_scan"}, "lon": -76.9790795, "type": "electric_scooter"}, {"bike_id": "605949bef718d13be685a8ed161f6f99", "is_reserved": 0, "fusion_lon": 0.0, "lat": 38.899132, "is_disabled": 0, "name": "605949bef718d13be685a8ed161f6f99", "fusion_lat": 0.0, "rental_uris": {"ios": "https://dc.lft.to/lastmile_qr_scan", "android": "https://dc.lft.to/lastmile_qr_scan"}, "lon": -77.04647833333334, "type": "electric_scooter"}, {"bike_id": "4c93a95ac26c7a0b034f73af2c6bb2fe", "is_reserved": 0, "fusion_lon": 0.0, "lat": 38.884889, "is_disabled": 0, "name": "4c93a95ac26c7a0b034f73af2c6bb2fe", "fusion_lat": 0.0, "rental_uris": {"ios": "https://dc.lft.to/lastmile_qr_scan", "android": "https://dc.lft.to/lastmile_qr_scan"}, "lon": -77.00709333333333, "type": "electric_scooter"}, {"bike_id": "1987da0c48b743017342bdafbe130503", "is_reserved": 0, "fusion_lon": 0.0, "lat": 38.92139783333333, "is_disabled": 0, "name": "1987da0c48b743017342bdafbe130503", "fusion_lat": 0.0, "rental_uris": {"ios": "https://dc.lft.to/lastmile_qr_scan", "android": "https://dc.lft.to/lastmile_qr_scan"}, "lon": -77.03532666666666, "type": "electric_scooter"}, {"bike_id": "d2476f7ef3e956c847b62e60ebde5962", "is_reserved": 0, "fusion_lon": 0.0, "lat": 38.938882166666666, "is_disabled": 0, "name": "d2476f7ef3e956c847b62e60ebde5962", "fusion_lat": 0.0, "rental_uris": {"ios": "https://dc.lft.to/lastmile_qr_scan", "android": "https://dc.lft.to/lastmile_qr_scan"}, "lon": -77.03342133333334, "type": "electric_scooter"}, {"bike_id": "842752fdc87c066142ef4c7f92aaac90", "is_reserved": 0, "fusion_lon": 0.0, "lat": 38.903275666666666, "is_disabled": 0, "name": "842752fdc87c066142ef4c7f92aaac90", "fusion_lat": 0.0, "rental_uris": {"ios": "https://dc.lft.to/lastmile_qr_scan", "android": "https://dc.lft.to/lastmile_qr_scan"}, "lon": -77.04659816666667, "type": "electric_scooter"}, {"bike_id": "927a0de39e07cc0af71011909a4a39f3", "is_reserved": 0, "fusion_lon": 0.0, "lat": 38.887393333333335, "is_disabled": 0, "name": "927a0de39e07cc0af71011909a4a39f3", "fusion_lat": 0.0, "rental_uris": {"ios": "https://dc.lft.to/lastmile_qr_scan", "android": "https://dc.lft.to/lastmile_qr_scan"}, "lon": -77.01534033333333, "type": "electric_scooter"}, {"bike_id": "153e15ca2d8b52f37fbac1628b27c24e", "is_reserved": 0, "fusion_lon": 0.0, "lat": 38.88500283333333, "is_disabled": 0, "name": "153e15ca2d8b52f37fbac1628b27c24e", "fusion_lat": 0.0, "rental_uris": {"ios": "https://dc.lft.to/lastmile_qr_scan", "android": "https://dc.lft.to/lastmile_qr_scan"}, "lon": -77.00565316666666, "type": "electric_scooter"}, {"bike_id": "a67ee41d58e25664b51873cc3c4882df", "is_reserved": 0, "fusion_lon": 0.0, "lat": 38.89559466666667, "is_disabled": 0, "name": "a67ee41d58e25664b51873cc3c4882df", "fusion_lat": 0.0, "rental_uris": {"ios": "https://dc.lft.to/lastmile_qr_scan", "android": "https://dc.lft.to/lastmile_qr_scan"}, "lon": -77.12732716666666, "type": "electric_bike"}, {"bike_id": "2e9ebff9f59695bcaaa9100af33a6e07", "is_reserved": 0, "fusion_lon": 0.0, "lat": 38.901399833333336, "is_disabled": 0, "name": "2e9ebff9f59695bcaaa9100af33a6e07", "fusion_lat": 0.0, "rental_uris": {"ios": "https://dc.lft.to/lastmile_qr_scan", "android": "https://dc.lft.to/lastmile_qr_scan"}, "lon": -77.04307, "type": "electric_scooter"}, {"bike_id": "4ae1450f685191eaa7bbb0df33821609", "is_reserved": 0, "fusion_lon": 0.0, "lat": 38.89830633333333, "is_disabled": 0, "name": "4ae1450f685191eaa7bbb0df33821609", "fusion_lat": 0.0, "rental_uris": {"ios": "https://dc.lft.to/lastmile_qr_scan", "android": "https://dc.lft.to/lastmile_qr_scan"}, "lon": -77.05032166666666, "type": "electric_scooter"}, {"bike_id": "599ff65b8609de46c3c8d0af27702764", "is_reserved": 0, "fusion_lon": 0.0, "lat": 38.9226825, "is_disabled": 0, "name": "599ff65b8609de46c3c8d0af27702764", "fusion_lat": 0.0, "rental_uris": {"ios": "https://dc.lft.to/lastmile_qr_scan", "android": "https://dc.lft.to/lastmile_qr_scan"}, "lon": -77.041335, "type": "electric_scooter"}, {"bike_id": "a500bd344e57e27c96e14ff69af841b2", "is_reserved": 0, "fusion_lon": 0.0, "lat": 38.902143, "is_disabled": 0, "name": "a500bd344e57e27c96e14ff69af841b2", "fusion_lat": 0.0, "rental_uris": {"ios": "https://dc.lft.to/lastmile_qr_scan", "android": "https://dc.lft.to/lastmile_qr_scan"}, "lon": -76.95053483333334, "type": "electric_bike"}, {"bike_id": "68d61c38892e81d9abf2413760954bdf", "is_reserved": 0, "fusion_lon": 0.0, "lat": 38.90586533333333, "is_disabled": 0, "name": "68d61c38892e81d9abf2413760954bdf", "fusion_lat": 0.0, "rental_uris": {"ios": "https://dc.lft.to/lastmile_qr_scan", "android": "https://dc.lft.to/lastmile_qr_scan"}, "lon": -77.0510275, "type": "electric_scooter"}, {"bike_id": "1776591093693f0458bd42908c017571", "is_reserved": 0, "fusion_lon": 0.0, "lat": 38.8874055, "is_disabled": 0, "name": "1776591093693f0458bd42908c017571", "fusion_lat": 0.0, "rental_uris": {"ios": "https://dc.lft.to/lastmile_qr_scan", "android": "https://dc.lft.to/lastmile_qr_scan"}, "lon": -77.03178266666667, "type": "electric_scooter"}, {"bike_id": "97e7afe5ddd1786338693ae463cdf7af", "is_reserved": 0, "fusion_lon": 0.0, "lat": 38.90009833333333, "is_disabled": 0, "name": "97e7afe5ddd1786338693ae463cdf7af", "fusion_lat": 0.0, "rental_uris": {"ios": "https://dc.lft.to/lastmile_qr_scan", "android": "https://dc.lft.to/lastmile_qr_scan"}, "lon": -77.04041416666666, "type": "electric_scooter"}, {"bike_id": "9c5a27278a29a26e9a3513cb0e7c372c", "is_reserved": 0, "fusion_lon": 0.0, "lat": 38.90270733333333, "is_disabled": 0, "name": "9c5a27278a29a26e9a3513cb0e7c372c", "fusion_lat": 0.0, "rental_uris": {"ios": "https://dc.lft.to/lastmile_qr_scan", "android": "https://dc.lft.to/lastmile_qr_scan"}, "lon": -77.04016516666667, "type": "electric_scooter"}, {"bike_id": "ef2f4551121494169ec7ff6cd2379014", "is_reserved": 0, "fusion_lon": 0.0, "lat": 38.844278333333335, "is_disabled": 0, "name": "ef2f4551121494169ec7ff6cd2379014", "fusion_lat": 0.0, "rental_uris": {"ios": "https://dc.lft.to/lastmile_qr_scan", "android": "https://dc.lft.to/lastmile_qr_scan"}, "lon": -76.99780716666666, "type": "electric_scooter"}, {"bike_id": "b2388dd32596bc73d8b38428581788ed", "is_reserved": 0, "fusion_lon": 0.0, "lat": 38.90605983333333, "is_disabled": 0, "name": "b2388dd32596bc73d8b38428581788ed", "fusion_lat": 0.0, "rental_uris": {"ios": "https://dc.lft.to/lastmile_qr_scan", "android": "https://dc.lft.to/lastmile_qr_scan"}, "lon": -77.04340633333334, "type": "electric_scooter"}, {"bike_id": "1fe0be233fb79726290bde821bb1230f", "is_reserved": 0, "fusion_lon": 0.0, "lat": 38.9210545, "is_disabled": 0, "name": "1fe0be233fb79726290bde821bb1230f", "fusion_lat": 0.0, "rental_uris": {"ios": "https://dc.lft.to/lastmile_qr_scan", "android": "https://dc.lft.to/lastmile_qr_scan"}, "lon": -77.01751433333334, "type": "electric_scooter"}, {"bike_id": "ecb3e9b67740bc49de8acec0118723e4", "is_reserved": 0, "fusion_lon": 0.0, "lat": 38.902363333333334, "is_disabled": 0, "name": "ecb3e9b67740bc49de8acec0118723e4", "fusion_lat": 0.0, "rental_uris": {"ios": "https://dc.lft.to/lastmile_qr_scan", "android": "https://dc.lft.to/lastmile_qr_scan"}, "lon": -77.02693666666667, "type": "electric_scooter"}, {"bike_id": "28325a62299557745e4efac3dfbd79c8", "is_reserved": 0, "fusion_lon": 0.0, "lat": 38.91929233333333, "is_disabled": 0, "name": "28325a62299557745e4efac3dfbd79c8", "fusion_lat": 0.0, "rental_uris": {"ios": "https://dc.lft.to/lastmile_qr_scan", "android": "https://dc.lft.to/lastmile_qr_scan"}, "lon": -77.04500466666667, "type": "electric_scooter"}, {"bike_id": "fdadf292b6baaacfb9f2abc76d20f175", "is_reserved": 0, "fusion_lon": 0.0, "lat": 38.899786, "is_disabled": 0, "name": "fdadf292b6baaacfb9f2abc76d20f175", "fusion_lat": 0.0, "rental_uris": {"ios": "https://dc.lft.to/lastmile_qr_scan", "android": "https://dc.lft.to/lastmile_qr_scan"}, "lon": -77.0271, "type": "electric_scooter"}, {"bike_id": "33c1140d660baf3de6e0ab128674bdea", "is_reserved": 0, "fusion_lon": 0.0, "lat": 38.89739466666666, "is_disabled": 0, "name": "33c1140d660baf3de6e0ab128674bdea", "fusion_lat": 0.0, "rental_uris": {"ios": "https://dc.lft.to/lastmile_qr_scan", "android": "https://dc.lft.to/lastmile_qr_scan"}, "lon": -77.02695933333334, "type": "electric_scooter"}, {"bike_id": "e15f27c6dd315158bbfbfd88925ee84b", "is_reserved": 0, "fusion_lon": 0.0, "lat": 38.932283, "is_disabled": 0, "name": "e15f27c6dd315158bbfbfd88925ee84b", "fusion_lat": 0.0, "rental_uris": {"ios": "https://dc.lft.to/lastmile_qr_scan", "android": "https://dc.lft.to/lastmile_qr_scan"}, "lon": -77.028284, "type": "electric_scooter"}, {"bike_id": "b61406c98fe948705e1162fca7032ab9", "is_reserved": 0, "fusion_lon": 0.0, "lat": 38.902718, "is_disabled": 0, "name": "b61406c98fe948705e1162fca7032ab9", "fusion_lat": 0.0, "rental_uris": {"ios": "https://dc.lft.to/lastmile_qr_scan", "android": "https://dc.lft.to/lastmile_qr_scan"}, "lon": -77.040499, "type": "electric_scooter"}, {"bike_id": "77638816ed84f1e654cdde9ad79cea73", "is_reserved": 0, "fusion_lon": 0.0, "lat": 38.89223583333333, "is_disabled": 0, "name": "77638816ed84f1e654cdde9ad79cea73", "fusion_lat": 0.0, "rental_uris": {"ios": "https://dc.lft.to/lastmile_qr_scan", "android": "https://dc.lft.to/lastmile_qr_scan"}, "lon": -77.02838366666667, "type": "electric_scooter"}, {"bike_id": "7b2a89bcfbb6b91ddb7caa50fec2a2d8", "is_reserved": 0, "fusion_lon": 0.0, "lat": 38.92747216666667, "is_disabled": 0, "name": "7b2a89bcfbb6b91ddb7caa50fec2a2d8", "fusion_lat": 0.0, "rental_uris": {"ios": "https://dc.lft.to/lastmile_qr_scan", "android": "https://dc.lft.to/lastmile_qr_scan"}, "lon": -77.0539425, "type": "electric_scooter"}, {"bike_id": "d4d9f513eaa690c94fc1ff481df14684", "is_reserved": 0, "fusion_lon": 0.0, "lat": 38.86557766666667, "is_disabled": 0, "name": "d4d9f513eaa690c94fc1ff481df14684", "fusion_lat": 0.0, "rental_uris": {"ios": "https://dc.lft.to/lastmile_qr_scan", "android": "https://dc.lft.to/lastmile_qr_scan"}, "lon": -76.98955783333334, "type": "electric_scooter"}, {"bike_id": "64a07aadd50ed9fef4f2dfce5367fea2", "is_reserved": 0, "fusion_lon": 0.0, "lat": 38.939479666666664, "is_disabled": 0, "name": "64a07aadd50ed9fef4f2dfce5367fea2", "fusion_lat": 0.0, "rental_uris": {"ios": "https://dc.lft.to/lastmile_qr_scan", "android": "https://dc.lft.to/lastmile_qr_scan"}, "lon": -77.03267383333333, "type": "electric_scooter"}, {"bike_id": "15459619b08fb8ce572c69131d8fd4c5", "is_reserved": 0, "fusion_lon": 0.0, "lat": 38.923693166666666, "is_disabled": 0, "name": "15459619b08fb8ce572c69131d8fd4c5", "fusion_lat": 0.0, "rental_uris": {"ios": "https://dc.lft.to/lastmile_qr_scan", "android": "https://dc.lft.to/lastmile_qr_scan"}, "lon": -77.01911816666667, "type": "electric_scooter"}, {"bike_id": "156d7857ec987205a048ddb857239e58", "is_reserved": 0, "fusion_lon": 0.0, "lat": 38.85221533333333, "is_disabled": 0, "name": "156d7857ec987205a048ddb857239e58", "fusion_lat": 0.0, "rental_uris": {"ios": "https://dc.lft.to/lastmile_qr_scan", "android": "https://dc.lft.to/lastmile_qr_scan"}, "lon": -77.12963383333333, "type": "electric_bike"}, {"bike_id": "a799665dee7a4f72aed5d79ea9167aaa", "is_reserved": 0, "fusion_lon": 0.0, "lat": 38.92342383333333, "is_disabled": 0, "name": "a799665dee7a4f72aed5d79ea9167aaa", "fusion_lat": 0.0, "rental_uris": {"ios": "https://dc.lft.to/lastmile_qr_scan", "android": "https://dc.lft.to/lastmile_qr_scan"}, "lon": -77.01908983333334, "type": "electric_scooter"}, {"bike_id": "994cc3adf3fd63ef2d30b13e7a006e92", "is_reserved": 0, "fusion_lon": 0.0, "lat": 38.9036925, "is_disabled": 0, "name": "994cc3adf3fd63ef2d30b13e7a006e92", "fusion_lat": 0.0, "rental_uris": {"ios": "https://dc.lft.to/lastmile_qr_scan", "android": "https://dc.lft.to/lastmile_qr_scan"}, "lon": -77.04454033333333, "type": "electric_scooter"}, {"bike_id": "4f14a30d346306fc94f8e6ddfff1bb03", "is_reserved": 0, "fusion_lon": 0.0, "lat": 38.900507833333336, "is_disabled": 0, "name": "4f14a30d346306fc94f8e6ddfff1bb03", "fusion_lat": 0.0, "rental_uris": {"ios": "https://dc.lft.to/lastmile_qr_scan", "android": "https://dc.lft.to/lastmile_qr_scan"}, "lon": -77.00753133333333, "type": "electric_scooter"}, {"bike_id": "a57836dcb6031303f6263d9961c8f762", "is_reserved": 0, "fusion_lon": 0.0, "lat": 38.80692783333333, "is_disabled": 0, "name": "a57836dcb6031303f6263d9961c8f762", "fusion_lat": 0.0, "rental_uris": {"ios": "https://dc.lft.to/lastmile_qr_scan", "android": "https://dc.lft.to/lastmile_qr_scan"}, "lon": -77.05971433333333, "type": "electric_bike"}, {"bike_id": "7397e4fd0f33cfec48f2e696314e0129", "is_reserved": 0, "fusion_lon": 0.0, "lat": 38.86595116666667, "is_disabled": 0, "name": "7397e4fd0f33cfec48f2e696314e0129", "fusion_lat": 0.0, "rental_uris": {"ios": "https://dc.lft.to/lastmile_qr_scan", "android": "https://dc.lft.to/lastmile_qr_scan"}, "lon": -76.93230716666666, "type": "electric_bike"}, {"bike_id": "29f9572b0517bfb20f74b328a0c5839a", "is_reserved": 0, "fusion_lon": 0.0, "lat": 38.9395605, "is_disabled": 0, "name": "29f9572b0517bfb20f74b328a0c5839a", "fusion_lat": 0.0, "rental_uris": {"ios": "https://dc.lft.to/lastmile_qr_scan", "android": "https://dc.lft.to/lastmile_qr_scan"}, "lon": -77.03264833333333, "type": "electric_scooter"}, {"bike_id": "74229ff41757033fededa2173f78495b", "is_reserved": 0, "fusion_lon": 0.0, "lat": 38.90438966666667, "is_disabled": 0, "name": "74229ff41757033fededa2173f78495b", "fusion_lat": 0.0, "rental_uris": {"ios": "https://dc.lft.to/lastmile_qr_scan", "android": "https://dc.lft.to/lastmile_qr_scan"}, "lon": -77.03451666666666, "type": "electric_scooter"}, {"bike_id": "3ea36b9b34b8f0ff742185352fec0d73", "is_reserved": 0, "fusion_lon": 0.0, "lat": 38.89231483333333, "is_disabled": 0, "name": "3ea36b9b34b8f0ff742185352fec0d73", "fusion_lat": 0.0, "rental_uris": {"ios": "https://dc.lft.to/lastmile_qr_scan", "android": "https://dc.lft.to/lastmile_qr_scan"}, "lon": -77.02580883333333, "type": "electric_scooter"}, {"bike_id": "73fa671a9db4d034f77b03e3e06c99ff", "is_reserved": 0, "fusion_lon": 0.0, "lat": 38.985979666666665, "is_disabled": 0, "name": "73fa671a9db4d034f77b03e3e06c99ff", "fusion_lat": 0.0, "rental_uris": {"ios": "https://dc.lft.to/lastmile_qr_scan", "android": "https://dc.lft.to/lastmile_qr_scan"}, "lon": -77.03751066666666, "type": "electric_bike"}, {"bike_id": "dd20b47ac2cf7856c5145ac349af790c", "is_reserved": 0, "fusion_lon": 0.0, "lat": 38.9846255, "is_disabled": 0, "name": "dd20b47ac2cf7856c5145ac349af790c", "fusion_lat": 0.0, "rental_uris": {"ios": "https://dc.lft.to/lastmile_qr_scan", "android": "https://dc.lft.to/lastmile_qr_scan"}, "lon": -76.95527933333334, "type": "electric_bike"}, {"bike_id": "724fa8b3ab97f4bfdbccc6c0630eabf4", "is_reserved": 0, "fusion_lon": 0.0, "lat": 38.93013883333333, "is_disabled": 0, "name": "724fa8b3ab97f4bfdbccc6c0630eabf4", "fusion_lat": 0.0, "rental_uris": {"ios": "https://dc.lft.to/lastmile_qr_scan", "android": "https://dc.lft.to/lastmile_qr_scan"}, "lon": -77.06189066666667, "type": "electric_scooter"}, {"bike_id": "b30473f0a6910a60a785e99b863ee830", "is_reserved": 0, "fusion_lon": 0.0, "lat": 38.901041, "is_disabled": 0, "name": "b30473f0a6910a60a785e99b863ee830", "fusion_lat": 0.0, "rental_uris": {"ios": "https://dc.lft.to/lastmile_qr_scan", "android": "https://dc.lft.to/lastmile_qr_scan"}, "lon": -77.0436215, "type": "electric_scooter"}, {"bike_id": "d8bbd50d05657a9cb5f7bfc2b2ece1ed", "is_reserved": 0, "fusion_lon": 0.0, "lat": 38.89702666666667, "is_disabled": 0, "name": "d8bbd50d05657a9cb5f7bfc2b2ece1ed", "fusion_lat": 0.0, "rental_uris": {"ios": "https://dc.lft.to/lastmile_qr_scan", "android": "https://dc.lft.to/lastmile_qr_scan"}, "lon": -76.91768116666667, "type": "electric_scooter"}, {"bike_id": "7bd0278048a50a524df16b5c465722fd", "is_reserved": 0, "fusion_lon": 0.0, "lat": 38.87110416666667, "is_disabled": 0, "name": "7bd0278048a50a524df16b5c465722fd", "fusion_lat": 0.0, "rental_uris": {"ios": "https://dc.lft.to/lastmile_qr_scan", "android": "https://dc.lft.to/lastmile_qr_scan"}, "lon": -77.007626, "type": "electric_scooter"}, {"bike_id": "584ec08452f191c4450e1f767359cffa", "is_reserved": 0, "fusion_lon": 0.0, "lat": 38.90277, "is_disabled": 0, "name": "584ec08452f191c4450e1f767359cffa", "fusion_lat": 0.0, "rental_uris": {"ios": "https://dc.lft.to/lastmile_qr_scan", "android": "https://dc.lft.to/lastmile_qr_scan"}, "lon": -77.03061533333333, "type": "electric_scooter"}, {"bike_id": "ac7024fe83fca3d65b7ada560623b577", "is_reserved": 0, "fusion_lon": 0.0, "lat": 38.90505783333333, "is_disabled": 0, "name": "ac7024fe83fca3d65b7ada560623b577", "fusion_lat": 0.0, "rental_uris": {"ios": "https://dc.lft.to/lastmile_qr_scan", "android": "https://dc.lft.to/lastmile_qr_scan"}, "lon": -77.043574, "type": "electric_scooter"}, {"bike_id": "b0633e05a233443c44887395d7f2639e", "is_reserved": 0, "fusion_lon": 0.0, "lat": 38.90447233333333, "is_disabled": 0, "name": "b0633e05a233443c44887395d7f2639e", "fusion_lat": 0.0, "rental_uris": {"ios": "https://dc.lft.to/lastmile_qr_scan", "android": "https://dc.lft.to/lastmile_qr_scan"}, "lon": -77.04368866666667, "type": "electric_scooter"}, {"bike_id": "81389698e87f856324e85ac59209f85d", "is_reserved": 0, "fusion_lon": 0.0, "lat": 38.92514833333333, "is_disabled": 0, "name": "81389698e87f856324e85ac59209f85d", "fusion_lat": 0.0, "rental_uris": {"ios": "https://dc.lft.to/lastmile_qr_scan", "android": "https://dc.lft.to/lastmile_qr_scan"}, "lon": -77.05129833333334, "type": "electric_scooter"}, {"bike_id": "ac403d8a3284fcc13086497e5328f001", "is_reserved": 0, "fusion_lon": 0.0, "lat": 38.88451533333333, "is_disabled": 0, "name": "ac403d8a3284fcc13086497e5328f001", "fusion_lat": 0.0, "rental_uris": {"ios": "https://dc.lft.to/lastmile_qr_scan", "android": "https://dc.lft.to/lastmile_qr_scan"}, "lon": -77.0237275, "type": "electric_scooter"}, {"bike_id": "4ee989870cf8980324f69423b843f41a", "is_reserved": 0, "fusion_lon": 0.0, "lat": 38.8955805, "is_disabled": 0, "name": "4ee989870cf8980324f69423b843f41a", "fusion_lat": 0.0, "rental_uris": {"ios": "https://dc.lft.to/lastmile_qr_scan", "android": "https://dc.lft.to/lastmile_qr_scan"}, "lon": -77.041629, "type": "electric_scooter"}, {"bike_id": "03fef9976f0650c75d6f7b9f993a393e", "is_reserved": 0, "fusion_lon": 0.0, "lat": 38.895511666666664, "is_disabled": 0, "name": "03fef9976f0650c75d6f7b9f993a393e", "fusion_lat": 0.0, "rental_uris": {"ios": "https://dc.lft.to/lastmile_qr_scan", "android": "https://dc.lft.to/lastmile_qr_scan"}, "lon": -76.93385983333333, "type": "electric_scooter"}, {"bike_id": "569115bee1f053987996a9e9961811ac", "is_reserved": 0, "fusion_lon": 0.0, "lat": 38.827264166666666, "is_disabled": 0, "name": "569115bee1f053987996a9e9961811ac", "fusion_lat": 0.0, "rental_uris": {"ios": "https://dc.lft.to/lastmile_qr_scan", "android": "https://dc.lft.to/lastmile_qr_scan"}, "lon": -77.00861016666667, "type": "electric_bike"}, {"bike_id": "256d2992e31f79f92b87845bc5af2614", "is_reserved": 0, "fusion_lon": 0.0, "lat": 38.88015633333333, "is_disabled": 0, "name": "256d2992e31f79f92b87845bc5af2614", "fusion_lat": 0.0, "rental_uris": {"ios": "https://dc.lft.to/lastmile_qr_scan", "android": "https://dc.lft.to/lastmile_qr_scan"}, "lon": -76.93131316666667, "type": "electric_scooter"}, {"bike_id": "ba7be3010fa11efc1d6a942c1576969f", "is_reserved": 0, "fusion_lon": 0.0, "lat": 38.89226516666667, "is_disabled": 0, "name": "ba7be3010fa11efc1d6a942c1576969f", "fusion_lat": 0.0, "rental_uris": {"ios": "https://dc.lft.to/lastmile_qr_scan", "android": "https://dc.lft.to/lastmile_qr_scan"}, "lon": -77.02205616666667, "type": "electric_scooter"}, {"bike_id": "526fbf73bf8b056187368af32b015030", "is_reserved": 0, "fusion_lon": 0.0, "lat": 38.911336, "is_disabled": 0, "name": "526fbf73bf8b056187368af32b015030", "fusion_lat": 0.0, "rental_uris": {"ios": "https://dc.lft.to/lastmile_qr_scan", "android": "https://dc.lft.to/lastmile_qr_scan"}, "lon": -77.01989933333333, "type": "electric_scooter"}, {"bike_id": "02af3be0eae114e198ce5cdfb2c030b6", "is_reserved": 0, "fusion_lon": 0.0, "lat": 38.865137, "is_disabled": 0, "name": "02af3be0eae114e198ce5cdfb2c030b6", "fusion_lat": 0.0, "rental_uris": {"ios": "https://dc.lft.to/lastmile_qr_scan", "android": "https://dc.lft.to/lastmile_qr_scan"}, "lon": -76.99043266666666, "type": "electric_scooter"}, {"bike_id": "367758a850660ed11904c7d63af63b98", "is_reserved": 0, "fusion_lon": 0.0, "lat": 38.916065333333336, "is_disabled": 0, "name": "367758a850660ed11904c7d63af63b98", "fusion_lat": 0.0, "rental_uris": {"ios": "https://dc.lft.to/lastmile_qr_scan", "android": "https://dc.lft.to/lastmile_qr_scan"}, "lon": -77.04569766666667, "type": "electric_scooter"}, {"bike_id": "d7871fbc8bbcdde425704b5d4e69f5d5", "is_reserved": 0, "fusion_lon": 0.0, "lat": 38.8972385, "is_disabled": 0, "name": "d7871fbc8bbcdde425704b5d4e69f5d5", "fusion_lat": 0.0, "rental_uris": {"ios": "https://dc.lft.to/lastmile_qr_scan", "android": "https://dc.lft.to/lastmile_qr_scan"}, "lon": -77.04621333333333, "type": "electric_scooter"}, {"bike_id": "35cc675ff452dc571ebe477bfce5119d", "is_reserved": 0, "fusion_lon": 0.0, "lat": 38.8927435, "is_disabled": 0, "name": "35cc675ff452dc571ebe477bfce5119d", "fusion_lat": 0.0, "rental_uris": {"ios": "https://dc.lft.to/lastmile_qr_scan", "android": "https://dc.lft.to/lastmile_qr_scan"}, "lon": -77.02602366666666, "type": "electric_scooter"}, {"bike_id": "0e3a0e1d4fab1c88385e9e6467f07ecd", "is_reserved": 0, "fusion_lon": 0.0, "lat": 38.94082683333333, "is_disabled": 0, "name": "0e3a0e1d4fab1c88385e9e6467f07ecd", "fusion_lat": 0.0, "rental_uris": {"ios": "https://dc.lft.to/lastmile_qr_scan", "android": "https://dc.lft.to/lastmile_qr_scan"}, "lon": -77.06184683333333, "type": "electric_scooter"}, {"bike_id": "756bfedb4863caf3228922ed1d794c72", "is_reserved": 0, "fusion_lon": 0.0, "lat": 38.90473633333333, "is_disabled": 0, "name": "756bfedb4863caf3228922ed1d794c72", "fusion_lat": 0.0, "rental_uris": {"ios": "https://dc.lft.to/lastmile_qr_scan", "android": "https://dc.lft.to/lastmile_qr_scan"}, "lon": -77.04658483333333, "type": "electric_scooter"}, {"bike_id": "670b933118454cbd0792d329623169dd", "is_reserved": 0, "fusion_lon": 0.0, "lat": 38.89222316666667, "is_disabled": 0, "name": "670b933118454cbd0792d329623169dd", "fusion_lat": 0.0, "rental_uris": {"ios": "https://dc.lft.to/lastmile_qr_scan", "android": "https://dc.lft.to/lastmile_qr_scan"}, "lon": -77.048656, "type": "electric_scooter"}, {"bike_id": "ade1f9fb9f0d069d3147dfec4ba6c1b5", "is_reserved": 0, "fusion_lon": 0.0, "lat": 38.851768166666666, "is_disabled": 0, "name": "ade1f9fb9f0d069d3147dfec4ba6c1b5", "fusion_lat": 0.0, "rental_uris": {"ios": "https://dc.lft.to/lastmile_qr_scan", "android": "https://dc.lft.to/lastmile_qr_scan"}, "lon": -76.99577866666667, "type": "electric_scooter"}, {"bike_id": "4c15a1c95bd578fcb969403f0c99b177", "is_reserved": 0, "fusion_lon": 0.0, "lat": 38.90532416666667, "is_disabled": 0, "name": "4c15a1c95bd578fcb969403f0c99b177", "fusion_lat": 0.0, "rental_uris": {"ios": "https://dc.lft.to/lastmile_qr_scan", "android": "https://dc.lft.to/lastmile_qr_scan"}, "lon": -77.04995516666666, "type": "electric_scooter"}, {"bike_id": "33e5391aa4d0c10e99a06a0e736a439c", "is_reserved": 0, "fusion_lon": 0.0, "lat": 38.89908033333333, "is_disabled": 0, "name": "33e5391aa4d0c10e99a06a0e736a439c", "fusion_lat": 0.0, "rental_uris": {"ios": "https://dc.lft.to/lastmile_qr_scan", "android": "https://dc.lft.to/lastmile_qr_scan"}, "lon": -76.93352083333333, "type": "electric_scooter"}, {"bike_id": "eb61b319d71f80a323a6582a732b0492", "is_reserved": 0, "fusion_lon": 0.0, "lat": 38.94012933333333, "is_disabled": 0, "name": "eb61b319d71f80a323a6582a732b0492", "fusion_lat": 0.0, "rental_uris": {"ios": "https://dc.lft.to/lastmile_qr_scan", "android": "https://dc.lft.to/lastmile_qr_scan"}, "lon": -77.071658, "type": "electric_scooter"}, {"bike_id": "72ab2abf4ed02bc3fc8b14112acdb344", "is_reserved": 0, "fusion_lon": 0.0, "lat": 38.874982833333334, "is_disabled": 0, "name": "72ab2abf4ed02bc3fc8b14112acdb344", "fusion_lat": 0.0, "rental_uris": {"ios": "https://dc.lft.to/lastmile_qr_scan", "android": "https://dc.lft.to/lastmile_qr_scan"}, "lon": -76.997996, "type": "electric_scooter"}, {"bike_id": "6438221ad2dea9b762a81be4e3a6e98a", "is_reserved": 0, "fusion_lon": 0.0, "lat": 38.85810333333333, "is_disabled": 0, "name": "6438221ad2dea9b762a81be4e3a6e98a", "fusion_lat": 0.0, "rental_uris": {"ios": "https://dc.lft.to/lastmile_qr_scan", "android": "https://dc.lft.to/lastmile_qr_scan"}, "lon": -76.989943, "type": "electric_scooter"}, {"bike_id": "1654abb661fa5bccd3268735e99fffcc", "is_reserved": 0, "fusion_lon": 0.0, "lat": 38.8919755, "is_disabled": 0, "name": "1654abb661fa5bccd3268735e99fffcc", "fusion_lat": 0.0, "rental_uris": {"ios": "https://dc.lft.to/lastmile_qr_scan", "android": "https://dc.lft.to/lastmile_qr_scan"}, "lon": -77.0238055, "type": "electric_scooter"}, {"bike_id": "3fe5f7979375b52f3f8ab7ca09dd4a57", "is_reserved": 0, "fusion_lon": 0.0, "lat": 38.90382183333333, "is_disabled": 0, "name": "3fe5f7979375b52f3f8ab7ca09dd4a57", "fusion_lat": 0.0, "rental_uris": {"ios": "https://dc.lft.to/lastmile_qr_scan", "android": "https://dc.lft.to/lastmile_qr_scan"}, "lon": -77.04505116666667, "type": "electric_scooter"}, {"bike_id": "2ee1fb0d1352a98d25367ae2d094053c", "is_reserved": 0, "fusion_lon": 0.0, "lat": 38.892217, "is_disabled": 0, "name": "2ee1fb0d1352a98d25367ae2d094053c", "fusion_lat": 0.0, "rental_uris": {"ios": "https://dc.lft.to/lastmile_qr_scan", "android": "https://dc.lft.to/lastmile_qr_scan"}, "lon": -77.032147, "type": "electric_scooter"}, {"bike_id": "05f37db4c6aba3ba7022000a960702d9", "is_reserved": 0, "fusion_lon": 0.0, "lat": 38.9038405, "is_disabled": 0, "name": "05f37db4c6aba3ba7022000a960702d9", "fusion_lat": 0.0, "rental_uris": {"ios": "https://dc.lft.to/lastmile_qr_scan", "android": "https://dc.lft.to/lastmile_qr_scan"}, "lon": -77.04199733333333, "type": "electric_scooter"}, {"bike_id": "640c006438f93e39bb2878460bdb2c38", "is_reserved": 0, "fusion_lon": 0.0, "lat": 38.9056105, "is_disabled": 0, "name": "640c006438f93e39bb2878460bdb2c38", "fusion_lat": 0.0, "rental_uris": {"ios": "https://dc.lft.to/lastmile_qr_scan", "android": "https://dc.lft.to/lastmile_qr_scan"}, "lon": -77.00286266666667, "type": "electric_scooter"}, {"bike_id": "1fed8881e4217907264068db424becf6", "is_reserved": 0, "fusion_lon": 0.0, "lat": 38.910263, "is_disabled": 0, "name": "1fed8881e4217907264068db424becf6", "fusion_lat": 0.0, "rental_uris": {"ios": "https://dc.lft.to/lastmile_qr_scan", "android": "https://dc.lft.to/lastmile_qr_scan"}, "lon": -77.04252, "type": "electric_scooter"}, {"bike_id": "7c717b711d4a095f3379bdf9e75db69e", "is_reserved": 0, "fusion_lon": 0.0, "lat": 38.82873133333333, "is_disabled": 0, "name": "7c717b711d4a095f3379bdf9e75db69e", "fusion_lat": 0.0, "rental_uris": {"ios": "https://dc.lft.to/lastmile_qr_scan", "android": "https://dc.lft.to/lastmile_qr_scan"}, "lon": -77.11220783333333, "type": "electric_bike"}, {"bike_id": "058d16ff1c38efebe34ea2970e0a8576", "is_reserved": 0, "fusion_lon": 0.0, "lat": 38.90561683333333, "is_disabled": 0, "name": "058d16ff1c38efebe34ea2970e0a8576", "fusion_lat": 0.0, "rental_uris": {"ios": "https://dc.lft.to/lastmile_qr_scan", "android": "https://dc.lft.to/lastmile_qr_scan"}, "lon": -77.03973433333333, "type": "electric_scooter"}, {"bike_id": "664d6a90e6b1fd969e3d9c7dcd35ac2a", "is_reserved": 0, "fusion_lon": 0.0, "lat": 38.900879, "is_disabled": 0, "name": "664d6a90e6b1fd969e3d9c7dcd35ac2a", "fusion_lat": 0.0, "rental_uris": {"ios": "https://dc.lft.to/lastmile_qr_scan", "android": "https://dc.lft.to/lastmile_qr_scan"}, "lon": -77.04896616666667, "type": "electric_scooter"}, {"bike_id": "50a685a11fe55de7a15aedd70b14e9d4", "is_reserved": 0, "fusion_lon": 0.0, "lat": 38.93605383333333, "is_disabled": 0, "name": "50a685a11fe55de7a15aedd70b14e9d4", "fusion_lat": 0.0, "rental_uris": {"ios": "https://dc.lft.to/lastmile_qr_scan", "android": "https://dc.lft.to/lastmile_qr_scan"}, "lon": -77.058588, "type": "electric_scooter"}, {"bike_id": "e17b1c6fe9bd8eadb8e5744467d9755b", "is_reserved": 0, "fusion_lon": 0.0, "lat": 38.8841135, "is_disabled": 0, "name": "e17b1c6fe9bd8eadb8e5744467d9755b", "fusion_lat": 0.0, "rental_uris": {"ios": "https://dc.lft.to/lastmile_qr_scan", "android": "https://dc.lft.to/lastmile_qr_scan"}, "lon": -77.01531666666666, "type": "electric_scooter"}, {"bike_id": "cb6e1b44d7481dd0dffd1f1c4205d954", "is_reserved": 0, "fusion_lon": 0.0, "lat": 38.8922535, "is_disabled": 0, "name": "cb6e1b44d7481dd0dffd1f1c4205d954", "fusion_lat": 0.0, "rental_uris": {"ios": "https://dc.lft.to/lastmile_qr_scan", "android": "https://dc.lft.to/lastmile_qr_scan"}, "lon": -77.02622283333334, "type": "electric_scooter"}, {"bike_id": "804e6aba2edee994d39ba1ee0c53ab90", "is_reserved": 0, "fusion_lon": 0.0, "lat": 38.9024675, "is_disabled": 0, "name": "804e6aba2edee994d39ba1ee0c53ab90", "fusion_lat": 0.0, "rental_uris": {"ios": "https://dc.lft.to/lastmile_qr_scan", "android": "https://dc.lft.to/lastmile_qr_scan"}, "lon": -77.02644483333333, "type": "electric_scooter"}, {"bike_id": "21a65a7c2dde173a5a5cd7b8cdc0d2f7", "is_reserved": 0, "fusion_lon": 0.0, "lat": 38.91760516666667, "is_disabled": 0, "name": "21a65a7c2dde173a5a5cd7b8cdc0d2f7", "fusion_lat": 0.0, "rental_uris": {"ios": "https://dc.lft.to/lastmile_qr_scan", "android": "https://dc.lft.to/lastmile_qr_scan"}, "lon": -77.0220045, "type": "electric_scooter"}, {"bike_id": "da5037dc3fa91e579b68a6350c376010", "is_reserved": 0, "fusion_lon": 0.0, "lat": 38.907249666666665, "is_disabled": 0, "name": "da5037dc3fa91e579b68a6350c376010", "fusion_lat": 0.0, "rental_uris": {"ios": "https://dc.lft.to/lastmile_qr_scan", "android": "https://dc.lft.to/lastmile_qr_scan"}, "lon": -77.00343133333334, "type": "electric_scooter"}, {"bike_id": "213e7e310d9197658a4f93905d19ed87", "is_reserved": 0, "fusion_lon": 0.0, "lat": 38.9907245, "is_disabled": 0, "name": "213e7e310d9197658a4f93905d19ed87", "fusion_lat": 0.0, "rental_uris": {"ios": "https://dc.lft.to/lastmile_qr_scan", "android": "https://dc.lft.to/lastmile_qr_scan"}, "lon": -76.874703, "type": "electric_bike"}, {"bike_id": "dd2a4e2977b4cc38b797db442bf76a10", "is_reserved": 0, "fusion_lon": 0.0, "lat": 38.900326666666665, "is_disabled": 0, "name": "dd2a4e2977b4cc38b797db442bf76a10", "fusion_lat": 0.0, "rental_uris": {"ios": "https://dc.lft.to/lastmile_qr_scan", "android": "https://dc.lft.to/lastmile_qr_scan"}, "lon": -76.99845366666666, "type": "electric_scooter"}, {"bike_id": "81ab914d75034dff4e15c22d89130dce", "is_reserved": 0, "fusion_lon": 0.0, "lat": 38.883725166666665, "is_disabled": 0, "name": "81ab914d75034dff4e15c22d89130dce", "fusion_lat": 0.0, "rental_uris": {"ios": "https://dc.lft.to/lastmile_qr_scan", "android": "https://dc.lft.to/lastmile_qr_scan"}, "lon": -76.99516716666666, "type": "electric_scooter"}, {"bike_id": "3d32f0a9d3412babc5e00e6319c8251f", "is_reserved": 0, "fusion_lon": 0.0, "lat": 38.9183355, "is_disabled": 0, "name": "3d32f0a9d3412babc5e00e6319c8251f", "fusion_lat": 0.0, "rental_uris": {"ios": "https://dc.lft.to/lastmile_qr_scan", "android": "https://dc.lft.to/lastmile_qr_scan"}, "lon": -77.03219283333334, "type": "electric_scooter"}, {"bike_id": "f6745b2d5f8dd963106c8c20ddcd3f47", "is_reserved": 0, "fusion_lon": 0.0, "lat": 38.8983225, "is_disabled": 0, "name": "f6745b2d5f8dd963106c8c20ddcd3f47", "fusion_lat": 0.0, "rental_uris": {"ios": "https://dc.lft.to/lastmile_qr_scan", "android": "https://dc.lft.to/lastmile_qr_scan"}, "lon": -77.03262033333333, "type": "electric_scooter"}, {"bike_id": "3d3dd4354faf3c98740f989f6c3b0a2b", "is_reserved": 0, "fusion_lon": 0.0, "lat": 38.91028166666667, "is_disabled": 0, "name": "3d3dd4354faf3c98740f989f6c3b0a2b", "fusion_lat": 0.0, "rental_uris": {"ios": "https://dc.lft.to/lastmile_qr_scan", "android": "https://dc.lft.to/lastmile_qr_scan"}, "lon": -77.03853616666666, "type": "electric_scooter"}, {"bike_id": "3773800395f4a991a5607b102953d676", "is_reserved": 0, "fusion_lon": 0.0, "lat": 38.95646416666666, "is_disabled": 0, "name": "3773800395f4a991a5607b102953d676", "fusion_lat": 0.0, "rental_uris": {"ios": "https://dc.lft.to/lastmile_qr_scan", "android": "https://dc.lft.to/lastmile_qr_scan"}, "lon": -77.022635, "type": "electric_scooter"}, {"bike_id": "9728b579cd50817c4c5627b0b9de9050", "is_reserved": 0, "fusion_lon": 0.0, "lat": 38.925502333333334, "is_disabled": 0, "name": "9728b579cd50817c4c5627b0b9de9050", "fusion_lat": 0.0, "rental_uris": {"ios": "https://dc.lft.to/lastmile_qr_scan", "android": "https://dc.lft.to/lastmile_qr_scan"}, "lon": -77.07327483333333, "type": "electric_bike"}, {"bike_id": "2e8162283f48538d54db7dcf36dfc368", "is_reserved": 0, "fusion_lon": 0.0, "lat": 38.85288383333334, "is_disabled": 0, "name": "2e8162283f48538d54db7dcf36dfc368", "fusion_lat": 0.0, "rental_uris": {"ios": "https://dc.lft.to/lastmile_qr_scan", "android": "https://dc.lft.to/lastmile_qr_scan"}, "lon": -77.05275916666666, "type": "electric_bike"}, {"bike_id": "e7aa586d18b5e0288329b9ec2226f889", "is_reserved": 0, "fusion_lon": 0.0, "lat": 38.92477616666667, "is_disabled": 0, "name": "e7aa586d18b5e0288329b9ec2226f889", "fusion_lat": 0.0, "rental_uris": {"ios": "https://dc.lft.to/lastmile_qr_scan", "android": "https://dc.lft.to/lastmile_qr_scan"}, "lon": -77.052135, "type": "electric_scooter"}, {"bike_id": "b98140c1dbd6bf6325c797ea5f2098b8", "is_reserved": 0, "fusion_lon": 0.0, "lat": 38.85680083333333, "is_disabled": 0, "name": "b98140c1dbd6bf6325c797ea5f2098b8", "fusion_lat": 0.0, "rental_uris": {"ios": "https://dc.lft.to/lastmile_qr_scan", "android": "https://dc.lft.to/lastmile_qr_scan"}, "lon": -77.08570683333333, "type": "electric_bike"}, {"bike_id": "b0342e6cbc1b4107e9eab62767ee7095", "is_reserved": 0, "fusion_lon": 0.0, "lat": 38.865206, "is_disabled": 0, "name": "b0342e6cbc1b4107e9eab62767ee7095", "fusion_lat": 0.0, "rental_uris": {"ios": "https://dc.lft.to/lastmile_qr_scan", "android": "https://dc.lft.to/lastmile_qr_scan"}, "lon": -76.99035833333333, "type": "electric_scooter"}, {"bike_id": "14ae24e31cb18ddf1fa921c312c24ab9", "is_reserved": 0, "fusion_lon": 0.0, "lat": 38.924746, "is_disabled": 0, "name": "14ae24e31cb18ddf1fa921c312c24ab9", "fusion_lat": 0.0, "rental_uris": {"ios": "https://dc.lft.to/lastmile_qr_scan", "android": "https://dc.lft.to/lastmile_qr_scan"}, "lon": -77.02271066666667, "type": "electric_scooter"}, {"bike_id": "492727b641aa2220bc1b55e4af569fc9", "is_reserved": 0, "fusion_lon": 0.0, "lat": 38.86374083333333, "is_disabled": 0, "name": "492727b641aa2220bc1b55e4af569fc9", "fusion_lat": 0.0, "rental_uris": {"ios": "https://dc.lft.to/lastmile_qr_scan", "android": "https://dc.lft.to/lastmile_qr_scan"}, "lon": -76.9905615, "type": "electric_scooter"}, {"bike_id": "5d3bb4cea5f57f5d37370402a51ac707", "is_reserved": 0, "fusion_lon": 0.0, "lat": 38.871126833333335, "is_disabled": 0, "name": "5d3bb4cea5f57f5d37370402a51ac707", "fusion_lat": 0.0, "rental_uris": {"ios": "https://dc.lft.to/lastmile_qr_scan", "android": "https://dc.lft.to/lastmile_qr_scan"}, "lon": -76.977468, "type": "electric_scooter"}, {"bike_id": "235fc16329e7c7db074b0ec58567f957", "is_reserved": 0, "fusion_lon": 0.0, "lat": 38.90536483333333, "is_disabled": 0, "name": "235fc16329e7c7db074b0ec58567f957", "fusion_lat": 0.0, "rental_uris": {"ios": "https://dc.lft.to/lastmile_qr_scan", "android": "https://dc.lft.to/lastmile_qr_scan"}, "lon": -77.04724983333334, "type": "electric_scooter"}, {"bike_id": "9219fc42febe00bcf3ab7598159f7c32", "is_reserved": 0, "fusion_lon": 0.0, "lat": 38.917413333333336, "is_disabled": 0, "name": "9219fc42febe00bcf3ab7598159f7c32", "fusion_lat": 0.0, "rental_uris": {"ios": "https://dc.lft.to/lastmile_qr_scan", "android": "https://dc.lft.to/lastmile_qr_scan"}, "lon": -77.00751116666666, "type": "electric_scooter"}, {"bike_id": "000476cc71c0b30dc571a11c5c431aea", "is_reserved": 0, "fusion_lon": 0.0, "lat": 38.9005135, "is_disabled": 0, "name": "000476cc71c0b30dc571a11c5c431aea", "fusion_lat": 0.0, "rental_uris": {"ios": "https://dc.lft.to/lastmile_qr_scan", "android": "https://dc.lft.to/lastmile_qr_scan"}, "lon": -77.00211016666667, "type": "electric_scooter"}, {"bike_id": "361f550519ef536746f4b3980a844aab", "is_reserved": 0, "fusion_lon": 0.0, "lat": 38.97425966666667, "is_disabled": 0, "name": "361f550519ef536746f4b3980a844aab", "fusion_lat": 0.0, "rental_uris": {"ios": "https://dc.lft.to/lastmile_qr_scan", "android": "https://dc.lft.to/lastmile_qr_scan"}, "lon": -77.0152255, "type": "electric_scooter"}, {"bike_id": "2890004833a7c9da4be537957b392712", "is_reserved": 0, "fusion_lon": 0.0, "lat": 38.903336833333334, "is_disabled": 0, "name": "2890004833a7c9da4be537957b392712", "fusion_lat": 0.0, "rental_uris": {"ios": "https://dc.lft.to/lastmile_qr_scan", "android": "https://dc.lft.to/lastmile_qr_scan"}, "lon": -77.0385265, "type": "electric_scooter"}, {"bike_id": "ec600a58283c348f5c7c66fc99bfc886", "is_reserved": 0, "fusion_lon": 0.0, "lat": 38.86709116666667, "is_disabled": 0, "name": "ec600a58283c348f5c7c66fc99bfc886", "fusion_lat": 0.0, "rental_uris": {"ios": "https://dc.lft.to/lastmile_qr_scan", "android": "https://dc.lft.to/lastmile_qr_scan"}, "lon": -76.98721033333334, "type": "electric_scooter"}, {"bike_id": "5e1a3d204890781cdf1ad30d816ed22a", "is_reserved": 0, "fusion_lon": 0.0, "lat": 38.92364116666667, "is_disabled": 0, "name": "5e1a3d204890781cdf1ad30d816ed22a", "fusion_lat": 0.0, "rental_uris": {"ios": "https://dc.lft.to/lastmile_qr_scan", "android": "https://dc.lft.to/lastmile_qr_scan"}, "lon": -77.019527, "type": "electric_scooter"}, {"bike_id": "611f0369469a067f10eceb0067b97fce", "is_reserved": 0, "fusion_lon": 0.0, "lat": 38.90643883333333, "is_disabled": 0, "name": "611f0369469a067f10eceb0067b97fce", "fusion_lat": 0.0, "rental_uris": {"ios": "https://dc.lft.to/lastmile_qr_scan", "android": "https://dc.lft.to/lastmile_qr_scan"}, "lon": -76.99378916666667, "type": "electric_scooter"}, {"bike_id": "08fd7708ba61869de4202ddf3ec94ab5", "is_reserved": 0, "fusion_lon": 0.0, "lat": 38.8996055, "is_disabled": 0, "name": "08fd7708ba61869de4202ddf3ec94ab5", "fusion_lat": 0.0, "rental_uris": {"ios": "https://dc.lft.to/lastmile_qr_scan", "android": "https://dc.lft.to/lastmile_qr_scan"}, "lon": -77.04721966666666, "type": "electric_scooter"}, {"bike_id": "608b0932f19547490b9562245c477d5b", "is_reserved": 0, "fusion_lon": 0.0, "lat": 38.896811166666666, "is_disabled": 0, "name": "608b0932f19547490b9562245c477d5b", "fusion_lat": 0.0, "rental_uris": {"ios": "https://dc.lft.to/lastmile_qr_scan", "android": "https://dc.lft.to/lastmile_qr_scan"}, "lon": -76.99621016666667, "type": "electric_scooter"}, {"bike_id": "13d2609c113857a7a0a673f0d6ee1934", "is_reserved": 0, "fusion_lon": 0.0, "lat": 38.90710416666667, "is_disabled": 0, "name": "13d2609c113857a7a0a673f0d6ee1934", "fusion_lat": 0.0, "rental_uris": {"ios": "https://dc.lft.to/lastmile_qr_scan", "android": "https://dc.lft.to/lastmile_qr_scan"}, "lon": -77.00106266666667, "type": "electric_scooter"},