{"data": {"bikes": [{"lat": 38.917064833333335, "fusion_lat": 0.0, "type": "electric_scooter", "bike_id": "8cfc122cda20f29cf7019559285a4c19", "rental_uris": {"ios": "https://dc.lft.to/lastmile_qr_scan", "android": "https://dc.lft.to/lastmile_qr_scan"}, "fusion_lon": 0.0, "lon": -77.03317683333333, "name": "8cfc122cda20f29cf7019559285a4c19", "is_reserved": 0, "is_disabled": 0}, {"lat": 38.922276333333336, "fusion_lat": 0.0, "type": "electric_scooter", "bike_id": "8a9437360072186fa349e180428303df", "rental_uris": {"ios": "https://dc.lft.to/lastmile_qr_scan", "android": "https://dc.lft.to/lastmile_qr_scan"}, "fusion_lon": 0.0, "lon": -77.01829766666667, "name": "8a9437360072186fa349e180428303df", "is_reserved": 0, "is_disabled": 0}, {"lat": 38.92297033333333, "fusion_lat": 0.0, "type": "electric_scooter", "bike_id": "8e159a0a82ce6357d363a6587891134b", "rental_uris": {"ios": "https://dc.lft.to/lastmile_qr_scan", "android": "https://dc.lft.to/lastmile_qr_scan"}, "fusion_lon": 0.0, "lon": -77.02325516666667, "name": "8e159a0a82ce6357d363a6587891134b", "is_reserved": 0, "is_disabled": 0}, {"lat": 38.89223233333333, "fusion_lat": 0.0, "type": "electric_scooter", "bike_id": "64cb767756af2c94607d2a59473ba37a", "rental_uris": {"ios": "https://dc.lft.to/lastmile_qr_scan", "android": "https://dc.lft.to/lastmile_qr_scan"}, "fusion_lon": 0.0, "lon": -77.02355566666667, "name": "64cb767756af2c94607d2a59473ba37a", "is_reserved": 0, "is_disabled": 0}, {"lat": 38.94291466666667, "fusion_lat": 0.0, "type": "electric_scooter", "bike_id": "43aaa2bc0d09f794f14f70a1f43785f4", "rental_uris": {"ios": "https://dc.lft.to/lastmile_qr_scan", "android": "https://dc.lft.to/lastmile_qr_scan"}, "fusion_lon": 0.0, "lon": -77.021649, "name": "43aaa2bc0d09f794f14f70a1f43785f4", "is_reserved": 0, "is_disabled": 0}, {"lat": 38.87959083333333, "fusion_lat": 0.0, "type": "electric_scooter", "bike_id": "8fdfa5133f28d5da53e879ab0753e6eb", "rental_uris": {"ios": "https://dc.lft.to/lastmile_qr_scan", "android": "https://dc.lft.to/lastmile_qr_scan"}, "fusion_lon": 0.0, "lon": -76.994935, "name": "8fdfa5133f28d5da53e879ab0753e6eb", "is_reserved": 0, "is_disabled": 0}, {"lat": 38.903349, "fusion_lat": 0.0, "type": "electric_scooter", "bike_id": "088a70c7e1b1259fbc73e875cb5a404e", "rental_uris": {"ios": "https://dc.lft.to/lastmile_qr_scan", "android": "https://dc.lft.to/lastmile_qr_scan"}, "fusion_lon": 0.0, "lon": -77.01881033333333, "name": "088a70c7e1b1259fbc73e875cb5a404e", "is_reserved": 0, "is_disabled": 0}, {"lat": 38.902705, "fusion_lat": 0.0, "type": "electric_scooter", "bike_id": "882fb469952aac3b1f27fa55f27687c4", "rental_uris": {"ios": "https://dc.lft.to/lastmile_qr_scan", "android": "https://dc.lft.to/lastmile_qr_scan"}, "fusion_lon": 0.0, "lon": -77.062804, "name": "882fb469952aac3b1f27fa55f27687c4", "is_reserved": 0, "is_disabled": 0}, {"lat": 38.912473, "fusion_lat": 0.0, "type": "electric_scooter", "bike_id": "c9af94354e7c9a7d6a2905a8310f148d", "rental_uris": {"ios": "https://dc.lft.to/lastmile_qr_scan", "android": "https://dc.lft.to/lastmile_qr_scan"}, "fusion_lon": 0.0, "lon": -77.03282283333333, "name": "c9af94354e7c9a7d6a2905a8310f148d", "is_reserved": 0, "is_disabled": 0}, {"lat": 38.899181666666664, "fusion_lat": 0.0, "type": "electric_scooter", "bike_id": "8b7fd753b46918c060f62a047b5ce37a", "rental_uris": {"ios": "https://dc.lft.to/lastmile_qr_scan", "android": "https://dc.lft.to/lastmile_qr_scan"}, "fusion_lon": 0.0, "lon": -77.0295225, "name": "8b7fd753b46918c060f62a047b5ce37a", "is_reserved": 0, "is_disabled": 0}, {"lat": 38.918595333333336, "fusion_lat": 0.0, "type": "electric_scooter", "bike_id": "e81f478865f346b31ff32f8ab39605f0", "rental_uris": {"ios": "https://dc.lft.to/lastmile_qr_scan", "android": "https://dc.lft.to/lastmile_qr_scan"}, "fusion_lon": 0.0, "lon": -77.032103, "name": "e81f478865f346b31ff32f8ab39605f0", "is_reserved": 0, "is_disabled": 0}, {"lat": 38.90469083333333, "fusion_lat": 0.0, "type": "electric_scooter", "bike_id": "2c3b5a464c0931782f5abcf4edf3c85f", "rental_uris": {"ios": "https://dc.lft.to/lastmile_qr_scan", "android": "https://dc.lft.to/lastmile_qr_scan"}, "fusion_lon": 0.0, "lon": -76.995003, "name": "2c3b5a464c0931782f5abcf4edf3c85f", "is_reserved": 0, "is_disabled": 0}, {"lat": 38.931832166666666, "fusion_lat": 0.0, "type": "electric_scooter", "bike_id": "e702809d5b068a285c34c16a45a3e4e7", "rental_uris": {"ios": "https://dc.lft.to/lastmile_qr_scan", "android": "https://dc.lft.to/lastmile_qr_scan"}, "fusion_lon": 0.0, "lon": -77.04287733333334, "name": "e702809d5b068a285c34c16a45a3e4e7", "is_reserved": 0, "is_disabled": 0}, {"lat": 38.9006085, "fusion_lat": 0.0, "type": "electric_scooter", "bike_id": "ac4b41a278bce74e26dd08aac62d3bd9", "rental_uris": {"ios": "https://dc.lft.to/lastmile_qr_scan", "android": "https://dc.lft.to/lastmile_qr_scan"}, "fusion_lon": 0.0, "lon": -77.0542895, "name": "ac4b41a278bce74e26dd08aac62d3bd9", "is_reserved": 0, "is_disabled": 0}, {"lat": 38.91498816666667, "fusion_lat": 0.0, "type": "electric_scooter", "bike_id": "d2c2dcb36a99649fe170df264a26a8d4", "rental_uris": {"ios": "https://dc.lft.to/lastmile_qr_scan", "android": "https://dc.lft.to/lastmile_qr_scan"}, "fusion_lon": 0.0, "lon": -77.01856383333333, "name": "d2c2dcb36a99649fe170df264a26a8d4", "is_reserved": 0, "is_disabled": 0}, {"lat": 38.90544933333334, "fusion_lat": 0.0, "type": "electric_scooter", "bike_id": "69e32b5df8ca22999c949aea89acf326", "rental_uris": {"ios": "https://dc.lft.to/lastmile_qr_scan", "android": "https://dc.lft.to/lastmile_qr_scan"}, "fusion_lon": 0.0, "lon": -76.994835, "name": "69e32b5df8ca22999c949aea89acf326", "is_reserved": 0, "is_disabled": 0}, {"lat": 38.91476133333333, "fusion_lat": 0.0, "type": "electric_scooter", "bike_id": "8f97d98a0858a1a5683978c0dfd9e02e", "rental_uris": {"ios": "https://dc.lft.to/lastmile_qr_scan", "android": "https://dc.lft.to/lastmile_qr_scan"}, "fusion_lon": 0.0, "lon": -77.0245135, "name": "8f97d98a0858a1a5683978c0dfd9e02e", "is_reserved": 0, "is_disabled": 0}, {"lat": 38.920267, "fusion_lat": 0.0, "type": "electric_scooter", "bike_id": "6c3e5604ae4b8c9925d8fd96efa1372f", "rental_uris": {"ios": "https://dc.lft.to/lastmile_qr_scan", "android": "https://dc.lft.to/lastmile_qr_scan"}, "fusion_lon": 0.0, "lon": -77.03852583333334, "name": "6c3e5604ae4b8c9925d8fd96efa1372f", "is_reserved": 0, "is_disabled": 0}, {"lat": 38.92423933333333, "fusion_lat": 0.0, "type": "electric_scooter", "bike_id": "93e98b1eca824c8d1119e2d7e4746c95", "rental_uris": {"ios": "https://dc.lft.to/lastmile_qr_scan", "android": "https://dc.lft.to/lastmile_qr_scan"}, "fusion_lon": 0.0, "lon": -77.02019133333333, "name": "93e98b1eca824c8d1119e2d7e4746c95", "is_reserved": 0, "is_disabled": 0}, {"lat": 38.8838685, "fusion_lat": 0.0, "type": "electric_scooter", "bike_id": "4d9f346d52f0a4dbf8b7545a557751b3", "rental_uris": {"ios": "https://dc.lft.to/lastmile_qr_scan", "android": "https://dc.lft.to/lastmile_qr_scan"}, "fusion_lon": 0.0, "lon": -76.99551383333333, "name": "4d9f346d52f0a4dbf8b7545a557751b3", "is_reserved": 0, "is_disabled": 0}, {"lat": 38.92091416666667, "fusion_lat": 0.0, "type": "electric_scooter", "bike_id": "ce51da066e441c5ddcf4dba0fd65ff1f", "rental_uris": {"ios": "https://dc.lft.to/lastmile_qr_scan", "android": "https://dc.lft.to/lastmile_qr_scan"}, "fusion_lon": 0.0, "lon": -77.07553733333333, "name": "ce51da066e441c5ddcf4dba0fd65ff1f", "is_reserved": 0, "is_disabled": 0}, {"lat": 38.89219683333334, "fusion_lat": 0.0, "type": "electric_scooter", "bike_id": "8a47d47d25cc818e28b104876d23c2d0", "rental_uris": {"ios": "https://dc.lft.to/lastmile_qr_scan", "android": "https://dc.lft.to/lastmile_qr_scan"}, "fusion_lon": 0.0, "lon": -77.02656666666667, "name": "8a47d47d25cc818e28b104876d23c2d0", "is_reserved": 0, "is_disabled": 0}, {"lat": 38.902286833333335, "fusion_lat": 0.0, "type": "electric_scooter", "bike_id": "b12e26e2d35d0b61d2d5d5c9279174d6", "rental_uris": {"ios": "https://dc.lft.to/lastmile_qr_scan", "android": "https://dc.lft.to/lastmile_qr_scan"}, "fusion_lon": 0.0, "lon": -76.94197083333333, "name": "b12e26e2d35d0b61d2d5d5c9279174d6", "is_reserved": 0, "is_disabled": 0}, {"lat": 38.92496416666667, "fusion_lat": 0.0, "type": "electric_scooter", "bike_id": "2a486ee5cfc58e3b96bcccb7615636ea", "rental_uris": {"ios": "https://dc.lft.to/lastmile_qr_scan", "android": "https://dc.lft.to/lastmile_qr_scan"}, "fusion_lon": 0.0, "lon": -77.02448083333333, "name": "2a486ee5cfc58e3b96bcccb7615636ea", "is_reserved": 0, "is_disabled": 0}, {"lat": 38.88536116666667, "fusion_lat": 0.0, "type": "electric_scooter", "bike_id": "178428bc3bca665196fcfe23d197dabb", "rental_uris": {"ios": "https://dc.lft.to/lastmile_qr_scan", "android": "https://dc.lft.to/lastmile_qr_scan"}, "fusion_lon": 0.0, "lon": -76.99826033333333, "name": "178428bc3bca665196fcfe23d197dabb", "is_reserved": 0, "is_disabled": 0}, {"lat": 38.906577, "fusion_lat": 0.0, "type": "electric_scooter", "bike_id": "33e7bf11ca49f5040d5fd83cfda3d6a8", "rental_uris": {"ios": "https://dc.lft.to/lastmile_qr_scan", "android": "https://dc.lft.to/lastmile_qr_scan"}, "fusion_lon": 0.0, "lon": -77.03900366666667, "name": "33e7bf11ca49f5040d5fd83cfda3d6a8", "is_reserved": 0, "is_disabled": 0}, {"lat": 38.917627333333336, "fusion_lat": 0.0, "type": "electric_scooter", "bike_id": "128185f599a38b9e21bbd795814b1580", "rental_uris": {"ios": "https://dc.lft.to/lastmile_qr_scan", "android": "https://dc.lft.to/lastmile_qr_scan"}, "fusion_lon": 0.0, "lon": -77.02197216666667, "name": "128185f599a38b9e21bbd795814b1580", "is_reserved": 0, "is_disabled": 0}, {"lat": 38.919476, "fusion_lat": 0.0, "type": "electric_scooter", "bike_id": "a10a0794bb40c47c6d30a3663e8f0dfd", "rental_uris": {"ios": "https://dc.lft.to/lastmile_qr_scan", "android": "https://dc.lft.to/lastmile_qr_scan"}, "fusion_lon": 0.0, "lon": -77.01897783333334, "name": "a10a0794bb40c47c6d30a3663e8f0dfd", "is_reserved": 0, "is_disabled": 0}, {"lat": 38.894664666666664, "fusion_lat": 0.0, "type": "electric_scooter", "bike_id": "8a3e84185d64fe9b97e9471503ee1832", "rental_uris": {"ios": "https://dc.lft.to/lastmile_qr_scan", "android": "https://dc.lft.to/lastmile_qr_scan"}, "fusion_lon": 0.0, "lon": -77.0225, "name": "8a3e84185d64fe9b97e9471503ee1832", "is_reserved": 0, "is_disabled": 0}, {"lat": 38.900093166666665, "fusion_lat": 0.0, "type": "electric_scooter", "bike_id": "665dce09057164a0eeccef898eb0b4a4", "rental_uris": {"ios": "https://dc.lft.to/lastmile_qr_scan", "android": "https://dc.lft.to/lastmile_qr_scan"}, "fusion_lon": 0.0, "lon": -76.99767883333334, "name": "665dce09057164a0eeccef898eb0b4a4", "is_reserved": 0, "is_disabled": 0}, {"lat": 38.9100415, "fusion_lat": 0.0, "type": "electric_scooter", "bike_id": "b39d42916bc0be85db0b4a3694c33958", "rental_uris": {"ios": "https://dc.lft.to/lastmile_qr_scan", "android": "https://dc.lft.to/lastmile_qr_scan"}, "fusion_lon": 0.0, "lon": -77.03439333333333, "name": "b39d42916bc0be85db0b4a3694c33958", "is_reserved": 0, "is_disabled": 0}, {"lat": 38.907126, "fusion_lat": 0.0, "type": "electric_scooter", "bike_id": "665f9f796409e0b672ccc148c24ac7ba", "rental_uris": {"ios": "https://dc.lft.to/lastmile_qr_scan", "android": "https://dc.lft.to/lastmile_qr_scan"}, "fusion_lon": 0.0, "lon": -77.00372933333334, "name": "665f9f796409e0b672ccc148c24ac7ba", "is_reserved": 0, "is_disabled": 0}, {"lat": 38.89726183333333, "fusion_lat": 0.0, "type": "electric_scooter", "bike_id": "e2a9b0250f97a1ecec58df0fee03f56f", "rental_uris": {"ios": "https://dc.lft.to/lastmile_qr_scan", "android": "https://dc.lft.to/lastmile_qr_scan"}, "fusion_lon": 0.0, "lon": -77.0552365, "name": "e2a9b0250f97a1ecec58df0fee03f56f", "is_reserved": 0, "is_disabled": 0}, {"lat": 38.939158, "fusion_lat": 0.0, "type": "electric_scooter", "bike_id": "414fca760f51fd293a21cef775add6c8", "rental_uris": {"ios": "https://dc.lft.to/lastmile_qr_scan", "android": "https://dc.lft.to/lastmile_qr_scan"}, "fusion_lon": 0.0, "lon": -77.02462083333333, "name": "414fca760f51fd293a21cef775add6c8", "is_reserved": 0, "is_disabled": 0}, {"lat": 38.92343183333333, "fusion_lat": 0.0, "type": "electric_scooter", "bike_id": "31381a06f89ef97507a76d99b58e025b", "rental_uris": {"ios": "https://dc.lft.to/lastmile_qr_scan", "android": "https://dc.lft.to/lastmile_qr_scan"}, "fusion_lon": 0.0, "lon": -77.0517135, "name": "31381a06f89ef97507a76d99b58e025b", "is_reserved": 0, "is_disabled": 0}, {"lat": 38.901315, "fusion_lat": 0.0, "type": "electric_scooter", "bike_id": "90879996a8532ef8ec8a932198b46370", "rental_uris": {"ios": "https://dc.lft.to/lastmile_qr_scan", "android": "https://dc.lft.to/lastmile_qr_scan"}, "fusion_lon": 0.0, "lon": -77.04416133333334, "name": "90879996a8532ef8ec8a932198b46370", "is_reserved": 0, "is_disabled": 0}, {"lat": 38.896473, "fusion_lat": 0.0, "type": "electric_scooter", "bike_id": "8a7b46f269f9dd2e3a3361d6a1f80464", "rental_uris": {"ios": "https://dc.lft.to/lastmile_qr_scan", "android": "https://dc.lft.to/lastmile_qr_scan"}, "fusion_lon": 0.0, "lon": -77.009241, "name": "8a7b46f269f9dd2e3a3361d6a1f80464", "is_reserved": 0, "is_disabled": 0}, {"lat": 38.8922625, "fusion_lat": 0.0, "type": "electric_scooter", "bike_id": "a8387072b97ef4b9079105ef53845414", "rental_uris": {"ios": "https://dc.lft.to/lastmile_qr_scan", "android": "https://dc.lft.to/lastmile_qr_scan"}, "fusion_lon": 0.0, "lon": -77.02754933333334, "name": "a8387072b97ef4b9079105ef53845414", "is_reserved": 0, "is_disabled": 0}, {"lat": 38.9141905, "fusion_lat": 0.0, "type": "electric_scooter", "bike_id": "2e836f16e1a97fc62b551663fff79be6", "rental_uris": {"ios": "https://dc.lft.to/lastmile_qr_scan", "android": "https://dc.lft.to/lastmile_qr_scan"}, "fusion_lon": 0.0, "lon": -77.01196233333333, "name": "2e836f16e1a97fc62b551663fff79be6", "is_reserved": 0, "is_disabled": 0}, {"lat": 38.928884833333335, "fusion_lat": 0.0, "type": "electric_scooter", "bike_id": "4157c3416019655b95ff8b66d431bbfa", "rental_uris": {"ios": "https://dc.lft.to/lastmile_qr_scan", "android": "https://dc.lft.to/lastmile_qr_scan"}, "fusion_lon": 0.0, "lon": -77.03250583333333, "name": "4157c3416019655b95ff8b66d431bbfa", "is_reserved": 0, "is_disabled": 0}, {"lat": 38.90777033333333, "fusion_lat": 0.0, "type": "electric_scooter", "bike_id": "f883423954465c3323220581e785d320", "rental_uris": {"ios": "https://dc.lft.to/lastmile_qr_scan", "android": "https://dc.lft.to/lastmile_qr_scan"}, "fusion_lon": 0.0, "lon": -77.071666, "name": "f883423954465c3323220581e785d320", "is_reserved": 0, "is_disabled": 0}, {"lat": 38.914697, "fusion_lat": 0.0, "type": "electric_scooter", "bike_id": "bdc5b01cd6170b474c16db9cf55b8eec", "rental_uris": {"ios": "https://dc.lft.to/lastmile_qr_scan", "android": "https://dc.lft.to/lastmile_qr_scan"}, "fusion_lon": 0.0, "lon": -77.04613383333333, "name": "bdc5b01cd6170b474c16db9cf55b8eec", "is_reserved": 0, "is_disabled": 0}, {"lat": 38.90889383333333, "fusion_lat": 0.0, "type": "electric_scooter", "bike_id": "2063220eb893b18dac857b97a0852553", "rental_uris": {"ios": "https://dc.lft.to/lastmile_qr_scan", "android": "https://dc.lft.to/lastmile_qr_scan"}, "fusion_lon": 0.0, "lon": -77.04332316666667, "name": "2063220eb893b18dac857b97a0852553", "is_reserved": 0, "is_disabled": 0}, {"lat": 38.9009075, "fusion_lat": 0.0, "type": "electric_scooter", "bike_id": "27992e368e6d7238ead9f2cad4304623", "rental_uris": {"ios": "https://dc.lft.to/lastmile_qr_scan", "android": "https://dc.lft.to/lastmile_qr_scan"}, "fusion_lon": 0.0, "lon": -77.04376616666667, "name": "27992e368e6d7238ead9f2cad4304623", "is_reserved": 0, "is_disabled": 0}, {"lat": 38.86824516666667, "fusion_lat": 0.0, "type": "electric_scooter", "bike_id": "d5a195d7da2ddd628374d335798c68e2", "rental_uris": {"ios": "https://dc.lft.to/lastmile_qr_scan", "android": "https://dc.lft.to/lastmile_qr_scan"}, "fusion_lon": 0.0, "lon": -77.00981, "name": "d5a195d7da2ddd628374d335798c68e2", "is_reserved": 0, "is_disabled": 0}, {"lat": 38.87397383333333, "fusion_lat": 0.0, "type": "electric_scooter", "bike_id": "a96f48fcb5db4e926d7b651db9bb5c81", "rental_uris": {"ios": "https://dc.lft.to/lastmile_qr_scan", "android": "https://dc.lft.to/lastmile_qr_scan"}, "fusion_lon": 0.0, "lon": -77.01453566666666, "name": "a96f48fcb5db4e926d7b651db9bb5c81", "is_reserved": 0, "is_disabled": 0}, {"lat": 38.88764, "fusion_lat": 0.0, "type": "electric_scooter", "bike_id": "560de2aaf6b1da7cceae1b9a21a9188e", "rental_uris": {"ios": "https://dc.lft.to/lastmile_qr_scan", "android": "https://dc.lft.to/lastmile_qr_scan"}, "fusion_lon": 0.0, "lon": -77.001845, "name": "560de2aaf6b1da7cceae1b9a21a9188e", "is_reserved": 0, "is_disabled": 0}, {"lat": 38.92420583333333, "fusion_lat": 0.0, "type": "electric_scooter", "bike_id": "21ce470bc8e1a2c7c262767663fba3c2", "rental_uris": {"ios": "https://dc.lft.to/lastmile_qr_scan", "android": "https://dc.lft.to/lastmile_qr_scan"}, "fusion_lon": 0.0, "lon": -77.01948966666667, "name": "21ce470bc8e1a2c7c262767663fba3c2", "is_reserved": 0, "is_disabled": 0}, {"lat": 38.909556, "fusion_lat": 0.0, "type": "electric_scooter", "bike_id": "99936c2759cd54a5a95ee66847751b97", "rental_uris": {"ios": "https://dc.lft.to/lastmile_qr_scan", "android": "https://dc.lft.to/lastmile_qr_scan"}, "fusion_lon": 0.0, "lon": -77.014266, "name": "99936c2759cd54a5a95ee66847751b97", "is_reserved": 0, "is_disabled": 0}, {"lat": 38.923306333333336, "fusion_lat": 0.0, "type": "electric_scooter", "bike_id": "e458943a2aad3cec83d63e09b2d65dd6", "rental_uris": {"ios": "https://dc.lft.to/lastmile_qr_scan", "android": "https://dc.lft.to/lastmile_qr_scan"}, "fusion_lon": 0.0, "lon": -77.04614483333333, "name": "e458943a2aad3cec83d63e09b2d65dd6", "is_reserved": 0, "is_disabled": 0}, {"lat": 38.936224833333334, "fusion_lat": 0.0, "type": "electric_scooter", "bike_id": "4bde364354a4e62d4606f438a46f5dbf", "rental_uris": {"ios": "https://dc.lft.to/lastmile_qr_scan", "android": "https://dc.lft.to/lastmile_qr_scan"}, "fusion_lon": 0.0, "lon": -77.0816545, "name": "4bde364354a4e62d4606f438a46f5dbf", "is_reserved": 0, "is_disabled": 0}, {"lat": 38.9644965, "fusion_lat": 0.0, "type": "electric_bike", "bike_id": "89f9db7f5b00804ce5ffcddada818dc5", "rental_uris": {"ios": "https://dc.lft.to/lastmile_qr_scan", "android": "https://dc.lft.to/lastmile_qr_scan"}, "fusion_lon": 0.0, "lon": -77.02235783333333, "name": "89f9db7f5b00804ce5ffcddada818dc5", "is_reserved": 0, "is_disabled": 0}, {"lat": 38.92416133333333, "fusion_lat": 0.0, "type": "electric_scooter", "bike_id": "06c7a89cc7fa7026c52a63906ea6be35", "rental_uris": {"ios": "https://dc.lft.to/lastmile_qr_scan", "android": "https://dc.lft.to/lastmile_qr_scan"}, "fusion_lon": 0.0, "lon": -77.06523216666666, "name": "06c7a89cc7fa7026c52a63906ea6be35", "is_reserved": 0, "is_disabled": 0}, {"lat": 38.90980033333334, "fusion_lat": 0.0, "type": "electric_scooter", "bike_id": "de8281331a03e9be30b742ae065ed38b", "rental_uris": {"ios": "https://dc.lft.to/lastmile_qr_scan", "android": "https://dc.lft.to/lastmile_qr_scan"}, "fusion_lon": 0.0, "lon": -77.03180183333333, "name": "de8281331a03e9be30b742ae065ed38b", "is_reserved": 0, "is_disabled": 0}, {"lat": 38.90723766666667, "fusion_lat": 0.0, "type": "electric_scooter", "bike_id": "5d986e0b34cc06ed865f44b4e8763441", "rental_uris": {"ios": "https://dc.lft.to/lastmile_qr_scan", "android": "https://dc.lft.to/lastmile_qr_scan"}, "fusion_lon": 0.0, "lon": -77.03542566666667, "name": "5d986e0b34cc06ed865f44b4e8763441", "is_reserved": 0, "is_disabled": 0}, {"lat": 38.90073866666667, "fusion_lat": 0.0, "type": "electric_scooter", "bike_id": "4b4896e4348d7bc26b12770c09e074b0", "rental_uris": {"ios": "https://dc.lft.to/lastmile_qr_scan", "android": "https://dc.lft.to/lastmile_qr_scan"}, "fusion_lon": 0.0, "lon": -77.02710433333333, "name": "4b4896e4348d7bc26b12770c09e074b0", "is_reserved": 0, "is_disabled": 0}, {"lat": 38.89742783333333, "fusion_lat": 0.0, "type": "electric_scooter", "bike_id": "e12dfaa6e626ddcb73d4b03741028226", "rental_uris": {"ios": "https://dc.lft.to/lastmile_qr_scan", "android": "https://dc.lft.to/lastmile_qr_scan"}, "fusion_lon": 0.0, "lon": -77.009259, "name": "e12dfaa6e626ddcb73d4b03741028226", "is_reserved": 0, "is_disabled": 0}, {"lat": 38.9274205, "fusion_lat": 0.0, "type": "electric_scooter", "bike_id": "7f0ca5d40bc8681c58f242a69caa62e2", "rental_uris": {"ios": "https://dc.lft.to/lastmile_qr_scan", "android": "https://dc.lft.to/lastmile_qr_scan"}, "fusion_lon": 0.0, "lon": -77.03260233333333, "name": "7f0ca5d40bc8681c58f242a69caa62e2", "is_reserved": 0, "is_disabled": 0}, {"lat": 38.90275533333333, "fusion_lat": 0.0, "type": "electric_scooter", "bike_id": "e6747a0675fe24b9a2a638da92508162", "rental_uris": {"ios": "https://dc.lft.to/lastmile_qr_scan", "android": "https://dc.lft.to/lastmile_qr_scan"}, "fusion_lon": 0.0, "lon": -77.03842833333333, "name": "e6747a0675fe24b9a2a638da92508162", "is_reserved": 0, "is_disabled": 0}, {"lat": 38.90364366666667, "fusion_lat": 0.0, "type": "electric_scooter", "bike_id": "31cc3e2775cb92d56543affc6587757f", "rental_uris": {"ios": "https://dc.lft.to/lastmile_qr_scan", "android": "https://dc.lft.to/lastmile_qr_scan"}, "fusion_lon": 0.0, "lon": -77.03430133333333, "name": "31cc3e2775cb92d56543affc6587757f", "is_reserved": 0, "is_disabled": 0}, {"lat": 38.9000265, "fusion_lat": 0.0, "type": "electric_scooter", "bike_id": "8c080fea7343649d9e5f224819a8bded", "rental_uris": {"ios": "https://dc.lft.to/lastmile_qr_scan", "android": "https://dc.lft.to/lastmile_qr_scan"}, "fusion_lon": 0.0, "lon": -77.00144866666666, "name": "8c080fea7343649d9e5f224819a8bded", "is_reserved": 0, "is_disabled": 0}, {"lat": 38.88260116666667, "fusion_lat": 0.0, "type": "electric_scooter", "bike_id": "605b76a34ab0dc77384251d6e99393de", "rental_uris": {"ios": "https://dc.lft.to/lastmile_qr_scan", "android": "https://dc.lft.to/lastmile_qr_scan"}, "fusion_lon": 0.0, "lon": -76.99607133333333, "name": "605b76a34ab0dc77384251d6e99393de", "is_reserved": 0, "is_disabled": 0}, {"lat": 38.920741666666665, "fusion_lat": 0.0, "type": "electric_scooter", "bike_id": "4812421a80496644c4d04d04a1467e92", "rental_uris": {"ios": "https://dc.lft.to/lastmile_qr_scan", "android": "https://dc.lft.to/lastmile_qr_scan"}, "fusion_lon": 0.0, "lon": -77.02381766666667, "name": "4812421a80496644c4d04d04a1467e92", "is_reserved": 0, "is_disabled": 0}, {"lat": 38.89227666666667, "fusion_lat": 0.0, "type": "electric_scooter", "bike_id": "5782b08fdf56b026e85ae8a9c3e780ef", "rental_uris": {"ios": "https://dc.lft.to/lastmile_qr_scan", "android": "https://dc.lft.to/lastmile_qr_scan"}, "fusion_lon": 0.0, "lon": -77.02205183333334, "name": "5782b08fdf56b026e85ae8a9c3e780ef", "is_reserved": 0, "is_disabled": 0}, {"lat": 38.917117833333336, "fusion_lat": 0.0, "type": "electric_scooter", "bike_id": "fd355699f333a19d93da6eefd6d06b70", "rental_uris": {"ios": "https://dc.lft.to/lastmile_qr_scan", "android": "https://dc.lft.to/lastmile_qr_scan"}, "fusion_lon": 0.0, "lon": -77.024272, "name": "fd355699f333a19d93da6eefd6d06b70", "is_reserved": 0, "is_disabled": 0}, {"lat": 38.9084585, "fusion_lat": 0.0, "type": "electric_scooter", "bike_id": "2701866344b7d376953b444fe69263d7", "rental_uris": {"ios": "https://dc.lft.to/lastmile_qr_scan", "android": "https://dc.lft.to/lastmile_qr_scan"}, "fusion_lon": 0.0, "lon": -77.04018316666667, "name": "2701866344b7d376953b444fe69263d7", "is_reserved": 0, "is_disabled": 0}, {"lat": 38.899485, "fusion_lat": 0.0, "type": "electric_scooter", "bike_id": "0817bfe3861c1c12f12a297d31e0e464", "rental_uris": {"ios": "https://dc.lft.to/lastmile_qr_scan", "android": "https://dc.lft.to/lastmile_qr_scan"}, "fusion_lon": 0.0, "lon": -77.04512016666666, "name": "0817bfe3861c1c12f12a297d31e0e464", "is_reserved": 0, "is_disabled": 0}, {"lat": 38.8482285, "fusion_lat": 0.0, "type": "electric_bike", "bike_id": "ca948aa56a458355297ed7660fe26ae9", "rental_uris": {"ios": "https://dc.lft.to/lastmile_qr_scan", "android": "https://dc.lft.to/lastmile_qr_scan"}, "fusion_lon": 0.0, "lon": -77.07903733333333, "name": "ca948aa56a458355297ed7660fe26ae9", "is_reserved": 0, "is_disabled": 0}, {"lat": 38.948911, "fusion_lat": 0.0, "type": "electric_scooter", "bike_id": "d3a4aa6453bebdc1de4287cb823573f8", "rental_uris": {"ios": "https://dc.lft.to/lastmile_qr_scan", "android": "https://dc.lft.to/lastmile_qr_scan"}, "fusion_lon": 0.0, "lon": -77.01848633333333, "name": "d3a4aa6453bebdc1de4287cb823573f8", "is_reserved": 0, "is_disabled": 0}, {"lat": 38.91712233333333, "fusion_lat": 0.0, "type": "electric_scooter", "bike_id": "4ed49eba84e2dbdf0a6b67305cbaf040", "rental_uris": {"ios": "https://dc.lft.to/lastmile_qr_scan", "android": "https://dc.lft.to/lastmile_qr_scan"}, "fusion_lon": 0.0, "lon": -76.9764745, "name": "4ed49eba84e2dbdf0a6b67305cbaf040", "is_reserved": 0, "is_disabled": 0}, {"lat": 38.912511, "fusion_lat": 0.0, "type": "electric_scooter", "bike_id": "c72628c0157c2428a15c7059edee341c", "rental_uris": {"ios": "https://dc.lft.to/lastmile_qr_scan", "android": "https://dc.lft.to/lastmile_qr_scan"}, "fusion_lon": 0.0, "lon": -77.03836683333333, "name": "c72628c0157c2428a15c7059edee341c", "is_reserved": 0, "is_disabled": 0}, {"lat": 38.886738, "fusion_lat": 0.0, "type": "electric_scooter", "bike_id": "485c36cf276bb5d7d720f781b269bc55", "rental_uris": {"ios": "https://dc.lft.to/lastmile_qr_scan", "android": "https://dc.lft.to/lastmile_qr_scan"}, "fusion_lon": 0.0, "lon": -77.00200066666666, "name": "485c36cf276bb5d7d720f781b269bc55", "is_reserved": 0, "is_disabled": 0}, {"lat": 38.9001185, "fusion_lat": 0.0, "type": "electric_scooter", "bike_id": "313d9558af8db153e695704d795010af", "rental_uris": {"ios": "https://dc.lft.to/lastmile_qr_scan", "android": "https://dc.lft.to/lastmile_qr_scan"}, "fusion_lon": 0.0, "lon": -77.002161, "name": "313d9558af8db153e695704d795010af", "is_reserved": 0, "is_disabled": 0}, {"lat": 38.87098233333333, "fusion_lat": 0.0, "type": "electric_scooter", "bike_id": "7a5abb1ff55a40c02775942cf107f72c", "rental_uris": {"ios": "https://dc.lft.to/lastmile_qr_scan", "android": "https://dc.lft.to/lastmile_qr_scan"}, "fusion_lon": 0.0, "lon": -76.965797, "name": "7a5abb1ff55a40c02775942cf107f72c", "is_reserved": 0, "is_disabled": 0}, {"lat": 38.9027035, "fusion_lat": 0.0, "type": "electric_scooter", "bike_id": "1434a83b1c5baa98b498bae757bcb4a1", "rental_uris": {"ios": "https://dc.lft.to/lastmile_qr_scan", "android": "https://dc.lft.to/lastmile_qr_scan"}, "fusion_lon": 0.0, "lon": -77.03939633333333, "name": "1434a83b1c5baa98b498bae757bcb4a1", "is_reserved": 0, "is_disabled": 0}, {"lat": 38.883151, "fusion_lat": 0.0, "type": "electric_bike", "bike_id": "7d7f781d746dc6eb4084f5243dc1cdea", "rental_uris": {"ios": "https://dc.lft.to/lastmile_qr_scan", "android": "https://dc.lft.to/lastmile_qr_scan"}, "fusion_lon": 0.0, "lon": -77.10660266666666, "name": "7d7f781d746dc6eb4084f5243dc1cdea", "is_reserved": 0, "is_disabled": 0}, {"lat": 38.93477466666667, "fusion_lat": 0.0, "type": "electric_scooter", "bike_id": "06869029ac214134ef9bb8c13d5c36da", "rental_uris": {"ios": "https://dc.lft.to/lastmile_qr_scan", "android": "https://dc.lft.to/lastmile_qr_scan"}, "fusion_lon": 0.0, "lon": -77.07277983333333, "name": "06869029ac214134ef9bb8c13d5c36da", "is_reserved": 0, "is_disabled": 0}, {"lat": 38.92256366666667, "fusion_lat": 0.0, "type": "electric_scooter", "bike_id": "460256050333ad561a60d32507d9d098", "rental_uris": {"ios": "https://dc.lft.to/lastmile_qr_scan", "android": "https://dc.lft.to/lastmile_qr_scan"}, "fusion_lon": 0.0, "lon": -77.035206, "name": "460256050333ad561a60d32507d9d098", "is_reserved": 0, "is_disabled": 0}, {"lat": 38.92155833333333, "fusion_lat": 0.0, "type": "electric_scooter", "bike_id": "ea8ba3c05e7044bc5e66b3b9cbf1a74d", "rental_uris": {"ios": "https://dc.lft.to/lastmile_qr_scan", "android": "https://dc.lft.to/lastmile_qr_scan"}, "fusion_lon": 0.0, "lon": -77.02019033333333, "name": "ea8ba3c05e7044bc5e66b3b9cbf1a74d", "is_reserved": 0, "is_disabled": 0}, {"lat": 38.90271383333334, "fusion_lat": 0.0, "type": "electric_scooter", "bike_id": "92d6c8b9840f112d8158ba24542ba3fc", "rental_uris": {"ios": "https://dc.lft.to/lastmile_qr_scan", "android": "https://dc.lft.to/lastmile_qr_scan"}, "fusion_lon": 0.0, "lon": -76.92887133333333, "name": "92d6c8b9840f112d8158ba24542ba3fc", "is_reserved": 0, "is_disabled": 0}, {"lat": 38.91821, "fusion_lat": 0.0, "type": "electric_scooter", "bike_id": "5f4a017b2bc1129ee466206394fc8706", "rental_uris": {"ios": "https://dc.lft.to/lastmile_qr_scan", "android": "https://dc.lft.to/lastmile_qr_scan"}, "fusion_lon": 0.0, "lon": -77.02422383333334, "name": "5f4a017b2bc1129ee466206394fc8706", "is_reserved": 0, "is_disabled": 0}, {"lat": 38.90530716666667, "fusion_lat": 0.0, "type": "electric_scooter", "bike_id": "ba30573e218daf46b3e181cbef6e6776", "rental_uris": {"ios": "https://dc.lft.to/lastmile_qr_scan", "android": "https://dc.lft.to/lastmile_qr_scan"}, "fusion_lon": 0.0, "lon": -77.05022266666667, "name": "ba30573e218daf46b3e181cbef6e6776", "is_reserved": 0, "is_disabled": 0}, {"lat": 38.90546416666667, "fusion_lat": 0.0, "type": "electric_scooter", "bike_id": "93494829538e4974503d20ef2dc1899e", "rental_uris": {"ios": "https://dc.lft.to/lastmile_qr_scan", "android": "https://dc.lft.to/lastmile_qr_scan"}, "fusion_lon": 0.0, "lon": -77.02202383333334, "name": "93494829538e4974503d20ef2dc1899e", "is_reserved": 0, "is_disabled": 0}, {"lat": 38.90778, "fusion_lat": 0.0, "type": "electric_scooter", "bike_id": "3341ae7bb0094515e5fa4c5df637e072", "rental_uris": {"ios": "https://dc.lft.to/lastmile_qr_scan", "android": "https://dc.lft.to/lastmile_qr_scan"}, "fusion_lon": 0.0, "lon": -77.07165016666667, "name": "3341ae7bb0094515e5fa4c5df637e072", "is_reserved": 0, "is_disabled": 0}, {"lat": 38.8949695, "fusion_lat": 0.0, "type": "electric_scooter", "bike_id": "f5a3e120646f845ae5b4cf3c2773091e", "rental_uris": {"ios": "https://dc.lft.to/lastmile_qr_scan", "android": "https://dc.lft.to/lastmile_qr_scan"}, "fusion_lon": 0.0, "lon": -77.01089633333333, "name": "f5a3e120646f845ae5b4cf3c2773091e", "is_reserved": 0, "is_disabled": 0}, {"lat": 38.89952316666667, "fusion_lat": 0.0, "type": "electric_scooter", "bike_id": "18f4a99b14b2b59c9e3b863568d94b88", "rental_uris": {"ios": "https://dc.lft.to/lastmile_qr_scan", "android": "https://dc.lft.to/lastmile_qr_scan"}, "fusion_lon": 0.0, "lon": -77.044776, "name": "18f4a99b14b2b59c9e3b863568d94b88", "is_reserved": 0, "is_disabled": 0}, {"lat": 38.92624466666667, "fusion_lat": 0.0, "type": "electric_scooter", "bike_id": "65af28ee2b035c0d8f172645186520fb", "rental_uris": {"ios": "https://dc.lft.to/lastmile_qr_scan", "android": "https://dc.lft.to/lastmile_qr_scan"}, "fusion_lon": 0.0, "lon": -77.03526816666667, "name": "65af28ee2b035c0d8f172645186520fb", "is_reserved": 0, "is_disabled": 0}, {"lat": 38.8872315, "fusion_lat": 0.0, "type": "electric_scooter", "bike_id": "a6e5e91a8e37a00042f40ef5d2798eec", "rental_uris": {"ios": "https://dc.lft.to/lastmile_qr_scan", "android": "https://dc.lft.to/lastmile_qr_scan"}, "fusion_lon": 0.0, "lon": -77.0282225, "name": "a6e5e91a8e37a00042f40ef5d2798eec", "is_reserved": 0, "is_disabled": 0}, {"lat": 38.902286833333335, "fusion_lat": 0.0, "type": "electric_scooter", "bike_id": "8a414ff030bc5cd030d2fe0c5fec7c86", "rental_uris": {"ios": "https://dc.lft.to/lastmile_qr_scan", "android": "https://dc.lft.to/lastmile_qr_scan"}, "fusion_lon": 0.0, "lon": -77.02347966666666, "name": "8a414ff030bc5cd030d2fe0c5fec7c86", "is_reserved": 0, "is_disabled": 0}, {"lat": 38.877068333333334, "fusion_lat": 0.0, "type": "electric_scooter", "bike_id": "5e30423ec72e06eb80edce9e4de041ca", "rental_uris": {"ios": "https://dc.lft.to/lastmile_qr_scan", "android": "https://dc.lft.to/lastmile_qr_scan"}, "fusion_lon": 0.0, "lon": -77.01841116666667, "name": "5e30423ec72e06eb80edce9e4de041ca", "is_reserved": 0, "is_disabled": 0}, {"lat": 38.919182666666664, "fusion_lat": 0.0, "type": "electric_scooter", "bike_id": "3f252db514b2412f7a7fd254cb4a3a49", "rental_uris": {"ios": "https://dc.lft.to/lastmile_qr_scan", "android": "https://dc.lft.to/lastmile_qr_scan"}, "fusion_lon": 0.0, "lon": -77.024668, "name": "3f252db514b2412f7a7fd254cb4a3a49", "is_reserved": 0, "is_disabled": 0}, {"lat": 38.90303683333333, "fusion_lat": 0.0, "type": "electric_scooter", "bike_id": "3639d2eba9c22a9d1bd023c6f9ae21ea", "rental_uris": {"ios": "https://dc.lft.to/lastmile_qr_scan", "android": "https://dc.lft.to/lastmile_qr_scan"}, "fusion_lon": 0.0, "lon": -76.97811016666667, "name": "3639d2eba9c22a9d1bd023c6f9ae21ea", "is_reserved": 0, "is_disabled": 0}, {"lat": 38.8983945, "fusion_lat": 0.0, "type": "electric_scooter", "bike_id": "2b4f1ff7dc9afab3b2e834a931b667a8", "rental_uris": {"ios": "https://dc.lft.to/lastmile_qr_scan", "android": "https://dc.lft.to/lastmile_qr_scan"}, "fusion_lon": 0.0, "lon": -77.049097, "name": "2b4f1ff7dc9afab3b2e834a931b667a8", "is_reserved": 0, "is_disabled": 0}, {"lat": 38.9078095, "fusion_lat": 0.0, "type": "electric_scooter", "bike_id": "0c3d9d87bc6e9cafdcd77e39fefa7e51", "rental_uris": {"ios": "https://dc.lft.to/lastmile_qr_scan", "android": "https://dc.lft.to/lastmile_qr_scan"}, "fusion_lon": 0.0, "lon": -77.04284583333333, "name": "0c3d9d87bc6e9cafdcd77e39fefa7e51", "is_reserved": 0, "is_disabled": 0}, {"lat": 38.91653, "fusion_lat": 0.0, "type": "electric_scooter", "bike_id": "908f66ff084c3c9517545a6c5bb00796", "rental_uris": {"ios": "https://dc.lft.to/lastmile_qr_scan", "android": "https://dc.lft.to/lastmile_qr_scan"}, "fusion_lon": 0.0, "lon": -77.0224555, "name": "908f66ff084c3c9517545a6c5bb00796", "is_reserved": 0, "is_disabled": 0}, {"lat": 38.91690633333333, "fusion_lat": 0.0, "type": "electric_scooter", "bike_id": "46b4dcdad5c4874d7a498e9f4dc19397", "rental_uris": {"ios": "https://dc.lft.to/lastmile_qr_scan", "android": "https://dc.lft.to/lastmile_qr_scan"}, "fusion_lon": 0.0, "lon": -77.03549533333333, "name": "46b4dcdad5c4874d7a498e9f4dc19397", "is_reserved": 0, "is_disabled": 0}, {"lat": 38.90556383333333, "fusion_lat": 0.0, "type": "electric_scooter", "bike_id": "57237fa7fee50d55aeaf7a308866398e", "rental_uris": {"ios": "https://dc.lft.to/lastmile_qr_scan", "android": "https://dc.lft.to/lastmile_qr_scan"}, "fusion_lon": 0.0, "lon": -77.00290883333334, "name": "57237fa7fee50d55aeaf7a308866398e", "is_reserved": 0, "is_disabled": 0}, {"lat": 38.906086, "fusion_lat": 0.0, "type": "electric_scooter", "bike_id": "c651892306fa859f9648e3f50634744d", "rental_uris": {"ios": "https://dc.lft.to/lastmile_qr_scan", "android": "https://dc.lft.to/lastmile_qr_scan"}, "fusion_lon": 0.0, "lon": -77.039606, "name": "c651892306fa859f9648e3f50634744d", "is_reserved": 0, "is_disabled": 0}, {"lat": 38.899931, "fusion_lat": 0.0, "type": "electric_scooter", "bike_id": "6069a24f33971ff14b4729ed3e63a0f6", "rental_uris": {"ios": "https://dc.lft.to/lastmile_qr_scan", "android": "https://dc.lft.to/lastmile_qr_scan"}, "fusion_lon": 0.0, "lon": -77.03208033333334, "name": "6069a24f33971ff14b4729ed3e63a0f6", "is_reserved": 0, "is_disabled": 0}, {"lat": 38.89516916666667, "fusion_lat": 0.0, "type": "electric_scooter", "bike_id": "4e92e7fa6af573230ee97f8ea723b918", "rental_uris": {"ios": "https://dc.lft.to/lastmile_qr_scan", "android": "https://dc.lft.to/lastmile_qr_scan"}, "fusion_lon": 0.0, "lon": -77.0113155, "name": "4e92e7fa6af573230ee97f8ea723b918", "is_reserved": 0, "is_disabled": 0}, {"lat": 38.8876765, "fusion_lat": 0.0, "type": "electric_scooter", "bike_id": "1be5f7adfb5fc89eaf7ede9fec6f1d67", "rental_uris": {"ios": "https://dc.lft.to/lastmile_qr_scan", "android": "https://dc.lft.to/lastmile_qr_scan"}, "fusion_lon": 0.0, "lon": -77.0003485, "name": "1be5f7adfb5fc89eaf7ede9fec6f1d67", "is_reserved": 0, "is_disabled": 0}, {"lat": 38.901205166666664, "fusion_lat": 0.0, "type": "electric_scooter", "bike_id": "33cf72cb9592e40efb6821505196b65e", "rental_uris": {"ios": "https://dc.lft.to/lastmile_qr_scan", "android": "https://dc.lft.to/lastmile_qr_scan"}, "fusion_lon": 0.0, "lon": -77.02564816666667, "name": "33cf72cb9592e40efb6821505196b65e", "is_reserved": 0, "is_disabled": 0}, {"lat": 38.89174783333333, "fusion_lat": 0.0, "type": "electric_scooter", "bike_id": "c8cc091fcd1fcc2d01907e187c63ee4f", "rental_uris": {"ios": "https://dc.lft.to/lastmile_qr_scan", "android": "https://dc.lft.to/lastmile_qr_scan"}, "fusion_lon": 0.0, "lon": -77.015601, "name": "c8cc091fcd1fcc2d01907e187c63ee4f", "is_reserved": 0, "is_disabled": 0}, {"lat": 38.91960266666667, "fusion_lat": 0.0, "type": "electric_scooter", "bike_id": "497b11c711684b617287705d87b2f657", "rental_uris": {"ios": "https://dc.lft.to/lastmile_qr_scan", "android": "https://dc.lft.to/lastmile_qr_scan"}, "fusion_lon": 0.0, "lon": -77.02514033333334, "name": "497b11c711684b617287705d87b2f657", "is_reserved": 0, "is_disabled": 0}, {"lat": 38.878671833333335, "fusion_lat": 0.0, "type": "electric_scooter", "bike_id": "bb1602e6b0ed680b797a6cf0640a330a", "rental_uris": {"ios": "https://dc.lft.to/lastmile_qr_scan", "android": "https://dc.lft.to/lastmile_qr_scan"}, "fusion_lon": 0.0, "lon": -76.96258516666667, "name": "bb1602e6b0ed680b797a6cf0640a330a", "is_reserved": 0, "is_disabled": 0}, {"lat": 38.9137055, "fusion_lat": 0.0, "type": "electric_scooter", "bike_id": "425d5e62dad2d3d9d2fd826b9d08991d", "rental_uris": {"ios": "https://dc.lft.to/lastmile_qr_scan", "android": "https://dc.lft.to/lastmile_qr_scan"}, "fusion_lon": 0.0, "lon": -77.070171, "name": "425d5e62dad2d3d9d2fd826b9d08991d", "is_reserved": 0, "is_disabled": 0}, {"lat": 38.91581983333333, "fusion_lat": 0.0, "type": "electric_scooter", "bike_id": "70ffcfc18ad464a52cae0ed5876504db", "rental_uris": {"ios": "https://dc.lft.to/lastmile_qr_scan", "android": "https://dc.lft.to/lastmile_qr_scan"}, "fusion_lon": 0.0, "lon": -77.03211983333334, "name": "70ffcfc18ad464a52cae0ed5876504db", "is_reserved": 0, "is_disabled": 0}, {"lat": 38.91904016666667, "fusion_lat": 0.0, "type": "electric_scooter", "bike_id": "4bb2e5f8a1da7f63febff77154da7ff1", "rental_uris": {"ios": "https://dc.lft.to/lastmile_qr_scan", "android": "https://dc.lft.to/lastmile_qr_scan"}, "fusion_lon": 0.0, "lon": -77.044565, "name": "4bb2e5f8a1da7f63febff77154da7ff1", "is_reserved": 0, "is_disabled": 0}, {"lat": 38.91280033333334, "fusion_lat": 0.0, "type": "electric_scooter", "bike_id": "0459a19b42d16e9c5a5ddcf966f17ee2", "rental_uris": {"ios": "https://dc.lft.to/lastmile_qr_scan", "android": "https://dc.lft.to/lastmile_qr_scan"}, "fusion_lon": 0.0, "lon": -77.04508416666667, "name": "0459a19b42d16e9c5a5ddcf966f17ee2", "is_reserved": 0, "is_disabled": 0}, {"lat": 38.90944533333333, "fusion_lat": 0.0, "type": "electric_scooter", "bike_id": "ccd63910b9f768907375b00d48a7c4f7", "rental_uris": {"ios": "https://dc.lft.to/lastmile_qr_scan", "android": "https://dc.lft.to/lastmile_qr_scan"}, "fusion_lon": 0.0, "lon": -77.02692283333333, "name": "ccd63910b9f768907375b00d48a7c4f7", "is_reserved": 0, "is_disabled": 0}, {"lat": 38.90568316666667, "fusion_lat": 0.0, "type": "electric_scooter", "bike_id": "29b6b3d24eff6dccdc68f095de5616ce", "rental_uris": {"ios": "https://dc.lft.to/lastmile_qr_scan", "android": "https://dc.lft.to/lastmile_qr_scan"}, "fusion_lon": 0.0, "lon": -77.01847016666666, "name": "29b6b3d24eff6dccdc68f095de5616ce", "is_reserved": 0, "is_disabled": 0}, {"lat": 38.91729633333333, "fusion_lat": 0.0, "type": "electric_scooter", "bike_id": "0733e7497f6ad24e85197342aea5148a", "rental_uris": {"ios": "https://dc.lft.to/lastmile_qr_scan", "android": "https://dc.lft.to/lastmile_qr_scan"}, "fusion_lon": 0.0, "lon": -77.036135, "name": "0733e7497f6ad24e85197342aea5148a", "is_reserved": 0, "is_disabled": 0}, {"lat": 38.89924283333333, "fusion_lat": 0.0, "type": "electric_scooter", "bike_id": "287bac25abbca9a44a5074094c00697f", "rental_uris": {"ios": "https://dc.lft.to/lastmile_qr_scan", "android": "https://dc.lft.to/lastmile_qr_scan"}, "fusion_lon": 0.0, "lon": -77.05001883333334, "name": "287bac25abbca9a44a5074094c00697f", "is_reserved": 0, "is_disabled": 0}, {"lat": 38.89806466666667, "fusion_lat": 0.0, "type": "electric_scooter", "bike_id": "bd0d227c2dc71aa727b0e514f99aba15", "rental_uris": {"ios": "https://dc.lft.to/lastmile_qr_scan", "android": "https://dc.lft.to/lastmile_qr_scan"}, "fusion_lon": 0.0, "lon": -77.015341, "name": "bd0d227c2dc71aa727b0e514f99aba15", "is_reserved": 0, "is_disabled": 0}, {"lat": 38.8862545, "fusion_lat": 0.0, "type": "electric_scooter", "bike_id": "402449ca8c0ee53bfb339b10ea4f1a5f", "rental_uris": {"ios": "https://dc.lft.to/lastmile_qr_scan", "android": "https://dc.lft.to/lastmile_qr_scan"}, "fusion_lon": 0.0, "lon": -76.925781, "name": "402449ca8c0ee53bfb339b10ea4f1a5f", "is_reserved": 0, "is_disabled": 0}, {"lat": 38.8639385, "fusion_lat": 0.0, "type": "electric_bike", "bike_id": "d53ed64e9af519e78e4deb98e3c484c2", "rental_uris": {"ios": "https://dc.lft.to/lastmile_qr_scan", "android": "https://dc.lft.to/lastmile_qr_scan"}, "fusion_lon": 0.0, "lon": -77.20109483333333, "name": "d53ed64e9af519e78e4deb98e3c484c2", "is_reserved": 0, "is_disabled": 0}, {"lat": 38.89353633333333, "fusion_lat": 0.0, "type": "electric_scooter", "bike_id": "b3eb4eb3a0d04ce22cd5d15aa68d6aa8", "rental_uris": {"ios": "https://dc.lft.to/lastmile_qr_scan", "android": "https://dc.lft.to/lastmile_qr_scan"}, "fusion_lon": 0.0, "lon": -77.00333166666667, "name": "b3eb4eb3a0d04ce22cd5d15aa68d6aa8", "is_reserved": 0, "is_disabled": 0}, {"lat": 38.8982855, "fusion_lat": 0.0, "type": "electric_scooter", "bike_id": "417012a9312635ceb31bbdf18943ee4d", "rental_uris": {"ios": "https://dc.lft.to/lastmile_qr_scan", "android": "https://dc.lft.to/lastmile_qr_scan"}, "fusion_lon": 0.0, "lon": -76.94653966666667, "name": "417012a9312635ceb31bbdf18943ee4d", "is_reserved": 0, "is_disabled": 0}, {"lat": 38.907352333333336, "fusion_lat": 0.0, "type": "electric_scooter", "bike_id": "5034e169839d7d8461abb6ee7cc860e6", "rental_uris": {"ios": "https://dc.lft.to/lastmile_qr_scan", "android": "https://dc.lft.to/lastmile_qr_scan"}, "fusion_lon": 0.0, "lon": -77.05696716666667, "name": "5034e169839d7d8461abb6ee7cc860e6", "is_reserved": 0, "is_disabled": 0}, {"lat": 38.91801866666667, "fusion_lat": 0.0, "type": "electric_scooter", "bike_id": "739636a511865847092bf097bc480fb3", "rental_uris": {"ios": "https://dc.lft.to/lastmile_qr_scan", "android": "https://dc.lft.to/lastmile_qr_scan"}, "fusion_lon": 0.0, "lon": -77.02484383333334, "name": "739636a511865847092bf097bc480fb3", "is_reserved": 0, "is_disabled": 0}, {"lat": 38.907567666666665, "fusion_lat": 0.0, "type": "electric_scooter", "bike_id": "37230abf627e5d850e598dd405985173", "rental_uris": {"ios": "https://dc.lft.to/lastmile_qr_scan", "android": "https://dc.lft.to/lastmile_qr_scan"}, "fusion_lon": 0.0, "lon": -77.0090295, "name": "37230abf627e5d850e598dd405985173", "is_reserved": 0, "is_disabled": 0}, {"lat": 38.84193783333333, "fusion_lat": 0.0, "type": "electric_bike", "bike_id": "320f153aa539685b802bbd217bb4dac4", "rental_uris": {"ios": "https://dc.lft.to/lastmile_qr_scan", "android": "https://dc.lft.to/lastmile_qr_scan"}, "fusion_lon": 0.0, "lon": -77.06754616666667, "name": "320f153aa539685b802bbd217bb4dac4", "is_reserved": 0, "is_disabled": 0}, {"lat": 38.97346316666667, "fusion_lat": 0.0, "type": "electric_scooter", "bike_id": "fd684079a33130dfe8b2b571a4ade868", "rental_uris": {"ios": "https://dc.lft.to/lastmile_qr_scan", "android": "https://dc.lft.to/lastmile_qr_scan"}, "fusion_lon": 0.0, "lon": -77.02786933333333, "name": "fd684079a33130dfe8b2b571a4ade868", "is_reserved": 0, "is_disabled": 0}, {"lat": 38.924147, "fusion_lat": 0.0, "type": "electric_scooter", "bike_id": "131f28953627d567a388a56b3ce51bd4", "rental_uris": {"ios": "https://dc.lft.to/lastmile_qr_scan", "android": "https://dc.lft.to/lastmile_qr_scan"}, "fusion_lon": 0.0, "lon": -76.99719466666667, "name": "131f28953627d567a388a56b3ce51bd4", "is_reserved": 0, "is_disabled": 0}, {"lat": 38.909682333333336, "fusion_lat": 0.0, "type": "electric_scooter", "bike_id": "522d9a5d97647813fcf2a0fee720c9e7", "rental_uris": {"ios": "https://dc.lft.to/lastmile_qr_scan", "android": "https://dc.lft.to/lastmile_qr_scan"}, "fusion_lon": 0.0, "lon": -77.05188866666667, "name": "522d9a5d97647813fcf2a0fee720c9e7", "is_reserved": 0, "is_disabled": 0}, {"lat": 38.885593, "fusion_lat": 0.0, "type": "electric_scooter", "bike_id": "c6670d61d65590e0549ead365dce63da", "rental_uris": {"ios": "https://dc.lft.to/lastmile_qr_scan", "android": "https://dc.lft.to/lastmile_qr_scan"}, "fusion_lon": 0.0, "lon": -77.02178966666666, "name": "c6670d61d65590e0549ead365dce63da", "is_reserved": 0, "is_disabled": 0}, {"lat": 38.911133166666666, "fusion_lat": 0.0, "type": "electric_scooter", "bike_id": "67eb7ebbf3010266e8c04917e3bf6976", "rental_uris": {"ios": "https://dc.lft.to/lastmile_qr_scan", "android": "https://dc.lft.to/lastmile_qr_scan"}, "fusion_lon": 0.0, "lon": -77.04085966666666, "name": "67eb7ebbf3010266e8c04917e3bf6976", "is_reserved": 0, "is_disabled": 0}, {"lat": 38.973756, "fusion_lat": 0.0, "type": "electric_scooter", "bike_id": "6e8b4db1ff85fa173e5b5adc13007346", "rental_uris": {"ios": "https://dc.lft.to/lastmile_qr_scan", "android": "https://dc.lft.to/lastmile_qr_scan"}, "fusion_lon": 0.0, "lon": -77.01267866666667, "name": "6e8b4db1ff85fa173e5b5adc13007346", "is_reserved": 0, "is_disabled": 0}, {"lat": 38.966072, "fusion_lat": 0.0, "type": "electric_scooter", "bike_id": "6273f40fc971e63e43f277dd667f6403", "rental_uris": {"ios": "https://dc.lft.to/lastmile_qr_scan", "android": "https://dc.lft.to/lastmile_qr_scan"}, "fusion_lon": 0.0, "lon": -77.02750533333334, "name": "6273f40fc971e63e43f277dd667f6403", "is_reserved": 0, "is_disabled": 0}, {"lat": 38.89303366666667, "fusion_lat": 0.0, "type": "electric_scooter", "bike_id": "31b8798742236c16d505d900a2e15570", "rental_uris": {"ios": "https://dc.lft.to/lastmile_qr_scan", "android": "https://dc.lft.to/lastmile_qr_scan"}, "fusion_lon": 0.0, "lon": -77.0122665, "name": "31b8798742236c16d505d900a2e15570", "is_reserved": 0, "is_disabled": 0}, {"lat": 38.90665633333333, "fusion_lat": 0.0, "type": "electric_scooter", "bike_id": "08b92739f0e50c72ee97e9dc863483fe", "rental_uris": {"ios": "https://dc.lft.to/lastmile_qr_scan", "android": "https://dc.lft.to/lastmile_qr_scan"}, "fusion_lon": 0.0, "lon": -76.9894025, "name": "08b92739f0e50c72ee97e9dc863483fe", "is_reserved": 0, "is_disabled": 0}, {"lat": 38.9353815, "fusion_lat": 0.0, "type": "electric_scooter", "bike_id": "8ae1b8dba1a94052cf566f437b81ded3", "rental_uris": {"ios": "https://dc.lft.to/lastmile_qr_scan", "android": "https://dc.lft.to/lastmile_qr_scan"}, "fusion_lon": 0.0, "lon": -77.05743233333334, "name": "8ae1b8dba1a94052cf566f437b81ded3", "is_reserved": 0, "is_disabled": 0}, {"lat": 38.992119333333335, "fusion_lat": 0.0, "type": "electric_bike", "bike_id": "364e210896e3f6c4b7d4816adb86c4d9", "rental_uris": {"ios": "https://dc.lft.to/lastmile_qr_scan", "android": "https://dc.lft.to/lastmile_qr_scan"}, "fusion_lon": 0.0, "lon": -77.03216683333333, "name": "364e210896e3f6c4b7d4816adb86c4d9", "is_reserved": 0, "is_disabled": 0}, {"lat": 38.837901333333335, "fusion_lat": 0.0, "type": "electric_scooter", "bike_id": "4a07255ab579fa71ce6ba6bd373956ca", "rental_uris": {"ios": "https://dc.lft.to/lastmile_qr_scan", "android": "https://dc.lft.to/lastmile_qr_scan"}, "fusion_lon": 0.0, "lon": -77.0052965, "name": "4a07255ab579fa71ce6ba6bd373956ca", "is_reserved": 0, "is_disabled": 0}, {"lat": 38.938474666666664, "fusion_lat": 0.0, "type": "electric_scooter", "bike_id": "1b32d9fee904b4d2222cd2dcac228901", "rental_uris": {"ios": "https://dc.lft.to/lastmile_qr_scan", "android": "https://dc.lft.to/lastmile_qr_scan"}, "fusion_lon": 0.0, "lon": -77.07229816666667, "name": "1b32d9fee904b4d2222cd2dcac228901", "is_reserved": 0, "is_disabled": 0}, {"lat": 38.9181255, "fusion_lat": 0.0, "type": "electric_scooter", "bike_id": "733c2e8f216d9ba08cc17a30c0827a0c", "rental_uris": {"ios": "https://dc.lft.to/lastmile_qr_scan", "android": "https://dc.lft.to/lastmile_qr_scan"}, "fusion_lon": 0.0, "lon": -77.035584, "name": "733c2e8f216d9ba08cc17a30c0827a0c", "is_reserved": 0, "is_disabled": 0}, {"lat": 38.9189335, "fusion_lat": 0.0, "type": "electric_scooter", "bike_id": "197afffb098abcf187d8171cbb088b5d", "rental_uris": {"ios": "https://dc.lft.to/lastmile_qr_scan", "android": "https://dc.lft.to/lastmile_qr_scan"}, "fusion_lon": 0.0, "lon": -77.02174833333333, "name": "197afffb098abcf187d8171cbb088b5d", "is_reserved": 0, "is_disabled": 0}, {"lat": 38.89214716666667, "fusion_lat": 0.0, "type": "electric_scooter", "bike_id": "712a56cbef3ccb0db205e699db14ebc6", "rental_uris": {"ios": "https://dc.lft.to/lastmile_qr_scan", "android": "https://dc.lft.to/lastmile_qr_scan"}, "fusion_lon": 0.0, "lon": -77.0265935, "name": "712a56cbef3ccb0db205e699db14ebc6", "is_reserved": 0, "is_disabled": 0}, {"lat": 38.92426533333333, "fusion_lat": 0.0, "type": "electric_scooter", "bike_id": "bf05d9435f2d397503d600cd1f2ab767", "rental_uris": {"ios": "https://dc.lft.to/lastmile_qr_scan", "android": "https://dc.lft.to/lastmile_qr_scan"}, "fusion_lon": 0.0, "lon": -77.02029183333333, "name": "bf05d9435f2d397503d600cd1f2ab767", "is_reserved": 0, "is_disabled": 0}, {"lat": 38.82780733333333, "fusion_lat": 0.0, "type": "electric_bike", "bike_id": "bddd1a1943edeb26c6e7fc4f664c9c45", "rental_uris": {"ios": "https://dc.lft.to/lastmile_qr_scan", "android": "https://dc.lft.to/lastmile_qr_scan"}, "fusion_lon": 0.0, "lon": -77.12483416666667, "name": "bddd1a1943edeb26c6e7fc4f664c9c45", "is_reserved": 0, "is_disabled": 0}, {"lat": 38.89222733333333, "fusion_lat": 0.0, "type": "electric_scooter", "bike_id": "129f2a2c4e2998b95239dc7afedb46a2", "rental_uris": {"ios": "https://dc.lft.to/lastmile_qr_scan", "android": "https://dc.lft.to/lastmile_qr_scan"}, "fusion_lon": 0.0, "lon": -77.0419175, "name": "129f2a2c4e2998b95239dc7afedb46a2", "is_reserved": 0, "is_disabled": 0}, {"lat": 38.921516833333335, "fusion_lat": 0.0, "type": "electric_scooter", "bike_id": "816c46e45c1d5d6a639cb7394ed9566c", "rental_uris": {"ios": "https://dc.lft.to/lastmile_qr_scan", "android": "https://dc.lft.to/lastmile_qr_scan"}, "fusion_lon": 0.0, "lon": -77.02091916666667, "name": "816c46e45c1d5d6a639cb7394ed9566c", "is_reserved": 0, "is_disabled": 0}, {"lat": 38.91120333333333, "fusion_lat": 0.0, "type": "electric_scooter", "bike_id": "65a68d47b2bd81f274dd2d1f65b88c91", "rental_uris": {"ios": "https://dc.lft.to/lastmile_qr_scan", "android": "https://dc.lft.to/lastmile_qr_scan"}, "fusion_lon": 0.0, "lon": -77.045289, "name": "65a68d47b2bd81f274dd2d1f65b88c91", "is_reserved": 0, "is_disabled": 0}, {"lat": 38.90607833333333, "fusion_lat": 0.0, "type": "electric_scooter", "bike_id": "7d8229d9d4dc2af444ba478ffcbb8bd2", "rental_uris": {"ios": "https://dc.lft.to/lastmile_qr_scan", "android": "https://dc.lft.to/lastmile_qr_scan"}, "fusion_lon": 0.0, "lon": -77.06376616666667, "name": "7d8229d9d4dc2af444ba478ffcbb8bd2", "is_reserved": 0, "is_disabled": 0}, {"lat": 38.906323, "fusion_lat": 0.0, "type": "electric_scooter", "bike_id": "61e0762295091e80826f98ec4ba28b37", "rental_uris": {"ios": "https://dc.lft.to/lastmile_qr_scan", "android": "https://dc.lft.to/lastmile_qr_scan"}, "fusion_lon": 0.0, "lon": -77.024994, "name": "61e0762295091e80826f98ec4ba28b37", "is_reserved": 0, "is_disabled": 0}, {"lat": 38.923292833333335, "fusion_lat": 0.0, "type": "electric_scooter", "bike_id": "9708ffd0a0e8420350f7865bed411bb2", "rental_uris": {"ios": "https://dc.lft.to/lastmile_qr_scan", "android": "https://dc.lft.to/lastmile_qr_scan"}, "fusion_lon": 0.0, "lon": -77.05681516666667, "name": "9708ffd0a0e8420350f7865bed411bb2", "is_reserved": 0, "is_disabled": 0}, {"lat": 38.91876966666667, "fusion_lat": 0.0, "type": "electric_scooter", "bike_id": "c56fde28a4b07149ca678f734ce5013a", "rental_uris": {"ios": "https://dc.lft.to/lastmile_qr_scan", "android": "https://dc.lft.to/lastmile_qr_scan"}, "fusion_lon": 0.0, "lon": -77.0419745, "name": "c56fde28a4b07149ca678f734ce5013a", "is_reserved": 0, "is_disabled": 0}, {"lat": 38.926516, "fusion_lat": 0.0, "type": "electric_scooter", "bike_id": "48228efdec0ab3d10d86a51ccfab2f19", "rental_uris": {"ios": "https://dc.lft.to/lastmile_qr_scan", "android": "https://dc.lft.to/lastmile_qr_scan"}, "fusion_lon": 0.0, "lon": -77.037253, "name": "48228efdec0ab3d10d86a51ccfab2f19", "is_reserved": 0, "is_disabled": 0}, {"lat": 38.923031, "fusion_lat": 0.0, "type": "electric_scooter", "bike_id": "3271ecce21fd9260074b6fbd53bbafd4", "rental_uris": {"ios": "https://dc.lft.to/lastmile_qr_scan", "android": "https://dc.lft.to/lastmile_qr_scan"}, "fusion_lon": 0.0, "lon": -77.04112583333334, "name": "3271ecce21fd9260074b6fbd53bbafd4", "is_reserved": 0, "is_disabled": 0}, {"lat": 38.91797416666667, "fusion_lat": 0.0, "type": "electric_scooter", "bike_id": "64ece8c7313d8f42215f7f9bff627585", "rental_uris": {"ios": "https://dc.lft.to/lastmile_qr_scan", "android": "https://dc.lft.to/lastmile_qr_scan"}, "fusion_lon": 0.0, "lon": -77.03170333333334, "name": "64ece8c7313d8f42215f7f9bff627585", "is_reserved": 0, "is_disabled": 0}, {"lat": 38.87190233333333, "fusion_lat": 0.0, "type": "electric_scooter", "bike_id": "c54763ccbc2b9a600662cd965964b4a1", "rental_uris": {"ios": "https://dc.lft.to/lastmile_qr_scan", "android": "https://dc.lft.to/lastmile_qr_scan"}, "fusion_lon": 0.0, "lon": -77.01370166666666, "name": "c54763ccbc2b9a600662cd965964b4a1", "is_reserved": 0, "is_disabled": 0}, {"lat": 38.915068166666664, "fusion_lat": 0.0, "type": "electric_scooter", "bike_id": "52684df92181a7d5a7f991a881185de2", "rental_uris": {"ios": "https://dc.lft.to/lastmile_qr_scan", "android": "https://dc.lft.to/lastmile_qr_scan"}, "fusion_lon": 0.0, "lon": -77.0156255, "name": "52684df92181a7d5a7f991a881185de2", "is_reserved": 0, "is_disabled": 0}, {"lat": 38.90245, "fusion_lat": 0.0, "type": "electric_scooter", "bike_id": "fb517cba0ae059160f4a36be9599f151", "rental_uris": {"ios": "https://dc.lft.to/lastmile_qr_scan", "android": "https://dc.lft.to/lastmile_qr_scan"}, "fusion_lon": 0.0, "lon": -77.03633283333333, "name": "fb517cba0ae059160f4a36be9599f151", "is_reserved": 0, "is_disabled": 0}, {"lat": 38.924752166666664, "fusion_lat": 0.0, "type": "electric_scooter", "bike_id": "3a55ca08cb446fef762bff41d79154ee", "rental_uris": {"ios": "https://dc.lft.to/lastmile_qr_scan", "android": "https://dc.lft.to/lastmile_qr_scan"}, "fusion_lon": 0.0, "lon": -77.052353, "name": "3a55ca08cb446fef762bff41d79154ee", "is_reserved": 0, "is_disabled": 0}, {"lat": 38.887673166666666, "fusion_lat": 0.0, "type": "electric_scooter", "bike_id": "fb4a2528a295127924e9e495f768a6e2", "rental_uris": {"ios": "https://dc.lft.to/lastmile_qr_scan", "android": "https://dc.lft.to/lastmile_qr_scan"}, "fusion_lon": 0.0, "lon": -77.013019, "name": "fb4a2528a295127924e9e495f768a6e2", "is_reserved": 0, "is_disabled": 0}, {"lat": 38.876183166666664, "fusion_lat": 0.0, "type": "electric_scooter", "bike_id": "82a52ac30aab4bcfdf963ef53670ab09", "rental_uris": {"ios": "https://dc.lft.to/lastmile_qr_scan", "android": "https://dc.lft.to/lastmile_qr_scan"}, "fusion_lon": 0.0, "lon": -76.96547666666666, "name": "82a52ac30aab4bcfdf963ef53670ab09", "is_reserved": 0, "is_disabled": 0}, {"lat": 38.9259225, "fusion_lat": 0.0, "type": "electric_bike", "bike_id": "6eb5f9148950664df1e2649eedeced2e", "rental_uris": {"ios": "https://dc.lft.to/lastmile_qr_scan", "android": "https://dc.lft.to/lastmile_qr_scan"}, "fusion_lon": 0.0, "lon": -77.210039, "name": "6eb5f9148950664df1e2649eedeced2e", "is_reserved": 0, "is_disabled": 0}, {"lat": 38.904226, "fusion_lat": 0.0, "type": "electric_scooter", "bike_id": "2a2b38f537bfa9c0a5a0ecf8b3ee931f", "rental_uris": {"ios": "https://dc.lft.to/lastmile_qr_scan", "android": "https://dc.lft.to/lastmile_qr_scan"}, "fusion_lon": 0.0, "lon": -76.9994065, "name": "2a2b38f537bfa9c0a5a0ecf8b3ee931f", "is_reserved": 0, "is_disabled": 0}, {"lat": 38.91585366666666, "fusion_lat": 0.0, "type": "electric_scooter", "bike_id": "956c5e5a3c012c79be7a55e7406ddefb", "rental_uris": {"ios": "https://dc.lft.to/lastmile_qr_scan", "android": "https://dc.lft.to/lastmile_qr_scan"}, "fusion_lon": 0.0, "lon": -77.01720433333334, "name": "956c5e5a3c012c79be7a55e7406ddefb", "is_reserved": 0, "is_disabled": 0}, {"lat": 38.898801, "fusion_lat": 0.0, "type": "electric_scooter", "bike_id": "fb7ba89905d36a2cb8717e7a4718d934", "rental_uris": {"ios": "https://dc.lft.to/lastmile_qr_scan", "android": "https://dc.lft.to/lastmile_qr_scan"}, "fusion_lon": 0.0, "lon": -77.00833183333333, "name": "fb7ba89905d36a2cb8717e7a4718d934", "is_reserved": 0, "is_disabled": 0}, {"lat": 38.89234066666667, "fusion_lat": 0.0, "type": "electric_scooter", "bike_id": "8d4f75e4df1a395c46e5c9a235b03492", "rental_uris": {"ios": "https://dc.lft.to/lastmile_qr_scan", "android": "https://dc.lft.to/lastmile_qr_scan"}, "fusion_lon": 0.0, "lon": -77.05000583333333, "name": "8d4f75e4df1a395c46e5c9a235b03492", "is_reserved": 0, "is_disabled": 0}, {"lat": 38.83158383333333, "fusion_lat": 0.0, "type": "electric_bike", "bike_id": "38183304dc8746208af05152b15ed078", "rental_uris": {"ios": "https://dc.lft.to/lastmile_qr_scan", "android": "https://dc.lft.to/lastmile_qr_scan"}, "fusion_lon": 0.0, "lon": -76.99569716666667, "name": "38183304dc8746208af05152b15ed078", "is_reserved": 0, "is_disabled": 0}, {"lat": 38.92120533333333, "fusion_lat": 0.0, "type": "electric_scooter", "bike_id": "3a75fea44b70de6efa90f98f4af496e8", "rental_uris": {"ios": "https://dc.lft.to/lastmile_qr_scan", "android": "https://dc.lft.to/lastmile_qr_scan"}, "fusion_lon": 0.0, "lon": -77.01206583333334, "name": "3a75fea44b70de6efa90f98f4af496e8", "is_reserved": 0, "is_disabled": 0}, {"lat": 38.88559166666667, "fusion_lat": 0.0, "type": "electric_scooter", "bike_id": "a7848fe1c0873328fc080cd895fde509", "rental_uris": {"ios": "https://dc.lft.to/lastmile_qr_scan", "android": "https://dc.lft.to/lastmile_qr_scan"}, "fusion_lon": 0.0, "lon": -76.99806533333333, "name": "a7848fe1c0873328fc080cd895fde509", "is_reserved": 0, "is_disabled": 0}, {"lat": 38.87387983333333, "fusion_lat": 0.0, "type": "electric_scooter", "bike_id": "9e6175e4f23b5fd2748f3fdbc5cb7efe", "rental_uris": {"ios": "https://dc.lft.to/lastmile_qr_scan", "android": "https://dc.lft.to/lastmile_qr_scan"}, "fusion_lon": 0.0, "lon": -77.00210133333333, "name": "9e6175e4f23b5fd2748f3fdbc5cb7efe", "is_reserved": 0, "is_disabled": 0}, {"lat": 38.91599, "fusion_lat": 0.0, "type": "electric_scooter", "bike_id": "75d246e9adf87dc5e310e7b4d1c5f7aa", "rental_uris": {"ios": "https://dc.lft.to/lastmile_qr_scan", "android": "https://dc.lft.to/lastmile_qr_scan"}, "fusion_lon": 0.0, "lon": -77.04905966666666, "name": "75d246e9adf87dc5e310e7b4d1c5f7aa", "is_reserved": 0, "is_disabled": 0}, {"lat": 38.88208566666667, "fusion_lat": 0.0, "type": "electric_scooter", "bike_id": "66482ad3144d92b492cf111b1e332ae3", "rental_uris": {"ios": "https://dc.lft.to/lastmile_qr_scan", "android": "https://dc.lft.to/lastmile_qr_scan"}, "fusion_lon": 0.0, "lon": -77.01741333333334, "name": "66482ad3144d92b492cf111b1e332ae3", "is_reserved": 0, "is_disabled": 0}, {"lat": 38.9234075, "fusion_lat": 0.0, "type": "electric_scooter", "bike_id": "5a74304f146462c167b721779dcf35d8", "rental_uris": {"ios": "https://dc.lft.to/lastmile_qr_scan", "android": "https://dc.lft.to/lastmile_qr_scan"}, "fusion_lon": 0.0, "lon": -77.051705, "name": "5a74304f146462c167b721779dcf35d8", "is_reserved": 0, "is_disabled": 0}, {"lat": 38.9019655, "fusion_lat": 0.0, "type": "electric_scooter", "bike_id": "bd6e32bbed54061328aa8d56ae8f9994", "rental_uris": {"ios": "https://dc.lft.to/lastmile_qr_scan", "android": "https://dc.lft.to/lastmile_qr_scan"}, "fusion_lon": 0.0, "lon": -77.02374, "name": "bd6e32bbed54061328aa8d56ae8f9994", "is_reserved": 0, "is_disabled": 0}, {"lat": 38.920290333333334, "fusion_lat": 0.0, "type": "electric_scooter", "bike_id": "dad6b61b7db7b9dee0a716239898ebf2", "rental_uris": {"ios": "https://dc.lft.to/lastmile_qr_scan", "android": "https://dc.lft.to/lastmile_qr_scan"}, "fusion_lon": 0.0, "lon": -77.0715745, "name": "dad6b61b7db7b9dee0a716239898ebf2", "is_reserved": 0, "is_disabled": 0}, {"lat": 38.922235, "fusion_lat": 0.0, "type": "electric_scooter", "bike_id": "5e869458d35e77801f4cde5642f81b95", "rental_uris": {"ios": "https://dc.lft.to/lastmile_qr_scan", "android": "https://dc.lft.to/lastmile_qr_scan"}, "fusion_lon": 0.0, "lon": -77.04399616666667, "name": "5e869458d35e77801f4cde5642f81b95", "is_reserved": 0, "is_disabled": 0}, {"lat": 38.92580516666666, "fusion_lat": 0.0, "type": "electric_scooter", "bike_id": "71bb5fc2fab6dc1c327984525c9c01d3", "rental_uris": {"ios": "https://dc.lft.to/lastmile_qr_scan", "android": "https://dc.lft.to/lastmile_qr_scan"}, "fusion_lon": 0.0, "lon": -77.09689616666667, "name": "71bb5fc2fab6dc1c327984525c9c01d3", "is_reserved": 0, "is_disabled": 0}, {"lat": 38.911809833333336, "fusion_lat": 0.0, "type": "electric_scooter", "bike_id": "f1a97b654f4e11433e52c6dfb073b184", "rental_uris": {"ios": "https://dc.lft.to/lastmile_qr_scan", "android": "https://dc.lft.to/lastmile_qr_scan"}, "fusion_lon": 0.0, "lon": -77.03501266666666, "name": "f1a97b654f4e11433e52c6dfb073b184", "is_reserved": 0, "is_disabled": 0}, {"lat": 38.8921965, "fusion_lat": 0.0, "type": "electric_scooter", "bike_id": "7f384b6fca5a9c7634210bafadb9bb43", "rental_uris": {"ios": "https://dc.lft.to/lastmile_qr_scan", "android": "https://dc.lft.to/lastmile_qr_scan"}, "fusion_lon": 0.0, "lon": -77.02777533333334, "name": "7f384b6fca5a9c7634210bafadb9bb43", "is_reserved": 0, "is_disabled": 0}, {"lat": 38.917228, "fusion_lat": 0.0, "type": "electric_scooter", "bike_id": "d83d2dfc62f54c77b9a3de6f9ac0026b", "rental_uris": {"ios": "https://dc.lft.to/lastmile_qr_scan", "android": "https://dc.lft.to/lastmile_qr_scan"}, "fusion_lon": 0.0, "lon": -77.02586316666667, "name": "d83d2dfc62f54c77b9a3de6f9ac0026b", "is_reserved": 0, "is_disabled": 0}, {"lat": 38.89937233333333, "fusion_lat": 0.0, "type": "electric_scooter", "bike_id": "d992fa12768469b4be4fd094fcdde42e", "rental_uris": {"ios": "https://dc.lft.to/lastmile_qr_scan", "android": "https://dc.lft.to/lastmile_qr_scan"}, "fusion_lon": 0.0, "lon": -77.04155566666667, "name": "d992fa12768469b4be4fd094fcdde42e", "is_reserved": 0, "is_disabled": 0}, {"lat": 38.910597, "fusion_lat": 0.0, "type": "electric_scooter", "bike_id": "b5f03872f25399bd9de380344b41e64f", "rental_uris": {"ios": "https://dc.lft.to/lastmile_qr_scan", "android": "https://dc.lft.to/lastmile_qr_scan"}, "fusion_lon": 0.0, "lon": -77.03427133333334, "name": "b5f03872f25399bd9de380344b41e64f", "is_reserved": 0, "is_disabled": 0}, {"lat": 38.90545616666667, "fusion_lat": 0.0, "type": "electric_scooter", "bike_id": "031dab0c72b59f886306867d0557d050", "rental_uris": {"ios": "https://dc.lft.to/lastmile_qr_scan", "android": "https://dc.lft.to/lastmile_qr_scan"}, "fusion_lon": 0.0, "lon": -77.02974316666666, "name": "031dab0c72b59f886306867d0557d050", "is_reserved": 0, "is_disabled": 0}, {"lat": 38.8968365, "fusion_lat": 0.0, "type": "electric_scooter", "bike_id": "ea7145272f6c63291ba9db2733f3f0b5", "rental_uris": {"ios": "https://dc.lft.to/lastmile_qr_scan", "android": "https://dc.lft.to/lastmile_qr_scan"}, "fusion_lon": 0.0, "lon": -76.937101, "name": "ea7145272f6c63291ba9db2733f3f0b5", "is_reserved": 0, "is_disabled": 0}, {"lat": 38.90273533333333, "fusion_lat": 0.0, "type": "electric_scooter", "bike_id": "9f881ad0f3e2da6ad51e178d4ab5dfd6", "rental_uris": {"ios": "https://dc.lft.to/lastmile_qr_scan", "android": "https://dc.lft.to/lastmile_qr_scan"}, "fusion_lon": 0.0, "lon": -77.04687066666666, "name": "9f881ad0f3e2da6ad51e178d4ab5dfd6", "is_reserved": 0, "is_disabled": 0}, {"lat": 38.923518, "fusion_lat": 0.0, "type": "electric_scooter", "bike_id": "dc8202ecd129083df6555355766190f2", "rental_uris": {"ios": "https://dc.lft.to/lastmile_qr_scan", "android": "https://dc.lft.to/lastmile_qr_scan"}, "fusion_lon": 0.0, "lon": -77.00329666666667, "name": "dc8202ecd129083df6555355766190f2", "is_reserved": 0, "is_disabled": 0}, {"lat": 38.950544666666666, "fusion_lat": 0.0, "type": "electric_scooter", "bike_id": "58fc8d927c708eb6f519851e6b61ee61", "rental_uris": {"ios": "https://dc.lft.to/lastmile_qr_scan", "android": "https://dc.lft.to/lastmile_qr_scan"}, "fusion_lon": 0.0, "lon": -77.080228, "name": "58fc8d927c708eb6f519851e6b61ee61", "is_reserved": 0, "is_disabled": 0}, {"lat": 38.87577533333334, "fusion_lat": 0.0, "type": "electric_bike", "bike_id": "7ae592015c4eb967716e44d326761bc6", "rental_uris": {"ios": "https://dc.lft.to/lastmile_qr_scan", "android": "https://dc.lft.to/lastmile_qr_scan"}, "fusion_lon": 0.0, "lon": -77.23408166666667, "name": "7ae592015c4eb967716e44d326761bc6", "is_reserved": 0, "is_disabled": 0}, {"lat": 38.91805433333333, "fusion_lat": 0.0, "type": "electric_scooter", "bike_id": "e4fd0dddd11ae3e3f22010102ffee19d", "rental_uris": {"ios": "https://dc.lft.to/lastmile_qr_scan", "android": "https://dc.lft.to/lastmile_qr_scan"}, "fusion_lon": 0.0, "lon": -77.02486016666667, "name": "e4fd0dddd11ae3e3f22010102ffee19d", "is_reserved": 0, "is_disabled": 0}, {"lat": 38.9344715, "fusion_lat": 0.0, "type": "electric_scooter", "bike_id": "aa1c4bd971561235161d17c739ab826b", "rental_uris": {"ios": "https://dc.lft.to/lastmile_qr_scan", "android": "https://dc.lft.to/lastmile_qr_scan"}, "fusion_lon": 0.0, "lon": -77.0905865, "name": "aa1c4bd971561235161d17c739ab826b", "is_reserved": 0, "is_disabled": 0}, {"lat": 38.9175335, "fusion_lat": 0.0, "type": "electric_scooter", "bike_id": "eccdda1613d44677d7015039f7063f7e", "rental_uris": {"ios": "https://dc.lft.to/lastmile_qr_scan", "android": "https://dc.lft.to/lastmile_qr_scan"}, "fusion_lon": 0.0, "lon": -77.03642833333333, "name": "eccdda1613d44677d7015039f7063f7e", "is_reserved": 0, "is_disabled": 0}, {"lat": 38.899015166666665, "fusion_lat": 0.0, "type": "electric_scooter", "bike_id": "05b0edd82fa802bd307e8ea85f5dd5ff", "rental_uris": {"ios": "https://dc.lft.to/lastmile_qr_scan", "android": "https://dc.lft.to/lastmile_qr_scan"}, "fusion_lon": 0.0, "lon": -76.99952316666666, "name": "05b0edd82fa802bd307e8ea85f5dd5ff", "is_reserved": 0, "is_disabled": 0}, {"lat": 38.9152515, "fusion_lat": 0.0, "type": "electric_scooter", "bike_id": "41c26af5c133ab35fcaf5102b7227061", "rental_uris": {"ios": "https://dc.lft.to/lastmile_qr_scan", "android": "https://dc.lft.to/lastmile_qr_scan"}, "fusion_lon": 0.0, "lon": -77.048628, "name": "41c26af5c133ab35fcaf5102b7227061", "is_reserved": 0, "is_disabled": 0}, {"lat": 38.927035000000004, "fusion_lat": 0.0, "type": "electric_scooter", "bike_id": "455e521acfed7025756d208c7d93da2b", "rental_uris": {"ios": "https://dc.lft.to/lastmile_qr_scan", "android": "https://dc.lft.to/lastmile_qr_scan"}, "fusion_lon": 0.0, "lon": -76.99760716666667, "name": "455e521acfed7025756d208c7d93da2b", "is_reserved": 0, "is_disabled": 0}, {"lat": 38.9181565, "fusion_lat": 0.0, "type": "electric_scooter", "bike_id": "66a4042e94e8f23a83121c3b2eea5d0d", "rental_uris": {"ios": "https://dc.lft.to/lastmile_qr_scan", "android": "https://dc.lft.to/lastmile_qr_scan"}, "fusion_lon": 0.0, "lon": -77.03563066666666, "name": "66a4042e94e8f23a83121c3b2eea5d0d", "is_reserved": 0, "is_disabled": 0}, {"lat": 38.9326245, "fusion_lat": 0.0, "type": "electric_scooter", "bike_id": "851842aaf3abd44e3a86b7026b989167", "rental_uris": {"ios": "https://dc.lft.to/lastmile_qr_scan", "android": "https://dc.lft.to/lastmile_qr_scan"}, "fusion_lon": 0.0, "lon": -77.0208755, "name": "851842aaf3abd44e3a86b7026b989167", "is_reserved": 0, "is_disabled": 0}, {"lat": 38.91132666666667, "fusion_lat": 0.0, "type": "electric_scooter", "bike_id": "03ce79923b62bfb9393da6a36dc00d96", "rental_uris": {"ios": "https://dc.lft.to/lastmile_qr_scan", "android": "https://dc.lft.to/lastmile_qr_scan"}, "fusion_lon": 0.0, "lon": -77.02813716666667, "name": "03ce79923b62bfb9393da6a36dc00d96", "is_reserved": 0, "is_disabled": 0}, {"lat": 38.906661666666665, "fusion_lat": 0.0, "type": "electric_bike", "bike_id": "c48068f14d55b906d5251027f0281f09", "rental_uris": {"ios": "https://dc.lft.to/lastmile_qr_scan", "android": "https://dc.lft.to/lastmile_qr_scan"}, "fusion_lon": 0.0, "lon": -77.03520083333333, "name": "c48068f14d55b906d5251027f0281f09", "is_reserved": 0, "is_disabled": 0}, {"lat": 38.899671166666664, "fusion_lat": 0.0, "type": "electric_scooter", "bike_id": "8cf173237a5eb5eed28bc85c236598a9", "rental_uris": {"ios": "https://dc.lft.to/lastmile_qr_scan", "android": "https://dc.lft.to/lastmile_qr_scan"}, "fusion_lon": 0.0, "lon": -77.02138583333333, "name": "8cf173237a5eb5eed28bc85c236598a9", "is_reserved": 0, "is_disabled": 0}, {"lat": 38.9085115, "fusion_lat": 0.0, "type": "electric_scooter", "bike_id": "2da279c2f12a05895b30a0af3ed42a92", "rental_uris": {"ios": "https://dc.lft.to/lastmile_qr_scan", "android": "https://dc.lft.to/lastmile_qr_scan"}, "fusion_lon": 0.0, "lon": -77.0402725, "name": "2da279c2f12a05895b30a0af3ed42a92", "is_reserved": 0, "is_disabled": 0}, {"lat": 38.9094345, "fusion_lat": 0.0, "type": "electric_scooter", "bike_id": "a68ce3576e088c8bc9852288e0d441e5", "rental_uris": {"ios": "https://dc.lft.to/lastmile_qr_scan", "android": "https://dc.lft.to/lastmile_qr_scan"}, "fusion_lon": 0.0, "lon": -77.03449183333333, "name": "a68ce3576e088c8bc9852288e0d441e5", "is_reserved": 0, "is_disabled": 0}, {"lat": 38.90729683333333, "fusion_lat": 0.0, "type": "electric_scooter", "bike_id": "0c5819cb9f26e4f24b91b2d6c2f91bed", "rental_uris": {"ios": "https://dc.lft.to/lastmile_qr_scan", "android": "https://dc.lft.to/lastmile_qr_scan"}, "fusion_lon": 0.0, "lon": -77.04327333333333, "name": "0c5819cb9f26e4f24b91b2d6c2f91bed", "is_reserved": 0, "is_disabled": 0}, {"lat": 38.927518, "fusion_lat": 0.0, "type": "electric_scooter", "bike_id": "e2ef996b68c38e1a2b7a84ba0fc59e14", "rental_uris": {"ios": "https://dc.lft.to/lastmile_qr_scan", "android": "https://dc.lft.to/lastmile_qr_scan"}, "fusion_lon": 0.0, "lon": -77.033512, "name": "e2ef996b68c38e1a2b7a84ba0fc59e14", "is_reserved": 0, "is_disabled": 0}, {"lat": 38.916851, "fusion_lat": 0.0, "type": "electric_scooter", "bike_id": "ecb6cb83338474e6e3f74fbb5251a5c8", "rental_uris": {"ios": "https://dc.lft.to/lastmile_qr_scan", "android": "https://dc.lft.to/lastmile_qr_scan"}, "fusion_lon": 0.0, "lon": -77.02948716666667, "name": "ecb6cb83338474e6e3f74fbb5251a5c8", "is_reserved": 0, "is_disabled": 0}, {"lat": 38.94653383333333, "fusion_lat": 0.0, "type": "electric_scooter", "bike_id": "cb29ef184b08eaef5a4e3c9d87687e8c", "rental_uris": {"ios": "https://dc.lft.to/lastmile_qr_scan", "android": "https://dc.lft.to/lastmile_qr_scan"}, "fusion_lon": 0.0, "lon": -77.029739, "name": "cb29ef184b08eaef5a4e3c9d87687e8c", "is_reserved": 0, "is_disabled": 0}, {"lat": 38.924421333333335, "fusion_lat": 0.0, "type": "electric_scooter", "bike_id": "81ba649050f8977b41b941eb798ac345", "rental_uris": {"ios": "https://dc.lft.to/lastmile_qr_scan", "android": "https://dc.lft.to/lastmile_qr_scan"}, "fusion_lon": 0.0, "lon": -77.02025216666667, "name": "81ba649050f8977b41b941eb798ac345", "is_reserved": 0, "is_disabled": 0}, {"lat": 38.892333666666666, "fusion_lat": 0.0, "type": "electric_scooter", "bike_id": "708e2c7530bf362fbe7aac13d8e1ee24", "rental_uris": {"ios": "https://dc.lft.to/lastmile_qr_scan", "android": "https://dc.lft.to/lastmile_qr_scan"}, "fusion_lon": 0.0, "lon": -77.048732, "name": "708e2c7530bf362fbe7aac13d8e1ee24", "is_reserved": 0, "is_disabled": 0}, {"lat": 38.89481166666667, "fusion_lat": 0.0, "type": "electric_scooter", "bike_id": "61ad442e6a91a4efed1df1ba60241fa8", "rental_uris": {"ios": "https://dc.lft.to/lastmile_qr_scan", "android": "https://dc.lft.to/lastmile_qr_scan"}, "fusion_lon": 0.0, "lon": -77.01070966666667, "name": "61ad442e6a91a4efed1df1ba60241fa8", "is_reserved": 0, "is_disabled": 0}, {"lat": 38.897955833333334, "fusion_lat": 0.0, "type": "electric_scooter", "bike_id": "e5c73a653b06a99154d510c0f9541f47", "rental_uris": {"ios": "https://dc.lft.to/lastmile_qr_scan", "android": "https://dc.lft.to/lastmile_qr_scan"}, "fusion_lon": 0.0, "lon": -77.011935, "name": "e5c73a653b06a99154d510c0f9541f47", "is_reserved": 0, "is_disabled": 0}, {"lat": 38.92438033333333, "fusion_lat": 0.0, "type": "electric_scooter", "bike_id": "a038118d9a3c8d74aee76be6b6ec0610", "rental_uris": {"ios": "https://dc.lft.to/lastmile_qr_scan", "android": "https://dc.lft.to/lastmile_qr_scan"}, "fusion_lon": 0.0, "lon": -77.05205716666667, "name": "a038118d9a3c8d74aee76be6b6ec0610", "is_reserved": 0, "is_disabled": 0}, {"lat": 38.91555866666667, "fusion_lat": 0.0, "type": "electric_scooter", "bike_id": "f5589a638f5ba3e9f203d2bbb2760f65", "rental_uris": {"ios": "https://dc.lft.to/lastmile_qr_scan", "android": "https://dc.lft.to/lastmile_qr_scan"}, "fusion_lon": 0.0, "lon": -77.00585033333333, "name": "f5589a638f5ba3e9f203d2bbb2760f65", "is_reserved": 0, "is_disabled": 0}, {"lat": 38.90602833333333, "fusion_lat": 0.0, "type": "electric_scooter", "bike_id": "038eb48dd0bc80bfbff34492805f662b", "rental_uris": {"ios": "https://dc.lft.to/lastmile_qr_scan", "android": "https://dc.lft.to/lastmile_qr_scan"}, "fusion_lon": 0.0, "lon": -77.04021316666666, "name": "038eb48dd0bc80bfbff34492805f662b", "is_reserved": 0, "is_disabled": 0}, {"lat": 38.91360866666667, "fusion_lat": 0.0, "type": "electric_scooter", "bike_id": "87f18734cab0d43348b8a48a93735ac7", "rental_uris": {"ios": "https://dc.lft.to/lastmile_qr_scan", "android": "https://dc.lft.to/lastmile_qr_scan"}, "fusion_lon": 0.0, "lon": -77.019955, "name": "87f18734cab0d43348b8a48a93735ac7", "is_reserved": 0, "is_disabled": 0}, {"lat": 38.920882, "fusion_lat": 0.0, "type": "electric_scooter", "bike_id": "fa302c185d0e1902e4769ee598f96eb6", "rental_uris": {"ios": "https://dc.lft.to/lastmile_qr_scan", "android": "https://dc.lft.to/lastmile_qr_scan"}, "fusion_lon": 0.0, "lon": -76.99482533333334, "name": "fa302c185d0e1902e4769ee598f96eb6", "is_reserved": 0, "is_disabled": 0}, {"lat": 38.90953666666667, "fusion_lat": 0.0, "type": "electric_scooter", "bike_id": "06ebd82fc9ad2085e2fece8eefdbb385", "rental_uris": {"ios": "https://dc.lft.to/lastmile_qr_scan", "android": "https://dc.lft.to/lastmile_qr_scan"}, "fusion_lon": 0.0, "lon": -77.04473666666667, "name": "06ebd82fc9ad2085e2fece8eefdbb385", "is_reserved": 0, "is_disabled": 0}, {"lat": 38.926008833333334, "fusion_lat": 0.0, "type": "electric_scooter", "bike_id": "41184daf1ad2c371cc62a4d739c9c39e", "rental_uris": {"ios": "https://dc.lft.to/lastmile_qr_scan", "android": "https://dc.lft.to/lastmile_qr_scan"}, "fusion_lon": 0.0, "lon": -77.02152283333334, "name": "41184daf1ad2c371cc62a4d739c9c39e", "is_reserved": 0, "is_disabled": 0}, {"lat": 38.92725766666667, "fusion_lat": 0.0, "type": "electric_scooter", "bike_id": "81df4966a609aebe6570d9c9bd0737a7", "rental_uris": {"ios": "https://dc.lft.to/lastmile_qr_scan", "android": "https://dc.lft.to/lastmile_qr_scan"}, "fusion_lon": 0.0, "lon": -77.02299666666667, "name": "81df4966a609aebe6570d9c9bd0737a7", "is_reserved": 0, "is_disabled": 0}, {"lat": 38.9100235, "fusion_lat": 0.0, "type": "electric_scooter", "bike_id": "6434b252a5d0523e97fe534d264b1818", "rental_uris": {"ios": "https://dc.lft.to/lastmile_qr_scan", "android": "https://dc.lft.to/lastmile_qr_scan"}, "fusion_lon": 0.0, "lon": -77.0345135, "name": "6434b252a5d0523e97fe534d264b1818", "is_reserved": 0, "is_disabled": 0}, {"lat": 38.894837333333335, "fusion_lat": 0.0, "type": "electric_scooter", "bike_id": "b91855dfab72ab7cae954543ce194d3b", "rental_uris": {"ios": "https://dc.lft.to/lastmile_qr_scan", "android": "https://dc.lft.to/lastmile_qr_scan"}, "fusion_lon": 0.0, "lon": -77.00223633333333, "name": "b91855dfab72ab7cae954543ce194d3b", "is_reserved": 0, "is_disabled": 0}, {"lat": 38.9053745, "fusion_lat": 0.0, "type": "electric_scooter", "bike_id": "0eeb9bcd51cbcd763558dab9cf736155", "rental_uris": {"ios": "https://dc.lft.to/lastmile_qr_scan", "android": "https://dc.lft.to/lastmile_qr_scan"}, "fusion_lon": 0.0, "lon": -77.006825, "name": "0eeb9bcd51cbcd763558dab9cf736155", "is_reserved": 0, "is_disabled": 0}, {"lat": 38.896003666666665, "fusion_lat": 0.0, "type": "electric_scooter", "bike_id": "c9a0d183674bb04b9a26b0818580c932", "rental_uris": {"ios": "https://dc.lft.to/lastmile_qr_scan", "android": "https://dc.lft.to/lastmile_qr_scan"}, "fusion_lon": 0.0, "lon": -77.01329616666666, "name": "c9a0d183674bb04b9a26b0818580c932", "is_reserved": 0, "is_disabled": 0}, {"lat": 38.90927033333333, "fusion_lat": 0.0, "type": "electric_scooter", "bike_id": "3bf17edacfe404658f6f686b32d933f3", "rental_uris": {"ios": "https://dc.lft.to/lastmile_qr_scan", "android": "https://dc.lft.to/lastmile_qr_scan"}, "fusion_lon": 0.0, "lon": -76.99960983333334, "name": "3bf17edacfe404658f6f686b32d933f3", "is_reserved": 0, "is_disabled": 0}, {"lat": 38.893587333333336, "fusion_lat": 0.0, "type": "electric_scooter", "bike_id": "3523b48a5f48f9080fe88cfbd1d7380c", "rental_uris": {"ios": "https://dc.lft.to/lastmile_qr_scan", "android": "https://dc.lft.to/lastmile_qr_scan"}, "fusion_lon": 0.0, "lon": -77.00332, "name": "3523b48a5f48f9080fe88cfbd1d7380c", "is_reserved": 0, "is_disabled": 0}, {"lat": 38.922323, "fusion_lat": 0.0, "type": "electric_scooter", "bike_id": "dd41354e0bdd81d4e65a94d8dfcc308d", "rental_uris": {"ios": "https://dc.lft.to/lastmile_qr_scan", "android": "https://dc.lft.to/lastmile_qr_scan"}, "fusion_lon": 0.0, "lon": -77.0728175, "name": "dd41354e0bdd81d4e65a94d8dfcc308d", "is_reserved": 0, "is_disabled": 0}, {"lat": 38.900623833333334, "fusion_lat": 0.0, "type": "electric_scooter", "bike_id": "99af6a866ecc90adf2822c3cc0fb64e3", "rental_uris": {"ios": "https://dc.lft.to/lastmile_qr_scan", "android": "https://dc.lft.to/lastmile_qr_scan"}, "fusion_lon": 0.0, "lon": -77.0453795, "name": "99af6a866ecc90adf2822c3cc0fb64e3", "is_reserved": 0, "is_disabled": 0}, {"lat": 38.930675, "fusion_lat": 0.0, "type": "electric_scooter", "bike_id": "9210903f7049f331ee04ea898a996c73", "rental_uris": {"ios": "https://dc.lft.to/lastmile_qr_scan", "android": "https://dc.lft.to/lastmile_qr_scan"}, "fusion_lon": 0.0, "lon": -77.036536, "name": "9210903f7049f331ee04ea898a996c73", "is_reserved": 0, "is_disabled": 0}, {"lat": 38.89934233333334, "fusion_lat": 0.0, "type": "electric_scooter", "bike_id": "4086f95d520f354afb3b308acf493fce", "rental_uris": {"ios": "https://dc.lft.to/lastmile_qr_scan", "android": "https://dc.lft.to/lastmile_qr_scan"}, "fusion_lon": 0.0, "lon": -77.0161485, "name": "4086f95d520f354afb3b308acf493fce", "is_reserved": 0, "is_disabled": 0}, {"lat": 38.91168733333333, "fusion_lat": 0.0, "type": "electric_bike", "bike_id": "90159bbfc8f1389f0e0ab888f26d58e1", "rental_uris": {"ios": "https://dc.lft.to/lastmile_qr_scan", "android": "https://dc.lft.to/lastmile_qr_scan"}, "fusion_lon": 0.0, "lon": -77.00276416666667, "name": "90159bbfc8f1389f0e0ab888f26d58e1", "is_reserved": 0, "is_disabled": 0}, {"lat": 38.899316166666665, "fusion_lat": 0.0, "type": "electric_scooter", "bike_id": "200ee2424c90a945fed40c26ab67bcc1", "rental_uris": {"ios": "https://dc.lft.to/lastmile_qr_scan", "android": "https://dc.lft.to/lastmile_qr_scan"}, "fusion_lon": 0.0, "lon": -77.03138233333334, "name": "200ee2424c90a945fed40c26ab67bcc1", "is_reserved": 0, "is_disabled": 0}, {"lat": 38.902050833333334, "fusion_lat": 0.0, "type": "electric_scooter", "bike_id": "bf620101e3a9a3995d1464989c75e636", "rental_uris": {"ios": "https://dc.lft.to/lastmile_qr_scan", "android": "https://dc.lft.to/lastmile_qr_scan"}, "fusion_lon": 0.0, "lon": -77.04625066666667, "name": "bf620101e3a9a3995d1464989c75e636", "is_reserved": 0, "is_disabled": 0}, {"lat": 38.8718615, "fusion_lat": 0.0, "type": "electric_scooter", "bike_id": "933f72bc65c500060a97e7901218c024", "rental_uris": {"ios": "https://dc.lft.to/lastmile_qr_scan", "android": "https://dc.lft.to/lastmile_qr_scan"}, "fusion_lon": 0.0, "lon": -77.00644316666667, "name": "933f72bc65c500060a97e7901218c024", "is_reserved": 0, "is_disabled": 0}, {"lat": 38.89347433333333, "fusion_lat": 0.0, "type": "electric_scooter", "bike_id": "8b9ba0513957eba1d1cad197681d773e", "rental_uris": {"ios": "https://dc.lft.to/lastmile_qr_scan", "android": "https://dc.lft.to/lastmile_qr_scan"}, "fusion_lon": 0.0, "lon": -76.95228516666667, "name": "8b9ba0513957eba1d1cad197681d773e", "is_reserved": 0, "is_disabled": 0}, {"lat": 38.972143833333334, "fusion_lat": 0.0, "type": "electric_scooter", "bike_id": "2ea315c5ef065e2a21a5b41e6be03ed4", "rental_uris": {"ios": "https://dc.lft.to/lastmile_qr_scan", "android": "https://dc.lft.to/lastmile_qr_scan"}, "fusion_lon": 0.0, "lon": -77.03336066666667, "name": "2ea315c5ef065e2a21a5b41e6be03ed4", "is_reserved": 0, "is_disabled": 0}, {"lat": 38.93075483333333, "fusion_lat": 0.0, "type": "electric_scooter", "bike_id": "e9cdb6d63bfc74bcf599a055d5fd8940", "rental_uris": {"ios": "https://dc.lft.to/lastmile_qr_scan", "android": "https://dc.lft.to/lastmile_qr_scan"}, "fusion_lon": 0.0, "lon": -76.996102, "name": "e9cdb6d63bfc74bcf599a055d5fd8940", "is_reserved": 0, "is_disabled": 0}, {"lat": 38.904515333333336, "fusion_lat": 0.0, "type": "electric_scooter", "bike_id": "36018428d1af8ce0aa27e7580c8b7129", "rental_uris": {"ios": "https://dc.lft.to/lastmile_qr_scan", "android": "https://dc.lft.to/lastmile_qr_scan"}, "fusion_lon": 0.0, "lon": -76.98234166666667, "name": "36018428d1af8ce0aa27e7580c8b7129", "is_reserved": 0, "is_disabled": 0}, {"lat": 38.90678116666667, "fusion_lat": 0.0, "type": "electric_scooter", "bike_id": "72f4454af3fed8b4108c310d1ef1a220", "rental_uris": {"ios": "https://dc.lft.to/lastmile_qr_scan", "android": "https://dc.lft.to/lastmile_qr_scan"}, "fusion_lon": 0.0, "lon": -77.06396866666667, "name": "72f4454af3fed8b4108c310d1ef1a220", "is_reserved": 0, "is_disabled": 0}, {"lat": 38.927637, "fusion_lat": 0.0, "type": "electric_scooter", "bike_id": "2d3ecf78ad9d435257161250a1c4d0eb", "rental_uris": {"ios": "https://dc.lft.to/lastmile_qr_scan", "android": "https://dc.lft.to/lastmile_qr_scan"}, "fusion_lon": 0.0, "lon": -77.05258416666666, "name": "2d3ecf78ad9d435257161250a1c4d0eb", "is_reserved": 0, "is_disabled": 0}, {"lat": 38.91407183333333, "fusion_lat": 0.0, "type": "electric_scooter", "bike_id": "1baf96230293bd80409f1b62e1cdaa30", "rental_uris": {"ios": "https://dc.lft.to/lastmile_qr_scan", "android": "https://dc.lft.to/lastmile_qr_scan"}, "fusion_lon": 0.0, "lon": -77.02836716666667, "name": "1baf96230293bd80409f1b62e1cdaa30", "is_reserved": 0, "is_disabled": 0}, {"lat": 38.91126083333333, "fusion_lat": 0.0, "type": "electric_scooter", "bike_id": "23c60c87f5e0ec73d95404becfcb54a5", "rental_uris": {"ios": "https://dc.lft.to/lastmile_qr_scan", "android": "https://dc.lft.to/lastmile_qr_scan"}, "fusion_lon": 0.0, "lon": -77.05275383333333, "name": "23c60c87f5e0ec73d95404becfcb54a5", "is_reserved": 0, "is_disabled": 0}, {"lat": 38.922572, "fusion_lat": 0.0, "type": "electric_scooter", "bike_id": "2b9caa0e7066833f6e845f67b7c45b6d", "rental_uris": {"ios": "https://dc.lft.to/lastmile_qr_scan", "android": "https://dc.lft.to/lastmile_qr_scan"}, "fusion_lon": 0.0, "lon": -77.0210555, "name": "2b9caa0e7066833f6e845f67b7c45b6d", "is_reserved": 0, "is_disabled": 0}, {"lat": 38.90006733333333, "fusion_lat": 0.0, "type": "electric_scooter", "bike_id": "253d47be767782a295348cdab4763ab3", "rental_uris": {"ios": "https://dc.lft.to/lastmile_qr_scan", "android": "https://dc.lft.to/lastmile_qr_scan"}, "fusion_lon": 0.0, "lon": -77.03955916666666, "name": "253d47be767782a295348cdab4763ab3", "is_reserved": 0, "is_disabled": 0}, {"lat": 38.90139533333333, "fusion_lat": 0.0, "type": "electric_scooter", "bike_id": "ce7c36e2ef9e7297277d5bf683f3bcbd", "rental_uris": {"ios": "https://dc.lft.to/lastmile_qr_scan", "android": "https://dc.lft.to/lastmile_qr_scan"}, "fusion_lon": 0.0, "lon": -77.01344383333333, "name": "ce7c36e2ef9e7297277d5bf683f3bcbd", "is_reserved": 0, "is_disabled": 0}, {"lat": 38.91871616666667, "fusion_lat": 0.0, "type": "electric_scooter", "bike_id": "316cd9c754a4e8a1e7fd651db0b10bf7", "rental_uris": {"ios": "https://dc.lft.to/lastmile_qr_scan", "android": "https://dc.lft.to/lastmile_qr_scan"}, "fusion_lon": 0.0, "lon": -77.02287716666666, "name": "316cd9c754a4e8a1e7fd651db0b10bf7", "is_reserved": 0, "is_disabled": 0}, {"lat": 38.898887333333334, "fusion_lat": 0.0, "type": "electric_scooter", "bike_id": "2072a8d25ee91b8af77c0067e9cf5ee0", "rental_uris": {"ios": "https://dc.lft.to/lastmile_qr_scan", "android": "https://dc.lft.to/lastmile_qr_scan"}, "fusion_lon": 0.0, "lon": -76.93176066666666, "name": "2072a8d25ee91b8af77c0067e9cf5ee0", "is_reserved": 0, "is_disabled": 0}, {"lat": 38.944503833333336, "fusion_lat": 0.0, "type": "electric_scooter", "bike_id": "842f636378dad1da84da478a229b38b5", "rental_uris": {"ios": "https://dc.lft.to/lastmile_qr_scan", "android": "https://dc.lft.to/lastmile_qr_scan"}, "fusion_lon": 0.0, "lon": -77.0280345, "name": "842f636378dad1da84da478a229b38b5", "is_reserved": 0, "is_disabled": 0}, {"lat": 38.916099, "fusion_lat": 0.0, "type": "electric_scooter", "bike_id": "4c0cca397dead7eaf08dc53a1d0ee936", "rental_uris": {"ios": "https://dc.lft.to/lastmile_qr_scan", "android": "https://dc.lft.to/lastmile_qr_scan"}, "fusion_lon": 0.0, "lon": -77.03194833333333, "name": "4c0cca397dead7eaf08dc53a1d0ee936", "is_reserved": 0, "is_disabled": 0}, {"lat": 38.91550983333333, "fusion_lat": 0.0, "type": "electric_scooter", "bike_id": "f9a5043d02de2f977a47f1837c46fb5b", "rental_uris": {"ios": "https://dc.lft.to/lastmile_qr_scan", "android": "https://dc.lft.to/lastmile_qr_scan"}, "fusion_lon": 0.0, "lon": -77.01013533333334, "name": "f9a5043d02de2f977a47f1837c46fb5b", "is_reserved": 0, "is_disabled": 0}, {"lat": 38.90270616666667, "fusion_lat": 0.0, "type": "electric_scooter", "bike_id": "5bbd52bf3957ce587625708c49da9430", "rental_uris": {"ios": "https://dc.lft.to/lastmile_qr_scan", "android": "https://dc.lft.to/lastmile_qr_scan"}, "fusion_lon": 0.0, "lon": -77.0347215, "name": "5bbd52bf3957ce587625708c49da9430", "is_reserved": 0, "is_disabled": 0}, {"lat": 38.89802316666667, "fusion_lat": 0.0, "type": "electric_scooter", "bike_id": "aefa0f2dc54dad02e359d76f6a906a1d", "rental_uris": {"ios": "https://dc.lft.to/lastmile_qr_scan", "android": "https://dc.lft.to/lastmile_qr_scan"}, "fusion_lon": 0.0, "lon": -77.02226966666667, "name": "aefa0f2dc54dad02e359d76f6a906a1d", "is_reserved": 0, "is_disabled": 0}, {"lat": 38.932785, "fusion_lat": 0.0, "type": "electric_scooter", "bike_id": "cd3a06d7ae143057c73635f6022658e0", "rental_uris": {"ios": "https://dc.lft.to/lastmile_qr_scan", "android": "https://dc.lft.to/lastmile_qr_scan"}, "fusion_lon": 0.0, "lon": -76.98435816666667, "name": "cd3a06d7ae143057c73635f6022658e0", "is_reserved": 0, "is_disabled": 0}, {"lat": 38.913339666666666, "fusion_lat": 0.0, "type": "electric_scooter", "bike_id": "3be52f9d595aff30a12094b8e443e900", "rental_uris": {"ios": "https://dc.lft.to/lastmile_qr_scan", "android": "https://dc.lft.to/lastmile_qr_scan"}, "fusion_lon": 0.0, "lon": -77.01619816666667, "name": "3be52f9d595aff30a12094b8e443e900", "is_reserved": 0, "is_disabled": 0}, {"lat": 38.899200666666665, "fusion_lat": 0.0, "type": "electric_scooter", "bike_id": "a4cabee3168f37a39cdef751e359d973", "rental_uris": {"ios": "https://dc.lft.to/lastmile_qr_scan", "android": "https://dc.lft.to/lastmile_qr_scan"}, "fusion_lon": 0.0, "lon": -77.02801533333333, "name": "a4cabee3168f37a39cdef751e359d973", "is_reserved": 0, "is_disabled": 0}, {"lat": 38.89221083333333, "fusion_lat": 0.0, "type": "electric_scooter", "bike_id": "a3744acbff3f63ed8c8e32df09c0421b", "rental_uris": {"ios": "https://dc.lft.to/lastmile_qr_scan", "android": "https://dc.lft.to/lastmile_qr_scan"}, "fusion_lon": 0.0, "lon": -77.0419525, "name": "a3744acbff3f63ed8c8e32df09c0421b", "is_reserved": 0, "is_disabled": 0}, {"lat": 38.913297666666665, "fusion_lat": 0.0, "type": "electric_scooter", "bike_id": "2911f1174900f179621efb2f30946673", "rental_uris": {"ios": "https://dc.lft.to/lastmile_qr_scan", "android": "https://dc.lft.to/lastmile_qr_scan"}, "fusion_lon": 0.0, "lon": -77.048602, "name": "2911f1174900f179621efb2f30946673", "is_reserved": 0, "is_disabled": 0}, {"lat": 38.917770166666664, "fusion_lat": 0.0, "type": "electric_scooter", "bike_id": "32c08b521d3512a1b4e13d3aef2d959f", "rental_uris": {"ios": "https://dc.lft.to/lastmile_qr_scan", "android": "https://dc.lft.to/lastmile_qr_scan"}, "fusion_lon": 0.0, "lon": -77.04057933333333, "name": "32c08b521d3512a1b4e13d3aef2d959f", "is_reserved": 0, "is_disabled": 0}, {"lat": 38.920736, "fusion_lat": 0.0, "type": "electric_scooter", "bike_id": "cd8413a8b5cc4a167f2eec8abbe8c463", "rental_uris": {"ios": "https://dc.lft.to/lastmile_qr_scan", "android": "https://dc.lft.to/lastmile_qr_scan"}, "fusion_lon": 0.0, "lon": -77.02390133333333, "name": "cd8413a8b5cc4a167f2eec8abbe8c463", "is_reserved": 0, "is_disabled": 0}, {"lat": 38.922233, "fusion_lat": 0.0, "type": "electric_bike", "bike_id": "5b1fc67cbc96c7a2a477edce9bf94ead", "rental_uris": {"ios": "https://dc.lft.to/lastmile_qr_scan", "android": "https://dc.lft.to/lastmile_qr_scan"}, "fusion_lon": 0.0, "lon": -77.00201783333333, "name": "5b1fc67cbc96c7a2a477edce9bf94ead", "is_reserved": 0, "is_disabled": 0}, {"lat": 38.89938566666667, "fusion_lat": 0.0, "type": "electric_scooter", "bike_id": "d4c732867c922ea34adcfb420237d6b9", "rental_uris": {"ios": "https://dc.lft.to/lastmile_qr_scan", "android": "https://dc.lft.to/lastmile_qr_scan"}, "fusion_lon": 0.0, "lon": -77.01448966666666, "name": "d4c732867c922ea34adcfb420237d6b9", "is_reserved": 0, "is_disabled": 0}, {"lat": 38.897466, "fusion_lat": 0.0, "type": "electric_scooter", "bike_id": "670d070cb19fd0e53c3ef6ce833f9c77", "rental_uris": {"ios": "https://dc.lft.to/lastmile_qr_scan", "android": "https://dc.lft.to/lastmile_qr_scan"}, "fusion_lon": 0.0, "lon": -77.0209975, "name": "670d070cb19fd0e53c3ef6ce833f9c77", "is_reserved": 0, "is_disabled": 0}, {"lat": 38.9182, "fusion_lat": 0.0, "type": "electric_scooter", "bike_id": "4bc7fed4c540f89083f10b8bea7c8442", "rental_uris": {"ios": "https://dc.lft.to/lastmile_qr_scan", "android": "https://dc.lft.to/lastmile_qr_scan"}, "fusion_lon": 0.0, "lon": -77.01213133333333, "name": "4bc7fed4c540f89083f10b8bea7c8442", "is_reserved": 0, "is_disabled": 0}, {"lat": 38.89851016666667, "fusion_lat": 0.0, "type": "electric_scooter", "bike_id": "b9613d62b1e2a9421dac145ac7732dfb", "rental_uris": {"ios": "https://dc.lft.to/lastmile_qr_scan", "android": "https://dc.lft.to/lastmile_qr_scan"}, "fusion_lon": 0.0, "lon": -77.033548, "name": "b9613d62b1e2a9421dac145ac7732dfb", "is_reserved": 0, "is_disabled": 0}, {"lat": 38.905125166666664, "fusion_lat": 0.0, "type": "electric_scooter", "bike_id": "2785535f564b363f7c53491352adb85e", "rental_uris": {"ios": "https://dc.lft.to/lastmile_qr_scan", "android": "https://dc.lft.to/lastmile_qr_scan"}, "fusion_lon": 0.0, "lon": -77.04063, "name": "2785535f564b363f7c53491352adb85e", "is_reserved": 0, "is_disabled": 0}, {"lat": 38.91806916666667, "fusion_lat": 0.0, "type": "electric_scooter", "bike_id": "1f6dcf8c3ecc45bc5f6edd3c77cd15a3", "rental_uris": {"ios": "https://dc.lft.to/lastmile_qr_scan", "android": "https://dc.lft.to/lastmile_qr_scan"}, "fusion_lon": 0.0, "lon": -77.02675683333334, "name": "1f6dcf8c3ecc45bc5f6edd3c77cd15a3", "is_reserved": 0, "is_disabled": 0}, {"lat": 38.891949833333335, "fusion_lat": 0.0, "type": "electric_scooter", "bike_id": "f00b7de448a81afee64c7f659607e8a2", "rental_uris": {"ios": "https://dc.lft.to/lastmile_qr_scan", "android": "https://dc.lft.to/lastmile_qr_scan"}, "fusion_lon": 0.0, "lon": -76.99385866666667, "name": "f00b7de448a81afee64c7f659607e8a2", "is_reserved": 0, "is_disabled": 0}, {"lat": 39.01070333333333, "fusion_lat": 0.0, "type": "electric_bike", "bike_id": "8e42c9a8b8d1c1abfa2e39b06ef768ad", "rental_uris": {"ios": "https://dc.lft.to/lastmile_qr_scan", "android": "https://dc.lft.to/lastmile_qr_scan"}, "fusion_lon": 0.0, "lon": -76.91053166666667, "name": "8e42c9a8b8d1c1abfa2e39b06ef768ad", "is_reserved": 0, "is_disabled": 0}, {"lat": 38.8765485, "fusion_lat": 0.0, "type": "electric_scooter", "bike_id": "5560affb3fc1085123cba6b2fe5bb90a", "rental_uris": {"ios": "https://dc.lft.to/lastmile_qr_scan", "android": "https://dc.lft.to/lastmile_qr_scan"}, "fusion_lon": 0.0, "lon": -77.00113566666667, "name": "5560affb3fc1085123cba6b2fe5bb90a", "is_reserved": 0, "is_disabled": 0}, {"lat": 38.90011533333333, "fusion_lat": 0.0, "type": "electric_scooter", "bike_id": "b33f6e4d2a8b3c9a22137367edc64eba", "rental_uris": {"ios": "https://dc.lft.to/lastmile_qr_scan", "android": "https://dc.lft.to/lastmile_qr_scan"}, "fusion_lon": 0.0, "lon": -77.01257866666667, "name": "b33f6e4d2a8b3c9a22137367edc64eba", "is_reserved": 0, "is_disabled": 0}, {"lat": 38.932767, "fusion_lat": 0.0, "type": "electric_scooter", "bike_id": "18007be3bd9230bb25881c9bb3c6b52f", "rental_uris": {"ios": "https://dc.lft.to/lastmile_qr_scan", "android": "https://dc.lft.to/lastmile_qr_scan"}, "fusion_lon": 0.0, "lon": -77.02540616666667, "name": "18007be3bd9230bb25881c9bb3c6b52f", "is_reserved": 0, "is_disabled": 0}, {"lat": 38.919196666666664, "fusion_lat": 0.0, "type": "electric_scooter", "bike_id": "63e1eed730082e2771bad75958752572", "rental_uris": {"ios": "https://dc.lft.to/lastmile_qr_scan", "android": "https://dc.lft.to/lastmile_qr_scan"}, "fusion_lon": 0.0, "lon": -77.03429916666667, "name": "63e1eed730082e2771bad75958752572", "is_reserved": 0, "is_disabled": 0}, {"lat": 38.90043383333333, "fusion_lat": 0.0, "type": "electric_scooter", "bike_id": "7b6ed9897562cb8cb599a2d9437e20f5", "rental_uris": {"ios": "https://dc.lft.to/lastmile_qr_scan", "android": "https://dc.lft.to/lastmile_qr_scan"}, "fusion_lon": 0.0, "lon": -76.98835633333333, "name": "7b6ed9897562cb8cb599a2d9437e20f5", "is_reserved": 0, "is_disabled": 0}, {"lat": 38.920279, "fusion_lat": 0.0, "type": "electric_scooter", "bike_id": "be3dfe123881b1848afbb4bd6d54b07b", "rental_uris": {"ios": "https://dc.lft.to/lastmile_qr_scan", "android": "https://dc.lft.to/lastmile_qr_scan"}, "fusion_lon": 0.0, "lon": -77.07145816666667, "name": "be3dfe123881b1848afbb4bd6d54b07b", "is_reserved": 0, "is_disabled": 0}, {"lat": 38.916532, "fusion_lat": 0.0, "type": "electric_scooter", "bike_id": "c798456efd06eb8ebb9adb1701b4a6d5", "rental_uris": {"ios": "https://dc.lft.to/lastmile_qr_scan", "android": "https://dc.lft.to/lastmile_qr_scan"}, "fusion_lon": 0.0, "lon": -77.041706, "name": "c798456efd06eb8ebb9adb1701b4a6d5", "is_reserved": 0, "is_disabled": 0}, {"lat": 38.8922, "fusion_lat": 0.0, "type": "electric_scooter", "bike_id": "b3faa0ba641d6f85cedb8ddb7bf15e2f", "rental_uris": {"ios": "https://dc.lft.to/lastmile_qr_scan", "android": "https://dc.lft.to/lastmile_qr_scan"}, "fusion_lon": 0.0, "lon": -77.02630433333333, "name": "b3faa0ba641d6f85cedb8ddb7bf15e2f", "is_reserved": 0, "is_disabled": 0}, {"lat": 38.924943, "fusion_lat": 0.0, "type": "electric_scooter", "bike_id": "fe04b5a850cd17f82350cdacc806f010", "rental_uris": {"ios": "https://dc.lft.to/lastmile_qr_scan", "android": "https://dc.lft.to/lastmile_qr_scan"}, "fusion_lon": 0.0, "lon": -77.02400066666667, "name": "fe04b5a850cd17f82350cdacc806f010", "is_reserved": 0, "is_disabled": 0}, {"lat": 38.9156395, "fusion_lat": 0.0, "type": "electric_scooter", "bike_id": "46799f87615e37c861ba20e2f7642ea7", "rental_uris": {"ios": "https://dc.lft.to/lastmile_qr_scan", "android": "https://dc.lft.to/lastmile_qr_scan"}, "fusion_lon": 0.0, "lon": -77.03197983333334, "name": "46799f87615e37c861ba20e2f7642ea7", "is_reserved": 0, "is_disabled": 0}, {"lat": 38.922590166666666, "fusion_lat": 0.0, "type": "electric_scooter", "bike_id": "aad6db11d2baa3fbdb99e2ca7ae6ae03", "rental_uris": {"ios": "https://dc.lft.to/lastmile_qr_scan", "android": "https://dc.lft.to/lastmile_qr_scan"}, "fusion_lon": 0.0, "lon": -77.0210585, "name": "aad6db11d2baa3fbdb99e2ca7ae6ae03", "is_reserved": 0, "is_disabled": 0}, {"lat": 38.877153166666666, "fusion_lat": 0.0, "type": "electric_scooter", "bike_id": "323f2f559c4eeca4131a57ec1ffbc8cd", "rental_uris": {"ios": "https://dc.lft.to/lastmile_qr_scan", "android": "https://dc.lft.to/lastmile_qr_scan"}, "fusion_lon": 0.0, "lon": -76.99688683333333, "name": "323f2f559c4eeca4131a57ec1ffbc8cd", "is_reserved": 0, "is_disabled": 0}, {"lat": 38.8876895, "fusion_lat": 0.0, "type": "electric_scooter", "bike_id": "1c477755fba321464ae8fa63a6abee45", "rental_uris": {"ios": "https://dc.lft.to/lastmile_qr_scan", "android": "https://dc.lft.to/lastmile_qr_scan"}, "fusion_lon": 0.0, "lon": -77.02236566666667, "name": "1c477755fba321464ae8fa63a6abee45", "is_reserved": 0, "is_disabled": 0}, {"lat": 38.896064, "fusion_lat": 0.0, "type": "electric_scooter", "bike_id": "6569009fa8a3bfc0021f798a0d930ce5", "rental_uris": {"ios": "https://dc.lft.to/lastmile_qr_scan", "android": "https://dc.lft.to/lastmile_qr_scan"}, "fusion_lon": 0.0, "lon": -77.00214066666666, "name": "6569009fa8a3bfc0021f798a0d930ce5", "is_reserved": 0, "is_disabled": 0}, {"lat": 38.87222933333334, "fusion_lat": 0.0, "type": "electric_scooter", "bike_id": "3bc9d63bb08708f6327352df511e6065", "rental_uris": {"ios": "https://dc.lft.to/lastmile_qr_scan", "android": "https://dc.lft.to/lastmile_qr_scan"}, "fusion_lon": 0.0, "lon": -77.0121825, "name": "3bc9d63bb08708f6327352df511e6065", "is_reserved": 0, "is_disabled": 0}, {"lat": 38.95089466666667, "fusion_lat": 0.0, "type": "electric_scooter", "bike_id": "867304ebff5ea54f7c27fc8a68ee081e", "rental_uris": {"ios": "https://dc.lft.to/lastmile_qr_scan", "android": "https://dc.lft.to/lastmile_qr_scan"}, "fusion_lon": 0.0, "lon": -77.03155266666667, "name": "867304ebff5ea54f7c27fc8a68ee081e", "is_reserved": 0, "is_disabled": 0}, {"lat": 38.90392383333333, "fusion_lat": 0.0, "type": "electric_scooter", "bike_id": "3f00988ef957fabdb211d5c5cc8376b6", "rental_uris": {"ios": "https://dc.lft.to/lastmile_qr_scan", "android": "https://dc.lft.to/lastmile_qr_scan"}, "fusion_lon": 0.0, "lon": -77.06815666666667, "name": "3f00988ef957fabdb211d5c5cc8376b6", "is_reserved": 0, "is_disabled": 0}, {"lat": 38.92253483333333, "fusion_lat": 0.0, "type": "electric_scooter", "bike_id": "24b1c327fac2f17b21f25c8a99804598", "rental_uris": {"ios": "https://dc.lft.to/lastmile_qr_scan", "android": "https://dc.lft.to/lastmile_qr_scan"}, "fusion_lon": 0.0, "lon": -77.01910883333333, "name": "24b1c327fac2f17b21f25c8a99804598", "is_reserved": 0, "is_disabled": 0}, {"lat": 38.9084695, "fusion_lat": 0.0, "type": "electric_scooter", "bike_id": "439b97b061fe8a7b3a8657a646f634b1", "rental_uris": {"ios": "https://dc.lft.to/lastmile_qr_scan", "android": "https://dc.lft.to/lastmile_qr_scan"}, "fusion_lon": 0.0, "lon": -77.064028, "name": "439b97b061fe8a7b3a8657a646f634b1", "is_reserved": 0, "is_disabled": 0}, {"lat": 38.92443933333333, "fusion_lat": 0.0, "type": "electric_scooter", "bike_id": "eff6ee2e3775e438e220277eab906043", "rental_uris": {"ios": "https://dc.lft.to/lastmile_qr_scan", "android": "https://dc.lft.to/lastmile_qr_scan"}, "fusion_lon": 0.0, "lon": -77.021471, "name": "eff6ee2e3775e438e220277eab906043", "is_reserved": 0, "is_disabled": 0}, {"lat": 38.89050966666667, "fusion_lat": 0.0, "type": "electric_scooter", "bike_id": "9545824d8e9c010d5b52f5f6f8758093", "rental_uris": {"ios": "https://dc.lft.to/lastmile_qr_scan", "android": "https://dc.lft.to/lastmile_qr_scan"}, "fusion_lon": 0.0, "lon": -76.93757816666667, "name": "9545824d8e9c010d5b52f5f6f8758093", "is_reserved": 0, "is_disabled": 0}, {"lat": 38.907333333333334, "fusion_lat": 0.0, "type": "electric_scooter", "bike_id": "cd4114c56bf8e9efd92f9cd3b6b1819a", "rental_uris": {"ios": "https://dc.lft.to/lastmile_qr_scan", "android": "https://dc.lft.to/lastmile_qr_scan"}, "fusion_lon": 0.0, "lon": -77.0231975, "name": "cd4114c56bf8e9efd92f9cd3b6b1819a", "is_reserved": 0, "is_disabled": 0},