{"data": {"bikes": [{"type": "electric_scooter", "name": "86f1186f5b1ccde92065ced7bac0d161", "fusion_lon": 0.0, "is_reserved": 0, "lon": -77.03895683333333, "fusion_lat": 0.0, "is_disabled": 0, "bike_id": "86f1186f5b1ccde92065ced7bac0d161", "lat": 38.92254633333334, "rental_uris": {"ios": "https://dc.lft.to/lastmile_qr_scan", "android": "https://dc.lft.to/lastmile_qr_scan"}}, {"type": "electric_scooter", "name": "b4d660dd6d9bc916961066aaf6959a51", "fusion_lon": 0.0, "is_reserved": 0, "lon": -77.03128816666667, "fusion_lat": 0.0, "is_disabled": 0, "bike_id": "b4d660dd6d9bc916961066aaf6959a51", "lat": 38.919291, "rental_uris": {"ios": "https://dc.lft.to/lastmile_qr_scan", "android": "https://dc.lft.to/lastmile_qr_scan"}}, {"type": "electric_scooter", "name": "33a897c57b9b552507e00a750135366f", "fusion_lon": 0.0, "is_reserved": 0, "lon": -77.02094883333334, "fusion_lat": 0.0, "is_disabled": 0, "bike_id": "33a897c57b9b552507e00a750135366f", "lat": 38.93263733333333, "rental_uris": {"ios": "https://dc.lft.to/lastmile_qr_scan", "android": "https://dc.lft.to/lastmile_qr_scan"}}, {"type": "electric_scooter", "name": "6fb18fdd3fe5357ddc66616d13da1046", "fusion_lon": 0.0, "is_reserved": 0, "lon": -77.00700083333334, "fusion_lat": 0.0, "is_disabled": 0, "bike_id": "6fb18fdd3fe5357ddc66616d13da1046", "lat": 38.90008133333333, "rental_uris": {"ios": "https://dc.lft.to/lastmile_qr_scan", "android": "https://dc.lft.to/lastmile_qr_scan"}}, {"type": "electric_scooter", "name": "c78cbdefbe135de4bdbdcebb2b445c78", "fusion_lon": 0.0, "is_reserved": 0, "lon": -77.012084, "fusion_lat": 0.0, "is_disabled": 0, "bike_id": "c78cbdefbe135de4bdbdcebb2b445c78", "lat": 38.864011, "rental_uris": {"ios": "https://dc.lft.to/lastmile_qr_scan", "android": "https://dc.lft.to/lastmile_qr_scan"}}, {"type": "electric_scooter", "name": "d250a387f89421007a41a8f094ebcf9c", "fusion_lon": 0.0, "is_reserved": 0, "lon": -77.02595766666667, "fusion_lat": 0.0, "is_disabled": 0, "bike_id": "d250a387f89421007a41a8f094ebcf9c", "lat": 38.916919666666665, "rental_uris": {"ios": "https://dc.lft.to/lastmile_qr_scan", "android": "https://dc.lft.to/lastmile_qr_scan"}}, {"type": "electric_scooter", "name": "3d0916e7cdd6daf2198a379e6506b0cd", "fusion_lon": 0.0, "is_reserved": 0, "lon": -77.044663, "fusion_lat": 0.0, "is_disabled": 0, "bike_id": "3d0916e7cdd6daf2198a379e6506b0cd", "lat": 38.91110583333333, "rental_uris": {"ios": "https://dc.lft.to/lastmile_qr_scan", "android": "https://dc.lft.to/lastmile_qr_scan"}}, {"type": "electric_scooter", "name": "f28588cfc016ff88bd1227f1d80c2ca1", "fusion_lon": 0.0, "is_reserved": 0, "lon": -77.06469033333333, "fusion_lat": 0.0, "is_disabled": 0, "bike_id": "f28588cfc016ff88bd1227f1d80c2ca1", "lat": 38.90524833333333, "rental_uris": {"ios": "https://dc.lft.to/lastmile_qr_scan", "android": "https://dc.lft.to/lastmile_qr_scan"}}, {"type": "electric_scooter", "name": "dae14875701663802c27175e9b0997a0", "fusion_lon": 0.0, "is_reserved": 0, "lon": -77.025321, "fusion_lat": 0.0, "is_disabled": 0, "bike_id": "dae14875701663802c27175e9b0997a0", "lat": 38.927476166666665, "rental_uris": {"ios": "https://dc.lft.to/lastmile_qr_scan", "android": "https://dc.lft.to/lastmile_qr_scan"}}, {"type": "electric_scooter", "name": "300b18819b7cbbbf20abf4d6a21470fe", "fusion_lon": 0.0, "is_reserved": 0, "lon": -77.060263, "fusion_lat": 0.0, "is_disabled": 0, "bike_id": "300b18819b7cbbbf20abf4d6a21470fe", "lat": 38.904808, "rental_uris": {"ios": "https://dc.lft.to/lastmile_qr_scan", "android": "https://dc.lft.to/lastmile_qr_scan"}}, {"type": "electric_bike", "name": "4db73b6d310e350a97744bd5abea360f", "fusion_lon": 0.0, "is_reserved": 0, "lon": -77.02626033333334, "fusion_lat": 0.0, "is_disabled": 0, "bike_id": "4db73b6d310e350a97744bd5abea360f", "lat": 38.96222366666667, "rental_uris": {"ios": "https://dc.lft.to/lastmile_qr_scan", "android": "https://dc.lft.to/lastmile_qr_scan"}}, {"type": "electric_scooter", "name": "e700a5d690c815237d57bf0ff402c94d", "fusion_lon": 0.0, "is_reserved": 0, "lon": -77.0128795, "fusion_lat": 0.0, "is_disabled": 0, "bike_id": "e700a5d690c815237d57bf0ff402c94d", "lat": 38.874034, "rental_uris": {"ios": "https://dc.lft.to/lastmile_qr_scan", "android": "https://dc.lft.to/lastmile_qr_scan"}}, {"type": "electric_scooter", "name": "747c7e2af8ed16d4fb13355c7ed35ced", "fusion_lon": 0.0, "is_reserved": 0, "lon": -77.02220816666667, "fusion_lat": 0.0, "is_disabled": 0, "bike_id": "747c7e2af8ed16d4fb13355c7ed35ced", "lat": 38.92079566666666, "rental_uris": {"ios": "https://dc.lft.to/lastmile_qr_scan", "android": "https://dc.lft.to/lastmile_qr_scan"}}, {"type": "electric_scooter", "name": "6ddc7185567b752e3d914998158bdf5a", "fusion_lon": 0.0, "is_reserved": 0, "lon": -77.03230983333333, "fusion_lat": 0.0, "is_disabled": 0, "bike_id": "6ddc7185567b752e3d914998158bdf5a", "lat": 38.92167416666667, "rental_uris": {"ios": "https://dc.lft.to/lastmile_qr_scan", "android": "https://dc.lft.to/lastmile_qr_scan"}}, {"type": "electric_scooter", "name": "2faf9cb954a4caa17b52eb48a5e90c1a", "fusion_lon": 0.0, "is_reserved": 0, "lon": -77.00435933333333, "fusion_lat": 0.0, "is_disabled": 0, "bike_id": "2faf9cb954a4caa17b52eb48a5e90c1a", "lat": 38.920913666666664, "rental_uris": {"ios": "https://dc.lft.to/lastmile_qr_scan", "android": "https://dc.lft.to/lastmile_qr_scan"}}, {"type": "electric_bike", "name": "0b6dfe1c50ef98305d117b5cda833a2e", "fusion_lon": 0.0, "is_reserved": 0, "lon": -77.09587933333333, "fusion_lat": 0.0, "is_disabled": 0, "bike_id": "0b6dfe1c50ef98305d117b5cda833a2e", "lat": 38.8608755, "rental_uris": {"ios": "https://dc.lft.to/lastmile_qr_scan", "android": "https://dc.lft.to/lastmile_qr_scan"}}, {"type": "electric_scooter", "name": "7199cb549305d25bccd607bcacc32e11", "fusion_lon": 0.0, "is_reserved": 0, "lon": -77.03634066666666, "fusion_lat": 0.0, "is_disabled": 0, "bike_id": "7199cb549305d25bccd607bcacc32e11", "lat": 38.90374383333333, "rental_uris": {"ios": "https://dc.lft.to/lastmile_qr_scan", "android": "https://dc.lft.to/lastmile_qr_scan"}}, {"type": "electric_scooter", "name": "fc08e52510359ef8513a626be082fcf4", "fusion_lon": 0.0, "is_reserved": 0, "lon": -77.02832983333333, "fusion_lat": 0.0, "is_disabled": 0, "bike_id": "fc08e52510359ef8513a626be082fcf4", "lat": 38.88731933333333, "rental_uris": {"ios": "https://dc.lft.to/lastmile_qr_scan", "android": "https://dc.lft.to/lastmile_qr_scan"}}, {"type": "electric_scooter", "name": "071fba436bc6842dbad651c0feb3f2a1", "fusion_lon": 0.0, "is_reserved": 0, "lon": -77.0318465, "fusion_lat": 0.0, "is_disabled": 0, "bike_id": "071fba436bc6842dbad651c0feb3f2a1", "lat": 38.914211, "rental_uris": {"ios": "https://dc.lft.to/lastmile_qr_scan", "android": "https://dc.lft.to/lastmile_qr_scan"}}, {"type": "electric_scooter", "name": "10e0f3f8647f0634f063da94ea359805", "fusion_lon": 0.0, "is_reserved": 0, "lon": -76.93346533333333, "fusion_lat": 0.0, "is_disabled": 0, "bike_id": "10e0f3f8647f0634f063da94ea359805", "lat": 38.88812466666667, "rental_uris": {"ios": "https://dc.lft.to/lastmile_qr_scan", "android": "https://dc.lft.to/lastmile_qr_scan"}}, {"type": "electric_scooter", "name": "446c01594cef71e50e5a8b44ddb42731", "fusion_lon": 0.0, "is_reserved": 0, "lon": -77.03759383333333, "fusion_lat": 0.0, "is_disabled": 0, "bike_id": "446c01594cef71e50e5a8b44ddb42731", "lat": 38.9308775, "rental_uris": {"ios": "https://dc.lft.to/lastmile_qr_scan", "android": "https://dc.lft.to/lastmile_qr_scan"}}, {"type": "electric_scooter", "name": "7c70bfc5c3882bc90d71f88ece7675ec", "fusion_lon": 0.0, "is_reserved": 0, "lon": -77.02967966666667, "fusion_lat": 0.0, "is_disabled": 0, "bike_id": "7c70bfc5c3882bc90d71f88ece7675ec", "lat": 38.9165595, "rental_uris": {"ios": "https://dc.lft.to/lastmile_qr_scan", "android": "https://dc.lft.to/lastmile_qr_scan"}}, {"type": "electric_scooter", "name": "ce7494718cfe15523f4c18de6f8a28b7", "fusion_lon": 0.0, "is_reserved": 0, "lon": -77.02206866666667, "fusion_lat": 0.0, "is_disabled": 0, "bike_id": "ce7494718cfe15523f4c18de6f8a28b7", "lat": 38.92475866666667, "rental_uris": {"ios": "https://dc.lft.to/lastmile_qr_scan", "android": "https://dc.lft.to/lastmile_qr_scan"}}, {"type": "electric_scooter", "name": "766d5d62cc38f30e9708cb2ccb3e43e0", "fusion_lon": 0.0, "is_reserved": 0, "lon": -77.02396966666667, "fusion_lat": 0.0, "is_disabled": 0, "bike_id": "766d5d62cc38f30e9708cb2ccb3e43e0", "lat": 38.900293833333336, "rental_uris": {"ios": "https://dc.lft.to/lastmile_qr_scan", "android": "https://dc.lft.to/lastmile_qr_scan"}}, {"type": "electric_scooter", "name": "2b2fe19d382d4845ff5b6b4ef9dfba92", "fusion_lon": 0.0, "is_reserved": 0, "lon": -76.99269316666667, "fusion_lat": 0.0, "is_disabled": 0, "bike_id": "2b2fe19d382d4845ff5b6b4ef9dfba92", "lat": 38.89299916666667, "rental_uris": {"ios": "https://dc.lft.to/lastmile_qr_scan", "android": "https://dc.lft.to/lastmile_qr_scan"}}, {"type": "electric_scooter", "name": "12fc526aebdb9ffccb2d5c3d3ce9d0d4", "fusion_lon": 0.0, "is_reserved": 0, "lon": -77.02167933333334, "fusion_lat": 0.0, "is_disabled": 0, "bike_id": "12fc526aebdb9ffccb2d5c3d3ce9d0d4", "lat": 38.94292166666666, "rental_uris": {"ios": "https://dc.lft.to/lastmile_qr_scan", "android": "https://dc.lft.to/lastmile_qr_scan"}}, {"type": "electric_scooter", "name": "4f1b4f923deacbce950eb735376e822e", "fusion_lon": 0.0, "is_reserved": 0, "lon": -77.0277965, "fusion_lat": 0.0, "is_disabled": 0, "bike_id": "4f1b4f923deacbce950eb735376e822e", "lat": 38.956163833333335, "rental_uris": {"ios": "https://dc.lft.to/lastmile_qr_scan", "android": "https://dc.lft.to/lastmile_qr_scan"}}, {"type": "electric_scooter", "name": "76502b158a12edb2f54db7d6834f3f15", "fusion_lon": 0.0, "is_reserved": 0, "lon": -76.95101683333333, "fusion_lat": 0.0, "is_disabled": 0, "bike_id": "76502b158a12edb2f54db7d6834f3f15", "lat": 38.88817616666667, "rental_uris": {"ios": "https://dc.lft.to/lastmile_qr_scan", "android": "https://dc.lft.to/lastmile_qr_scan"}}, {"type": "electric_scooter", "name": "8f7e9df0312afb49ccfb669f02f62e2f", "fusion_lon": 0.0, "is_reserved": 0, "lon": -77.0383225, "fusion_lat": 0.0, "is_disabled": 0, "bike_id": "8f7e9df0312afb49ccfb669f02f62e2f", "lat": 38.907708166666666, "rental_uris": {"ios": "https://dc.lft.to/lastmile_qr_scan", "android": "https://dc.lft.to/lastmile_qr_scan"}}, {"type": "electric_scooter", "name": "436479af7b8d29b5f709f617d372a6f5", "fusion_lon": 0.0, "is_reserved": 0, "lon": -77.03516516666667, "fusion_lat": 0.0, "is_disabled": 0, "bike_id": "436479af7b8d29b5f709f617d372a6f5", "lat": 38.923161666666665, "rental_uris": {"ios": "https://dc.lft.to/lastmile_qr_scan", "android": "https://dc.lft.to/lastmile_qr_scan"}}, {"type": "electric_scooter", "name": "a2934175f97e4eba85816393279590ca", "fusion_lon": 0.0, "is_reserved": 0, "lon": -77.03069216666667, "fusion_lat": 0.0, "is_disabled": 0, "bike_id": "a2934175f97e4eba85816393279590ca", "lat": 38.90937016666667, "rental_uris": {"ios": "https://dc.lft.to/lastmile_qr_scan", "android": "https://dc.lft.to/lastmile_qr_scan"}}, {"type": "electric_scooter", "name": "08db243585d0e3dd238ae068223fd8e4", "fusion_lon": 0.0, "is_reserved": 0, "lon": -77.00889916666667, "fusion_lat": 0.0, "is_disabled": 0, "bike_id": "08db243585d0e3dd238ae068223fd8e4", "lat": 38.900073666666664, "rental_uris": {"ios": "https://dc.lft.to/lastmile_qr_scan", "android": "https://dc.lft.to/lastmile_qr_scan"}}, {"type": "electric_scooter", "name": "52c9f94cceee5175b6d014af58ebad07", "fusion_lon": 0.0, "is_reserved": 0, "lon": -77.043372, "fusion_lat": 0.0, "is_disabled": 0, "bike_id": "52c9f94cceee5175b6d014af58ebad07", "lat": 38.90123966666667, "rental_uris": {"ios": "https://dc.lft.to/lastmile_qr_scan", "android": "https://dc.lft.to/lastmile_qr_scan"}}, {"type": "electric_scooter", "name": "9e2174c682aa21a8960f85e3fd7f4980", "fusion_lon": 0.0, "is_reserved": 0, "lon": -77.04509416666667, "fusion_lat": 0.0, "is_disabled": 0, "bike_id": "9e2174c682aa21a8960f85e3fd7f4980", "lat": 38.90552866666667, "rental_uris": {"ios": "https://dc.lft.to/lastmile_qr_scan", "android": "https://dc.lft.to/lastmile_qr_scan"}}, {"type": "electric_scooter", "name": "7ffc12fda5bd4a2e4ba75c43512dbc6a", "fusion_lon": 0.0, "is_reserved": 0, "lon": -76.99956183333333, "fusion_lat": 0.0, "is_disabled": 0, "bike_id": "7ffc12fda5bd4a2e4ba75c43512dbc6a", "lat": 38.90862666666666, "rental_uris": {"ios": "https://dc.lft.to/lastmile_qr_scan", "android": "https://dc.lft.to/lastmile_qr_scan"}}, {"type": "electric_scooter", "name": "74ad9447e68a520f5e8c559e91bba822", "fusion_lon": 0.0, "is_reserved": 0, "lon": -77.0296375, "fusion_lat": 0.0, "is_disabled": 0, "bike_id": "74ad9447e68a520f5e8c559e91bba822", "lat": 38.916794833333334, "rental_uris": {"ios": "https://dc.lft.to/lastmile_qr_scan", "android": "https://dc.lft.to/lastmile_qr_scan"}}, {"type": "electric_scooter", "name": "856edb157ab55595c743f67ec9e8b20b", "fusion_lon": 0.0, "is_reserved": 0, "lon": -77.04308033333334, "fusion_lat": 0.0, "is_disabled": 0, "bike_id": "856edb157ab55595c743f67ec9e8b20b", "lat": 38.892238, "rental_uris": {"ios": "https://dc.lft.to/lastmile_qr_scan", "android": "https://dc.lft.to/lastmile_qr_scan"}}, {"type": "electric_scooter", "name": "61771d923d163b33ae1c04f1c1114c4c", "fusion_lon": 0.0, "is_reserved": 0, "lon": -77.02216583333333, "fusion_lat": 0.0, "is_disabled": 0, "bike_id": "61771d923d163b33ae1c04f1c1114c4c", "lat": 38.95526016666667, "rental_uris": {"ios": "https://dc.lft.to/lastmile_qr_scan", "android": "https://dc.lft.to/lastmile_qr_scan"}}, {"type": "electric_scooter", "name": "f025177eb8bad34aaecf03174a46a97c", "fusion_lon": 0.0, "is_reserved": 0, "lon": -77.04505, "fusion_lat": 0.0, "is_disabled": 0, "bike_id": "f025177eb8bad34aaecf03174a46a97c", "lat": 38.8922995, "rental_uris": {"ios": "https://dc.lft.to/lastmile_qr_scan", "android": "https://dc.lft.to/lastmile_qr_scan"}}, {"type": "electric_scooter", "name": "e31052583bd7d4e200b751df4957b78f", "fusion_lon": 0.0, "is_reserved": 0, "lon": -77.028114, "fusion_lat": 0.0, "is_disabled": 0, "bike_id": "e31052583bd7d4e200b751df4957b78f", "lat": 38.91535316666667, "rental_uris": {"ios": "https://dc.lft.to/lastmile_qr_scan", "android": "https://dc.lft.to/lastmile_qr_scan"}}, {"type": "electric_scooter", "name": "aadc6bc904658a172ed4f2237fb4b963", "fusion_lon": 0.0, "is_reserved": 0, "lon": -77.0455075, "fusion_lat": 0.0, "is_disabled": 0, "bike_id": "aadc6bc904658a172ed4f2237fb4b963", "lat": 38.907463166666666, "rental_uris": {"ios": "https://dc.lft.to/lastmile_qr_scan", "android": "https://dc.lft.to/lastmile_qr_scan"}}, {"type": "electric_scooter", "name": "eee840e7e76f0b60f95804833343fcec", "fusion_lon": 0.0, "is_reserved": 0, "lon": -77.00017916666667, "fusion_lat": 0.0, "is_disabled": 0, "bike_id": "eee840e7e76f0b60f95804833343fcec", "lat": 38.8736635, "rental_uris": {"ios": "https://dc.lft.to/lastmile_qr_scan", "android": "https://dc.lft.to/lastmile_qr_scan"}}, {"type": "electric_scooter", "name": "1043a334c9b947c555bdfdea98a5312d", "fusion_lon": 0.0, "is_reserved": 0, "lon": -76.98920866666667, "fusion_lat": 0.0, "is_disabled": 0, "bike_id": "1043a334c9b947c555bdfdea98a5312d", "lat": 38.90253033333333, "rental_uris": {"ios": "https://dc.lft.to/lastmile_qr_scan", "android": "https://dc.lft.to/lastmile_qr_scan"}}, {"type": "electric_scooter", "name": "5278f9c51d3e5f2a75db586d9f2ec68d", "fusion_lon": 0.0, "is_reserved": 0, "lon": -77.03637433333333, "fusion_lat": 0.0, "is_disabled": 0, "bike_id": "5278f9c51d3e5f2a75db586d9f2ec68d", "lat": 38.91505383333333, "rental_uris": {"ios": "https://dc.lft.to/lastmile_qr_scan", "android": "https://dc.lft.to/lastmile_qr_scan"}}, {"type": "electric_scooter", "name": "3688ed1aababcc167d492011c1fa77e8", "fusion_lon": 0.0, "is_reserved": 0, "lon": -77.0354395, "fusion_lat": 0.0, "is_disabled": 0, "bike_id": "3688ed1aababcc167d492011c1fa77e8", "lat": 38.90482316666667, "rental_uris": {"ios": "https://dc.lft.to/lastmile_qr_scan", "android": "https://dc.lft.to/lastmile_qr_scan"}}, {"type": "electric_scooter", "name": "604f5861a7ca1f472c6b96338d1d5dc5", "fusion_lon": 0.0, "is_reserved": 0, "lon": -77.00305066666667, "fusion_lat": 0.0, "is_disabled": 0, "bike_id": "604f5861a7ca1f472c6b96338d1d5dc5", "lat": 38.900334, "rental_uris": {"ios": "https://dc.lft.to/lastmile_qr_scan", "android": "https://dc.lft.to/lastmile_qr_scan"}}, {"type": "electric_scooter", "name": "db600b28069aa5b6982f4dd1ce6b9d3d", "fusion_lon": 0.0, "is_reserved": 0, "lon": -77.03832516666667, "fusion_lat": 0.0, "is_disabled": 0, "bike_id": "db600b28069aa5b6982f4dd1ce6b9d3d", "lat": 38.9038295, "rental_uris": {"ios": "https://dc.lft.to/lastmile_qr_scan", "android": "https://dc.lft.to/lastmile_qr_scan"}}, {"type": "electric_scooter", "name": "e5c19fe42f141b2941ccc9f8148a2957", "fusion_lon": 0.0, "is_reserved": 0, "lon": -77.03695333333333, "fusion_lat": 0.0, "is_disabled": 0, "bike_id": "e5c19fe42f141b2941ccc9f8148a2957", "lat": 38.92031816666667, "rental_uris": {"ios": "https://dc.lft.to/lastmile_qr_scan", "android": "https://dc.lft.to/lastmile_qr_scan"}}, {"type": "electric_scooter", "name": "7bd3b81cad12e6f8c18453f83c59d10e", "fusion_lon": 0.0, "is_reserved": 0, "lon": -77.03662816666667, "fusion_lat": 0.0, "is_disabled": 0, "bike_id": "7bd3b81cad12e6f8c18453f83c59d10e", "lat": 38.9224425, "rental_uris": {"ios": "https://dc.lft.to/lastmile_qr_scan", "android": "https://dc.lft.to/lastmile_qr_scan"}}, {"type": "electric_scooter", "name": "3b5461bdc321d90f86aaba417697b492", "fusion_lon": 0.0, "is_reserved": 0, "lon": -77.03892933333333, "fusion_lat": 0.0, "is_disabled": 0, "bike_id": "3b5461bdc321d90f86aaba417697b492", "lat": 38.90253033333333, "rental_uris": {"ios": "https://dc.lft.to/lastmile_qr_scan", "android": "https://dc.lft.to/lastmile_qr_scan"}}, {"type": "electric_scooter", "name": "0ab491ac3e660a1c70b08c07d28fce07", "fusion_lon": 0.0, "is_reserved": 0, "lon": -77.00709216666667, "fusion_lat": 0.0, "is_disabled": 0, "bike_id": "0ab491ac3e660a1c70b08c07d28fce07", "lat": 38.88490916666667, "rental_uris": {"ios": "https://dc.lft.to/lastmile_qr_scan", "android": "https://dc.lft.to/lastmile_qr_scan"}}, {"type": "electric_scooter", "name": "0b46d98ea62e9f68d9098aab6405b5ba", "fusion_lon": 0.0, "is_reserved": 0, "lon": -77.03440433333333, "fusion_lat": 0.0, "is_disabled": 0, "bike_id": "0b46d98ea62e9f68d9098aab6405b5ba", "lat": 38.90364783333333, "rental_uris": {"ios": "https://dc.lft.to/lastmile_qr_scan", "android": "https://dc.lft.to/lastmile_qr_scan"}}, {"type": "electric_scooter", "name": "6bc54a3b6c5f4df5c7086c5e82159c79", "fusion_lon": 0.0, "is_reserved": 0, "lon": -77.048298, "fusion_lat": 0.0, "is_disabled": 0, "bike_id": "6bc54a3b6c5f4df5c7086c5e82159c79", "lat": 38.9188865, "rental_uris": {"ios": "https://dc.lft.to/lastmile_qr_scan", "android": "https://dc.lft.to/lastmile_qr_scan"}}, {"type": "electric_scooter", "name": "372ab808866e0a31a7ad810dfb076730", "fusion_lon": 0.0, "is_reserved": 0, "lon": -77.021687, "fusion_lat": 0.0, "is_disabled": 0, "bike_id": "372ab808866e0a31a7ad810dfb076730", "lat": 38.893974166666666, "rental_uris": {"ios": "https://dc.lft.to/lastmile_qr_scan", "android": "https://dc.lft.to/lastmile_qr_scan"}}, {"type": "electric_bike", "name": "a7be92d8d52b04661ee7ed86187b0125", "fusion_lon": 0.0, "is_reserved": 0, "lon": -76.9767705, "fusion_lat": 0.0, "is_disabled": 0, "bike_id": "a7be92d8d52b04661ee7ed86187b0125", "lat": 38.95248766666667, "rental_uris": {"ios": "https://dc.lft.to/lastmile_qr_scan", "android": "https://dc.lft.to/lastmile_qr_scan"}}, {"type": "electric_scooter", "name": "17e48bc9e9b73014dbe0060427fa544c", "fusion_lon": 0.0, "is_reserved": 0, "lon": -77.022107, "fusion_lat": 0.0, "is_disabled": 0, "bike_id": "17e48bc9e9b73014dbe0060427fa544c", "lat": 38.920420666666665, "rental_uris": {"ios": "https://dc.lft.to/lastmile_qr_scan", "android": "https://dc.lft.to/lastmile_qr_scan"}}, {"type": "electric_scooter", "name": "d032bc34669a8a97fe65503ce0ab53d3", "fusion_lon": 0.0, "is_reserved": 0, "lon": -77.01008433333334, "fusion_lat": 0.0, "is_disabled": 0, "bike_id": "d032bc34669a8a97fe65503ce0ab53d3", "lat": 38.906333833333335, "rental_uris": {"ios": "https://dc.lft.to/lastmile_qr_scan", "android": "https://dc.lft.to/lastmile_qr_scan"}}, {"type": "electric_scooter", "name": "7061b08c78a494e6d12ac014567021d4", "fusion_lon": 0.0, "is_reserved": 0, "lon": -77.01509933333334, "fusion_lat": 0.0, "is_disabled": 0, "bike_id": "7061b08c78a494e6d12ac014567021d4", "lat": 38.96780533333333, "rental_uris": {"ios": "https://dc.lft.to/lastmile_qr_scan", "android": "https://dc.lft.to/lastmile_qr_scan"}}, {"type": "electric_scooter", "name": "3844724750555fa13aa4870b6a07a2f0", "fusion_lon": 0.0, "is_reserved": 0, "lon": -76.98348316666667, "fusion_lat": 0.0, "is_disabled": 0, "bike_id": "3844724750555fa13aa4870b6a07a2f0", "lat": 38.8499505, "rental_uris": {"ios": "https://dc.lft.to/lastmile_qr_scan", "android": "https://dc.lft.to/lastmile_qr_scan"}}, {"type": "electric_scooter", "name": "cf2035faa8937901eddb4e2fcfae94b0", "fusion_lon": 0.0, "is_reserved": 0, "lon": -77.0390465, "fusion_lat": 0.0, "is_disabled": 0, "bike_id": "cf2035faa8937901eddb4e2fcfae94b0", "lat": 38.902516, "rental_uris": {"ios": "https://dc.lft.to/lastmile_qr_scan", "android": "https://dc.lft.to/lastmile_qr_scan"}}, {"type": "electric_scooter", "name": "418bb490b493484fe740a61ae8175a16", "fusion_lon": 0.0, "is_reserved": 0, "lon": -76.99861283333334, "fusion_lat": 0.0, "is_disabled": 0, "bike_id": "418bb490b493484fe740a61ae8175a16", "lat": 38.90884116666667, "rental_uris": {"ios": "https://dc.lft.to/lastmile_qr_scan", "android": "https://dc.lft.to/lastmile_qr_scan"}}, {"type": "electric_scooter", "name": "22ce32a4e15f6629c9a0dd87facb124f", "fusion_lon": 0.0, "is_reserved": 0, "lon": -76.93369716666666, "fusion_lat": 0.0, "is_disabled": 0, "bike_id": "22ce32a4e15f6629c9a0dd87facb124f", "lat": 38.901875, "rental_uris": {"ios": "https://dc.lft.to/lastmile_qr_scan", "android": "https://dc.lft.to/lastmile_qr_scan"}}, {"type": "electric_bike", "name": "db85db1b376f3eed3a68d28fd57361a2", "fusion_lon": 0.0, "is_reserved": 0, "lon": -76.99542466666666, "fusion_lat": 0.0, "is_disabled": 0, "bike_id": "db85db1b376f3eed3a68d28fd57361a2", "lat": 38.8622155, "rental_uris": {"ios": "https://dc.lft.to/lastmile_qr_scan", "android": "https://dc.lft.to/lastmile_qr_scan"}}, {"type": "electric_scooter", "name": "e6566a1f3fe427f329eb231d9dbd7eb4", "fusion_lon": 0.0, "is_reserved": 0, "lon": -76.98563033333333, "fusion_lat": 0.0, "is_disabled": 0, "bike_id": "e6566a1f3fe427f329eb231d9dbd7eb4", "lat": 38.858493333333335, "rental_uris": {"ios": "https://dc.lft.to/lastmile_qr_scan", "android": "https://dc.lft.to/lastmile_qr_scan"}}, {"type": "electric_scooter", "name": "088902c1f313e3046b0e28ee854c0209", "fusion_lon": 0.0, "is_reserved": 0, "lon": -77.02221166666666, "fusion_lat": 0.0, "is_disabled": 0, "bike_id": "088902c1f313e3046b0e28ee854c0209", "lat": 38.905886333333335, "rental_uris": {"ios": "https://dc.lft.to/lastmile_qr_scan", "android": "https://dc.lft.to/lastmile_qr_scan"}}, {"type": "electric_scooter", "name": "548d51a84d2163eb031f29355d5b710f", "fusion_lon": 0.0, "is_reserved": 0, "lon": -77.03209066666666, "fusion_lat": 0.0, "is_disabled": 0, "bike_id": "548d51a84d2163eb031f29355d5b710f", "lat": 38.921709166666666, "rental_uris": {"ios": "https://dc.lft.to/lastmile_qr_scan", "android": "https://dc.lft.to/lastmile_qr_scan"}}, {"type": "electric_scooter", "name": "e6c2d02300abe534ef035c08d1047f11", "fusion_lon": 0.0, "is_reserved": 0, "lon": -77.025208, "fusion_lat": 0.0, "is_disabled": 0, "bike_id": "e6c2d02300abe534ef035c08d1047f11", "lat": 38.93863233333333, "rental_uris": {"ios": "https://dc.lft.to/lastmile_qr_scan", "android": "https://dc.lft.to/lastmile_qr_scan"}}, {"type": "electric_scooter", "name": "1a8414386919ca0107997a1c5b126cdc", "fusion_lon": 0.0, "is_reserved": 0, "lon": -77.0215745, "fusion_lat": 0.0, "is_disabled": 0, "bike_id": "1a8414386919ca0107997a1c5b126cdc", "lat": 38.9246895, "rental_uris": {"ios": "https://dc.lft.to/lastmile_qr_scan", "android": "https://dc.lft.to/lastmile_qr_scan"}}, {"type": "electric_scooter", "name": "44ffc8de08a2b7fe1c309d8c4a6074e1", "fusion_lon": 0.0, "is_reserved": 0, "lon": -77.03217566666666, "fusion_lat": 0.0, "is_disabled": 0, "bike_id": "44ffc8de08a2b7fe1c309d8c4a6074e1", "lat": 38.919943333333336, "rental_uris": {"ios": "https://dc.lft.to/lastmile_qr_scan", "android": "https://dc.lft.to/lastmile_qr_scan"}}, {"type": "electric_scooter", "name": "2958b8dd942083eab7ce1f40c473bda4", "fusion_lon": 0.0, "is_reserved": 0, "lon": -77.04810133333334, "fusion_lat": 0.0, "is_disabled": 0, "bike_id": "2958b8dd942083eab7ce1f40c473bda4", "lat": 38.904697666666664, "rental_uris": {"ios": "https://dc.lft.to/lastmile_qr_scan", "android": "https://dc.lft.to/lastmile_qr_scan"}}, {"type": "electric_scooter", "name": "0ba4d6a623b7b82903bc6399229e58bc", "fusion_lon": 0.0, "is_reserved": 0, "lon": -77.02983033333334, "fusion_lat": 0.0, "is_disabled": 0, "bike_id": "0ba4d6a623b7b82903bc6399229e58bc", "lat": 38.92054566666667, "rental_uris": {"ios": "https://dc.lft.to/lastmile_qr_scan", "android": "https://dc.lft.to/lastmile_qr_scan"}}, {"type": "electric_bike", "name": "64caff67c981decafd1a1a940e395707", "fusion_lon": 0.0, "is_reserved": 0, "lon": -77.059964, "fusion_lat": 0.0, "is_disabled": 0, "bike_id": "64caff67c981decafd1a1a940e395707", "lat": 38.806831, "rental_uris": {"ios": "https://dc.lft.to/lastmile_qr_scan", "android": "https://dc.lft.to/lastmile_qr_scan"}}, {"type": "electric_scooter", "name": "c582d5f65a9cb2fc183e24f99750f0a0", "fusion_lon": 0.0, "is_reserved": 0, "lon": -77.0466635, "fusion_lat": 0.0, "is_disabled": 0, "bike_id": "c582d5f65a9cb2fc183e24f99750f0a0", "lat": 38.8963205, "rental_uris": {"ios": "https://dc.lft.to/lastmile_qr_scan", "android": "https://dc.lft.to/lastmile_qr_scan"}}, {"type": "electric_bike", "name": "03084538faddad379ca8259eaf56c5bc", "fusion_lon": 0.0, "is_reserved": 0, "lon": -77.06691183333334, "fusion_lat": 0.0, "is_disabled": 0, "bike_id": "03084538faddad379ca8259eaf56c5bc", "lat": 38.84560833333333, "rental_uris": {"ios": "https://dc.lft.to/lastmile_qr_scan", "android": "https://dc.lft.to/lastmile_qr_scan"}}, {"type": "electric_scooter", "name": "67961d304f94a0fb7d0ab700eb4a2076", "fusion_lon": 0.0, "is_reserved": 0, "lon": -77.03146166666667, "fusion_lat": 0.0, "is_disabled": 0, "bike_id": "67961d304f94a0fb7d0ab700eb4a2076", "lat": 38.914157833333334, "rental_uris": {"ios": "https://dc.lft.to/lastmile_qr_scan", "android": "https://dc.lft.to/lastmile_qr_scan"}}, {"type": "electric_bike", "name": "037f4ba4f78f4ed8f5a703e69d3d43ce", "fusion_lon": 0.0, "is_reserved": 0, "lon": -77.11575383333333, "fusion_lat": 0.0, "is_disabled": 0, "bike_id": "037f4ba4f78f4ed8f5a703e69d3d43ce", "lat": 38.99344, "rental_uris": {"ios": "https://dc.lft.to/lastmile_qr_scan", "android": "https://dc.lft.to/lastmile_qr_scan"}}, {"type": "electric_scooter", "name": "e617297d40163cb6ee177fa7ff346624", "fusion_lon": 0.0, "is_reserved": 0, "lon": -77.02489283333334, "fusion_lat": 0.0, "is_disabled": 0, "bike_id": "e617297d40163cb6ee177fa7ff346624", "lat": 38.94185133333333, "rental_uris": {"ios": "https://dc.lft.to/lastmile_qr_scan", "android": "https://dc.lft.to/lastmile_qr_scan"}}, {"type": "electric_scooter", "name": "ce8da21bc36814154e778cf588b5d8be", "fusion_lon": 0.0, "is_reserved": 0, "lon": -77.027283, "fusion_lat": 0.0, "is_disabled": 0, "bike_id": "ce8da21bc36814154e778cf588b5d8be", "lat": 38.95182166666667, "rental_uris": {"ios": "https://dc.lft.to/lastmile_qr_scan", "android": "https://dc.lft.to/lastmile_qr_scan"}}, {"type": "electric_scooter", "name": "0b6eab743106206ab139ef5323d60485", "fusion_lon": 0.0, "is_reserved": 0, "lon": -76.98071966666667, "fusion_lat": 0.0, "is_disabled": 0, "bike_id": "0b6eab743106206ab139ef5323d60485", "lat": 38.900189166666664, "rental_uris": {"ios": "https://dc.lft.to/lastmile_qr_scan", "android": "https://dc.lft.to/lastmile_qr_scan"}}, {"type": "electric_scooter", "name": "4aa44846deb823fbc98fe3db6ea9c1d0", "fusion_lon": 0.0, "is_reserved": 0, "lon": -77.03854733333333, "fusion_lat": 0.0, "is_disabled": 0, "bike_id": "4aa44846deb823fbc98fe3db6ea9c1d0", "lat": 38.91714, "rental_uris": {"ios": "https://dc.lft.to/lastmile_qr_scan", "android": "https://dc.lft.to/lastmile_qr_scan"}}, {"type": "electric_scooter", "name": "717c67deed5fc3050381495ecee40d4d", "fusion_lon": 0.0, "is_reserved": 0, "lon": -77.05085616666666, "fusion_lat": 0.0, "is_disabled": 0, "bike_id": "717c67deed5fc3050381495ecee40d4d", "lat": 38.923435833333336, "rental_uris": {"ios": "https://dc.lft.to/lastmile_qr_scan", "android": "https://dc.lft.to/lastmile_qr_scan"}}, {"type": "electric_bike", "name": "f61c4eb4c49e1229d891a9e7810f5c3e", "fusion_lon": 0.0, "is_reserved": 0, "lon": -77.07229266666667, "fusion_lat": 0.0, "is_disabled": 0, "bike_id": "f61c4eb4c49e1229d891a9e7810f5c3e", "lat": 38.96813266666667, "rental_uris": {"ios": "https://dc.lft.to/lastmile_qr_scan", "android": "https://dc.lft.to/lastmile_qr_scan"}}, {"type": "electric_scooter", "name": "a794d8bdbc9ae7bc8b92db87ad2c42bb", "fusion_lon": 0.0, "is_reserved": 0, "lon": -77.052313, "fusion_lat": 0.0, "is_disabled": 0, "bike_id": "a794d8bdbc9ae7bc8b92db87ad2c42bb", "lat": 38.924687666666664, "rental_uris": {"ios": "https://dc.lft.to/lastmile_qr_scan", "android": "https://dc.lft.to/lastmile_qr_scan"}}, {"type": "electric_scooter", "name": "263e99702474e731932d6c6afa93511a", "fusion_lon": 0.0, "is_reserved": 0, "lon": -76.98492183333333, "fusion_lat": 0.0, "is_disabled": 0, "bike_id": "263e99702474e731932d6c6afa93511a", "lat": 38.9044295, "rental_uris": {"ios": "https://dc.lft.to/lastmile_qr_scan", "android": "https://dc.lft.to/lastmile_qr_scan"}}, {"type": "electric_scooter", "name": "7ee41339f78b70aa47f0c9aa0d60fcb6", "fusion_lon": 0.0, "is_reserved": 0, "lon": -77.03166883333333, "fusion_lat": 0.0, "is_disabled": 0, "bike_id": "7ee41339f78b70aa47f0c9aa0d60fcb6", "lat": 38.91619516666667, "rental_uris": {"ios": "https://dc.lft.to/lastmile_qr_scan", "android": "https://dc.lft.to/lastmile_qr_scan"}}, {"type": "electric_scooter", "name": "99343cf65eff036119171b4f31645cc1", "fusion_lon": 0.0, "is_reserved": 0, "lon": -77.0058645, "fusion_lat": 0.0, "is_disabled": 0, "bike_id": "99343cf65eff036119171b4f31645cc1", "lat": 38.90563916666667, "rental_uris": {"ios": "https://dc.lft.to/lastmile_qr_scan", "android": "https://dc.lft.to/lastmile_qr_scan"}}, {"type": "electric_scooter", "name": "6fbdff2a7068397550068ebe3ccd084b", "fusion_lon": 0.0, "is_reserved": 0, "lon": -77.016255, "fusion_lat": 0.0, "is_disabled": 0, "bike_id": "6fbdff2a7068397550068ebe3ccd084b", "lat": 38.899852333333335, "rental_uris": {"ios": "https://dc.lft.to/lastmile_qr_scan", "android": "https://dc.lft.to/lastmile_qr_scan"}}, {"type": "electric_scooter", "name": "a75755b82000d693801111e697c9c805", "fusion_lon": 0.0, "is_reserved": 0, "lon": -77.02114133333333, "fusion_lat": 0.0, "is_disabled": 0, "bike_id": "a75755b82000d693801111e697c9c805", "lat": 38.940823333333334, "rental_uris": {"ios": "https://dc.lft.to/lastmile_qr_scan", "android": "https://dc.lft.to/lastmile_qr_scan"}}, {"type": "electric_scooter", "name": "5a449b9d801500163b69186ee3a81d43", "fusion_lon": 0.0, "is_reserved": 0, "lon": -77.03633883333333, "fusion_lat": 0.0, "is_disabled": 0, "bike_id": "5a449b9d801500163b69186ee3a81d43", "lat": 38.90263683333333, "rental_uris": {"ios": "https://dc.lft.to/lastmile_qr_scan", "android": "https://dc.lft.to/lastmile_qr_scan"}}, {"type": "electric_scooter", "name": "d06c75d74dc5b1dfc323937eb8976119", "fusion_lon": 0.0, "is_reserved": 0, "lon": -77.0299055, "fusion_lat": 0.0, "is_disabled": 0, "bike_id": "d06c75d74dc5b1dfc323937eb8976119", "lat": 38.8963135, "rental_uris": {"ios": "https://dc.lft.to/lastmile_qr_scan", "android": "https://dc.lft.to/lastmile_qr_scan"}}, {"type": "electric_scooter", "name": "2d25d319fe727af8ceb037429de6f85e", "fusion_lon": 0.0, "is_reserved": 0, "lon": -77.04343, "fusion_lat": 0.0, "is_disabled": 0, "bike_id": "2d25d319fe727af8ceb037429de6f85e", "lat": 38.903684, "rental_uris": {"ios": "https://dc.lft.to/lastmile_qr_scan", "android": "https://dc.lft.to/lastmile_qr_scan"}}, {"type": "electric_scooter", "name": "ff1a4563776bfad6a1fc7014af9c92e3", "fusion_lon": 0.0, "is_reserved": 0, "lon": -77.03927183333333, "fusion_lat": 0.0, "is_disabled": 0, "bike_id": "ff1a4563776bfad6a1fc7014af9c92e3", "lat": 38.90364833333334, "rental_uris": {"ios": "https://dc.lft.to/lastmile_qr_scan", "android": "https://dc.lft.to/lastmile_qr_scan"}}, {"type": "electric_scooter", "name": "115d091471371e9ac4ff596451b88c87", "fusion_lon": 0.0, "is_reserved": 0, "lon": -77.03315033333334, "fusion_lat": 0.0, "is_disabled": 0, "bike_id": "115d091471371e9ac4ff596451b88c87", "lat": 38.9082395, "rental_uris": {"ios": "https://dc.lft.to/lastmile_qr_scan", "android": "https://dc.lft.to/lastmile_qr_scan"}}, {"type": "electric_scooter", "name": "09a35fa6d7b396e32a45b319b848f1b3", "fusion_lon": 0.0, "is_reserved": 0, "lon": -77.05662766666667, "fusion_lat": 0.0, "is_disabled": 0, "bike_id": "09a35fa6d7b396e32a45b319b848f1b3", "lat": 38.89542766666667, "rental_uris": {"ios": "https://dc.lft.to/lastmile_qr_scan", "android": "https://dc.lft.to/lastmile_qr_scan"}}, {"type": "electric_bike", "name": "5f58c508c9aafbf68aff9612a5df0773", "fusion_lon": 0.0, "is_reserved": 0, "lon": -77.0297825, "fusion_lat": 0.0, "is_disabled": 0, "bike_id": "5f58c508c9aafbf68aff9612a5df0773", "lat": 38.93704366666667, "rental_uris": {"ios": "https://dc.lft.to/lastmile_qr_scan", "android": "https://dc.lft.to/lastmile_qr_scan"}}, {"type": "electric_scooter", "name": "550205d6d7553a0a81c81e8880b0d1d2", "fusion_lon": 0.0, "is_reserved": 0, "lon": -77.02116333333333, "fusion_lat": 0.0, "is_disabled": 0, "bike_id": "550205d6d7553a0a81c81e8880b0d1d2", "lat": 38.9111545, "rental_uris": {"ios": "https://dc.lft.to/lastmile_qr_scan", "android": "https://dc.lft.to/lastmile_qr_scan"}}, {"type": "electric_scooter", "name": "96c10c823e64529dae0a1cafee6849de", "fusion_lon": 0.0, "is_reserved": 0, "lon": -77.0419625, "fusion_lat": 0.0, "is_disabled": 0, "bike_id": "96c10c823e64529dae0a1cafee6849de", "lat": 38.905676666666665, "rental_uris": {"ios": "https://dc.lft.to/lastmile_qr_scan", "android": "https://dc.lft.to/lastmile_qr_scan"}}, {"type": "electric_scooter", "name": "8256a032e6b52295473e29ca273fb04d", "fusion_lon": 0.0, "is_reserved": 0, "lon": -77.074104, "fusion_lat": 0.0, "is_disabled": 0, "bike_id": "8256a032e6b52295473e29ca273fb04d", "lat": 38.908334333333336, "rental_uris": {"ios": "https://dc.lft.to/lastmile_qr_scan", "android": "https://dc.lft.to/lastmile_qr_scan"}}, {"type": "electric_bike", "name": "3184439565014bd601c93be933f08136", "fusion_lon": 0.0, "is_reserved": 0, "lon": -77.04023316666667, "fusion_lat": 0.0, "is_disabled": 0, "bike_id": "3184439565014bd601c93be933f08136", "lat": 38.90845233333334, "rental_uris": {"ios": "https://dc.lft.to/lastmile_qr_scan", "android": "https://dc.lft.to/lastmile_qr_scan"}}, {"type": "electric_scooter", "name": "bc34c3f47d8a65615ef5072461807ca6", "fusion_lon": 0.0, "is_reserved": 0, "lon": -76.99562216666666, "fusion_lat": 0.0, "is_disabled": 0, "bike_id": "bc34c3f47d8a65615ef5072461807ca6", "lat": 38.950721333333334, "rental_uris": {"ios": "https://dc.lft.to/lastmile_qr_scan", "android": "https://dc.lft.to/lastmile_qr_scan"}}, {"type": "electric_scooter", "name": "843e7c071f134cd578e9e05ab6817150", "fusion_lon": 0.0, "is_reserved": 0, "lon": -77.01949933333333, "fusion_lat": 0.0, "is_disabled": 0, "bike_id": "843e7c071f134cd578e9e05ab6817150", "lat": 38.919307833333335, "rental_uris": {"ios": "https://dc.lft.to/lastmile_qr_scan", "android": "https://dc.lft.to/lastmile_qr_scan"}}, {"type": "electric_scooter", "name": "508aa25249c47adf5962d69443e557a7", "fusion_lon": 0.0, "is_reserved": 0, "lon": -77.00176466666667, "fusion_lat": 0.0, "is_disabled": 0, "bike_id": "508aa25249c47adf5962d69443e557a7", "lat": 38.906433666666665, "rental_uris": {"ios": "https://dc.lft.to/lastmile_qr_scan", "android": "https://dc.lft.to/lastmile_qr_scan"}}, {"type": "electric_scooter", "name": "f37bd54987d9b66c0e680dbaf847ae57", "fusion_lon": 0.0, "is_reserved": 0, "lon": -77.03258633333333, "fusion_lat": 0.0, "is_disabled": 0, "bike_id": "f37bd54987d9b66c0e680dbaf847ae57", "lat": 38.89928733333333, "rental_uris": {"ios": "https://dc.lft.to/lastmile_qr_scan", "android": "https://dc.lft.to/lastmile_qr_scan"}}, {"type": "electric_scooter", "name": "b32d3acf49458549a4fa948e9884adc2", "fusion_lon": 0.0, "is_reserved": 0, "lon": -77.05629616666667, "fusion_lat": 0.0, "is_disabled": 0, "bike_id": "b32d3acf49458549a4fa948e9884adc2", "lat": 38.9315695, "rental_uris": {"ios": "https://dc.lft.to/lastmile_qr_scan", "android": "https://dc.lft.to/lastmile_qr_scan"}}, {"type": "electric_scooter", "name": "86cdf8059c510f76b3558a28b3a1b697", "fusion_lon": 0.0, "is_reserved": 0, "lon": -77.03341466666667, "fusion_lat": 0.0, "is_disabled": 0, "bike_id": "86cdf8059c510f76b3558a28b3a1b697", "lat": 38.9012255, "rental_uris": {"ios": "https://dc.lft.to/lastmile_qr_scan", "android": "https://dc.lft.to/lastmile_qr_scan"}}, {"type": "electric_scooter", "name": "d5a9a2907295e9de8a99250201f336e8", "fusion_lon": 0.0, "is_reserved": 0, "lon": -77.03407983333334, "fusion_lat": 0.0, "is_disabled": 0, "bike_id": "d5a9a2907295e9de8a99250201f336e8", "lat": 38.906260333333336, "rental_uris": {"ios": "https://dc.lft.to/lastmile_qr_scan", "android": "https://dc.lft.to/lastmile_qr_scan"}}, {"type": "electric_scooter", "name": "b27a3c22847bf570da6bea52187094a4", "fusion_lon": 0.0, "is_reserved": 0, "lon": -77.04039183333333, "fusion_lat": 0.0, "is_disabled": 0, "bike_id": "b27a3c22847bf570da6bea52187094a4", "lat": 38.9060385, "rental_uris": {"ios": "https://dc.lft.to/lastmile_qr_scan", "android": "https://dc.lft.to/lastmile_qr_scan"}}, {"type": "electric_scooter", "name": "1271208dffaa4e04d140588c1287a213", "fusion_lon": 0.0, "is_reserved": 0, "lon": -77.02533816666667, "fusion_lat": 0.0, "is_disabled": 0, "bike_id": "1271208dffaa4e04d140588c1287a213", "lat": 38.9275095, "rental_uris": {"ios": "https://dc.lft.to/lastmile_qr_scan", "android": "https://dc.lft.to/lastmile_qr_scan"}}, {"type": "electric_bike", "name": "3720edc34a77df80131ae810a5e0d87c", "fusion_lon": 0.0, "is_reserved": 0, "lon": -76.99782016666667, "fusion_lat": 0.0, "is_disabled": 0, "bike_id": "3720edc34a77df80131ae810a5e0d87c", "lat": 38.8291585, "rental_uris": {"ios": "https://dc.lft.to/lastmile_qr_scan", "android": "https://dc.lft.to/lastmile_qr_scan"}}, {"type": "electric_scooter", "name": "db524b2be99a998a3a87c756e9bdecd8", "fusion_lon": 0.0, "is_reserved": 0, "lon": -77.01276816666666, "fusion_lat": 0.0, "is_disabled": 0, "bike_id": "db524b2be99a998a3a87c756e9bdecd8", "lat": 38.956652, "rental_uris": {"ios": "https://dc.lft.to/lastmile_qr_scan", "android": "https://dc.lft.to/lastmile_qr_scan"}}, {"type": "electric_scooter", "name": "5aa6a0e03e30127b114dde56549b17bf", "fusion_lon": 0.0, "is_reserved": 0, "lon": -77.03083016666666, "fusion_lat": 0.0, "is_disabled": 0, "bike_id": "5aa6a0e03e30127b114dde56549b17bf", "lat": 38.938685666666665, "rental_uris": {"ios": "https://dc.lft.to/lastmile_qr_scan", "android": "https://dc.lft.to/lastmile_qr_scan"}}, {"type": "electric_scooter", "name": "bf396f0ff33e322f8e2801671a603355", "fusion_lon": 0.0, "is_reserved": 0, "lon": -77.0677045, "fusion_lat": 0.0, "is_disabled": 0, "bike_id": "bf396f0ff33e322f8e2801671a603355", "lat": 38.904084166666664, "rental_uris": {"ios": "https://dc.lft.to/lastmile_qr_scan", "android": "https://dc.lft.to/lastmile_qr_scan"}}, {"type": "electric_scooter", "name": "38ae599fc9e8f72b286408371d22600b", "fusion_lon": 0.0, "is_reserved": 0, "lon": -77.00766266666666, "fusion_lat": 0.0, "is_disabled": 0, "bike_id": "38ae599fc9e8f72b286408371d22600b", "lat": 38.8959655, "rental_uris": {"ios": "https://dc.lft.to/lastmile_qr_scan", "android": "https://dc.lft.to/lastmile_qr_scan"}}, {"type": "electric_scooter", "name": "9680fbedc36f36548a7583df4e780f75", "fusion_lon": 0.0, "is_reserved": 0, "lon": -77.01993366666666, "fusion_lat": 0.0, "is_disabled": 0, "bike_id": "9680fbedc36f36548a7583df4e780f75", "lat": 38.966272333333336, "rental_uris": {"ios": "https://dc.lft.to/lastmile_qr_scan", "android": "https://dc.lft.to/lastmile_qr_scan"}}, {"type": "electric_scooter", "name": "310e54c8c65396d589fbe135586fd21d", "fusion_lon": 0.0, "is_reserved": 0, "lon": -77.05029933333333, "fusion_lat": 0.0, "is_disabled": 0, "bike_id": "310e54c8c65396d589fbe135586fd21d", "lat": 38.8967575, "rental_uris": {"ios": "https://dc.lft.to/lastmile_qr_scan", "android": "https://dc.lft.to/lastmile_qr_scan"}}, {"type": "electric_scooter", "name": "2b2e3581145985ad9785fd977f087807", "fusion_lon": 0.0, "is_reserved": 0, "lon": -77.0436955, "fusion_lat": 0.0, "is_disabled": 0, "bike_id": "2b2e3581145985ad9785fd977f087807", "lat": 38.8922405, "rental_uris": {"ios": "https://dc.lft.to/lastmile_qr_scan", "android": "https://dc.lft.to/lastmile_qr_scan"}}, {"type": "electric_scooter", "name": "b8e3c29f315cdeac5d106a3d2b44eba4", "fusion_lon": 0.0, "is_reserved": 0, "lon": -77.00131933333333, "fusion_lat": 0.0, "is_disabled": 0, "bike_id": "b8e3c29f315cdeac5d106a3d2b44eba4", "lat": 38.90513266666667, "rental_uris": {"ios": "https://dc.lft.to/lastmile_qr_scan", "android": "https://dc.lft.to/lastmile_qr_scan"}}, {"type": "electric_bike", "name": "bd7bf6df1ebde660244fdbacb5c197e5", "fusion_lon": 0.0, "is_reserved": 0, "lon": -76.99929666666667, "fusion_lat": 0.0, "is_disabled": 0, "bike_id": "bd7bf6df1ebde660244fdbacb5c197e5", "lat": 39.03991633333333, "rental_uris": {"ios": "https://dc.lft.to/lastmile_qr_scan", "android": "https://dc.lft.to/lastmile_qr_scan"}}, {"type": "electric_scooter", "name": "8a98f5e933cbde4e48c788ff754c7db8", "fusion_lon": 0.0, "is_reserved": 0, "lon": -77.0408605, "fusion_lat": 0.0, "is_disabled": 0, "bike_id": "8a98f5e933cbde4e48c788ff754c7db8", "lat": 38.90558883333333, "rental_uris": {"ios": "https://dc.lft.to/lastmile_qr_scan", "android": "https://dc.lft.to/lastmile_qr_scan"}}, {"type": "electric_scooter", "name": "aa798f7500096a6d37be3e01e30d772c", "fusion_lon": 0.0, "is_reserved": 0, "lon": -77.0021305, "fusion_lat": 0.0, "is_disabled": 0, "bike_id": "aa798f7500096a6d37be3e01e30d772c", "lat": 38.91105266666667, "rental_uris": {"ios": "https://dc.lft.to/lastmile_qr_scan", "android": "https://dc.lft.to/lastmile_qr_scan"}}, {"type": "electric_scooter", "name": "a79929d85d2dc24988792d2f06c24e1c", "fusion_lon": 0.0, "is_reserved": 0, "lon": -77.04019733333334, "fusion_lat": 0.0, "is_disabled": 0, "bike_id": "a79929d85d2dc24988792d2f06c24e1c", "lat": 38.9179665, "rental_uris": {"ios": "https://dc.lft.to/lastmile_qr_scan", "android": "https://dc.lft.to/lastmile_qr_scan"}}, {"type": "electric_scooter", "name": "8533a52ac7463341a8c35bb8d32c5ed1", "fusion_lon": 0.0, "is_reserved": 0, "lon": -77.03216266666666, "fusion_lat": 0.0, "is_disabled": 0, "bike_id": "8533a52ac7463341a8c35bb8d32c5ed1", "lat": 38.91925783333333, "rental_uris": {"ios": "https://dc.lft.to/lastmile_qr_scan", "android": "https://dc.lft.to/lastmile_qr_scan"}}, {"type": "electric_scooter", "name": "cd63e57584caeaae5c9dc36ace24e52f", "fusion_lon": 0.0, "is_reserved": 0, "lon": -76.99830366666667, "fusion_lat": 0.0, "is_disabled": 0, "bike_id": "cd63e57584caeaae5c9dc36ace24e52f", "lat": 38.87681, "rental_uris": {"ios": "https://dc.lft.to/lastmile_qr_scan", "android": "https://dc.lft.to/lastmile_qr_scan"}}, {"type": "electric_scooter", "name": "212e25c433d08d94fbe0fbc66d1e025f", "fusion_lon": 0.0, "is_reserved": 0, "lon": -77.04156733333333, "fusion_lat": 0.0, "is_disabled": 0, "bike_id": "212e25c433d08d94fbe0fbc66d1e025f", "lat": 38.923539166666664, "rental_uris": {"ios": "https://dc.lft.to/lastmile_qr_scan", "android": "https://dc.lft.to/lastmile_qr_scan"}}, {"type": "electric_bike", "name": "1f9527db07e6e31b167815a0dafb3099", "fusion_lon": 0.0, "is_reserved": 0, "lon": -76.92925933333333, "fusion_lat": 0.0, "is_disabled": 0, "bike_id": "1f9527db07e6e31b167815a0dafb3099", "lat": 38.902759833333334, "rental_uris": {"ios": "https://dc.lft.to/lastmile_qr_scan", "android": "https://dc.lft.to/lastmile_qr_scan"}}, {"type": "electric_scooter", "name": "97c606dae212454e678894f6803b13a7", "fusion_lon": 0.0, "is_reserved": 0, "lon": -77.0329915, "fusion_lat": 0.0, "is_disabled": 0, "bike_id": "97c606dae212454e678894f6803b13a7", "lat": 38.89911033333333, "rental_uris": {"ios": "https://dc.lft.to/lastmile_qr_scan", "android": "https://dc.lft.to/lastmile_qr_scan"}}, {"type": "electric_scooter", "name": "d1a338ac524ce0e0ca84da1b383d80e7", "fusion_lon": 0.0, "is_reserved": 0, "lon": -77.01233016666667, "fusion_lat": 0.0, "is_disabled": 0, "bike_id": "d1a338ac524ce0e0ca84da1b383d80e7", "lat": 38.869772833333336, "rental_uris": {"ios": "https://dc.lft.to/lastmile_qr_scan", "android": "https://dc.lft.to/lastmile_qr_scan"}}, {"type": "electric_bike", "name": "a4324db2161ef599b766e7d171f26958", "fusion_lon": 0.0, "is_reserved": 0, "lon": -76.99354716666667, "fusion_lat": 0.0, "is_disabled": 0, "bike_id": "a4324db2161ef599b766e7d171f26958", "lat": 38.95506233333333, "rental_uris": {"ios": "https://dc.lft.to/lastmile_qr_scan", "android": "https://dc.lft.to/lastmile_qr_scan"}}, {"type": "electric_scooter", "name": "fca16b20731b2f98302d7c6e063bf0b8", "fusion_lon": 0.0, "is_reserved": 0, "lon": -76.99956883333333, "fusion_lat": 0.0, "is_disabled": 0, "bike_id": "fca16b20731b2f98302d7c6e063bf0b8", "lat": 38.90325216666667, "rental_uris": {"ios": "https://dc.lft.to/lastmile_qr_scan", "android": "https://dc.lft.to/lastmile_qr_scan"}}, {"type": "electric_scooter", "name": "c157a0fcc472915557389abeeb05c00a", "fusion_lon": 0.0, "is_reserved": 0, "lon": -77.02512, "fusion_lat": 0.0, "is_disabled": 0, "bike_id": "c157a0fcc472915557389abeeb05c00a", "lat": 38.9420425, "rental_uris": {"ios": "https://dc.lft.to/lastmile_qr_scan", "android": "https://dc.lft.to/lastmile_qr_scan"}}, {"type": "electric_scooter", "name": "fd37b2fe10a280ddb7371b86cd38de09", "fusion_lon": 0.0, "is_reserved": 0, "lon": -77.020193, "fusion_lat": 0.0, "is_disabled": 0, "bike_id": "fd37b2fe10a280ddb7371b86cd38de09", "lat": 38.924482166666664, "rental_uris": {"ios": "https://dc.lft.to/lastmile_qr_scan", "android": "https://dc.lft.to/lastmile_qr_scan"}}, {"type": "electric_scooter", "name": "68c20eff121034642fccd925b8cf4965", "fusion_lon": 0.0, "is_reserved": 0, "lon": -77.0288955, "fusion_lat": 0.0, "is_disabled": 0, "bike_id": "68c20eff121034642fccd925b8cf4965", "lat": 38.919483, "rental_uris": {"ios": "https://dc.lft.to/lastmile_qr_scan", "android": "https://dc.lft.to/lastmile_qr_scan"}}, {"type": "electric_scooter", "name": "f95e3c611a059f5e6231ea48ed7a03a0", "fusion_lon": 0.0, "is_reserved": 0, "lon": -77.04308316666666, "fusion_lat": 0.0, "is_disabled": 0, "bike_id": "f95e3c611a059f5e6231ea48ed7a03a0", "lat": 38.89222616666667, "rental_uris": {"ios": "https://dc.lft.to/lastmile_qr_scan", "android": "https://dc.lft.to/lastmile_qr_scan"}}, {"type": "electric_scooter", "name": "c99fdc15cfcced011e1053e1b24d9b71", "fusion_lon": 0.0, "is_reserved": 0, "lon": -77.01513866666667, "fusion_lat": 0.0, "is_disabled": 0, "bike_id": "c99fdc15cfcced011e1053e1b24d9b71", "lat": 38.95840283333333, "rental_uris": {"ios": "https://dc.lft.to/lastmile_qr_scan", "android": "https://dc.lft.to/lastmile_qr_scan"}}, {"type": "electric_scooter", "name": "6c3d85749c018aa693ec712d8f75a9b1", "fusion_lon": 0.0, "is_reserved": 0, "lon": -77.02516283333334, "fusion_lat": 0.0, "is_disabled": 0, "bike_id": "6c3d85749c018aa693ec712d8f75a9b1", "lat": 38.921404, "rental_uris": {"ios": "https://dc.lft.to/lastmile_qr_scan", "android": "https://dc.lft.to/lastmile_qr_scan"}}, {"type": "electric_scooter", "name": "b781337b897d03644fec95ffe273d8a1", "fusion_lon": 0.0, "is_reserved": 0, "lon": -76.965043, "fusion_lat": 0.0, "is_disabled": 0, "bike_id": "b781337b897d03644fec95ffe273d8a1", "lat": 38.8764725, "rental_uris": {"ios": "https://dc.lft.to/lastmile_qr_scan", "android": "https://dc.lft.to/lastmile_qr_scan"}}, {"type": "electric_scooter", "name": "598c1d3a4fedfbff5e67a7fd035f9960", "fusion_lon": 0.0, "is_reserved": 0, "lon": -77.02719316666666, "fusion_lat": 0.0, "is_disabled": 0, "bike_id": "598c1d3a4fedfbff5e67a7fd035f9960", "lat": 38.95132133333333, "rental_uris": {"ios": "https://dc.lft.to/lastmile_qr_scan", "android": "https://dc.lft.to/lastmile_qr_scan"}}, {"type": "electric_bike", "name": "566c18ca5c589c375f966926f4dfb1dc", "fusion_lon": 0.0, "is_reserved": 0, "lon": -77.03081766666666, "fusion_lat": 0.0, "is_disabled": 0, "bike_id": "566c18ca5c589c375f966926f4dfb1dc", "lat": 39.04225683333333, "rental_uris": {"ios": "https://dc.lft.to/lastmile_qr_scan", "android": "https://dc.lft.to/lastmile_qr_scan"}}, {"type": "electric_scooter", "name": "550b9516d2f0bff0db40acbd9f514c4f", "fusion_lon": 0.0, "is_reserved": 0, "lon": -77.03204016666666, "fusion_lat": 0.0, "is_disabled": 0, "bike_id": "550b9516d2f0bff0db40acbd9f514c4f", "lat": 38.930642, "rental_uris": {"ios": "https://dc.lft.to/lastmile_qr_scan", "android": "https://dc.lft.to/lastmile_qr_scan"}}, {"type": "electric_scooter", "name": "1330e241842115d69bb752a6127fa432", "fusion_lon": 0.0, "is_reserved": 0, "lon": -77.0200815, "fusion_lat": 0.0, "is_disabled": 0, "bike_id": "1330e241842115d69bb752a6127fa432", "lat": 38.91113166666667, "rental_uris": {"ios": "https://dc.lft.to/lastmile_qr_scan", "android": "https://dc.lft.to/lastmile_qr_scan"}}, {"type": "electric_scooter", "name": "c959e7cff2210bc3d1e0d9c948da2416", "fusion_lon": 0.0, "is_reserved": 0, "lon": -76.99369883333334, "fusion_lat": 0.0, "is_disabled": 0, "bike_id": "c959e7cff2210bc3d1e0d9c948da2416", "lat": 38.900852666666665, "rental_uris": {"ios": "https://dc.lft.to/lastmile_qr_scan", "android": "https://dc.lft.to/lastmile_qr_scan"}}, {"type": "electric_scooter", "name": "173355b7a4baa275c6c55b9dd7094a10", "fusion_lon": 0.0, "is_reserved": 0, "lon": -77.04877466666667, "fusion_lat": 0.0, "is_disabled": 0, "bike_id": "173355b7a4baa275c6c55b9dd7094a10", "lat": 38.905699166666665, "rental_uris": {"ios": "https://dc.lft.to/lastmile_qr_scan", "android": "https://dc.lft.to/lastmile_qr_scan"}}, {"type": "electric_scooter", "name": "a22f264f0bd134ce0e2dd3236283bec7", "fusion_lon": 0.0, "is_reserved": 0, "lon": -77.01987433333333, "fusion_lat": 0.0, "is_disabled": 0, "bike_id": "a22f264f0bd134ce0e2dd3236283bec7", "lat": 38.92936866666667, "rental_uris": {"ios": "https://dc.lft.to/lastmile_qr_scan", "android": "https://dc.lft.to/lastmile_qr_scan"}}, {"type": "electric_scooter", "name": "ef5913c7c166a79f0816a228c177d5eb", "fusion_lon": 0.0, "is_reserved": 0, "lon": -77.03839666666667, "fusion_lat": 0.0, "is_disabled": 0, "bike_id": "ef5913c7c166a79f0816a228c177d5eb", "lat": 38.903955833333335, "rental_uris": {"ios": "https://dc.lft.to/lastmile_qr_scan", "android": "https://dc.lft.to/lastmile_qr_scan"}}, {"type": "electric_scooter", "name": "9dabd2693c8805315e0e974a6849d686", "fusion_lon": 0.0, "is_reserved": 0, "lon": -77.00209116666667, "fusion_lat": 0.0, "is_disabled": 0, "bike_id": "9dabd2693c8805315e0e974a6849d686", "lat": 38.900347833333335, "rental_uris": {"ios": "https://dc.lft.to/lastmile_qr_scan", "android": "https://dc.lft.to/lastmile_qr_scan"}}, {"type": "electric_scooter", "name": "e58b6b86f3e6bfe944f4e001ce6de688", "fusion_lon": 0.0, "is_reserved": 0, "lon": -76.94662583333333, "fusion_lat": 0.0, "is_disabled": 0, "bike_id": "e58b6b86f3e6bfe944f4e001ce6de688", "lat": 38.89868766666667, "rental_uris": {"ios": "https://dc.lft.to/lastmile_qr_scan", "android": "https://dc.lft.to/lastmile_qr_scan"}}, {"type": "electric_scooter", "name": "ee9fbfa76c72de963f5439b6d852e5d4", "fusion_lon": 0.0, "is_reserved": 0, "lon": -77.03860516666667, "fusion_lat": 0.0, "is_disabled": 0, "bike_id": "ee9fbfa76c72de963f5439b6d852e5d4", "lat": 38.91715283333333, "rental_uris": {"ios": "https://dc.lft.to/lastmile_qr_scan", "android": "https://dc.lft.to/lastmile_qr_scan"}}, {"type": "electric_scooter", "name": "66e4e7c074177d7933d30dec6c13fe21", "fusion_lon": 0.0, "is_reserved": 0, "lon": -77.02004333333333, "fusion_lat": 0.0, "is_disabled": 0, "bike_id": "66e4e7c074177d7933d30dec6c13fe21", "lat": 38.885655666666665, "rental_uris": {"ios": "https://dc.lft.to/lastmile_qr_scan", "android": "https://dc.lft.to/lastmile_qr_scan"}}, {"type": "electric_scooter", "name": "08e2aa0aebd654d8e0f9af7b3bf82807", "fusion_lon": 0.0, "is_reserved": 0, "lon": -77.0346585, "fusion_lat": 0.0, "is_disabled": 0, "bike_id": "08e2aa0aebd654d8e0f9af7b3bf82807", "lat": 38.903003, "rental_uris": {"ios": "https://dc.lft.to/lastmile_qr_scan", "android": "https://dc.lft.to/lastmile_qr_scan"}}, {"type": "electric_scooter", "name": "8ef71e52fad5756c8b3462530364a893", "fusion_lon": 0.0, "is_reserved": 0, "lon": -77.00291266666666, "fusion_lat": 0.0, "is_disabled": 0, "bike_id": "8ef71e52fad5756c8b3462530364a893", "lat": 38.891941333333335, "rental_uris": {"ios": "https://dc.lft.to/lastmile_qr_scan", "android": "https://dc.lft.to/lastmile_qr_scan"}}, {"type": "electric_scooter", "name": "9d79c86dde58932800abe9fd8ad56429", "fusion_lon": 0.0, "is_reserved": 0, "lon": -77.02594583333334, "fusion_lat": 0.0, "is_disabled": 0, "bike_id": "9d79c86dde58932800abe9fd8ad56429", "lat": 38.90063833333333, "rental_uris": {"ios": "https://dc.lft.to/lastmile_qr_scan", "android": "https://dc.lft.to/lastmile_qr_scan"}}, {"type": "electric_scooter", "name": "9d647a7525f70a65dbf55c0d9448dd65", "fusion_lon": 0.0, "is_reserved": 0, "lon": -77.04401416666667, "fusion_lat": 0.0, "is_disabled": 0, "bike_id": "9d647a7525f70a65dbf55c0d9448dd65", "lat": 38.900408166666665, "rental_uris": {"ios": "https://dc.lft.to/lastmile_qr_scan", "android": "https://dc.lft.to/lastmile_qr_scan"}}, {"type": "electric_scooter", "name": "33620c8f08ab8262c21022082e1418b4", "fusion_lon": 0.0, "is_reserved": 0, "lon": -77.033099, "fusion_lat": 0.0, "is_disabled": 0, "bike_id": "33620c8f08ab8262c21022082e1418b4", "lat": 38.93200216666666, "rental_uris": {"ios": "https://dc.lft.to/lastmile_qr_scan", "android": "https://dc.lft.to/lastmile_qr_scan"}}, {"type": "electric_bike", "name": "c30afb84abca8280592ea0ace8c8ae30", "fusion_lon": 0.0, "is_reserved": 0, "lon": -76.98345416666666, "fusion_lat": 0.0, "is_disabled": 0, "bike_id": "c30afb84abca8280592ea0ace8c8ae30", "lat": 38.88991883333333, "rental_uris": {"ios": "https://dc.lft.to/lastmile_qr_scan", "android": "https://dc.lft.to/lastmile_qr_scan"}}, {"type": "electric_bike", "name": "1ea471727b47658b3de7f31e5ac48bc4", "fusion_lon": 0.0, "is_reserved": 0, "lon": -77.0271325, "fusion_lat": 0.0, "is_disabled": 0, "bike_id": "1ea471727b47658b3de7f31e5ac48bc4", "lat": 38.90842266666667, "rental_uris": {"ios": "https://dc.lft.to/lastmile_qr_scan", "android": "https://dc.lft.to/lastmile_qr_scan"}}, {"type": "electric_scooter", "name": "6d892187f49f4a1510080d70e15b5f19", "fusion_lon": 0.0, "is_reserved": 0, "lon": -77.034437, "fusion_lat": 0.0, "is_disabled": 0, "bike_id": "6d892187f49f4a1510080d70e15b5f19", "lat": 38.908724, "rental_uris": {"ios": "https://dc.lft.to/lastmile_qr_scan", "android": "https://dc.lft.to/lastmile_qr_scan"}}, {"type": "electric_scooter", "name": "10c831fc7edcf4db4662b680523deaad", "fusion_lon": 0.0, "is_reserved": 0, "lon": -77.020672, "fusion_lat": 0.0, "is_disabled": 0, "bike_id": "10c831fc7edcf4db4662b680523deaad", "lat": 38.9574135, "rental_uris": {"ios": "https://dc.lft.to/lastmile_qr_scan", "android": "https://dc.lft.to/lastmile_qr_scan"}}, {"type": "electric_scooter", "name": "2b9d4241f65618d84710aa8b0d59ac3b", "fusion_lon": 0.0, "is_reserved": 0, "lon": -76.98976033333334, "fusion_lat": 0.0, "is_disabled": 0, "bike_id": "2b9d4241f65618d84710aa8b0d59ac3b", "lat": 38.85920516666667, "rental_uris": {"ios": "https://dc.lft.to/lastmile_qr_scan", "android": "https://dc.lft.to/lastmile_qr_scan"}}, {"type": "electric_scooter", "name": "e61f9f345a73b1bd258fd7f2fe72f0d6", "fusion_lon": 0.0, "is_reserved": 0, "lon": -77.02959583333333, "fusion_lat": 0.0, "is_disabled": 0, "bike_id": "e61f9f345a73b1bd258fd7f2fe72f0d6", "lat": 38.884351, "rental_uris": {"ios": "https://dc.lft.to/lastmile_qr_scan", "android": "https://dc.lft.to/lastmile_qr_scan"}}, {"type": "electric_scooter", "name": "783286fa71948e9b289e2075a86a7d86", "fusion_lon": 0.0, "is_reserved": 0, "lon": -76.97336533333333, "fusion_lat": 0.0, "is_disabled": 0, "bike_id": "783286fa71948e9b289e2075a86a7d86", "lat": 38.89721466666667, "rental_uris": {"ios": "https://dc.lft.to/lastmile_qr_scan", "android": "https://dc.lft.to/lastmile_qr_scan"}}, {"type": "electric_scooter", "name": "8d122527ce588b3f8080447fcbed42c3", "fusion_lon": 0.0, "is_reserved": 0, "lon": -76.9690435, "fusion_lat": 0.0, "is_disabled": 0, "bike_id": "8d122527ce588b3f8080447fcbed42c3", "lat": 38.871610833333335, "rental_uris": {"ios": "https://dc.lft.to/lastmile_qr_scan", "android": "https://dc.lft.to/lastmile_qr_scan"}}, {"type": "electric_bike", "name": "6278e5bfd312abfe581a9ed03c9a0736", "fusion_lon": 0.0, "is_reserved": 0, "lon": -77.0270485, "fusion_lat": 0.0, "is_disabled": 0, "bike_id": "6278e5bfd312abfe581a9ed03c9a0736", "lat": 38.931503166666666, "rental_uris": {"ios": "https://dc.lft.to/lastmile_qr_scan", "android": "https://dc.lft.to/lastmile_qr_scan"}}, {"type": "electric_scooter", "name": "8560f0de74d99f4978eaa18e6e2a08c7", "fusion_lon": 0.0, "is_reserved": 0, "lon": -77.04491033333333, "fusion_lat": 0.0, "is_disabled": 0, "bike_id": "8560f0de74d99f4978eaa18e6e2a08c7", "lat": 38.90660183333333, "rental_uris": {"ios": "https://dc.lft.to/lastmile_qr_scan", "android": "https://dc.lft.to/lastmile_qr_scan"}}, {"type": "electric_scooter", "name": "e66860d30506a325a2190f229c07d440", "fusion_lon": 0.0, "is_reserved": 0, "lon": -77.03906, "fusion_lat": 0.0, "is_disabled": 0, "bike_id": "e66860d30506a325a2190f229c07d440", "lat": 38.92575816666667, "rental_uris": {"ios": "https://dc.lft.to/lastmile_qr_scan", "android": "https://dc.lft.to/lastmile_qr_scan"}}, {"type": "electric_bike", "name": "d80391465b7eb58291e87d61e6ed654c", "fusion_lon": 0.0, "is_reserved": 0, "lon": -76.97214783333334, "fusion_lat": 0.0, "is_disabled": 0, "bike_id": "d80391465b7eb58291e87d61e6ed654c", "lat": 38.9836995, "rental_uris": {"ios": "https://dc.lft.to/lastmile_qr_scan", "android": "https://dc.lft.to/lastmile_qr_scan"}}, {"type": "electric_scooter", "name": "8382ccedbe17f8669db4d708811f5ab6", "fusion_lon": 0.0, "is_reserved": 0, "lon": -77.05056683333333, "fusion_lat": 0.0, "is_disabled": 0, "bike_id": "8382ccedbe17f8669db4d708811f5ab6", "lat": 38.92422083333334, "rental_uris": {"ios": "https://dc.lft.to/lastmile_qr_scan", "android": "https://dc.lft.to/lastmile_qr_scan"}}, {"type": "electric_scooter", "name": "24359a700bc860f5583c34bbf5e9b650", "fusion_lon": 0.0, "is_reserved": 0, "lon": -76.99821066666667, "fusion_lat": 0.0, "is_disabled": 0, "bike_id": "24359a700bc860f5583c34bbf5e9b650", "lat": 38.88533616666667, "rental_uris": {"ios": "https://dc.lft.to/lastmile_qr_scan", "android": "https://dc.lft.to/lastmile_qr_scan"}}, {"type": "electric_bike", "name": "3e4da92917a5defb70fa5b3f89f9a907", "fusion_lon": 0.0, "is_reserved": 0, "lon": -77.00148883333334, "fusion_lat": 0.0, "is_disabled": 0, "bike_id": "3e4da92917a5defb70fa5b3f89f9a907", "lat": 38.95874033333333, "rental_uris": {"ios": "https://dc.lft.to/lastmile_qr_scan", "android": "https://dc.lft.to/lastmile_qr_scan"}}, {"type": "electric_scooter", "name": "488ea33cab74b8b106760396100730ea", "fusion_lon": 0.0, "is_reserved": 0, "lon": -77.041339, "fusion_lat": 0.0, "is_disabled": 0, "bike_id": "488ea33cab74b8b106760396100730ea", "lat": 38.900051500000004, "rental_uris": {"ios": "https://dc.lft.to/lastmile_qr_scan", "android": "https://dc.lft.to/lastmile_qr_scan"}}, {"type": "electric_scooter", "name": "9319cd7cd6e70587e4fdda8abd6c02af", "fusion_lon": 0.0, "is_reserved": 0, "lon": -77.040883, "fusion_lat": 0.0, "is_disabled": 0, "bike_id": "9319cd7cd6e70587e4fdda8abd6c02af", "lat": 38.91478766666667, "rental_uris": {"ios": "https://dc.lft.to/lastmile_qr_scan", "android": "https://dc.lft.to/lastmile_qr_scan"}}, {"type": "electric_scooter", "name": "3d4f7e687e5d7d5d5f890de8f6b9dd02", "fusion_lon": 0.0, "is_reserved": 0, "lon": -77.0355475, "fusion_lat": 0.0, "is_disabled": 0, "bike_id": "3d4f7e687e5d7d5d5f890de8f6b9dd02", "lat": 38.923998, "rental_uris": {"ios": "https://dc.lft.to/lastmile_qr_scan", "android": "https://dc.lft.to/lastmile_qr_scan"}}, {"type": "electric_scooter", "name": "0c775b4815ce296c285ed26d37795fd0", "fusion_lon": 0.0, "is_reserved": 0, "lon": -77.04800616666667, "fusion_lat": 0.0, "is_disabled": 0, "bike_id": "0c775b4815ce296c285ed26d37795fd0", "lat": 38.91642016666667, "rental_uris": {"ios": "https://dc.lft.to/lastmile_qr_scan", "android": "https://dc.lft.to/lastmile_qr_scan"}}, {"type": "electric_scooter", "name": "6843f17d510a24f6c9c4158031955257", "fusion_lon": 0.0, "is_reserved": 0, "lon": -77.04004316666666, "fusion_lat": 0.0, "is_disabled": 0, "bike_id": "6843f17d510a24f6c9c4158031955257", "lat": 38.894312666666664, "rental_uris": {"ios": "https://dc.lft.to/lastmile_qr_scan", "android": "https://dc.lft.to/lastmile_qr_scan"}}, {"type": "electric_bike", "name": "c790d3f80c00cd5f959782186b9ff2e4", "fusion_lon": 0.0, "is_reserved": 0, "lon": -77.03707016666667, "fusion_lat": 0.0, "is_disabled": 0, "bike_id": "c790d3f80c00cd5f959782186b9ff2e4", "lat": 38.935561, "rental_uris": {"ios": "https://dc.lft.to/lastmile_qr_scan", "android": "https://dc.lft.to/lastmile_qr_scan"}}, {"type": "electric_scooter", "name": "7ad95d55a8ea8f9cfd99b5a9f54db6aa", "fusion_lon": 0.0, "is_reserved": 0, "lon": -76.98714633333333, "fusion_lat": 0.0, "is_disabled": 0, "bike_id": "7ad95d55a8ea8f9cfd99b5a9f54db6aa", "lat": 38.90494316666667, "rental_uris": {"ios": "https://dc.lft.to/lastmile_qr_scan", "android": "https://dc.lft.to/lastmile_qr_scan"}}, {"type": "electric_scooter", "name": "9678e5196b6630bf1c509cd704cff3c5", "fusion_lon": 0.0, "is_reserved": 0, "lon": -77.03035583333333, "fusion_lat": 0.0, "is_disabled": 0, "bike_id": "9678e5196b6630bf1c509cd704cff3c5", "lat": 38.897110833333336, "rental_uris": {"ios": "https://dc.lft.to/lastmile_qr_scan", "android": "https://dc.lft.to/lastmile_qr_scan"}}, {"type": "electric_scooter", "name": "a89e521aa88d44aa522b6301e85fbe71", "fusion_lon": 0.0, "is_reserved": 0, "lon": -77.02850683333334, "fusion_lat": 0.0, "is_disabled": 0, "bike_id": "a89e521aa88d44aa522b6301e85fbe71", "lat": 38.932419, "rental_uris": {"ios": "https://dc.lft.to/lastmile_qr_scan", "android": "https://dc.lft.to/lastmile_qr_scan"}}, {"type": "electric_bike", "name": "20708df9d2e4fe155f2f50212937e715", "fusion_lon": 0.0, "is_reserved": 0, "lon": -77.1812285, "fusion_lat": 0.0, "is_disabled": 0, "bike_id": "20708df9d2e4fe155f2f50212937e715", "lat": 38.932267333333336, "rental_uris": {"ios": "https://dc.lft.to/lastmile_qr_scan", "android": "https://dc.lft.to/lastmile_qr_scan"}}, {"type": "electric_scooter", "name": "46da953d956596e44790bf15a7f027bc", "fusion_lon": 0.0, "is_reserved": 0, "lon": -77.043601, "fusion_lat": 0.0, "is_disabled": 0, "bike_id": "46da953d956596e44790bf15a7f027bc", "lat": 38.907103666666664, "rental_uris": {"ios": "https://dc.lft.to/lastmile_qr_scan", "android": "https://dc.lft.to/lastmile_qr_scan"}}, {"type": "electric_scooter", "name": "f556331afcbf4ca16f0aeaa63129d4a5", "fusion_lon": 0.0, "is_reserved": 0, "lon": -77.06254416666667, "fusion_lat": 0.0, "is_disabled": 0, "bike_id": "f556331afcbf4ca16f0aeaa63129d4a5", "lat": 38.91328883333333, "rental_uris": {"ios": "https://dc.lft.to/lastmile_qr_scan", "android": "https://dc.lft.to/lastmile_qr_scan"}}, {"type": "electric_scooter", "name": "fc2bccef8f93e0bfd0de7373ca026453", "fusion_lon": 0.0, "is_reserved": 0, "lon": -77.040592, "fusion_lat": 0.0, "is_disabled": 0, "bike_id": "fc2bccef8f93e0bfd0de7373ca026453", "lat": 38.917717, "rental_uris": {"ios": "https://dc.lft.to/lastmile_qr_scan", "android": "https://dc.lft.to/lastmile_qr_scan"}}, {"type": "electric_scooter", "name": "bbda8a35f53276898c2096a306e74837", "fusion_lon": 0.0, "is_reserved": 0, "lon": -77.041249, "fusion_lat": 0.0, "is_disabled": 0, "bike_id": "bbda8a35f53276898c2096a306e74837", "lat": 38.90592266666667, "rental_uris": {"ios": "https://dc.lft.to/lastmile_qr_scan", "android": "https://dc.lft.to/lastmile_qr_scan"}}, {"type": "electric_bike", "name": "613abde271dae70179884543d400d1aa", "fusion_lon": 0.0, "is_reserved": 0, "lon": -77.10838933333334, "fusion_lat": 0.0, "is_disabled": 0, "bike_id": "613abde271dae70179884543d400d1aa", "lat": 38.81198916666666, "rental_uris": {"ios": "https://dc.lft.to/lastmile_qr_scan", "android": "https://dc.lft.to/lastmile_qr_scan"}}, {"type": "electric_bike", "name": "dbe6bd8e1b76c92b3b2ff8d66b2aef86", "fusion_lon": 0.0, "is_reserved": 0, "lon": -77.070079, "fusion_lat": 0.0, "is_disabled": 0, "bike_id": "dbe6bd8e1b76c92b3b2ff8d66b2aef86", "lat": 38.9058745, "rental_uris": {"ios": "https://dc.lft.to/lastmile_qr_scan", "android": "https://dc.lft.to/lastmile_qr_scan"}}, {"type": "electric_scooter", "name": "b9ee33687b8ea6e7ed54dc457665c20e", "fusion_lon": 0.0, "is_reserved": 0, "lon": -76.927008, "fusion_lat": 0.0, "is_disabled": 0, "bike_id": "b9ee33687b8ea6e7ed54dc457665c20e", "lat": 38.8820745, "rental_uris": {"ios": "https://dc.lft.to/lastmile_qr_scan", "android": "https://dc.lft.to/lastmile_qr_scan"}}, {"type": "electric_scooter", "name": "f9e6e8aba1dd0e0d124b289f6eb0e1da", "fusion_lon": 0.0, "is_reserved": 0, "lon": -77.04450383333334, "fusion_lat": 0.0, "is_disabled": 0, "bike_id": "f9e6e8aba1dd0e0d124b289f6eb0e1da", "lat": 38.910077666666666, "rental_uris": {"ios": "https://dc.lft.to/lastmile_qr_scan", "android": "https://dc.lft.to/lastmile_qr_scan"}}, {"type": "electric_scooter", "name": "4e34964acafb7d2fa4aa3f013f2ba30f", "fusion_lon": 0.0, "is_reserved": 0, "lon": -77.00800416666667, "fusion_lat": 0.0, "is_disabled": 0, "bike_id": "4e34964acafb7d2fa4aa3f013f2ba30f", "lat": 38.8971775, "rental_uris": {"ios": "https://dc.lft.to/lastmile_qr_scan", "android": "https://dc.lft.to/lastmile_qr_scan"}}, {"type": "electric_scooter", "name": "b2ac47301fd05c510195be9e28de1f4d", "fusion_lon": 0.0, "is_reserved": 0, "lon": -77.02223233333333, "fusion_lat": 0.0, "is_disabled": 0, "bike_id": "b2ac47301fd05c510195be9e28de1f4d", "lat": 38.89618733333333, "rental_uris": {"ios": "https://dc.lft.to/lastmile_qr_scan", "android": "https://dc.lft.to/lastmile_qr_scan"}}, {"type": "electric_scooter", "name": "356dbfc6f624c514e467160fba9d17ad", "fusion_lon": 0.0, "is_reserved": 0, "lon": -77.040066, "fusion_lat": 0.0, "is_disabled": 0, "bike_id": "356dbfc6f624c514e467160fba9d17ad", "lat": 38.90113433333333, "rental_uris": {"ios": "https://dc.lft.to/lastmile_qr_scan", "android": "https://dc.lft.to/lastmile_qr_scan"}}, {"type": "electric_scooter", "name": "5b355b5c81d216390e691c19ce6f03c5", "fusion_lon": 0.0, "is_reserved": 0, "lon": -77.0438715, "fusion_lat": 0.0, "is_disabled": 0, "bike_id": "5b355b5c81d216390e691c19ce6f03c5", "lat": 38.90224716666667, "rental_uris": {"ios": "https://dc.lft.to/lastmile_qr_scan", "android": "https://dc.lft.to/lastmile_qr_scan"}}, {"type": "electric_scooter", "name": "e578c8419f6eddfb525fed048554c93c", "fusion_lon": 0.0, "is_reserved": 0, "lon": -77.03252916666666, "fusion_lat": 0.0, "is_disabled": 0, "bike_id": "e578c8419f6eddfb525fed048554c93c", "lat": 38.918050666666666, "rental_uris": {"ios": "https://dc.lft.to/lastmile_qr_scan", "android": "https://dc.lft.to/lastmile_qr_scan"}}, {"type": "electric_scooter", "name": "8adce27f0949cbc190d2986767b68a99", "fusion_lon": 0.0, "is_reserved": 0, "lon": -77.03205866666667, "fusion_lat": 0.0, "is_disabled": 0, "bike_id": "8adce27f0949cbc190d2986767b68a99", "lat": 38.915722333333335, "rental_uris": {"ios": "https://dc.lft.to/lastmile_qr_scan", "android": "https://dc.lft.to/lastmile_qr_scan"}}, {"type": "electric_scooter", "name": "8c284d810d45fd07440e85e3a831d3f7", "fusion_lon": 0.0, "is_reserved": 0, "lon": -77.02347366666666, "fusion_lat": 0.0, "is_disabled": 0, "bike_id": "8c284d810d45fd07440e85e3a831d3f7", "lat": 38.892208833333335, "rental_uris": {"ios": "https://dc.lft.to/lastmile_qr_scan", "android": "https://dc.lft.to/lastmile_qr_scan"}}, {"type": "electric_scooter", "name": "4848a9bb0dcb16ace0c223b36f8917e7", "fusion_lon": 0.0, "is_reserved": 0, "lon": -76.98918333333333, "fusion_lat": 0.0, "is_disabled": 0, "bike_id": "4848a9bb0dcb16ace0c223b36f8917e7", "lat": 38.87076116666667, "rental_uris": {"ios": "https://dc.lft.to/lastmile_qr_scan", "android": "https://dc.lft.to/lastmile_qr_scan"}}, {"type": "electric_scooter", "name": "440ed81d967695bde118abf4c42ed71e", "fusion_lon": 0.0, "is_reserved": 0, "lon": -77.02204366666666, "fusion_lat": 0.0, "is_disabled": 0, "bike_id": "440ed81d967695bde118abf4c42ed71e", "lat": 38.924648166666664, "rental_uris": {"ios": "https://dc.lft.to/lastmile_qr_scan", "android": "https://dc.lft.to/lastmile_qr_scan"}}, {"type": "electric_scooter", "name": "f9782a83b4320ad098b7d315f9c406c2", "fusion_lon": 0.0, "is_reserved": 0, "lon": -77.00578516666667, "fusion_lat": 0.0, "is_disabled": 0, "bike_id": "f9782a83b4320ad098b7d315f9c406c2", "lat": 38.882726, "rental_uris": {"ios": "https://dc.lft.to/lastmile_qr_scan", "android": "https://dc.lft.to/lastmile_qr_scan"}}, {"type": "electric_scooter", "name": "30cad6e66276041e52ea36c9a4066624", "fusion_lon": 0.0, "is_reserved": 0, "lon": -77.01980766666667, "fusion_lat": 0.0, "is_disabled": 0, "bike_id": "30cad6e66276041e52ea36c9a4066624", "lat": 38.9451925, "rental_uris": {"ios": "https://dc.lft.to/lastmile_qr_scan", "android": "https://dc.lft.to/lastmile_qr_scan"}}, {"type": "electric_scooter", "name": "37cac60ee3b06191c8b8535c9f68d17c", "fusion_lon": 0.0, "is_reserved": 0, "lon": -77.03119083333333, "fusion_lat": 0.0, "is_disabled": 0, "bike_id": "37cac60ee3b06191c8b8535c9f68d17c", "lat": 38.923068666666666, "rental_uris": {"ios": "https://dc.lft.to/lastmile_qr_scan", "android": "https://dc.lft.to/lastmile_qr_scan"}}, {"type": "electric_scooter", "name": "883e914215991e5b14d51039d2f2225a", "fusion_lon": 0.0, "is_reserved": 0, "lon": -77.03914433333334, "fusion_lat": 0.0, "is_disabled": 0, "bike_id": "883e914215991e5b14d51039d2f2225a", "lat": 38.906094, "rental_uris": {"ios": "https://dc.lft.to/lastmile_qr_scan", "android": "https://dc.lft.to/lastmile_qr_scan"}}, {"type": "electric_bike", "name": "0fc0e118b1e2305c3b913c8fdb989d27", "fusion_lon": 0.0, "is_reserved": 0, "lon": -77.03653566666667, "fusion_lat": 0.0, "is_disabled": 0, "bike_id": "0fc0e118b1e2305c3b913c8fdb989d27", "lat": 38.93627, "rental_uris": {"ios": "https://dc.lft.to/lastmile_qr_scan", "android": "https://dc.lft.to/lastmile_qr_scan"}}, {"type": "electric_scooter", "name": "87c6dc86b300d367b38aa7d153b9d0af", "fusion_lon": 0.0, "is_reserved": 0, "lon": -77.031986, "fusion_lat": 0.0, "is_disabled": 0, "bike_id": "87c6dc86b300d367b38aa7d153b9d0af", "lat": 38.915682333333336, "rental_uris": {"ios": "https://dc.lft.to/lastmile_qr_scan", "android": "https://dc.lft.to/lastmile_qr_scan"}}, {"type": "electric_scooter", "name": "f67b1b0f5a9fdf1cfe9eafa0189f527b", "fusion_lon": 0.0, "is_reserved": 0, "lon": -77.02991216666666, "fusion_lat": 0.0, "is_disabled": 0, "bike_id": "f67b1b0f5a9fdf1cfe9eafa0189f527b", "lat": 38.90134416666667, "rental_uris": {"ios": "https://dc.lft.to/lastmile_qr_scan", "android": "https://dc.lft.to/lastmile_qr_scan"}}, {"type": "electric_bike", "name": "d3a3b85df646610d4875e98a4b77b9b2", "fusion_lon": 0.0, "is_reserved": 0, "lon": -77.02114816666666, "fusion_lat": 0.0, "is_disabled": 0, "bike_id": "d3a3b85df646610d4875e98a4b77b9b2", "lat": 38.936273166666666, "rental_uris": {"ios": "https://dc.lft.to/lastmile_qr_scan", "android": "https://dc.lft.to/lastmile_qr_scan"}}, {"type": "electric_scooter", "name": "2a6b6e49dc98dcc9d0a9821a12b8133f", "fusion_lon": 0.0, "is_reserved": 0, "lon": -77.03941333333333, "fusion_lat": 0.0, "is_disabled": 0, "bike_id": "2a6b6e49dc98dcc9d0a9821a12b8133f", "lat": 38.92087383333333, "rental_uris": {"ios": "https://dc.lft.to/lastmile_qr_scan", "android": "https://dc.lft.to/lastmile_qr_scan"}}, {"type": "electric_scooter", "name": "aa3afdcd4f97b63c8da8314c181c1088", "fusion_lon": 0.0, "is_reserved": 0, "lon": -76.95581866666667, "fusion_lat": 0.0, "is_disabled": 0, "bike_id": "aa3afdcd4f97b63c8da8314c181c1088", "lat": 38.886170166666666, "rental_uris": {"ios": "https://dc.lft.to/lastmile_qr_scan", "android": "https://dc.lft.to/lastmile_qr_scan"}}, {"type": "electric_bike", "name": "5dc56930f6c2aa658d98f02e8c0bc887", "fusion_lon": 0.0, "is_reserved": 0, "lon": -77.0946575, "fusion_lat": 0.0, "is_disabled": 0, "bike_id": "5dc56930f6c2aa658d98f02e8c0bc887", "lat": 38.8076195, "rental_uris": {"ios": "https://dc.lft.to/lastmile_qr_scan", "android": "https://dc.lft.to/lastmile_qr_scan"}}, {"type": "electric_scooter", "name": "b01efad65e900616c72904f9d7b978eb", "fusion_lon": 0.0, "is_reserved": 0, "lon": -77.0466025, "fusion_lat": 0.0, "is_disabled": 0, "bike_id": "b01efad65e900616c72904f9d7b978eb", "lat": 38.897587333333334, "rental_uris": {"ios": "https://dc.lft.to/lastmile_qr_scan", "android": "https://dc.lft.to/lastmile_qr_scan"}}, {"type": "electric_scooter", "name": "5de48dade72dd0df372552639397d541", "fusion_lon": 0.0, "is_reserved": 0, "lon": -77.0283315, "fusion_lat": 0.0, "is_disabled": 0, "bike_id": "5de48dade72dd0df372552639397d541", "lat": 38.887331833333334, "rental_uris": {"ios": "https://dc.lft.to/lastmile_qr_scan", "android": "https://dc.lft.to/lastmile_qr_scan"}}, {"type": "electric_scooter", "name": "82bf19e96e030ae90e5f5c8fd2671243", "fusion_lon": 0.0, "is_reserved": 0, "lon": -77.03781616666667, "fusion_lat": 0.0, "is_disabled": 0, "bike_id": "82bf19e96e030ae90e5f5c8fd2671243", "lat": 38.925314666666665, "rental_uris": {"ios": "https://dc.lft.to/lastmile_qr_scan", "android": "https://dc.lft.to/lastmile_qr_scan"}}, {"type": "electric_scooter", "name": "216630ce8c71df8ea4df2ee02025f301", "fusion_lon": 0.0, "is_reserved": 0, "lon": -77.0317965, "fusion_lat": 0.0, "is_disabled": 0, "bike_id": "216630ce8c71df8ea4df2ee02025f301", "lat": 38.88466583333334, "rental_uris": {"ios": "https://dc.lft.to/lastmile_qr_scan", "android": "https://dc.lft.to/lastmile_qr_scan"}}, {"type": "electric_scooter", "name": "505c3db4a6bf7866dbacb0947ffe9487", "fusion_lon": 0.0, "is_reserved": 0, "lon": -77.0326125, "fusion_lat": 0.0, "is_disabled": 0, "bike_id": "505c3db4a6bf7866dbacb0947ffe9487", "lat": 38.89539833333333, "rental_uris": {"ios": "https://dc.lft.to/lastmile_qr_scan", "android": "https://dc.lft.to/lastmile_qr_scan"}}, {"type": "electric_scooter", "name": "99e56808d5be77d771881d7740e9e94c", "fusion_lon": 0.0, "is_reserved": 0, "lon": -77.01311083333333, "fusion_lat": 0.0, "is_disabled": 0, "bike_id": "99e56808d5be77d771881d7740e9e94c", "lat": 38.90081166666667, "rental_uris": {"ios": "https://dc.lft.to/lastmile_qr_scan", "android": "https://dc.lft.to/lastmile_qr_scan"}}, {"type": "electric_scooter", "name": "5966f70d7fc601429472697e4500acd9", "fusion_lon": 0.0, "is_reserved": 0, "lon": -76.98590333333334, "fusion_lat": 0.0, "is_disabled": 0, "bike_id": "5966f70d7fc601429472697e4500acd9", "lat": 38.86699766666667, "rental_uris": {"ios": "https://dc.lft.to/lastmile_qr_scan", "android": "https://dc.lft.to/lastmile_qr_scan"}}, {"type": "electric_scooter", "name": "8b0668a8cd9d20e1dda532b5f4b1e102", "fusion_lon": 0.0, "is_reserved": 0, "lon": -77.04344283333333, "fusion_lat": 0.0, "is_disabled": 0, "bike_id": "8b0668a8cd9d20e1dda532b5f4b1e102", "lat": 38.901343, "rental_uris": {"ios": "https://dc.lft.to/lastmile_qr_scan", "android": "https://dc.lft.to/lastmile_qr_scan"}}, {"type": "electric_scooter", "name": "bf953195d3c5b0a69f217cbe48240db0", "fusion_lon": 0.0, "is_reserved": 0, "lon": -76.97546783333334, "fusion_lat": 0.0, "is_disabled": 0, "bike_id": "bf953195d3c5b0a69f217cbe48240db0", "lat": 38.903238, "rental_uris": {"ios": "https://dc.lft.to/lastmile_qr_scan", "android": "https://dc.lft.to/lastmile_qr_scan"}}, {"type": "electric_scooter", "name": "abad43aa3b0729214ce953c42659e4c4", "fusion_lon": 0.0, "is_reserved": 0, "lon": -76.981696, "fusion_lat": 0.0, "is_disabled": 0, "bike_id": "abad43aa3b0729214ce953c42659e4c4", "lat": 38.89850933333334, "rental_uris": {"ios": "https://dc.lft.to/lastmile_qr_scan", "android": "https://dc.lft.to/lastmile_qr_scan"}}, {"type": "electric_scooter", "name": "6176ae11cb16c8e1763eb1f5f3fb4ce5", "fusion_lon": 0.0, "is_reserved": 0, "lon": -77.01417816666667, "fusion_lat": 0.0, "is_disabled": 0, "bike_id": "6176ae11cb16c8e1763eb1f5f3fb4ce5", "lat": 38.928463, "rental_uris": {"ios": "https://dc.lft.to/lastmile_qr_scan", "android": "https://dc.lft.to/lastmile_qr_scan"}}, {"type": "electric_bike", "name": "00e9a5627db225b3a94040f59f431c7d", "fusion_lon": 0.0, "is_reserved": 0, "lon": -77.06173066666666, "fusion_lat": 0.0, "is_disabled": 0, "bike_id": "00e9a5627db225b3a94040f59f431c7d", "lat": 38.80710283333333, "rental_uris": {"ios": "https://dc.lft.to/lastmile_qr_scan", "android": "https://dc.lft.to/lastmile_qr_scan"}}, {"type": "electric_scooter", "name": "cb91cd9be498a282b484de18c6399739", "fusion_lon": 0.0, "is_reserved": 0, "lon": -77.03665733333334, "fusion_lat": 0.0, "is_disabled": 0, "bike_id": "cb91cd9be498a282b484de18c6399739", "lat": 38.922410666666664, "rental_uris": {"ios": "https://dc.lft.to/lastmile_qr_scan", "android": "https://dc.lft.to/lastmile_qr_scan"}}, {"type": "electric_scooter", "name": "3549e529163494e8d6c366e319682f04", "fusion_lon": 0.0, "is_reserved": 0, "lon": -77.05822083333334, "fusion_lat": 0.0, "is_disabled": 0, "bike_id": "3549e529163494e8d6c366e319682f04", "lat": 38.935257, "rental_uris": {"ios": "https://dc.lft.to/lastmile_qr_scan", "android": "https://dc.lft.to/lastmile_qr_scan"}}, {"type": "electric_scooter", "name": "89e534997b930f1afea04e71bb0aab0a", "fusion_lon": 0.0, "is_reserved": 0, "lon": -77.01719066666666, "fusion_lat": 0.0, "is_disabled": 0, "bike_id": "89e534997b930f1afea04e71bb0aab0a", "lat": 38.893441833333334, "rental_uris": {"ios": "https://dc.lft.to/lastmile_qr_scan", "android": "https://dc.lft.to/lastmile_qr_scan"}}, {"type": "electric_scooter", "name": "b2f064b981700de82fbf4289cd1717c3", "fusion_lon": 0.0, "is_reserved": 0, "lon": -76.97714766666667, "fusion_lat": 0.0, "is_disabled": 0, "bike_id": "b2f064b981700de82fbf4289cd1717c3", "lat": 38.8989615, "rental_uris": {"ios": "https://dc.lft.to/lastmile_qr_scan", "android": "https://dc.lft.to/lastmile_qr_scan"}}, {"type": "electric_scooter", "name": "94029de9a02594a9b769b531e8f72304", "fusion_lon": 0.0, "is_reserved": 0, "lon": -77.06089233333333, "fusion_lat": 0.0, "is_disabled": 0, "bike_id": "94029de9a02594a9b769b531e8f72304", "lat": 38.930206, "rental_uris": {"ios": "https://dc.lft.to/lastmile_qr_scan", "android": "https://dc.lft.to/lastmile_qr_scan"}}, {"type": "electric_bike", "name": "d6949beb02d7db74f5e8b0c6ee71ecab", "fusion_lon": 0.0, "is_reserved": 0, "lon": -76.98763716666667, "fusion_lat": 0.0, "is_disabled": 0, "bike_id": "d6949beb02d7db74f5e8b0c6ee71ecab", "lat": 38.857723166666666, "rental_uris": {"ios": "https://dc.lft.to/lastmile_qr_scan", "android": "https://dc.lft.to/lastmile_qr_scan"}}, {"type": "electric_scooter", "name": "ee6b483267eb5904fb086f913986c9bd", "fusion_lon": 0.0, "is_reserved": 0, "lon": -77.030575, "fusion_lat": 0.0, "is_disabled": 0, "bike_id": "ee6b483267eb5904fb086f913986c9bd", "lat": 38.92772333333333, "rental_uris": {"ios": "https://dc.lft.to/lastmile_qr_scan", "android": "https://dc.lft.to/lastmile_qr_scan"}}, {"type": "electric_scooter", "name": "4d105f6a4ec91dd8419027c54debef3e", "fusion_lon": 0.0, "is_reserved": 0, "lon": -77.02723033333334, "fusion_lat": 0.0, "is_disabled": 0, "bike_id": "4d105f6a4ec91dd8419027c54debef3e", "lat": 38.95176816666667, "rental_uris": {"ios": "https://dc.lft.to/lastmile_qr_scan", "android": "https://dc.lft.to/lastmile_qr_scan"}}, {"type": "electric_scooter", "name": "6a26828d255cb1f4168115d5044f6217", "fusion_lon": 0.0, "is_reserved": 0, "lon": -77.02775783333334, "fusion_lat": 0.0, "is_disabled": 0, "bike_id": "6a26828d255cb1f4168115d5044f6217", "lat": 38.955314333333334, "rental_uris": {"ios": "https://dc.lft.to/lastmile_qr_scan", "android": "https://dc.lft.to/lastmile_qr_scan"}}, {"type": "electric_scooter", "name": "7b355ae0a70086f22da5ff34b1d39a19", "fusion_lon": 0.0, "is_reserved": 0, "lon": -77.01683483333333, "fusion_lat": 0.0, "is_disabled": 0, "bike_id": "7b355ae0a70086f22da5ff34b1d39a19", "lat": 38.97122933333333, "rental_uris": {"ios": "https://dc.lft.to/lastmile_qr_scan", "android": "https://dc.lft.to/lastmile_qr_scan"}}, {"type": "electric_bike", "name": "79bddea15c82a30e1d2ab075372cae23", "fusion_lon": 0.0, "is_reserved": 0, "lon": -77.09523016666667, "fusion_lat": 0.0, "is_disabled": 0, "bike_id": "79bddea15c82a30e1d2ab075372cae23", "lat": 38.83809133333333, "rental_uris": {"ios": "https://dc.lft.to/lastmile_qr_scan", "android": "https://dc.lft.to/lastmile_qr_scan"}}, {"type": "electric_scooter", "name": "a4bf94891776171f372e1db4ef17faf4", "fusion_lon": 0.0, "is_reserved": 0, "lon": -77.03263166666666, "fusion_lat": 0.0, "is_disabled": 0, "bike_id": "a4bf94891776171f372e1db4ef17faf4", "lat": 38.937715, "rental_uris": {"ios": "https://dc.lft.to/lastmile_qr_scan", "android": "https://dc.lft.to/lastmile_qr_scan"}}, {"type": "electric_scooter", "name": "66db4af84fd27b08128bcdc93d29cf86", "fusion_lon": 0.0, "is_reserved": 0, "lon": -77.03134666666666, "fusion_lat": 0.0, "is_disabled": 0, "bike_id": "66db4af84fd27b08128bcdc93d29cf86", "lat": 38.8924075, "rental_uris": {"ios": "https://dc.lft.to/lastmile_qr_scan", "android": "https://dc.lft.to/lastmile_qr_scan"}}, {"type": "electric_scooter", "name": "0054f5e4ee444f0de35c4bcda0b47389", "fusion_lon": 0.0, "is_reserved": 0, "lon": -77.04687333333334, "fusion_lat": 0.0, "is_disabled": 0, "bike_id": "0054f5e4ee444f0de35c4bcda0b47389", "lat": 38.92031983333333, "rental_uris": {"ios": "https://dc.lft.to/lastmile_qr_scan", "android": "https://dc.lft.to/lastmile_qr_scan"}}, {"type": "electric_scooter", "name": "7246728da085014c224e065567ed3526", "fusion_lon": 0.0, "is_reserved": 0, "lon": -77.02284983333334, "fusion_lat": 0.0, "is_disabled": 0, "bike_id": "7246728da085014c224e065567ed3526", "lat": 38.926563, "rental_uris": {"ios": "https://dc.lft.to/lastmile_qr_scan", "android": "https://dc.lft.to/lastmile_qr_scan"}}, {"type": "electric_scooter", "name": "3b3788f79aa9805585d3e0d2aef53bf0", "fusion_lon": 0.0, "is_reserved": 0, "lon": -76.985412, "fusion_lat": 0.0, "is_disabled": 0, "bike_id": "3b3788f79aa9805585d3e0d2aef53bf0", "lat": 38.908866, "rental_uris": {"ios": "https://dc.lft.to/lastmile_qr_scan", "android": "https://dc.lft.to/lastmile_qr_scan"}}, {"type": "electric_scooter", "name": "776f6f8b3a34d14974a42229dbb7a661", "fusion_lon": 0.0, "is_reserved": 0, "lon": -76.99584966666667, "fusion_lat": 0.0, "is_disabled": 0, "bike_id": "776f6f8b3a34d14974a42229dbb7a661", "lat": 38.90013483333333, "rental_uris": {"ios": "https://dc.lft.to/lastmile_qr_scan", "android": "https://dc.lft.to/lastmile_qr_scan"}}, {"type": "electric_scooter", "name": "7ef469129a25fcaf13ac21ee11612763", "fusion_lon": 0.0, "is_reserved": 0, "lon": -76.954641, "fusion_lat": 0.0, "is_disabled": 0, "bike_id": "7ef469129a25fcaf13ac21ee11612763", "lat": 38.886779833333335, "rental_uris": {"ios": "https://dc.lft.to/lastmile_qr_scan", "android": "https://dc.lft.to/lastmile_qr_scan"}}, {"type": "electric_scooter", "name": "316f543eb18a04797acd1297b55e1be6", "fusion_lon": 0.0, "is_reserved": 0, "lon": -77.01672533333333, "fusion_lat": 0.0, "is_disabled": 0, "bike_id": "316f543eb18a04797acd1297b55e1be6", "lat": 38.9209815, "rental_uris": {"ios": "https://dc.lft.to/lastmile_qr_scan", "android": "https://dc.lft.to/lastmile_qr_scan"}}, {"type": "electric_scooter", "name": "aa1ff90239a1683ebdc2903948d79867", "fusion_lon": 0.0, "is_reserved": 0, "lon": -77.02726916666667, "fusion_lat": 0.0, "is_disabled": 0, "bike_id": "aa1ff90239a1683ebdc2903948d79867", "lat": 38.88743266666667, "rental_uris": {"ios": "https://dc.lft.to/lastmile_qr_scan", "android": "https://dc.lft.to/lastmile_qr_scan"}}, {"type": "electric_scooter", "name": "020a7e2e11ff67f58e776c3382678f1b", "fusion_lon": 0.0, "is_reserved": 0, "lon": -77.02209583333334, "fusion_lat": 0.0, "is_disabled": 0, "bike_id": "020a7e2e11ff67f58e776c3382678f1b", "lat": 38.915532666666664, "rental_uris": {"ios": "https://dc.lft.to/lastmile_qr_scan", "android": "https://dc.lft.to/lastmile_qr_scan"}}, {"type": "electric_scooter", "name": "c5049937ea77014b715adae773ecc224", "fusion_lon": 0.0, "is_reserved": 0, "lon": -77.034437, "fusion_lat": 0.0, "is_disabled": 0, "bike_id": "c5049937ea77014b715adae773ecc224", "lat": 38.90361033333333, "rental_uris": {"ios": "https://dc.lft.to/lastmile_qr_scan", "android": "https://dc.lft.to/lastmile_qr_scan"}}, {"type": "electric_scooter", "name": "7034cd05418c162c765570ea41f55ada", "fusion_lon": 0.0, "is_reserved": 0, "lon": -77.08457, "fusion_lat": 0.0, "is_disabled": 0, "bike_id": "7034cd05418c162c765570ea41f55ada", "lat": 38.959164333333334, "rental_uris": {"ios": "https://dc.lft.to/lastmile_qr_scan", "android": "https://dc.lft.to/lastmile_qr_scan"}}, {"type": "electric_scooter", "name": "ded4d32c74b607ab735389df9ab44185", "fusion_lon": 0.0, "is_reserved": 0, "lon": -77.04430666666667, "fusion_lat": 0.0, "is_disabled": 0, "bike_id": "ded4d32c74b607ab735389df9ab44185", "lat": 38.92118983333334, "rental_uris": {"ios": "https://dc.lft.to/lastmile_qr_scan", "android": "https://dc.lft.to/lastmile_qr_scan"}}, {"type": "electric_scooter", "name": "68f75bfc2509339c5ade151d6803d90e", "fusion_lon": 0.0, "is_reserved": 0, "lon": -77.04336466666666, "fusion_lat": 0.0, "is_disabled": 0, "bike_id": "68f75bfc2509339c5ade151d6803d90e", "lat": 38.896056, "rental_uris": {"ios": "https://dc.lft.to/lastmile_qr_scan", "android": "https://dc.lft.to/lastmile_qr_scan"}}, {"type": "electric_scooter", "name": "4cf5fe6884a16c052481720a08a788d7", "fusion_lon": 0.0, "is_reserved": 0, "lon": -77.058165, "fusion_lat": 0.0, "is_disabled": 0, "bike_id": "4cf5fe6884a16c052481720a08a788d7", "lat": 38.902883333333335, "rental_uris": {"ios": "https://dc.lft.to/lastmile_qr_scan", "android": "https://dc.lft.to/lastmile_qr_scan"}}, {"type": "electric_scooter", "name": "8cd8a40dbe75147678eee915467a9692", "fusion_lon": 0.0, "is_reserved": 0, "lon": -77.03314266666666, "fusion_lat": 0.0, "is_disabled": 0, "bike_id": "8cd8a40dbe75147678eee915467a9692", "lat": 38.921560166666666, "rental_uris": {"ios": "https://dc.lft.to/lastmile_qr_scan", "android": "https://dc.lft.to/lastmile_qr_scan"}}, {"type": "electric_scooter", "name": "8d68e54fa6932fce41946560b389aa59", "fusion_lon": 0.0, "is_reserved": 0, "lon": -77.04819016666667, "fusion_lat": 0.0, "is_disabled": 0, "bike_id": "8d68e54fa6932fce41946560b389aa59", "lat": 38.9096275, "rental_uris": {"ios": "https://dc.lft.to/lastmile_qr_scan", "android": "https://dc.lft.to/lastmile_qr_scan"}}, {"type": "electric_bike", "name": "fe79839371d86b1eadfa9b19e64d9d5d", "fusion_lon": 0.0, "is_reserved": 0, "lon": -77.15019483333333, "fusion_lat": 0.0, "is_disabled": 0, "bike_id": "fe79839371d86b1eadfa9b19e64d9d5d", "lat": 39.0579255, "rental_uris": {"ios": "https://dc.lft.to/lastmile_qr_scan", "android": "https://dc.lft.to/lastmile_qr_scan"}}, {"type": "electric_scooter", "name": "06df7d521740b3b671bf3d2699af1a59", "fusion_lon": 0.0, "is_reserved": 0, "lon": -77.0405125, "fusion_lat": 0.0, "is_disabled": 0, "bike_id": "06df7d521740b3b671bf3d2699af1a59", "lat": 38.9140995, "rental_uris": {"ios": "https://dc.lft.to/lastmile_qr_scan", "android": "https://dc.lft.to/lastmile_qr_scan"}}, {"type": "electric_scooter", "name": "c03afc1eee7e1098a1a4ce9b6c0c6613", "fusion_lon": 0.0, "is_reserved": 0, "lon": -77.0212435, "fusion_lat": 0.0, "is_disabled": 0, "bike_id": "c03afc1eee7e1098a1a4ce9b6c0c6613", "lat": 38.92332583333334, "rental_uris": {"ios": "https://dc.lft.to/lastmile_qr_scan", "android": "https://dc.lft.to/lastmile_qr_scan"}}, {"type": "electric_scooter", "name": "d0d3ade30c74fdf46228261106cdc3f4", "fusion_lon": 0.0, "is_reserved": 0, "lon": -77.04085266666667, "fusion_lat": 0.0, "is_disabled": 0, "bike_id": "d0d3ade30c74fdf46228261106cdc3f4", "lat": 38.910454, "rental_uris": {"ios": "https://dc.lft.to/lastmile_qr_scan", "android": "https://dc.lft.to/lastmile_qr_scan"}}, {"type": "electric_scooter", "name": "9af14fa6edd48fc0079aabb488d0844d", "fusion_lon": 0.0, "is_reserved": 0, "lon": -77.01903416666667, "fusion_lat": 0.0, "is_disabled": 0, "bike_id": "9af14fa6edd48fc0079aabb488d0844d", "lat": 38.92384966666667, "rental_uris": {"ios": "https://dc.lft.to/lastmile_qr_scan", "android": "https://dc.lft.to/lastmile_qr_scan"}}, {"type": "electric_scooter", "name": "adf8bdd1ff6537c1b3ab3bd528536e97", "fusion_lon": 0.0, "is_reserved": 0, "lon": -77.07252783333334, "fusion_lat": 0.0, "is_disabled": 0, "bike_id": "adf8bdd1ff6537c1b3ab3bd528536e97", "lat": 38.907802833333335, "rental_uris": {"ios": "https://dc.lft.to/lastmile_qr_scan", "android": "https://dc.lft.to/lastmile_qr_scan"}}, {"type": "electric_scooter", "name": "48b405208b4f0e02f1906d7b83c11e3b", "fusion_lon": 0.0, "is_reserved": 0, "lon": -77.03795516666666, "fusion_lat": 0.0, "is_disabled": 0, "bike_id": "48b405208b4f0e02f1906d7b83c11e3b", "lat": 38.93048316666667, "rental_uris": {"ios": "https://dc.lft.to/lastmile_qr_scan", "android": "https://dc.lft.to/lastmile_qr_scan"}}, {"type": "electric_scooter", "name": "12a0407fe09112a7e909ce7425d42b0e", "fusion_lon": 0.0, "is_reserved": 0, "lon": -77.04002916666667, "fusion_lat": 0.0, "is_disabled": 0, "bike_id": "12a0407fe09112a7e909ce7425d42b0e", "lat": 38.93428883333333, "rental_uris": {"ios": "https://dc.lft.to/lastmile_qr_scan", "android": "https://dc.lft.to/lastmile_qr_scan"}}, {"type": "electric_scooter", "name": "4de1bdc96bdf38dee938f50fe98b94dc", "fusion_lon": 0.0, "is_reserved": 0, "lon": -77.03183216666666, "fusion_lat": 0.0, "is_disabled": 0, "bike_id": "4de1bdc96bdf38dee938f50fe98b94dc", "lat": 38.913539166666666, "rental_uris": {"ios": "https://dc.lft.to/lastmile_qr_scan", "android": "https://dc.lft.to/lastmile_qr_scan"}}, {"type": "electric_scooter", "name": "1b2d6bcb2544fa692b3e2c7f285fe549", "fusion_lon": 0.0, "is_reserved": 0, "lon": -77.00342666666667, "fusion_lat": 0.0, "is_disabled": 0, "bike_id": "1b2d6bcb2544fa692b3e2c7f285fe549", "lat": 38.8859635, "rental_uris": {"ios": "https://dc.lft.to/lastmile_qr_scan", "android": "https://dc.lft.to/lastmile_qr_scan"}}, {"type": "electric_scooter", "name": "76ba47b69191069bb08d0bdb47afaf08", "fusion_lon": 0.0, "is_reserved": 0, "lon": -76.9969515, "fusion_lat": 0.0, "is_disabled": 0, "bike_id": "76ba47b69191069bb08d0bdb47afaf08", "lat": 38.8842575, "rental_uris": {"ios": "https://dc.lft.to/lastmile_qr_scan", "android": "https://dc.lft.to/lastmile_qr_scan"}}, {"type": "electric_scooter", "name": "937e1659ed8aa0695101e7367b42ee8b", "fusion_lon": 0.0, "is_reserved": 0, "lon": -77.03861383333333, "fusion_lat": 0.0, "is_disabled": 0, "bike_id": "937e1659ed8aa0695101e7367b42ee8b", "lat": 38.9037375, "rental_uris": {"ios": "https://dc.lft.to/lastmile_qr_scan", "android": "https://dc.lft.to/lastmile_qr_scan"}}, {"type": "electric_scooter", "name": "847710aaf5bdf7f1bf33e8bd3368d19a", "fusion_lon": 0.0, "is_reserved": 0, "lon": -77.02813533333334, "fusion_lat": 0.0, "is_disabled": 0, "bike_id": "847710aaf5bdf7f1bf33e8bd3368d19a", "lat": 38.91746883333333, "rental_uris": {"ios": "https://dc.lft.to/lastmile_qr_scan", "android": "https://dc.lft.to/lastmile_qr_scan"}}, {"type": "electric_scooter", "name": "0a35f630961c005a00295a507a6bf213", "fusion_lon": 0.0, "is_reserved": 0, "lon": -77.03822466666666, "fusion_lat": 0.0, "is_disabled": 0, "bike_id": "0a35f630961c005a00295a507a6bf213", "lat": 38.90727, "rental_uris": {"ios": "https://dc.lft.to/lastmile_qr_scan", "android": "https://dc.lft.to/lastmile_qr_scan"}}, {"type": "electric_scooter", "name": "fe39bcf0e5bfa31ab4d882553313eddd", "fusion_lon": 0.0, "is_reserved": 0, "lon": -77.00943533333333, "fusion_lat": 0.0, "is_disabled": 0, "bike_id": "fe39bcf0e5bfa31ab4d882553313eddd", "lat": 38.874666500000004, "rental_uris": {"ios": "https://dc.lft.to/lastmile_qr_scan", "android": "https://dc.lft.to/lastmile_qr_scan"}}, {"type": "electric_scooter", "name": "b043008a46f050f8c8b57796ea4af2c8", "fusion_lon": 0.0, "is_reserved": 0, "lon": -77.02972033333333, "fusion_lat": 0.0, "is_disabled": 0, "bike_id": "b043008a46f050f8c8b57796ea4af2c8", "lat": 38.916797333333335, "rental_uris": {"ios": "https://dc.lft.to/lastmile_qr_scan", "android": "https://dc.lft.to/lastmile_qr_scan"}}, {"type": "electric_scooter", "name": "e83047415b9f32dd511fbabade595df6", "fusion_lon": 0.0, "is_reserved": 0, "lon": -77.0434325, "fusion_lat": 0.0, "is_disabled": 0, "bike_id": "e83047415b9f32dd511fbabade595df6", "lat": 38.903223, "rental_uris": {"ios": "https://dc.lft.to/lastmile_qr_scan", "android": "https://dc.lft.to/lastmile_qr_scan"}}, {"type": "electric_scooter", "name": "9fb78fd34e0410d8fa1313a15dd53a36", "fusion_lon": 0.0, "is_reserved": 0, "lon": -77.04012233333333, "fusion_lat": 0.0, "is_disabled": 0, "bike_id": "9fb78fd34e0410d8fa1313a15dd53a36", "lat": 38.90131383333333, "rental_uris": {"ios": "https://dc.lft.to/lastmile_qr_scan", "android": "https://dc.lft.to/lastmile_qr_scan"}}, {"type": "electric_scooter", "name": "e39bb6127026c4743f8aed37348e0b42", "fusion_lon": 0.0, "is_reserved": 0, "lon": -77.03994316666666, "fusion_lat": 0.0, "is_disabled": 0, "bike_id": "e39bb6127026c4743f8aed37348e0b42", "lat": 38.924630666666665, "rental_uris": {"ios": "https://dc.lft.to/lastmile_qr_scan", "android": "https://dc.lft.to/lastmile_qr_scan"}}, {"type": "electric_scooter", "name": "c4df6e75377a76c1bb1327203f7be0fd", "fusion_lon": 0.0, "is_reserved": 0, "lon": -77.00331083333333, "fusion_lat": 0.0, "is_disabled": 0, "bike_id": "c4df6e75377a76c1bb1327203f7be0fd", "lat": 38.89358416666666, "rental_uris": {"ios": "https://dc.lft.to/lastmile_qr_scan", "android": "https://dc.lft.to/lastmile_qr_scan"}}, {"type": "electric_scooter", "name": "551684e693d07c832eb4fbda437c83c8", "fusion_lon": 0.0, "is_reserved": 0, "lon": -77.03470333333334, "fusion_lat": 0.0, "is_disabled": 0, "bike_id": "551684e693d07c832eb4fbda437c83c8", "lat": 38.9171295, "rental_uris": {"ios": "https://dc.lft.to/lastmile_qr_scan", "android": "https://dc.lft.to/lastmile_qr_scan"}}, {"type": "electric_scooter", "name": "c4fb266b3d6d4aca6f3f3b498a11fb42", "fusion_lon": 0.0, "is_reserved": 0, "lon": -77.05792783333334, "fusion_lat": 0.0, "is_disabled": 0, "bike_id": "c4fb266b3d6d4aca6f3f3b498a11fb42", "lat": 38.93483, "rental_uris": {"ios": "https://dc.lft.to/lastmile_qr_scan", "android": "https://dc.lft.to/lastmile_qr_scan"}}, {"type": "electric_scooter", "name": "7c545782f07f70b3877f5b069a5bb967", "fusion_lon": 0.0, "is_reserved": 0, "lon": -77.02582916666667, "fusion_lat": 0.0, "is_disabled": 0, "bike_id": "7c545782f07f70b3877f5b069a5bb967", "lat": 38.880785333333336, "rental_uris": {"ios": "https://dc.lft.to/lastmile_qr_scan", "android": "https://dc.lft.to/lastmile_qr_scan"}}, {"type": "electric_scooter", "name": "d75b8f3b72a6c786203e6ff8822a57da", "fusion_lon": 0.0, "is_reserved": 0, "lon": -77.01938833333334, "fusion_lat": 0.0, "is_disabled": 0, "bike_id": "d75b8f3b72a6c786203e6ff8822a57da", "lat": 38.924232333333336, "rental_uris": {"ios": "https://dc.lft.to/lastmile_qr_scan", "android": "https://dc.lft.to/lastmile_qr_scan"}}, {"type": "electric_bike", "name": "65b7ef06bdffa29b5329aaf91f5d4aab", "fusion_lon": 0.0, "is_reserved": 0, "lon": -76.98107616666667, "fusion_lat": 0.0, "is_disabled": 0, "bike_id": "65b7ef06bdffa29b5329aaf91f5d4aab", "lat": 38.877310666666666, "rental_uris": {"ios": "https://dc.lft.to/lastmile_qr_scan", "android": "https://dc.lft.to/lastmile_qr_scan"}}, {"type": "electric_scooter", "name": "fdb77197626a80a7eafee745a9b7eaee", "fusion_lon": 0.0, "is_reserved": 0, "lon": -76.98425216666666, "fusion_lat": 0.0, "is_disabled": 0, "bike_id": "fdb77197626a80a7eafee745a9b7eaee", "lat": 38.860611, "rental_uris": {"ios": "https://dc.lft.to/lastmile_qr_scan", "android": "https://dc.lft.to/lastmile_qr_scan"}}, {"type": "electric_scooter", "name": "8e29ab3b7e9740e8d9f1b8804a50c94c", "fusion_lon": 0.0, "is_reserved": 0, "lon": -76.93398966666666, "fusion_lat": 0.0, "is_disabled": 0, "bike_id": "8e29ab3b7e9740e8d9f1b8804a50c94c", "lat": 38.89890966666667, "rental_uris": {"ios": "https://dc.lft.to/lastmile_qr_scan", "android": "https://dc.lft.to/lastmile_qr_scan"}}, {"type": "electric_scooter", "name": "94b549dfd85fb4c11dc1505752da2d68", "fusion_lon": 0.0, "is_reserved": 0, "lon": -77.0156185, "fusion_lat": 0.0, "is_disabled": 0, "bike_id": "94b549dfd85fb4c11dc1505752da2d68", "lat": 38.891746499999996, "rental_uris": {"ios": "https://dc.lft.to/lastmile_qr_scan", "android": "https://dc.lft.to/lastmile_qr_scan"}}, {"type": "electric_scooter", "name": "e6026527d8d5715f6788f9588ba29e87", "fusion_lon": 0.0, "is_reserved": 0, "lon": -77.04606, "fusion_lat": 0.0, "is_disabled": 0, "bike_id": "e6026527d8d5715f6788f9588ba29e87", "lat": 38.902692333333334, "rental_uris": {"ios": "https://dc.lft.to/lastmile_qr_scan", "android": "https://dc.lft.to/lastmile_qr_scan"}}, {"type": "electric_scooter", "name": "c8254db31f9981dbbf41ddce1877b047", "fusion_lon": 0.0, "is_reserved": 0, "lon": -77.062989, "fusion_lat": 0.0, "is_disabled": 0, "bike_id": "c8254db31f9981dbbf41ddce1877b047", "lat": 38.9060385, "rental_uris": {"ios": "https://dc.lft.to/lastmile_qr_scan", "android": "https://dc.lft.to/lastmile_qr_scan"}}, {"type": "electric_scooter", "name": "37b964597703ab8bd4a6236dfc2ef964", "fusion_lon": 0.0, "is_reserved": 0, "lon": -77.04411, "fusion_lat": 0.0, "is_disabled": 0, "bike_id": "37b964597703ab8bd4a6236dfc2ef964", "lat": 38.912766, "rental_uris": {"ios": "https://dc.lft.to/lastmile_qr_scan", "android": "https://dc.lft.to/lastmile_qr_scan"}}, {"type": "electric_scooter", "name": "4c3c17641c2e59061cb8649d02b94833", "fusion_lon": 0.0, "is_reserved": 0, "lon": -77.023497, "fusion_lat": 0.0, "is_disabled": 0, "bike_id": "4c3c17641c2e59061cb8649d02b94833", "lat": 38.89222133333333, "rental_uris": {"ios": "https://dc.lft.to/lastmile_qr_scan", "android": "https://dc.lft.to/lastmile_qr_scan"}}, {"type": "electric_scooter", "name": "02839fac0de2ebc808827b351d4f3696", "fusion_lon": 0.0, "is_reserved": 0, "lon": -77.01951366666667, "fusion_lat": 0.0, "is_disabled": 0, "bike_id": "02839fac0de2ebc808827b351d4f3696", "lat": 38.923132833333334, "rental_uris": {"ios": "https://dc.lft.to/lastmile_qr_scan", "android": "https://dc.lft.to/lastmile_qr_scan"}}, {"type": "electric_scooter", "name": "acb2593edef96192b696644ef274ae25", "fusion_lon": 0.0, "is_reserved": 0, "lon": -76.9575155, "fusion_lat": 0.0, "is_disabled": 0, "bike_id": "acb2593edef96192b696644ef274ae25", "lat": 38.88455866666666, "rental_uris": {"ios": "https://dc.lft.to/lastmile_qr_scan", "android": "https://dc.lft.to/lastmile_qr_scan"}}, {"type": "electric_scooter", "name": "2d5b9d4136e0aa6886f2fdd07abaa9cb", "fusion_lon": 0.0, "is_reserved": 0, "lon": -77.03194966666666, "fusion_lat": 0.0, "is_disabled": 0, "bike_id": "2d5b9d4136e0aa6886f2fdd07abaa9cb", "lat": 38.9104445, "rental_uris": {"ios": "https://dc.lft.to/lastmile_qr_scan", "android": "https://dc.lft.to/lastmile_qr_scan"}}, {"type": "electric_scooter", "name": "dbd87be2e4aea8cf83228dc545f2865d", "fusion_lon": 0.0, "is_reserved": 0, "lon": -77.02719083333334, "fusion_lat": 0.0, "is_disabled": 0, "bike_id": "dbd87be2e4aea8cf83228dc545f2865d", "lat": 38.909074333333336, "rental_uris": {"ios": "https://dc.lft.to/lastmile_qr_scan", "android": "https://dc.lft.to/lastmile_qr_scan"}},