{"data": {"bikes": [{"lon": -76.9980975, "bike_id": "734cee55ede1730a4e192c918723381e", "lat": 38.900159333333335, "fusion_lon": 0.0, "fusion_lat": 0.0, "type": "electric_scooter", "name": "734cee55ede1730a4e192c918723381e", "is_disabled": 0, "rental_uris": {"ios": "https://dc.lft.to/lastmile_qr_scan", "android": "https://dc.lft.to/lastmile_qr_scan"}, "is_reserved": 0}, {"lon": -77.009188, "bike_id": "c62d3621178453a88aa69c5efdfb1067", "lat": 38.896078333333335, "fusion_lon": 0.0, "fusion_lat": 0.0, "type": "electric_scooter", "name": "c62d3621178453a88aa69c5efdfb1067", "is_disabled": 0, "rental_uris": {"ios": "https://dc.lft.to/lastmile_qr_scan", "android": "https://dc.lft.to/lastmile_qr_scan"}, "is_reserved": 0}, {"lon": -77.02698966666667, "bike_id": "e681fc1b591cdd59a40a88b4165f39f8", "lat": 38.8971495, "fusion_lon": 0.0, "fusion_lat": 0.0, "type": "electric_scooter", "name": "e681fc1b591cdd59a40a88b4165f39f8", "is_disabled": 0, "rental_uris": {"ios": "https://dc.lft.to/lastmile_qr_scan", "android": "https://dc.lft.to/lastmile_qr_scan"}, "is_reserved": 0}, {"lon": -77.01913516666667, "bike_id": "1f40dda11cc14044cb293f472cad849c", "lat": 38.90313966666667, "fusion_lon": 0.0, "fusion_lat": 0.0, "type": "electric_scooter", "name": "1f40dda11cc14044cb293f472cad849c", "is_disabled": 0, "rental_uris": {"ios": "https://dc.lft.to/lastmile_qr_scan", "android": "https://dc.lft.to/lastmile_qr_scan"}, "is_reserved": 0}, {"lon": -76.9936965, "bike_id": "d894a3c8fa5b509ee26c1e89d460c3b5", "lat": 38.87972216666667, "fusion_lon": 0.0, "fusion_lat": 0.0, "type": "electric_scooter", "name": "d894a3c8fa5b509ee26c1e89d460c3b5", "is_disabled": 0, "rental_uris": {"ios": "https://dc.lft.to/lastmile_qr_scan", "android": "https://dc.lft.to/lastmile_qr_scan"}, "is_reserved": 0}, {"lon": -77.037409, "bike_id": "f41e34d0700b21707d6fd656cda2154e", "lat": 38.9180775, "fusion_lon": 0.0, "fusion_lat": 0.0, "type": "electric_scooter", "name": "f41e34d0700b21707d6fd656cda2154e", "is_disabled": 0, "rental_uris": {"ios": "https://dc.lft.to/lastmile_qr_scan", "android": "https://dc.lft.to/lastmile_qr_scan"}, "is_reserved": 0}, {"lon": -77.02719283333333, "bike_id": "5ccaa2298f24ccee47811afb56b74e2a", "lat": 38.913374, "fusion_lon": 0.0, "fusion_lat": 0.0, "type": "electric_scooter", "name": "5ccaa2298f24ccee47811afb56b74e2a", "is_disabled": 0, "rental_uris": {"ios": "https://dc.lft.to/lastmile_qr_scan", "android": "https://dc.lft.to/lastmile_qr_scan"}, "is_reserved": 0}, {"lon": -77.02197883333334, "bike_id": "abb8c097bd5db092fcd9385012718481", "lat": 38.900279166666664, "fusion_lon": 0.0, "fusion_lat": 0.0, "type": "electric_scooter", "name": "abb8c097bd5db092fcd9385012718481", "is_disabled": 0, "rental_uris": {"ios": "https://dc.lft.to/lastmile_qr_scan", "android": "https://dc.lft.to/lastmile_qr_scan"}, "is_reserved": 0}, {"lon": -77.01970766666666, "bike_id": "a684494fae533dbd6a0304b1784ebf62", "lat": 38.88374666666667, "fusion_lon": 0.0, "fusion_lat": 0.0, "type": "electric_scooter", "name": "a684494fae533dbd6a0304b1784ebf62", "is_disabled": 0, "rental_uris": {"ios": "https://dc.lft.to/lastmile_qr_scan", "android": "https://dc.lft.to/lastmile_qr_scan"}, "is_reserved": 0}, {"lon": -76.990023, "bike_id": "228a6149fdeabcc9791d00109b5a7485", "lat": 38.86508716666667, "fusion_lon": 0.0, "fusion_lat": 0.0, "type": "electric_scooter", "name": "228a6149fdeabcc9791d00109b5a7485", "is_disabled": 0, "rental_uris": {"ios": "https://dc.lft.to/lastmile_qr_scan", "android": "https://dc.lft.to/lastmile_qr_scan"}, "is_reserved": 0}, {"lon": -77.02461183333334, "bike_id": "9531b948efee9e86a27a271aa51a0d18", "lat": 38.93823616666667, "fusion_lon": 0.0, "fusion_lat": 0.0, "type": "electric_scooter", "name": "9531b948efee9e86a27a271aa51a0d18", "is_disabled": 0, "rental_uris": {"ios": "https://dc.lft.to/lastmile_qr_scan", "android": "https://dc.lft.to/lastmile_qr_scan"}, "is_reserved": 0}, {"lon": -76.96537533333333, "bike_id": "3e18a9f2cd8c8b8817f3d3e619ce5019", "lat": 38.874795, "fusion_lon": 0.0, "fusion_lat": 0.0, "type": "electric_scooter", "name": "3e18a9f2cd8c8b8817f3d3e619ce5019", "is_disabled": 0, "rental_uris": {"ios": "https://dc.lft.to/lastmile_qr_scan", "android": "https://dc.lft.to/lastmile_qr_scan"}, "is_reserved": 0}, {"lon": -77.02258583333334, "bike_id": "0cf87ed19e9f6750e09348b1fc479d9d", "lat": 38.928961666666666, "fusion_lon": 0.0, "fusion_lat": 0.0, "type": "electric_scooter", "name": "0cf87ed19e9f6750e09348b1fc479d9d", "is_disabled": 0, "rental_uris": {"ios": "https://dc.lft.to/lastmile_qr_scan", "android": "https://dc.lft.to/lastmile_qr_scan"}, "is_reserved": 0}, {"lon": -77.04001933333333, "bike_id": "c6828f510cad244156f407a75b1f6251", "lat": 38.90353533333333, "fusion_lon": 0.0, "fusion_lat": 0.0, "type": "electric_scooter", "name": "c6828f510cad244156f407a75b1f6251", "is_disabled": 0, "rental_uris": {"ios": "https://dc.lft.to/lastmile_qr_scan", "android": "https://dc.lft.to/lastmile_qr_scan"}, "is_reserved": 0}, {"lon": -77.00742733333334, "bike_id": "f30c9c2a075b7d60afbe318c57497c3b", "lat": 38.870934, "fusion_lon": 0.0, "fusion_lat": 0.0, "type": "electric_scooter", "name": "f30c9c2a075b7d60afbe318c57497c3b", "is_disabled": 0, "rental_uris": {"ios": "https://dc.lft.to/lastmile_qr_scan", "android": "https://dc.lft.to/lastmile_qr_scan"}, "is_reserved": 0}, {"lon": -77.03934183333334, "bike_id": "7f9ec00c468e9a022dbf8b2fd82cdd8d", "lat": 38.89974866666667, "fusion_lon": 0.0, "fusion_lat": 0.0, "type": "electric_scooter", "name": "7f9ec00c468e9a022dbf8b2fd82cdd8d", "is_disabled": 0, "rental_uris": {"ios": "https://dc.lft.to/lastmile_qr_scan", "android": "https://dc.lft.to/lastmile_qr_scan"}, "is_reserved": 0}, {"lon": -77.02154516666667, "bike_id": "8179e29d016dbbfb2ed05b474a7a6a1a", "lat": 38.894907, "fusion_lon": 0.0, "fusion_lat": 0.0, "type": "electric_scooter", "name": "8179e29d016dbbfb2ed05b474a7a6a1a", "is_disabled": 0, "rental_uris": {"ios": "https://dc.lft.to/lastmile_qr_scan", "android": "https://dc.lft.to/lastmile_qr_scan"}, "is_reserved": 0}, {"lon": -77.02563966666666, "bike_id": "ab0841e41826781defd7bd5beb1d3891", "lat": 38.933517333333334, "fusion_lon": 0.0, "fusion_lat": 0.0, "type": "electric_scooter", "name": "ab0841e41826781defd7bd5beb1d3891", "is_disabled": 0, "rental_uris": {"ios": "https://dc.lft.to/lastmile_qr_scan", "android": "https://dc.lft.to/lastmile_qr_scan"}, "is_reserved": 0}, {"lon": -77.0328755, "bike_id": "018b8e14238527bc22ec57f28fada3fc", "lat": 38.9215945, "fusion_lon": 0.0, "fusion_lat": 0.0, "type": "electric_scooter", "name": "018b8e14238527bc22ec57f28fada3fc", "is_disabled": 0, "rental_uris": {"ios": "https://dc.lft.to/lastmile_qr_scan", "android": "https://dc.lft.to/lastmile_qr_scan"}, "is_reserved": 0}, {"lon": -77.022103, "bike_id": "d7934a9f1d0dead100bd128e44ff4d9d", "lat": 38.921041333333335, "fusion_lon": 0.0, "fusion_lat": 0.0, "type": "electric_scooter", "name": "d7934a9f1d0dead100bd128e44ff4d9d", "is_disabled": 0, "rental_uris": {"ios": "https://dc.lft.to/lastmile_qr_scan", "android": "https://dc.lft.to/lastmile_qr_scan"}, "is_reserved": 0}, {"lon": -77.048768, "bike_id": "2532743ebf4ea0aa48e2bb2cc1c14ab6", "lat": 38.90646233333333, "fusion_lon": 0.0, "fusion_lat": 0.0, "type": "electric_scooter", "name": "2532743ebf4ea0aa48e2bb2cc1c14ab6", "is_disabled": 0, "rental_uris": {"ios": "https://dc.lft.to/lastmile_qr_scan", "android": "https://dc.lft.to/lastmile_qr_scan"}, "is_reserved": 0}, {"lon": -76.94631816666667, "bike_id": "1869457a9e65c097b00271580658f951", "lat": 38.89833983333333, "fusion_lon": 0.0, "fusion_lat": 0.0, "type": "electric_scooter", "name": "1869457a9e65c097b00271580658f951", "is_disabled": 0, "rental_uris": {"ios": "https://dc.lft.to/lastmile_qr_scan", "android": "https://dc.lft.to/lastmile_qr_scan"}, "is_reserved": 0}, {"lon": -77.04889633333333, "bike_id": "070ea6d78a70003f9e672f46dca03799", "lat": 38.90109666666667, "fusion_lon": 0.0, "fusion_lat": 0.0, "type": "electric_scooter", "name": "070ea6d78a70003f9e672f46dca03799", "is_disabled": 0, "rental_uris": {"ios": "https://dc.lft.to/lastmile_qr_scan", "android": "https://dc.lft.to/lastmile_qr_scan"}, "is_reserved": 0}, {"lon": -77.03247333333333, "bike_id": "a331e12244d941b12b9821b633c232b7", "lat": 38.909604333333334, "fusion_lon": 0.0, "fusion_lat": 0.0, "type": "electric_scooter", "name": "a331e12244d941b12b9821b633c232b7", "is_disabled": 0, "rental_uris": {"ios": "https://dc.lft.to/lastmile_qr_scan", "android": "https://dc.lft.to/lastmile_qr_scan"}, "is_reserved": 0}, {"lon": -77.03853616666666, "bike_id": "e814cd8c2084b805ed22a0580dbf896a", "lat": 38.916901333333335, "fusion_lon": 0.0, "fusion_lat": 0.0, "type": "electric_scooter", "name": "e814cd8c2084b805ed22a0580dbf896a", "is_disabled": 0, "rental_uris": {"ios": "https://dc.lft.to/lastmile_qr_scan", "android": "https://dc.lft.to/lastmile_qr_scan"}, "is_reserved": 0}, {"lon": -77.01977116666667, "bike_id": "7e2cc3b40854d63151330cf78a0c8ded", "lat": 38.8838055, "fusion_lon": 0.0, "fusion_lat": 0.0, "type": "electric_scooter", "name": "7e2cc3b40854d63151330cf78a0c8ded", "is_disabled": 0, "rental_uris": {"ios": "https://dc.lft.to/lastmile_qr_scan", "android": "https://dc.lft.to/lastmile_qr_scan"}, "is_reserved": 0}, {"lon": -77.03184933333333, "bike_id": "1c1a051f63e1fcf6aea95b347174d6c7", "lat": 38.930536333333336, "fusion_lon": 0.0, "fusion_lat": 0.0, "type": "electric_scooter", "name": "1c1a051f63e1fcf6aea95b347174d6c7", "is_disabled": 0, "rental_uris": {"ios": "https://dc.lft.to/lastmile_qr_scan", "android": "https://dc.lft.to/lastmile_qr_scan"}, "is_reserved": 0}, {"lon": -77.0237225, "bike_id": "98d905de78c4b8615ab0423633d91365", "lat": 38.91780983333334, "fusion_lon": 0.0, "fusion_lat": 0.0, "type": "electric_scooter", "name": "98d905de78c4b8615ab0423633d91365", "is_disabled": 0, "rental_uris": {"ios": "https://dc.lft.to/lastmile_qr_scan", "android": "https://dc.lft.to/lastmile_qr_scan"}, "is_reserved": 0}, {"lon": -77.0332645, "bike_id": "4d813b63976fd08aaef9ac358a5bf59e", "lat": 38.9097165, "fusion_lon": 0.0, "fusion_lat": 0.0, "type": "electric_scooter", "name": "4d813b63976fd08aaef9ac358a5bf59e", "is_disabled": 0, "rental_uris": {"ios": "https://dc.lft.to/lastmile_qr_scan", "android": "https://dc.lft.to/lastmile_qr_scan"}, "is_reserved": 0}, {"lon": -77.02733566666667, "bike_id": "d55b66a30c9182e9c520baa45430a826", "lat": 38.932112333333336, "fusion_lon": 0.0, "fusion_lat": 0.0, "type": "electric_scooter", "name": "d55b66a30c9182e9c520baa45430a826", "is_disabled": 0, "rental_uris": {"ios": "https://dc.lft.to/lastmile_qr_scan", "android": "https://dc.lft.to/lastmile_qr_scan"}, "is_reserved": 0}, {"lon": -77.021562, "bike_id": "2c1030f4dca09dd3c7a1708303671f08", "lat": 38.926843, "fusion_lon": 0.0, "fusion_lat": 0.0, "type": "electric_scooter", "name": "2c1030f4dca09dd3c7a1708303671f08", "is_disabled": 0, "rental_uris": {"ios": "https://dc.lft.to/lastmile_qr_scan", "android": "https://dc.lft.to/lastmile_qr_scan"}, "is_reserved": 0}, {"lon": -77.03208383333333, "bike_id": "6510a1f8cdc18ab046313e71584a739c", "lat": 38.91554216666667, "fusion_lon": 0.0, "fusion_lat": 0.0, "type": "electric_scooter", "name": "6510a1f8cdc18ab046313e71584a739c", "is_disabled": 0, "rental_uris": {"ios": "https://dc.lft.to/lastmile_qr_scan", "android": "https://dc.lft.to/lastmile_qr_scan"}, "is_reserved": 0}, {"lon": -77.00354833333333, "bike_id": "91fac727021efc602be9ac48458b6950", "lat": 38.8965675, "fusion_lon": 0.0, "fusion_lat": 0.0, "type": "electric_scooter", "name": "91fac727021efc602be9ac48458b6950", "is_disabled": 0, "rental_uris": {"ios": "https://dc.lft.to/lastmile_qr_scan", "android": "https://dc.lft.to/lastmile_qr_scan"}, "is_reserved": 0}, {"lon": -77.02262816666666, "bike_id": "9c8626f09a994659b6994ca0f5748816", "lat": 38.90721416666667, "fusion_lon": 0.0, "fusion_lat": 0.0, "type": "electric_scooter", "name": "9c8626f09a994659b6994ca0f5748816", "is_disabled": 0, "rental_uris": {"ios": "https://dc.lft.to/lastmile_qr_scan", "android": "https://dc.lft.to/lastmile_qr_scan"}, "is_reserved": 0}, {"lon": -76.98235033333333, "bike_id": "75b752fece378e7217baabe6713c51cd", "lat": 38.8886425, "fusion_lon": 0.0, "fusion_lat": 0.0, "type": "electric_scooter", "name": "75b752fece378e7217baabe6713c51cd", "is_disabled": 0, "rental_uris": {"ios": "https://dc.lft.to/lastmile_qr_scan", "android": "https://dc.lft.to/lastmile_qr_scan"}, "is_reserved": 0}, {"lon": -77.064941, "bike_id": "f1a901d7e763ad23170c07e9cdc7a719", "lat": 38.929072166666664, "fusion_lon": 0.0, "fusion_lat": 0.0, "type": "electric_scooter", "name": "f1a901d7e763ad23170c07e9cdc7a719", "is_disabled": 0, "rental_uris": {"ios": "https://dc.lft.to/lastmile_qr_scan", "android": "https://dc.lft.to/lastmile_qr_scan"}, "is_reserved": 0}, {"lon": -77.041567, "bike_id": "1fcb427a51c4b409e71e947ae80d880b", "lat": 38.9124835, "fusion_lon": 0.0, "fusion_lat": 0.0, "type": "electric_scooter", "name": "1fcb427a51c4b409e71e947ae80d880b", "is_disabled": 0, "rental_uris": {"ios": "https://dc.lft.to/lastmile_qr_scan", "android": "https://dc.lft.to/lastmile_qr_scan"}, "is_reserved": 0}, {"lon": -77.04007016666667, "bike_id": "61ada6ae58f714fea17ac8e1ac71ca5f", "lat": 38.9156, "fusion_lon": 0.0, "fusion_lat": 0.0, "type": "electric_scooter", "name": "61ada6ae58f714fea17ac8e1ac71ca5f", "is_disabled": 0, "rental_uris": {"ios": "https://dc.lft.to/lastmile_qr_scan", "android": "https://dc.lft.to/lastmile_qr_scan"}, "is_reserved": 0}, {"lon": -77.00197833333333, "bike_id": "52645b75176f2ab062ced06927aeda0f", "lat": 38.900324833333336, "fusion_lon": 0.0, "fusion_lat": 0.0, "type": "electric_scooter", "name": "52645b75176f2ab062ced06927aeda0f", "is_disabled": 0, "rental_uris": {"ios": "https://dc.lft.to/lastmile_qr_scan", "android": "https://dc.lft.to/lastmile_qr_scan"}, "is_reserved": 0}, {"lon": -77.03348716666666, "bike_id": "3d4b1af0fb07d933c241aa792141757b", "lat": 38.92347933333333, "fusion_lon": 0.0, "fusion_lat": 0.0, "type": "electric_scooter", "name": "3d4b1af0fb07d933c241aa792141757b", "is_disabled": 0, "rental_uris": {"ios": "https://dc.lft.to/lastmile_qr_scan", "android": "https://dc.lft.to/lastmile_qr_scan"}, "is_reserved": 0}, {"lon": -77.04799383333334, "bike_id": "3c90741bc559f2a78ef8e11a155aa4c3", "lat": 38.914046666666664, "fusion_lon": 0.0, "fusion_lat": 0.0, "type": "electric_scooter", "name": "3c90741bc559f2a78ef8e11a155aa4c3", "is_disabled": 0, "rental_uris": {"ios": "https://dc.lft.to/lastmile_qr_scan", "android": "https://dc.lft.to/lastmile_qr_scan"}, "is_reserved": 0}, {"lon": -77.02388883333333, "bike_id": "cc672e25d77a6c7ffd73e02168f0210c", "lat": 38.89744533333333, "fusion_lon": 0.0, "fusion_lat": 0.0, "type": "electric_scooter", "name": "cc672e25d77a6c7ffd73e02168f0210c", "is_disabled": 0, "rental_uris": {"ios": "https://dc.lft.to/lastmile_qr_scan", "android": "https://dc.lft.to/lastmile_qr_scan"}, "is_reserved": 0}, {"lon": -77.0243705, "bike_id": "7dadcb71eb7faa88cfebe9624e0ffa41", "lat": 38.88426966666667, "fusion_lon": 0.0, "fusion_lat": 0.0, "type": "electric_scooter", "name": "7dadcb71eb7faa88cfebe9624e0ffa41", "is_disabled": 0, "rental_uris": {"ios": "https://dc.lft.to/lastmile_qr_scan", "android": "https://dc.lft.to/lastmile_qr_scan"}, "is_reserved": 0}, {"lon": -77.00362183333333, "bike_id": "daa994e9aff262fbb2cec453e42e0afa", "lat": 38.898779166666664, "fusion_lon": 0.0, "fusion_lat": 0.0, "type": "electric_scooter", "name": "daa994e9aff262fbb2cec453e42e0afa", "is_disabled": 0, "rental_uris": {"ios": "https://dc.lft.to/lastmile_qr_scan", "android": "https://dc.lft.to/lastmile_qr_scan"}, "is_reserved": 0}, {"lon": -77.0415035, "bike_id": "b48f346889085c4f7a8ef233e4aecaf5", "lat": 38.897264666666665, "fusion_lon": 0.0, "fusion_lat": 0.0, "type": "electric_scooter", "name": "b48f346889085c4f7a8ef233e4aecaf5", "is_disabled": 0, "rental_uris": {"ios": "https://dc.lft.to/lastmile_qr_scan", "android": "https://dc.lft.to/lastmile_qr_scan"}, "is_reserved": 0}, {"lon": -76.99384766666667, "bike_id": "b8e8139c5a91b93370d9824c87afae08", "lat": 38.88350166666667, "fusion_lon": 0.0, "fusion_lat": 0.0, "type": "electric_scooter", "name": "b8e8139c5a91b93370d9824c87afae08", "is_disabled": 0, "rental_uris": {"ios": "https://dc.lft.to/lastmile_qr_scan", "android": "https://dc.lft.to/lastmile_qr_scan"}, "is_reserved": 0}, {"lon": -77.04576083333333, "bike_id": "ccb8f383a99f78d99c4e1c51b07b9b19", "lat": 38.91620016666667, "fusion_lon": 0.0, "fusion_lat": 0.0, "type": "electric_scooter", "name": "ccb8f383a99f78d99c4e1c51b07b9b19", "is_disabled": 0, "rental_uris": {"ios": "https://dc.lft.to/lastmile_qr_scan", "android": "https://dc.lft.to/lastmile_qr_scan"}, "is_reserved": 0}, {"lon": -76.983346, "bike_id": "81a6689ad2756cdb978fe3cbbea5853a", "lat": 38.895448333333334, "fusion_lon": 0.0, "fusion_lat": 0.0, "type": "electric_scooter", "name": "81a6689ad2756cdb978fe3cbbea5853a", "is_disabled": 0, "rental_uris": {"ios": "https://dc.lft.to/lastmile_qr_scan", "android": "https://dc.lft.to/lastmile_qr_scan"}, "is_reserved": 0}, {"lon": -77.0677295, "bike_id": "1366f98761f2c8ff48d59d2a5eec58a9", "lat": 38.903523666666665, "fusion_lon": 0.0, "fusion_lat": 0.0, "type": "electric_scooter", "name": "1366f98761f2c8ff48d59d2a5eec58a9", "is_disabled": 0, "rental_uris": {"ios": "https://dc.lft.to/lastmile_qr_scan", "android": "https://dc.lft.to/lastmile_qr_scan"}, "is_reserved": 0}, {"lon": -76.961502, "bike_id": "f94e370acdfb802672ad3912a53537d5", "lat": 38.88356916666667, "fusion_lon": 0.0, "fusion_lat": 0.0, "type": "electric_scooter", "name": "f94e370acdfb802672ad3912a53537d5", "is_disabled": 0, "rental_uris": {"ios": "https://dc.lft.to/lastmile_qr_scan", "android": "https://dc.lft.to/lastmile_qr_scan"}, "is_reserved": 0}, {"lon": -77.04687566666666, "bike_id": "ec347ae8217688c14b41752a6df62b72", "lat": 38.89662766666667, "fusion_lon": 0.0, "fusion_lat": 0.0, "type": "electric_scooter", "name": "ec347ae8217688c14b41752a6df62b72", "is_disabled": 0, "rental_uris": {"ios": "https://dc.lft.to/lastmile_qr_scan", "android": "https://dc.lft.to/lastmile_qr_scan"}, "is_reserved": 0}, {"lon": -76.96781016666667, "bike_id": "6a60bcab250ee4b8dc5502103453adf5", "lat": 38.868414, "fusion_lon": 0.0, "fusion_lat": 0.0, "type": "electric_scooter", "name": "6a60bcab250ee4b8dc5502103453adf5", "is_disabled": 0, "rental_uris": {"ios": "https://dc.lft.to/lastmile_qr_scan", "android": "https://dc.lft.to/lastmile_qr_scan"}, "is_reserved": 0}, {"lon": -77.03933716666667, "bike_id": "659f97052bc27e08f301bf5ba0106f6b", "lat": 38.91705316666667, "fusion_lon": 0.0, "fusion_lat": 0.0, "type": "electric_scooter", "name": "659f97052bc27e08f301bf5ba0106f6b", "is_disabled": 0, "rental_uris": {"ios": "https://dc.lft.to/lastmile_qr_scan", "android": "https://dc.lft.to/lastmile_qr_scan"}, "is_reserved": 0}, {"lon": -77.0332625, "bike_id": "fb768244aae6d774e6ef636fa68b0061", "lat": 38.901291666666665, "fusion_lon": 0.0, "fusion_lat": 0.0, "type": "electric_scooter", "name": "fb768244aae6d774e6ef636fa68b0061", "is_disabled": 0, "rental_uris": {"ios": "https://dc.lft.to/lastmile_qr_scan", "android": "https://dc.lft.to/lastmile_qr_scan"}, "is_reserved": 0}, {"lon": -77.02185816666666, "bike_id": "7a672b4d762120adcb5257f3c8df3acb", "lat": 38.9112965, "fusion_lon": 0.0, "fusion_lat": 0.0, "type": "electric_scooter", "name": "7a672b4d762120adcb5257f3c8df3acb", "is_disabled": 0, "rental_uris": {"ios": "https://dc.lft.to/lastmile_qr_scan", "android": "https://dc.lft.to/lastmile_qr_scan"}, "is_reserved": 0}, {"lon": -77.03807833333333, "bike_id": "56b475c7996cbacf9a4642bea03294e7", "lat": 38.93092716666666, "fusion_lon": 0.0, "fusion_lat": 0.0, "type": "electric_scooter", "name": "56b475c7996cbacf9a4642bea03294e7", "is_disabled": 0, "rental_uris": {"ios": "https://dc.lft.to/lastmile_qr_scan", "android": "https://dc.lft.to/lastmile_qr_scan"}, "is_reserved": 0}, {"lon": -77.03145566666667, "bike_id": "0e48f57976014f1da38b92d6c6579eea", "lat": 38.91652216666667, "fusion_lon": 0.0, "fusion_lat": 0.0, "type": "electric_scooter", "name": "0e48f57976014f1da38b92d6c6579eea", "is_disabled": 0, "rental_uris": {"ios": "https://dc.lft.to/lastmile_qr_scan", "android": "https://dc.lft.to/lastmile_qr_scan"}, "is_reserved": 0}, {"lon": -76.98294233333333, "bike_id": "91a1b896c065b182e0c4e6444b68f70f", "lat": 38.901105, "fusion_lon": 0.0, "fusion_lat": 0.0, "type": "electric_scooter", "name": "91a1b896c065b182e0c4e6444b68f70f", "is_disabled": 0, "rental_uris": {"ios": "https://dc.lft.to/lastmile_qr_scan", "android": "https://dc.lft.to/lastmile_qr_scan"}, "is_reserved": 0}, {"lon": -77.02399233333334, "bike_id": "f30f1a1103898086c477d7bbe048e8ca", "lat": 38.90421683333334, "fusion_lon": 0.0, "fusion_lat": 0.0, "type": "electric_scooter", "name": "f30f1a1103898086c477d7bbe048e8ca", "is_disabled": 0, "rental_uris": {"ios": "https://dc.lft.to/lastmile_qr_scan", "android": "https://dc.lft.to/lastmile_qr_scan"}, "is_reserved": 0}, {"lon": -77.00918133333333, "bike_id": "1df43058ac93f16f9c78a0cf9e620904", "lat": 38.827831833333335, "fusion_lon": 0.0, "fusion_lat": 0.0, "type": "electric_bike", "name": "1df43058ac93f16f9c78a0cf9e620904", "is_disabled": 0, "rental_uris": {"ios": "https://dc.lft.to/lastmile_qr_scan", "android": "https://dc.lft.to/lastmile_qr_scan"}, "is_reserved": 0}, {"lon": -76.99771316666667, "bike_id": "c23e9758ad7ef3dcf7896c29102cd61f", "lat": 38.922876, "fusion_lon": 0.0, "fusion_lat": 0.0, "type": "electric_scooter", "name": "c23e9758ad7ef3dcf7896c29102cd61f", "is_disabled": 0, "rental_uris": {"ios": "https://dc.lft.to/lastmile_qr_scan", "android": "https://dc.lft.to/lastmile_qr_scan"}, "is_reserved": 0}, {"lon": -76.963603, "bike_id": "4afc17f13660965aa402f898509e1d39", "lat": 38.93497516666667, "fusion_lon": 0.0, "fusion_lat": 0.0, "type": "electric_scooter", "name": "4afc17f13660965aa402f898509e1d39", "is_disabled": 0, "rental_uris": {"ios": "https://dc.lft.to/lastmile_qr_scan", "android": "https://dc.lft.to/lastmile_qr_scan"}, "is_reserved": 0}, {"lon": -77.000659, "bike_id": "65ca399f5b1f1d2d6a234867352502e6", "lat": 38.9243685, "fusion_lon": 0.0, "fusion_lat": 0.0, "type": "electric_scooter", "name": "65ca399f5b1f1d2d6a234867352502e6", "is_disabled": 0, "rental_uris": {"ios": "https://dc.lft.to/lastmile_qr_scan", "android": "https://dc.lft.to/lastmile_qr_scan"}, "is_reserved": 0}, {"lon": -77.021145, "bike_id": "ce04c557db62c16b93899cad2adaf1c8", "lat": 38.9369495, "fusion_lon": 0.0, "fusion_lat": 0.0, "type": "electric_scooter", "name": "ce04c557db62c16b93899cad2adaf1c8", "is_disabled": 0, "rental_uris": {"ios": "https://dc.lft.to/lastmile_qr_scan", "android": "https://dc.lft.to/lastmile_qr_scan"}, "is_reserved": 0}, {"lon": -77.02590066666667, "bike_id": "1478661bdd786814c70b4daa0d65551f", "lat": 38.9430385, "fusion_lon": 0.0, "fusion_lat": 0.0, "type": "electric_scooter", "name": "1478661bdd786814c70b4daa0d65551f", "is_disabled": 0, "rental_uris": {"ios": "https://dc.lft.to/lastmile_qr_scan", "android": "https://dc.lft.to/lastmile_qr_scan"}, "is_reserved": 0}, {"lon": -77.04424433333334, "bike_id": "7678a762b598d8dba7cf7d9996ae9a44", "lat": 38.921193, "fusion_lon": 0.0, "fusion_lat": 0.0, "type": "electric_scooter", "name": "7678a762b598d8dba7cf7d9996ae9a44", "is_disabled": 0, "rental_uris": {"ios": "https://dc.lft.to/lastmile_qr_scan", "android": "https://dc.lft.to/lastmile_qr_scan"}, "is_reserved": 0}, {"lon": -77.01648516666667, "bike_id": "b8be0a145aaf308de06be8226326fbdb", "lat": 38.928957833333335, "fusion_lon": 0.0, "fusion_lat": 0.0, "type": "electric_scooter", "name": "b8be0a145aaf308de06be8226326fbdb", "is_disabled": 0, "rental_uris": {"ios": "https://dc.lft.to/lastmile_qr_scan", "android": "https://dc.lft.to/lastmile_qr_scan"}, "is_reserved": 0}, {"lon": -77.03369716666667, "bike_id": "2e0565c76d959e37d2e7a8c7165dd52e", "lat": 38.9000845, "fusion_lon": 0.0, "fusion_lat": 0.0, "type": "electric_scooter", "name": "2e0565c76d959e37d2e7a8c7165dd52e", "is_disabled": 0, "rental_uris": {"ios": "https://dc.lft.to/lastmile_qr_scan", "android": "https://dc.lft.to/lastmile_qr_scan"}, "is_reserved": 0}, {"lon": -77.04158216666667, "bike_id": "ecf3744be9fca3370417ee496df52ae7", "lat": 38.91251, "fusion_lon": 0.0, "fusion_lat": 0.0, "type": "electric_scooter", "name": "ecf3744be9fca3370417ee496df52ae7", "is_disabled": 0, "rental_uris": {"ios": "https://dc.lft.to/lastmile_qr_scan", "android": "https://dc.lft.to/lastmile_qr_scan"}, "is_reserved": 0}, {"lon": -77.0216865, "bike_id": "e84d8aa3f61603768c05a702f1807c02", "lat": 38.90847683333333, "fusion_lon": 0.0, "fusion_lat": 0.0, "type": "electric_scooter", "name": "e84d8aa3f61603768c05a702f1807c02", "is_disabled": 0, "rental_uris": {"ios": "https://dc.lft.to/lastmile_qr_scan", "android": "https://dc.lft.to/lastmile_qr_scan"}, "is_reserved": 0}, {"lon": -76.9312925, "bike_id": "5133dda9b933283774008619874a6e23", "lat": 38.8784865, "fusion_lon": 0.0, "fusion_lat": 0.0, "type": "electric_scooter", "name": "5133dda9b933283774008619874a6e23", "is_disabled": 0, "rental_uris": {"ios": "https://dc.lft.to/lastmile_qr_scan", "android": "https://dc.lft.to/lastmile_qr_scan"}, "is_reserved": 0}, {"lon": -77.06268616666667, "bike_id": "bc88082e246dc44c12b852a7f77f1f21", "lat": 38.90536383333333, "fusion_lon": 0.0, "fusion_lat": 0.0, "type": "electric_scooter", "name": "bc88082e246dc44c12b852a7f77f1f21", "is_disabled": 0, "rental_uris": {"ios": "https://dc.lft.to/lastmile_qr_scan", "android": "https://dc.lft.to/lastmile_qr_scan"}, "is_reserved": 0}, {"lon": -77.043765, "bike_id": "fcca866e62713562fda30b2778bee057", "lat": 38.920702166666665, "fusion_lon": 0.0, "fusion_lat": 0.0, "type": "electric_scooter", "name": "fcca866e62713562fda30b2778bee057", "is_disabled": 0, "rental_uris": {"ios": "https://dc.lft.to/lastmile_qr_scan", "android": "https://dc.lft.to/lastmile_qr_scan"}, "is_reserved": 0}, {"lon": -77.02474566666666, "bike_id": "0e2123156492f7cea256816f9b56ea5e", "lat": 38.9193425, "fusion_lon": 0.0, "fusion_lat": 0.0, "type": "electric_scooter", "name": "0e2123156492f7cea256816f9b56ea5e", "is_disabled": 0, "rental_uris": {"ios": "https://dc.lft.to/lastmile_qr_scan", "android": "https://dc.lft.to/lastmile_qr_scan"}, "is_reserved": 0}, {"lon": -77.058044, "bike_id": "1c9419654e6efedc2258b6b407e494c1", "lat": 38.935103833333336, "fusion_lon": 0.0, "fusion_lat": 0.0, "type": "electric_scooter", "name": "1c9419654e6efedc2258b6b407e494c1", "is_disabled": 0, "rental_uris": {"ios": "https://dc.lft.to/lastmile_qr_scan", "android": "https://dc.lft.to/lastmile_qr_scan"}, "is_reserved": 0}, {"lon": -77.077544, "bike_id": "c84964841b3f91c37d53fddc7657d3af", "lat": 38.925543166666664, "fusion_lon": 0.0, "fusion_lat": 0.0, "type": "electric_scooter", "name": "c84964841b3f91c37d53fddc7657d3af", "is_disabled": 0, "rental_uris": {"ios": "https://dc.lft.to/lastmile_qr_scan", "android": "https://dc.lft.to/lastmile_qr_scan"}, "is_reserved": 0}, {"lon": -76.95747116666666, "bike_id": "ebc9dcfacc9ab9592a9c8f15231b3a36", "lat": 38.884304, "fusion_lon": 0.0, "fusion_lat": 0.0, "type": "electric_scooter", "name": "ebc9dcfacc9ab9592a9c8f15231b3a36", "is_disabled": 0, "rental_uris": {"ios": "https://dc.lft.to/lastmile_qr_scan", "android": "https://dc.lft.to/lastmile_qr_scan"}, "is_reserved": 0}, {"lon": -77.10126016666666, "bike_id": "eaf7bbdc15ac912a045193cfcca9dedd", "lat": 38.85204233333333, "fusion_lon": 0.0, "fusion_lat": 0.0, "type": "electric_bike", "name": "eaf7bbdc15ac912a045193cfcca9dedd", "is_disabled": 0, "rental_uris": {"ios": "https://dc.lft.to/lastmile_qr_scan", "android": "https://dc.lft.to/lastmile_qr_scan"}, "is_reserved": 0}, {"lon": -77.02959816666667, "bike_id": "f361867b7f0b8571d676466dbbcd0319", "lat": 38.92488516666667, "fusion_lon": 0.0, "fusion_lat": 0.0, "type": "electric_scooter", "name": "f361867b7f0b8571d676466dbbcd0319", "is_disabled": 0, "rental_uris": {"ios": "https://dc.lft.to/lastmile_qr_scan", "android": "https://dc.lft.to/lastmile_qr_scan"}, "is_reserved": 0}, {"lon": -77.0239715, "bike_id": "7c7d8ca3130f16671e31dc72a89343af", "lat": 38.90408883333333, "fusion_lon": 0.0, "fusion_lat": 0.0, "type": "electric_scooter", "name": "7c7d8ca3130f16671e31dc72a89343af", "is_disabled": 0, "rental_uris": {"ios": "https://dc.lft.to/lastmile_qr_scan", "android": "https://dc.lft.to/lastmile_qr_scan"}, "is_reserved": 0}, {"lon": -77.08680683333333, "bike_id": "a2e5b8dc81c29270fa322aa6ca8ce2c3", "lat": 38.873954499999996, "fusion_lon": 0.0, "fusion_lat": 0.0, "type": "electric_bike", "name": "a2e5b8dc81c29270fa322aa6ca8ce2c3", "is_disabled": 0, "rental_uris": {"ios": "https://dc.lft.to/lastmile_qr_scan", "android": "https://dc.lft.to/lastmile_qr_scan"}, "is_reserved": 0}, {"lon": -77.028346, "bike_id": "1ebbaa9755428bff48a4a95dcc0affb8", "lat": 38.925847166666664, "fusion_lon": 0.0, "fusion_lat": 0.0, "type": "electric_scooter", "name": "1ebbaa9755428bff48a4a95dcc0affb8", "is_disabled": 0, "rental_uris": {"ios": "https://dc.lft.to/lastmile_qr_scan", "android": "https://dc.lft.to/lastmile_qr_scan"}, "is_reserved": 0}, {"lon": -77.02501616666666, "bike_id": "a6ae9ed24e2c11be0dbc0f91eefd4874", "lat": 38.92642683333333, "fusion_lon": 0.0, "fusion_lat": 0.0, "type": "electric_scooter", "name": "a6ae9ed24e2c11be0dbc0f91eefd4874", "is_disabled": 0, "rental_uris": {"ios": "https://dc.lft.to/lastmile_qr_scan", "android": "https://dc.lft.to/lastmile_qr_scan"}, "is_reserved": 0}, {"lon": -77.0415575, "bike_id": "16cfa32325ef8cd85171dd0bc9dae2fb", "lat": 38.9148475, "fusion_lon": 0.0, "fusion_lat": 0.0, "type": "electric_scooter", "name": "16cfa32325ef8cd85171dd0bc9dae2fb", "is_disabled": 0, "rental_uris": {"ios": "https://dc.lft.to/lastmile_qr_scan", "android": "https://dc.lft.to/lastmile_qr_scan"}, "is_reserved": 0}, {"lon": -77.039077, "bike_id": "bccd6e09962e0a8a340568ab6529e1de", "lat": 38.925818166666666, "fusion_lon": 0.0, "fusion_lat": 0.0, "type": "electric_scooter", "name": "bccd6e09962e0a8a340568ab6529e1de", "is_disabled": 0, "rental_uris": {"ios": "https://dc.lft.to/lastmile_qr_scan", "android": "https://dc.lft.to/lastmile_qr_scan"}, "is_reserved": 0}, {"lon": -77.02765383333333, "bike_id": "219c403414869edd9a1c0268db9b82a7", "lat": 38.934592333333335, "fusion_lon": 0.0, "fusion_lat": 0.0, "type": "electric_scooter", "name": "219c403414869edd9a1c0268db9b82a7", "is_disabled": 0, "rental_uris": {"ios": "https://dc.lft.to/lastmile_qr_scan", "android": "https://dc.lft.to/lastmile_qr_scan"}, "is_reserved": 0}, {"lon": -77.020018, "bike_id": "b36f405255b4ea7054dd11b99a75b4b9", "lat": 38.902930166666664, "fusion_lon": 0.0, "fusion_lat": 0.0, "type": "electric_scooter", "name": "b36f405255b4ea7054dd11b99a75b4b9", "is_disabled": 0, "rental_uris": {"ios": "https://dc.lft.to/lastmile_qr_scan", "android": "https://dc.lft.to/lastmile_qr_scan"}, "is_reserved": 0}, {"lon": -77.042538, "bike_id": "cbd6591b75b611afcc83d8f240258867", "lat": 38.9224355, "fusion_lon": 0.0, "fusion_lat": 0.0, "type": "electric_scooter", "name": "cbd6591b75b611afcc83d8f240258867", "is_disabled": 0, "rental_uris": {"ios": "https://dc.lft.to/lastmile_qr_scan", "android": "https://dc.lft.to/lastmile_qr_scan"}, "is_reserved": 0}, {"lon": -77.03905533333334, "bike_id": "78066da7cf26057bb385b122ca897378", "lat": 38.9141925, "fusion_lon": 0.0, "fusion_lat": 0.0, "type": "electric_scooter", "name": "78066da7cf26057bb385b122ca897378", "is_disabled": 0, "rental_uris": {"ios": "https://dc.lft.to/lastmile_qr_scan", "android": "https://dc.lft.to/lastmile_qr_scan"}, "is_reserved": 0}, {"lon": -77.03403716666666, "bike_id": "bab11540afe47aab9fcdfba708275837", "lat": 38.9602835, "fusion_lon": 0.0, "fusion_lat": 0.0, "type": "electric_bike", "name": "bab11540afe47aab9fcdfba708275837", "is_disabled": 0, "rental_uris": {"ios": "https://dc.lft.to/lastmile_qr_scan", "android": "https://dc.lft.to/lastmile_qr_scan"}, "is_reserved": 0}, {"lon": -76.99851883333334, "bike_id": "3ccce5c2082762aa6b55435fd3c5daa7", "lat": 38.841609166666665, "fusion_lon": 0.0, "fusion_lat": 0.0, "type": "electric_scooter", "name": "3ccce5c2082762aa6b55435fd3c5daa7", "is_disabled": 0, "rental_uris": {"ios": "https://dc.lft.to/lastmile_qr_scan", "android": "https://dc.lft.to/lastmile_qr_scan"}, "is_reserved": 0}, {"lon": -77.00279783333333, "bike_id": "e86996727b60af32ef411c8ea6b620b8", "lat": 38.957089333333336, "fusion_lon": 0.0, "fusion_lat": 0.0, "type": "electric_bike", "name": "e86996727b60af32ef411c8ea6b620b8", "is_disabled": 0, "rental_uris": {"ios": "https://dc.lft.to/lastmile_qr_scan", "android": "https://dc.lft.to/lastmile_qr_scan"}, "is_reserved": 0}, {"lon": -77.1249115, "bike_id": "a58a698a76c7cee393e8cb35a8eee418", "lat": 38.827807666666665, "fusion_lon": 0.0, "fusion_lat": 0.0, "type": "electric_bike", "name": "a58a698a76c7cee393e8cb35a8eee418", "is_disabled": 0, "rental_uris": {"ios": "https://dc.lft.to/lastmile_qr_scan", "android": "https://dc.lft.to/lastmile_qr_scan"}, "is_reserved": 0}, {"lon": -76.9855855, "bike_id": "1766059205a2d3831170709128dbb594", "lat": 38.8995275, "fusion_lon": 0.0, "fusion_lat": 0.0, "type": "electric_scooter", "name": "1766059205a2d3831170709128dbb594", "is_disabled": 0, "rental_uris": {"ios": "https://dc.lft.to/lastmile_qr_scan", "android": "https://dc.lft.to/lastmile_qr_scan"}, "is_reserved": 0}, {"lon": -77.04357783333333, "bike_id": "7068fa4418b239abf18c3dbb947ba29f", "lat": 38.921511, "fusion_lon": 0.0, "fusion_lat": 0.0, "type": "electric_scooter", "name": "7068fa4418b239abf18c3dbb947ba29f", "is_disabled": 0, "rental_uris": {"ios": "https://dc.lft.to/lastmile_qr_scan", "android": "https://dc.lft.to/lastmile_qr_scan"}, "is_reserved": 0}, {"lon": -77.02490016666667, "bike_id": "96946d1c9fc62db869ae1d287a73ab35", "lat": 38.919844833333336, "fusion_lon": 0.0, "fusion_lat": 0.0, "type": "electric_scooter", "name": "96946d1c9fc62db869ae1d287a73ab35", "is_disabled": 0, "rental_uris": {"ios": "https://dc.lft.to/lastmile_qr_scan", "android": "https://dc.lft.to/lastmile_qr_scan"}, "is_reserved": 0}, {"lon": -77.02713416666667, "bike_id": "4469eb705e529680e4bf249a657fabd7", "lat": 38.934721333333336, "fusion_lon": 0.0, "fusion_lat": 0.0, "type": "electric_scooter", "name": "4469eb705e529680e4bf249a657fabd7", "is_disabled": 0, "rental_uris": {"ios": "https://dc.lft.to/lastmile_qr_scan", "android": "https://dc.lft.to/lastmile_qr_scan"}, "is_reserved": 0}, {"lon": -77.04321183333333, "bike_id": "b022683658f276632f371c0c1e08ae6a", "lat": 38.91877366666667, "fusion_lon": 0.0, "fusion_lat": 0.0, "type": "electric_scooter", "name": "b022683658f276632f371c0c1e08ae6a", "is_disabled": 0, "rental_uris": {"ios": "https://dc.lft.to/lastmile_qr_scan", "android": "https://dc.lft.to/lastmile_qr_scan"}, "is_reserved": 0}, {"lon": -77.06428133333333, "bike_id": "36cea20877d7bfc00d0727252da7f656", "lat": 38.908933166666664, "fusion_lon": 0.0, "fusion_lat": 0.0, "type": "electric_scooter", "name": "36cea20877d7bfc00d0727252da7f656", "is_disabled": 0, "rental_uris": {"ios": "https://dc.lft.to/lastmile_qr_scan", "android": "https://dc.lft.to/lastmile_qr_scan"}, "is_reserved": 0}, {"lon": -77.03227833333334, "bike_id": "4aeee5eb394ae0420ec87407b5b402cf", "lat": 38.92982266666667, "fusion_lon": 0.0, "fusion_lat": 0.0, "type": "electric_scooter", "name": "4aeee5eb394ae0420ec87407b5b402cf", "is_disabled": 0, "rental_uris": {"ios": "https://dc.lft.to/lastmile_qr_scan", "android": "https://dc.lft.to/lastmile_qr_scan"}, "is_reserved": 0}, {"lon": -77.10522816666666, "bike_id": "492ecca749dfd8f63db204a02892811f", "lat": 38.87373083333333, "fusion_lon": 0.0, "fusion_lat": 0.0, "type": "electric_bike", "name": "492ecca749dfd8f63db204a02892811f", "is_disabled": 0, "rental_uris": {"ios": "https://dc.lft.to/lastmile_qr_scan", "android": "https://dc.lft.to/lastmile_qr_scan"}, "is_reserved": 0}, {"lon": -77.04347766666666, "bike_id": "9d399546fbaad6e8a958503820a080db", "lat": 38.91215583333333, "fusion_lon": 0.0, "fusion_lat": 0.0, "type": "electric_scooter", "name": "9d399546fbaad6e8a958503820a080db", "is_disabled": 0, "rental_uris": {"ios": "https://dc.lft.to/lastmile_qr_scan", "android": "https://dc.lft.to/lastmile_qr_scan"}, "is_reserved": 0}, {"lon": -76.981449, "bike_id": "464138c544d93a3b1130fbff32d078c4", "lat": 38.905661333333335, "fusion_lon": 0.0, "fusion_lat": 0.0, "type": "electric_scooter", "name": "464138c544d93a3b1130fbff32d078c4", "is_disabled": 0, "rental_uris": {"ios": "https://dc.lft.to/lastmile_qr_scan", "android": "https://dc.lft.to/lastmile_qr_scan"}, "is_reserved": 0}, {"lon": -77.0250765, "bike_id": "67f42b4d06054c9c6c8c87f7ee9ca421", "lat": 38.9205205, "fusion_lon": 0.0, "fusion_lat": 0.0, "type": "electric_scooter", "name": "67f42b4d06054c9c6c8c87f7ee9ca421", "is_disabled": 0, "rental_uris": {"ios": "https://dc.lft.to/lastmile_qr_scan", "android": "https://dc.lft.to/lastmile_qr_scan"}, "is_reserved": 0}, {"lon": -77.07823033333334, "bike_id": "f0bfc7ca8a38c7cb848cf6f13d5a69cb", "lat": 38.923732, "fusion_lon": 0.0, "fusion_lat": 0.0, "type": "electric_scooter", "name": "f0bfc7ca8a38c7cb848cf6f13d5a69cb", "is_disabled": 0, "rental_uris": {"ios": "https://dc.lft.to/lastmile_qr_scan", "android": "https://dc.lft.to/lastmile_qr_scan"}, "is_reserved": 0}, {"lon": -77.0946935, "bike_id": "5f7868c446f2d380656ef64ab52351f9", "lat": 38.86938466666667, "fusion_lon": 0.0, "fusion_lat": 0.0, "type": "electric_bike", "name": "5f7868c446f2d380656ef64ab52351f9", "is_disabled": 0, "rental_uris": {"ios": "https://dc.lft.to/lastmile_qr_scan", "android": "https://dc.lft.to/lastmile_qr_scan"}, "is_reserved": 0}, {"lon": -77.023858, "bike_id": "7e8ac75c48b4ba57af8bf5cd97af1763", "lat": 38.911435166666664, "fusion_lon": 0.0, "fusion_lat": 0.0, "type": "electric_scooter", "name": "7e8ac75c48b4ba57af8bf5cd97af1763", "is_disabled": 0, "rental_uris": {"ios": "https://dc.lft.to/lastmile_qr_scan", "android": "https://dc.lft.to/lastmile_qr_scan"}, "is_reserved": 0}, {"lon": -77.03867733333334, "bike_id": "b78e4b3587e95f972b65f0033d550dc1", "lat": 38.9097355, "fusion_lon": 0.0, "fusion_lat": 0.0, "type": "electric_scooter", "name": "b78e4b3587e95f972b65f0033d550dc1", "is_disabled": 0, "rental_uris": {"ios": "https://dc.lft.to/lastmile_qr_scan", "android": "https://dc.lft.to/lastmile_qr_scan"}, "is_reserved": 0}, {"lon": -77.07293066666666, "bike_id": "4a3ab1ec5781a13556489eedf3b1b44a", "lat": 38.922790166666665, "fusion_lon": 0.0, "fusion_lat": 0.0, "type": "electric_scooter", "name": "4a3ab1ec5781a13556489eedf3b1b44a", "is_disabled": 0, "rental_uris": {"ios": "https://dc.lft.to/lastmile_qr_scan", "android": "https://dc.lft.to/lastmile_qr_scan"}, "is_reserved": 0}, {"lon": -77.02958133333334, "bike_id": "6039c871a027862fe7083ca7ac3abfc1", "lat": 38.90847766666667, "fusion_lon": 0.0, "fusion_lat": 0.0, "type": "electric_bike", "name": "6039c871a027862fe7083ca7ac3abfc1", "is_disabled": 0, "rental_uris": {"ios": "https://dc.lft.to/lastmile_qr_scan", "android": "https://dc.lft.to/lastmile_qr_scan"}, "is_reserved": 0}, {"lon": -77.04258333333334, "bike_id": "b6b750871a50475e0d01cb42de4347c0", "lat": 38.900103, "fusion_lon": 0.0, "fusion_lat": 0.0, "type": "electric_scooter", "name": "b6b750871a50475e0d01cb42de4347c0", "is_disabled": 0, "rental_uris": {"ios": "https://dc.lft.to/lastmile_qr_scan", "android": "https://dc.lft.to/lastmile_qr_scan"}, "is_reserved": 0}, {"lon": -77.05560416666667, "bike_id": "bbfb45e3c02298f02fb5d59651163151", "lat": 38.93039666666667, "fusion_lon": 0.0, "fusion_lat": 0.0, "type": "electric_scooter", "name": "bbfb45e3c02298f02fb5d59651163151", "is_disabled": 0, "rental_uris": {"ios": "https://dc.lft.to/lastmile_qr_scan", "android": "https://dc.lft.to/lastmile_qr_scan"}, "is_reserved": 0}, {"lon": -77.039279, "bike_id": "dc0ec436ef5d127f89f668654cf85a5a", "lat": 38.899805, "fusion_lon": 0.0, "fusion_lat": 0.0, "type": "electric_scooter", "name": "dc0ec436ef5d127f89f668654cf85a5a", "is_disabled": 0, "rental_uris": {"ios": "https://dc.lft.to/lastmile_qr_scan", "android": "https://dc.lft.to/lastmile_qr_scan"}, "is_reserved": 0}, {"lon": -77.02209516666667, "bike_id": "49a113ea883c92ea8644ce38fccdc5cb", "lat": 38.905691166666664, "fusion_lon": 0.0, "fusion_lat": 0.0, "type": "electric_scooter", "name": "49a113ea883c92ea8644ce38fccdc5cb", "is_disabled": 0, "rental_uris": {"ios": "https://dc.lft.to/lastmile_qr_scan", "android": "https://dc.lft.to/lastmile_qr_scan"}, "is_reserved": 0}, {"lon": -77.00572266666667, "bike_id": "3828102378dacfb9109fafb3ea87f65e", "lat": 38.829974666666665, "fusion_lon": 0.0, "fusion_lat": 0.0, "type": "electric_scooter", "name": "3828102378dacfb9109fafb3ea87f65e", "is_disabled": 0, "rental_uris": {"ios": "https://dc.lft.to/lastmile_qr_scan", "android": "https://dc.lft.to/lastmile_qr_scan"}, "is_reserved": 0}, {"lon": -76.9879305, "bike_id": "b48197bfc5b91bd1d2b7cccd480d8037", "lat": 38.892394, "fusion_lon": 0.0, "fusion_lat": 0.0, "type": "electric_scooter", "name": "b48197bfc5b91bd1d2b7cccd480d8037", "is_disabled": 0, "rental_uris": {"ios": "https://dc.lft.to/lastmile_qr_scan", "android": "https://dc.lft.to/lastmile_qr_scan"}, "is_reserved": 0}, {"lon": -77.03657233333334, "bike_id": "aba06a6b6a0bc534b52ca626e18dd247", "lat": 38.9181085, "fusion_lon": 0.0, "fusion_lat": 0.0, "type": "electric_scooter", "name": "aba06a6b6a0bc534b52ca626e18dd247", "is_disabled": 0, "rental_uris": {"ios": "https://dc.lft.to/lastmile_qr_scan", "android": "https://dc.lft.to/lastmile_qr_scan"}, "is_reserved": 0}, {"lon": -77.0410805, "bike_id": "a4fa0fd108aab3e5a1d001d2382b6002", "lat": 38.91555183333333, "fusion_lon": 0.0, "fusion_lat": 0.0, "type": "electric_scooter", "name": "a4fa0fd108aab3e5a1d001d2382b6002", "is_disabled": 0, "rental_uris": {"ios": "https://dc.lft.to/lastmile_qr_scan", "android": "https://dc.lft.to/lastmile_qr_scan"}, "is_reserved": 0}, {"lon": -77.03203016666667, "bike_id": "367e05108a020624844a7fbe15534cdb", "lat": 38.9120125, "fusion_lon": 0.0, "fusion_lat": 0.0, "type": "electric_scooter", "name": "367e05108a020624844a7fbe15534cdb", "is_disabled": 0, "rental_uris": {"ios": "https://dc.lft.to/lastmile_qr_scan", "android": "https://dc.lft.to/lastmile_qr_scan"}, "is_reserved": 0}, {"lon": -77.025947, "bike_id": "06df819d14eb12dcc9c7690644978474", "lat": 38.94204216666667, "fusion_lon": 0.0, "fusion_lat": 0.0, "type": "electric_scooter", "name": "06df819d14eb12dcc9c7690644978474", "is_disabled": 0, "rental_uris": {"ios": "https://dc.lft.to/lastmile_qr_scan", "android": "https://dc.lft.to/lastmile_qr_scan"}, "is_reserved": 0}, {"lon": -77.037936, "bike_id": "b940ab97d29bb01fb2816bec50a1f165", "lat": 38.92068416666667, "fusion_lon": 0.0, "fusion_lat": 0.0, "type": "electric_scooter", "name": "b940ab97d29bb01fb2816bec50a1f165", "is_disabled": 0, "rental_uris": {"ios": "https://dc.lft.to/lastmile_qr_scan", "android": "https://dc.lft.to/lastmile_qr_scan"}, "is_reserved": 0}, {"lon": -76.97950166666666, "bike_id": "7c32579cb7ba99efcbb4f289c7313887", "lat": 38.952395333333335, "fusion_lon": 0.0, "fusion_lat": 0.0, "type": "electric_bike", "name": "7c32579cb7ba99efcbb4f289c7313887", "is_disabled": 0, "rental_uris": {"ios": "https://dc.lft.to/lastmile_qr_scan", "android": "https://dc.lft.to/lastmile_qr_scan"}, "is_reserved": 0}, {"lon": -77.01767533333333, "bike_id": "4e64169bf1ce1bdf0115b367f6616b69", "lat": 38.88595266666667, "fusion_lon": 0.0, "fusion_lat": 0.0, "type": "electric_scooter", "name": "4e64169bf1ce1bdf0115b367f6616b69", "is_disabled": 0, "rental_uris": {"ios": "https://dc.lft.to/lastmile_qr_scan", "android": "https://dc.lft.to/lastmile_qr_scan"}, "is_reserved": 0}, {"lon": -77.03219416666667, "bike_id": "61fb2ba2ef6678860a3cb393cf2f9c93", "lat": 38.89869816666667, "fusion_lon": 0.0, "fusion_lat": 0.0, "type": "electric_scooter", "name": "61fb2ba2ef6678860a3cb393cf2f9c93", "is_disabled": 0, "rental_uris": {"ios": "https://dc.lft.to/lastmile_qr_scan", "android": "https://dc.lft.to/lastmile_qr_scan"}, "is_reserved": 0}, {"lon": -77.00660916666666, "bike_id": "fc8efd39bcc5ee749909fc3ce0692467", "lat": 38.944983666666666, "fusion_lon": 0.0, "fusion_lat": 0.0, "type": "electric_bike", "name": "fc8efd39bcc5ee749909fc3ce0692467", "is_disabled": 0, "rental_uris": {"ios": "https://dc.lft.to/lastmile_qr_scan", "android": "https://dc.lft.to/lastmile_qr_scan"}, "is_reserved": 0}, {"lon": -77.04381833333333, "bike_id": "3081adcc9bd16411d25844aeb1aa2b0c", "lat": 38.920983166666666, "fusion_lon": 0.0, "fusion_lat": 0.0, "type": "electric_scooter", "name": "3081adcc9bd16411d25844aeb1aa2b0c", "is_disabled": 0, "rental_uris": {"ios": "https://dc.lft.to/lastmile_qr_scan", "android": "https://dc.lft.to/lastmile_qr_scan"}, "is_reserved": 0}, {"lon": -77.04050283333333, "bike_id": "a3072bcbcbae17303f0f218b3025cb03", "lat": 38.9085555, "fusion_lon": 0.0, "fusion_lat": 0.0, "type": "electric_bike", "name": "a3072bcbcbae17303f0f218b3025cb03", "is_disabled": 0, "rental_uris": {"ios": "https://dc.lft.to/lastmile_qr_scan", "android": "https://dc.lft.to/lastmile_qr_scan"}, "is_reserved": 0}, {"lon": -77.038944, "bike_id": "1cd7f6bc0e09ddb47f79158c273bda53", "lat": 38.92335816666667, "fusion_lon": 0.0, "fusion_lat": 0.0, "type": "electric_scooter", "name": "1cd7f6bc0e09ddb47f79158c273bda53", "is_disabled": 0, "rental_uris": {"ios": "https://dc.lft.to/lastmile_qr_scan", "android": "https://dc.lft.to/lastmile_qr_scan"}, "is_reserved": 0}, {"lon": -77.03864833333333, "bike_id": "383cd6ba8e29e156ef8dd71b8360ae9a", "lat": 38.90972516666667, "fusion_lon": 0.0, "fusion_lat": 0.0, "type": "electric_scooter", "name": "383cd6ba8e29e156ef8dd71b8360ae9a", "is_disabled": 0, "rental_uris": {"ios": "https://dc.lft.to/lastmile_qr_scan", "android": "https://dc.lft.to/lastmile_qr_scan"}, "is_reserved": 0}, {"lon": -77.04876366666667, "bike_id": "df302dabecd6ea9020306140f4217feb", "lat": 38.892323833333336, "fusion_lon": 0.0, "fusion_lat": 0.0, "type": "electric_scooter", "name": "df302dabecd6ea9020306140f4217feb", "is_disabled": 0, "rental_uris": {"ios": "https://dc.lft.to/lastmile_qr_scan", "android": "https://dc.lft.to/lastmile_qr_scan"}, "is_reserved": 0}, {"lon": -77.0239575, "bike_id": "80747da8d8e1a6a4f8cce715d235f8d1", "lat": 38.91526066666667, "fusion_lon": 0.0, "fusion_lat": 0.0, "type": "electric_scooter", "name": "80747da8d8e1a6a4f8cce715d235f8d1", "is_disabled": 0, "rental_uris": {"ios": "https://dc.lft.to/lastmile_qr_scan", "android": "https://dc.lft.to/lastmile_qr_scan"}, "is_reserved": 0}, {"lon": -77.03869916666666, "bike_id": "e4f8bdd3b302c4ff2532ccf9fbfcefee", "lat": 38.921535, "fusion_lon": 0.0, "fusion_lat": 0.0, "type": "electric_scooter", "name": "e4f8bdd3b302c4ff2532ccf9fbfcefee", "is_disabled": 0, "rental_uris": {"ios": "https://dc.lft.to/lastmile_qr_scan", "android": "https://dc.lft.to/lastmile_qr_scan"}, "is_reserved": 0}, {"lon": -76.9783595, "bike_id": "84eedc7be69be36b1b6d93a92ccdd213", "lat": 38.865702166666665, "fusion_lon": 0.0, "fusion_lat": 0.0, "type": "electric_scooter", "name": "84eedc7be69be36b1b6d93a92ccdd213", "is_disabled": 0, "rental_uris": {"ios": "https://dc.lft.to/lastmile_qr_scan", "android": "https://dc.lft.to/lastmile_qr_scan"}, "is_reserved": 0}, {"lon": -77.04360166666666, "bike_id": "42b3d46c2b318c560a08a44813416441", "lat": 39.015381833333336, "fusion_lon": 0.0, "fusion_lat": 0.0, "type": "electric_bike", "name": "42b3d46c2b318c560a08a44813416441", "is_disabled": 0, "rental_uris": {"ios": "https://dc.lft.to/lastmile_qr_scan", "android": "https://dc.lft.to/lastmile_qr_scan"}, "is_reserved": 0}, {"lon": -77.03873033333333, "bike_id": "6a1b95477e4639cf5b79a284e602540f", "lat": 38.91270733333333, "fusion_lon": 0.0, "fusion_lat": 0.0, "type": "electric_scooter", "name": "6a1b95477e4639cf5b79a284e602540f", "is_disabled": 0, "rental_uris": {"ios": "https://dc.lft.to/lastmile_qr_scan", "android": "https://dc.lft.to/lastmile_qr_scan"}, "is_reserved": 0}, {"lon": -77.03470083333333, "bike_id": "c370c5e3a0c3f963e32f813d38d526d2", "lat": 38.9171055, "fusion_lon": 0.0, "fusion_lat": 0.0, "type": "electric_scooter", "name": "c370c5e3a0c3f963e32f813d38d526d2", "is_disabled": 0, "rental_uris": {"ios": "https://dc.lft.to/lastmile_qr_scan", "android": "https://dc.lft.to/lastmile_qr_scan"}, "is_reserved": 0}, {"lon": -77.01839433333333, "bike_id": "09afe2ce819f91ad714ce402126e48a9", "lat": 38.90257616666667, "fusion_lon": 0.0, "fusion_lat": 0.0, "type": "electric_scooter", "name": "09afe2ce819f91ad714ce402126e48a9", "is_disabled": 0, "rental_uris": {"ios": "https://dc.lft.to/lastmile_qr_scan", "android": "https://dc.lft.to/lastmile_qr_scan"}, "is_reserved": 0}, {"lon": -77.03248883333333, "bike_id": "7ea812a2e9f7a9b5ae1bc6f0482c2ca7", "lat": 38.9097205, "fusion_lon": 0.0, "fusion_lat": 0.0, "type": "electric_scooter", "name": "7ea812a2e9f7a9b5ae1bc6f0482c2ca7", "is_disabled": 0, "rental_uris": {"ios": "https://dc.lft.to/lastmile_qr_scan", "android": "https://dc.lft.to/lastmile_qr_scan"}, "is_reserved": 0}, {"lon": -77.03385016666667, "bike_id": "51e04674ec2b8b2450d4359ac3acecb2", "lat": 38.9054945, "fusion_lon": 0.0, "fusion_lat": 0.0, "type": "electric_scooter", "name": "51e04674ec2b8b2450d4359ac3acecb2", "is_disabled": 0, "rental_uris": {"ios": "https://dc.lft.to/lastmile_qr_scan", "android": "https://dc.lft.to/lastmile_qr_scan"}, "is_reserved": 0}, {"lon": -77.03517516666666, "bike_id": "bd3affbaf4a335175cde10d05de7186d", "lat": 38.91598333333334, "fusion_lon": 0.0, "fusion_lat": 0.0, "type": "electric_scooter", "name": "bd3affbaf4a335175cde10d05de7186d", "is_disabled": 0, "rental_uris": {"ios": "https://dc.lft.to/lastmile_qr_scan", "android": "https://dc.lft.to/lastmile_qr_scan"}, "is_reserved": 0}, {"lon": -77.04115116666667, "bike_id": "95fa85606c98f8b445b955272c9e4e8e", "lat": 38.9213975, "fusion_lon": 0.0, "fusion_lat": 0.0, "type": "electric_scooter", "name": "95fa85606c98f8b445b955272c9e4e8e", "is_disabled": 0, "rental_uris": {"ios": "https://dc.lft.to/lastmile_qr_scan", "android": "https://dc.lft.to/lastmile_qr_scan"}, "is_reserved": 0}, {"lon": -77.03323866666666, "bike_id": "d04b45cc3cfb88a684e5c63bd3ade8dd", "lat": 38.93893383333333, "fusion_lon": 0.0, "fusion_lat": 0.0, "type": "electric_scooter", "name": "d04b45cc3cfb88a684e5c63bd3ade8dd", "is_disabled": 0, "rental_uris": {"ios": "https://dc.lft.to/lastmile_qr_scan", "android": "https://dc.lft.to/lastmile_qr_scan"}, "is_reserved": 0}, {"lon": -77.04210816666667, "bike_id": "36d9a42c91cca10458e0e598be5eaa17", "lat": 38.92120833333333, "fusion_lon": 0.0, "fusion_lat": 0.0, "type": "electric_scooter", "name": "36d9a42c91cca10458e0e598be5eaa17", "is_disabled": 0, "rental_uris": {"ios": "https://dc.lft.to/lastmile_qr_scan", "android": "https://dc.lft.to/lastmile_qr_scan"}, "is_reserved": 0}, {"lon": -76.99370383333333, "bike_id": "c69db830b2db94e641ca17b25ae15f0f", "lat": 38.923920833333334, "fusion_lon": 0.0, "fusion_lat": 0.0, "type": "electric_scooter", "name": "c69db830b2db94e641ca17b25ae15f0f", "is_disabled": 0, "rental_uris": {"ios": "https://dc.lft.to/lastmile_qr_scan", "android": "https://dc.lft.to/lastmile_qr_scan"}, "is_reserved": 0}, {"lon": -77.050081, "bike_id": "d3de89b19700c6d75de391ea5dbfdb91", "lat": 38.91570883333333, "fusion_lon": 0.0, "fusion_lat": 0.0, "type": "electric_bike", "name": "d3de89b19700c6d75de391ea5dbfdb91", "is_disabled": 0, "rental_uris": {"ios": "https://dc.lft.to/lastmile_qr_scan", "android": "https://dc.lft.to/lastmile_qr_scan"}, "is_reserved": 0}, {"lon": -77.05705316666666, "bike_id": "54b92e34edd66d2127817f7c31ef906f", "lat": 38.90546716666667, "fusion_lon": 0.0, "fusion_lat": 0.0, "type": "electric_scooter", "name": "54b92e34edd66d2127817f7c31ef906f", "is_disabled": 0, "rental_uris": {"ios": "https://dc.lft.to/lastmile_qr_scan", "android": "https://dc.lft.to/lastmile_qr_scan"}, "is_reserved": 0}, {"lon": -77.04348866666666, "bike_id": "d4645fd1d006abdf9be312bc8e2a70ef", "lat": 38.921487166666665, "fusion_lon": 0.0, "fusion_lat": 0.0, "type": "electric_scooter", "name": "d4645fd1d006abdf9be312bc8e2a70ef", "is_disabled": 0, "rental_uris": {"ios": "https://dc.lft.to/lastmile_qr_scan", "android": "https://dc.lft.to/lastmile_qr_scan"}, "is_reserved": 0}, {"lon": -77.016323, "bike_id": "3a466b9a2dd38e6a0a614303c966d90c", "lat": 38.90342233333333, "fusion_lon": 0.0, "fusion_lat": 0.0, "type": "electric_scooter", "name": "3a466b9a2dd38e6a0a614303c966d90c", "is_disabled": 0, "rental_uris": {"ios": "https://dc.lft.to/lastmile_qr_scan", "android": "https://dc.lft.to/lastmile_qr_scan"}, "is_reserved": 0}, {"lon": -77.04171216666667, "bike_id": "07882f1baf00355fcc9ce0462a00b2e6", "lat": 38.91791166666667, "fusion_lon": 0.0, "fusion_lat": 0.0, "type": "electric_scooter", "name": "07882f1baf00355fcc9ce0462a00b2e6", "is_disabled": 0, "rental_uris": {"ios": "https://dc.lft.to/lastmile_qr_scan", "android": "https://dc.lft.to/lastmile_qr_scan"}, "is_reserved": 0}, {"lon": -77.02119483333334, "bike_id": "bb0e9f3d57bbe70df82d768d55663a7a", "lat": 38.936997, "fusion_lon": 0.0, "fusion_lat": 0.0, "type": "electric_scooter", "name": "bb0e9f3d57bbe70df82d768d55663a7a", "is_disabled": 0, "rental_uris": {"ios": "https://dc.lft.to/lastmile_qr_scan", "android": "https://dc.lft.to/lastmile_qr_scan"}, "is_reserved": 0}, {"lon": -77.02973266666666, "bike_id": "39ab6e4d1ca70298382b20cbcd79b501", "lat": 38.932478, "fusion_lon": 0.0, "fusion_lat": 0.0, "type": "electric_scooter", "name": "39ab6e4d1ca70298382b20cbcd79b501", "is_disabled": 0, "rental_uris": {"ios": "https://dc.lft.to/lastmile_qr_scan", "android": "https://dc.lft.to/lastmile_qr_scan"}, "is_reserved": 0}, {"lon": -77.02444716666666, "bike_id": "d3fe329041a0fa2243fb7bb214d4ae1b", "lat": 38.91409816666667, "fusion_lon": 0.0, "fusion_lat": 0.0, "type": "electric_scooter", "name": "d3fe329041a0fa2243fb7bb214d4ae1b", "is_disabled": 0, "rental_uris": {"ios": "https://dc.lft.to/lastmile_qr_scan", "android": "https://dc.lft.to/lastmile_qr_scan"}, "is_reserved": 0}, {"lon": -77.040994, "bike_id": "88a25f085b21bcda8a8401ff838043f6", "lat": 38.92454033333333, "fusion_lon": 0.0, "fusion_lat": 0.0, "type": "electric_scooter", "name": "88a25f085b21bcda8a8401ff838043f6", "is_disabled": 0, "rental_uris": {"ios": "https://dc.lft.to/lastmile_qr_scan", "android": "https://dc.lft.to/lastmile_qr_scan"}, "is_reserved": 0}, {"lon": -76.99616533333334, "bike_id": "4a7a3622a3f5bb0e13bd2cd867c37044", "lat": 38.847045333333334, "fusion_lon": 0.0, "fusion_lat": 0.0, "type": "electric_scooter", "name": "4a7a3622a3f5bb0e13bd2cd867c37044", "is_disabled": 0, "rental_uris": {"ios": "https://dc.lft.to/lastmile_qr_scan", "android": "https://dc.lft.to/lastmile_qr_scan"}, "is_reserved": 0}, {"lon": -76.9949745, "bike_id": "8db75e9cf3196d850e1b48ac58cb0a85", "lat": 38.881898166666666, "fusion_lon": 0.0, "fusion_lat": 0.0, "type": "electric_bike", "name": "8db75e9cf3196d850e1b48ac58cb0a85", "is_disabled": 0, "rental_uris": {"ios": "https://dc.lft.to/lastmile_qr_scan", "android": "https://dc.lft.to/lastmile_qr_scan"}, "is_reserved": 0}, {"lon": -76.92768533333333, "bike_id": "4d5de16a7ab143ef3f20f14884c23ca2", "lat": 38.900858666666664, "fusion_lon": 0.0, "fusion_lat": 0.0, "type": "electric_scooter", "name": "4d5de16a7ab143ef3f20f14884c23ca2", "is_disabled": 0, "rental_uris": {"ios": "https://dc.lft.to/lastmile_qr_scan", "android": "https://dc.lft.to/lastmile_qr_scan"}, "is_reserved": 0}, {"lon": -77.03059133333333, "bike_id": "85d5b855473f9856155cdfebb5eef895", "lat": 38.887414166666666, "fusion_lon": 0.0, "fusion_lat": 0.0, "type": "electric_scooter", "name": "85d5b855473f9856155cdfebb5eef895", "is_disabled": 0, "rental_uris": {"ios": "https://dc.lft.to/lastmile_qr_scan", "android": "https://dc.lft.to/lastmile_qr_scan"}, "is_reserved": 0}, {"lon": -76.97905683333333, "bike_id": "52c024e306535687de352abca6b7197f", "lat": 38.863538166666665, "fusion_lon": 0.0, "fusion_lat": 0.0, "type": "electric_scooter", "name": "52c024e306535687de352abca6b7197f", "is_disabled": 0, "rental_uris": {"ios": "https://dc.lft.to/lastmile_qr_scan", "android": "https://dc.lft.to/lastmile_qr_scan"}, "is_reserved": 0}, {"lon": -77.00209866666667, "bike_id": "c0fbadd19e51b4d296a0525896afa7d4", "lat": 38.900257, "fusion_lon": 0.0, "fusion_lat": 0.0, "type": "electric_scooter", "name": "c0fbadd19e51b4d296a0525896afa7d4", "is_disabled": 0, "rental_uris": {"ios": "https://dc.lft.to/lastmile_qr_scan", "android": "https://dc.lft.to/lastmile_qr_scan"}, "is_reserved": 0}, {"lon": -77.03660333333333, "bike_id": "78934d49a025b25cd3451e98375b4cb7", "lat": 38.91724, "fusion_lon": 0.0, "fusion_lat": 0.0, "type": "electric_scooter", "name": "78934d49a025b25cd3451e98375b4cb7", "is_disabled": 0, "rental_uris": {"ios": "https://dc.lft.to/lastmile_qr_scan", "android": "https://dc.lft.to/lastmile_qr_scan"}, "is_reserved": 0}, {"lon": -76.98706316666667, "bike_id": "cbc1708fa8c332ea46685c5181f93045", "lat": 38.86628433333333, "fusion_lon": 0.0, "fusion_lat": 0.0, "type": "electric_scooter", "name": "cbc1708fa8c332ea46685c5181f93045", "is_disabled": 0, "rental_uris": {"ios": "https://dc.lft.to/lastmile_qr_scan", "android": "https://dc.lft.to/lastmile_qr_scan"}, "is_reserved": 0}, {"lon": -77.036992, "bike_id": "7ed7508968e2edf52521f457049fa676", "lat": 38.92645133333333, "fusion_lon": 0.0, "fusion_lat": 0.0, "type": "electric_scooter", "name": "7ed7508968e2edf52521f457049fa676", "is_disabled": 0, "rental_uris": {"ios": "https://dc.lft.to/lastmile_qr_scan", "android": "https://dc.lft.to/lastmile_qr_scan"}, "is_reserved": 0}, {"lon": -77.02493916666667, "bike_id": "0af1d8980e5c942c5ea43bc32bb814b9", "lat": 38.92069733333334, "fusion_lon": 0.0, "fusion_lat": 0.0, "type": "electric_scooter", "name": "0af1d8980e5c942c5ea43bc32bb814b9", "is_disabled": 0, "rental_uris": {"ios": "https://dc.lft.to/lastmile_qr_scan", "android": "https://dc.lft.to/lastmile_qr_scan"}, "is_reserved": 0}, {"lon": -77.0311185, "bike_id": "6e82fa5b1284ef47c36635ea634dad0a", "lat": 38.9126605, "fusion_lon": 0.0, "fusion_lat": 0.0, "type": "electric_scooter", "name": "6e82fa5b1284ef47c36635ea634dad0a", "is_disabled": 0, "rental_uris": {"ios": "https://dc.lft.to/lastmile_qr_scan", "android": "https://dc.lft.to/lastmile_qr_scan"}, "is_reserved": 0}, {"lon": -76.99026516666666, "bike_id": "e147a6bc46bd0794efc463cb4cf167e7", "lat": 38.86403933333333, "fusion_lon": 0.0, "fusion_lat": 0.0, "type": "electric_scooter", "name": "e147a6bc46bd0794efc463cb4cf167e7", "is_disabled": 0, "rental_uris": {"ios": "https://dc.lft.to/lastmile_qr_scan", "android": "https://dc.lft.to/lastmile_qr_scan"}, "is_reserved": 0}, {"lon": -76.99065083333333, "bike_id": "c2c2008a0859d2bac661a33f0e6429b2", "lat": 38.9274455, "fusion_lon": 0.0, "fusion_lat": 0.0, "type": "electric_scooter", "name": "c2c2008a0859d2bac661a33f0e6429b2", "is_disabled": 0, "rental_uris": {"ios": "https://dc.lft.to/lastmile_qr_scan", "android": "https://dc.lft.to/lastmile_qr_scan"}, "is_reserved": 0}, {"lon": -77.06295683333333, "bike_id": "b596fe15ee99728b1f45110a2beafc37", "lat": 38.90598766666667, "fusion_lon": 0.0, "fusion_lat": 0.0, "type": "electric_scooter", "name": "b596fe15ee99728b1f45110a2beafc37", "is_disabled": 0, "rental_uris": {"ios": "https://dc.lft.to/lastmile_qr_scan", "android": "https://dc.lft.to/lastmile_qr_scan"}, "is_reserved": 0}, {"lon": -77.02979283333333, "bike_id": "0cf1f9af8326607250051ae96129e9c4", "lat": 38.91634416666667, "fusion_lon": 0.0, "fusion_lat": 0.0, "type": "electric_scooter", "name": "0cf1f9af8326607250051ae96129e9c4", "is_disabled": 0, "rental_uris": {"ios": "https://dc.lft.to/lastmile_qr_scan", "android": "https://dc.lft.to/lastmile_qr_scan"}, "is_reserved": 0}, {"lon": -77.00445283333333, "bike_id": "85a64b903281fbf997faca27b7f9bfd6", "lat": 38.880385833333335, "fusion_lon": 0.0, "fusion_lat": 0.0, "type": "electric_scooter", "name": "85a64b903281fbf997faca27b7f9bfd6", "is_disabled": 0, "rental_uris": {"ios": "https://dc.lft.to/lastmile_qr_scan", "android": "https://dc.lft.to/lastmile_qr_scan"}, "is_reserved": 0}, {"lon": -77.03216083333334, "bike_id": "d3a408a22ab17e923535ccc5c848385d", "lat": 38.90897266666666, "fusion_lon": 0.0, "fusion_lat": 0.0, "type": "electric_scooter", "name": "d3a408a22ab17e923535ccc5c848385d", "is_disabled": 0, "rental_uris": {"ios": "https://dc.lft.to/lastmile_qr_scan", "android": "https://dc.lft.to/lastmile_qr_scan"}, "is_reserved": 0}, {"lon": -77.027077, "bike_id": "10aafc07f2156cb31f686b91507abeb7", "lat": 38.92031516666667, "fusion_lon": 0.0, "fusion_lat": 0.0, "type": "electric_scooter", "name": "10aafc07f2156cb31f686b91507abeb7", "is_disabled": 0, "rental_uris": {"ios": "https://dc.lft.to/lastmile_qr_scan", "android": "https://dc.lft.to/lastmile_qr_scan"}, "is_reserved": 0}, {"lon": -77.03212683333334, "bike_id": "3077b5dc032f6b52599d20109074e66c", "lat": 38.892419833333335, "fusion_lon": 0.0, "fusion_lat": 0.0, "type": "electric_scooter", "name": "3077b5dc032f6b52599d20109074e66c", "is_disabled": 0, "rental_uris": {"ios": "https://dc.lft.to/lastmile_qr_scan", "android": "https://dc.lft.to/lastmile_qr_scan"}, "is_reserved": 0}, {"lon": -76.96910033333333, "bike_id": "4f54aa8bb885f2b74f3b368df686d58a", "lat": 38.846105666666666, "fusion_lon": 0.0, "fusion_lat": 0.0, "type": "electric_bike", "name": "4f54aa8bb885f2b74f3b368df686d58a", "is_disabled": 0, "rental_uris": {"ios": "https://dc.lft.to/lastmile_qr_scan", "android": "https://dc.lft.to/lastmile_qr_scan"}, "is_reserved": 0}, {"lon": -77.11589266666667, "bike_id": "f8d2f564f0f8bdcb0120eedd5226e2f6", "lat": 39.07493683333333, "fusion_lon": 0.0, "fusion_lat": 0.0, "type": "electric_bike", "name": "f8d2f564f0f8bdcb0120eedd5226e2f6", "is_disabled": 0, "rental_uris": {"ios": "https://dc.lft.to/lastmile_qr_scan", "android": "https://dc.lft.to/lastmile_qr_scan"}, "is_reserved": 0}, {"lon": -76.9553395, "bike_id": "8dc3381619d55c6052f82ff953ba2957", "lat": 38.88872766666667, "fusion_lon": 0.0, "fusion_lat": 0.0, "type": "electric_scooter", "name": "8dc3381619d55c6052f82ff953ba2957", "is_disabled": 0, "rental_uris": {"ios": "https://dc.lft.to/lastmile_qr_scan", "android": "https://dc.lft.to/lastmile_qr_scan"}, "is_reserved": 0}, {"lon": -76.97832533333333, "bike_id": "270fcfdd904af53d198232eba6ed11a0", "lat": 38.899169666666666, "fusion_lon": 0.0, "fusion_lat": 0.0, "type": "electric_scooter", "name": "270fcfdd904af53d198232eba6ed11a0", "is_disabled": 0, "rental_uris": {"ios": "https://dc.lft.to/lastmile_qr_scan", "android": "https://dc.lft.to/lastmile_qr_scan"}, "is_reserved": 0}, {"lon": -77.0369125, "bike_id": "ed650c9254ce15f26ea1c2b101365ad1", "lat": 38.936409833333336, "fusion_lon": 0.0, "fusion_lat": 0.0, "type": "electric_scooter", "name": "ed650c9254ce15f26ea1c2b101365ad1", "is_disabled": 0, "rental_uris": {"ios": "https://dc.lft.to/lastmile_qr_scan", "android": "https://dc.lft.to/lastmile_qr_scan"}, "is_reserved": 0}, {"lon": -77.03239266666667, "bike_id": "84aacd6376af7fdcee195fdf96e4eafc", "lat": 38.90964266666667, "fusion_lon": 0.0, "fusion_lat": 0.0, "type": "electric_scooter", "name": "84aacd6376af7fdcee195fdf96e4eafc", "is_disabled": 0, "rental_uris": {"ios": "https://dc.lft.to/lastmile_qr_scan", "android": "https://dc.lft.to/lastmile_qr_scan"}, "is_reserved": 0}, {"lon": -77.0409445, "bike_id": "8031822223745fac6688b79359f62399", "lat": 38.90881066666667, "fusion_lon": 0.0, "fusion_lat": 0.0, "type": "electric_scooter", "name": "8031822223745fac6688b79359f62399", "is_disabled": 0, "rental_uris": {"ios": "https://dc.lft.to/lastmile_qr_scan", "android": "https://dc.lft.to/lastmile_qr_scan"}, "is_reserved": 0}, {"lon": -76.99864633333334, "bike_id": "a711a49288e374cb7ba3a225712cfa4a", "lat": 38.900263833333334, "fusion_lon": 0.0, "fusion_lat": 0.0, "type": "electric_scooter", "name": "a711a49288e374cb7ba3a225712cfa4a", "is_disabled": 0, "rental_uris": {"ios": "https://dc.lft.to/lastmile_qr_scan", "android": "https://dc.lft.to/lastmile_qr_scan"}, "is_reserved": 0}, {"lon": -77.03664883333333, "bike_id": "ff89eccb0f08396ce14963789fcc59af", "lat": 38.932038666666664, "fusion_lon": 0.0, "fusion_lat": 0.0, "type": "electric_scooter", "name": "ff89eccb0f08396ce14963789fcc59af", "is_disabled": 0, "rental_uris": {"ios": "https://dc.lft.to/lastmile_qr_scan", "android": "https://dc.lft.to/lastmile_qr_scan"}, "is_reserved": 0}, {"lon": -77.0230035, "bike_id": "b34d33f91ca5aa571d53fe8a6b338fb1", "lat": 38.91759233333333, "fusion_lon": 0.0, "fusion_lat": 0.0, "type": "electric_scooter", "name": "b34d33f91ca5aa571d53fe8a6b338fb1", "is_disabled": 0, "rental_uris": {"ios": "https://dc.lft.to/lastmile_qr_scan", "android": "https://dc.lft.to/lastmile_qr_scan"}, "is_reserved": 0}, {"lon": -77.0670485, "bike_id": "b4defe3c9f0dc67792a7ffa4ffba4601", "lat": 38.914388333333335, "fusion_lon": 0.0, "fusion_lat": 0.0, "type": "electric_scooter", "name": "b4defe3c9f0dc67792a7ffa4ffba4601", "is_disabled": 0, "rental_uris": {"ios": "https://dc.lft.to/lastmile_qr_scan", "android": "https://dc.lft.to/lastmile_qr_scan"}, "is_reserved": 0}, {"lon": -77.01521716666667, "bike_id": "26b2325bb4dbfbe6dc169d2a28039e60", "lat": 38.900367, "fusion_lon": 0.0, "fusion_lat": 0.0, "type": "electric_scooter", "name": "26b2325bb4dbfbe6dc169d2a28039e60", "is_disabled": 0, "rental_uris": {"ios": "https://dc.lft.to/lastmile_qr_scan", "android": "https://dc.lft.to/lastmile_qr_scan"}, "is_reserved": 0}, {"lon": -76.9835615, "bike_id": "c9f1618b09f1cfc0dc14fcb05171a7f2", "lat": 38.86266783333333, "fusion_lon": 0.0, "fusion_lat": 0.0, "type": "electric_bike", "name": "c9f1618b09f1cfc0dc14fcb05171a7f2", "is_disabled": 0, "rental_uris": {"ios": "https://dc.lft.to/lastmile_qr_scan", "android": "https://dc.lft.to/lastmile_qr_scan"}, "is_reserved": 0}, {"lon": -77.03629966666666, "bike_id": "a00a6c8bce196c2a001c753e68a7b5c6", "lat": 38.92864133333333, "fusion_lon": 0.0, "fusion_lat": 0.0, "type": "electric_scooter", "name": "a00a6c8bce196c2a001c753e68a7b5c6", "is_disabled": 0, "rental_uris": {"ios": "https://dc.lft.to/lastmile_qr_scan", "android": "https://dc.lft.to/lastmile_qr_scan"}, "is_reserved": 0}, {"lon": -77.0486835, "bike_id": "2c1a5cbae400b5251a95049dd3da9245", "lat": 38.91630583333333, "fusion_lon": 0.0, "fusion_lat": 0.0, "type": "electric_scooter", "name": "2c1a5cbae400b5251a95049dd3da9245", "is_disabled": 0, "rental_uris": {"ios": "https://dc.lft.to/lastmile_qr_scan", "android": "https://dc.lft.to/lastmile_qr_scan"}, "is_reserved": 0}, {"lon": -77.03808916666667, "bike_id": "d991871f0885669abc5fed1f7e631d06", "lat": 38.9103355, "fusion_lon": 0.0, "fusion_lat": 0.0, "type": "electric_scooter", "name": "d991871f0885669abc5fed1f7e631d06", "is_disabled": 0, "rental_uris": {"ios": "https://dc.lft.to/lastmile_qr_scan", "android": "https://dc.lft.to/lastmile_qr_scan"}, "is_reserved": 0}, {"lon": -77.01075133333333, "bike_id": "0f9b42b2f2fef179940289fbc58a38c1", "lat": 38.90370933333333, "fusion_lon": 0.0, "fusion_lat": 0.0, "type": "electric_scooter", "name": "0f9b42b2f2fef179940289fbc58a38c1", "is_disabled": 0, "rental_uris": {"ios": "https://dc.lft.to/lastmile_qr_scan", "android": "https://dc.lft.to/lastmile_qr_scan"}, "is_reserved": 0}, {"lon": -77.00061616666666, "bike_id": "f6608a379947020e0852587571b67287", "lat": 38.899922, "fusion_lon": 0.0, "fusion_lat": 0.0, "type": "electric_scooter", "name": "f6608a379947020e0852587571b67287", "is_disabled": 0, "rental_uris": {"ios": "https://dc.lft.to/lastmile_qr_scan", "android": "https://dc.lft.to/lastmile_qr_scan"}, "is_reserved": 0}, {"lon": -77.0320255, "bike_id": "a1d21bcb87ba3d18de1a8d00e58bbf6b", "lat": 38.94405783333333, "fusion_lon": 0.0, "fusion_lat": 0.0, "type": "electric_scooter", "name": "a1d21bcb87ba3d18de1a8d00e58bbf6b", "is_disabled": 0, "rental_uris": {"ios": "https://dc.lft.to/lastmile_qr_scan", "android": "https://dc.lft.to/lastmile_qr_scan"}, "is_reserved": 0}, {"lon": -77.03257033333334, "bike_id": "cf57273508286d195949b02bb7755f4a", "lat": 38.928888666666666, "fusion_lon": 0.0, "fusion_lat": 0.0, "type": "electric_scooter", "name": "cf57273508286d195949b02bb7755f4a", "is_disabled": 0, "rental_uris": {"ios": "https://dc.lft.to/lastmile_qr_scan", "android": "https://dc.lft.to/lastmile_qr_scan"}, "is_reserved": 0}, {"lon": -77.03158966666666, "bike_id": "7dc0f5f9288ae113fe4f07c10d93be25", "lat": 38.915519, "fusion_lon": 0.0, "fusion_lat": 0.0, "type": "electric_scooter", "name": "7dc0f5f9288ae113fe4f07c10d93be25", "is_disabled": 0, "rental_uris": {"ios": "https://dc.lft.to/lastmile_qr_scan", "android": "https://dc.lft.to/lastmile_qr_scan"}, "is_reserved": 0}, {"lon": -77.0003175, "bike_id": "c6dfe950219996df0e932149f5cc6a8f", "lat": 38.9677465, "fusion_lon": 0.0, "fusion_lat": 0.0, "type": "electric_bike", "name": "c6dfe950219996df0e932149f5cc6a8f", "is_disabled": 0, "rental_uris": {"ios": "https://dc.lft.to/lastmile_qr_scan", "android": "https://dc.lft.to/lastmile_qr_scan"}, "is_reserved": 0}, {"lon": -77.045624, "bike_id": "c3a470e22b7132e4a0cd732616213530", "lat": 38.896102666666664, "fusion_lon": 0.0, "fusion_lat": 0.0, "type": "electric_scooter", "name": "c3a470e22b7132e4a0cd732616213530", "is_disabled": 0, "rental_uris": {"ios": "https://dc.lft.to/lastmile_qr_scan", "android": "https://dc.lft.to/lastmile_qr_scan"}, "is_reserved": 0}, {"lon": -77.03307516666666, "bike_id": "0c8e71b090b5cd8be71ce0f9d79c542e", "lat": 38.90122083333333, "fusion_lon": 0.0, "fusion_lat": 0.0, "type": "electric_scooter", "name": "0c8e71b090b5cd8be71ce0f9d79c542e", "is_disabled": 0, "rental_uris": {"ios": "https://dc.lft.to/lastmile_qr_scan", "android": "https://dc.lft.to/lastmile_qr_scan"}, "is_reserved": 0}, {"lon": -77.03254066666666, "bike_id": "a613bcf252c21ebd3e8a07306dcda2ad", "lat": 38.928696333333335, "fusion_lon": 0.0, "fusion_lat": 0.0, "type": "electric_scooter", "name": "a613bcf252c21ebd3e8a07306dcda2ad", "is_disabled": 0, "rental_uris": {"ios": "https://dc.lft.to/lastmile_qr_scan", "android": "https://dc.lft.to/lastmile_qr_scan"}, "is_reserved": 0}, {"lon": -77.060619, "bike_id": "6e9721771ffd4f61ca38aaed9d803d1f", "lat": 38.80855116666667, "fusion_lon": 0.0, "fusion_lat": 0.0, "type": "electric_bike", "name": "6e9721771ffd4f61ca38aaed9d803d1f", "is_disabled": 0, "rental_uris": {"ios": "https://dc.lft.to/lastmile_qr_scan", "android": "https://dc.lft.to/lastmile_qr_scan"}, "is_reserved": 0}, {"lon": -77.03798466666667, "bike_id": "70fd1e29bb829b8a0724b88ba5c61f55", "lat": 38.91033933333333, "fusion_lon": 0.0, "fusion_lat": 0.0, "type": "electric_scooter", "name": "70fd1e29bb829b8a0724b88ba5c61f55", "is_disabled": 0, "rental_uris": {"ios": "https://dc.lft.to/lastmile_qr_scan", "android": "https://dc.lft.to/lastmile_qr_scan"}, "is_reserved": 0}, {"lon": -77.03762433333333, "bike_id": "0b02a8013e919940ced997c6127bb4ca", "lat": 38.929403, "fusion_lon": 0.0, "fusion_lat": 0.0, "type": "electric_scooter", "name": "0b02a8013e919940ced997c6127bb4ca", "is_disabled": 0, "rental_uris": {"ios": "https://dc.lft.to/lastmile_qr_scan", "android": "https://dc.lft.to/lastmile_qr_scan"}, "is_reserved": 0}, {"lon": -77.0019855, "bike_id": "7928a1d88f21d5b5da031b6b3a373f17", "lat": 38.902377666666666, "fusion_lon": 0.0, "fusion_lat": 0.0, "type": "electric_scooter", "name": "7928a1d88f21d5b5da031b6b3a373f17", "is_disabled": 0, "rental_uris": {"ios": "https://dc.lft.to/lastmile_qr_scan", "android": "https://dc.lft.to/lastmile_qr_scan"}, "is_reserved": 0}, {"lon": -77.033456, "bike_id": "b57529c78b96146c67fd12503a47c943", "lat": 38.9096305, "fusion_lon": 0.0, "fusion_lat": 0.0, "type": "electric_scooter", "name": "b57529c78b96146c67fd12503a47c943", "is_disabled": 0, "rental_uris": {"ios": "https://dc.lft.to/lastmile_qr_scan", "android": "https://dc.lft.to/lastmile_qr_scan"}, "is_reserved": 0}, {"lon": -77.02784133333333, "bike_id": "7515847acdad356461e498918bf94f1f", "lat": 38.927806, "fusion_lon": 0.0, "fusion_lat": 0.0, "type": "electric_scooter", "name": "7515847acdad356461e498918bf94f1f", "is_disabled": 0, "rental_uris": {"ios": "https://dc.lft.to/lastmile_qr_scan", "android": "https://dc.lft.to/lastmile_qr_scan"}, "is_reserved": 0}, {"lon": -77.050425, "bike_id": "3d76a2f0b5af555bc1c982a63b0b9bc7", "lat": 38.90057183333333, "fusion_lon": 0.0, "fusion_lat": 0.0, "type": "electric_scooter", "name": "3d76a2f0b5af555bc1c982a63b0b9bc7", "is_disabled": 0, "rental_uris": {"ios": "https://dc.lft.to/lastmile_qr_scan", "android": "https://dc.lft.to/lastmile_qr_scan"}, "is_reserved": 0}, {"lon": -77.03185333333333, "bike_id": "cf710ab20133834461fbae42200a388e", "lat": 38.920488666666664, "fusion_lon": 0.0, "fusion_lat": 0.0, "type": "electric_scooter", "name": "cf710ab20133834461fbae42200a388e", "is_disabled": 0, "rental_uris": {"ios": "https://dc.lft.to/lastmile_qr_scan", "android": "https://dc.lft.to/lastmile_qr_scan"}, "is_reserved": 0}, {"lon": -77.0318315, "bike_id": "c8b2bafd807945bb3ef1e5f6906964c3", "lat": 38.9190815, "fusion_lon": 0.0, "fusion_lat": 0.0, "type": "electric_scooter", "name": "c8b2bafd807945bb3ef1e5f6906964c3", "is_disabled": 0, "rental_uris": {"ios": "https://dc.lft.to/lastmile_qr_scan", "android": "https://dc.lft.to/lastmile_qr_scan"}, "is_reserved": 0}, {"lon": -77.04558416666667, "bike_id": "f327cccd73304f2c2565d42b8a9b9bb4", "lat": 38.91587216666667, "fusion_lon": 0.0, "fusion_lat": 0.0, "type": "electric_scooter", "name": "f327cccd73304f2c2565d42b8a9b9bb4", "is_disabled": 0, "rental_uris": {"ios": "https://dc.lft.to/lastmile_qr_scan", "android": "https://dc.lft.to/lastmile_qr_scan"}, "is_reserved": 0}, {"lon": -77.022658, "bike_id": "8891bafa5ccb28eea3f90858691a50b0", "lat": 38.9028185, "fusion_lon": 0.0, "fusion_lat": 0.0, "type": "electric_scooter", "name": "8891bafa5ccb28eea3f90858691a50b0", "is_disabled": 0, "rental_uris": {"ios": "https://dc.lft.to/lastmile_qr_scan", "android": "https://dc.lft.to/lastmile_qr_scan"}, "is_reserved": 0}, {"lon": -77.02423083333333, "bike_id": "95fec0d2e9ca31a5f2d3b0b523471d58", "lat": 38.920775, "fusion_lon": 0.0, "fusion_lat": 0.0, "type": "electric_scooter", "name": "95fec0d2e9ca31a5f2d3b0b523471d58", "is_disabled": 0, "rental_uris": {"ios": "https://dc.lft.to/lastmile_qr_scan", "android": "https://dc.lft.to/lastmile_qr_scan"}, "is_reserved": 0}, {"lon": -76.98351883333333, "bike_id": "32ec981dbbb80a8e1d7d564aa5b8b7c1", "lat": 38.8920585, "fusion_lon": 0.0, "fusion_lat": 0.0, "type": "electric_bike", "name": "32ec981dbbb80a8e1d7d564aa5b8b7c1", "is_disabled": 0, "rental_uris": {"ios": "https://dc.lft.to/lastmile_qr_scan", "android": "https://dc.lft.to/lastmile_qr_scan"}, "is_reserved": 0}, {"lon": -77.00068616666667, "bike_id": "2580c06a66ad69d637fd600dd47673c0", "lat": 38.87657516666667, "fusion_lon": 0.0, "fusion_lat": 0.0, "type": "electric_bike", "name": "2580c06a66ad69d637fd600dd47673c0", "is_disabled": 0, "rental_uris": {"ios": "https://dc.lft.to/lastmile_qr_scan", "android": "https://dc.lft.to/lastmile_qr_scan"}, "is_reserved": 0}, {"lon": -77.185624, "bike_id": "da34264cfbb2aff5bf18b8be65aaedd7", "lat": 39.09975333333333, "fusion_lon": 0.0, "fusion_lat": 0.0, "type": "electric_bike", "name": "da34264cfbb2aff5bf18b8be65aaedd7", "is_disabled": 0, "rental_uris": {"ios": "https://dc.lft.to/lastmile_qr_scan", "android": "https://dc.lft.to/lastmile_qr_scan"}, "is_reserved": 0}, {"lon": -76.97737083333334, "bike_id": "71b85a44f077ffb52ca27e5c35c758e8", "lat": 38.864871666666666, "fusion_lon": 0.0, "fusion_lat": 0.0, "type": "electric_bike", "name": "71b85a44f077ffb52ca27e5c35c758e8", "is_disabled": 0, "rental_uris": {"ios": "https://dc.lft.to/lastmile_qr_scan", "android": "https://dc.lft.to/lastmile_qr_scan"}, "is_reserved": 0}, {"lon": -77.00708, "bike_id": "e1b26206cc063c611b8ca3acbe2555d0", "lat": 38.94599383333333, "fusion_lon": 0.0, "fusion_lat": 0.0, "type": "electric_bike", "name": "e1b26206cc063c611b8ca3acbe2555d0", "is_disabled": 0, "rental_uris": {"ios": "https://dc.lft.to/lastmile_qr_scan", "android": "https://dc.lft.to/lastmile_qr_scan"}, "is_reserved": 0}, {"lon": -77.03175083333333, "bike_id": "5935c9a8ad72f26f04e31d16f81e28ea", "lat": 38.936098, "fusion_lon": 0.0, "fusion_lat": 0.0, "type": "electric_scooter", "name": "5935c9a8ad72f26f04e31d16f81e28ea", "is_disabled": 0, "rental_uris": {"ios": "https://dc.lft.to/lastmile_qr_scan", "android": "https://dc.lft.to/lastmile_qr_scan"}, "is_reserved": 0}, {"lon": -77.006592, "bike_id": "9324cd90cf5aa617603b65e6ced72f9a", "lat": 38.944646166666665, "fusion_lon": 0.0, "fusion_lat": 0.0, "type": "electric_scooter", "name": "9324cd90cf5aa617603b65e6ced72f9a", "is_disabled": 0, "rental_uris": {"ios": "https://dc.lft.to/lastmile_qr_scan", "android": "https://dc.lft.to/lastmile_qr_scan"}, "is_reserved": 0}, {"lon": -76.962581, "bike_id": "469765072de7eeff97f871cd74128143", "lat": 38.882417, "fusion_lon": 0.0, "fusion_lat": 0.0, "type": "electric_bike", "name": "469765072de7eeff97f871cd74128143", "is_disabled": 0, "rental_uris": {"ios": "https://dc.lft.to/lastmile_qr_scan", "android": "https://dc.lft.to/lastmile_qr_scan"}, "is_reserved": 0}, {"lon": -76.98707433333334, "bike_id": "57980138286578280a61fb25091348ec", "lat": 38.8662565, "fusion_lon": 0.0, "fusion_lat": 0.0, "type": "electric_scooter", "name": "57980138286578280a61fb25091348ec", "is_disabled": 0, "rental_uris": {"ios": "https://dc.lft.to/lastmile_qr_scan", "android": "https://dc.lft.to/lastmile_qr_scan"}, "is_reserved": 0}, {"lon": -77.02850716666667, "bike_id": "2f8d061048790386e4e2857e7047509e", "lat": 38.9334155, "fusion_lon": 0.0, "fusion_lat": 0.0, "type": "electric_scooter", "name": "2f8d061048790386e4e2857e7047509e", "is_disabled": 0, "rental_uris": {"ios": "https://dc.lft.to/lastmile_qr_scan", "android": "https://dc.lft.to/lastmile_qr_scan"}, "is_reserved": 0}, {"lon": -77.07431633333333, "bike_id": "bb20cdfc2158819013d0ccd6b5581ddb", "lat": 38.99947216666666, "fusion_lon": 0.0, "fusion_lat": 0.0, "type": "electric_bike", "name": "bb20cdfc2158819013d0ccd6b5581ddb", "is_disabled": 0, "rental_uris": {"ios": "https://dc.lft.to/lastmile_qr_scan", "android": "https://dc.lft.to/lastmile_qr_scan"}, "is_reserved": 0}, {"lon": -77.02013266666667, "bike_id": "3e79c8604c05ec5ca401103e8987948f", "lat": 38.9242095, "fusion_lon": 0.0, "fusion_lat": 0.0, "type": "electric_scooter", "name": "3e79c8604c05ec5ca401103e8987948f", "is_disabled": 0, "rental_uris": {"ios": "https://dc.lft.to/lastmile_qr_scan", "android": "https://dc.lft.to/lastmile_qr_scan"}, "is_reserved": 0}, {"lon": -77.04129633333334, "bike_id": "177b9ded2d04031ac9d20af27ee52c61", "lat": 38.92643016666667, "fusion_lon": 0.0, "fusion_lat": 0.0, "type": "electric_scooter", "name": "177b9ded2d04031ac9d20af27ee52c61", "is_disabled": 0, "rental_uris": {"ios": "https://dc.lft.to/lastmile_qr_scan", "android": "https://dc.lft.to/lastmile_qr_scan"}, "is_reserved": 0}, {"lon": -77.0580565, "bike_id": "71a95df46818994334235ed26397c3d2", "lat": 38.8239385, "fusion_lon": 0.0, "fusion_lat": 0.0, "type": "electric_bike", "name": "71a95df46818994334235ed26397c3d2", "is_disabled": 0, "rental_uris": {"ios": "https://dc.lft.to/lastmile_qr_scan", "android": "https://dc.lft.to/lastmile_qr_scan"}, "is_reserved": 0}, {"lon": -76.94921883333333, "bike_id": "03183652cf4a848a3aea5307c2e06ca3", "lat": 38.8935545, "fusion_lon": 0.0, "fusion_lat": 0.0, "type": "electric_scooter", "name": "03183652cf4a848a3aea5307c2e06ca3", "is_disabled": 0, "rental_uris": {"ios": "https://dc.lft.to/lastmile_qr_scan", "android": "https://dc.lft.to/lastmile_qr_scan"}, "is_reserved": 0}, {"lon": -76.9894475, "bike_id": "b575a6910951c30440d1a4c6673e3e24", "lat": 38.903939666666666, "fusion_lon": 0.0, "fusion_lat": 0.0, "type": "electric_scooter", "name": "b575a6910951c30440d1a4c6673e3e24", "is_disabled": 0, "rental_uris": {"ios": "https://dc.lft.to/lastmile_qr_scan", "android": "https://dc.lft.to/lastmile_qr_scan"}, "is_reserved": 0}, {"lon": -77.00976383333334, "bike_id": "7e7e4ba8c0f1a4cd44cd0597cce15ff3", "lat": 38.894876333333336, "fusion_lon": 0.0, "fusion_lat": 0.0, "type": "electric_scooter", "name": "7e7e4ba8c0f1a4cd44cd0597cce15ff3", "is_disabled": 0, "rental_uris": {"ios": "https://dc.lft.to/lastmile_qr_scan", "android": "https://dc.lft.to/lastmile_qr_scan"}, "is_reserved": 0}, {"lon": -77.06394616666667, "bike_id": "33a1bdba3df87184eda06a6687dc9304", "lat": 38.907791, "fusion_lon": 0.0, "fusion_lat": 0.0, "type": "electric_scooter", "name": "33a1bdba3df87184eda06a6687dc9304", "is_disabled": 0, "rental_uris": {"ios": "https://dc.lft.to/lastmile_qr_scan", "android": "https://dc.lft.to/lastmile_qr_scan"}, "is_reserved": 0}, {"lon": -77.0585965, "bike_id": "c38acc7fd8a523b839eab77faff2774d", "lat": 38.9360785, "fusion_lon": 0.0, "fusion_lat": 0.0, "type": "electric_scooter", "name": "c38acc7fd8a523b839eab77faff2774d", "is_disabled": 0, "rental_uris": {"ios": "https://dc.lft.to/lastmile_qr_scan", "android": "https://dc.lft.to/lastmile_qr_scan"}, "is_reserved": 0}, {"lon": -77.04772233333334, "bike_id": "00273d8e75bca564343e214e1994247b", "lat": 38.90966266666667, "fusion_lon": 0.0, "fusion_lat": 0.0, "type": "electric_scooter", "name": "00273d8e75bca564343e214e1994247b", "is_disabled": 0, "rental_uris": {"ios": "https://dc.lft.to/lastmile_qr_scan", "android": "https://dc.lft.to/lastmile_qr_scan"}, "is_reserved": 0}, {"lon": -77.0438795, "bike_id": "8e91f4ae44f371bb22a53e41a1024adf", "lat": 39.047172833333335, "fusion_lon": 0.0, "fusion_lat": 0.0, "type": "electric_bike", "name": "8e91f4ae44f371bb22a53e41a1024adf", "is_disabled": 0, "rental_uris": {"ios": "https://dc.lft.to/lastmile_qr_scan", "android": "https://dc.lft.to/lastmile_qr_scan"}, "is_reserved": 0}, {"lon": -77.0634775, "bike_id": "3181e8bd557446481dc8e60648e73b70", "lat": 38.90596983333333, "fusion_lon": 0.0, "fusion_lat": 0.0, "type": "electric_scooter", "name": "3181e8bd557446481dc8e60648e73b70", "is_disabled": 0, "rental_uris": {"ios": "https://dc.lft.to/lastmile_qr_scan", "android": "https://dc.lft.to/lastmile_qr_scan"}, "is_reserved": 0}, {"lon": -77.02236466666666, "bike_id": "3c9c8046cebbc877365c367e73964914", "lat": 38.962138, "fusion_lon": 0.0, "fusion_lat": 0.0, "type": "electric_bike", "name": "3c9c8046cebbc877365c367e73964914", "is_disabled": 0, "rental_uris": {"ios": "https://dc.lft.to/lastmile_qr_scan", "android": "https://dc.lft.to/lastmile_qr_scan"}, "is_reserved": 0}, {"lon": -77.04658616666667, "bike_id": "62e832349bd65e6dcc1aff8a7cf14db5", "lat": 38.89823583333333, "fusion_lon": 0.0, "fusion_lat": 0.0, "type": "electric_scooter", "name": "62e832349bd65e6dcc1aff8a7cf14db5", "is_disabled": 0, "rental_uris": {"ios": "https://dc.lft.to/lastmile_qr_scan", "android": "https://dc.lft.to/lastmile_qr_scan"}, "is_reserved": 0}, {"lon": -77.03211666666667, "bike_id": "2f09f9b914334b82b45512e50cbb221a", "lat": 38.91728116666667, "fusion_lon": 0.0, "fusion_lat": 0.0, "type": "electric_scooter", "name": "2f09f9b914334b82b45512e50cbb221a", "is_disabled": 0, "rental_uris": {"ios": "https://dc.lft.to/lastmile_qr_scan", "android": "https://dc.lft.to/lastmile_qr_scan"}, "is_reserved": 0}, {"lon": -77.0245435, "bike_id": "a42157a29a3bc82fa86337709d91a5ad", "lat": 38.938581166666665, "fusion_lon": 0.0, "fusion_lat": 0.0, "type": "electric_scooter", "name": "a42157a29a3bc82fa86337709d91a5ad", "is_disabled": 0, "rental_uris": {"ios": "https://dc.lft.to/lastmile_qr_scan", "android": "https://dc.lft.to/lastmile_qr_scan"}, "is_reserved": 0}, {"lon": -77.00120866666667, "bike_id": "3ff4f030cbb7a15e4bfa5d09787201b5", "lat": 38.87481483333333, "fusion_lon": 0.0, "fusion_lat": 0.0, "type": "electric_scooter", "name": "3ff4f030cbb7a15e4bfa5d09787201b5", "is_disabled": 0, "rental_uris": {"ios": "https://dc.lft.to/lastmile_qr_scan", "android": "https://dc.lft.to/lastmile_qr_scan"}, "is_reserved": 0}, {"lon": -77.0220785, "bike_id": "01cafb8dd7ff4c54d5c6ee4320ffc203", "lat": 38.914123833333335, "fusion_lon": 0.0, "fusion_lat": 0.0, "type": "electric_scooter", "name": "01cafb8dd7ff4c54d5c6ee4320ffc203", "is_disabled": 0, "rental_uris": {"ios": "https://dc.lft.to/lastmile_qr_scan", "android": "https://dc.lft.to/lastmile_qr_scan"}, "is_reserved": 0}, {"lon": -76.95572316666667, "bike_id": "b4ca424734b9267a472b1d6051573a77", "lat": 38.887684666666665, "fusion_lon": 0.0, "fusion_lat": 0.0, "type": "electric_scooter", "name": "b4ca424734b9267a472b1d6051573a77", "is_disabled": 0, "rental_uris": {"ios": "https://dc.lft.to/lastmile_qr_scan", "android": "https://dc.lft.to/lastmile_qr_scan"}, "is_reserved": 0}, {"lon": -77.025068, "bike_id": "a68013124ee96224d923c08a83994632", "lat": 38.920846, "fusion_lon": 0.0, "fusion_lat": 0.0, "type": "electric_scooter", "name": "a68013124ee96224d923c08a83994632", "is_disabled": 0, "rental_uris": {"ios": "https://dc.lft.to/lastmile_qr_scan", "android": "https://dc.lft.to/lastmile_qr_scan"}, "is_reserved": 0}, {"lon": -77.00107216666666, "bike_id": "99afed26be26545d7aea6572a1bed26a", "lat": 38.9124415, "fusion_lon": 0.0, "fusion_lat": 0.0, "type": "electric_scooter", "name": "99afed26be26545d7aea6572a1bed26a", "is_disabled": 0, "rental_uris": {"ios": "https://dc.lft.to/lastmile_qr_scan", "android": "https://dc.lft.to/lastmile_qr_scan"}, "is_reserved": 0}, {"lon": -77.02212583333333, "bike_id": "db7198ab04a32059983fb6a28cdf3e7f", "lat": 38.92616183333333, "fusion_lon": 0.0, "fusion_lat": 0.0, "type": "electric_scooter", "name": "db7198ab04a32059983fb6a28cdf3e7f", "is_disabled": 0, "rental_uris": {"ios": "https://dc.lft.to/lastmile_qr_scan", "android": "https://dc.lft.to/lastmile_qr_scan"}, "is_reserved": 0}, {"lon": -76.989238, "bike_id": "25f494f46db518a3de3aa4491d08e37e", "lat": 38.85811233333333, "fusion_lon": 0.0, "fusion_lat": 0.0, "type": "electric_scooter", "name": "25f494f46db518a3de3aa4491d08e37e", "is_disabled": 0, "rental_uris": {"ios": "https://dc.lft.to/lastmile_qr_scan", "android": "https://dc.lft.to/lastmile_qr_scan"}, "is_reserved": 0}, {"lon": -77.04621116666667, "bike_id": "0ff729b109d88b36bb4327a91b1cd025", "lat": 38.900627, "fusion_lon": 0.0, "fusion_lat": 0.0, "type": "electric_scooter", "name": "0ff729b109d88b36bb4327a91b1cd025", "is_disabled": 0, "rental_uris": {"ios": "https://dc.lft.to/lastmile_qr_scan", "android": "https://dc.lft.to/lastmile_qr_scan"}, "is_reserved": 0}, {"lon": -77.028362, "bike_id": "cf24ab650f0a53d9a54bc7294470655d", "lat": 38.92573316666667, "fusion_lon": 0.0, "fusion_lat": 0.0, "type": "electric_scooter", "name": "cf24ab650f0a53d9a54bc7294470655d", "is_disabled": 0, "rental_uris": {"ios": "https://dc.lft.to/lastmile_qr_scan", "android": "https://dc.lft.to/lastmile_qr_scan"}, "is_reserved": 0}, {"lon": -76.93752866666667, "bike_id": "c688c47639e90072b71da5c7a5d7bf6a", "lat": 38.890403166666665, "fusion_lon": 0.0, "fusion_lat": 0.0, "type": "electric_scooter", "name": "c688c47639e90072b71da5c7a5d7bf6a", "is_disabled": 0, "rental_uris": {"ios": "https://dc.lft.to/lastmile_qr_scan", "android": "https://dc.lft.to/lastmile_qr_scan"}, "is_reserved": 0}, {"lon": -77.03473733333334, "bike_id": "e08fa671f5972557c6abdb30bdba7098", "lat": 38.9170905, "fusion_lon": 0.0, "fusion_lat": 0.0, "type": "electric_scooter", "name": "e08fa671f5972557c6abdb30bdba7098", "is_disabled": 0, "rental_uris": {"ios": "https://dc.lft.to/lastmile_qr_scan", "android": "https://dc.lft.to/lastmile_qr_scan"}, "is_reserved": 0}, {"lon": -77.0449155, "bike_id": "6faf583d0aa769685c2182ee2362d2d0", "lat": 38.903663333333334, "fusion_lon": 0.0, "fusion_lat": 0.0, "type": "electric_scooter", "name": "6faf583d0aa769685c2182ee2362d2d0", "is_disabled": 0, "rental_uris": {"ios": "https://dc.lft.to/lastmile_qr_scan", "android": "https://dc.lft.to/lastmile_qr_scan"}, "is_reserved": 0}, {"lon": -76.99268783333333, "bike_id": "cec4710b4f489d01dd08105620ef1353", "lat": 38.897647, "fusion_lon": 0.0, "fusion_lat": 0.0, "type": "electric_scooter", "name": "cec4710b4f489d01dd08105620ef1353", "is_disabled": 0, "rental_uris": {"ios": "https://dc.lft.to/lastmile_qr_scan", "android": "https://dc.lft.to/lastmile_qr_scan"}, "is_reserved": 0}, {"lon": -77.00199233333333, "bike_id": "a633b384d9d30c37ec7cab68da88cbc6", "lat": 38.90023733333334, "fusion_lon": 0.0, "fusion_lat": 0.0, "type": "electric_scooter", "name": "a633b384d9d30c37ec7cab68da88cbc6", "is_disabled": 0, "rental_uris": {"ios": "https://dc.lft.to/lastmile_qr_scan", "android": "https://dc.lft.to/lastmile_qr_scan"}, "is_reserved": 0}, {"lon": -77.03441616666667, "bike_id": "175fb2366350d7156ef01a5ccc79e271", "lat": 38.90808716666667, "fusion_lon": 0.0, "fusion_lat": 0.0, "type": "electric_scooter", "name": "175fb2366350d7156ef01a5ccc79e271", "is_disabled": 0, "rental_uris": {"ios": "https://dc.lft.to/lastmile_qr_scan", "android": "https://dc.lft.to/lastmile_qr_scan"}, "is_reserved": 0}, {"lon": -77.01716933333333, "bike_id": "ad168e59e873f672ef42486e792033fa", "lat": 38.9096895, "fusion_lon": 0.0, "fusion_lat": 0.0, "type": "electric_scooter", "name": "ad168e59e873f672ef42486e792033fa", "is_disabled": 0, "rental_uris": {"ios": "https://dc.lft.to/lastmile_qr_scan", "android": "https://dc.lft.to/lastmile_qr_scan"}, "is_reserved": 0}, {"lon": -77.043597, "bike_id": "940f28e450314f2b73ef51d14d280bed", "lat": 38.90255966666667, "fusion_lon": 0.0, "fusion_lat": 0.0, "type": "electric_scooter", "name": "940f28e450314f2b73ef51d14d280bed", "is_disabled": 0, "rental_uris": {"ios": "https://dc.lft.to/lastmile_qr_scan", "android": "https://dc.lft.to/lastmile_qr_scan"}, "is_reserved": 0}, {"lon": -77.00132716666667, "bike_id": "d2347a642f809fa1891f1e6cfa1823f5", "lat": 38.894655166666666, "fusion_lon": 0.0, "fusion_lat": 0.0, "type": "electric_scooter", "name": "d2347a642f809fa1891f1e6cfa1823f5", "is_disabled": 0, "rental_uris": {"ios": "https://dc.lft.to/lastmile_qr_scan", "android": "https://dc.lft.to/lastmile_qr_scan"}, "is_reserved": 0}, {"lon": -76.9372945, "bike_id": "44a09b3e5b4f322d3c191b0bf019d2eb", "lat": 38.89015166666667, "fusion_lon": 0.0, "fusion_lat": 0.0, "type": "electric_scooter", "name": "44a09b3e5b4f322d3c191b0bf019d2eb", "is_disabled": 0, "rental_uris": {"ios": "https://dc.lft.to/lastmile_qr_scan", "android": "https://dc.lft.to/lastmile_qr_scan"}, "is_reserved": 0}, {"lon": -76.98580033333333, "bike_id": "883fdf9b55df3740880f3969c569dd79", "lat": 38.866864166666666, "fusion_lon": 0.0, "fusion_lat": 0.0, "type": "electric_scooter", "name": "883fdf9b55df3740880f3969c569dd79", "is_disabled": 0, "rental_uris": {"ios": "https://dc.lft.to/lastmile_qr_scan", "android": "https://dc.lft.to/lastmile_qr_scan"}, "is_reserved": 0}, {"lon": -77.0272135, "bike_id": "61ea7af9f8874493fb1758550a4b15cd", "lat": 38.951314833333335, "fusion_lon": 0.0, "fusion_lat": 0.0, "type": "electric_scooter", "name": "61ea7af9f8874493fb1758550a4b15cd", "is_disabled": 0, "rental_uris": {"ios": "https://dc.lft.to/lastmile_qr_scan", "android": "https://dc.lft.to/lastmile_qr_scan"}, "is_reserved": 0}, {"lon": -77.03953416666667, "bike_id": "276902faf246b2b293508f51fc244106", "lat": 38.915515666666664, "fusion_lon": 0.0, "fusion_lat": 0.0, "type": "electric_scooter", "name": "276902faf246b2b293508f51fc244106", "is_disabled": 0, "rental_uris": {"ios": "https://dc.lft.to/lastmile_qr_scan", "android": "https://dc.lft.to/lastmile_qr_scan"}, "is_reserved": 0}, {"lon": -77.02905083333333, "bike_id": "ad47ef49f57690637f8fbc51eb10bd8e", "lat": 38.91700933333333, "fusion_lon": 0.0, "fusion_lat": 0.0, "type": "electric_scooter", "name": "ad47ef49f57690637f8fbc51eb10bd8e", "is_disabled": 0, "rental_uris": {"ios": "https://dc.lft.to/lastmile_qr_scan", "android": "https://dc.lft.to/lastmile_qr_scan"}, "is_reserved": 0}, {"lon": -77.11577283333334, "bike_id": "0fb1acd4ed15e4ee737c021494700b99", "lat": 38.99345233333333, "fusion_lon": 0.0, "fusion_lat": 0.0, "type": "electric_bike", "name": "0fb1acd4ed15e4ee737c021494700b99", "is_disabled": 0, "rental_uris": {"ios": "https://dc.lft.to/lastmile_qr_scan", "android": "https://dc.lft.to/lastmile_qr_scan"}, "is_reserved": 0}, {"lon": -77.03374466666666, "bike_id": "1d4971695db2f823b7139f4531a6c9d6", "lat": 38.9215775, "fusion_lon": 0.0, "fusion_lat": 0.0, "type": "electric_scooter", "name": "1d4971695db2f823b7139f4531a6c9d6", "is_disabled": 0, "rental_uris": {"ios": "https://dc.lft.to/lastmile_qr_scan", "android": "https://dc.lft.to/lastmile_qr_scan"}, "is_reserved": 0}, {"lon": -77.0255135, "bike_id": "f9deb729a08f2e8ba6b01b796fbd658b", "lat": 38.90961433333333, "fusion_lon": 0.0, "fusion_lat": 0.0, "type": "electric_scooter", "name": "f9deb729a08f2e8ba6b01b796fbd658b", "is_disabled": 0, "rental_uris": {"ios": "https://dc.lft.to/lastmile_qr_scan", "android": "https://dc.lft.to/lastmile_qr_scan"}, "is_reserved": 0}, {"lon": -77.07394233333333, "bike_id": "a035b1becac0334f3dcd83b3374060a4", "lat": 38.96213016666667, "fusion_lon": 0.0, "fusion_lat": 0.0, "type": "electric_scooter", "name": "a035b1becac0334f3dcd83b3374060a4", "is_disabled": 0, "rental_uris": {"ios": "https://dc.lft.to/lastmile_qr_scan", "android": "https://dc.lft.to/lastmile_qr_scan"}, "is_reserved": 0}, {"lon": -77.00949333333334, "bike_id": "f453711f06fc31602113dab8c41e2eb6", "lat": 38.953447, "fusion_lon": 0.0, "fusion_lat": 0.0, "type": "electric_bike", "name": "f453711f06fc31602113dab8c41e2eb6", "is_disabled": 0, "rental_uris": {"ios": "https://dc.lft.to/lastmile_qr_scan", "android": "https://dc.lft.to/lastmile_qr_scan"}, "is_reserved": 0}, {"lon": -77.04784466666666, "bike_id": "ea6482d379d9a253df450dd3b9d4c9be", "lat": 38.8294995, "fusion_lon": 0.0, "fusion_lat": 0.0, "type": "electric_bike", "name": "ea6482d379d9a253df450dd3b9d4c9be", "is_disabled": 0, "rental_uris": {"ios": "https://dc.lft.to/lastmile_qr_scan", "android": "https://dc.lft.to/lastmile_qr_scan"}, "is_reserved": 0}, {"lon": -76.985215, "bike_id": "bf4d5ab68f16df2348b295f3dbf864fe", "lat": 38.866828166666664, "fusion_lon": 0.0, "fusion_lat": 0.0, "type": "electric_scooter", "name": "bf4d5ab68f16df2348b295f3dbf864fe", "is_disabled": 0, "rental_uris": {"ios": "https://dc.lft.to/lastmile_qr_scan", "android": "https://dc.lft.to/lastmile_qr_scan"}, "is_reserved": 0}, {"lon": -76.983723, "bike_id": "b04486fc7c531db68d8274d657f0ea9d", "lat": 38.914961, "fusion_lon": 0.0, "fusion_lat": 0.0, "type": "electric_scooter", "name": "b04486fc7c531db68d8274d657f0ea9d", "is_disabled": 0, "rental_uris": {"ios": "https://dc.lft.to/lastmile_qr_scan", "android": "https://dc.lft.to/lastmile_qr_scan"}, "is_reserved": 0}, {"lon": -77.03288066666667, "bike_id": "202070885394ce0c7467d9daa4f59f62", "lat": 38.9564735, "fusion_lon": 0.0, "fusion_lat": 0.0, "type": "electric_scooter", "name": "202070885394ce0c7467d9daa4f59f62", "is_disabled": 0, "rental_uris": {"ios": "https://dc.lft.to/lastmile_qr_scan", "android": "https://dc.lft.to/lastmile_qr_scan"}, "is_reserved": 0}, {"lon": -77.11779033333333, "bike_id": "1f1fd76d8ba024c3d354c241ffd1b7cb", "lat": 39.05492266666667, "fusion_lon": 0.0, "fusion_lat": 0.0, "type": "electric_bike", "name": "1f1fd76d8ba024c3d354c241ffd1b7cb", "is_disabled": 0, "rental_uris": {"ios": "https://dc.lft.to/lastmile_qr_scan", "android": "https://dc.lft.to/lastmile_qr_scan"}, "is_reserved": 0}, {"lon": -77.016638, "bike_id": "4d1a6e4cf6f3e84f6f3dcf0ea3f8a5cc", "lat": 38.9174245, "fusion_lon": 0.0, "fusion_lat": 0.0, "type": "electric_scooter", "name": "4d1a6e4cf6f3e84f6f3dcf0ea3f8a5cc", "is_disabled": 0, "rental_uris": {"ios": "https://dc.lft.to/lastmile_qr_scan", "android": "https://dc.lft.to/lastmile_qr_scan"}, "is_reserved": 0}, {"lon": -77.04032666666667, "bike_id": "3b2f91ae16e2cb8d7b2a8b27eee43838", "lat": 38.925655666666664, "fusion_lon": 0.0, "fusion_lat": 0.0, "type": "electric_bike", "name": "3b2f91ae16e2cb8d7b2a8b27eee43838", "is_disabled": 0, "rental_uris": {"ios": "https://dc.lft.to/lastmile_qr_scan", "android": "https://dc.lft.to/lastmile_qr_scan"}, "is_reserved": 0}, {"lon": -77.03601033333334, "bike_id": "2ce30778bc253d59970d75c8bb46a484", "lat": 38.92319766666667, "fusion_lon": 0.0, "fusion_lat": 0.0, "type": "electric_scooter", "name": "2ce30778bc253d59970d75c8bb46a484", "is_disabled": 0, "rental_uris": {"ios": "https://dc.lft.to/lastmile_qr_scan", "android": "https://dc.lft.to/lastmile_qr_scan"}, "is_reserved": 0}, {"lon": -77.04834666666666, "bike_id": "3aff0e6bac1ce45adabc0ba96dda4f9c", "lat": 38.90475633333333, "fusion_lon": 0.0, "fusion_lat": 0.0, "type": "electric_bike", "name": "3aff0e6bac1ce45adabc0ba96dda4f9c", "is_disabled": 0, "rental_uris": {"ios": "https://dc.lft.to/lastmile_qr_scan", "android": "https://dc.lft.to/lastmile_qr_scan"}, "is_reserved": 0}, {"lon": -77.04183783333333, "bike_id": "f5e9ca233e11185b18cbf14a68591333", "lat": 38.91972716666667, "fusion_lon": 0.0, "fusion_lat": 0.0, "type": "electric_scooter", "name": "f5e9ca233e11185b18cbf14a68591333", "is_disabled": 0, "rental_uris": {"ios": "https://dc.lft.to/lastmile_qr_scan", "android": "https://dc.lft.to/lastmile_qr_scan"}, "is_reserved": 0}, {"lon": -77.0342125, "bike_id": "a4c48628256e8ee9de1a8adeda834403", "lat": 38.9653165, "fusion_lon": 0.0, "fusion_lat": 0.0, "type": "electric_bike", "name": "a4c48628256e8ee9de1a8adeda834403", "is_disabled": 0, "rental_uris": {"ios": "https://dc.lft.to/lastmile_qr_scan", "android": "https://dc.lft.to/lastmile_qr_scan"}, "is_reserved": 0}, {"lon": -76.998098, "bike_id": "48517523397e60339d10148ae5fd2ee6", "lat": 38.829100833333335, "fusion_lon": 0.0, "fusion_lat": 0.0, "type": "electric_bike", "name": "48517523397e60339d10148ae5fd2ee6", "is_disabled": 0, "rental_uris": {"ios": "https://dc.lft.to/lastmile_qr_scan", "android": "https://dc.lft.to/lastmile_qr_scan"}, "is_reserved": 0}, {"lon": -77.02360383333334, "bike_id": "d8fca6018fc88cce3b4d066da9906520", "lat": 38.92221583333333, "fusion_lon": 0.0, "fusion_lat": 0.0, "type": "electric_scooter", "name": "d8fca6018fc88cce3b4d066da9906520", "is_disabled": 0, "rental_uris": {"ios": "https://dc.lft.to/lastmile_qr_scan", "android": "https://dc.lft.to/lastmile_qr_scan"}, "is_reserved": 0}, {"lon": -77.01694633333334, "bike_id": "c8ed593a88c863de941a0d5be4f804c3", "lat": 38.91427916666667, "fusion_lon": 0.0, "fusion_lat": 0.0, "type": "electric_scooter", "name": "c8ed593a88c863de941a0d5be4f804c3", "is_disabled": 0, "rental_uris": {"ios": "https://dc.lft.to/lastmile_qr_scan", "android": "https://dc.lft.to/lastmile_qr_scan"}, "is_reserved": 0}, {"lon": -77.017571, "bike_id": "deaf9aac300d569c966ba0e2c20717a1", "lat": 38.90391416666667, "fusion_lon": 0.0, "fusion_lat": 0.0, "type": "electric_scooter", "name": "deaf9aac300d569c966ba0e2c20717a1", "is_disabled": 0, "rental_uris": {"ios": "https://dc.lft.to/lastmile_qr_scan", "android": "https://dc.lft.to/lastmile_qr_scan"}, "is_reserved": 0}, {"lon": -77.03605683333333, "bike_id": "7f67eb2f5aa4a40e46a011976054cb64", "lat": 38.936843, "fusion_lon": 0.0, "fusion_lat": 0.0, "type": "electric_scooter", "name": "7f67eb2f5aa4a40e46a011976054cb64", "is_disabled": 0, "rental_uris": {"ios": "https://dc.lft.to/lastmile_qr_scan", "android": "https://dc.lft.to/lastmile_qr_scan"}, "is_reserved": 0}, {"lon": -76.957472, "bike_id": "64badb237db85354fa4828dbfe3926ea", "lat": 38.884267666666666, "fusion_lon": 0.0, "fusion_lat": 0.0, "type": "electric_scooter", "name": "64badb237db85354fa4828dbfe3926ea", "is_disabled": 0, "rental_uris": {"ios": "https://dc.lft.to/lastmile_qr_scan", "android": "https://dc.lft.to/lastmile_qr_scan"}, "is_reserved": 0}, {"lon": -77.02716633333333, "bike_id": "5ec393a9421081d04ff6734e0e796fd6", "lat": 38.926629166666665, "fusion_lon": 0.0, "fusion_lat": 0.0, "type": "electric_scooter", "name": "5ec393a9421081d04ff6734e0e796fd6", "is_disabled": 0, "rental_uris": {"ios": "https://dc.lft.to/lastmile_qr_scan", "android": "https://dc.lft.to/lastmile_qr_scan"}, "is_reserved": 0}, {"lon": -77.041873, "bike_id": "7640cb579d73e9527847e34aaeabbd03", "lat": 38.899790833333334, "fusion_lon": 0.0, "fusion_lat": 0.0, "type": "electric_scooter", "name": "7640cb579d73e9527847e34aaeabbd03", "is_disabled": 0, "rental_uris": {"ios": "https://dc.lft.to/lastmile_qr_scan", "android": "https://dc.lft.to/lastmile_qr_scan"}, "is_reserved": 0},