{"data": {"bikes": [{"is_reserved": 0, "type": "electric_bike", "bike_id": "38a761f699e56f96878183908333912c", "lat": 38.84052583333333, "lon": -77.05599633333334, "rental_uris": {"android": "https://dc.lft.to/lastmile_qr_scan", "ios": "https://dc.lft.to/lastmile_qr_scan"}, "is_disabled": 0, "fusion_lat": 0.0, "name": "38a761f699e56f96878183908333912c", "fusion_lon": 0.0}, {"is_reserved": 0, "type": "electric_scooter", "bike_id": "5dcfd412a41c4b4bd374fe14a870b528", "lat": 38.923637166666666, "lon": -77.03646833333333, "rental_uris": {"android": "https://dc.lft.to/lastmile_qr_scan", "ios": "https://dc.lft.to/lastmile_qr_scan"}, "is_disabled": 0, "fusion_lat": 0.0, "name": "5dcfd412a41c4b4bd374fe14a870b528", "fusion_lon": 0.0}, {"is_reserved": 0, "type": "electric_scooter", "bike_id": "f9f3c9e7cbccc3bb78fffb52bc3b8227", "lat": 38.9210695, "lon": -77.04186766666666, "rental_uris": {"android": "https://dc.lft.to/lastmile_qr_scan", "ios": "https://dc.lft.to/lastmile_qr_scan"}, "is_disabled": 0, "fusion_lat": 0.0, "name": "f9f3c9e7cbccc3bb78fffb52bc3b8227", "fusion_lon": 0.0}, {"is_reserved": 0, "type": "electric_scooter", "bike_id": "f694cbac0e31355071d61969ebd81cf6", "lat": 38.92148783333333, "lon": -77.03505366666667, "rental_uris": {"android": "https://dc.lft.to/lastmile_qr_scan", "ios": "https://dc.lft.to/lastmile_qr_scan"}, "is_disabled": 0, "fusion_lat": 0.0, "name": "f694cbac0e31355071d61969ebd81cf6", "fusion_lon": 0.0}, {"is_reserved": 0, "type": "electric_scooter", "bike_id": "1f27b035e5d564c3a905af013cd7957e", "lat": 38.90520133333333, "lon": -77.06380516666667, "rental_uris": {"android": "https://dc.lft.to/lastmile_qr_scan", "ios": "https://dc.lft.to/lastmile_qr_scan"}, "is_disabled": 0, "fusion_lat": 0.0, "name": "1f27b035e5d564c3a905af013cd7957e", "fusion_lon": 0.0}, {"is_reserved": 0, "type": "electric_scooter", "bike_id": "fd530f3c7eede9c93cc4c65cd35355b0", "lat": 38.9356605, "lon": -77.03264566666667, "rental_uris": {"android": "https://dc.lft.to/lastmile_qr_scan", "ios": "https://dc.lft.to/lastmile_qr_scan"}, "is_disabled": 0, "fusion_lat": 0.0, "name": "fd530f3c7eede9c93cc4c65cd35355b0", "fusion_lon": 0.0}, {"is_reserved": 0, "type": "electric_scooter", "bike_id": "d7fe34b37cf18294db5b9212799536ee", "lat": 38.89930016666667, "lon": -77.0320015, "rental_uris": {"android": "https://dc.lft.to/lastmile_qr_scan", "ios": "https://dc.lft.to/lastmile_qr_scan"}, "is_disabled": 0, "fusion_lat": 0.0, "name": "d7fe34b37cf18294db5b9212799536ee", "fusion_lon": 0.0}, {"is_reserved": 0, "type": "electric_scooter", "bike_id": "02779b5e20dd6c51ca4594f0041e7794", "lat": 38.92586716666667, "lon": -77.01219216666667, "rental_uris": {"android": "https://dc.lft.to/lastmile_qr_scan", "ios": "https://dc.lft.to/lastmile_qr_scan"}, "is_disabled": 0, "fusion_lat": 0.0, "name": "02779b5e20dd6c51ca4594f0041e7794", "fusion_lon": 0.0}, {"is_reserved": 0, "type": "electric_scooter", "bike_id": "a6d4f9044bf41ae593a404098a34eb19", "lat": 38.92019583333333, "lon": -77.01061483333334, "rental_uris": {"android": "https://dc.lft.to/lastmile_qr_scan", "ios": "https://dc.lft.to/lastmile_qr_scan"}, "is_disabled": 0, "fusion_lat": 0.0, "name": "a6d4f9044bf41ae593a404098a34eb19", "fusion_lon": 0.0}, {"is_reserved": 0, "type": "electric_scooter", "bike_id": "b3735e332c90517a4968ecf32cd127d5", "lat": 38.93000983333334, "lon": -77.0380725, "rental_uris": {"android": "https://dc.lft.to/lastmile_qr_scan", "ios": "https://dc.lft.to/lastmile_qr_scan"}, "is_disabled": 0, "fusion_lat": 0.0, "name": "b3735e332c90517a4968ecf32cd127d5", "fusion_lon": 0.0}, {"is_reserved": 0, "type": "electric_scooter", "bike_id": "880a3f8d329ac55a61bb16a00a0f202f", "lat": 38.9346345, "lon": -77.05808533333334, "rental_uris": {"android": "https://dc.lft.to/lastmile_qr_scan", "ios": "https://dc.lft.to/lastmile_qr_scan"}, "is_disabled": 0, "fusion_lat": 0.0, "name": "880a3f8d329ac55a61bb16a00a0f202f", "fusion_lon": 0.0}, {"is_reserved": 0, "type": "electric_scooter", "bike_id": "6a69977d04d6121625cedf70c65814d6", "lat": 38.902832333333336, "lon": -77.02770766666667, "rental_uris": {"android": "https://dc.lft.to/lastmile_qr_scan", "ios": "https://dc.lft.to/lastmile_qr_scan"}, "is_disabled": 0, "fusion_lat": 0.0, "name": "6a69977d04d6121625cedf70c65814d6", "fusion_lon": 0.0}, {"is_reserved": 0, "type": "electric_scooter", "bike_id": "1e7ec73d90a985cdaac60603153db690", "lat": 38.923268666666665, "lon": -77.0539595, "rental_uris": {"android": "https://dc.lft.to/lastmile_qr_scan", "ios": "https://dc.lft.to/lastmile_qr_scan"}, "is_disabled": 0, "fusion_lat": 0.0, "name": "1e7ec73d90a985cdaac60603153db690", "fusion_lon": 0.0}, {"is_reserved": 0, "type": "electric_scooter", "bike_id": "46bf4cb2defbf8272c14f5e9a6f4d57c", "lat": 38.87665033333333, "lon": -77.00738916666667, "rental_uris": {"android": "https://dc.lft.to/lastmile_qr_scan", "ios": "https://dc.lft.to/lastmile_qr_scan"}, "is_disabled": 0, "fusion_lat": 0.0, "name": "46bf4cb2defbf8272c14f5e9a6f4d57c", "fusion_lon": 0.0}, {"is_reserved": 0, "type": "electric_scooter", "bike_id": "9cd5410bf20fe958403c6bef38c2e16c", "lat": 38.930847666666665, "lon": -77.03497733333333, "rental_uris": {"android": "https://dc.lft.to/lastmile_qr_scan", "ios": "https://dc.lft.to/lastmile_qr_scan"}, "is_disabled": 0, "fusion_lat": 0.0, "name": "9cd5410bf20fe958403c6bef38c2e16c", "fusion_lon": 0.0}, {"is_reserved": 0, "type": "electric_scooter", "bike_id": "59ce1d5f29590d2052ae1ef3f2384f46", "lat": 38.90176916666667, "lon": -77.02488266666667, "rental_uris": {"android": "https://dc.lft.to/lastmile_qr_scan", "ios": "https://dc.lft.to/lastmile_qr_scan"}, "is_disabled": 0, "fusion_lat": 0.0, "name": "59ce1d5f29590d2052ae1ef3f2384f46", "fusion_lon": 0.0}, {"is_reserved": 0, "type": "electric_scooter", "bike_id": "8a674fa744863e7e9238b6826f6b1d39", "lat": 38.898945166666664, "lon": -77.02699183333333, "rental_uris": {"android": "https://dc.lft.to/lastmile_qr_scan", "ios": "https://dc.lft.to/lastmile_qr_scan"}, "is_disabled": 0, "fusion_lat": 0.0, "name": "8a674fa744863e7e9238b6826f6b1d39", "fusion_lon": 0.0}, {"is_reserved": 0, "type": "electric_scooter", "bike_id": "d0783675ee87b0027137c50c5440936a", "lat": 38.92086066666667, "lon": -77.031679, "rental_uris": {"android": "https://dc.lft.to/lastmile_qr_scan", "ios": "https://dc.lft.to/lastmile_qr_scan"}, "is_disabled": 0, "fusion_lat": 0.0, "name": "d0783675ee87b0027137c50c5440936a", "fusion_lon": 0.0}, {"is_reserved": 0, "type": "electric_scooter", "bike_id": "83e3f5e98230209ff34e30d7d051e772", "lat": 38.92024216666667, "lon": -77.0185235, "rental_uris": {"android": "https://dc.lft.to/lastmile_qr_scan", "ios": "https://dc.lft.to/lastmile_qr_scan"}, "is_disabled": 0, "fusion_lat": 0.0, "name": "83e3f5e98230209ff34e30d7d051e772", "fusion_lon": 0.0}, {"is_reserved": 0, "type": "electric_scooter", "bike_id": "95673d8711387303f26dbb48e9ce7c11", "lat": 38.91086933333333, "lon": -77.03841583333333, "rental_uris": {"android": "https://dc.lft.to/lastmile_qr_scan", "ios": "https://dc.lft.to/lastmile_qr_scan"}, "is_disabled": 0, "fusion_lat": 0.0, "name": "95673d8711387303f26dbb48e9ce7c11", "fusion_lon": 0.0}, {"is_reserved": 0, "type": "electric_scooter", "bike_id": "0e1ca4e0ad78923796ab2efbfdfb4794", "lat": 38.94181716666667, "lon": -77.02565916666667, "rental_uris": {"android": "https://dc.lft.to/lastmile_qr_scan", "ios": "https://dc.lft.to/lastmile_qr_scan"}, "is_disabled": 0, "fusion_lat": 0.0, "name": "0e1ca4e0ad78923796ab2efbfdfb4794", "fusion_lon": 0.0}, {"is_reserved": 0, "type": "electric_scooter", "bike_id": "faa8b19d805048240d93f8f25769450d", "lat": 38.9243215, "lon": -77.02026183333334, "rental_uris": {"android": "https://dc.lft.to/lastmile_qr_scan", "ios": "https://dc.lft.to/lastmile_qr_scan"}, "is_disabled": 0, "fusion_lat": 0.0, "name": "faa8b19d805048240d93f8f25769450d", "fusion_lon": 0.0}, {"is_reserved": 0, "type": "electric_scooter", "bike_id": "cb990bd8a088f81742e99d70cff20d11", "lat": 38.903603833333335, "lon": -77.03514466666667, "rental_uris": {"android": "https://dc.lft.to/lastmile_qr_scan", "ios": "https://dc.lft.to/lastmile_qr_scan"}, "is_disabled": 0, "fusion_lat": 0.0, "name": "cb990bd8a088f81742e99d70cff20d11", "fusion_lon": 0.0}, {"is_reserved": 0, "type": "electric_scooter", "bike_id": "03e345183c657705b4bbe4032431f73a", "lat": 38.91028883333333, "lon": -77.034497, "rental_uris": {"android": "https://dc.lft.to/lastmile_qr_scan", "ios": "https://dc.lft.to/lastmile_qr_scan"}, "is_disabled": 0, "fusion_lat": 0.0, "name": "03e345183c657705b4bbe4032431f73a", "fusion_lon": 0.0}, {"is_reserved": 0, "type": "electric_bike", "bike_id": "c188060b823544b57cccf3a0fcd64de2", "lat": 38.9583885, "lon": -76.985965, "rental_uris": {"android": "https://dc.lft.to/lastmile_qr_scan", "ios": "https://dc.lft.to/lastmile_qr_scan"}, "is_disabled": 0, "fusion_lat": 0.0, "name": "c188060b823544b57cccf3a0fcd64de2", "fusion_lon": 0.0}, {"is_reserved": 0, "type": "electric_scooter", "bike_id": "f4c4cbe5940164334361ff7448eb985f", "lat": 38.898039833333335, "lon": -76.99493266666667, "rental_uris": {"android": "https://dc.lft.to/lastmile_qr_scan", "ios": "https://dc.lft.to/lastmile_qr_scan"}, "is_disabled": 0, "fusion_lat": 0.0, "name": "f4c4cbe5940164334361ff7448eb985f", "fusion_lon": 0.0}, {"is_reserved": 0, "type": "electric_scooter", "bike_id": "5563ca712b1d58b9e55607ac40bcec07", "lat": 38.907157, "lon": -77.04510883333333, "rental_uris": {"android": "https://dc.lft.to/lastmile_qr_scan", "ios": "https://dc.lft.to/lastmile_qr_scan"}, "is_disabled": 0, "fusion_lat": 0.0, "name": "5563ca712b1d58b9e55607ac40bcec07", "fusion_lon": 0.0}, {"is_reserved": 0, "type": "electric_scooter", "bike_id": "98f351c55e9f5bb466b36b69ae09a0ff", "lat": 38.907190666666665, "lon": -77.047508, "rental_uris": {"android": "https://dc.lft.to/lastmile_qr_scan", "ios": "https://dc.lft.to/lastmile_qr_scan"}, "is_disabled": 0, "fusion_lat": 0.0, "name": "98f351c55e9f5bb466b36b69ae09a0ff", "fusion_lon": 0.0}, {"is_reserved": 0, "type": "electric_scooter", "bike_id": "0fb10cd7611f4a0de8d20315c0ebbeae", "lat": 38.92915083333333, "lon": -77.0219175, "rental_uris": {"android": "https://dc.lft.to/lastmile_qr_scan", "ios": "https://dc.lft.to/lastmile_qr_scan"}, "is_disabled": 0, "fusion_lat": 0.0, "name": "0fb10cd7611f4a0de8d20315c0ebbeae", "fusion_lon": 0.0}, {"is_reserved": 0, "type": "electric_bike", "bike_id": "bbaf157d2961541984b22888f00c0ef3", "lat": 38.9120995, "lon": -77.0465645, "rental_uris": {"android": "https://dc.lft.to/lastmile_qr_scan", "ios": "https://dc.lft.to/lastmile_qr_scan"}, "is_disabled": 0, "fusion_lat": 0.0, "name": "bbaf157d2961541984b22888f00c0ef3", "fusion_lon": 0.0}, {"is_reserved": 0, "type": "electric_scooter", "bike_id": "c9c2fcb2deb4e3e095f03a027de092d7", "lat": 38.918118666666665, "lon": -77.039602, "rental_uris": {"android": "https://dc.lft.to/lastmile_qr_scan", "ios": "https://dc.lft.to/lastmile_qr_scan"}, "is_disabled": 0, "fusion_lat": 0.0, "name": "c9c2fcb2deb4e3e095f03a027de092d7", "fusion_lon": 0.0}, {"is_reserved": 0, "type": "electric_scooter", "bike_id": "0350935dafc9505cb1661b5aee41fb1d", "lat": 38.88988533333333, "lon": -77.00158516666667, "rental_uris": {"android": "https://dc.lft.to/lastmile_qr_scan", "ios": "https://dc.lft.to/lastmile_qr_scan"}, "is_disabled": 0, "fusion_lat": 0.0, "name": "0350935dafc9505cb1661b5aee41fb1d", "fusion_lon": 0.0}, {"is_reserved": 0, "type": "electric_scooter", "bike_id": "b01a16508a007493a293e11f24c5f0f0", "lat": 38.915116833333336, "lon": -77.00341466666667, "rental_uris": {"android": "https://dc.lft.to/lastmile_qr_scan", "ios": "https://dc.lft.to/lastmile_qr_scan"}, "is_disabled": 0, "fusion_lat": 0.0, "name": "b01a16508a007493a293e11f24c5f0f0", "fusion_lon": 0.0}, {"is_reserved": 0, "type": "electric_scooter", "bike_id": "0d85d663d251c7778148fc23aacf903a", "lat": 38.892256333333336, "lon": -77.04655083333333, "rental_uris": {"android": "https://dc.lft.to/lastmile_qr_scan", "ios": "https://dc.lft.to/lastmile_qr_scan"}, "is_disabled": 0, "fusion_lat": 0.0, "name": "0d85d663d251c7778148fc23aacf903a", "fusion_lon": 0.0}, {"is_reserved": 0, "type": "electric_scooter", "bike_id": "ba065c20749a4926d9f2487714617e0e", "lat": 38.90059683333333, "lon": -77.04531033333333, "rental_uris": {"android": "https://dc.lft.to/lastmile_qr_scan", "ios": "https://dc.lft.to/lastmile_qr_scan"}, "is_disabled": 0, "fusion_lat": 0.0, "name": "ba065c20749a4926d9f2487714617e0e", "fusion_lon": 0.0}, {"is_reserved": 0, "type": "electric_scooter", "bike_id": "03bec11e2637b491b15c9502703c130d", "lat": 38.909656, "lon": -77.04827733333333, "rental_uris": {"android": "https://dc.lft.to/lastmile_qr_scan", "ios": "https://dc.lft.to/lastmile_qr_scan"}, "is_disabled": 0, "fusion_lat": 0.0, "name": "03bec11e2637b491b15c9502703c130d", "fusion_lon": 0.0}, {"is_reserved": 0, "type": "electric_scooter", "bike_id": "110583b3940d458fca9a3ff81e9d9939", "lat": 38.898658, "lon": -77.01959116666667, "rental_uris": {"android": "https://dc.lft.to/lastmile_qr_scan", "ios": "https://dc.lft.to/lastmile_qr_scan"}, "is_disabled": 0, "fusion_lat": 0.0, "name": "110583b3940d458fca9a3ff81e9d9939", "fusion_lon": 0.0}, {"is_reserved": 0, "type": "electric_scooter", "bike_id": "6b5ca4d69dabf9cd7404eb14d88134f0", "lat": 38.94655783333333, "lon": -77.03282, "rental_uris": {"android": "https://dc.lft.to/lastmile_qr_scan", "ios": "https://dc.lft.to/lastmile_qr_scan"}, "is_disabled": 0, "fusion_lat": 0.0, "name": "6b5ca4d69dabf9cd7404eb14d88134f0", "fusion_lon": 0.0}, {"is_reserved": 0, "type": "electric_scooter", "bike_id": "0666a023dcde59a970a872c10f371b0a", "lat": 38.90294866666667, "lon": -77.00206483333334, "rental_uris": {"android": "https://dc.lft.to/lastmile_qr_scan", "ios": "https://dc.lft.to/lastmile_qr_scan"}, "is_disabled": 0, "fusion_lat": 0.0, "name": "0666a023dcde59a970a872c10f371b0a", "fusion_lon": 0.0}, {"is_reserved": 0, "type": "electric_scooter", "bike_id": "07ef081564a04d54ae10c512326d4915", "lat": 38.917068666666665, "lon": -77.03180916666666, "rental_uris": {"android": "https://dc.lft.to/lastmile_qr_scan", "ios": "https://dc.lft.to/lastmile_qr_scan"}, "is_disabled": 0, "fusion_lat": 0.0, "name": "07ef081564a04d54ae10c512326d4915", "fusion_lon": 0.0}, {"is_reserved": 0, "type": "electric_scooter", "bike_id": "3ec9fd37c9e0e3eec82794f0b0bbf9ac", "lat": 38.91588516666667, "lon": -77.021885, "rental_uris": {"android": "https://dc.lft.to/lastmile_qr_scan", "ios": "https://dc.lft.to/lastmile_qr_scan"}, "is_disabled": 0, "fusion_lat": 0.0, "name": "3ec9fd37c9e0e3eec82794f0b0bbf9ac", "fusion_lon": 0.0}, {"is_reserved": 0, "type": "electric_scooter", "bike_id": "c52d05a698e9ffb0e167882466610e9b", "lat": 38.9389715, "lon": -77.03321416666667, "rental_uris": {"android": "https://dc.lft.to/lastmile_qr_scan", "ios": "https://dc.lft.to/lastmile_qr_scan"}, "is_disabled": 0, "fusion_lat": 0.0, "name": "c52d05a698e9ffb0e167882466610e9b", "fusion_lon": 0.0}, {"is_reserved": 0, "type": "electric_scooter", "bike_id": "c0dce0a2135f483270fca0fd01abb8a2", "lat": 38.89906666666667, "lon": -76.93366983333334, "rental_uris": {"android": "https://dc.lft.to/lastmile_qr_scan", "ios": "https://dc.lft.to/lastmile_qr_scan"}, "is_disabled": 0, "fusion_lat": 0.0, "name": "c0dce0a2135f483270fca0fd01abb8a2", "fusion_lon": 0.0}, {"is_reserved": 0, "type": "electric_scooter", "bike_id": "6a1fcfba86d86ddc4fa5a2d70c0633b8", "lat": 38.90033116666667, "lon": -76.99147183333334, "rental_uris": {"android": "https://dc.lft.to/lastmile_qr_scan", "ios": "https://dc.lft.to/lastmile_qr_scan"}, "is_disabled": 0, "fusion_lat": 0.0, "name": "6a1fcfba86d86ddc4fa5a2d70c0633b8", "fusion_lon": 0.0}, {"is_reserved": 0, "type": "electric_scooter", "bike_id": "7680a1c353fd41cf5742be64ec887b23", "lat": 38.9121195, "lon": -77.04593116666666, "rental_uris": {"android": "https://dc.lft.to/lastmile_qr_scan", "ios": "https://dc.lft.to/lastmile_qr_scan"}, "is_disabled": 0, "fusion_lat": 0.0, "name": "7680a1c353fd41cf5742be64ec887b23", "fusion_lon": 0.0}, {"is_reserved": 0, "type": "electric_scooter", "bike_id": "a539b39d50171ee4839cac00342ffeeb", "lat": 38.927615, "lon": -77.06887033333334, "rental_uris": {"android": "https://dc.lft.to/lastmile_qr_scan", "ios": "https://dc.lft.to/lastmile_qr_scan"}, "is_disabled": 0, "fusion_lat": 0.0, "name": "a539b39d50171ee4839cac00342ffeeb", "fusion_lon": 0.0}, {"is_reserved": 0, "type": "electric_scooter", "bike_id": "42aed467fe169201de83b18eaee044a0", "lat": 38.9072165, "lon": -77.0243995, "rental_uris": {"android": "https://dc.lft.to/lastmile_qr_scan", "ios": "https://dc.lft.to/lastmile_qr_scan"}, "is_disabled": 0, "fusion_lat": 0.0, "name": "42aed467fe169201de83b18eaee044a0", "fusion_lon": 0.0}, {"is_reserved": 0, "type": "electric_scooter", "bike_id": "a0abf7f8ac39422b76468c96cfc75273", "lat": 38.92385433333333, "lon": -77.0295445, "rental_uris": {"android": "https://dc.lft.to/lastmile_qr_scan", "ios": "https://dc.lft.to/lastmile_qr_scan"}, "is_disabled": 0, "fusion_lat": 0.0, "name": "a0abf7f8ac39422b76468c96cfc75273", "fusion_lon": 0.0}, {"is_reserved": 0, "type": "electric_scooter", "bike_id": "7f9c50e4db41ab80ddf3554f8d5f34ec", "lat": 38.89245666666667, "lon": -77.03344983333334, "rental_uris": {"android": "https://dc.lft.to/lastmile_qr_scan", "ios": "https://dc.lft.to/lastmile_qr_scan"}, "is_disabled": 0, "fusion_lat": 0.0, "name": "7f9c50e4db41ab80ddf3554f8d5f34ec", "fusion_lon": 0.0}, {"is_reserved": 0, "type": "electric_scooter", "bike_id": "6411e4d572c6fc5d681966befec2a349", "lat": 38.922406333333335, "lon": -77.02242083333333, "rental_uris": {"android": "https://dc.lft.to/lastmile_qr_scan", "ios": "https://dc.lft.to/lastmile_qr_scan"}, "is_disabled": 0, "fusion_lat": 0.0, "name": "6411e4d572c6fc5d681966befec2a349", "fusion_lon": 0.0}, {"is_reserved": 0, "type": "electric_scooter", "bike_id": "a1b7af1c5ae22c0ba64648ef2547719e", "lat": 38.931404, "lon": -77.0383455, "rental_uris": {"android": "https://dc.lft.to/lastmile_qr_scan", "ios": "https://dc.lft.to/lastmile_qr_scan"}, "is_disabled": 0, "fusion_lat": 0.0, "name": "a1b7af1c5ae22c0ba64648ef2547719e", "fusion_lon": 0.0}, {"is_reserved": 0, "type": "electric_bike", "bike_id": "1995d7d9d0a65b950896eeae48ec89b6", "lat": 38.88336416666667, "lon": -76.9362525, "rental_uris": {"android": "https://dc.lft.to/lastmile_qr_scan", "ios": "https://dc.lft.to/lastmile_qr_scan"}, "is_disabled": 0, "fusion_lat": 0.0, "name": "1995d7d9d0a65b950896eeae48ec89b6", "fusion_lon": 0.0}, {"is_reserved": 0, "type": "electric_scooter", "bike_id": "e24140c6bac51b60945ed86fa70cb21a", "lat": 38.93717216666667, "lon": -77.0364215, "rental_uris": {"android": "https://dc.lft.to/lastmile_qr_scan", "ios": "https://dc.lft.to/lastmile_qr_scan"}, "is_disabled": 0, "fusion_lat": 0.0, "name": "e24140c6bac51b60945ed86fa70cb21a", "fusion_lon": 0.0}, {"is_reserved": 0, "type": "electric_scooter", "bike_id": "0320330e8819edf348826c2ae33dd27b", "lat": 38.90099083333333, "lon": -77.04961616666667, "rental_uris": {"android": "https://dc.lft.to/lastmile_qr_scan", "ios": "https://dc.lft.to/lastmile_qr_scan"}, "is_disabled": 0, "fusion_lat": 0.0, "name": "0320330e8819edf348826c2ae33dd27b", "fusion_lon": 0.0}, {"is_reserved": 0, "type": "electric_scooter", "bike_id": "5e4ee3b686fc997878d4f47e4aa1dba9", "lat": 38.90979216666667, "lon": -77.028072, "rental_uris": {"android": "https://dc.lft.to/lastmile_qr_scan", "ios": "https://dc.lft.to/lastmile_qr_scan"}, "is_disabled": 0, "fusion_lat": 0.0, "name": "5e4ee3b686fc997878d4f47e4aa1dba9", "fusion_lon": 0.0}, {"is_reserved": 0, "type": "electric_scooter", "bike_id": "e028677226fdbc175eac24f207cc92fb", "lat": 38.934546833333336, "lon": -77.0294905, "rental_uris": {"android": "https://dc.lft.to/lastmile_qr_scan", "ios": "https://dc.lft.to/lastmile_qr_scan"}, "is_disabled": 0, "fusion_lat": 0.0, "name": "e028677226fdbc175eac24f207cc92fb", "fusion_lon": 0.0}, {"is_reserved": 0, "type": "electric_scooter", "bike_id": "0880d76cb33fc84e3da8ed1257cf6522", "lat": 38.93100783333333, "lon": -77.0349775, "rental_uris": {"android": "https://dc.lft.to/lastmile_qr_scan", "ios": "https://dc.lft.to/lastmile_qr_scan"}, "is_disabled": 0, "fusion_lat": 0.0, "name": "0880d76cb33fc84e3da8ed1257cf6522", "fusion_lon": 0.0}, {"is_reserved": 0, "type": "electric_scooter", "bike_id": "29bc1e7b59644f9dc661bf74da7c6c9a", "lat": 38.93046983333333, "lon": -77.07769316666666, "rental_uris": {"android": "https://dc.lft.to/lastmile_qr_scan", "ios": "https://dc.lft.to/lastmile_qr_scan"}, "is_disabled": 0, "fusion_lat": 0.0, "name": "29bc1e7b59644f9dc661bf74da7c6c9a", "fusion_lon": 0.0}, {"is_reserved": 0, "type": "electric_scooter", "bike_id": "235787b80ea30d8a002389894409a6db", "lat": 38.89737916666667, "lon": -77.0217075, "rental_uris": {"android": "https://dc.lft.to/lastmile_qr_scan", "ios": "https://dc.lft.to/lastmile_qr_scan"}, "is_disabled": 0, "fusion_lat": 0.0, "name": "235787b80ea30d8a002389894409a6db", "fusion_lon": 0.0}, {"is_reserved": 0, "type": "electric_scooter", "bike_id": "78ca61319f21e6dea56498dea35a21b4", "lat": 38.87937183333333, "lon": -77.016709, "rental_uris": {"android": "https://dc.lft.to/lastmile_qr_scan", "ios": "https://dc.lft.to/lastmile_qr_scan"}, "is_disabled": 0, "fusion_lat": 0.0, "name": "78ca61319f21e6dea56498dea35a21b4", "fusion_lon": 0.0}, {"is_reserved": 0, "type": "electric_scooter", "bike_id": "90b2da3050cef4f945c7405a2b0cfb7c", "lat": 38.92378683333333, "lon": -77.02889566666667, "rental_uris": {"android": "https://dc.lft.to/lastmile_qr_scan", "ios": "https://dc.lft.to/lastmile_qr_scan"}, "is_disabled": 0, "fusion_lat": 0.0, "name": "90b2da3050cef4f945c7405a2b0cfb7c", "fusion_lon": 0.0}, {"is_reserved": 0, "type": "electric_scooter", "bike_id": "e77b7c519848bc9c40e3834281674566", "lat": 38.91004566666667, "lon": -76.99412033333333, "rental_uris": {"android": "https://dc.lft.to/lastmile_qr_scan", "ios": "https://dc.lft.to/lastmile_qr_scan"}, "is_disabled": 0, "fusion_lat": 0.0, "name": "e77b7c519848bc9c40e3834281674566", "fusion_lon": 0.0}, {"is_reserved": 0, "type": "electric_scooter", "bike_id": "d6162f88e8a8ea35ce1f49e9d29cc278", "lat": 38.874711166666664, "lon": -77.00546683333333, "rental_uris": {"android": "https://dc.lft.to/lastmile_qr_scan", "ios": "https://dc.lft.to/lastmile_qr_scan"}, "is_disabled": 0, "fusion_lat": 0.0, "name": "d6162f88e8a8ea35ce1f49e9d29cc278", "fusion_lon": 0.0}, {"is_reserved": 0, "type": "electric_scooter", "bike_id": "2162e385cd75aea7565a56b687f1763f", "lat": 38.901107833333334, "lon": -77.05995333333334, "rental_uris": {"android": "https://dc.lft.to/lastmile_qr_scan", "ios": "https://dc.lft.to/lastmile_qr_scan"}, "is_disabled": 0, "fusion_lat": 0.0, "name": "2162e385cd75aea7565a56b687f1763f", "fusion_lon": 0.0}, {"is_reserved": 0, "type": "electric_scooter", "bike_id": "e80e6c11248ac1a537acf6f615be91af", "lat": 38.924376333333335, "lon": -77.05211733333333, "rental_uris": {"android": "https://dc.lft.to/lastmile_qr_scan", "ios": "https://dc.lft.to/lastmile_qr_scan"}, "is_disabled": 0, "fusion_lat": 0.0, "name": "e80e6c11248ac1a537acf6f615be91af", "fusion_lon": 0.0}, {"is_reserved": 0, "type": "electric_scooter", "bike_id": "926b4f9d39a96a3ef14b55af4e243d95", "lat": 38.88767383333333, "lon": -76.99157216666667, "rental_uris": {"android": "https://dc.lft.to/lastmile_qr_scan", "ios": "https://dc.lft.to/lastmile_qr_scan"}, "is_disabled": 0, "fusion_lat": 0.0, "name": "926b4f9d39a96a3ef14b55af4e243d95", "fusion_lon": 0.0}, {"is_reserved": 0, "type": "electric_scooter", "bike_id": "151c7d15c68c4f5309f245c11f24c1be", "lat": 38.9023475, "lon": -77.04168316666667, "rental_uris": {"android": "https://dc.lft.to/lastmile_qr_scan", "ios": "https://dc.lft.to/lastmile_qr_scan"}, "is_disabled": 0, "fusion_lat": 0.0, "name": "151c7d15c68c4f5309f245c11f24c1be", "fusion_lon": 0.0}, {"is_reserved": 0, "type": "electric_bike", "bike_id": "b1428156071283e54c63933391a32f79", "lat": 38.958685333333335, "lon": -76.97052433333333, "rental_uris": {"android": "https://dc.lft.to/lastmile_qr_scan", "ios": "https://dc.lft.to/lastmile_qr_scan"}, "is_disabled": 0, "fusion_lat": 0.0, "name": "b1428156071283e54c63933391a32f79", "fusion_lon": 0.0}, {"is_reserved": 0, "type": "electric_scooter", "bike_id": "89bccbccd580a35be91d316049aaf409", "lat": 38.93117983333333, "lon": -77.02314833333334, "rental_uris": {"android": "https://dc.lft.to/lastmile_qr_scan", "ios": "https://dc.lft.to/lastmile_qr_scan"}, "is_disabled": 0, "fusion_lat": 0.0, "name": "89bccbccd580a35be91d316049aaf409", "fusion_lon": 0.0}, {"is_reserved": 0, "type": "electric_scooter", "bike_id": "23afbf69f5704e74508c541fc6307daa", "lat": 38.89622766666667, "lon": -76.99730116666667, "rental_uris": {"android": "https://dc.lft.to/lastmile_qr_scan", "ios": "https://dc.lft.to/lastmile_qr_scan"}, "is_disabled": 0, "fusion_lat": 0.0, "name": "23afbf69f5704e74508c541fc6307daa", "fusion_lon": 0.0}, {"is_reserved": 0, "type": "electric_scooter", "bike_id": "96d41852beb25a57f83b4c1966725a92", "lat": 38.901489833333336, "lon": -77.03475033333333, "rental_uris": {"android": "https://dc.lft.to/lastmile_qr_scan", "ios": "https://dc.lft.to/lastmile_qr_scan"}, "is_disabled": 0, "fusion_lat": 0.0, "name": "96d41852beb25a57f83b4c1966725a92", "fusion_lon": 0.0}, {"is_reserved": 0, "type": "electric_bike", "bike_id": "9a7f617185902796525b0bdabd4d537e", "lat": 38.841069166666664, "lon": -77.08942316666666, "rental_uris": {"android": "https://dc.lft.to/lastmile_qr_scan", "ios": "https://dc.lft.to/lastmile_qr_scan"}, "is_disabled": 0, "fusion_lat": 0.0, "name": "9a7f617185902796525b0bdabd4d537e", "fusion_lon": 0.0}, {"is_reserved": 0, "type": "electric_scooter", "bike_id": "c55d3f03a07bcbff1386c43a7a94b4bd", "lat": 38.90015983333333, "lon": -76.9917245, "rental_uris": {"android": "https://dc.lft.to/lastmile_qr_scan", "ios": "https://dc.lft.to/lastmile_qr_scan"}, "is_disabled": 0, "fusion_lat": 0.0, "name": "c55d3f03a07bcbff1386c43a7a94b4bd", "fusion_lon": 0.0}, {"is_reserved": 0, "type": "electric_scooter", "bike_id": "74f26179f0f95995e994d4fa0f525495", "lat": 38.9079015, "lon": -77.02812866666666, "rental_uris": {"android": "https://dc.lft.to/lastmile_qr_scan", "ios": "https://dc.lft.to/lastmile_qr_scan"}, "is_disabled": 0, "fusion_lat": 0.0, "name": "74f26179f0f95995e994d4fa0f525495", "fusion_lon": 0.0}, {"is_reserved": 0, "type": "electric_scooter", "bike_id": "f14de6567ef8430086a1101fdbe3ab25", "lat": 38.902202, "lon": -77.0511275, "rental_uris": {"android": "https://dc.lft.to/lastmile_qr_scan", "ios": "https://dc.lft.to/lastmile_qr_scan"}, "is_disabled": 0, "fusion_lat": 0.0, "name": "f14de6567ef8430086a1101fdbe3ab25", "fusion_lon": 0.0}, {"is_reserved": 0, "type": "electric_scooter", "bike_id": "10674441556fd01794a40254b7f6d927", "lat": 38.901083, "lon": -77.03166216666666, "rental_uris": {"android": "https://dc.lft.to/lastmile_qr_scan", "ios": "https://dc.lft.to/lastmile_qr_scan"}, "is_disabled": 0, "fusion_lat": 0.0, "name": "10674441556fd01794a40254b7f6d927", "fusion_lon": 0.0}, {"is_reserved": 0, "type": "electric_scooter", "bike_id": "086903c54af4b93dc6e8341dc0023b61", "lat": 38.882988166666664, "lon": -76.94852866666666, "rental_uris": {"android": "https://dc.lft.to/lastmile_qr_scan", "ios": "https://dc.lft.to/lastmile_qr_scan"}, "is_disabled": 0, "fusion_lat": 0.0, "name": "086903c54af4b93dc6e8341dc0023b61", "fusion_lon": 0.0}, {"is_reserved": 0, "type": "electric_scooter", "bike_id": "d25de752ea01e4e6f35b3f2817775446", "lat": 38.88408283333333, "lon": -76.98588116666667, "rental_uris": {"android": "https://dc.lft.to/lastmile_qr_scan", "ios": "https://dc.lft.to/lastmile_qr_scan"}, "is_disabled": 0, "fusion_lat": 0.0, "name": "d25de752ea01e4e6f35b3f2817775446", "fusion_lon": 0.0}, {"is_reserved": 0, "type": "electric_scooter", "bike_id": "8cd69f06f121cf734b512d86c5fdbe08", "lat": 38.90414416666667, "lon": -77.025089, "rental_uris": {"android": "https://dc.lft.to/lastmile_qr_scan", "ios": "https://dc.lft.to/lastmile_qr_scan"}, "is_disabled": 0, "fusion_lat": 0.0, "name": "8cd69f06f121cf734b512d86c5fdbe08", "fusion_lon": 0.0}, {"is_reserved": 0, "type": "electric_scooter", "bike_id": "0f2909d20d5be82e401a172ffc18cca5", "lat": 38.9047365, "lon": -77.03450866666667, "rental_uris": {"android": "https://dc.lft.to/lastmile_qr_scan", "ios": "https://dc.lft.to/lastmile_qr_scan"}, "is_disabled": 0, "fusion_lat": 0.0, "name": "0f2909d20d5be82e401a172ffc18cca5", "fusion_lon": 0.0}, {"is_reserved": 0, "type": "electric_scooter", "bike_id": "c0dee00c5b912f828570631d5d543cde", "lat": 38.91797416666667, "lon": -77.02324916666667, "rental_uris": {"android": "https://dc.lft.to/lastmile_qr_scan", "ios": "https://dc.lft.to/lastmile_qr_scan"}, "is_disabled": 0, "fusion_lat": 0.0, "name": "c0dee00c5b912f828570631d5d543cde", "fusion_lon": 0.0}, {"is_reserved": 0, "type": "electric_scooter", "bike_id": "e37456459fec103162c76fffe9db29f2", "lat": 38.9202765, "lon": -77.0103815, "rental_uris": {"android": "https://dc.lft.to/lastmile_qr_scan", "ios": "https://dc.lft.to/lastmile_qr_scan"}, "is_disabled": 0, "fusion_lat": 0.0, "name": "e37456459fec103162c76fffe9db29f2", "fusion_lon": 0.0}, {"is_reserved": 0, "type": "electric_scooter", "bike_id": "24aca7a3bfc2efe5b8c2313d820dcdd2", "lat": 38.9061785, "lon": -77.07020216666666, "rental_uris": {"android": "https://dc.lft.to/lastmile_qr_scan", "ios": "https://dc.lft.to/lastmile_qr_scan"}, "is_disabled": 0, "fusion_lat": 0.0, "name": "24aca7a3bfc2efe5b8c2313d820dcdd2", "fusion_lon": 0.0}, {"is_reserved": 0, "type": "electric_scooter", "bike_id": "cfd5f4265ace8c26046fd08893e07ae0", "lat": 38.88178833333333, "lon": -77.01765233333333, "rental_uris": {"android": "https://dc.lft.to/lastmile_qr_scan", "ios": "https://dc.lft.to/lastmile_qr_scan"}, "is_disabled": 0, "fusion_lat": 0.0, "name": "cfd5f4265ace8c26046fd08893e07ae0", "fusion_lon": 0.0}, {"is_reserved": 0, "type": "electric_scooter", "bike_id": "a66bc009eac1b6da10a62d0f1b171a65", "lat": 38.9207165, "lon": -77.07459016666667, "rental_uris": {"android": "https://dc.lft.to/lastmile_qr_scan", "ios": "https://dc.lft.to/lastmile_qr_scan"}, "is_disabled": 0, "fusion_lat": 0.0, "name": "a66bc009eac1b6da10a62d0f1b171a65", "fusion_lon": 0.0}, {"is_reserved": 0, "type": "electric_scooter", "bike_id": "006b83297d3fcbe9fe1dafe2079c550b", "lat": 38.921115666666665, "lon": -77.03008966666667, "rental_uris": {"android": "https://dc.lft.to/lastmile_qr_scan", "ios": "https://dc.lft.to/lastmile_qr_scan"}, "is_disabled": 0, "fusion_lat": 0.0, "name": "006b83297d3fcbe9fe1dafe2079c550b", "fusion_lon": 0.0}, {"is_reserved": 0, "type": "electric_scooter", "bike_id": "2132e05ef3bbb7f51cb467a6c15cb329", "lat": 38.90532683333333, "lon": -77.06269516666667, "rental_uris": {"android": "https://dc.lft.to/lastmile_qr_scan", "ios": "https://dc.lft.to/lastmile_qr_scan"}, "is_disabled": 0, "fusion_lat": 0.0, "name": "2132e05ef3bbb7f51cb467a6c15cb329", "fusion_lon": 0.0}, {"is_reserved": 0, "type": "electric_scooter", "bike_id": "09c665a780481647d145f94c3d0558f0", "lat": 38.89518866666667, "lon": -77.011007, "rental_uris": {"android": "https://dc.lft.to/lastmile_qr_scan", "ios": "https://dc.lft.to/lastmile_qr_scan"}, "is_disabled": 0, "fusion_lat": 0.0, "name": "09c665a780481647d145f94c3d0558f0", "fusion_lon": 0.0}, {"is_reserved": 0, "type": "electric_scooter", "bike_id": "23046cf2cac40cd290931c878685081e", "lat": 38.897252333333334, "lon": -77.02016833333333, "rental_uris": {"android": "https://dc.lft.to/lastmile_qr_scan", "ios": "https://dc.lft.to/lastmile_qr_scan"}, "is_disabled": 0, "fusion_lat": 0.0, "name": "23046cf2cac40cd290931c878685081e", "fusion_lon": 0.0}, {"is_reserved": 0, "type": "electric_scooter", "bike_id": "aa29fee0509b1fa2809261a08da23c45", "lat": 38.92401733333333, "lon": -77.029718, "rental_uris": {"android": "https://dc.lft.to/lastmile_qr_scan", "ios": "https://dc.lft.to/lastmile_qr_scan"}, "is_disabled": 0, "fusion_lat": 0.0, "name": "aa29fee0509b1fa2809261a08da23c45", "fusion_lon": 0.0}, {"is_reserved": 0, "type": "electric_scooter", "bike_id": "cebca183383967ac4432f115c19e4efd", "lat": 38.89928316666666, "lon": -77.02678033333333, "rental_uris": {"android": "https://dc.lft.to/lastmile_qr_scan", "ios": "https://dc.lft.to/lastmile_qr_scan"}, "is_disabled": 0, "fusion_lat": 0.0, "name": "cebca183383967ac4432f115c19e4efd", "fusion_lon": 0.0}, {"is_reserved": 0, "type": "electric_scooter", "bike_id": "1cb305c0b5da94fc13dd6d523e318a06", "lat": 38.90032516666667, "lon": -77.00195733333334, "rental_uris": {"android": "https://dc.lft.to/lastmile_qr_scan", "ios": "https://dc.lft.to/lastmile_qr_scan"}, "is_disabled": 0, "fusion_lat": 0.0, "name": "1cb305c0b5da94fc13dd6d523e318a06", "fusion_lon": 0.0}, {"is_reserved": 0, "type": "electric_scooter", "bike_id": "58b7377baee5eb399d83c98a7b5d752f", "lat": 38.913328, "lon": -77.04999316666667, "rental_uris": {"android": "https://dc.lft.to/lastmile_qr_scan", "ios": "https://dc.lft.to/lastmile_qr_scan"}, "is_disabled": 0, "fusion_lat": 0.0, "name": "58b7377baee5eb399d83c98a7b5d752f", "fusion_lon": 0.0}, {"is_reserved": 0, "type": "electric_scooter", "bike_id": "c93585d88afb4f7d6280e1991c40933a", "lat": 38.9073555, "lon": -77.02442033333334, "rental_uris": {"android": "https://dc.lft.to/lastmile_qr_scan", "ios": "https://dc.lft.to/lastmile_qr_scan"}, "is_disabled": 0, "fusion_lat": 0.0, "name": "c93585d88afb4f7d6280e1991c40933a", "fusion_lon": 0.0}, {"is_reserved": 0, "type": "electric_scooter", "bike_id": "1486eecdfbe8cc5bbf15dfb881067012", "lat": 38.916157, "lon": -77.048776, "rental_uris": {"android": "https://dc.lft.to/lastmile_qr_scan", "ios": "https://dc.lft.to/lastmile_qr_scan"}, "is_disabled": 0, "fusion_lat": 0.0, "name": "1486eecdfbe8cc5bbf15dfb881067012", "fusion_lon": 0.0}, {"is_reserved": 0, "type": "electric_scooter", "bike_id": "53c1f5c93e79958d8edad4bd4bf48ea9", "lat": 38.91992033333333, "lon": -77.03469533333333, "rental_uris": {"android": "https://dc.lft.to/lastmile_qr_scan", "ios": "https://dc.lft.to/lastmile_qr_scan"}, "is_disabled": 0, "fusion_lat": 0.0, "name": "53c1f5c93e79958d8edad4bd4bf48ea9", "fusion_lon": 0.0}, {"is_reserved": 0, "type": "electric_scooter", "bike_id": "83e1aae5a16589f3bc9e56360196c9eb", "lat": 38.926139666666664, "lon": -77.056504, "rental_uris": {"android": "https://dc.lft.to/lastmile_qr_scan", "ios": "https://dc.lft.to/lastmile_qr_scan"}, "is_disabled": 0, "fusion_lat": 0.0, "name": "83e1aae5a16589f3bc9e56360196c9eb", "fusion_lon": 0.0}, {"is_reserved": 0, "type": "electric_scooter", "bike_id": "45b313ba6bec08dcd634d5777d5765ac", "lat": 38.89625616666667, "lon": -77.032071, "rental_uris": {"android": "https://dc.lft.to/lastmile_qr_scan", "ios": "https://dc.lft.to/lastmile_qr_scan"}, "is_disabled": 0, "fusion_lat": 0.0, "name": "45b313ba6bec08dcd634d5777d5765ac", "fusion_lon": 0.0}, {"is_reserved": 0, "type": "electric_scooter", "bike_id": "282ccc58dd7f16f12fd6c0b30acb4f6b", "lat": 38.937071333333336, "lon": -77.056023, "rental_uris": {"android": "https://dc.lft.to/lastmile_qr_scan", "ios": "https://dc.lft.to/lastmile_qr_scan"}, "is_disabled": 0, "fusion_lat": 0.0, "name": "282ccc58dd7f16f12fd6c0b30acb4f6b", "fusion_lon": 0.0}, {"is_reserved": 0, "type": "electric_scooter", "bike_id": "ac7c160851a0e061b5bb95edf5b80949", "lat": 38.89661183333333, "lon": -77.04340616666667, "rental_uris": {"android": "https://dc.lft.to/lastmile_qr_scan", "ios": "https://dc.lft.to/lastmile_qr_scan"}, "is_disabled": 0, "fusion_lat": 0.0, "name": "ac7c160851a0e061b5bb95edf5b80949", "fusion_lon": 0.0}, {"is_reserved": 0, "type": "electric_scooter", "bike_id": "12e8f83521f1fb61bcd852a218268e1c", "lat": 38.932786666666665, "lon": -76.9853415, "rental_uris": {"android": "https://dc.lft.to/lastmile_qr_scan", "ios": "https://dc.lft.to/lastmile_qr_scan"}, "is_disabled": 0, "fusion_lat": 0.0, "name": "12e8f83521f1fb61bcd852a218268e1c", "fusion_lon": 0.0}, {"is_reserved": 0, "type": "electric_bike", "bike_id": "00763fbd33672e0198dfb2cf1821043c", "lat": 38.869227333333335, "lon": -76.95960366666667, "rental_uris": {"android": "https://dc.lft.to/lastmile_qr_scan", "ios": "https://dc.lft.to/lastmile_qr_scan"}, "is_disabled": 0, "fusion_lat": 0.0, "name": "00763fbd33672e0198dfb2cf1821043c", "fusion_lon": 0.0}, {"is_reserved": 0, "type": "electric_scooter", "bike_id": "583b4f24a372d5c800a9f95644959d12", "lat": 38.8950715, "lon": -76.99217833333333, "rental_uris": {"android": "https://dc.lft.to/lastmile_qr_scan", "ios": "https://dc.lft.to/lastmile_qr_scan"}, "is_disabled": 0, "fusion_lat": 0.0, "name": "583b4f24a372d5c800a9f95644959d12", "fusion_lon": 0.0}, {"is_reserved": 0, "type": "electric_scooter", "bike_id": "cad75d3bc2ef8365d4a55127e49654bd", "lat": 38.89220533333334, "lon": -77.02310016666667, "rental_uris": {"android": "https://dc.lft.to/lastmile_qr_scan", "ios": "https://dc.lft.to/lastmile_qr_scan"}, "is_disabled": 0, "fusion_lat": 0.0, "name": "cad75d3bc2ef8365d4a55127e49654bd", "fusion_lon": 0.0}, {"is_reserved": 0, "type": "electric_scooter", "bike_id": "576c6237f547328b761eec442391915e", "lat": 38.910036166666664, "lon": -77.04424233333333, "rental_uris": {"android": "https://dc.lft.to/lastmile_qr_scan", "ios": "https://dc.lft.to/lastmile_qr_scan"}, "is_disabled": 0, "fusion_lat": 0.0, "name": "576c6237f547328b761eec442391915e", "fusion_lon": 0.0}, {"is_reserved": 0, "type": "electric_scooter", "bike_id": "3488f7257ec37995fedcfb903a5b8e0b", "lat": 38.92204366666667, "lon": -77.020326, "rental_uris": {"android": "https://dc.lft.to/lastmile_qr_scan", "ios": "https://dc.lft.to/lastmile_qr_scan"}, "is_disabled": 0, "fusion_lat": 0.0, "name": "3488f7257ec37995fedcfb903a5b8e0b", "fusion_lon": 0.0}, {"is_reserved": 0, "type": "electric_scooter", "bike_id": "7be827cd337816d2046c21a9b3ec8cf3", "lat": 38.91419666666667, "lon": -77.0317515, "rental_uris": {"android": "https://dc.lft.to/lastmile_qr_scan", "ios": "https://dc.lft.to/lastmile_qr_scan"}, "is_disabled": 0, "fusion_lat": 0.0, "name": "7be827cd337816d2046c21a9b3ec8cf3", "fusion_lon": 0.0}, {"is_reserved": 0, "type": "electric_scooter", "bike_id": "c4a502fb4dc7fb2c2f1cfcbf55ecc49e", "lat": 38.89774, "lon": -77.0478575, "rental_uris": {"android": "https://dc.lft.to/lastmile_qr_scan", "ios": "https://dc.lft.to/lastmile_qr_scan"}, "is_disabled": 0, "fusion_lat": 0.0, "name": "c4a502fb4dc7fb2c2f1cfcbf55ecc49e", "fusion_lon": 0.0}, {"is_reserved": 0, "type": "electric_scooter", "bike_id": "d0c73882c467b45c336de3e07cc0906b", "lat": 38.89223366666667, "lon": -77.0436425, "rental_uris": {"android": "https://dc.lft.to/lastmile_qr_scan", "ios": "https://dc.lft.to/lastmile_qr_scan"}, "is_disabled": 0, "fusion_lat": 0.0, "name": "d0c73882c467b45c336de3e07cc0906b", "fusion_lon": 0.0}, {"is_reserved": 0, "type": "electric_bike", "bike_id": "573f5b8a81342cbc32843f3c947cd25d", "lat": 38.87087733333333, "lon": -77.133308, "rental_uris": {"android": "https://dc.lft.to/lastmile_qr_scan", "ios": "https://dc.lft.to/lastmile_qr_scan"}, "is_disabled": 0, "fusion_lat": 0.0, "name": "573f5b8a81342cbc32843f3c947cd25d", "fusion_lon": 0.0}, {"is_reserved": 0, "type": "electric_scooter", "bike_id": "cf838d03b83cbe470fb62e7f6c8bfcbb", "lat": 38.910148666666664, "lon": -76.99369783333333, "rental_uris": {"android": "https://dc.lft.to/lastmile_qr_scan", "ios": "https://dc.lft.to/lastmile_qr_scan"}, "is_disabled": 0, "fusion_lat": 0.0, "name": "cf838d03b83cbe470fb62e7f6c8bfcbb", "fusion_lon": 0.0}, {"is_reserved": 0, "type": "electric_scooter", "bike_id": "133eb1c9743d49b65ac8f4d68b1b2d3c", "lat": 38.9171625, "lon": -77.0304165, "rental_uris": {"android": "https://dc.lft.to/lastmile_qr_scan", "ios": "https://dc.lft.to/lastmile_qr_scan"}, "is_disabled": 0, "fusion_lat": 0.0, "name": "133eb1c9743d49b65ac8f4d68b1b2d3c", "fusion_lon": 0.0}, {"is_reserved": 0, "type": "electric_scooter", "bike_id": "215c22daa14cbea625321442e41a79b0", "lat": 38.874723, "lon": -77.00336166666666, "rental_uris": {"android": "https://dc.lft.to/lastmile_qr_scan", "ios": "https://dc.lft.to/lastmile_qr_scan"}, "is_disabled": 0, "fusion_lat": 0.0, "name": "215c22daa14cbea625321442e41a79b0", "fusion_lon": 0.0}, {"is_reserved": 0, "type": "electric_scooter", "bike_id": "1fa87f37c95cde8c05e6b2912820a8df", "lat": 38.900153333333336, "lon": -77.0004075, "rental_uris": {"android": "https://dc.lft.to/lastmile_qr_scan", "ios": "https://dc.lft.to/lastmile_qr_scan"}, "is_disabled": 0, "fusion_lat": 0.0, "name": "1fa87f37c95cde8c05e6b2912820a8df", "fusion_lon": 0.0}, {"is_reserved": 0, "type": "electric_scooter", "bike_id": "837e1182de1b27bf53bbb0a9ad5c0aa0", "lat": 38.904107, "lon": -77.020992, "rental_uris": {"android": "https://dc.lft.to/lastmile_qr_scan", "ios": "https://dc.lft.to/lastmile_qr_scan"}, "is_disabled": 0, "fusion_lat": 0.0, "name": "837e1182de1b27bf53bbb0a9ad5c0aa0", "fusion_lon": 0.0}, {"is_reserved": 0, "type": "electric_scooter", "bike_id": "0df4b94b3003b0699821fdcc82dae90f", "lat": 38.900330833333335, "lon": -76.99144616666666, "rental_uris": {"android": "https://dc.lft.to/lastmile_qr_scan", "ios": "https://dc.lft.to/lastmile_qr_scan"}, "is_disabled": 0, "fusion_lat": 0.0, "name": "0df4b94b3003b0699821fdcc82dae90f", "fusion_lon": 0.0}, {"is_reserved": 0, "type": "electric_bike", "bike_id": "7d168aa01f28fcd6d1eda06ce99d7112", "lat": 38.99932283333333, "lon": -77.05133183333334, "rental_uris": {"android": "https://dc.lft.to/lastmile_qr_scan", "ios": "https://dc.lft.to/lastmile_qr_scan"}, "is_disabled": 0, "fusion_lat": 0.0, "name": "7d168aa01f28fcd6d1eda06ce99d7112", "fusion_lon": 0.0}, {"is_reserved": 0, "type": "electric_scooter", "bike_id": "515b02f7f26a8aa1a011b874138d639e", "lat": 38.912559, "lon": -77.07518016666667, "rental_uris": {"android": "https://dc.lft.to/lastmile_qr_scan", "ios": "https://dc.lft.to/lastmile_qr_scan"}, "is_disabled": 0, "fusion_lat": 0.0, "name": "515b02f7f26a8aa1a011b874138d639e", "fusion_lon": 0.0}, {"is_reserved": 0, "type": "electric_scooter", "bike_id": "6032ed6d6715a9b05ad021f9ba93f130", "lat": 38.91878766666667, "lon": -77.03502866666666, "rental_uris": {"android": "https://dc.lft.to/lastmile_qr_scan", "ios": "https://dc.lft.to/lastmile_qr_scan"}, "is_disabled": 0, "fusion_lat": 0.0, "name": "6032ed6d6715a9b05ad021f9ba93f130", "fusion_lon": 0.0}, {"is_reserved": 0, "type": "electric_scooter", "bike_id": "3c92448c03a0bca52764bef1d608592e", "lat": 38.893444833333334, "lon": -77.02795466666667, "rental_uris": {"android": "https://dc.lft.to/lastmile_qr_scan", "ios": "https://dc.lft.to/lastmile_qr_scan"}, "is_disabled": 0, "fusion_lat": 0.0, "name": "3c92448c03a0bca52764bef1d608592e", "fusion_lon": 0.0}, {"is_reserved": 0, "type": "electric_scooter", "bike_id": "12d062121fe7c9a9a1bd41b9d7b6874e", "lat": 38.907307833333334, "lon": -77.03187966666667, "rental_uris": {"android": "https://dc.lft.to/lastmile_qr_scan", "ios": "https://dc.lft.to/lastmile_qr_scan"}, "is_disabled": 0, "fusion_lat": 0.0, "name": "12d062121fe7c9a9a1bd41b9d7b6874e", "fusion_lon": 0.0}, {"is_reserved": 0, "type": "electric_scooter", "bike_id": "8708f3b492f53cf8caa2d84ede614ac7", "lat": 38.9248935, "lon": -77.03221866666667, "rental_uris": {"android": "https://dc.lft.to/lastmile_qr_scan", "ios": "https://dc.lft.to/lastmile_qr_scan"}, "is_disabled": 0, "fusion_lat": 0.0, "name": "8708f3b492f53cf8caa2d84ede614ac7", "fusion_lon": 0.0}, {"is_reserved": 0, "type": "electric_bike", "bike_id": "40e080bc18054f9e72d8e67a1ecad3db", "lat": 38.97267166666666, "lon": -77.14969466666666, "rental_uris": {"android": "https://dc.lft.to/lastmile_qr_scan", "ios": "https://dc.lft.to/lastmile_qr_scan"}, "is_disabled": 0, "fusion_lat": 0.0, "name": "40e080bc18054f9e72d8e67a1ecad3db", "fusion_lon": 0.0}, {"is_reserved": 0, "type": "electric_scooter", "bike_id": "23b5b22b1a78eb5e12ead535e682aeda", "lat": 38.90556616666667, "lon": -77.05693483333333, "rental_uris": {"android": "https://dc.lft.to/lastmile_qr_scan", "ios": "https://dc.lft.to/lastmile_qr_scan"}, "is_disabled": 0, "fusion_lat": 0.0, "name": "23b5b22b1a78eb5e12ead535e682aeda", "fusion_lon": 0.0}, {"is_reserved": 0, "type": "electric_scooter", "bike_id": "fd52abd3e0855e220cf26b25af4f888f", "lat": 38.8747075, "lon": -77.003353, "rental_uris": {"android": "https://dc.lft.to/lastmile_qr_scan", "ios": "https://dc.lft.to/lastmile_qr_scan"}, "is_disabled": 0, "fusion_lat": 0.0, "name": "fd52abd3e0855e220cf26b25af4f888f", "fusion_lon": 0.0}, {"is_reserved": 0, "type": "electric_scooter", "bike_id": "07885588023c35c9ecf345cb79e1f3e3", "lat": 38.92340016666667, "lon": -77.01899516666667, "rental_uris": {"android": "https://dc.lft.to/lastmile_qr_scan", "ios": "https://dc.lft.to/lastmile_qr_scan"}, "is_disabled": 0, "fusion_lat": 0.0, "name": "07885588023c35c9ecf345cb79e1f3e3", "fusion_lon": 0.0}, {"is_reserved": 0, "type": "electric_scooter", "bike_id": "f9bb31a5112d3cc43330f19cecfdd03f", "lat": 38.89835816666667, "lon": -77.01286783333333, "rental_uris": {"android": "https://dc.lft.to/lastmile_qr_scan", "ios": "https://dc.lft.to/lastmile_qr_scan"}, "is_disabled": 0, "fusion_lat": 0.0, "name": "f9bb31a5112d3cc43330f19cecfdd03f", "fusion_lon": 0.0}, {"is_reserved": 0, "type": "electric_scooter", "bike_id": "2c35985b47a28bda4e904870ee82de59", "lat": 38.89218983333333, "lon": -77.04362483333334, "rental_uris": {"android": "https://dc.lft.to/lastmile_qr_scan", "ios": "https://dc.lft.to/lastmile_qr_scan"}, "is_disabled": 0, "fusion_lat": 0.0, "name": "2c35985b47a28bda4e904870ee82de59", "fusion_lon": 0.0}, {"is_reserved": 0, "type": "electric_scooter", "bike_id": "e9baac35706a6063ff891241b7af4aa6", "lat": 38.91719283333333, "lon": -77.07280733333333, "rental_uris": {"android": "https://dc.lft.to/lastmile_qr_scan", "ios": "https://dc.lft.to/lastmile_qr_scan"}, "is_disabled": 0, "fusion_lat": 0.0, "name": "e9baac35706a6063ff891241b7af4aa6", "fusion_lon": 0.0}, {"is_reserved": 0, "type": "electric_scooter", "bike_id": "fdb886d836bbaec5a9cfd1505a6822cd", "lat": 38.9192215, "lon": -77.031964, "rental_uris": {"android": "https://dc.lft.to/lastmile_qr_scan", "ios": "https://dc.lft.to/lastmile_qr_scan"}, "is_disabled": 0, "fusion_lat": 0.0, "name": "fdb886d836bbaec5a9cfd1505a6822cd", "fusion_lon": 0.0}, {"is_reserved": 0, "type": "electric_scooter", "bike_id": "55688a6ed2ef05d341d95ed499dcfe36", "lat": 38.9058185, "lon": -77.04171616666666, "rental_uris": {"android": "https://dc.lft.to/lastmile_qr_scan", "ios": "https://dc.lft.to/lastmile_qr_scan"}, "is_disabled": 0, "fusion_lat": 0.0, "name": "55688a6ed2ef05d341d95ed499dcfe36", "fusion_lon": 0.0}, {"is_reserved": 0, "type": "electric_scooter", "bike_id": "23ed019a2843c746bbf96e7014918eb4", "lat": 38.924394666666664, "lon": -77.0201975, "rental_uris": {"android": "https://dc.lft.to/lastmile_qr_scan", "ios": "https://dc.lft.to/lastmile_qr_scan"}, "is_disabled": 0, "fusion_lat": 0.0, "name": "23ed019a2843c746bbf96e7014918eb4", "fusion_lon": 0.0}, {"is_reserved": 0, "type": "electric_scooter", "bike_id": "16c6f82aed13f4445877a186ae63c6a2", "lat": 38.96790466666667, "lon": -77.02424333333333, "rental_uris": {"android": "https://dc.lft.to/lastmile_qr_scan", "ios": "https://dc.lft.to/lastmile_qr_scan"}, "is_disabled": 0, "fusion_lat": 0.0, "name": "16c6f82aed13f4445877a186ae63c6a2", "fusion_lon": 0.0}, {"is_reserved": 0, "type": "electric_scooter", "bike_id": "f3c853db7dbed0340f7de389be097a70", "lat": 38.93244166666667, "lon": -76.99494483333334, "rental_uris": {"android": "https://dc.lft.to/lastmile_qr_scan", "ios": "https://dc.lft.to/lastmile_qr_scan"}, "is_disabled": 0, "fusion_lat": 0.0, "name": "f3c853db7dbed0340f7de389be097a70", "fusion_lon": 0.0}, {"is_reserved": 0, "type": "electric_scooter", "bike_id": "63c481d881b22c99e488af5152a06890", "lat": 38.895442, "lon": -76.98336133333333, "rental_uris": {"android": "https://dc.lft.to/lastmile_qr_scan", "ios": "https://dc.lft.to/lastmile_qr_scan"}, "is_disabled": 0, "fusion_lat": 0.0, "name": "63c481d881b22c99e488af5152a06890", "fusion_lon": 0.0}, {"is_reserved": 0, "type": "electric_scooter", "bike_id": "27ec179149e4cb2c7731cd4525134472", "lat": 38.92239216666667, "lon": -77.04252133333334, "rental_uris": {"android": "https://dc.lft.to/lastmile_qr_scan", "ios": "https://dc.lft.to/lastmile_qr_scan"}, "is_disabled": 0, "fusion_lat": 0.0, "name": "27ec179149e4cb2c7731cd4525134472", "fusion_lon": 0.0}, {"is_reserved": 0, "type": "electric_scooter", "bike_id": "c0a1b4edc6aa50c8bb0ca971e965677b", "lat": 38.87498516666667, "lon": -77.00042766666667, "rental_uris": {"android": "https://dc.lft.to/lastmile_qr_scan", "ios": "https://dc.lft.to/lastmile_qr_scan"}, "is_disabled": 0, "fusion_lat": 0.0, "name": "c0a1b4edc6aa50c8bb0ca971e965677b", "fusion_lon": 0.0}, {"is_reserved": 0, "type": "electric_scooter", "bike_id": "e71ecea68de12793433e3e0dde68ad66", "lat": 38.91947733333333, "lon": -77.0288765, "rental_uris": {"android": "https://dc.lft.to/lastmile_qr_scan", "ios": "https://dc.lft.to/lastmile_qr_scan"}, "is_disabled": 0, "fusion_lat": 0.0, "name": "e71ecea68de12793433e3e0dde68ad66", "fusion_lon": 0.0}, {"is_reserved": 0, "type": "electric_scooter", "bike_id": "097635553d2177e2866da2565401d697", "lat": 38.9096595, "lon": -77.04504083333333, "rental_uris": {"android": "https://dc.lft.to/lastmile_qr_scan", "ios": "https://dc.lft.to/lastmile_qr_scan"}, "is_disabled": 0, "fusion_lat": 0.0, "name": "097635553d2177e2866da2565401d697", "fusion_lon": 0.0}, {"is_reserved": 0, "type": "electric_scooter", "bike_id": "73e7e2db00b25a8029d763e2ab418a5f", "lat": 38.934527, "lon": -77.0723125, "rental_uris": {"android": "https://dc.lft.to/lastmile_qr_scan", "ios": "https://dc.lft.to/lastmile_qr_scan"}, "is_disabled": 0, "fusion_lat": 0.0, "name": "73e7e2db00b25a8029d763e2ab418a5f", "fusion_lon": 0.0}, {"is_reserved": 0, "type": "electric_scooter", "bike_id": "b06e9fc94f88838343e852a5fb3d8646", "lat": 38.917971666666666, "lon": -77.02708266666667, "rental_uris": {"android": "https://dc.lft.to/lastmile_qr_scan", "ios": "https://dc.lft.to/lastmile_qr_scan"}, "is_disabled": 0, "fusion_lat": 0.0, "name": "b06e9fc94f88838343e852a5fb3d8646", "fusion_lon": 0.0}, {"is_reserved": 0, "type": "electric_scooter", "bike_id": "774b5a340ffc50c0750e63cc5bfe0337", "lat": 38.9402245, "lon": -77.0248055, "rental_uris": {"android": "https://dc.lft.to/lastmile_qr_scan", "ios": "https://dc.lft.to/lastmile_qr_scan"}, "is_disabled": 0, "fusion_lat": 0.0, "name": "774b5a340ffc50c0750e63cc5bfe0337", "fusion_lon": 0.0}, {"is_reserved": 0, "type": "electric_scooter", "bike_id": "c69b7b18f03f7ed6952c0b1af4a8d66c", "lat": 38.9265245, "lon": -77.026975, "rental_uris": {"android": "https://dc.lft.to/lastmile_qr_scan", "ios": "https://dc.lft.to/lastmile_qr_scan"}, "is_disabled": 0, "fusion_lat": 0.0, "name": "c69b7b18f03f7ed6952c0b1af4a8d66c", "fusion_lon": 0.0}, {"is_reserved": 0, "type": "electric_scooter", "bike_id": "906c945260890abf46ce0cb7d9c2cad5", "lat": 38.9246475, "lon": -77.022507, "rental_uris": {"android": "https://dc.lft.to/lastmile_qr_scan", "ios": "https://dc.lft.to/lastmile_qr_scan"}, "is_disabled": 0, "fusion_lat": 0.0, "name": "906c945260890abf46ce0cb7d9c2cad5", "fusion_lon": 0.0}, {"is_reserved": 0, "type": "electric_scooter", "bike_id": "6664959ddb4699fa9b857965b2f81209", "lat": 38.928678833333336, "lon": -77.056558, "rental_uris": {"android": "https://dc.lft.to/lastmile_qr_scan", "ios": "https://dc.lft.to/lastmile_qr_scan"}, "is_disabled": 0, "fusion_lat": 0.0, "name": "6664959ddb4699fa9b857965b2f81209", "fusion_lon": 0.0}, {"is_reserved": 0, "type": "electric_scooter", "bike_id": "879224436e1196170f058d4be8dceb46", "lat": 38.917109333333336, "lon": -77.038582, "rental_uris": {"android": "https://dc.lft.to/lastmile_qr_scan", "ios": "https://dc.lft.to/lastmile_qr_scan"}, "is_disabled": 0, "fusion_lat": 0.0, "name": "879224436e1196170f058d4be8dceb46", "fusion_lon": 0.0}, {"is_reserved": 0, "type": "electric_bike", "bike_id": "be0cf47c877c666bd0726515b1b2271e", "lat": 38.906942, "lon": -76.95253333333334, "rental_uris": {"android": "https://dc.lft.to/lastmile_qr_scan", "ios": "https://dc.lft.to/lastmile_qr_scan"}, "is_disabled": 0, "fusion_lat": 0.0, "name": "be0cf47c877c666bd0726515b1b2271e", "fusion_lon": 0.0}, {"is_reserved": 0, "type": "electric_scooter", "bike_id": "a99e6097f92e56442d041c8fcd32e15f", "lat": 38.93977016666667, "lon": -77.054677, "rental_uris": {"android": "https://dc.lft.to/lastmile_qr_scan", "ios": "https://dc.lft.to/lastmile_qr_scan"}, "is_disabled": 0, "fusion_lat": 0.0, "name": "a99e6097f92e56442d041c8fcd32e15f", "fusion_lon": 0.0}, {"is_reserved": 0, "type": "electric_bike", "bike_id": "6887535a62ecf76e43c2b1a14e320177", "lat": 38.89454833333333, "lon": -77.02004216666667, "rental_uris": {"android": "https://dc.lft.to/lastmile_qr_scan", "ios": "https://dc.lft.to/lastmile_qr_scan"}, "is_disabled": 0, "fusion_lat": 0.0, "name": "6887535a62ecf76e43c2b1a14e320177", "fusion_lon": 0.0}, {"is_reserved": 0, "type": "electric_scooter", "bike_id": "bdef1cd94962df02f40fbd0ec5187239", "lat": 38.93089783333333, "lon": -77.02356766666666, "rental_uris": {"android": "https://dc.lft.to/lastmile_qr_scan", "ios": "https://dc.lft.to/lastmile_qr_scan"}, "is_disabled": 0, "fusion_lat": 0.0, "name": "bdef1cd94962df02f40fbd0ec5187239", "fusion_lon": 0.0}, {"is_reserved": 0, "type": "electric_scooter", "bike_id": "deab5145a223db119e27fb34403c326a", "lat": 38.95180883333333, "lon": -77.02610566666667, "rental_uris": {"android": "https://dc.lft.to/lastmile_qr_scan", "ios": "https://dc.lft.to/lastmile_qr_scan"}, "is_disabled": 0, "fusion_lat": 0.0, "name": "deab5145a223db119e27fb34403c326a", "fusion_lon": 0.0}, {"is_reserved": 0, "type": "electric_bike", "bike_id": "62109385a567eca1c14c13e8d440bc5b", "lat": 38.99533133333333, "lon": -77.07435083333333, "rental_uris": {"android": "https://dc.lft.to/lastmile_qr_scan", "ios": "https://dc.lft.to/lastmile_qr_scan"}, "is_disabled": 0, "fusion_lat": 0.0, "name": "62109385a567eca1c14c13e8d440bc5b", "fusion_lon": 0.0}, {"is_reserved": 0, "type": "electric_scooter", "bike_id": "3737021204865ecc13aa56c2af275808", "lat": 38.905614666666665, "lon": -77.00608033333333, "rental_uris": {"android": "https://dc.lft.to/lastmile_qr_scan", "ios": "https://dc.lft.to/lastmile_qr_scan"}, "is_disabled": 0, "fusion_lat": 0.0, "name": "3737021204865ecc13aa56c2af275808", "fusion_lon": 0.0}, {"is_reserved": 0, "type": "electric_scooter", "bike_id": "7711909c4a1d411eacc1b79b4f4c8307", "lat": 38.90479766666667, "lon": -77.02609416666667, "rental_uris": {"android": "https://dc.lft.to/lastmile_qr_scan", "ios": "https://dc.lft.to/lastmile_qr_scan"}, "is_disabled": 0, "fusion_lat": 0.0, "name": "7711909c4a1d411eacc1b79b4f4c8307", "fusion_lon": 0.0}, {"is_reserved": 0, "type": "electric_bike", "bike_id": "ff121a38aa2a44bf284be75fb7c5cbd2", "lat": 38.949169166666664, "lon": -77.00799466666666, "rental_uris": {"android": "https://dc.lft.to/lastmile_qr_scan", "ios": "https://dc.lft.to/lastmile_qr_scan"}, "is_disabled": 0, "fusion_lat": 0.0, "name": "ff121a38aa2a44bf284be75fb7c5cbd2", "fusion_lon": 0.0}, {"is_reserved": 0, "type": "electric_scooter", "bike_id": "216bd07df8bb08a42cbc9f24cb60821b", "lat": 38.9526415, "lon": -77.0239345, "rental_uris": {"android": "https://dc.lft.to/lastmile_qr_scan", "ios": "https://dc.lft.to/lastmile_qr_scan"}, "is_disabled": 0, "fusion_lat": 0.0, "name": "216bd07df8bb08a42cbc9f24cb60821b", "fusion_lon": 0.0}, {"is_reserved": 0, "type": "electric_scooter", "bike_id": "c3c43cc8a140f3ca79d2320f4e2d025d", "lat": 38.923914333333336, "lon": -77.05048716666667, "rental_uris": {"android": "https://dc.lft.to/lastmile_qr_scan", "ios": "https://dc.lft.to/lastmile_qr_scan"}, "is_disabled": 0, "fusion_lat": 0.0, "name": "c3c43cc8a140f3ca79d2320f4e2d025d", "fusion_lon": 0.0}, {"is_reserved": 0, "type": "electric_scooter", "bike_id": "0aaf6cf617b0541d3d1422384a873f6c", "lat": 38.911969166666665, "lon": -77.00436816666667, "rental_uris": {"android": "https://dc.lft.to/lastmile_qr_scan", "ios": "https://dc.lft.to/lastmile_qr_scan"}, "is_disabled": 0, "fusion_lat": 0.0, "name": "0aaf6cf617b0541d3d1422384a873f6c", "fusion_lon": 0.0}, {"is_reserved": 0, "type": "electric_scooter", "bike_id": "8ddce412478d46b6f1184ef05f3efcfc", "lat": 38.92600733333333, "lon": -77.03943866666667, "rental_uris": {"android": "https://dc.lft.to/lastmile_qr_scan", "ios": "https://dc.lft.to/lastmile_qr_scan"}, "is_disabled": 0, "fusion_lat": 0.0, "name": "8ddce412478d46b6f1184ef05f3efcfc", "fusion_lon": 0.0}, {"is_reserved": 0, "type": "electric_scooter", "bike_id": "321755aa807f18a5e42668b407007fbc", "lat": 38.91126033333333, "lon": -77.02195733333333, "rental_uris": {"android": "https://dc.lft.to/lastmile_qr_scan", "ios": "https://dc.lft.to/lastmile_qr_scan"}, "is_disabled": 0, "fusion_lat": 0.0, "name": "321755aa807f18a5e42668b407007fbc", "fusion_lon": 0.0}, {"is_reserved": 0, "type": "electric_scooter", "bike_id": "c78ad912c41a0d38f1952c9c00b14a67", "lat": 38.9170885, "lon": -77.04032366666667, "rental_uris": {"android": "https://dc.lft.to/lastmile_qr_scan", "ios": "https://dc.lft.to/lastmile_qr_scan"}, "is_disabled": 0, "fusion_lat": 0.0, "name": "c78ad912c41a0d38f1952c9c00b14a67", "fusion_lon": 0.0}, {"is_reserved": 0, "type": "electric_scooter", "bike_id": "57ab4e2e062602bb5fec10aebcc751a2", "lat": 38.87471333333333, "lon": -77.00335866666667, "rental_uris": {"android": "https://dc.lft.to/lastmile_qr_scan", "ios": "https://dc.lft.to/lastmile_qr_scan"}, "is_disabled": 0, "fusion_lat": 0.0, "name": "57ab4e2e062602bb5fec10aebcc751a2", "fusion_lon": 0.0}, {"is_reserved": 0, "type": "electric_scooter", "bike_id": "91bea3f9f718ca478a041c75da89fee9", "lat": 38.89287616666667, "lon": -77.019813, "rental_uris": {"android": "https://dc.lft.to/lastmile_qr_scan", "ios": "https://dc.lft.to/lastmile_qr_scan"}, "is_disabled": 0, "fusion_lat": 0.0, "name": "91bea3f9f718ca478a041c75da89fee9", "fusion_lon": 0.0}, {"is_reserved": 0, "type": "electric_scooter", "bike_id": "d8c9d8547418093ed6123072758dbff0", "lat": 38.912631, "lon": -77.038634, "rental_uris": {"android": "https://dc.lft.to/lastmile_qr_scan", "ios": "https://dc.lft.to/lastmile_qr_scan"}, "is_disabled": 0, "fusion_lat": 0.0, "name": "d8c9d8547418093ed6123072758dbff0", "fusion_lon": 0.0}, {"is_reserved": 0, "type": "electric_scooter", "bike_id": "d31a2cc1ecc5803433d6aaa38dfd38aa", "lat": 38.89897083333334, "lon": -76.9800315, "rental_uris": {"android": "https://dc.lft.to/lastmile_qr_scan", "ios": "https://dc.lft.to/lastmile_qr_scan"}, "is_disabled": 0, "fusion_lat": 0.0, "name": "d31a2cc1ecc5803433d6aaa38dfd38aa", "fusion_lon": 0.0}, {"is_reserved": 0, "type": "electric_scooter", "bike_id": "79136662898a7de72b15480343b325a6", "lat": 38.903038, "lon": -76.97651616666667, "rental_uris": {"android": "https://dc.lft.to/lastmile_qr_scan", "ios": "https://dc.lft.to/lastmile_qr_scan"}, "is_disabled": 0, "fusion_lat": 0.0, "name": "79136662898a7de72b15480343b325a6", "fusion_lon": 0.0}, {"is_reserved": 0, "type": "electric_scooter", "bike_id": "b080aab574fc36596c04d48749de2df9", "lat": 38.875613333333334, "lon": -77.00599216666667, "rental_uris": {"android": "https://dc.lft.to/lastmile_qr_scan", "ios": "https://dc.lft.to/lastmile_qr_scan"}, "is_disabled": 0, "fusion_lat": 0.0, "name": "b080aab574fc36596c04d48749de2df9", "fusion_lon": 0.0}, {"is_reserved": 0, "type": "electric_bike", "bike_id": "2b6ce4e443f67937480b2ae27b85c4fa", "lat": 38.973127, "lon": -76.994644, "rental_uris": {"android": "https://dc.lft.to/lastmile_qr_scan", "ios": "https://dc.lft.to/lastmile_qr_scan"}, "is_disabled": 0, "fusion_lat": 0.0, "name": "2b6ce4e443f67937480b2ae27b85c4fa", "fusion_lon": 0.0}, {"is_reserved": 0, "type": "electric_scooter", "bike_id": "e27c6a2cee88d5b9af8ac86e27354964", "lat": 38.90026733333333, "lon": -76.98762633333334, "rental_uris": {"android": "https://dc.lft.to/lastmile_qr_scan", "ios": "https://dc.lft.to/lastmile_qr_scan"}, "is_disabled": 0, "fusion_lat": 0.0, "name": "e27c6a2cee88d5b9af8ac86e27354964", "fusion_lon": 0.0}, {"is_reserved": 0, "type": "electric_scooter", "bike_id": "50eb6f838a18ec1ceb4b8b962ae35a4b", "lat": 38.917776833333335, "lon": -77.03193283333333, "rental_uris": {"android": "https://dc.lft.to/lastmile_qr_scan", "ios": "https://dc.lft.to/lastmile_qr_scan"}, "is_disabled": 0, "fusion_lat": 0.0, "name": "50eb6f838a18ec1ceb4b8b962ae35a4b", "fusion_lon": 0.0}, {"is_reserved": 0, "type": "electric_scooter", "bike_id": "d39eb692384426ff44f8172abca67461", "lat": 38.917032, "lon": -77.02416283333334, "rental_uris": {"android": "https://dc.lft.to/lastmile_qr_scan", "ios": "https://dc.lft.to/lastmile_qr_scan"}, "is_disabled": 0, "fusion_lat": 0.0, "name": "d39eb692384426ff44f8172abca67461", "fusion_lon": 0.0}, {"is_reserved": 0, "type": "electric_scooter", "bike_id": "ef217679765889a5b138c09fe3f19f94", "lat": 38.935892833333334, "lon": -77.03367316666667, "rental_uris": {"android": "https://dc.lft.to/lastmile_qr_scan", "ios": "https://dc.lft.to/lastmile_qr_scan"}, "is_disabled": 0, "fusion_lat": 0.0, "name": "ef217679765889a5b138c09fe3f19f94", "fusion_lon": 0.0}, {"is_reserved": 0, "type": "electric_scooter", "bike_id": "7bf0ae73c238dc9b282ab65b9dd96e95", "lat": 38.92854066666666, "lon": -77.03595616666667, "rental_uris": {"android": "https://dc.lft.to/lastmile_qr_scan", "ios": "https://dc.lft.to/lastmile_qr_scan"}, "is_disabled": 0, "fusion_lat": 0.0, "name": "7bf0ae73c238dc9b282ab65b9dd96e95", "fusion_lon": 0.0}, {"is_reserved": 0, "type": "electric_scooter", "bike_id": "929f90cff8f40d644fac283832f11aad", "lat": 38.890431, "lon": -76.93755833333333, "rental_uris": {"android": "https://dc.lft.to/lastmile_qr_scan", "ios": "https://dc.lft.to/lastmile_qr_scan"}, "is_disabled": 0, "fusion_lat": 0.0, "name": "929f90cff8f40d644fac283832f11aad", "fusion_lon": 0.0}, {"is_reserved": 0, "type": "electric_scooter", "bike_id": "339b2b1338e1f56433f15a966e934dd6", "lat": 38.8934755, "lon": -77.04298616666667, "rental_uris": {"android": "https://dc.lft.to/lastmile_qr_scan", "ios": "https://dc.lft.to/lastmile_qr_scan"}, "is_disabled": 0, "fusion_lat": 0.0, "name": "339b2b1338e1f56433f15a966e934dd6", "fusion_lon": 0.0}, {"is_reserved": 0, "type": "electric_scooter", "bike_id": "1d20af52908044f5edae81dec01c608b", "lat": 38.9244705, "lon": -77.02033883333333, "rental_uris": {"android": "https://dc.lft.to/lastmile_qr_scan", "ios": "https://dc.lft.to/lastmile_qr_scan"}, "is_disabled": 0, "fusion_lat": 0.0, "name": "1d20af52908044f5edae81dec01c608b", "fusion_lon": 0.0}, {"is_reserved": 0, "type": "electric_bike", "bike_id": "3365d3e675a26a453b05c123c075ebf3", "lat": 38.921339833333334, "lon": -77.0039955, "rental_uris": {"android": "https://dc.lft.to/lastmile_qr_scan", "ios": "https://dc.lft.to/lastmile_qr_scan"}, "is_disabled": 0, "fusion_lat": 0.0, "name": "3365d3e675a26a453b05c123c075ebf3", "fusion_lon": 0.0}, {"is_reserved": 0, "type": "electric_scooter", "bike_id": "642b8609a9cfe9626c1b9b3e432595c5", "lat": 38.886229666666665, "lon": -77.01970016666667, "rental_uris": {"android": "https://dc.lft.to/lastmile_qr_scan", "ios": "https://dc.lft.to/lastmile_qr_scan"}, "is_disabled": 0, "fusion_lat": 0.0, "name": "642b8609a9cfe9626c1b9b3e432595c5", "fusion_lon": 0.0}, {"is_reserved": 0, "type": "electric_scooter", "bike_id": "f27e684f0941cba3d6191aa9e041e8e8", "lat": 38.9136885, "lon": -77.02739233333334, "rental_uris": {"android": "https://dc.lft.to/lastmile_qr_scan", "ios": "https://dc.lft.to/lastmile_qr_scan"}, "is_disabled": 0, "fusion_lat": 0.0, "name": "f27e684f0941cba3d6191aa9e041e8e8", "fusion_lon": 0.0}, {"is_reserved": 0, "type": "electric_scooter", "bike_id": "1cd6cee41c9722e376123b577e1a5a3d", "lat": 38.9405015, "lon": -77.02505233333333, "rental_uris": {"android": "https://dc.lft.to/lastmile_qr_scan", "ios": "https://dc.lft.to/lastmile_qr_scan"}, "is_disabled": 0, "fusion_lat": 0.0, "name": "1cd6cee41c9722e376123b577e1a5a3d", "fusion_lon": 0.0}, {"is_reserved": 0, "type": "electric_bike", "bike_id": "41c58f6ec5bee121b75ff1ccd51dbc93", "lat": 39.00442666666667, "lon": -76.90132116666666, "rental_uris": {"android": "https://dc.lft.to/lastmile_qr_scan", "ios": "https://dc.lft.to/lastmile_qr_scan"}, "is_disabled": 0, "fusion_lat": 0.0, "name": "41c58f6ec5bee121b75ff1ccd51dbc93", "fusion_lon": 0.0}, {"is_reserved": 0, "type": "electric_scooter", "bike_id": "c9b1ff52d8216f82bac414ad90a5fd91", "lat": 38.90836, "lon": -77.054929, "rental_uris": {"android": "https://dc.lft.to/lastmile_qr_scan", "ios": "https://dc.lft.to/lastmile_qr_scan"}, "is_disabled": 0, "fusion_lat": 0.0, "name": "c9b1ff52d8216f82bac414ad90a5fd91", "fusion_lon": 0.0}, {"is_reserved": 0, "type": "electric_scooter", "bike_id": "99648c6e5db2ff5040959e185636fa85", "lat": 38.92752, "lon": -77.0328365, "rental_uris": {"android": "https://dc.lft.to/lastmile_qr_scan", "ios": "https://dc.lft.to/lastmile_qr_scan"}, "is_disabled": 0, "fusion_lat": 0.0, "name": "99648c6e5db2ff5040959e185636fa85", "fusion_lon": 0.0}, {"is_reserved": 0, "type": "electric_bike", "bike_id": "82466d6d44ba8a6cae72b120d02750e5", "lat": 38.8541905, "lon": -77.08364533333334, "rental_uris": {"android": "https://dc.lft.to/lastmile_qr_scan", "ios": "https://dc.lft.to/lastmile_qr_scan"}, "is_disabled": 0, "fusion_lat": 0.0, "name": "82466d6d44ba8a6cae72b120d02750e5", "fusion_lon": 0.0}, {"is_reserved": 0, "type": "electric_bike", "bike_id": "3e99a3b8b8599d913ef50ee2b3a8560d", "lat": 38.8703645, "lon": -77.2290335, "rental_uris": {"android": "https://dc.lft.to/lastmile_qr_scan", "ios": "https://dc.lft.to/lastmile_qr_scan"}, "is_disabled": 0, "fusion_lat": 0.0, "name": "3e99a3b8b8599d913ef50ee2b3a8560d", "fusion_lon": 0.0}, {"is_reserved": 0, "type": "electric_scooter", "bike_id": "2f8dc97bef6ee733e5b19bd7fd1912d1", "lat": 38.90028816666667, "lon": -77.03970716666667, "rental_uris": {"android": "https://dc.lft.to/lastmile_qr_scan", "ios": "https://dc.lft.to/lastmile_qr_scan"}, "is_disabled": 0, "fusion_lat": 0.0, "name": "2f8dc97bef6ee733e5b19bd7fd1912d1", "fusion_lon": 0.0}, {"is_reserved": 0, "type": "electric_bike", "bike_id": "19078baf6045fbbdaaebda638b69b84a", "lat": 38.86752216666667, "lon": -76.94531383333333, "rental_uris": {"android": "https://dc.lft.to/lastmile_qr_scan", "ios": "https://dc.lft.to/lastmile_qr_scan"}, "is_disabled": 0, "fusion_lat": 0.0, "name": "19078baf6045fbbdaaebda638b69b84a", "fusion_lon": 0.0}, {"is_reserved": 0, "type": "electric_scooter", "bike_id": "5a9b79cb5442534ab73785767e18547d", "lat": 38.887727, "lon": -76.932589, "rental_uris": {"android": "https://dc.lft.to/lastmile_qr_scan", "ios": "https://dc.lft.to/lastmile_qr_scan"}, "is_disabled": 0, "fusion_lat": 0.0, "name": "5a9b79cb5442534ab73785767e18547d", "fusion_lon": 0.0}, {"is_reserved": 0, "type": "electric_scooter", "bike_id": "ba3237bf4c252ce256bd8dc8f2384ef0", "lat": 38.881173833333335, "lon": -77.01983433333334, "rental_uris": {"android": "https://dc.lft.to/lastmile_qr_scan", "ios": "https://dc.lft.to/lastmile_qr_scan"}, "is_disabled": 0, "fusion_lat": 0.0, "name": "ba3237bf4c252ce256bd8dc8f2384ef0", "fusion_lon": 0.0}, {"is_reserved": 0, "type": "electric_bike", "bike_id": "6448cbbf2c92312ff77a68bf8bce6e79", "lat": 38.93660766666667, "lon": -77.05502633333333, "rental_uris": {"android": "https://dc.lft.to/lastmile_qr_scan", "ios": "https://dc.lft.to/lastmile_qr_scan"}, "is_disabled": 0, "fusion_lat": 0.0, "name": "6448cbbf2c92312ff77a68bf8bce6e79", "fusion_lon": 0.0}, {"is_reserved": 0, "type": "electric_scooter", "bike_id": "9f27b501e757d86a11383fea2437526a", "lat": 38.9056915, "lon": -77.01856133333334, "rental_uris": {"android": "https://dc.lft.to/lastmile_qr_scan", "ios": "https://dc.lft.to/lastmile_qr_scan"}, "is_disabled": 0, "fusion_lat": 0.0, "name": "9f27b501e757d86a11383fea2437526a", "fusion_lon": 0.0}, {"is_reserved": 0, "type": "electric_scooter", "bike_id": "0568314b1efe4e8a1b6e8925bcd75f45", "lat": 38.8921835, "lon": -77.02422466666667, "rental_uris": {"android": "https://dc.lft.to/lastmile_qr_scan", "ios": "https://dc.lft.to/lastmile_qr_scan"}, "is_disabled": 0, "fusion_lat": 0.0, "name": "0568314b1efe4e8a1b6e8925bcd75f45", "fusion_lon": 0.0}, {"is_reserved": 0, "type": "electric_scooter", "bike_id": "b792d0be1559455930cb7bde32feb926", "lat": 38.91731816666667, "lon": -77.04172816666667, "rental_uris": {"android": "https://dc.lft.to/lastmile_qr_scan", "ios": "https://dc.lft.to/lastmile_qr_scan"}, "is_disabled": 0, "fusion_lat": 0.0, "name": "b792d0be1559455930cb7bde32feb926", "fusion_lon": 0.0}, {"is_reserved": 0, "type": "electric_scooter", "bike_id": "83decc20623b223709122cacae9e57dc", "lat": 38.9069465, "lon": -76.98353533333334, "rental_uris": {"android": "https://dc.lft.to/lastmile_qr_scan", "ios": "https://dc.lft.to/lastmile_qr_scan"}, "is_disabled": 0, "fusion_lat": 0.0, "name": "83decc20623b223709122cacae9e57dc", "fusion_lon": 0.0}, {"is_reserved": 0, "type": "electric_scooter", "bike_id": "97c0139d9e850cc4180b766711cdc7d3", "lat": 38.90556266666667, "lon": -77.015903, "rental_uris": {"android": "https://dc.lft.to/lastmile_qr_scan", "ios": "https://dc.lft.to/lastmile_qr_scan"}, "is_disabled": 0, "fusion_lat": 0.0, "name": "97c0139d9e850cc4180b766711cdc7d3", "fusion_lon": 0.0}, {"is_reserved": 0, "type": "electric_scooter", "bike_id": "421a70e9d6ac64e3732cd5797bdf1725", "lat": 38.899477166666664, "lon": -76.979141, "rental_uris": {"android": "https://dc.lft.to/lastmile_qr_scan", "ios": "https://dc.lft.to/lastmile_qr_scan"}, "is_disabled": 0, "fusion_lat": 0.0, "name": "421a70e9d6ac64e3732cd5797bdf1725", "fusion_lon": 0.0}, {"is_reserved": 0, "type": "electric_scooter", "bike_id": "06aa2a8172704521d085484148bbf82e", "lat": 38.908494, "lon": -77.0432775, "rental_uris": {"android": "https://dc.lft.to/lastmile_qr_scan", "ios": "https://dc.lft.to/lastmile_qr_scan"}, "is_disabled": 0, "fusion_lat": 0.0, "name": "06aa2a8172704521d085484148bbf82e", "fusion_lon": 0.0}, {"is_reserved": 0, "type": "electric_scooter", "bike_id": "d22ef04a49f2f5eb106b149fa83a9418", "lat": 38.90550133333333, "lon": -77.05696533333334, "rental_uris": {"android": "https://dc.lft.to/lastmile_qr_scan", "ios": "https://dc.lft.to/lastmile_qr_scan"}, "is_disabled": 0, "fusion_lat": 0.0, "name": "d22ef04a49f2f5eb106b149fa83a9418", "fusion_lon": 0.0}, {"is_reserved": 0, "type": "electric_scooter", "bike_id": "acbe8c0641a0d832a3e610f2730a1c2d", "lat": 38.8720915, "lon": -77.01352216666666, "rental_uris": {"android": "https://dc.lft.to/lastmile_qr_scan", "ios": "https://dc.lft.to/lastmile_qr_scan"}, "is_disabled": 0, "fusion_lat": 0.0, "name": "acbe8c0641a0d832a3e610f2730a1c2d", "fusion_lon": 0.0}, {"is_reserved": 0, "type": "electric_scooter", "bike_id": "b62d012401013609ed1065618ddbde9d", "lat": 38.90929533333333, "lon": -76.99629266666666, "rental_uris": {"android": "https://dc.lft.to/lastmile_qr_scan", "ios": "https://dc.lft.to/lastmile_qr_scan"}, "is_disabled": 0, "fusion_lat": 0.0, "name": "b62d012401013609ed1065618ddbde9d", "fusion_lon": 0.0}, {"is_reserved": 0, "type": "electric_scooter", "bike_id": "f30cf5a530195a498a3f119b06b238d8", "lat": 38.909326666666665, "lon": -77.03983316666667, "rental_uris": {"android": "https://dc.lft.to/lastmile_qr_scan", "ios": "https://dc.lft.to/lastmile_qr_scan"}, "is_disabled": 0, "fusion_lat": 0.0, "name": "f30cf5a530195a498a3f119b06b238d8", "fusion_lon": 0.0}, {"is_reserved": 0, "type": "electric_scooter", "bike_id": "086d854e86575c3bd50ad1f3c3f43134", "lat": 38.935269, "lon": -77.019435, "rental_uris": {"android": "https://dc.lft.to/lastmile_qr_scan", "ios": "https://dc.lft.to/lastmile_qr_scan"}, "is_disabled": 0, "fusion_lat": 0.0, "name": "086d854e86575c3bd50ad1f3c3f43134", "fusion_lon": 0.0}, {"is_reserved": 0, "type": "electric_scooter", "bike_id": "6caf0352d8d53a5254c23bd0d442d6e9", "lat": 38.90733916666667, "lon": -77.02180916666667, "rental_uris": {"android": "https://dc.lft.to/lastmile_qr_scan", "ios": "https://dc.lft.to/lastmile_qr_scan"}, "is_disabled": 0, "fusion_lat": 0.0, "name": "6caf0352d8d53a5254c23bd0d442d6e9", "fusion_lon": 0.0}, {"is_reserved": 0, "type": "electric_scooter", "bike_id": "533779af48aab2c42934321da07e290a", "lat": 38.920824333333336, "lon": -77.022942, "rental_uris": {"android": "https://dc.lft.to/lastmile_qr_scan", "ios": "https://dc.lft.to/lastmile_qr_scan"}, "is_disabled": 0, "fusion_lat": 0.0, "name": "533779af48aab2c42934321da07e290a", "fusion_lon": 0.0}, {"is_reserved": 0, "type": "electric_scooter", "bike_id": "f2dea3fa619491be55199684d1656670", "lat": 38.90783833333333, "lon": -77.00957333333334, "rental_uris": {"android": "https://dc.lft.to/lastmile_qr_scan", "ios": "https://dc.lft.to/lastmile_qr_scan"}, "is_disabled": 0, "fusion_lat": 0.0, "name": "f2dea3fa619491be55199684d1656670", "fusion_lon": 0.0}, {"is_reserved": 0, "type": "electric_scooter", "bike_id": "d45ec6911a31a6fb513c44fb0b958d81", "lat": 38.87979166666667, "lon": -77.00845016666666, "rental_uris": {"android": "https://dc.lft.to/lastmile_qr_scan", "ios": "https://dc.lft.to/lastmile_qr_scan"}, "is_disabled": 0, "fusion_lat": 0.0, "name": "d45ec6911a31a6fb513c44fb0b958d81", "fusion_lon": 0.0}, {"is_reserved": 0, "type": "electric_bike", "bike_id": "b621670698b5c35f2ee18e88d3a927c4", "lat": 38.915199666666666, "lon": -77.00338666666667, "rental_uris": {"android": "https://dc.lft.to/lastmile_qr_scan", "ios": "https://dc.lft.to/lastmile_qr_scan"}, "is_disabled": 0, "fusion_lat": 0.0, "name": "b621670698b5c35f2ee18e88d3a927c4", "fusion_lon": 0.0}, {"is_reserved": 0, "type": "electric_bike", "bike_id": "9bfd8ec1c56fa8e509ea5612419f825f", "lat": 38.8803185, "lon": -76.99552633333333, "rental_uris": {"android": "https://dc.lft.to/lastmile_qr_scan", "ios": "https://dc.lft.to/lastmile_qr_scan"}, "is_disabled": 0, "fusion_lat": 0.0, "name": "9bfd8ec1c56fa8e509ea5612419f825f", "fusion_lon": 0.0}, {"is_reserved": 0, "type": "electric_scooter", "bike_id": "57dc8fe5b80dc0a9b466bdf2d0c966aa", "lat": 38.89321566666667, "lon": -77.02222316666666, "rental_uris": {"android": "https://dc.lft.to/lastmile_qr_scan", "ios": "https://dc.lft.to/lastmile_qr_scan"}, "is_disabled": 0, "fusion_lat": 0.0, "name": "57dc8fe5b80dc0a9b466bdf2d0c966aa", "fusion_lon": 0.0}, {"is_reserved": 0, "type": "electric_scooter", "bike_id": "62e2cfe1ced601e8014cba2a785fc88e", "lat": 38.8924495, "lon": -77.03957766666667, "rental_uris": {"android": "https://dc.lft.to/lastmile_qr_scan", "ios": "https://dc.lft.to/lastmile_qr_scan"}, "is_disabled": 0, "fusion_lat": 0.0, "name": "62e2cfe1ced601e8014cba2a785fc88e", "fusion_lon": 0.0}, {"is_reserved": 0, "type": "electric_scooter", "bike_id": "4bc94939a2541fa1961e4b48adabea32", "lat": 38.910617333333334, "lon": -77.03708233333333, "rental_uris": {"android": "https://dc.lft.to/lastmile_qr_scan", "ios": "https://dc.lft.to/lastmile_qr_scan"}, "is_disabled": 0, "fusion_lat": 0.0, "name": "4bc94939a2541fa1961e4b48adabea32", "fusion_lon": 0.0}, {"is_reserved": 0, "type": "electric_scooter", "bike_id": "c9885f3a4ef142c7bc8508df1ae52537", "lat": 38.917598166666664, "lon": -77.00449333333333, "rental_uris": {"android": "https://dc.lft.to/lastmile_qr_scan", "ios": "https://dc.lft.to/lastmile_qr_scan"}, "is_disabled": 0, "fusion_lat": 0.0, "name": "c9885f3a4ef142c7bc8508df1ae52537", "fusion_lon": 0.0}, {"is_reserved": 0, "type": "electric_scooter", "bike_id": "e6a7049757eb0ee728dccff1e307517d", "lat": 38.90930766666666, "lon": -77.06365683333334, "rental_uris": {"android": "https://dc.lft.to/lastmile_qr_scan", "ios": "https://dc.lft.to/lastmile_qr_scan"}, "is_disabled": 0, "fusion_lat": 0.0, "name": "e6a7049757eb0ee728dccff1e307517d", "fusion_lon": 0.0}, {"is_reserved": 0, "type": "electric_scooter", "bike_id": "76b9af74d5ad26effdf9f4bb87443bd0", "lat": 38.917040666666665, "lon": -77.02410783333333, "rental_uris": {"android": "https://dc.lft.to/lastmile_qr_scan", "ios": "https://dc.lft.to/lastmile_qr_scan"}, "is_disabled": 0, "fusion_lat": 0.0, "name": "76b9af74d5ad26effdf9f4bb87443bd0", "fusion_lon": 0.0}, {"is_reserved": 0, "type": "electric_scooter", "bike_id": "d1af4505754b84121c3e3385a6116962", "lat": 38.9163875, "lon": -77.04261883333334, "rental_uris": {"android": "https://dc.lft.to/lastmile_qr_scan", "ios": "https://dc.lft.to/lastmile_qr_scan"}, "is_disabled": 0, "fusion_lat": 0.0, "name": "d1af4505754b84121c3e3385a6116962", "fusion_lon": 0.0}, {"is_reserved": 0, "type": "electric_scooter", "bike_id": "024acb2da9cd5ff7d68a6759cb5b9801", "lat": 38.93331383333334, "lon": -77.02907266666666, "rental_uris": {"android": "https://dc.lft.to/lastmile_qr_scan", "ios": "https://dc.lft.to/lastmile_qr_scan"}, "is_disabled": 0, "fusion_lat": 0.0, "name": "024acb2da9cd5ff7d68a6759cb5b9801", "fusion_lon": 0.0}, {"is_reserved": 0, "type": "electric_scooter", "bike_id": "2093a432c472c920f5a650dad66b157d", "lat": 38.8952585, "lon": -77.02951633333333, "rental_uris": {"android": "https://dc.lft.to/lastmile_qr_scan", "ios": "https://dc.lft.to/lastmile_qr_scan"}, "is_disabled": 0, "fusion_lat": 0.0, "name": "2093a432c472c920f5a650dad66b157d", "fusion_lon": 0.0}, {"is_reserved": 0, "type": "electric_scooter", "bike_id": "5ea43acb599c274c93698e0e6c8c5ce2", "lat": 38.892304333333335, "lon": -77.02206016666666, "rental_uris": {"android": "https://dc.lft.to/lastmile_qr_scan", "ios": "https://dc.lft.to/lastmile_qr_scan"}, "is_disabled": 0, "fusion_lat": 0.0, "name": "5ea43acb599c274c93698e0e6c8c5ce2", "fusion_lon": 0.0}, {"is_reserved": 0, "type": "electric_scooter", "bike_id": "9af0a1be797696c9cd1cbd6e8fcb83ce", "lat": 38.88420683333333, "lon": -77.02584933333333, "rental_uris": {"android": "https://dc.lft.to/lastmile_qr_scan", "ios": "https://dc.lft.to/lastmile_qr_scan"}, "is_disabled": 0, "fusion_lat": 0.0, "name": "9af0a1be797696c9cd1cbd6e8fcb83ce", "fusion_lon": 0.0}, {"is_reserved": 0, "type": "electric_scooter", "bike_id": "ce66b453f02cb4eef77bef69249f4658", "lat": 38.930290666666664, "lon": -77.08308433333333, "rental_uris": {"android": "https://dc.lft.to/lastmile_qr_scan", "ios": "https://dc.lft.to/lastmile_qr_scan"}, "is_disabled": 0, "fusion_lat": 0.0, "name": "ce66b453f02cb4eef77bef69249f4658", "fusion_lon": 0.0}, {"is_reserved": 0, "type": "electric_scooter", "bike_id": "b31678af6f5813a142f15d26473d3348", "lat": 38.8983995, "lon": -77.04826216666666, "rental_uris": {"android": "https://dc.lft.to/lastmile_qr_scan", "ios": "https://dc.lft.to/lastmile_qr_scan"}, "is_disabled": 0, "fusion_lat": 0.0, "name": "b31678af6f5813a142f15d26473d3348", "fusion_lon": 0.0}, {"is_reserved": 0, "type": "electric_scooter", "bike_id": "657eb7c587570d40c60301c222c5c691", "lat": 38.923783, "lon": -77.02746233333333, "rental_uris": {"android": "https://dc.lft.to/lastmile_qr_scan", "ios": "https://dc.lft.to/lastmile_qr_scan"}, "is_disabled": 0, "fusion_lat": 0.0, "name": "657eb7c587570d40c60301c222c5c691", "fusion_lon": 0.0}, {"is_reserved": 0, "type": "electric_scooter", "bike_id": "61418fa924fdff04fef191d37389e80d", "lat": 38.90471483333334, "lon": -77.04849816666666, "rental_uris": {"android": "https://dc.lft.to/lastmile_qr_scan", "ios": "https://dc.lft.to/lastmile_qr_scan"}, "is_disabled": 0, "fusion_lat": 0.0, "name": "61418fa924fdff04fef191d37389e80d", "fusion_lon": 0.0}, {"is_reserved": 0, "type": "electric_scooter", "bike_id": "007886c1352b1e7fd478dae750c1b81b", "lat": 38.906155, "lon": -77.03298833333334, "rental_uris": {"android": "https://dc.lft.to/lastmile_qr_scan", "ios": "https://dc.lft.to/lastmile_qr_scan"}, "is_disabled": 0, "fusion_lat": 0.0, "name": "007886c1352b1e7fd478dae750c1b81b", "fusion_lon": 0.0}, {"is_reserved": 0, "type": "electric_scooter", "bike_id": "8858125ec1e987fa0127ad885983f07f", "lat": 38.903679833333335, "lon": -77.02579116666666, "rental_uris": {"android": "https://dc.lft.to/lastmile_qr_scan", "ios": "https://dc.lft.to/lastmile_qr_scan"}, "is_disabled": 0, "fusion_lat": 0.0, "name": "8858125ec1e987fa0127ad885983f07f", "fusion_lon": 0.0}, {"is_reserved": 0, "type": "electric_scooter", "bike_id": "238977818004d4964cd435e49a698ac1", "lat": 38.930352166666665, "lon": -77.02962316666667, "rental_uris": {"android": "https://dc.lft.to/lastmile_qr_scan", "ios": "https://dc.lft.to/lastmile_qr_scan"}, "is_disabled": 0, "fusion_lat": 0.0, "name": "238977818004d4964cd435e49a698ac1", "fusion_lon": 0.0}, {"is_reserved": 0, "type": "electric_scooter", "bike_id": "ced696ae99a8237227dbf4b1621cb92f", "lat": 38.9177175, "lon": -77.04740416666667, "rental_uris": {"android": "https://dc.lft.to/lastmile_qr_scan", "ios": "https://dc.lft.to/lastmile_qr_scan"}, "is_disabled": 0, "fusion_lat": 0.0, "name": "ced696ae99a8237227dbf4b1621cb92f", "fusion_lon": 0.0}, {"is_reserved": 0, "type": "electric_scooter", "bike_id": "91ac70179a2e75fe1d27c513ccb84148", "lat": 38.91994116666667, "lon": -77.03220133333333, "rental_uris": {"android": "https://dc.lft.to/lastmile_qr_scan", "ios": "https://dc.lft.to/lastmile_qr_scan"}, "is_disabled": 0, "fusion_lat": 0.0, "name": "91ac70179a2e75fe1d27c513ccb84148", "fusion_lon": 0.0}, {"is_reserved": 0, "type": "electric_scooter", "bike_id": "439b6e3bf0bd7d43a00ddb33f3543fe4", "lat": 38.9289875, "lon": -77.02201983333333, "rental_uris": {"android": "https://dc.lft.to/lastmile_qr_scan", "ios": "https://dc.lft.to/lastmile_qr_scan"}, "is_disabled": 0, "fusion_lat": 0.0, "name": "439b6e3bf0bd7d43a00ddb33f3543fe4", "fusion_lon": 0.0}, {"is_reserved": 0, "type": "electric_scooter", "bike_id": "29cccd89e2a4a123b97483da5078ec25", "lat": 38.904017833333334, "lon": -77.00433516666666, "rental_uris": {"android": "https://dc.lft.to/lastmile_qr_scan", "ios": "https://dc.lft.to/lastmile_qr_scan"}, "is_disabled": 0, "fusion_lat": 0.0, "name": "29cccd89e2a4a123b97483da5078ec25", "fusion_lon": 0.0}, {"is_reserved": 0, "type": "electric_scooter", "bike_id": "5827e504e3086ed03db3a53f6d9e8fb7", "lat": 38.9002865, "lon": -76.99619033333333, "rental_uris": {"android": "https://dc.lft.to/lastmile_qr_scan", "ios": "https://dc.lft.to/lastmile_qr_scan"}, "is_disabled": 0, "fusion_lat": 0.0, "name": "5827e504e3086ed03db3a53f6d9e8fb7", "fusion_lon": 0.0}, {"is_reserved": 0, "type": "electric_scooter", "bike_id": "b6cd8e6452d95787d6b390b0efc4fe1c", "lat": 38.90040483333333, "lon": -76.9883645, "rental_uris": {"android": "https://dc.lft.to/lastmile_qr_scan", "ios": "https://dc.lft.to/lastmile_qr_scan"}, "is_disabled": 0, "fusion_lat": 0.0, "name": "b6cd8e6452d95787d6b390b0efc4fe1c", "fusion_lon": 0.0}, {"is_reserved": 0, "type": "electric_scooter", "bike_id": "2e131087e2d2ac654c3578e1f5985930", "lat": 38.900387, "lon": -76.98833816666667, "rental_uris": {"android": "https://dc.lft.to/lastmile_qr_scan", "ios": "https://dc.lft.to/lastmile_qr_scan"}, "is_disabled": 0, "fusion_lat": 0.0, "name": "2e131087e2d2ac654c3578e1f5985930", "fusion_lon": 0.0}, {"is_reserved": 0, "type": "electric_scooter", "bike_id": "916bd5824329dbd0ea951f7e86ca5733", "lat": 38.9203015, "lon": -77.02713733333333, "rental_uris": {"android": "https://dc.lft.to/lastmile_qr_scan", "ios": "https://dc.lft.to/lastmile_qr_scan"}, "is_disabled": 0, "fusion_lat": 0.0, "name": "916bd5824329dbd0ea951f7e86ca5733", "fusion_lon": 0.0}, {"is_reserved": 0, "type": "electric_scooter", "bike_id": "fef1c1c10346141764e53269c5ca3ddf", "lat": 38.900283, "lon": -76.98852066666667, "rental_uris": {"android": "https://dc.lft.to/lastmile_qr_scan", "ios": "https://dc.lft.to/lastmile_qr_scan"}, "is_disabled": 0, "fusion_lat": 0.0, "name": "fef1c1c10346141764e53269c5ca3ddf", "fusion_lon": 0.0}, {"is_reserved": 0, "type": "electric_scooter", "bike_id": "e9af6eeeea7baa696c2016ad377c487d", "lat": 38.876547, "lon": -77.00740683333333, "rental_uris": {"android": "https://dc.lft.to/lastmile_qr_scan", "ios": "https://dc.lft.to/lastmile_qr_scan"}, "is_disabled": 0, "fusion_lat": 0.0, "name": "e9af6eeeea7baa696c2016ad377c487d", "fusion_lon": 0.0}, {"is_reserved": 0, "type": "electric_scooter", "bike_id": "977dccfc66ae35b6d13641d04cd7e898", "lat": 38.8792125, "lon": -77.0024215, "rental_uris": {"android": "https://dc.lft.to/lastmile_qr_scan", "ios": "https://dc.lft.to/lastmile_qr_scan"}, "is_disabled": 0, "fusion_lat": 0.0, "name": "977dccfc66ae35b6d13641d04cd7e898", "fusion_lon": 0.0}, {"is_reserved": 0, "type": "electric_scooter", "bike_id": "5da37357c1dbedd10f3f8aaeab079ce0", "lat": 38.91693216666667, "lon": -77.00356233333333, "rental_uris": {"android": "https://dc.lft.to/lastmile_qr_scan", "ios": "https://dc.lft.to/lastmile_qr_scan"}, "is_disabled": 0, "fusion_lat": 0.0, "name": "5da37357c1dbedd10f3f8aaeab079ce0", "fusion_lon": 0.0}, {"is_reserved": 0, "type": "electric_scooter", "bike_id": "980bf611b61b2be3360e394b307ce442", "lat": 38.89724116666667, "lon": -77.02501183333334, "rental_uris": {"android": "https://dc.lft.to/lastmile_qr_scan", "ios": "https://dc.lft.to/lastmile_qr_scan"}, "is_disabled": 0, "fusion_lat": 0.0, "name": "980bf611b61b2be3360e394b307ce442", "fusion_lon": 0.0}, {"is_reserved": 0, "type": "electric_bike", "bike_id": "17d0259ea40b7ce1b7a32831acd27381", "lat": 39.038137666666664, "lon": -77.04254833333333, "rental_uris": {"android": "https://dc.lft.to/lastmile_qr_scan", "ios": "https://dc.lft.to/lastmile_qr_scan"}, "is_disabled": 0, "fusion_lat": 0.0, "name": "17d0259ea40b7ce1b7a32831acd27381", "fusion_lon": 0.0}, {"is_reserved": 0, "type": "electric_scooter", "bike_id": "7a0663b601c86ff36d0a88771262dbfb", "lat": 38.90727366666667, "lon": -77.02315333333334, "rental_uris": {"android": "https://dc.lft.to/lastmile_qr_scan", "ios": "https://dc.lft.to/lastmile_qr_scan"}, "is_disabled": 0, "fusion_lat": 0.0, "name": "7a0663b601c86ff36d0a88771262dbfb", "fusion_lon": 0.0}, {"is_reserved": 0, "type": "electric_scooter", "bike_id": "4af456567ba33f8055c60e50806d96dc", "lat": 38.90681466666667, "lon": -77.06259066666667, "rental_uris": {"android": "https://dc.lft.to/lastmile_qr_scan", "ios": "https://dc.lft.to/lastmile_qr_scan"}, "is_disabled": 0, "fusion_lat": 0.0, "name": "4af456567ba33f8055c60e50806d96dc", "fusion_lon": 0.0}, {"is_reserved": 0, "type": "electric_scooter", "bike_id": "b65c33a589a0cb906ff4b1f2da45340f", "lat": 38.91907766666667, "lon": -77.01342516666666, "rental_uris": {"android": "https://dc.lft.to/lastmile_qr_scan", "ios": "https://dc.lft.to/lastmile_qr_scan"}, "is_disabled": 0, "fusion_lat": 0.0, "name": "b65c33a589a0cb906ff4b1f2da45340f", "fusion_lon": 0.0}, {"is_reserved": 0, "type": "electric_scooter", "bike_id": "2183334e6ba93ea1decaba5315c1d844", "lat": 38.917026166666666, "lon": -77.03141266666667, "rental_uris": {"android": "https://dc.lft.to/lastmile_qr_scan", "ios": "https://dc.lft.to/lastmile_qr_scan"}, "is_disabled": 0, "fusion_lat": 0.0, "name": "2183334e6ba93ea1decaba5315c1d844", "fusion_lon": 0.0}, {"is_reserved": 0, "type": "electric_scooter", "bike_id": "36f90a554544f58462e87c14d4cbc33e", "lat": 38.922389833333334, "lon": -77.02336583333333, "rental_uris": {"android": "https://dc.lft.to/lastmile_qr_scan", "ios": "https://dc.lft.to/lastmile_qr_scan"}, "is_disabled": 0, "fusion_lat": 0.0, "name": "36f90a554544f58462e87c14d4cbc33e", "fusion_lon": 0.0}, {"is_reserved": 0, "type": "electric_scooter", "bike_id": "bd809c8233342c98db3a1942a8ddc172", "lat": 38.91143916666667, "lon": -77.01892783333334, "rental_uris": {"android": "https://dc.lft.to/lastmile_qr_scan", "ios": "https://dc.lft.to/lastmile_qr_scan"}, "is_disabled": 0, "fusion_lat": 0.0, "name": "bd809c8233342c98db3a1942a8ddc172", "fusion_lon": 0.0}, {"is_reserved": 0, "type": "electric_scooter", "bike_id": "3dea7da4fe292df2901c23258c37cee1", "lat": 38.921467666666665, "lon": -77.03507783333333, "rental_uris": {"android": "https://dc.lft.to/lastmile_qr_scan", "ios": "https://dc.lft.to/lastmile_qr_scan"}, "is_disabled": 0, "fusion_lat": 0.0, "name": "3dea7da4fe292df2901c23258c37cee1", "fusion_lon": 0.0}, {"is_reserved": 0, "type": "electric_scooter", "bike_id": "329995c7bc33864ea9d0c9f8e604e024", "lat": 38.9236615, "lon": -77.02794933333334, "rental_uris": {"android": "https://dc.lft.to/lastmile_qr_scan", "ios": "https://dc.lft.to/lastmile_qr_scan"}, "is_disabled": 0, "fusion_lat": 0.0, "name": "329995c7bc33864ea9d0c9f8e604e024", "fusion_lon": 0.0}, {"is_reserved": 0, "type": "electric_scooter", "bike_id": "961bbd002608aeda0befdd49cd5bae04", "lat": 38.92086116666667, "lon": -77.0326675, "rental_uris": {"android": "https://dc.lft.to/lastmile_qr_scan", "ios": "https://dc.lft.to/lastmile_qr_scan"}, "is_disabled": 0, "fusion_lat": 0.0, "name": "961bbd002608aeda0befdd49cd5bae04", "fusion_lon": 0.0}, {"is_reserved": 0, "type": "electric_scooter", "bike_id": "487b941a2dd5dd0612b10fadeb63fa22", "lat": 38.922681833333336, "lon": -77.02954233333334, "rental_uris": {"android": "https://dc.lft.to/lastmile_qr_scan", "ios": "https://dc.lft.to/lastmile_qr_scan"}, "is_disabled": 0, "fusion_lat": 0.0, "name": "487b941a2dd5dd0612b10fadeb63fa22", "fusion_lon": 0.0}, {"is_reserved": 0, "type": "electric_scooter", "bike_id": "c15d9a4f0f65fc956e68e6dac6dfb15e", "lat": 38.8934585, "lon": -77.02823083333334, "rental_uris": {"android": "https://dc.lft.to/lastmile_qr_scan", "ios": "https://dc.lft.to/lastmile_qr_scan"}, "is_disabled": 0, "fusion_lat": 0.0, "name": "c15d9a4f0f65fc956e68e6dac6dfb15e", "fusion_lon": 0.0}, {"is_reserved": 0, "type": "electric_scooter", "bike_id": "2746cb4d21a478f1b8589b6d7e03c4ee", "lat": 38.92343, "lon": -77.01904916666666, "rental_uris": {"android": "https://dc.lft.to/lastmile_qr_scan", "ios": "https://dc.lft.to/lastmile_qr_scan"}, "is_disabled": 0, "fusion_lat": 0.0, "name": "2746cb4d21a478f1b8589b6d7e03c4ee", "fusion_lon": 0.0}, {"is_reserved": 0, "type": "electric_scooter", "bike_id": "9b93ba17bb75b5f6cfbce0beaf0b3793", "lat": 38.904439833333335, "lon": -77.06288266666667, "rental_uris": {"android": "https://dc.lft.to/lastmile_qr_scan", "ios": "https://dc.lft.to/lastmile_qr_scan"}, "is_disabled": 0, "fusion_lat": 0.0, "name": "9b93ba17bb75b5f6cfbce0beaf0b3793", "fusion_lon": 0.0}, {"is_reserved": 0, "type": "electric_scooter", "bike_id": "1cadd80e747d3fc13b88ba55c178373a", "lat": 38.924841, "lon": -77.02138833333333, "rental_uris": {"android": "https://dc.lft.to/lastmile_qr_scan", "ios": "https://dc.lft.to/lastmile_qr_scan"}, "is_disabled": 0, "fusion_lat": 0.0, "name": "1cadd80e747d3fc13b88ba55c178373a", "fusion_lon": 0.0}, {"is_reserved": 0, "type": "electric_scooter", "bike_id": "a48042482f5cc268e06e1adabfe2529a", "lat": 38.87294983333334, "lon": -77.01562883333334, "rental_uris": {"android": "https://dc.lft.to/lastmile_qr_scan", "ios": "https://dc.lft.to/lastmile_qr_scan"}, "is_disabled": 0, "fusion_lat": 0.0, "name": "a48042482f5cc268e06e1adabfe2529a", "fusion_lon": 0.0}, {"is_reserved": 0, "type": "electric_scooter", "bike_id": "f4cb8f8b219a1c46487723cb4a7328c2", "lat": 38.892778166666666, "lon": -76.92919483333333, "rental_uris": {"android": "https://dc.lft.to/lastmile_qr_scan", "ios": "https://dc.lft.to/lastmile_qr_scan"}, "is_disabled": 0, "fusion_lat": 0.0, "name": "f4cb8f8b219a1c46487723cb4a7328c2", "fusion_lon": 0.0}, {"is_reserved": 0, "type": "electric_scooter", "bike_id": "00ebd659e9e6fb04f2347ff13bdebb62", "lat": 38.9162735, "lon": -77.00196883333334, "rental_uris": {"android": "https://dc.lft.to/lastmile_qr_scan", "ios": "https://dc.lft.to/lastmile_qr_scan"}, "is_disabled": 0, "fusion_lat": 0.0, "name": "00ebd659e9e6fb04f2347ff13bdebb62", "fusion_lon": 0.0}, {"is_reserved": 0, "type": "electric_scooter", "bike_id": "5726c6703bb4d04c2611c1f9996519d9", "lat": 38.933322833333335, "lon": -77.02908333333333, "rental_uris": {"android": "https://dc.lft.to/lastmile_qr_scan", "ios": "https://dc.lft.to/lastmile_qr_scan"}, "is_disabled": 0, "fusion_lat": 0.0, "name": "5726c6703bb4d04c2611c1f9996519d9", "fusion_lon": 0.0}, {"is_reserved": 0, "type": "electric_scooter", "bike_id": "a0bdb2e79b5df70045e0dcc0fb8bdb24", "lat": 38.9065975, "lon": -77.041649, "rental_uris": {"android": "https://dc.lft.to/lastmile_qr_scan", "ios": "https://dc.lft.to/lastmile_qr_scan"}, "is_disabled": 0, "fusion_lat": 0.0, "name": "a0bdb2e79b5df70045e0dcc0fb8bdb24", "fusion_lon": 0.0}, {"is_reserved": 0, "type": "electric_scooter", "bike_id": "ef53b30adddd35d78730cd9a00a222f6", "lat": 38.89839883333333, "lon": -77.022084, "rental_uris": {"android": "https://dc.lft.to/lastmile_qr_scan", "ios": "https://dc.lft.to/lastmile_qr_scan"}, "is_disabled": 0, "fusion_lat": 0.0, "name": "ef53b30adddd35d78730cd9a00a222f6", "fusion_lon": 0.0}, {"is_reserved": 0, "type": "electric_scooter", "bike_id": "454a0bacde4b3685fd4fbc88406c4aa4", "lat": 38.91916033333333, "lon": -77.048051, "rental_uris": {"android": "https://dc.lft.to/lastmile_qr_scan", "ios": "https://dc.lft.to/lastmile_qr_scan"}, "is_disabled": 0, "fusion_lat": 0.0, "name": "454a0bacde4b3685fd4fbc88406c4aa4", "fusion_lon": 0.0}, {"is_reserved": 0, "type": "electric_scooter", "bike_id": "dabb91b24c5d2bd5c9daafba50d10ce5", "lat": 38.9236395, "lon": -77.05131466666667, "rental_uris": {"android": "https://dc.lft.to/lastmile_qr_scan", "ios": "https://dc.lft.to/lastmile_qr_scan"}, "is_disabled": 0, "fusion_lat": 0.0, "name": "dabb91b24c5d2bd5c9daafba50d10ce5", "fusion_lon": 0.0}, {"is_reserved": 0, "type": "electric_scooter", "bike_id": "3836b27d2762dafa13296ef99d6f2ecd", "lat": 38.930093166666666, "lon": -77.02351716666666, "rental_uris": {"android": "https://dc.lft.to/lastmile_qr_scan", "ios": "https://dc.lft.to/lastmile_qr_scan"}, "is_disabled": 0, "fusion_lat": 0.0, "name": "3836b27d2762dafa13296ef99d6f2ecd", "fusion_lon": 0.0}, {"is_reserved": 0, "type": "electric_scooter", "bike_id": "b330781bd9525454dc742b4eb3c24605", "lat": 38.926011833333334, "lon": -77.0215175, "rental_uris": {"android": "https://dc.lft.to/lastmile_qr_scan", "ios": "https://dc.lft.to/lastmile_qr_scan"}, "is_disabled": 0, "fusion_lat": 0.0, "name": "b330781bd9525454dc742b4eb3c24605", "fusion_lon": 0.0}, {"is_reserved": 0, "type": "electric_scooter", "bike_id": "7b1143a7bc8b6666aac2067ec938e436", "lat": 38.90622466666667, "lon": -77.06513433333333, "rental_uris": {"android": "https://dc.lft.to/lastmile_qr_scan", "ios": "https://dc.lft.to/lastmile_qr_scan"}, "is_disabled": 0, "fusion_lat": 0.0, "name": "7b1143a7bc8b6666aac2067ec938e436", "fusion_lon": 0.0}, {"is_reserved": 0, "type": "electric_scooter", "bike_id": "f9b72c8eeee0020037b00aa0b2454d06", "lat": 38.90730033333333, "lon": -77.047935, "rental_uris": {"android": "https://dc.lft.to/lastmile_qr_scan", "ios": "https://dc.lft.to/lastmile_qr_scan"}, "is_disabled": 0, "fusion_lat": 0.0, "name": "f9b72c8eeee0020037b00aa0b2454d06", "fusion_lon": 0.0}, {"is_reserved": 0, "type": "electric_scooter", "bike_id": "a46e6c09ffa7f4f05d2bfbdb898010c6", "lat": 38.924491333333336, "lon": -77.02032183333333, "rental_uris": {"android": "https://dc.lft.to/lastmile_qr_scan", "ios": "https://dc.lft.to/lastmile_qr_scan"}, "is_disabled": 0, "fusion_lat": 0.0, "name": "a46e6c09ffa7f4f05d2bfbdb898010c6", "fusion_lon": 0.0}, {"is_reserved": 0, "type": "electric_scooter", "bike_id": "053ae762d27ddef0bf52dc490960ce72", "lat": 38.905802, "lon": -77.005914, "rental_uris": {"android": "https://dc.lft.to/lastmile_qr_scan", "ios": "https://dc.lft.to/lastmile_qr_scan"}, "is_disabled": 0, "fusion_lat": 0.0, "name": "053ae762d27ddef0bf52dc490960ce72", "fusion_lon": 0.0}, {"is_reserved": 0, "type": "electric_scooter", "bike_id": "05b6aa711f0525818102682e9dbbd4bb", "lat": 38.898931166666664, "lon": -77.01963383333333, "rental_uris": {"android": "https://dc.lft.to/lastmile_qr_scan", "ios": "https://dc.lft.to/lastmile_qr_scan"}, "is_disabled": 0, "fusion_lat": 0.0, "name": "05b6aa711f0525818102682e9dbbd4bb", "fusion_lon": 0.0}, {"is_reserved": 0, "type": "electric_scooter", "bike_id": "68bec22faa022b530d64141eb8ee192b", "lat": 38.93381266666667, "lon": -76.99512033333333, "rental_uris": {"android": "https://dc.lft.to/lastmile_qr_scan", "ios": "https://dc.lft.to/lastmile_qr_scan"}, "is_disabled": 0, "fusion_lat": 0.0, "name": "68bec22faa022b530d64141eb8ee192b", "fusion_lon": 0.0}, {"is_reserved": 0, "type": "electric_bike", "bike_id": "49f8bbb388abfaea2e579c440fce2916", "lat": 39.0849095, "lon": -76.95060183333334, "rental_uris": {"android": "https://dc.lft.to/lastmile_qr_scan", "ios": "https://dc.lft.to/lastmile_qr_scan"}, "is_disabled": 0, "fusion_lat": 0.0, "name": "49f8bbb388abfaea2e579c440fce2916", "fusion_lon": 0.0}, {"is_reserved": 0, "type": "electric_scooter", "bike_id": "2588f61b3f5f570563c73238c6556c90", "lat": 38.94434666666667, "lon": -76.97963283333333, "rental_uris": {"android": "https://dc.lft.to/lastmile_qr_scan", "ios": "https://dc.lft.to/lastmile_qr_scan"}, "is_disabled": 0, "fusion_lat": 0.0, "name": "2588f61b3f5f570563c73238c6556c90", "fusion_lon": 0.0}, {"is_reserved": 0, "type": "electric_scooter", "bike_id": "c5dd29092e73e974a39bfa2224de34e6", "lat": 38.911047833333335, "lon": -77.03823516666667, "rental_uris": {"android": "https://dc.lft.to/lastmile_qr_scan", "ios": "https://dc.lft.to/lastmile_qr_scan"}, "is_disabled": 0, "fusion_lat": 0.0, "name": "c5dd29092e73e974a39bfa2224de34e6", "fusion_lon": 0.0}, {"is_reserved": 0, "type": "electric_scooter", "bike_id": "562793951fecf886b1a161af4c3dc82a", "lat": 38.9258705, "lon": -77.02599016666667, "rental_uris": {"android": "https://dc.lft.to/lastmile_qr_scan", "ios": "https://dc.lft.to/lastmile_qr_scan"}, "is_disabled": 0, "fusion_lat": 0.0, "name": "562793951fecf886b1a161af4c3dc82a", "fusion_lon": 0.0}, {"is_reserved": 0, "type": "electric_scooter", "bike_id": "f480b8210b3dd8f2ca5b8ede7bc86e6d", "lat": 38.915799666666665, "lon": -77.01230016666666, "rental_uris": {"android": "https://dc.lft.to/lastmile_qr_scan", "ios": "https://dc.lft.to/lastmile_qr_scan"}, "is_disabled": 0, "fusion_lat": 0.0, "name": "f480b8210b3dd8f2ca5b8ede7bc86e6d", "fusion_lon": 0.0}, {"is_reserved": 0, "type": "electric_scooter", "bike_id": "7c61e0c13f0dc68405d8757953cb5153", "lat": 38.920360333333335, "lon": -77.01219366666666, "rental_uris": {"android": "https://dc.lft.to/lastmile_qr_scan", "ios": "https://dc.lft.to/lastmile_qr_scan"}, "is_disabled": 0, "fusion_lat": 0.0, "name": "7c61e0c13f0dc68405d8757953cb5153", "fusion_lon": 0.0}, {"is_reserved": 0, "type": "electric_scooter", "bike_id": "30f34c65ab8dbe1119477ad0202eb2a5", "lat": 38.920805, "lon": -77.0253735, "rental_uris": {"android": "https://dc.lft.to/lastmile_qr_scan", "ios": "https://dc.lft.to/lastmile_qr_scan"}, "is_disabled": 0, "fusion_lat": 0.0, "name": "30f34c65ab8dbe1119477ad0202eb2a5", "fusion_lon": 0.0}, {"is_reserved": 0, "type": "electric_scooter", "bike_id": "47964531da347afa47e213cd7aca0ed7", "lat": 38.90436616666667, "lon": -77.031156, "rental_uris": {"android": "https://dc.lft.to/lastmile_qr_scan", "ios": "https://dc.lft.to/lastmile_qr_scan"}, "is_disabled": 0, "fusion_lat": 0.0, "name": "47964531da347afa47e213cd7aca0ed7", "fusion_lon": 0.0}, {"is_reserved": 0, "type": "electric_scooter", "bike_id": "58f20d5a752d050dc3ceaeada3de787b", "lat": 38.9036305, "lon": -77.038578, "rental_uris": {"android": "https://dc.lft.to/lastmile_qr_scan", "ios": "https://dc.lft.to/lastmile_qr_scan"}, "is_disabled": 0, "fusion_lat": 0.0, "name": "58f20d5a752d050dc3ceaeada3de787b", "fusion_lon": 0.0}, {"is_reserved": 0, "type": "electric_scooter", "bike_id": "1be89da683b0471f1d24118f53552801", "lat": 38.8862435, "lon": -77.022077, "rental_uris": {"android": "https://dc.lft.to/lastmile_qr_scan", "ios": "https://dc.lft.to/lastmile_qr_scan"}, "is_disabled": 0, "fusion_lat": 0.0, "name": "1be89da683b0471f1d24118f53552801", "fusion_lon": 0.0}, {"is_reserved": 0, "type": "electric_scooter", "bike_id": "c39a46f546b518e819c1205a5a50b824", "lat": 38.886168166666664, "lon": -77.00406966666667, "rental_uris": {"android": "https://dc.lft.to/lastmile_qr_scan", "ios": "https://dc.lft.to/lastmile_qr_scan"}, "is_disabled": 0, "fusion_lat": 0.0, "name": "c39a46f546b518e819c1205a5a50b824", "fusion_lon": 0.0}, {"is_reserved": 0, "type": "electric_scooter", "bike_id": "ed4747362e8a0cbcfd295d0a88cec0ed", "lat": 38.893468666666664, "lon": -77.03154016666667, "rental_uris": {"android": "https://dc.lft.to/lastmile_qr_scan", "ios": "https://dc.lft.to/lastmile_qr_scan"}, "is_disabled": 0, "fusion_lat": 0.0, "name": "ed4747362e8a0cbcfd295d0a88cec0ed", "fusion_lon": 0.0},