{"data": {"bikes": [{"is_disabled": 0, "fusion_lon": 0.0, "fusion_lat": 0.0, "lat": 38.9127125, "type": "electric_scooter", "lon": -77.0169015, "bike_id": "bbfb410d21a7834262c8277d813a8ac6", "rental_uris": {"android": "https://dc.lft.to/lastmile_qr_scan", "ios": "https://dc.lft.to/lastmile_qr_scan"}, "name": "bbfb410d21a7834262c8277d813a8ac6", "is_reserved": 0}, {"is_disabled": 0, "fusion_lon": 0.0, "fusion_lat": 0.0, "lat": 38.91974066666667, "type": "electric_scooter", "lon": -77.04176966666667, "bike_id": "7582aac8dec51318cfede280dad9406c", "rental_uris": {"android": "https://dc.lft.to/lastmile_qr_scan", "ios": "https://dc.lft.to/lastmile_qr_scan"}, "name": "7582aac8dec51318cfede280dad9406c", "is_reserved": 0}, {"is_disabled": 0, "fusion_lon": 0.0, "fusion_lat": 0.0, "lat": 38.9676175, "type": "electric_bike", "lon": -77.09161433333334, "bike_id": "fff746d760075a343e791557f4fd148b", "rental_uris": {"android": "https://dc.lft.to/lastmile_qr_scan", "ios": "https://dc.lft.to/lastmile_qr_scan"}, "name": "fff746d760075a343e791557f4fd148b", "is_reserved": 0}, {"is_disabled": 0, "fusion_lon": 0.0, "fusion_lat": 0.0, "lat": 38.99860833333334, "type": "electric_bike", "lon": -77.02869433333333, "bike_id": "fc90206f07ff5fc735946bfc36747bf8", "rental_uris": {"android": "https://dc.lft.to/lastmile_qr_scan", "ios": "https://dc.lft.to/lastmile_qr_scan"}, "name": "fc90206f07ff5fc735946bfc36747bf8", "is_reserved": 0}, {"is_disabled": 0, "fusion_lon": 0.0, "fusion_lat": 0.0, "lat": 38.89222633333333, "type": "electric_scooter", "lon": -77.01373633333333, "bike_id": "702b1008bf7ee4cb28a4a49da2a2c5f1", "rental_uris": {"android": "https://dc.lft.to/lastmile_qr_scan", "ios": "https://dc.lft.to/lastmile_qr_scan"}, "name": "702b1008bf7ee4cb28a4a49da2a2c5f1", "is_reserved": 0}, {"is_disabled": 0, "fusion_lon": 0.0, "fusion_lat": 0.0, "lat": 38.92486066666667, "type": "electric_scooter", "lon": -77.02715883333333, "bike_id": "bffb48d7257c730b8d75d32237a58060", "rental_uris": {"android": "https://dc.lft.to/lastmile_qr_scan", "ios": "https://dc.lft.to/lastmile_qr_scan"}, "name": "bffb48d7257c730b8d75d32237a58060", "is_reserved": 0}, {"is_disabled": 0, "fusion_lon": 0.0, "fusion_lat": 0.0, "lat": 38.92327083333333, "type": "electric_scooter", "lon": -77.03538566666667, "bike_id": "4913b6762fc90e19c50b6002dcd706d2", "rental_uris": {"android": "https://dc.lft.to/lastmile_qr_scan", "ios": "https://dc.lft.to/lastmile_qr_scan"}, "name": "4913b6762fc90e19c50b6002dcd706d2", "is_reserved": 0}, {"is_disabled": 0, "fusion_lon": 0.0, "fusion_lat": 0.0, "lat": 38.90352933333333, "type": "electric_scooter", "lon": -77.040191, "bike_id": "051dbef660840402eee6a64d324462d2", "rental_uris": {"android": "https://dc.lft.to/lastmile_qr_scan", "ios": "https://dc.lft.to/lastmile_qr_scan"}, "name": "051dbef660840402eee6a64d324462d2", "is_reserved": 0}, {"is_disabled": 0, "fusion_lon": 0.0, "fusion_lat": 0.0, "lat": 38.89737266666667, "type": "electric_scooter", "lon": -77.02606366666667, "bike_id": "b2ca724c2979a80df0cb6aa7f9d3fdbe", "rental_uris": {"android": "https://dc.lft.to/lastmile_qr_scan", "ios": "https://dc.lft.to/lastmile_qr_scan"}, "name": "b2ca724c2979a80df0cb6aa7f9d3fdbe", "is_reserved": 0}, {"is_disabled": 0, "fusion_lon": 0.0, "fusion_lat": 0.0, "lat": 38.842030666666666, "type": "electric_bike", "lon": -77.1068375, "bike_id": "213cecc246e08e61c5d18b94930aa037", "rental_uris": {"android": "https://dc.lft.to/lastmile_qr_scan", "ios": "https://dc.lft.to/lastmile_qr_scan"}, "name": "213cecc246e08e61c5d18b94930aa037", "is_reserved": 0}, {"is_disabled": 0, "fusion_lon": 0.0, "fusion_lat": 0.0, "lat": 38.92858416666667, "type": "electric_scooter", "lon": -77.01394533333334, "bike_id": "51de07d0b3d2bff29dfa7bf846f19d9b", "rental_uris": {"android": "https://dc.lft.to/lastmile_qr_scan", "ios": "https://dc.lft.to/lastmile_qr_scan"}, "name": "51de07d0b3d2bff29dfa7bf846f19d9b", "is_reserved": 0}, {"is_disabled": 0, "fusion_lon": 0.0, "fusion_lat": 0.0, "lat": 38.858084833333336, "type": "electric_scooter", "lon": -76.9865515, "bike_id": "ea1fabe5ec70f9558a607d64df9c6be1", "rental_uris": {"android": "https://dc.lft.to/lastmile_qr_scan", "ios": "https://dc.lft.to/lastmile_qr_scan"}, "name": "ea1fabe5ec70f9558a607d64df9c6be1", "is_reserved": 0}, {"is_disabled": 0, "fusion_lon": 0.0, "fusion_lat": 0.0, "lat": 38.89189116666667, "type": "electric_scooter", "lon": -77.01528683333333, "bike_id": "9a35e82485fb2c26ccd52749a66037d1", "rental_uris": {"android": "https://dc.lft.to/lastmile_qr_scan", "ios": "https://dc.lft.to/lastmile_qr_scan"}, "name": "9a35e82485fb2c26ccd52749a66037d1", "is_reserved": 0}, {"is_disabled": 0, "fusion_lon": 0.0, "fusion_lat": 0.0, "lat": 38.914688, "type": "electric_scooter", "lon": -77.03178366666667, "bike_id": "9c86bcfc87647ef3a444fe682b6a49bb", "rental_uris": {"android": "https://dc.lft.to/lastmile_qr_scan", "ios": "https://dc.lft.to/lastmile_qr_scan"}, "name": "9c86bcfc87647ef3a444fe682b6a49bb", "is_reserved": 0}, {"is_disabled": 0, "fusion_lon": 0.0, "fusion_lat": 0.0, "lat": 38.87058666666667, "type": "electric_scooter", "lon": -76.98093566666667, "bike_id": "2d73eeb658b392ca4067e38f4cf918e8", "rental_uris": {"android": "https://dc.lft.to/lastmile_qr_scan", "ios": "https://dc.lft.to/lastmile_qr_scan"}, "name": "2d73eeb658b392ca4067e38f4cf918e8", "is_reserved": 0}, {"is_disabled": 0, "fusion_lon": 0.0, "fusion_lat": 0.0, "lat": 38.85653033333333, "type": "electric_bike", "lon": -77.08528166666666, "bike_id": "86d6b04fe33baf87cb5e0273e53133b1", "rental_uris": {"android": "https://dc.lft.to/lastmile_qr_scan", "ios": "https://dc.lft.to/lastmile_qr_scan"}, "name": "86d6b04fe33baf87cb5e0273e53133b1", "is_reserved": 0}, {"is_disabled": 0, "fusion_lon": 0.0, "fusion_lat": 0.0, "lat": 38.88689466666666, "type": "electric_scooter", "lon": -76.98798433333333, "bike_id": "1756f5d7ae04cde0cc140000c2efa566", "rental_uris": {"android": "https://dc.lft.to/lastmile_qr_scan", "ios": "https://dc.lft.to/lastmile_qr_scan"}, "name": "1756f5d7ae04cde0cc140000c2efa566", "is_reserved": 0}, {"is_disabled": 0, "fusion_lon": 0.0, "fusion_lat": 0.0, "lat": 38.91704566666667, "type": "electric_scooter", "lon": -77.01160166666666, "bike_id": "ac4abbd3e3fb3727fb3f93c485ab1d0d", "rental_uris": {"android": "https://dc.lft.to/lastmile_qr_scan", "ios": "https://dc.lft.to/lastmile_qr_scan"}, "name": "ac4abbd3e3fb3727fb3f93c485ab1d0d", "is_reserved": 0}, {"is_disabled": 0, "fusion_lon": 0.0, "fusion_lat": 0.0, "lat": 38.9119955, "type": "electric_scooter", "lon": -77.04171033333333, "bike_id": "159b3ede85e3ec260b386a2c29c97959", "rental_uris": {"android": "https://dc.lft.to/lastmile_qr_scan", "ios": "https://dc.lft.to/lastmile_qr_scan"}, "name": "159b3ede85e3ec260b386a2c29c97959", "is_reserved": 0}, {"is_disabled": 0, "fusion_lon": 0.0, "fusion_lat": 0.0, "lat": 38.9564115, "type": "electric_scooter", "lon": -77.09100366666667, "bike_id": "96edcb7cfc70f4504c07ec30de30768d", "rental_uris": {"android": "https://dc.lft.to/lastmile_qr_scan", "ios": "https://dc.lft.to/lastmile_qr_scan"}, "name": "96edcb7cfc70f4504c07ec30de30768d", "is_reserved": 0}, {"is_disabled": 0, "fusion_lon": 0.0, "fusion_lat": 0.0, "lat": 38.896220166666666, "type": "electric_scooter", "lon": -77.0214475, "bike_id": "3e71cb85085ba64600c55ec4ad1316d4", "rental_uris": {"android": "https://dc.lft.to/lastmile_qr_scan", "ios": "https://dc.lft.to/lastmile_qr_scan"}, "name": "3e71cb85085ba64600c55ec4ad1316d4", "is_reserved": 0}, {"is_disabled": 0, "fusion_lon": 0.0, "fusion_lat": 0.0, "lat": 38.92366233333333, "type": "electric_scooter", "lon": -77.05027016666666, "bike_id": "ebd8d3548d44749be90523ffb4266193", "rental_uris": {"android": "https://dc.lft.to/lastmile_qr_scan", "ios": "https://dc.lft.to/lastmile_qr_scan"}, "name": "ebd8d3548d44749be90523ffb4266193", "is_reserved": 0}, {"is_disabled": 0, "fusion_lon": 0.0, "fusion_lat": 0.0, "lat": 38.8493615, "type": "electric_bike", "lon": -77.10010283333334, "bike_id": "5d156403300aaa4d5bf11aaf1c6a8857", "rental_uris": {"android": "https://dc.lft.to/lastmile_qr_scan", "ios": "https://dc.lft.to/lastmile_qr_scan"}, "name": "5d156403300aaa4d5bf11aaf1c6a8857", "is_reserved": 0}, {"is_disabled": 0, "fusion_lon": 0.0, "fusion_lat": 0.0, "lat": 38.91718866666667, "type": "electric_scooter", "lon": -77.0415125, "bike_id": "edaf1b4f7b084f7546547d374c02f908", "rental_uris": {"android": "https://dc.lft.to/lastmile_qr_scan", "ios": "https://dc.lft.to/lastmile_qr_scan"}, "name": "edaf1b4f7b084f7546547d374c02f908", "is_reserved": 0}, {"is_disabled": 0, "fusion_lon": 0.0, "fusion_lat": 0.0, "lat": 38.88613383333333, "type": "electric_scooter", "lon": -77.00575616666667, "bike_id": "0fcd102ee6aec564aad401342654a8ff", "rental_uris": {"android": "https://dc.lft.to/lastmile_qr_scan", "ios": "https://dc.lft.to/lastmile_qr_scan"}, "name": "0fcd102ee6aec564aad401342654a8ff", "is_reserved": 0}, {"is_disabled": 0, "fusion_lon": 0.0, "fusion_lat": 0.0, "lat": 38.866159, "type": "electric_scooter", "lon": -77.01073, "bike_id": "16be0c9145ac2ef5bf88e8ab33261ddd", "rental_uris": {"android": "https://dc.lft.to/lastmile_qr_scan", "ios": "https://dc.lft.to/lastmile_qr_scan"}, "name": "16be0c9145ac2ef5bf88e8ab33261ddd", "is_reserved": 0}, {"is_disabled": 0, "fusion_lon": 0.0, "fusion_lat": 0.0, "lat": 38.93698883333333, "type": "electric_scooter", "lon": -77.05601116666666, "bike_id": "d241cbd196f729fe1eb01ce31dfe29a7", "rental_uris": {"android": "https://dc.lft.to/lastmile_qr_scan", "ios": "https://dc.lft.to/lastmile_qr_scan"}, "name": "d241cbd196f729fe1eb01ce31dfe29a7", "is_reserved": 0}, {"is_disabled": 0, "fusion_lon": 0.0, "fusion_lat": 0.0, "lat": 38.902622, "type": "electric_scooter", "lon": -77.0184795, "bike_id": "efdc7af5b2206d9be3dcab4c86fb4451", "rental_uris": {"android": "https://dc.lft.to/lastmile_qr_scan", "ios": "https://dc.lft.to/lastmile_qr_scan"}, "name": "efdc7af5b2206d9be3dcab4c86fb4451", "is_reserved": 0}, {"is_disabled": 0, "fusion_lon": 0.0, "fusion_lat": 0.0, "lat": 38.910877, "type": "electric_scooter", "lon": -77.02204166666667, "bike_id": "1101849bd21cc36cd3768e7150af616e", "rental_uris": {"android": "https://dc.lft.to/lastmile_qr_scan", "ios": "https://dc.lft.to/lastmile_qr_scan"}, "name": "1101849bd21cc36cd3768e7150af616e", "is_reserved": 0}, {"is_disabled": 0, "fusion_lon": 0.0, "fusion_lat": 0.0, "lat": 38.87537833333333, "type": "electric_scooter", "lon": -77.00062816666667, "bike_id": "b0cf1a5374426bc2491fc14abc857f37", "rental_uris": {"android": "https://dc.lft.to/lastmile_qr_scan", "ios": "https://dc.lft.to/lastmile_qr_scan"}, "name": "b0cf1a5374426bc2491fc14abc857f37", "is_reserved": 0}, {"is_disabled": 0, "fusion_lon": 0.0, "fusion_lat": 0.0, "lat": 38.915230333333334, "type": "electric_scooter", "lon": -77.01980433333334, "bike_id": "3bc42117ebe0aebfd92f6f19c01ac6a6", "rental_uris": {"android": "https://dc.lft.to/lastmile_qr_scan", "ios": "https://dc.lft.to/lastmile_qr_scan"}, "name": "3bc42117ebe0aebfd92f6f19c01ac6a6", "is_reserved": 0}, {"is_disabled": 0, "fusion_lon": 0.0, "fusion_lat": 0.0, "lat": 38.931579, "type": "electric_scooter", "lon": -77.07846066666667, "bike_id": "ea4c2d1bcf284e4ee8673f41c1039ee4", "rental_uris": {"android": "https://dc.lft.to/lastmile_qr_scan", "ios": "https://dc.lft.to/lastmile_qr_scan"}, "name": "ea4c2d1bcf284e4ee8673f41c1039ee4", "is_reserved": 0}, {"is_disabled": 0, "fusion_lon": 0.0, "fusion_lat": 0.0, "lat": 38.90931033333333, "type": "electric_scooter", "lon": -77.057115, "bike_id": "c7ebb09210e7b5e2245dfa2bb9d0503c", "rental_uris": {"android": "https://dc.lft.to/lastmile_qr_scan", "ios": "https://dc.lft.to/lastmile_qr_scan"}, "name": "c7ebb09210e7b5e2245dfa2bb9d0503c", "is_reserved": 0}, {"is_disabled": 0, "fusion_lon": 0.0, "fusion_lat": 0.0, "lat": 38.9138945, "type": "electric_scooter", "lon": -77.01704966666667, "bike_id": "da39300d7575080969d972115212c539", "rental_uris": {"android": "https://dc.lft.to/lastmile_qr_scan", "ios": "https://dc.lft.to/lastmile_qr_scan"}, "name": "da39300d7575080969d972115212c539", "is_reserved": 0}, {"is_disabled": 0, "fusion_lon": 0.0, "fusion_lat": 0.0, "lat": 38.945112333333334, "type": "electric_bike", "lon": -77.0067475, "bike_id": "1ee046007cf04a2afb1a767df1d9efff", "rental_uris": {"android": "https://dc.lft.to/lastmile_qr_scan", "ios": "https://dc.lft.to/lastmile_qr_scan"}, "name": "1ee046007cf04a2afb1a767df1d9efff", "is_reserved": 0}, {"is_disabled": 0, "fusion_lon": 0.0, "fusion_lat": 0.0, "lat": 38.897360166666665, "type": "electric_scooter", "lon": -77.02166433333333, "bike_id": "fc123573f4d8652c7c030fb128f53d1a", "rental_uris": {"android": "https://dc.lft.to/lastmile_qr_scan", "ios": "https://dc.lft.to/lastmile_qr_scan"}, "name": "fc123573f4d8652c7c030fb128f53d1a", "is_reserved": 0}, {"is_disabled": 0, "fusion_lon": 0.0, "fusion_lat": 0.0, "lat": 38.900245166666664, "type": "electric_scooter", "lon": -77.033265, "bike_id": "ab92d9096612ae257fff1f77ec6f5366", "rental_uris": {"android": "https://dc.lft.to/lastmile_qr_scan", "ios": "https://dc.lft.to/lastmile_qr_scan"}, "name": "ab92d9096612ae257fff1f77ec6f5366", "is_reserved": 0}, {"is_disabled": 0, "fusion_lon": 0.0, "fusion_lat": 0.0, "lat": 38.85289183333333, "type": "electric_bike", "lon": -76.98155166666666, "bike_id": "0ae6b1ac1e0897ab565ac69d2c8ac283", "rental_uris": {"android": "https://dc.lft.to/lastmile_qr_scan", "ios": "https://dc.lft.to/lastmile_qr_scan"}, "name": "0ae6b1ac1e0897ab565ac69d2c8ac283", "is_reserved": 0}, {"is_disabled": 0, "fusion_lon": 0.0, "fusion_lat": 0.0, "lat": 38.85786233333333, "type": "electric_bike", "lon": -76.9875185, "bike_id": "41d6e8d7be0b6c2319e3e8b45b727e6f", "rental_uris": {"android": "https://dc.lft.to/lastmile_qr_scan", "ios": "https://dc.lft.to/lastmile_qr_scan"}, "name": "41d6e8d7be0b6c2319e3e8b45b727e6f", "is_reserved": 0}, {"is_disabled": 0, "fusion_lon": 0.0, "fusion_lat": 0.0, "lat": 38.91626383333333, "type": "electric_scooter", "lon": -77.03193116666667, "bike_id": "e7134bcf0addeca30f6ff89690764daa", "rental_uris": {"android": "https://dc.lft.to/lastmile_qr_scan", "ios": "https://dc.lft.to/lastmile_qr_scan"}, "name": "e7134bcf0addeca30f6ff89690764daa", "is_reserved": 0}, {"is_disabled": 0, "fusion_lon": 0.0, "fusion_lat": 0.0, "lat": 38.900128, "type": "electric_scooter", "lon": -77.03359833333333, "bike_id": "ec22bddcf82eb1d8fd418ded64443b3d", "rental_uris": {"android": "https://dc.lft.to/lastmile_qr_scan", "ios": "https://dc.lft.to/lastmile_qr_scan"}, "name": "ec22bddcf82eb1d8fd418ded64443b3d", "is_reserved": 0}, {"is_disabled": 0, "fusion_lon": 0.0, "fusion_lat": 0.0, "lat": 38.90569133333333, "type": "electric_scooter", "lon": -77.03670683333333, "bike_id": "147be91ed67aac81b6314c2b03a434cd", "rental_uris": {"android": "https://dc.lft.to/lastmile_qr_scan", "ios": "https://dc.lft.to/lastmile_qr_scan"}, "name": "147be91ed67aac81b6314c2b03a434cd", "is_reserved": 0}, {"is_disabled": 0, "fusion_lon": 0.0, "fusion_lat": 0.0, "lat": 38.905279666666665, "type": "electric_bike", "lon": -77.05689933333333, "bike_id": "172b30047293ddee4c51eac2c8509cee", "rental_uris": {"android": "https://dc.lft.to/lastmile_qr_scan", "ios": "https://dc.lft.to/lastmile_qr_scan"}, "name": "172b30047293ddee4c51eac2c8509cee", "is_reserved": 0}, {"is_disabled": 0, "fusion_lon": 0.0, "fusion_lat": 0.0, "lat": 38.91408033333333, "type": "electric_scooter", "lon": -77.03167433333333, "bike_id": "df48cfb2e897e38ff94f3a3d629fcd2a", "rental_uris": {"android": "https://dc.lft.to/lastmile_qr_scan", "ios": "https://dc.lft.to/lastmile_qr_scan"}, "name": "df48cfb2e897e38ff94f3a3d629fcd2a", "is_reserved": 0}, {"is_disabled": 0, "fusion_lon": 0.0, "fusion_lat": 0.0, "lat": 38.94333983333333, "type": "electric_bike", "lon": -77.014764, "bike_id": "f067f010ff0535f71f8fcc5f2663a9a9", "rental_uris": {"android": "https://dc.lft.to/lastmile_qr_scan", "ios": "https://dc.lft.to/lastmile_qr_scan"}, "name": "f067f010ff0535f71f8fcc5f2663a9a9", "is_reserved": 0}, {"is_disabled": 0, "fusion_lon": 0.0, "fusion_lat": 0.0, "lat": 38.92134133333333, "type": "electric_scooter", "lon": -77.04428583333333, "bike_id": "44dcb72a6fee450256be1f1d111cfefd", "rental_uris": {"android": "https://dc.lft.to/lastmile_qr_scan", "ios": "https://dc.lft.to/lastmile_qr_scan"}, "name": "44dcb72a6fee450256be1f1d111cfefd", "is_reserved": 0}, {"is_disabled": 0, "fusion_lon": 0.0, "fusion_lat": 0.0, "lat": 38.918101666666665, "type": "electric_scooter", "lon": -76.99964616666666, "bike_id": "2cbd115563b0741b228d6a2fce4c13e3", "rental_uris": {"android": "https://dc.lft.to/lastmile_qr_scan", "ios": "https://dc.lft.to/lastmile_qr_scan"}, "name": "2cbd115563b0741b228d6a2fce4c13e3", "is_reserved": 0}, {"is_disabled": 0, "fusion_lon": 0.0, "fusion_lat": 0.0, "lat": 38.895497666666664, "type": "electric_scooter", "lon": -77.01526866666667, "bike_id": "6fa6931390601c7d6561b37822a4869b", "rental_uris": {"android": "https://dc.lft.to/lastmile_qr_scan", "ios": "https://dc.lft.to/lastmile_qr_scan"}, "name": "6fa6931390601c7d6561b37822a4869b", "is_reserved": 0}, {"is_disabled": 0, "fusion_lon": 0.0, "fusion_lat": 0.0, "lat": 38.907977, "type": "electric_scooter", "lon": -77.02383716666667, "bike_id": "578430f3193dee48a60d7341092c781a", "rental_uris": {"android": "https://dc.lft.to/lastmile_qr_scan", "ios": "https://dc.lft.to/lastmile_qr_scan"}, "name": "578430f3193dee48a60d7341092c781a", "is_reserved": 0}, {"is_disabled": 0, "fusion_lon": 0.0, "fusion_lat": 0.0, "lat": 38.89774633333333, "type": "electric_scooter", "lon": -77.02191016666667, "bike_id": "f113fdb724a6fb84a7414d76a1927de7", "rental_uris": {"android": "https://dc.lft.to/lastmile_qr_scan", "ios": "https://dc.lft.to/lastmile_qr_scan"}, "name": "f113fdb724a6fb84a7414d76a1927de7", "is_reserved": 0}, {"is_disabled": 0, "fusion_lon": 0.0, "fusion_lat": 0.0, "lat": 38.906726, "type": "electric_scooter", "lon": -77.02715733333334, "bike_id": "a831375fefdc85d38e865ccbd04264aa", "rental_uris": {"android": "https://dc.lft.to/lastmile_qr_scan", "ios": "https://dc.lft.to/lastmile_qr_scan"}, "name": "a831375fefdc85d38e865ccbd04264aa", "is_reserved": 0}, {"is_disabled": 0, "fusion_lon": 0.0, "fusion_lat": 0.0, "lat": 38.93212, "type": "electric_scooter", "lon": -77.02380266666667, "bike_id": "c4bef988131679daad2709e1140ac2b5", "rental_uris": {"android": "https://dc.lft.to/lastmile_qr_scan", "ios": "https://dc.lft.to/lastmile_qr_scan"}, "name": "c4bef988131679daad2709e1140ac2b5", "is_reserved": 0}, {"is_disabled": 0, "fusion_lon": 0.0, "fusion_lat": 0.0, "lat": 38.916945, "type": "electric_scooter", "lon": -77.0368635, "bike_id": "553249efa18e744572543a10f552758a", "rental_uris": {"android": "https://dc.lft.to/lastmile_qr_scan", "ios": "https://dc.lft.to/lastmile_qr_scan"}, "name": "553249efa18e744572543a10f552758a", "is_reserved": 0}, {"is_disabled": 0, "fusion_lon": 0.0, "fusion_lat": 0.0, "lat": 38.86954016666667, "type": "electric_scooter", "lon": -76.97922266666667, "bike_id": "152189d063d33c1fd025070ac0b18f5e", "rental_uris": {"android": "https://dc.lft.to/lastmile_qr_scan", "ios": "https://dc.lft.to/lastmile_qr_scan"}, "name": "152189d063d33c1fd025070ac0b18f5e", "is_reserved": 0}, {"is_disabled": 0, "fusion_lon": 0.0, "fusion_lat": 0.0, "lat": 38.912024833333334, "type": "electric_scooter", "lon": -77.041586, "bike_id": "0fe1aea0ba9de4ce4e216714ab9aea3e", "rental_uris": {"android": "https://dc.lft.to/lastmile_qr_scan", "ios": "https://dc.lft.to/lastmile_qr_scan"}, "name": "0fe1aea0ba9de4ce4e216714ab9aea3e", "is_reserved": 0}, {"is_disabled": 0, "fusion_lon": 0.0, "fusion_lat": 0.0, "lat": 38.83816183333333, "type": "electric_scooter", "lon": -77.00430116666666, "bike_id": "07f0c683a071b6c48d35ac6bd24777e9", "rental_uris": {"android": "https://dc.lft.to/lastmile_qr_scan", "ios": "https://dc.lft.to/lastmile_qr_scan"}, "name": "07f0c683a071b6c48d35ac6bd24777e9", "is_reserved": 0}, {"is_disabled": 0, "fusion_lon": 0.0, "fusion_lat": 0.0, "lat": 38.9028785, "type": "electric_scooter", "lon": -77.02417283333334, "bike_id": "b1808464e4acd9eb3a38f2793f03f991", "rental_uris": {"android": "https://dc.lft.to/lastmile_qr_scan", "ios": "https://dc.lft.to/lastmile_qr_scan"}, "name": "b1808464e4acd9eb3a38f2793f03f991", "is_reserved": 0}, {"is_disabled": 0, "fusion_lon": 0.0, "fusion_lat": 0.0, "lat": 38.9371235, "type": "electric_scooter", "lon": -77.02401166666667, "bike_id": "04e8cc91a1c92f2912c820d285058020", "rental_uris": {"android": "https://dc.lft.to/lastmile_qr_scan", "ios": "https://dc.lft.to/lastmile_qr_scan"}, "name": "04e8cc91a1c92f2912c820d285058020", "is_reserved": 0}, {"is_disabled": 0, "fusion_lon": 0.0, "fusion_lat": 0.0, "lat": 38.93706266666667, "type": "electric_scooter", "lon": -77.06101283333334, "bike_id": "3b9d326ffb10087cd55523257effcec5", "rental_uris": {"android": "https://dc.lft.to/lastmile_qr_scan", "ios": "https://dc.lft.to/lastmile_qr_scan"}, "name": "3b9d326ffb10087cd55523257effcec5", "is_reserved": 0}, {"is_disabled": 0, "fusion_lon": 0.0, "fusion_lat": 0.0, "lat": 38.87809, "type": "electric_scooter", "lon": -77.01428366666667, "bike_id": "86a742c70ccebbf37ac4a2a2932cc5c7", "rental_uris": {"android": "https://dc.lft.to/lastmile_qr_scan", "ios": "https://dc.lft.to/lastmile_qr_scan"}, "name": "86a742c70ccebbf37ac4a2a2932cc5c7", "is_reserved": 0}, {"is_disabled": 0, "fusion_lon": 0.0, "fusion_lat": 0.0, "lat": 38.90087233333333, "type": "electric_scooter", "lon": -77.0486885, "bike_id": "7e7dc61fd8b063e31bd3e1874d53765b", "rental_uris": {"android": "https://dc.lft.to/lastmile_qr_scan", "ios": "https://dc.lft.to/lastmile_qr_scan"}, "name": "7e7dc61fd8b063e31bd3e1874d53765b", "is_reserved": 0}, {"is_disabled": 0, "fusion_lon": 0.0, "fusion_lat": 0.0, "lat": 38.92963566666667, "type": "electric_scooter", "lon": -77.02340633333333, "bike_id": "3af898dd60c38a43fc010de57e27e3d4", "rental_uris": {"android": "https://dc.lft.to/lastmile_qr_scan", "ios": "https://dc.lft.to/lastmile_qr_scan"}, "name": "3af898dd60c38a43fc010de57e27e3d4", "is_reserved": 0}, {"is_disabled": 0, "fusion_lon": 0.0, "fusion_lat": 0.0, "lat": 38.917977, "type": "electric_scooter", "lon": -77.034628, "bike_id": "de6290a7041e81f39114a133296c577e", "rental_uris": {"android": "https://dc.lft.to/lastmile_qr_scan", "ios": "https://dc.lft.to/lastmile_qr_scan"}, "name": "de6290a7041e81f39114a133296c577e", "is_reserved": 0}, {"is_disabled": 0, "fusion_lon": 0.0, "fusion_lat": 0.0, "lat": 38.91749333333333, "type": "electric_scooter", "lon": -77.04157633333334, "bike_id": "d9a4ceae7abd0578292e0937a250bda8", "rental_uris": {"android": "https://dc.lft.to/lastmile_qr_scan", "ios": "https://dc.lft.to/lastmile_qr_scan"}, "name": "d9a4ceae7abd0578292e0937a250bda8", "is_reserved": 0}, {"is_disabled": 0, "fusion_lon": 0.0, "fusion_lat": 0.0, "lat": 38.9274485, "type": "electric_scooter", "lon": -77.02533583333333, "bike_id": "e42fd22e55069441d426e59a4a06c0ce", "rental_uris": {"android": "https://dc.lft.to/lastmile_qr_scan", "ios": "https://dc.lft.to/lastmile_qr_scan"}, "name": "e42fd22e55069441d426e59a4a06c0ce", "is_reserved": 0}, {"is_disabled": 0, "fusion_lon": 0.0, "fusion_lat": 0.0, "lat": 38.918629333333335, "type": "electric_bike", "lon": -76.96089133333334, "bike_id": "6c19a8fb6ef4395d4c8b2cb272eb5646", "rental_uris": {"android": "https://dc.lft.to/lastmile_qr_scan", "ios": "https://dc.lft.to/lastmile_qr_scan"}, "name": "6c19a8fb6ef4395d4c8b2cb272eb5646", "is_reserved": 0}, {"is_disabled": 0, "fusion_lon": 0.0, "fusion_lat": 0.0, "lat": 38.917075833333335, "type": "electric_scooter", "lon": -77.04296633333334, "bike_id": "5b7cdeadc3382dc9780cfc6925a0b55c", "rental_uris": {"android": "https://dc.lft.to/lastmile_qr_scan", "ios": "https://dc.lft.to/lastmile_qr_scan"}, "name": "5b7cdeadc3382dc9780cfc6925a0b55c", "is_reserved": 0}, {"is_disabled": 0, "fusion_lon": 0.0, "fusion_lat": 0.0, "lat": 38.839385, "type": "electric_bike", "lon": -77.07897, "bike_id": "accf4ecbffcb4d62b888409cbe27c2fc", "rental_uris": {"android": "https://dc.lft.to/lastmile_qr_scan", "ios": "https://dc.lft.to/lastmile_qr_scan"}, "name": "accf4ecbffcb4d62b888409cbe27c2fc", "is_reserved": 0}, {"is_disabled": 0, "fusion_lon": 0.0, "fusion_lat": 0.0, "lat": 38.9056925, "type": "electric_scooter", "lon": -77.02462883333334, "bike_id": "5c25346178b191833c45344a739f0fae", "rental_uris": {"android": "https://dc.lft.to/lastmile_qr_scan", "ios": "https://dc.lft.to/lastmile_qr_scan"}, "name": "5c25346178b191833c45344a739f0fae", "is_reserved": 0}, {"is_disabled": 0, "fusion_lon": 0.0, "fusion_lat": 0.0, "lat": 38.92853683333333, "type": "electric_scooter", "lon": -77.0562905, "bike_id": "415ef922e5febecd4a2eeb7e442200eb", "rental_uris": {"android": "https://dc.lft.to/lastmile_qr_scan", "ios": "https://dc.lft.to/lastmile_qr_scan"}, "name": "415ef922e5febecd4a2eeb7e442200eb", "is_reserved": 0}, {"is_disabled": 0, "fusion_lon": 0.0, "fusion_lat": 0.0, "lat": 38.9150135, "type": "electric_scooter", "lon": -76.98369566666666, "bike_id": "f9ec86e9bc7362cc4e6a49688c1bee4f", "rental_uris": {"android": "https://dc.lft.to/lastmile_qr_scan", "ios": "https://dc.lft.to/lastmile_qr_scan"}, "name": "f9ec86e9bc7362cc4e6a49688c1bee4f", "is_reserved": 0}, {"is_disabled": 0, "fusion_lon": 0.0, "fusion_lat": 0.0, "lat": 38.9282805, "type": "electric_scooter", "lon": -77.03707816666666, "bike_id": "3cb7beca15b1f48b5eac4c811f93466f", "rental_uris": {"android": "https://dc.lft.to/lastmile_qr_scan", "ios": "https://dc.lft.to/lastmile_qr_scan"}, "name": "3cb7beca15b1f48b5eac4c811f93466f", "is_reserved": 0}, {"is_disabled": 0, "fusion_lon": 0.0, "fusion_lat": 0.0, "lat": 38.83320916666667, "type": "electric_scooter", "lon": -77.00002866666667, "bike_id": "383817aac18b7a179afd9a2647903548", "rental_uris": {"android": "https://dc.lft.to/lastmile_qr_scan", "ios": "https://dc.lft.to/lastmile_qr_scan"}, "name": "383817aac18b7a179afd9a2647903548", "is_reserved": 0}, {"is_disabled": 0, "fusion_lon": 0.0, "fusion_lat": 0.0, "lat": 38.955547333333335, "type": "electric_bike", "lon": -76.9353545, "bike_id": "ea63aca07ecf36085c575f07667f41d6", "rental_uris": {"android": "https://dc.lft.to/lastmile_qr_scan", "ios": "https://dc.lft.to/lastmile_qr_scan"}, "name": "ea63aca07ecf36085c575f07667f41d6", "is_reserved": 0}, {"is_disabled": 0, "fusion_lon": 0.0, "fusion_lat": 0.0, "lat": 38.831972666666665, "type": "electric_bike", "lon": -77.07680683333334, "bike_id": "785c3ddfd8e84b4440918096b7aa8d3e", "rental_uris": {"android": "https://dc.lft.to/lastmile_qr_scan", "ios": "https://dc.lft.to/lastmile_qr_scan"}, "name": "785c3ddfd8e84b4440918096b7aa8d3e", "is_reserved": 0}, {"is_disabled": 0, "fusion_lon": 0.0, "fusion_lat": 0.0, "lat": 38.917105166666666, "type": "electric_scooter", "lon": -77.02433333333333, "bike_id": "00d87648b202567cb108206a550af8d6", "rental_uris": {"android": "https://dc.lft.to/lastmile_qr_scan", "ios": "https://dc.lft.to/lastmile_qr_scan"}, "name": "00d87648b202567cb108206a550af8d6", "is_reserved": 0}, {"is_disabled": 0, "fusion_lon": 0.0, "fusion_lat": 0.0, "lat": 38.8868195, "type": "electric_scooter", "lon": -77.0019205, "bike_id": "3556d7217105ef5177a589367389b4e3", "rental_uris": {"android": "https://dc.lft.to/lastmile_qr_scan", "ios": "https://dc.lft.to/lastmile_qr_scan"}, "name": "3556d7217105ef5177a589367389b4e3", "is_reserved": 0}, {"is_disabled": 0, "fusion_lon": 0.0, "fusion_lat": 0.0, "lat": 38.925960833333335, "type": "electric_scooter", "lon": -77.05522366666666, "bike_id": "5f285c5520beb921e5b4f5a7a59c4e63", "rental_uris": {"android": "https://dc.lft.to/lastmile_qr_scan", "ios": "https://dc.lft.to/lastmile_qr_scan"}, "name": "5f285c5520beb921e5b4f5a7a59c4e63", "is_reserved": 0}, {"is_disabled": 0, "fusion_lon": 0.0, "fusion_lat": 0.0, "lat": 38.87478733333333, "type": "electric_scooter", "lon": -77.01068066666667, "bike_id": "a7aad3788bbe1e5977302b585d4ad37d", "rental_uris": {"android": "https://dc.lft.to/lastmile_qr_scan", "ios": "https://dc.lft.to/lastmile_qr_scan"}, "name": "a7aad3788bbe1e5977302b585d4ad37d", "is_reserved": 0}, {"is_disabled": 0, "fusion_lon": 0.0, "fusion_lat": 0.0, "lat": 38.828768, "type": "electric_bike", "lon": -77.11221433333333, "bike_id": "ce6f853e7536755641223f4eef2d3d5a", "rental_uris": {"android": "https://dc.lft.to/lastmile_qr_scan", "ios": "https://dc.lft.to/lastmile_qr_scan"}, "name": "ce6f853e7536755641223f4eef2d3d5a", "is_reserved": 0}, {"is_disabled": 0, "fusion_lon": 0.0, "fusion_lat": 0.0, "lat": 38.95180166666667, "type": "electric_scooter", "lon": -77.05656516666667, "bike_id": "27f4f5121203c85e00fb7c12da578754", "rental_uris": {"android": "https://dc.lft.to/lastmile_qr_scan", "ios": "https://dc.lft.to/lastmile_qr_scan"}, "name": "27f4f5121203c85e00fb7c12da578754", "is_reserved": 0}, {"is_disabled": 0, "fusion_lon": 0.0, "fusion_lat": 0.0, "lat": 38.913467833333335, "type": "electric_scooter", "lon": -77.0485945, "bike_id": "f64dfb291adc9ec519fc7ba4c439bb16", "rental_uris": {"android": "https://dc.lft.to/lastmile_qr_scan", "ios": "https://dc.lft.to/lastmile_qr_scan"}, "name": "f64dfb291adc9ec519fc7ba4c439bb16", "is_reserved": 0}, {"is_disabled": 0, "fusion_lon": 0.0, "fusion_lat": 0.0, "lat": 38.90703933333333, "type": "electric_scooter", "lon": -76.98690216666667, "bike_id": "665a9161304284ef2dd181c4f679b951", "rental_uris": {"android": "https://dc.lft.to/lastmile_qr_scan", "ios": "https://dc.lft.to/lastmile_qr_scan"}, "name": "665a9161304284ef2dd181c4f679b951", "is_reserved": 0}, {"is_disabled": 0, "fusion_lon": 0.0, "fusion_lat": 0.0, "lat": 38.92869683333333, "type": "electric_scooter", "lon": -77.01405083333333, "bike_id": "a7f2f6765fb746723b2369a00e16ca10", "rental_uris": {"android": "https://dc.lft.to/lastmile_qr_scan", "ios": "https://dc.lft.to/lastmile_qr_scan"}, "name": "a7f2f6765fb746723b2369a00e16ca10", "is_reserved": 0}, {"is_disabled": 0, "fusion_lon": 0.0, "fusion_lat": 0.0, "lat": 38.92532033333333, "type": "electric_scooter", "lon": -77.07657883333333, "bike_id": "2176e61e04a10ff50e6f576a84cf5815", "rental_uris": {"android": "https://dc.lft.to/lastmile_qr_scan", "ios": "https://dc.lft.to/lastmile_qr_scan"}, "name": "2176e61e04a10ff50e6f576a84cf5815", "is_reserved": 0}, {"is_disabled": 0, "fusion_lon": 0.0, "fusion_lat": 0.0, "lat": 38.9061045, "type": "electric_scooter", "lon": -77.057028, "bike_id": "4fc1108dbc1e3ebb4cd345d94909660f", "rental_uris": {"android": "https://dc.lft.to/lastmile_qr_scan", "ios": "https://dc.lft.to/lastmile_qr_scan"}, "name": "4fc1108dbc1e3ebb4cd345d94909660f", "is_reserved": 0}, {"is_disabled": 0, "fusion_lon": 0.0, "fusion_lat": 0.0, "lat": 38.90563566666667, "type": "electric_scooter", "lon": -77.024097, "bike_id": "f4d272551d04f00442925bc6d4a87a4f", "rental_uris": {"android": "https://dc.lft.to/lastmile_qr_scan", "ios": "https://dc.lft.to/lastmile_qr_scan"}, "name": "f4d272551d04f00442925bc6d4a87a4f", "is_reserved": 0}, {"is_disabled": 0, "fusion_lon": 0.0, "fusion_lat": 0.0, "lat": 38.899591, "type": "electric_scooter", "lon": -77.04791033333333, "bike_id": "204d29f199390a7197d766933c7ec556", "rental_uris": {"android": "https://dc.lft.to/lastmile_qr_scan", "ios": "https://dc.lft.to/lastmile_qr_scan"}, "name": "204d29f199390a7197d766933c7ec556", "is_reserved": 0}, {"is_disabled": 0, "fusion_lon": 0.0, "fusion_lat": 0.0, "lat": 38.894876333333336, "type": "electric_scooter", "lon": -76.99409616666667, "bike_id": "9c43229d741cae73c9c3acbef88f2c74", "rental_uris": {"android": "https://dc.lft.to/lastmile_qr_scan", "ios": "https://dc.lft.to/lastmile_qr_scan"}, "name": "9c43229d741cae73c9c3acbef88f2c74", "is_reserved": 0}, {"is_disabled": 0, "fusion_lon": 0.0, "fusion_lat": 0.0, "lat": 38.93072683333333, "type": "electric_scooter", "lon": -77.0380235, "bike_id": "dd5f9678daa8ea60a799b4cb8d0cb3e4", "rental_uris": {"android": "https://dc.lft.to/lastmile_qr_scan", "ios": "https://dc.lft.to/lastmile_qr_scan"}, "name": "dd5f9678daa8ea60a799b4cb8d0cb3e4", "is_reserved": 0}, {"is_disabled": 0, "fusion_lon": 0.0, "fusion_lat": 0.0, "lat": 38.92970116666667, "type": "electric_scooter", "lon": -77.04196583333334, "bike_id": "d7069ffde26cd4abeb03f49c25e7944f", "rental_uris": {"android": "https://dc.lft.to/lastmile_qr_scan", "ios": "https://dc.lft.to/lastmile_qr_scan"}, "name": "d7069ffde26cd4abeb03f49c25e7944f", "is_reserved": 0}, {"is_disabled": 0, "fusion_lon": 0.0, "fusion_lat": 0.0, "lat": 38.93083016666667, "type": "electric_scooter", "lon": -77.02809616666667, "bike_id": "437e098b7d7009671dc4f08ff89ef2fc", "rental_uris": {"android": "https://dc.lft.to/lastmile_qr_scan", "ios": "https://dc.lft.to/lastmile_qr_scan"}, "name": "437e098b7d7009671dc4f08ff89ef2fc", "is_reserved": 0}, {"is_disabled": 0, "fusion_lon": 0.0, "fusion_lat": 0.0, "lat": 38.966264333333335, "type": "electric_scooter", "lon": -77.03536566666666, "bike_id": "878517b6b8833efc26782a1ba98f7b1b", "rental_uris": {"android": "https://dc.lft.to/lastmile_qr_scan", "ios": "https://dc.lft.to/lastmile_qr_scan"}, "name": "878517b6b8833efc26782a1ba98f7b1b", "is_reserved": 0}, {"is_disabled": 0, "fusion_lon": 0.0, "fusion_lat": 0.0, "lat": 38.917111166666665, "type": "electric_scooter", "lon": -77.0367155, "bike_id": "066d379ecd6cf9cbbb43de8cf6ca7849", "rental_uris": {"android": "https://dc.lft.to/lastmile_qr_scan", "ios": "https://dc.lft.to/lastmile_qr_scan"}, "name": "066d379ecd6cf9cbbb43de8cf6ca7849", "is_reserved": 0}, {"is_disabled": 0, "fusion_lon": 0.0, "fusion_lat": 0.0, "lat": 38.9461965, "type": "electric_scooter", "lon": -77.03625083333333, "bike_id": "d73b786f385a323ee7656fb006ab8658", "rental_uris": {"android": "https://dc.lft.to/lastmile_qr_scan", "ios": "https://dc.lft.to/lastmile_qr_scan"}, "name": "d73b786f385a323ee7656fb006ab8658", "is_reserved": 0}, {"is_disabled": 0, "fusion_lon": 0.0, "fusion_lat": 0.0, "lat": 38.92017, "type": "electric_scooter", "lon": -77.03128883333333, "bike_id": "ed0f1b2727513dbf08922dec6487883c", "rental_uris": {"android": "https://dc.lft.to/lastmile_qr_scan", "ios": "https://dc.lft.to/lastmile_qr_scan"}, "name": "ed0f1b2727513dbf08922dec6487883c", "is_reserved": 0}, {"is_disabled": 0, "fusion_lon": 0.0, "fusion_lat": 0.0, "lat": 38.91272083333333, "type": "electric_scooter", "lon": -77.03365133333334, "bike_id": "9412abc8479e0d2428fde0ca7291098c", "rental_uris": {"android": "https://dc.lft.to/lastmile_qr_scan", "ios": "https://dc.lft.to/lastmile_qr_scan"}, "name": "9412abc8479e0d2428fde0ca7291098c", "is_reserved": 0}, {"is_disabled": 0, "fusion_lon": 0.0, "fusion_lat": 0.0, "lat": 38.928036166666665, "type": "electric_scooter", "lon": -77.02444, "bike_id": "e692fb1c29fe2ba2c81054cf8a674966", "rental_uris": {"android": "https://dc.lft.to/lastmile_qr_scan", "ios": "https://dc.lft.to/lastmile_qr_scan"}, "name": "e692fb1c29fe2ba2c81054cf8a674966", "is_reserved": 0}, {"is_disabled": 0, "fusion_lon": 0.0, "fusion_lat": 0.0, "lat": 38.90373866666667, "type": "electric_scooter", "lon": -77.00741216666667, "bike_id": "368e21d8c5d6076788afcd35153ea504", "rental_uris": {"android": "https://dc.lft.to/lastmile_qr_scan", "ios": "https://dc.lft.to/lastmile_qr_scan"}, "name": "368e21d8c5d6076788afcd35153ea504", "is_reserved": 0}, {"is_disabled": 0, "fusion_lon": 0.0, "fusion_lat": 0.0, "lat": 38.86346666666667, "type": "electric_scooter", "lon": -76.98260633333334, "bike_id": "ed63935de8ecb66554d5640521d69439", "rental_uris": {"android": "https://dc.lft.to/lastmile_qr_scan", "ios": "https://dc.lft.to/lastmile_qr_scan"}, "name": "ed63935de8ecb66554d5640521d69439", "is_reserved": 0}, {"is_disabled": 0, "fusion_lon": 0.0, "fusion_lat": 0.0, "lat": 38.91632516666667, "type": "electric_scooter", "lon": -77.04623866666667, "bike_id": "7e4f7bca72d2b6acfab468f0e6d505ab", "rental_uris": {"android": "https://dc.lft.to/lastmile_qr_scan", "ios": "https://dc.lft.to/lastmile_qr_scan"}, "name": "7e4f7bca72d2b6acfab468f0e6d505ab", "is_reserved": 0}, {"is_disabled": 0, "fusion_lon": 0.0, "fusion_lat": 0.0, "lat": 38.9104805, "type": "electric_scooter", "lon": -77.0385025, "bike_id": "13d29eb49eb562581204d2c001a2479d", "rental_uris": {"android": "https://dc.lft.to/lastmile_qr_scan", "ios": "https://dc.lft.to/lastmile_qr_scan"}, "name": "13d29eb49eb562581204d2c001a2479d", "is_reserved": 0}, {"is_disabled": 0, "fusion_lon": 0.0, "fusion_lat": 0.0, "lat": 38.92886433333334, "type": "electric_scooter", "lon": -77.03304116666666, "bike_id": "a998ea09abc7498ef11298017a34c69d", "rental_uris": {"android": "https://dc.lft.to/lastmile_qr_scan", "ios": "https://dc.lft.to/lastmile_qr_scan"}, "name": "a998ea09abc7498ef11298017a34c69d", "is_reserved": 0}, {"is_disabled": 0, "fusion_lon": 0.0, "fusion_lat": 0.0, "lat": 38.90334, "type": "electric_bike", "lon": -76.975317, "bike_id": "72e3fda753bee3e78983e210a90afc37", "rental_uris": {"android": "https://dc.lft.to/lastmile_qr_scan", "ios": "https://dc.lft.to/lastmile_qr_scan"}, "name": "72e3fda753bee3e78983e210a90afc37", "is_reserved": 0}, {"is_disabled": 0, "fusion_lon": 0.0, "fusion_lat": 0.0, "lat": 38.95628416666667, "type": "electric_scooter", "lon": -77.02458083333333, "bike_id": "8c497c35ebd82b8eb42439ee857521dc", "rental_uris": {"android": "https://dc.lft.to/lastmile_qr_scan", "ios": "https://dc.lft.to/lastmile_qr_scan"}, "name": "8c497c35ebd82b8eb42439ee857521dc", "is_reserved": 0}, {"is_disabled": 0, "fusion_lon": 0.0, "fusion_lat": 0.0, "lat": 38.88583583333333, "type": "electric_scooter", "lon": -77.01224833333333, "bike_id": "bb52d316b2c29b6cb844e8f7c275a540", "rental_uris": {"android": "https://dc.lft.to/lastmile_qr_scan", "ios": "https://dc.lft.to/lastmile_qr_scan"}, "name": "bb52d316b2c29b6cb844e8f7c275a540", "is_reserved": 0}, {"is_disabled": 0, "fusion_lon": 0.0, "fusion_lat": 0.0, "lat": 38.919217333333336, "type": "electric_scooter", "lon": -77.02505033333334, "bike_id": "908fb31471801179de184e811eb84f2b", "rental_uris": {"android": "https://dc.lft.to/lastmile_qr_scan", "ios": "https://dc.lft.to/lastmile_qr_scan"}, "name": "908fb31471801179de184e811eb84f2b", "is_reserved": 0}, {"is_disabled": 0, "fusion_lon": 0.0, "fusion_lat": 0.0, "lat": 38.91603, "type": "electric_scooter", "lon": -77.023487, "bike_id": "214c0ba84b6a2a310bfa9c5f5c5bd0d5", "rental_uris": {"android": "https://dc.lft.to/lastmile_qr_scan", "ios": "https://dc.lft.to/lastmile_qr_scan"}, "name": "214c0ba84b6a2a310bfa9c5f5c5bd0d5", "is_reserved": 0}, {"is_disabled": 0, "fusion_lon": 0.0, "fusion_lat": 0.0, "lat": 38.911954, "type": "electric_scooter", "lon": -77.04166983333333, "bike_id": "a103254b15c8aff3d3af8b7fab06da73", "rental_uris": {"android": "https://dc.lft.to/lastmile_qr_scan", "ios": "https://dc.lft.to/lastmile_qr_scan"}, "name": "a103254b15c8aff3d3af8b7fab06da73", "is_reserved": 0}, {"is_disabled": 0, "fusion_lon": 0.0, "fusion_lat": 0.0, "lat": 38.90586533333333, "type": "electric_scooter", "lon": -77.04362133333333, "bike_id": "b9975839fa2203a32dd691481f13b0f2", "rental_uris": {"android": "https://dc.lft.to/lastmile_qr_scan", "ios": "https://dc.lft.to/lastmile_qr_scan"}, "name": "b9975839fa2203a32dd691481f13b0f2", "is_reserved": 0}, {"is_disabled": 0, "fusion_lon": 0.0, "fusion_lat": 0.0, "lat": 38.908886333333335, "type": "electric_scooter", "lon": -77.041338, "bike_id": "1b23a8ca3463f0e0ac35bb237c7ca5c6", "rental_uris": {"android": "https://dc.lft.to/lastmile_qr_scan", "ios": "https://dc.lft.to/lastmile_qr_scan"}, "name": "1b23a8ca3463f0e0ac35bb237c7ca5c6", "is_reserved": 0}, {"is_disabled": 0, "fusion_lon": 0.0, "fusion_lat": 0.0, "lat": 38.912042666666665, "type": "electric_scooter", "lon": -77.0370945, "bike_id": "7f38f965a43e095ea7401efd44cb4c10", "rental_uris": {"android": "https://dc.lft.to/lastmile_qr_scan", "ios": "https://dc.lft.to/lastmile_qr_scan"}, "name": "7f38f965a43e095ea7401efd44cb4c10", "is_reserved": 0}, {"is_disabled": 0, "fusion_lon": 0.0, "fusion_lat": 0.0, "lat": 38.893942833333334, "type": "electric_scooter", "lon": -76.94989, "bike_id": "9bc5352c84a2ad83aafaaafc3679cbad", "rental_uris": {"android": "https://dc.lft.to/lastmile_qr_scan", "ios": "https://dc.lft.to/lastmile_qr_scan"}, "name": "9bc5352c84a2ad83aafaaafc3679cbad", "is_reserved": 0}, {"is_disabled": 0, "fusion_lon": 0.0, "fusion_lat": 0.0, "lat": 38.89531133333333, "type": "electric_scooter", "lon": -77.0268165, "bike_id": "889225211630b1fbed40a08e3ceba558", "rental_uris": {"android": "https://dc.lft.to/lastmile_qr_scan", "ios": "https://dc.lft.to/lastmile_qr_scan"}, "name": "889225211630b1fbed40a08e3ceba558", "is_reserved": 0}, {"is_disabled": 0, "fusion_lon": 0.0, "fusion_lat": 0.0, "lat": 38.915658666666666, "type": "electric_scooter", "lon": -77.03249716666667, "bike_id": "6efb310777a1ad00d38852ac45a115cd", "rental_uris": {"android": "https://dc.lft.to/lastmile_qr_scan", "ios": "https://dc.lft.to/lastmile_qr_scan"}, "name": "6efb310777a1ad00d38852ac45a115cd", "is_reserved": 0}, {"is_disabled": 0, "fusion_lon": 0.0, "fusion_lat": 0.0, "lat": 38.897869666666665, "type": "electric_scooter", "lon": -77.0289185, "bike_id": "6ed8eb4ec8cb68e7b2ec32860ccd483c", "rental_uris": {"android": "https://dc.lft.to/lastmile_qr_scan", "ios": "https://dc.lft.to/lastmile_qr_scan"}, "name": "6ed8eb4ec8cb68e7b2ec32860ccd483c", "is_reserved": 0}, {"is_disabled": 0, "fusion_lon": 0.0, "fusion_lat": 0.0, "lat": 38.9126895, "type": "electric_scooter", "lon": -77.03751266666667, "bike_id": "323b097323d9e75d63c90c03164b4efd", "rental_uris": {"android": "https://dc.lft.to/lastmile_qr_scan", "ios": "https://dc.lft.to/lastmile_qr_scan"}, "name": "323b097323d9e75d63c90c03164b4efd", "is_reserved": 0}, {"is_disabled": 0, "fusion_lon": 0.0, "fusion_lat": 0.0, "lat": 38.91122383333333, "type": "electric_scooter", "lon": -77.04400683333333, "bike_id": "56c7525db9e5644a85e05869cfb89773", "rental_uris": {"android": "https://dc.lft.to/lastmile_qr_scan", "ios": "https://dc.lft.to/lastmile_qr_scan"}, "name": "56c7525db9e5644a85e05869cfb89773", "is_reserved": 0}, {"is_disabled": 0, "fusion_lon": 0.0, "fusion_lat": 0.0, "lat": 38.891995666666666, "type": "electric_scooter", "lon": -77.02240516666667, "bike_id": "e4dc73fa1357496a0abf049bbd5af063", "rental_uris": {"android": "https://dc.lft.to/lastmile_qr_scan", "ios": "https://dc.lft.to/lastmile_qr_scan"}, "name": "e4dc73fa1357496a0abf049bbd5af063", "is_reserved": 0}, {"is_disabled": 0, "fusion_lon": 0.0, "fusion_lat": 0.0, "lat": 38.918224, "type": "electric_scooter", "lon": -77.04170116666667, "bike_id": "693d2387e497fef566e1952dc0fc336a", "rental_uris": {"android": "https://dc.lft.to/lastmile_qr_scan", "ios": "https://dc.lft.to/lastmile_qr_scan"}, "name": "693d2387e497fef566e1952dc0fc336a", "is_reserved": 0}, {"is_disabled": 0, "fusion_lon": 0.0, "fusion_lat": 0.0, "lat": 38.913400833333334, "type": "electric_scooter", "lon": -77.04332716666667, "bike_id": "7ed467504cf5fd37307486ede7976036", "rental_uris": {"android": "https://dc.lft.to/lastmile_qr_scan", "ios": "https://dc.lft.to/lastmile_qr_scan"}, "name": "7ed467504cf5fd37307486ede7976036", "is_reserved": 0}, {"is_disabled": 0, "fusion_lon": 0.0, "fusion_lat": 0.0, "lat": 38.9161525, "type": "electric_scooter", "lon": -77.04354683333334, "bike_id": "03e9edf8111df999809d5a725748072f", "rental_uris": {"android": "https://dc.lft.to/lastmile_qr_scan", "ios": "https://dc.lft.to/lastmile_qr_scan"}, "name": "03e9edf8111df999809d5a725748072f", "is_reserved": 0}, {"is_disabled": 0, "fusion_lon": 0.0, "fusion_lat": 0.0, "lat": 38.91706416666667, "type": "electric_scooter", "lon": -77.02845516666666, "bike_id": "a3760ebb9bab108108f6b79fa7ca4365", "rental_uris": {"android": "https://dc.lft.to/lastmile_qr_scan", "ios": "https://dc.lft.to/lastmile_qr_scan"}, "name": "a3760ebb9bab108108f6b79fa7ca4365", "is_reserved": 0}, {"is_disabled": 0, "fusion_lon": 0.0, "fusion_lat": 0.0, "lat": 38.93209816666667, "type": "electric_scooter", "lon": -77.02382866666666, "bike_id": "66690c88b3941333d3b4bc9091520dca", "rental_uris": {"android": "https://dc.lft.to/lastmile_qr_scan", "ios": "https://dc.lft.to/lastmile_qr_scan"}, "name": "66690c88b3941333d3b4bc9091520dca", "is_reserved": 0}, {"is_disabled": 0, "fusion_lon": 0.0, "fusion_lat": 0.0, "lat": 38.91564116666667, "type": "electric_scooter", "lon": -77.032359, "bike_id": "3836da93b98bbdcada0c75692b97ef27", "rental_uris": {"android": "https://dc.lft.to/lastmile_qr_scan", "ios": "https://dc.lft.to/lastmile_qr_scan"}, "name": "3836da93b98bbdcada0c75692b97ef27", "is_reserved": 0}, {"is_disabled": 0, "fusion_lon": 0.0, "fusion_lat": 0.0, "lat": 39.0002225, "type": "electric_bike", "lon": -76.87282866666666, "bike_id": "7e6dbb038d078412c6e9d57f114a41ff", "rental_uris": {"android": "https://dc.lft.to/lastmile_qr_scan", "ios": "https://dc.lft.to/lastmile_qr_scan"}, "name": "7e6dbb038d078412c6e9d57f114a41ff", "is_reserved": 0}, {"is_disabled": 0, "fusion_lon": 0.0, "fusion_lat": 0.0, "lat": 38.828762833333336, "type": "electric_bike", "lon": -77.11220266666666, "bike_id": "8547189cf454e0cf86dff23903f5dfbe", "rental_uris": {"android": "https://dc.lft.to/lastmile_qr_scan", "ios": "https://dc.lft.to/lastmile_qr_scan"}, "name": "8547189cf454e0cf86dff23903f5dfbe", "is_reserved": 0}, {"is_disabled": 0, "fusion_lon": 0.0, "fusion_lat": 0.0, "lat": 38.9059705, "type": "electric_scooter", "lon": -77.07313266666667, "bike_id": "d75491b00d10d0959851aa03827bc17e", "rental_uris": {"android": "https://dc.lft.to/lastmile_qr_scan", "ios": "https://dc.lft.to/lastmile_qr_scan"}, "name": "d75491b00d10d0959851aa03827bc17e", "is_reserved": 0}, {"is_disabled": 0, "fusion_lon": 0.0, "fusion_lat": 0.0, "lat": 38.9191245, "type": "electric_scooter", "lon": -77.02597233333333, "bike_id": "e9522c9db7aed931dad2e26fa3317d3e", "rental_uris": {"android": "https://dc.lft.to/lastmile_qr_scan", "ios": "https://dc.lft.to/lastmile_qr_scan"}, "name": "e9522c9db7aed931dad2e26fa3317d3e", "is_reserved": 0}, {"is_disabled": 0, "fusion_lon": 0.0, "fusion_lat": 0.0, "lat": 38.909606333333336, "type": "electric_scooter", "lon": -77.02746333333333, "bike_id": "2b832991bb5fa31fece61930f08d60f4", "rental_uris": {"android": "https://dc.lft.to/lastmile_qr_scan", "ios": "https://dc.lft.to/lastmile_qr_scan"}, "name": "2b832991bb5fa31fece61930f08d60f4", "is_reserved": 0}, {"is_disabled": 0, "fusion_lon": 0.0, "fusion_lat": 0.0, "lat": 38.911137, "type": "electric_scooter", "lon": -77.06523916666667, "bike_id": "4ca96eb5b5af68977a0fdc4435f2fb3b", "rental_uris": {"android": "https://dc.lft.to/lastmile_qr_scan", "ios": "https://dc.lft.to/lastmile_qr_scan"}, "name": "4ca96eb5b5af68977a0fdc4435f2fb3b", "is_reserved": 0}, {"is_disabled": 0, "fusion_lon": 0.0, "fusion_lat": 0.0, "lat": 38.899112833333334, "type": "electric_scooter", "lon": -77.03329916666667, "bike_id": "3ac827fad9803e4db9a0cf287fe0fabd", "rental_uris": {"android": "https://dc.lft.to/lastmile_qr_scan", "ios": "https://dc.lft.to/lastmile_qr_scan"}, "name": "3ac827fad9803e4db9a0cf287fe0fabd", "is_reserved": 0}, {"is_disabled": 0, "fusion_lon": 0.0, "fusion_lat": 0.0, "lat": 38.930606833333336, "type": "electric_scooter", "lon": -77.02965883333333, "bike_id": "485bb02f903e1edb066b378f4c03a6c8", "rental_uris": {"android": "https://dc.lft.to/lastmile_qr_scan", "ios": "https://dc.lft.to/lastmile_qr_scan"}, "name": "485bb02f903e1edb066b378f4c03a6c8", "is_reserved": 0}, {"is_disabled": 0, "fusion_lon": 0.0, "fusion_lat": 0.0, "lat": 38.930813666666666, "type": "electric_scooter", "lon": -77.03627683333333, "bike_id": "e9592682351dc5afdeb15ac7897efd8d", "rental_uris": {"android": "https://dc.lft.to/lastmile_qr_scan", "ios": "https://dc.lft.to/lastmile_qr_scan"}, "name": "e9592682351dc5afdeb15ac7897efd8d", "is_reserved": 0}, {"is_disabled": 0, "fusion_lon": 0.0, "fusion_lat": 0.0, "lat": 38.94313616666667, "type": "electric_scooter", "lon": -77.06164933333334, "bike_id": "f01a7a46a9743c77ae51d87bdffd5919", "rental_uris": {"android": "https://dc.lft.to/lastmile_qr_scan", "ios": "https://dc.lft.to/lastmile_qr_scan"}, "name": "f01a7a46a9743c77ae51d87bdffd5919", "is_reserved": 0}, {"is_disabled": 0, "fusion_lon": 0.0, "fusion_lat": 0.0, "lat": 38.91257483333333, "type": "electric_scooter", "lon": -77.00930733333334, "bike_id": "7922aa251206c5c69ea4dc94a757b2c7", "rental_uris": {"android": "https://dc.lft.to/lastmile_qr_scan", "ios": "https://dc.lft.to/lastmile_qr_scan"}, "name": "7922aa251206c5c69ea4dc94a757b2c7", "is_reserved": 0}, {"is_disabled": 0, "fusion_lon": 0.0, "fusion_lat": 0.0, "lat": 38.89360283333333, "type": "electric_scooter", "lon": -76.939893, "bike_id": "83bad4d9406a168460055b687281a9b3", "rental_uris": {"android": "https://dc.lft.to/lastmile_qr_scan", "ios": "https://dc.lft.to/lastmile_qr_scan"}, "name": "83bad4d9406a168460055b687281a9b3", "is_reserved": 0}, {"is_disabled": 0, "fusion_lon": 0.0, "fusion_lat": 0.0, "lat": 38.9031235, "type": "electric_scooter", "lon": -76.98242283333333, "bike_id": "17a292852cfae50550b34a8fb1a97b0b", "rental_uris": {"android": "https://dc.lft.to/lastmile_qr_scan", "ios": "https://dc.lft.to/lastmile_qr_scan"}, "name": "17a292852cfae50550b34a8fb1a97b0b", "is_reserved": 0}, {"is_disabled": 0, "fusion_lon": 0.0, "fusion_lat": 0.0, "lat": 38.95091333333333, "type": "electric_bike", "lon": -76.96560183333334, "bike_id": "3529fa0a92ba59c6c34ddd38ec20525e", "rental_uris": {"android": "https://dc.lft.to/lastmile_qr_scan", "ios": "https://dc.lft.to/lastmile_qr_scan"}, "name": "3529fa0a92ba59c6c34ddd38ec20525e", "is_reserved": 0}, {"is_disabled": 0, "fusion_lon": 0.0, "fusion_lat": 0.0, "lat": 38.904120666666664, "type": "electric_scooter", "lon": -77.03434633333333, "bike_id": "7a6fce3b90ecea124b8669cc0c5f9b22", "rental_uris": {"android": "https://dc.lft.to/lastmile_qr_scan", "ios": "https://dc.lft.to/lastmile_qr_scan"}, "name": "7a6fce3b90ecea124b8669cc0c5f9b22", "is_reserved": 0}, {"is_disabled": 0, "fusion_lon": 0.0, "fusion_lat": 0.0, "lat": 38.90801616666667, "type": "electric_scooter", "lon": -77.04098966666666, "bike_id": "d574b038bd3cd9f8002af171d348d645", "rental_uris": {"android": "https://dc.lft.to/lastmile_qr_scan", "ios": "https://dc.lft.to/lastmile_qr_scan"}, "name": "d574b038bd3cd9f8002af171d348d645", "is_reserved": 0}, {"is_disabled": 0, "fusion_lon": 0.0, "fusion_lat": 0.0, "lat": 38.907054, "type": "electric_scooter", "lon": -77.06314116666667, "bike_id": "b950b0889e98095b889f1050c4a092a5", "rental_uris": {"android": "https://dc.lft.to/lastmile_qr_scan", "ios": "https://dc.lft.to/lastmile_qr_scan"}, "name": "b950b0889e98095b889f1050c4a092a5", "is_reserved": 0}, {"is_disabled": 0, "fusion_lon": 0.0, "fusion_lat": 0.0, "lat": 38.90589633333333, "type": "electric_scooter", "lon": -77.06913216666666, "bike_id": "aa8acc8128a66f9debbceca5adaefa15", "rental_uris": {"android": "https://dc.lft.to/lastmile_qr_scan", "ios": "https://dc.lft.to/lastmile_qr_scan"}, "name": "aa8acc8128a66f9debbceca5adaefa15", "is_reserved": 0}, {"is_disabled": 0, "fusion_lon": 0.0, "fusion_lat": 0.0, "lat": 38.91690116666667, "type": "electric_scooter", "lon": -77.041431, "bike_id": "ea0ac9f943039e97f96562bb61798e1f", "rental_uris": {"android": "https://dc.lft.to/lastmile_qr_scan", "ios": "https://dc.lft.to/lastmile_qr_scan"}, "name": "ea0ac9f943039e97f96562bb61798e1f", "is_reserved": 0}, {"is_disabled": 0, "fusion_lon": 0.0, "fusion_lat": 0.0, "lat": 38.91976983333333, "type": "electric_scooter", "lon": -77.04175516666666, "bike_id": "6c33fe0422c98f25b31f90ee7d3ef19b", "rental_uris": {"android": "https://dc.lft.to/lastmile_qr_scan", "ios": "https://dc.lft.to/lastmile_qr_scan"}, "name": "6c33fe0422c98f25b31f90ee7d3ef19b", "is_reserved": 0}, {"is_disabled": 0, "fusion_lon": 0.0, "fusion_lat": 0.0, "lat": 38.9561585, "type": "electric_scooter", "lon": -77.02760883333333, "bike_id": "88c2b6d793c94ca07bd9a17909f5bc34", "rental_uris": {"android": "https://dc.lft.to/lastmile_qr_scan", "ios": "https://dc.lft.to/lastmile_qr_scan"}, "name": "88c2b6d793c94ca07bd9a17909f5bc34", "is_reserved": 0}, {"is_disabled": 0, "fusion_lon": 0.0, "fusion_lat": 0.0, "lat": 38.90026183333333, "type": "electric_scooter", "lon": -77.034067, "bike_id": "1c2d50ac4a98cfcad82495d742da6afb", "rental_uris": {"android": "https://dc.lft.to/lastmile_qr_scan", "ios": "https://dc.lft.to/lastmile_qr_scan"}, "name": "1c2d50ac4a98cfcad82495d742da6afb", "is_reserved": 0}, {"is_disabled": 0, "fusion_lon": 0.0, "fusion_lat": 0.0, "lat": 38.91811216666667, "type": "electric_scooter", "lon": -77.04629716666666, "bike_id": "997768046ac6f0effb515c068efacc84", "rental_uris": {"android": "https://dc.lft.to/lastmile_qr_scan", "ios": "https://dc.lft.to/lastmile_qr_scan"}, "name": "997768046ac6f0effb515c068efacc84", "is_reserved": 0}, {"is_disabled": 0, "fusion_lon": 0.0, "fusion_lat": 0.0, "lat": 38.88916616666667, "type": "electric_scooter", "lon": -76.98006466666666, "bike_id": "37fbee053a5d7d003b6984f0fb6b6b02", "rental_uris": {"android": "https://dc.lft.to/lastmile_qr_scan", "ios": "https://dc.lft.to/lastmile_qr_scan"}, "name": "37fbee053a5d7d003b6984f0fb6b6b02", "is_reserved": 0}, {"is_disabled": 0, "fusion_lon": 0.0, "fusion_lat": 0.0, "lat": 38.9244425, "type": "electric_bike", "lon": -76.9075925, "bike_id": "0f9fe0976c78aedebb596c241e512b39", "rental_uris": {"android": "https://dc.lft.to/lastmile_qr_scan", "ios": "https://dc.lft.to/lastmile_qr_scan"}, "name": "0f9fe0976c78aedebb596c241e512b39", "is_reserved": 0}, {"is_disabled": 0, "fusion_lon": 0.0, "fusion_lat": 0.0, "lat": 38.91705133333333, "type": "electric_scooter", "lon": -77.0261735, "bike_id": "e62cb52c285e765880b5e636329119dd", "rental_uris": {"android": "https://dc.lft.to/lastmile_qr_scan", "ios": "https://dc.lft.to/lastmile_qr_scan"}, "name": "e62cb52c285e765880b5e636329119dd", "is_reserved": 0}, {"is_disabled": 0, "fusion_lon": 0.0, "fusion_lat": 0.0, "lat": 38.908137333333336, "type": "electric_scooter", "lon": -77.001392, "bike_id": "b6125a35c9e7cd940fa5b788c954d4e2", "rental_uris": {"android": "https://dc.lft.to/lastmile_qr_scan", "ios": "https://dc.lft.to/lastmile_qr_scan"}, "name": "b6125a35c9e7cd940fa5b788c954d4e2", "is_reserved": 0}, {"is_disabled": 0, "fusion_lon": 0.0, "fusion_lat": 0.0, "lat": 38.920307, "type": "electric_scooter", "lon": -77.01907716666666, "bike_id": "dacd8536a942d97bf1faa01a61b2a9ea", "rental_uris": {"android": "https://dc.lft.to/lastmile_qr_scan", "ios": "https://dc.lft.to/lastmile_qr_scan"}, "name": "dacd8536a942d97bf1faa01a61b2a9ea", "is_reserved": 0}, {"is_disabled": 0, "fusion_lon": 0.0, "fusion_lat": 0.0, "lat": 38.9348965, "type": "electric_scooter", "lon": -77.0240725, "bike_id": "81d440469dde3a5b0ca12fa2825b03bf", "rental_uris": {"android": "https://dc.lft.to/lastmile_qr_scan", "ios": "https://dc.lft.to/lastmile_qr_scan"}, "name": "81d440469dde3a5b0ca12fa2825b03bf", "is_reserved": 0}, {"is_disabled": 0, "fusion_lon": 0.0, "fusion_lat": 0.0, "lat": 38.9227325, "type": "electric_scooter", "lon": -77.03402433333333, "bike_id": "f69b80511c7a5955ca2291bcbf7a972c", "rental_uris": {"android": "https://dc.lft.to/lastmile_qr_scan", "ios": "https://dc.lft.to/lastmile_qr_scan"}, "name": "f69b80511c7a5955ca2291bcbf7a972c", "is_reserved": 0}, {"is_disabled": 0, "fusion_lon": 0.0, "fusion_lat": 0.0, "lat": 38.919518333333336, "type": "electric_scooter", "lon": -77.01405, "bike_id": "52212138c9d4f130d3c91360528f166f", "rental_uris": {"android": "https://dc.lft.to/lastmile_qr_scan", "ios": "https://dc.lft.to/lastmile_qr_scan"}, "name": "52212138c9d4f130d3c91360528f166f", "is_reserved": 0}, {"is_disabled": 0, "fusion_lon": 0.0, "fusion_lat": 0.0, "lat": 38.887418333333336, "type": "electric_scooter", "lon": -77.01535233333334, "bike_id": "2f08c9eef38d70a4955bc5c1e4c74241", "rental_uris": {"android": "https://dc.lft.to/lastmile_qr_scan", "ios": "https://dc.lft.to/lastmile_qr_scan"}, "name": "2f08c9eef38d70a4955bc5c1e4c74241", "is_reserved": 0}, {"is_disabled": 0, "fusion_lon": 0.0, "fusion_lat": 0.0, "lat": 38.912296166666664, "type": "electric_scooter", "lon": -77.0318565, "bike_id": "d3b3b15f066459202d2003306e586156", "rental_uris": {"android": "https://dc.lft.to/lastmile_qr_scan", "ios": "https://dc.lft.to/lastmile_qr_scan"}, "name": "d3b3b15f066459202d2003306e586156", "is_reserved": 0}, {"is_disabled": 0, "fusion_lon": 0.0, "fusion_lat": 0.0, "lat": 38.91710666666667, "type": "electric_scooter", "lon": -77.028833, "bike_id": "35051a144aa03e72e6d1bf25490e7e9b", "rental_uris": {"android": "https://dc.lft.to/lastmile_qr_scan", "ios": "https://dc.lft.to/lastmile_qr_scan"}, "name": "35051a144aa03e72e6d1bf25490e7e9b", "is_reserved": 0}, {"is_disabled": 0, "fusion_lon": 0.0, "fusion_lat": 0.0, "lat": 38.93609566666667, "type": "electric_scooter", "lon": -77.055895, "bike_id": "54ce818dbf3a202e4cb6ef65367b858e", "rental_uris": {"android": "https://dc.lft.to/lastmile_qr_scan", "ios": "https://dc.lft.to/lastmile_qr_scan"}, "name": "54ce818dbf3a202e4cb6ef65367b858e", "is_reserved": 0}, {"is_disabled": 0, "fusion_lon": 0.0, "fusion_lat": 0.0, "lat": 38.802989333333336, "type": "electric_bike", "lon": -77.03986183333333, "bike_id": "58bc32cf3207887229f5ddd80a46ec80", "rental_uris": {"android": "https://dc.lft.to/lastmile_qr_scan", "ios": "https://dc.lft.to/lastmile_qr_scan"}, "name": "58bc32cf3207887229f5ddd80a46ec80", "is_reserved": 0}, {"is_disabled": 0, "fusion_lon": 0.0, "fusion_lat": 0.0, "lat": 38.92252333333333, "type": "electric_scooter", "lon": -77.03137083333333, "bike_id": "5bd01b51a5eda901197d388a60a744fd", "rental_uris": {"android": "https://dc.lft.to/lastmile_qr_scan", "ios": "https://dc.lft.to/lastmile_qr_scan"}, "name": "5bd01b51a5eda901197d388a60a744fd", "is_reserved": 0}, {"is_disabled": 0, "fusion_lon": 0.0, "fusion_lat": 0.0, "lat": 38.910343, "type": "electric_scooter", "lon": -77.01370433333334, "bike_id": "bad75c300051e2ef6134dabd42ab691c", "rental_uris": {"android": "https://dc.lft.to/lastmile_qr_scan", "ios": "https://dc.lft.to/lastmile_qr_scan"}, "name": "bad75c300051e2ef6134dabd42ab691c", "is_reserved": 0}, {"is_disabled": 0, "fusion_lon": 0.0, "fusion_lat": 0.0, "lat": 38.903654833333334, "type": "electric_scooter", "lon": -77.00222433333333, "bike_id": "93cb42492b815875196bd696b04fe1c7", "rental_uris": {"android": "https://dc.lft.to/lastmile_qr_scan", "ios": "https://dc.lft.to/lastmile_qr_scan"}, "name": "93cb42492b815875196bd696b04fe1c7", "is_reserved": 0}, {"is_disabled": 0, "fusion_lon": 0.0, "fusion_lat": 0.0, "lat": 38.919175833333334, "type": "electric_scooter", "lon": -77.03023216666666, "bike_id": "bed30d833c2f3243e8206e5a538f2a3f", "rental_uris": {"android": "https://dc.lft.to/lastmile_qr_scan", "ios": "https://dc.lft.to/lastmile_qr_scan"}, "name": "bed30d833c2f3243e8206e5a538f2a3f", "is_reserved": 0}, {"is_disabled": 0, "fusion_lon": 0.0, "fusion_lat": 0.0, "lat": 38.89003, "type": "electric_scooter", "lon": -77.04896933333333, "bike_id": "25b6ddb7f9310e17c1883bf05a03e856", "rental_uris": {"android": "https://dc.lft.to/lastmile_qr_scan", "ios": "https://dc.lft.to/lastmile_qr_scan"}, "name": "25b6ddb7f9310e17c1883bf05a03e856", "is_reserved": 0}, {"is_disabled": 0, "fusion_lon": 0.0, "fusion_lat": 0.0, "lat": 38.909301166666665, "type": "electric_scooter", "lon": -77.03208166666667, "bike_id": "5646d5436b8dc345c68a78884b1cee95", "rental_uris": {"android": "https://dc.lft.to/lastmile_qr_scan", "ios": "https://dc.lft.to/lastmile_qr_scan"}, "name": "5646d5436b8dc345c68a78884b1cee95", "is_reserved": 0}, {"is_disabled": 0, "fusion_lon": 0.0, "fusion_lat": 0.0, "lat": 38.949829666666666, "type": "electric_scooter", "lon": -77.02703766666667, "bike_id": "20ac21fecd9250a63e6497f2efe3b32a", "rental_uris": {"android": "https://dc.lft.to/lastmile_qr_scan", "ios": "https://dc.lft.to/lastmile_qr_scan"}, "name": "20ac21fecd9250a63e6497f2efe3b32a", "is_reserved": 0}, {"is_disabled": 0, "fusion_lon": 0.0, "fusion_lat": 0.0, "lat": 38.8874745, "type": "electric_scooter", "lon": -77.01526483333333, "bike_id": "7b2eab9e26f62c4121c16f9c8fedcbbe", "rental_uris": {"android": "https://dc.lft.to/lastmile_qr_scan", "ios": "https://dc.lft.to/lastmile_qr_scan"}, "name": "7b2eab9e26f62c4121c16f9c8fedcbbe", "is_reserved": 0}, {"is_disabled": 0, "fusion_lon": 0.0, "fusion_lat": 0.0, "lat": 38.892247, "type": "electric_scooter", "lon": -77.02257516666667, "bike_id": "6dcfb0336d6273c3562c7dc405c57328", "rental_uris": {"android": "https://dc.lft.to/lastmile_qr_scan", "ios": "https://dc.lft.to/lastmile_qr_scan"}, "name": "6dcfb0336d6273c3562c7dc405c57328", "is_reserved": 0}, {"is_disabled": 0, "fusion_lon": 0.0, "fusion_lat": 0.0, "lat": 38.890032, "type": "electric_scooter", "lon": -77.0150165, "bike_id": "654eb568f1783bb6bb357bbf76544f3c", "rental_uris": {"android": "https://dc.lft.to/lastmile_qr_scan", "ios": "https://dc.lft.to/lastmile_qr_scan"}, "name": "654eb568f1783bb6bb357bbf76544f3c", "is_reserved": 0}, {"is_disabled": 0, "fusion_lon": 0.0, "fusion_lat": 0.0, "lat": 38.93278983333333, "type": "electric_scooter", "lon": -76.97420716666667, "bike_id": "8a0f6c7cc5fd7bf01d945c28cf3cb381", "rental_uris": {"android": "https://dc.lft.to/lastmile_qr_scan", "ios": "https://dc.lft.to/lastmile_qr_scan"}, "name": "8a0f6c7cc5fd7bf01d945c28cf3cb381", "is_reserved": 0}, {"is_disabled": 0, "fusion_lon": 0.0, "fusion_lat": 0.0, "lat": 38.905188, "type": "electric_scooter", "lon": -77.04992583333333, "bike_id": "9e6c097a105c98241ff0cb1bc6cf6ee0", "rental_uris": {"android": "https://dc.lft.to/lastmile_qr_scan", "ios": "https://dc.lft.to/lastmile_qr_scan"}, "name": "9e6c097a105c98241ff0cb1bc6cf6ee0", "is_reserved": 0}, {"is_disabled": 0, "fusion_lon": 0.0, "fusion_lat": 0.0, "lat": 38.93203466666667, "type": "electric_scooter", "lon": -77.02351516666667, "bike_id": "034493a6226dcac78171ea8c0a293906", "rental_uris": {"android": "https://dc.lft.to/lastmile_qr_scan", "ios": "https://dc.lft.to/lastmile_qr_scan"}, "name": "034493a6226dcac78171ea8c0a293906", "is_reserved": 0}, {"is_disabled": 0, "fusion_lon": 0.0, "fusion_lat": 0.0, "lat": 38.869835, "type": "electric_scooter", "lon": -77.01218433333334, "bike_id": "be318319ce4d56d23d9e298ecc9d2a40", "rental_uris": {"android": "https://dc.lft.to/lastmile_qr_scan", "ios": "https://dc.lft.to/lastmile_qr_scan"}, "name": "be318319ce4d56d23d9e298ecc9d2a40", "is_reserved": 0}, {"is_disabled": 0, "fusion_lon": 0.0, "fusion_lat": 0.0, "lat": 38.900298166666666, "type": "electric_bike", "lon": -76.98904833333333, "bike_id": "00361001ccac42d097ea9d1a3a65770f", "rental_uris": {"android": "https://dc.lft.to/lastmile_qr_scan", "ios": "https://dc.lft.to/lastmile_qr_scan"}, "name": "00361001ccac42d097ea9d1a3a65770f", "is_reserved": 0}, {"is_disabled": 0, "fusion_lon": 0.0, "fusion_lat": 0.0, "lat": 38.887592833333336, "type": "electric_scooter", "lon": -76.99615133333333, "bike_id": "5500f7cd67612cd113783f5375aad3b7", "rental_uris": {"android": "https://dc.lft.to/lastmile_qr_scan", "ios": "https://dc.lft.to/lastmile_qr_scan"}, "name": "5500f7cd67612cd113783f5375aad3b7", "is_reserved": 0}, {"is_disabled": 0, "fusion_lon": 0.0, "fusion_lat": 0.0, "lat": 38.89208983333333, "type": "electric_scooter", "lon": -76.988008, "bike_id": "3035d5f771cb63cd37ae76b6b788ee52", "rental_uris": {"android": "https://dc.lft.to/lastmile_qr_scan", "ios": "https://dc.lft.to/lastmile_qr_scan"}, "name": "3035d5f771cb63cd37ae76b6b788ee52", "is_reserved": 0}, {"is_disabled": 0, "fusion_lon": 0.0, "fusion_lat": 0.0, "lat": 38.905415, "type": "electric_scooter", "lon": -77.056983, "bike_id": "d88212fea9b58cd54b53a7c4b70dc17a", "rental_uris": {"android": "https://dc.lft.to/lastmile_qr_scan", "ios": "https://dc.lft.to/lastmile_qr_scan"}, "name": "d88212fea9b58cd54b53a7c4b70dc17a", "is_reserved": 0}, {"is_disabled": 0, "fusion_lon": 0.0, "fusion_lat": 0.0, "lat": 38.887400666666665, "type": "electric_scooter", "lon": -77.015328, "bike_id": "7a8eede9690b7390748fdd58be4b26cf", "rental_uris": {"android": "https://dc.lft.to/lastmile_qr_scan", "ios": "https://dc.lft.to/lastmile_qr_scan"}, "name": "7a8eede9690b7390748fdd58be4b26cf", "is_reserved": 0}, {"is_disabled": 0, "fusion_lon": 0.0, "fusion_lat": 0.0, "lat": 38.924236666666665, "type": "electric_scooter", "lon": -77.05607216666667, "bike_id": "043bd64f90e4c9b2eda28ef29e3a6bfd", "rental_uris": {"android": "https://dc.lft.to/lastmile_qr_scan", "ios": "https://dc.lft.to/lastmile_qr_scan"}, "name": "043bd64f90e4c9b2eda28ef29e3a6bfd", "is_reserved": 0}, {"is_disabled": 0, "fusion_lon": 0.0, "fusion_lat": 0.0, "lat": 38.96931683333333, "type": "electric_bike", "lon": -77.0261715, "bike_id": "b153eeabf14a713335774c337ff16297", "rental_uris": {"android": "https://dc.lft.to/lastmile_qr_scan", "ios": "https://dc.lft.to/lastmile_qr_scan"}, "name": "b153eeabf14a713335774c337ff16297", "is_reserved": 0}, {"is_disabled": 0, "fusion_lon": 0.0, "fusion_lat": 0.0, "lat": 38.87880083333334, "type": "electric_scooter", "lon": -77.0222905, "bike_id": "83e22a0b4cd168d8a5fba93c308d7728", "rental_uris": {"android": "https://dc.lft.to/lastmile_qr_scan", "ios": "https://dc.lft.to/lastmile_qr_scan"}, "name": "83e22a0b4cd168d8a5fba93c308d7728", "is_reserved": 0}, {"is_disabled": 0, "fusion_lon": 0.0, "fusion_lat": 0.0, "lat": 38.91861766666667, "type": "electric_bike", "lon": -76.96174033333334, "bike_id": "6c05a7b3269f883156cf77c00002a8d3", "rental_uris": {"android": "https://dc.lft.to/lastmile_qr_scan", "ios": "https://dc.lft.to/lastmile_qr_scan"}, "name": "6c05a7b3269f883156cf77c00002a8d3", "is_reserved": 0}, {"is_disabled": 0, "fusion_lon": 0.0, "fusion_lat": 0.0, "lat": 38.98666766666667, "type": "electric_scooter", "lon": -77.0264595, "bike_id": "46be5265d6e57b8d97f43f46df656534", "rental_uris": {"android": "https://dc.lft.to/lastmile_qr_scan", "ios": "https://dc.lft.to/lastmile_qr_scan"}, "name": "46be5265d6e57b8d97f43f46df656534", "is_reserved": 0}, {"is_disabled": 0, "fusion_lon": 0.0, "fusion_lat": 0.0, "lat": 38.914784, "type": "electric_scooter", "lon": -77.04391883333334, "bike_id": "35f8aa6d6de74c49a8e474037febfb68", "rental_uris": {"android": "https://dc.lft.to/lastmile_qr_scan", "ios": "https://dc.lft.to/lastmile_qr_scan"}, "name": "35f8aa6d6de74c49a8e474037febfb68", "is_reserved": 0}, {"is_disabled": 0, "fusion_lon": 0.0, "fusion_lat": 0.0, "lat": 38.918544833333335, "type": "electric_scooter", "lon": -77.0295105, "bike_id": "9eb63bf5a8f610e52ce1d226a3c67409", "rental_uris": {"android": "https://dc.lft.to/lastmile_qr_scan", "ios": "https://dc.lft.to/lastmile_qr_scan"}, "name": "9eb63bf5a8f610e52ce1d226a3c67409", "is_reserved": 0}, {"is_disabled": 0, "fusion_lon": 0.0, "fusion_lat": 0.0, "lat": 38.91498816666667, "type": "electric_scooter", "lon": -77.019849, "bike_id": "f63838fc7811724bff79aae91768e620", "rental_uris": {"android": "https://dc.lft.to/lastmile_qr_scan", "ios": "https://dc.lft.to/lastmile_qr_scan"}, "name": "f63838fc7811724bff79aae91768e620", "is_reserved": 0}, {"is_disabled": 0, "fusion_lon": 0.0, "fusion_lat": 0.0, "lat": 38.89989816666667, "type": "electric_scooter", "lon": -77.02703766666667, "bike_id": "2372cc20f31b4c5092e4c4d6747e0aea", "rental_uris": {"android": "https://dc.lft.to/lastmile_qr_scan", "ios": "https://dc.lft.to/lastmile_qr_scan"}, "name": "2372cc20f31b4c5092e4c4d6747e0aea", "is_reserved": 0}, {"is_disabled": 0, "fusion_lon": 0.0, "fusion_lat": 0.0, "lat": 38.932706333333336, "type": "electric_scooter", "lon": -76.9967645, "bike_id": "d91c096b70a1c727acb95894fbfa4ef5", "rental_uris": {"android": "https://dc.lft.to/lastmile_qr_scan", "ios": "https://dc.lft.to/lastmile_qr_scan"}, "name": "d91c096b70a1c727acb95894fbfa4ef5", "is_reserved": 0}, {"is_disabled": 0, "fusion_lon": 0.0, "fusion_lat": 0.0, "lat": 38.83612733333333, "type": "electric_bike", "lon": -77.00381966666667, "bike_id": "2e9a6a11d9083805692e5dec248be456", "rental_uris": {"android": "https://dc.lft.to/lastmile_qr_scan", "ios": "https://dc.lft.to/lastmile_qr_scan"}, "name": "2e9a6a11d9083805692e5dec248be456", "is_reserved": 0}, {"is_disabled": 0, "fusion_lon": 0.0, "fusion_lat": 0.0, "lat": 38.899116, "type": "electric_scooter", "lon": -76.93387766666666, "bike_id": "212ad0825ccf9253607a9d20cfea8de0", "rental_uris": {"android": "https://dc.lft.to/lastmile_qr_scan", "ios": "https://dc.lft.to/lastmile_qr_scan"}, "name": "212ad0825ccf9253607a9d20cfea8de0", "is_reserved": 0}, {"is_disabled": 0, "fusion_lon": 0.0, "fusion_lat": 0.0, "lat": 38.912096, "type": "electric_scooter", "lon": -77.03842633333333, "bike_id": "6d962e924777b3e2923a8a53eda5cfcf", "rental_uris": {"android": "https://dc.lft.to/lastmile_qr_scan", "ios": "https://dc.lft.to/lastmile_qr_scan"}, "name": "6d962e924777b3e2923a8a53eda5cfcf", "is_reserved": 0}, {"is_disabled": 0, "fusion_lon": 0.0, "fusion_lat": 0.0, "lat": 38.900628, "type": "electric_scooter", "lon": -76.93469383333333, "bike_id": "33e15e70af406458a26a2cfe1cb8851d", "rental_uris": {"android": "https://dc.lft.to/lastmile_qr_scan", "ios": "https://dc.lft.to/lastmile_qr_scan"}, "name": "33e15e70af406458a26a2cfe1cb8851d", "is_reserved": 0}, {"is_disabled": 0, "fusion_lon": 0.0, "fusion_lat": 0.0, "lat": 38.932317, "type": "electric_scooter", "lon": -77.02024316666666, "bike_id": "47b21da2d4877409f517f8c9240318b1", "rental_uris": {"android": "https://dc.lft.to/lastmile_qr_scan", "ios": "https://dc.lft.to/lastmile_qr_scan"}, "name": "47b21da2d4877409f517f8c9240318b1", "is_reserved": 0}, {"is_disabled": 0, "fusion_lon": 0.0, "fusion_lat": 0.0, "lat": 38.8924295, "type": "electric_scooter", "lon": -77.03172933333333, "bike_id": "3b0bfeb816116f4339f13015ef92b87e", "rental_uris": {"android": "https://dc.lft.to/lastmile_qr_scan", "ios": "https://dc.lft.to/lastmile_qr_scan"}, "name": "3b0bfeb816116f4339f13015ef92b87e", "is_reserved": 0}, {"is_disabled": 0, "fusion_lon": 0.0, "fusion_lat": 0.0, "lat": 38.887423166666665, "type": "electric_scooter", "lon": -77.0152745, "bike_id": "4289646d3912fe2dcda89a57eda21070", "rental_uris": {"android": "https://dc.lft.to/lastmile_qr_scan", "ios": "https://dc.lft.to/lastmile_qr_scan"}, "name": "4289646d3912fe2dcda89a57eda21070", "is_reserved": 0}, {"is_disabled": 0, "fusion_lon": 0.0, "fusion_lat": 0.0, "lat": 38.9185615, "type": "electric_scooter", "lon": -77.0321295, "bike_id": "0453f27a72670dc0e43eb8c52181008b", "rental_uris": {"android": "https://dc.lft.to/lastmile_qr_scan", "ios": "https://dc.lft.to/lastmile_qr_scan"}, "name": "0453f27a72670dc0e43eb8c52181008b", "is_reserved": 0}, {"is_disabled": 0, "fusion_lon": 0.0, "fusion_lat": 0.0, "lat": 38.89988316666667, "type": "electric_scooter", "lon": -76.9948365, "bike_id": "85a3e78c757932861bcbfbb984b06509", "rental_uris": {"android": "https://dc.lft.to/lastmile_qr_scan", "ios": "https://dc.lft.to/lastmile_qr_scan"}, "name": "85a3e78c757932861bcbfbb984b06509", "is_reserved": 0}, {"is_disabled": 0, "fusion_lon": 0.0, "fusion_lat": 0.0, "lat": 38.907252166666666, "type": "electric_scooter", "lon": -77.02987983333334, "bike_id": "733d4e290ad2c5cf01411d0f05f2cc49", "rental_uris": {"android": "https://dc.lft.to/lastmile_qr_scan", "ios": "https://dc.lft.to/lastmile_qr_scan"}, "name": "733d4e290ad2c5cf01411d0f05f2cc49", "is_reserved": 0}, {"is_disabled": 0, "fusion_lon": 0.0, "fusion_lat": 0.0, "lat": 38.905634166666665, "type": "electric_scooter", "lon": -77.00583416666667, "bike_id": "1c44e496f0f837e2f9fc9e763d426fc9", "rental_uris": {"android": "https://dc.lft.to/lastmile_qr_scan", "ios": "https://dc.lft.to/lastmile_qr_scan"}, "name": "1c44e496f0f837e2f9fc9e763d426fc9", "is_reserved": 0}, {"is_disabled": 0, "fusion_lon": 0.0, "fusion_lat": 0.0, "lat": 38.95783, "type": "electric_bike", "lon": -76.940921, "bike_id": "73b91bbb40b5eb20a04001ee8cafc486", "rental_uris": {"android": "https://dc.lft.to/lastmile_qr_scan", "ios": "https://dc.lft.to/lastmile_qr_scan"}, "name": "73b91bbb40b5eb20a04001ee8cafc486", "is_reserved": 0}, {"is_disabled": 0, "fusion_lon": 0.0, "fusion_lat": 0.0, "lat": 38.929474666666664, "type": "electric_scooter", "lon": -77.01887983333333, "bike_id": "8c71bc0d908f22793158954b6346c57e", "rental_uris": {"android": "https://dc.lft.to/lastmile_qr_scan", "ios": "https://dc.lft.to/lastmile_qr_scan"}, "name": "8c71bc0d908f22793158954b6346c57e", "is_reserved": 0}, {"is_disabled": 0, "fusion_lon": 0.0, "fusion_lat": 0.0, "lat": 38.906939666666666, "type": "electric_bike", "lon": -76.95190666666667, "bike_id": "bb056164e7cbd4483c9571f9dcbcc2e7", "rental_uris": {"android": "https://dc.lft.to/lastmile_qr_scan", "ios": "https://dc.lft.to/lastmile_qr_scan"}, "name": "bb056164e7cbd4483c9571f9dcbcc2e7", "is_reserved": 0}, {"is_disabled": 0, "fusion_lon": 0.0, "fusion_lat": 0.0, "lat": 38.916275, "type": "electric_scooter", "lon": -77.02153816666667, "bike_id": "69165dccafa74103d52d2c862fadc4d1", "rental_uris": {"android": "https://dc.lft.to/lastmile_qr_scan", "ios": "https://dc.lft.to/lastmile_qr_scan"}, "name": "69165dccafa74103d52d2c862fadc4d1", "is_reserved": 0}, {"is_disabled": 0, "fusion_lon": 0.0, "fusion_lat": 0.0, "lat": 38.91958, "type": "electric_scooter", "lon": -77.01654233333333, "bike_id": "fe8995f2fa8da55d6cb57a1087b2ebb0", "rental_uris": {"android": "https://dc.lft.to/lastmile_qr_scan", "ios": "https://dc.lft.to/lastmile_qr_scan"}, "name": "fe8995f2fa8da55d6cb57a1087b2ebb0", "is_reserved": 0}, {"is_disabled": 0, "fusion_lon": 0.0, "fusion_lat": 0.0, "lat": 38.9195555, "type": "electric_scooter", "lon": -77.00076266666666, "bike_id": "cd9dc2037cb1c815780fbffc6041877b", "rental_uris": {"android": "https://dc.lft.to/lastmile_qr_scan", "ios": "https://dc.lft.to/lastmile_qr_scan"}, "name": "cd9dc2037cb1c815780fbffc6041877b", "is_reserved": 0}, {"is_disabled": 0, "fusion_lon": 0.0, "fusion_lat": 0.0, "lat": 38.88865966666667, "type": "electric_scooter", "lon": -76.97740383333333, "bike_id": "f93beccad1d23236d614e23bfc715e1b", "rental_uris": {"android": "https://dc.lft.to/lastmile_qr_scan", "ios": "https://dc.lft.to/lastmile_qr_scan"}, "name": "f93beccad1d23236d614e23bfc715e1b", "is_reserved": 0}, {"is_disabled": 0, "fusion_lon": 0.0, "fusion_lat": 0.0, "lat": 38.89771566666667, "type": "electric_scooter", "lon": -77.02196266666667, "bike_id": "90c98636e432951385a38136d85cd51e", "rental_uris": {"android": "https://dc.lft.to/lastmile_qr_scan", "ios": "https://dc.lft.to/lastmile_qr_scan"}, "name": "90c98636e432951385a38136d85cd51e", "is_reserved": 0}, {"is_disabled": 0, "fusion_lon": 0.0, "fusion_lat": 0.0, "lat": 38.895054, "type": "electric_scooter", "lon": -77.02195716666667, "bike_id": "bdafac080278ce8ee43de306068b5407", "rental_uris": {"android": "https://dc.lft.to/lastmile_qr_scan", "ios": "https://dc.lft.to/lastmile_qr_scan"}, "name": "bdafac080278ce8ee43de306068b5407", "is_reserved": 0}, {"is_disabled": 0, "fusion_lon": 0.0, "fusion_lat": 0.0, "lat": 38.8312125, "type": "electric_bike", "lon": -77.04321316666666, "bike_id": "8e3f1cfe0e8cbe32f11a2d58589f6f50", "rental_uris": {"android": "https://dc.lft.to/lastmile_qr_scan", "ios": "https://dc.lft.to/lastmile_qr_scan"}, "name": "8e3f1cfe0e8cbe32f11a2d58589f6f50", "is_reserved": 0}, {"is_disabled": 0, "fusion_lon": 0.0, "fusion_lat": 0.0, "lat": 38.82730883333333, "type": "electric_bike", "lon": -77.0086135, "bike_id": "6b6964250fa5096bac8a2156d1917493", "rental_uris": {"android": "https://dc.lft.to/lastmile_qr_scan", "ios": "https://dc.lft.to/lastmile_qr_scan"}, "name": "6b6964250fa5096bac8a2156d1917493", "is_reserved": 0}, {"is_disabled": 0, "fusion_lon": 0.0, "fusion_lat": 0.0, "lat": 38.91973616666667, "type": "electric_scooter", "lon": -77.04176166666667, "bike_id": "66fa5bf37db7ace8ed550a1848539f22", "rental_uris": {"android": "https://dc.lft.to/lastmile_qr_scan", "ios": "https://dc.lft.to/lastmile_qr_scan"}, "name": "66fa5bf37db7ace8ed550a1848539f22", "is_reserved": 0}, {"is_disabled": 0, "fusion_lon": 0.0, "fusion_lat": 0.0, "lat": 38.906252, "type": "electric_scooter", "lon": -77.02818783333333, "bike_id": "130b3066013729b6bd47fe816dd5d23c", "rental_uris": {"android": "https://dc.lft.to/lastmile_qr_scan", "ios": "https://dc.lft.to/lastmile_qr_scan"}, "name": "130b3066013729b6bd47fe816dd5d23c", "is_reserved": 0}, {"is_disabled": 0, "fusion_lon": 0.0, "fusion_lat": 0.0, "lat": 38.898461, "type": "electric_scooter", "lon": -77.03351316666667, "bike_id": "2aa151f71199992bed18e0fcccf13ac2", "rental_uris": {"android": "https://dc.lft.to/lastmile_qr_scan", "ios": "https://dc.lft.to/lastmile_qr_scan"}, "name": "2aa151f71199992bed18e0fcccf13ac2", "is_reserved": 0}, {"is_disabled": 0, "fusion_lon": 0.0, "fusion_lat": 0.0, "lat": 38.9016545, "type": "electric_scooter", "lon": -77.04160533333334, "bike_id": "1733018f20101802a897521631374704", "rental_uris": {"android": "https://dc.lft.to/lastmile_qr_scan", "ios": "https://dc.lft.to/lastmile_qr_scan"}, "name": "1733018f20101802a897521631374704", "is_reserved": 0}, {"is_disabled": 0, "fusion_lon": 0.0, "fusion_lat": 0.0, "lat": 38.887386166666666, "type": "electric_scooter", "lon": -77.03216683333333, "bike_id": "dfa372be38a557dfd0870cc9b5e649fc", "rental_uris": {"android": "https://dc.lft.to/lastmile_qr_scan", "ios": "https://dc.lft.to/lastmile_qr_scan"}, "name": "dfa372be38a557dfd0870cc9b5e649fc", "is_reserved": 0}, {"is_disabled": 0, "fusion_lon": 0.0, "fusion_lat": 0.0, "lat": 38.89662416666667, "type": "electric_scooter", "lon": -77.04345066666667, "bike_id": "d16c9e64982275cfe2d909b57d054095", "rental_uris": {"android": "https://dc.lft.to/lastmile_qr_scan", "ios": "https://dc.lft.to/lastmile_qr_scan"}, "name": "d16c9e64982275cfe2d909b57d054095", "is_reserved": 0}, {"is_disabled": 0, "fusion_lon": 0.0, "fusion_lat": 0.0, "lat": 38.905783166666666, "type": "electric_scooter", "lon": -77.03362966666667, "bike_id": "6dc5acb3ce32fb02abd2dd3b6935a0c2", "rental_uris": {"android": "https://dc.lft.to/lastmile_qr_scan", "ios": "https://dc.lft.to/lastmile_qr_scan"}, "name": "6dc5acb3ce32fb02abd2dd3b6935a0c2", "is_reserved": 0}, {"is_disabled": 0, "fusion_lon": 0.0, "fusion_lat": 0.0, "lat": 38.901642, "type": "electric_scooter", "lon": -77.04137233333333, "bike_id": "de71f7dd7c0653b7a8e5f3b52cd993c5", "rental_uris": {"android": "https://dc.lft.to/lastmile_qr_scan", "ios": "https://dc.lft.to/lastmile_qr_scan"}, "name": "de71f7dd7c0653b7a8e5f3b52cd993c5", "is_reserved": 0}, {"is_disabled": 0, "fusion_lon": 0.0, "fusion_lat": 0.0, "lat": 38.90540166666667, "type": "electric_scooter", "lon": -77.02216333333334, "bike_id": "55ffd411bc40c7c84c3040934fde3cf1", "rental_uris": {"android": "https://dc.lft.to/lastmile_qr_scan", "ios": "https://dc.lft.to/lastmile_qr_scan"}, "name": "55ffd411bc40c7c84c3040934fde3cf1", "is_reserved": 0}, {"is_disabled": 0, "fusion_lon": 0.0, "fusion_lat": 0.0, "lat": 38.91543166666666, "type": "electric_scooter", "lon": -77.01969433333333, "bike_id": "c928b6c813ff26f7513c20e744b48334", "rental_uris": {"android": "https://dc.lft.to/lastmile_qr_scan", "ios": "https://dc.lft.to/lastmile_qr_scan"}, "name": "c928b6c813ff26f7513c20e744b48334", "is_reserved": 0}, {"is_disabled": 0, "fusion_lon": 0.0, "fusion_lat": 0.0, "lat": 38.892782833333335, "type": "electric_scooter", "lon": -77.03182583333333, "bike_id": "854d493856a1efa4314788544274eeba", "rental_uris": {"android": "https://dc.lft.to/lastmile_qr_scan", "ios": "https://dc.lft.to/lastmile_qr_scan"}, "name": "854d493856a1efa4314788544274eeba", "is_reserved": 0}, {"is_disabled": 0, "fusion_lon": 0.0, "fusion_lat": 0.0, "lat": 38.9038325, "type": "electric_scooter", "lon": -77.01736966666667, "bike_id": "5df9c1f368bc1bf0264743e5785b5aaa", "rental_uris": {"android": "https://dc.lft.to/lastmile_qr_scan", "ios": "https://dc.lft.to/lastmile_qr_scan"}, "name": "5df9c1f368bc1bf0264743e5785b5aaa", "is_reserved": 0}, {"is_disabled": 0, "fusion_lon": 0.0, "fusion_lat": 0.0, "lat": 38.91736133333333, "type": "electric_scooter", "lon": -77.0418095, "bike_id": "3b42f3725ce90f3417dd7e2300bb1854", "rental_uris": {"android": "https://dc.lft.to/lastmile_qr_scan", "ios": "https://dc.lft.to/lastmile_qr_scan"}, "name": "3b42f3725ce90f3417dd7e2300bb1854", "is_reserved": 0}, {"is_disabled": 0, "fusion_lon": 0.0, "fusion_lat": 0.0, "lat": 38.934029333333335, "type": "electric_scooter", "lon": -77.02740733333333, "bike_id": "bf47fa3da9bcdd6b38b110041c1cc10f", "rental_uris": {"android": "https://dc.lft.to/lastmile_qr_scan", "ios": "https://dc.lft.to/lastmile_qr_scan"}, "name": "bf47fa3da9bcdd6b38b110041c1cc10f", "is_reserved": 0}, {"is_disabled": 0, "fusion_lon": 0.0, "fusion_lat": 0.0, "lat": 38.875787833333334, "type": "electric_scooter", "lon": -77.01989666666667, "bike_id": "01724828e9036cffc1f30d26edc279a0", "rental_uris": {"android": "https://dc.lft.to/lastmile_qr_scan", "ios": "https://dc.lft.to/lastmile_qr_scan"}, "name": "01724828e9036cffc1f30d26edc279a0", "is_reserved": 0}, {"is_disabled": 0, "fusion_lon": 0.0, "fusion_lat": 0.0, "lat": 38.9007695, "type": "electric_scooter", "lon": -77.0345465, "bike_id": "595d108a0aaa2197f7105c80d6f239d4", "rental_uris": {"android": "https://dc.lft.to/lastmile_qr_scan", "ios": "https://dc.lft.to/lastmile_qr_scan"}, "name": "595d108a0aaa2197f7105c80d6f239d4", "is_reserved": 0}, {"is_disabled": 0, "fusion_lon": 0.0, "fusion_lat": 0.0, "lat": 38.848502, "type": "electric_bike", "lon": -77.080505, "bike_id": "451c0c2caf6344550b80aa7ab35482e1", "rental_uris": {"android": "https://dc.lft.to/lastmile_qr_scan", "ios": "https://dc.lft.to/lastmile_qr_scan"}, "name": "451c0c2caf6344550b80aa7ab35482e1", "is_reserved": 0}, {"is_disabled": 0, "fusion_lon": 0.0, "fusion_lat": 0.0, "lat": 38.895273833333334, "type": "electric_scooter", "lon": -77.02813933333333, "bike_id": "f80173196311a470e884f25185202191", "rental_uris": {"android": "https://dc.lft.to/lastmile_qr_scan", "ios": "https://dc.lft.to/lastmile_qr_scan"}, "name": "f80173196311a470e884f25185202191", "is_reserved": 0}, {"is_disabled": 0, "fusion_lon": 0.0, "fusion_lat": 0.0, "lat": 38.93559666666667, "type": "electric_scooter", "lon": -77.07332266666667, "bike_id": "f14d11a60be548279b1f88edaad1d13b", "rental_uris": {"android": "https://dc.lft.to/lastmile_qr_scan", "ios": "https://dc.lft.to/lastmile_qr_scan"}, "name": "f14d11a60be548279b1f88edaad1d13b", "is_reserved": 0}, {"is_disabled": 0, "fusion_lon": 0.0, "fusion_lat": 0.0, "lat": 38.89671033333333, "type": "electric_scooter", "lon": -76.9471755, "bike_id": "5aee6d750c62d186bb8268ad17be972d", "rental_uris": {"android": "https://dc.lft.to/lastmile_qr_scan", "ios": "https://dc.lft.to/lastmile_qr_scan"}, "name": "5aee6d750c62d186bb8268ad17be972d", "is_reserved": 0}, {"is_disabled": 0, "fusion_lon": 0.0, "fusion_lat": 0.0, "lat": 38.91339716666667, "type": "electric_scooter", "lon": -77.02532116666667, "bike_id": "9d1e7ac5ab8b94faefa73cf8cd2a82f6", "rental_uris": {"android": "https://dc.lft.to/lastmile_qr_scan", "ios": "https://dc.lft.to/lastmile_qr_scan"}, "name": "9d1e7ac5ab8b94faefa73cf8cd2a82f6", "is_reserved": 0}, {"is_disabled": 0, "fusion_lon": 0.0, "fusion_lat": 0.0, "lat": 38.90175333333333, "type": "electric_scooter", "lon": -77.020755, "bike_id": "3c586ae14595a758c19efd9afd75f2a4", "rental_uris": {"android": "https://dc.lft.to/lastmile_qr_scan", "ios": "https://dc.lft.to/lastmile_qr_scan"}, "name": "3c586ae14595a758c19efd9afd75f2a4", "is_reserved": 0}, {"is_disabled": 0, "fusion_lon": 0.0, "fusion_lat": 0.0, "lat": 38.91796333333333, "type": "electric_scooter", "lon": -77.0365095, "bike_id": "930fabee7fd6c89506f35b19a25d8f01", "rental_uris": {"android": "https://dc.lft.to/lastmile_qr_scan", "ios": "https://dc.lft.to/lastmile_qr_scan"}, "name": "930fabee7fd6c89506f35b19a25d8f01", "is_reserved": 0}, {"is_disabled": 0, "fusion_lon": 0.0, "fusion_lat": 0.0, "lat": 38.903723, "type": "electric_scooter", "lon": -77.034995, "bike_id": "01424cc52f59f5d74471ae162ed790e1", "rental_uris": {"android": "https://dc.lft.to/lastmile_qr_scan", "ios": "https://dc.lft.to/lastmile_qr_scan"}, "name": "01424cc52f59f5d74471ae162ed790e1", "is_reserved": 0}, {"is_disabled": 0, "fusion_lon": 0.0, "fusion_lat": 0.0, "lat": 38.85977883333334, "type": "electric_scooter", "lon": -76.98409866666667, "bike_id": "9c35e70749bc4302fe00ca00a7e82649", "rental_uris": {"android": "https://dc.lft.to/lastmile_qr_scan", "ios": "https://dc.lft.to/lastmile_qr_scan"}, "name": "9c35e70749bc4302fe00ca00a7e82649", "is_reserved": 0}, {"is_disabled": 0, "fusion_lon": 0.0, "fusion_lat": 0.0, "lat": 38.913936666666665, "type": "electric_scooter", "lon": -77.03856883333333, "bike_id": "877b44362c771cbc230a610ad119c325", "rental_uris": {"android": "https://dc.lft.to/lastmile_qr_scan", "ios": "https://dc.lft.to/lastmile_qr_scan"}, "name": "877b44362c771cbc230a610ad119c325", "is_reserved": 0}, {"is_disabled": 0, "fusion_lon": 0.0, "fusion_lat": 0.0, "lat": 38.911858, "type": "electric_scooter", "lon": -77.041686, "bike_id": "46c56b9dd8651deef7f3bc5e3355200f", "rental_uris": {"android": "https://dc.lft.to/lastmile_qr_scan", "ios": "https://dc.lft.to/lastmile_qr_scan"}, "name": "46c56b9dd8651deef7f3bc5e3355200f", "is_reserved": 0}, {"is_disabled": 0, "fusion_lon": 0.0, "fusion_lat": 0.0, "lat": 38.956359, "type": "electric_scooter", "lon": -77.029776, "bike_id": "3fed6628389f354c9076844a44ae39f3", "rental_uris": {"android": "https://dc.lft.to/lastmile_qr_scan", "ios": "https://dc.lft.to/lastmile_qr_scan"}, "name": "3fed6628389f354c9076844a44ae39f3", "is_reserved": 0}, {"is_disabled": 0, "fusion_lon": 0.0, "fusion_lat": 0.0, "lat": 38.896077, "type": "electric_scooter", "lon": -77.01118633333333, "bike_id": "af3f90c2908142a72e8e477ad7169d08", "rental_uris": {"android": "https://dc.lft.to/lastmile_qr_scan", "ios": "https://dc.lft.to/lastmile_qr_scan"}, "name": "af3f90c2908142a72e8e477ad7169d08", "is_reserved": 0}, {"is_disabled": 0, "fusion_lon": 0.0, "fusion_lat": 0.0, "lat": 38.850685666666664, "type": "electric_bike", "lon": -76.97329833333333, "bike_id": "0c915e6dff4b03c548ad7ce4b0373fdc", "rental_uris": {"android": "https://dc.lft.to/lastmile_qr_scan", "ios": "https://dc.lft.to/lastmile_qr_scan"}, "name": "0c915e6dff4b03c548ad7ce4b0373fdc", "is_reserved": 0}, {"is_disabled": 0, "fusion_lon": 0.0, "fusion_lat": 0.0, "lat": 38.9058075, "type": "electric_scooter", "lon": -77.00701433333333, "bike_id": "059509a83057fecd819711711d46ed6e", "rental_uris": {"android": "https://dc.lft.to/lastmile_qr_scan", "ios": "https://dc.lft.to/lastmile_qr_scan"}, "name": "059509a83057fecd819711711d46ed6e", "is_reserved": 0}, {"is_disabled": 0, "fusion_lon": 0.0, "fusion_lat": 0.0, "lat": 38.951912666666665, "type": "electric_bike", "lon": -77.022536, "bike_id": "32a0ce25b094661f195c00d3ec857c00", "rental_uris": {"android": "https://dc.lft.to/lastmile_qr_scan", "ios": "https://dc.lft.to/lastmile_qr_scan"}, "name": "32a0ce25b094661f195c00d3ec857c00", "is_reserved": 0}, {"is_disabled": 0, "fusion_lon": 0.0, "fusion_lat": 0.0, "lat": 38.90246616666667, "type": "electric_scooter", "lon": -77.03320833333333, "bike_id": "04d5d393f75958410a8c7dfdb8ea2e0b", "rental_uris": {"android": "https://dc.lft.to/lastmile_qr_scan", "ios": "https://dc.lft.to/lastmile_qr_scan"}, "name": "04d5d393f75958410a8c7dfdb8ea2e0b", "is_reserved": 0}, {"is_disabled": 0, "fusion_lon": 0.0, "fusion_lat": 0.0, "lat": 38.95252766666667, "type": "electric_bike", "lon": -77.069789, "bike_id": "e90c2ae04558cb0772c6ca68283b2eff", "rental_uris": {"android": "https://dc.lft.to/lastmile_qr_scan", "ios": "https://dc.lft.to/lastmile_qr_scan"}, "name": "e90c2ae04558cb0772c6ca68283b2eff", "is_reserved": 0}, {"is_disabled": 0, "fusion_lon": 0.0, "fusion_lat": 0.0, "lat": 38.948963, "type": "electric_bike", "lon": -76.96353866666666, "bike_id": "7812e241de61b6ce32dfee484a5999ea", "rental_uris": {"android": "https://dc.lft.to/lastmile_qr_scan", "ios": "https://dc.lft.to/lastmile_qr_scan"}, "name": "7812e241de61b6ce32dfee484a5999ea", "is_reserved": 0}, {"is_disabled": 0, "fusion_lon": 0.0, "fusion_lat": 0.0, "lat": 38.909621666666666, "type": "electric_scooter", "lon": -77.03950183333333, "bike_id": "ee8b8d3f73b5fb1880f3f180ccca54db", "rental_uris": {"android": "https://dc.lft.to/lastmile_qr_scan", "ios": "https://dc.lft.to/lastmile_qr_scan"}, "name": "ee8b8d3f73b5fb1880f3f180ccca54db", "is_reserved": 0}, {"is_disabled": 0, "fusion_lon": 0.0, "fusion_lat": 0.0, "lat": 38.9159735, "type": "electric_scooter", "lon": -77.072732, "bike_id": "dd44b41fa539585b2b8109f3142468ed", "rental_uris": {"android": "https://dc.lft.to/lastmile_qr_scan", "ios": "https://dc.lft.to/lastmile_qr_scan"}, "name": "dd44b41fa539585b2b8109f3142468ed", "is_reserved": 0}, {"is_disabled": 0, "fusion_lon": 0.0, "fusion_lat": 0.0, "lat": 38.917092833333335, "type": "electric_scooter", "lon": -77.001141, "bike_id": "4ee1cd84a0de211972900650730e21ef", "rental_uris": {"android": "https://dc.lft.to/lastmile_qr_scan", "ios": "https://dc.lft.to/lastmile_qr_scan"}, "name": "4ee1cd84a0de211972900650730e21ef", "is_reserved": 0}, {"is_disabled": 0, "fusion_lon": 0.0, "fusion_lat": 0.0, "lat": 38.922304833333335, "type": "electric_scooter", "lon": -77.04339666666667, "bike_id": "35727e59a933f13cb8514f9d90d2ac1e", "rental_uris": {"android": "https://dc.lft.to/lastmile_qr_scan", "ios": "https://dc.lft.to/lastmile_qr_scan"}, "name": "35727e59a933f13cb8514f9d90d2ac1e", "is_reserved": 0}, {"is_disabled": 0, "fusion_lon": 0.0, "fusion_lat": 0.0, "lat": 38.91707816666667, "type": "electric_bike", "lon": -77.09560933333333, "bike_id": "9f5cf0d0d6d39081fe2e29337b046d02", "rental_uris": {"android": "https://dc.lft.to/lastmile_qr_scan", "ios": "https://dc.lft.to/lastmile_qr_scan"}, "name": "9f5cf0d0d6d39081fe2e29337b046d02", "is_reserved": 0}, {"is_disabled": 0, "fusion_lon": 0.0, "fusion_lat": 0.0, "lat": 38.923212666666664, "type": "electric_scooter", "lon": -77.03807066666667, "bike_id": "d025293c452bf931a84c9e2e359a98a2", "rental_uris": {"android": "https://dc.lft.to/lastmile_qr_scan", "ios": "https://dc.lft.to/lastmile_qr_scan"}, "name": "d025293c452bf931a84c9e2e359a98a2", "is_reserved": 0}, {"is_disabled": 0, "fusion_lon": 0.0, "fusion_lat": 0.0, "lat": 38.916425333333336, "type": "electric_scooter", "lon": -77.022942, "bike_id": "1396d88ac7b4b75e64bb76ebf052a366", "rental_uris": {"android": "https://dc.lft.to/lastmile_qr_scan", "ios": "https://dc.lft.to/lastmile_qr_scan"}, "name": "1396d88ac7b4b75e64bb76ebf052a366", "is_reserved": 0}, {"is_disabled": 0, "fusion_lon": 0.0, "fusion_lat": 0.0, "lat": 39.05269366666667, "type": "electric_bike", "lon": -77.04381116666667, "bike_id": "9e1fff5815a49978fdbfc9a2a2c307ca", "rental_uris": {"android": "https://dc.lft.to/lastmile_qr_scan", "ios": "https://dc.lft.to/lastmile_qr_scan"}, "name": "9e1fff5815a49978fdbfc9a2a2c307ca", "is_reserved": 0}, {"is_disabled": 0, "fusion_lon": 0.0, "fusion_lat": 0.0, "lat": 38.89752133333333, "type": "electric_scooter", "lon": -77.05163683333333, "bike_id": "0554c5ee60f8d3c4a38af9f223ed93db", "rental_uris": {"android": "https://dc.lft.to/lastmile_qr_scan", "ios": "https://dc.lft.to/lastmile_qr_scan"}, "name": "0554c5ee60f8d3c4a38af9f223ed93db", "is_reserved": 0}, {"is_disabled": 0, "fusion_lon": 0.0, "fusion_lat": 0.0, "lat": 38.935232666666664, "type": "electric_scooter", "lon": -77.06633983333333, "bike_id": "ca19a57f50de0c5290b395bff849591d", "rental_uris": {"android": "https://dc.lft.to/lastmile_qr_scan", "ios": "https://dc.lft.to/lastmile_qr_scan"}, "name": "ca19a57f50de0c5290b395bff849591d", "is_reserved": 0}, {"is_disabled": 0, "fusion_lon": 0.0, "fusion_lat": 0.0, "lat": 38.93084233333333, "type": "electric_scooter", "lon": -77.0362755, "bike_id": "64f4f8c08e4b89ce490cd951492bc04d", "rental_uris": {"android": "https://dc.lft.to/lastmile_qr_scan", "ios": "https://dc.lft.to/lastmile_qr_scan"}, "name": "64f4f8c08e4b89ce490cd951492bc04d", "is_reserved": 0}, {"is_disabled": 0, "fusion_lon": 0.0, "fusion_lat": 0.0, "lat": 38.92423516666667, "type": "electric_scooter", "lon": -77.04481, "bike_id": "06e417cf633f71f586bf9be98f87d3d1", "rental_uris": {"android": "https://dc.lft.to/lastmile_qr_scan", "ios": "https://dc.lft.to/lastmile_qr_scan"}, "name": "06e417cf633f71f586bf9be98f87d3d1", "is_reserved": 0}, {"is_disabled": 0, "fusion_lon": 0.0, "fusion_lat": 0.0, "lat": 38.90311283333333, "type": "electric_scooter", "lon": -77.038656, "bike_id": "5845b98819c3a11c2d87106aa8ba49b1", "rental_uris": {"android": "https://dc.lft.to/lastmile_qr_scan", "ios": "https://dc.lft.to/lastmile_qr_scan"}, "name": "5845b98819c3a11c2d87106aa8ba49b1", "is_reserved": 0}, {"is_disabled": 0, "fusion_lon": 0.0, "fusion_lat": 0.0, "lat": 38.908531333333336, "type": "electric_scooter", "lon": -77.06079333333334, "bike_id": "ac64d68c3b3c1bd5e8222df620cdd29d", "rental_uris": {"android": "https://dc.lft.to/lastmile_qr_scan", "ios": "https://dc.lft.to/lastmile_qr_scan"}, "name": "ac64d68c3b3c1bd5e8222df620cdd29d", "is_reserved": 0}, {"is_disabled": 0, "fusion_lon": 0.0, "fusion_lat": 0.0, "lat": 38.86609883333333, "type": "electric_scooter", "lon": -77.01074233333334, "bike_id": "9d33ff9bd6ffc482a4659d572bed77e8", "rental_uris": {"android": "https://dc.lft.to/lastmile_qr_scan", "ios": "https://dc.lft.to/lastmile_qr_scan"}, "name": "9d33ff9bd6ffc482a4659d572bed77e8", "is_reserved": 0}, {"is_disabled": 0, "fusion_lon": 0.0, "fusion_lat": 0.0, "lat": 38.89662116666667, "type": "electric_scooter", "lon": -77.0270955, "bike_id": "36014e800cf72eff793ddc500a4a624e", "rental_uris": {"android": "https://dc.lft.to/lastmile_qr_scan", "ios": "https://dc.lft.to/lastmile_qr_scan"}, "name": "36014e800cf72eff793ddc500a4a624e", "is_reserved": 0}, {"is_disabled": 0, "fusion_lon": 0.0, "fusion_lat": 0.0, "lat": 38.93640516666667, "type": "electric_scooter", "lon": -77.02693166666667, "bike_id": "48a80f883388e4e4baba7090cb2b2299", "rental_uris": {"android": "https://dc.lft.to/lastmile_qr_scan", "ios": "https://dc.lft.to/lastmile_qr_scan"}, "name": "48a80f883388e4e4baba7090cb2b2299", "is_reserved": 0}, {"is_disabled": 0, "fusion_lon": 0.0, "fusion_lat": 0.0, "lat": 38.892249166666666, "type": "electric_scooter", "lon": -77.0317825, "bike_id": "091adccad74a6e3a617d64196ca449e2", "rental_uris": {"android": "https://dc.lft.to/lastmile_qr_scan", "ios": "https://dc.lft.to/lastmile_qr_scan"}, "name": "091adccad74a6e3a617d64196ca449e2", "is_reserved": 0}, {"is_disabled": 0, "fusion_lon": 0.0, "fusion_lat": 0.0, "lat": 38.848966, "type": "electric_scooter", "lon": -77.005226, "bike_id": "4808482b17162f87b5599acfe4d9dc3e", "rental_uris": {"android": "https://dc.lft.to/lastmile_qr_scan", "ios": "https://dc.lft.to/lastmile_qr_scan"}, "name": "4808482b17162f87b5599acfe4d9dc3e", "is_reserved": 0}, {"is_disabled": 0, "fusion_lon": 0.0, "fusion_lat": 0.0, "lat": 38.9062295, "type": "electric_scooter", "lon": -77.02411, "bike_id": "4ec53f9ac12f0ca3f2e6eb2f5216c235", "rental_uris": {"android": "https://dc.lft.to/lastmile_qr_scan", "ios": "https://dc.lft.to/lastmile_qr_scan"}, "name": "4ec53f9ac12f0ca3f2e6eb2f5216c235", "is_reserved": 0}, {"is_disabled": 0, "fusion_lon": 0.0, "fusion_lat": 0.0, "lat": 38.8777985, "type": "electric_scooter", "lon": -77.01434516666667, "bike_id": "432028336706844313efce5ed74cbc67", "rental_uris": {"android": "https://dc.lft.to/lastmile_qr_scan", "ios": "https://dc.lft.to/lastmile_qr_scan"}, "name": "432028336706844313efce5ed74cbc67", "is_reserved": 0}, {"is_disabled": 0, "fusion_lon": 0.0, "fusion_lat": 0.0, "lat": 38.9005855, "type": "electric_scooter", "lon": -77.00756316666667, "bike_id": "dfd05e92e8c9a5cff3e4528278c9af61", "rental_uris": {"android": "https://dc.lft.to/lastmile_qr_scan", "ios": "https://dc.lft.to/lastmile_qr_scan"}, "name": "dfd05e92e8c9a5cff3e4528278c9af61", "is_reserved": 0}, {"is_disabled": 0, "fusion_lon": 0.0, "fusion_lat": 0.0, "lat": 38.91187516666667, "type": "electric_scooter", "lon": -77.04178033333334, "bike_id": "265bb8b050ef8243ce350cc4195d9d51", "rental_uris": {"android": "https://dc.lft.to/lastmile_qr_scan", "ios": "https://dc.lft.to/lastmile_qr_scan"}, "name": "265bb8b050ef8243ce350cc4195d9d51", "is_reserved": 0}, {"is_disabled": 0, "fusion_lon": 0.0, "fusion_lat": 0.0, "lat": 38.93705816666667, "type": "electric_scooter", "lon": -77.061014, "bike_id": "4725f966dd7493bd296422d430a34daa", "rental_uris": {"android": "https://dc.lft.to/lastmile_qr_scan", "ios": "https://dc.lft.to/lastmile_qr_scan"}, "name": "4725f966dd7493bd296422d430a34daa", "is_reserved": 0}, {"is_disabled": 0, "fusion_lon": 0.0, "fusion_lat": 0.0, "lat": 38.86355316666667, "type": "electric_scooter", "lon": -76.99067583333333, "bike_id": "64875d0c0a97406f84f4c4f7b0045708", "rental_uris": {"android": "https://dc.lft.to/lastmile_qr_scan", "ios": "https://dc.lft.to/lastmile_qr_scan"}, "name": "64875d0c0a97406f84f4c4f7b0045708", "is_reserved": 0}, {"is_disabled": 0, "fusion_lon": 0.0, "fusion_lat": 0.0, "lat": 38.981388333333335, "type": "electric_bike", "lon": -77.00766883333333, "bike_id": "97f8ca63361b8e10d1c9c8442d604915", "rental_uris": {"android": "https://dc.lft.to/lastmile_qr_scan", "ios": "https://dc.lft.to/lastmile_qr_scan"}, "name": "97f8ca63361b8e10d1c9c8442d604915", "is_reserved": 0}, {"is_disabled": 0, "fusion_lon": 0.0, "fusion_lat": 0.0, "lat": 38.90776416666667, "type": "electric_scooter", "lon": -77.04347716666666, "bike_id": "9d444dd896b357c442d5ac2bb51d8fb0", "rental_uris": {"android": "https://dc.lft.to/lastmile_qr_scan", "ios": "https://dc.lft.to/lastmile_qr_scan"}, "name": "9d444dd896b357c442d5ac2bb51d8fb0", "is_reserved": 0}, {"is_disabled": 0, "fusion_lon": 0.0, "fusion_lat": 0.0, "lat": 38.90221916666667, "type": "electric_scooter", "lon": -77.02430733333334, "bike_id": "a6c3bcd6c27b0d887250cbf7db18acb3", "rental_uris": {"android": "https://dc.lft.to/lastmile_qr_scan", "ios": "https://dc.lft.to/lastmile_qr_scan"}, "name": "a6c3bcd6c27b0d887250cbf7db18acb3", "is_reserved": 0}, {"is_disabled": 0, "fusion_lon": 0.0, "fusion_lat": 0.0, "lat": 38.994550833333335, "type": "electric_bike", "lon": -76.9081615, "bike_id": "195538b6c41f38f34a8d55c8159035c0", "rental_uris": {"android": "https://dc.lft.to/lastmile_qr_scan", "ios": "https://dc.lft.to/lastmile_qr_scan"}, "name": "195538b6c41f38f34a8d55c8159035c0", "is_reserved": 0}, {"is_disabled": 0, "fusion_lon": 0.0, "fusion_lat": 0.0, "lat": 38.88012333333333, "type": "electric_bike", "lon": -76.91593916666666, "bike_id": "64ace7e0dd44a79323d0de9742f81451", "rental_uris": {"android": "https://dc.lft.to/lastmile_qr_scan", "ios": "https://dc.lft.to/lastmile_qr_scan"}, "name": "64ace7e0dd44a79323d0de9742f81451", "is_reserved": 0}, {"is_disabled": 0, "fusion_lon": 0.0, "fusion_lat": 0.0, "lat": 38.88601666666667, "type": "electric_scooter", "lon": -77.00579066666667, "bike_id": "269c8d06c9a703b1c50b148c12a36cbe", "rental_uris": {"android": "https://dc.lft.to/lastmile_qr_scan", "ios": "https://dc.lft.to/lastmile_qr_scan"}, "name": "269c8d06c9a703b1c50b148c12a36cbe", "is_reserved": 0}, {"is_disabled": 0, "fusion_lon": 0.0, "fusion_lat": 0.0, "lat": 38.92396133333333, "type": "electric_scooter", "lon": -77.04094816666667, "bike_id": "26890faef53b1760bef0236dfe51522b", "rental_uris": {"android": "https://dc.lft.to/lastmile_qr_scan", "ios": "https://dc.lft.to/lastmile_qr_scan"}, "name": "26890faef53b1760bef0236dfe51522b", "is_reserved": 0}, {"is_disabled": 0, "fusion_lon": 0.0, "fusion_lat": 0.0, "lat": 38.9147085, "type": "electric_scooter", "lon": -77.02799533333334, "bike_id": "88fbb99e852ee5233314491bd15be131", "rental_uris": {"android": "https://dc.lft.to/lastmile_qr_scan", "ios": "https://dc.lft.to/lastmile_qr_scan"}, "name": "88fbb99e852ee5233314491bd15be131", "is_reserved": 0}, {"is_disabled": 0, "fusion_lon": 0.0, "fusion_lat": 0.0, "lat": 38.890105, "type": "electric_scooter", "lon": -77.03321766666667, "bike_id": "df5031921378cf765c572b289b71112f", "rental_uris": {"android": "https://dc.lft.to/lastmile_qr_scan", "ios": "https://dc.lft.to/lastmile_qr_scan"}, "name": "df5031921378cf765c572b289b71112f", "is_reserved": 0}, {"is_disabled": 0, "fusion_lon": 0.0, "fusion_lat": 0.0, "lat": 38.868957, "type": "electric_scooter", "lon": -76.9831385, "bike_id": "e1dae55beff4c4a109db16b989334291", "rental_uris": {"android": "https://dc.lft.to/lastmile_qr_scan", "ios": "https://dc.lft.to/lastmile_qr_scan"}, "name": "e1dae55beff4c4a109db16b989334291", "is_reserved": 0},