{"data": {"bikes": [{"is_reserved": 0, "type": "electric_scooter", "fusion_lat": 0.0, "is_disabled": 0, "rental_uris": {"ios": "https://dc.lft.to/lastmile_qr_scan", "android": "https://dc.lft.to/lastmile_qr_scan"}, "bike_id": "96b4f503813b1e7a79c15f4ca198b42f", "lat": 38.90722483333333, "name": "96b4f503813b1e7a79c15f4ca198b42f", "lon": -77.03214, "fusion_lon": 0.0}, {"is_reserved": 0, "type": "electric_scooter", "fusion_lat": 0.0, "is_disabled": 0, "rental_uris": {"ios": "https://dc.lft.to/lastmile_qr_scan", "android": "https://dc.lft.to/lastmile_qr_scan"}, "bike_id": "f4335668ab5be3883c3adedd4540e9aa", "lat": 38.900130833333336, "name": "f4335668ab5be3883c3adedd4540e9aa", "lon": -77.00681116666667, "fusion_lon": 0.0}, {"is_reserved": 0, "type": "electric_scooter", "fusion_lat": 0.0, "is_disabled": 0, "rental_uris": {"ios": "https://dc.lft.to/lastmile_qr_scan", "android": "https://dc.lft.to/lastmile_qr_scan"}, "bike_id": "f66f2f3621886659d0c50f7c6130ba28", "lat": 38.89668533333333, "name": "f66f2f3621886659d0c50f7c6130ba28", "lon": -76.9321035, "fusion_lon": 0.0}, {"is_reserved": 0, "type": "electric_scooter", "fusion_lat": 0.0, "is_disabled": 0, "rental_uris": {"ios": "https://dc.lft.to/lastmile_qr_scan", "android": "https://dc.lft.to/lastmile_qr_scan"}, "bike_id": "8f2903d3c9f90c592f6a6e09de0d489a", "lat": 38.9263985, "name": "8f2903d3c9f90c592f6a6e09de0d489a", "lon": -77.03838816666666, "fusion_lon": 0.0}, {"is_reserved": 0, "type": "electric_bike", "fusion_lat": 0.0, "is_disabled": 0, "rental_uris": {"ios": "https://dc.lft.to/lastmile_qr_scan", "android": "https://dc.lft.to/lastmile_qr_scan"}, "bike_id": "2860d9549246877374bfd43a0d5cf17e", "lat": 38.8681675, "name": "2860d9549246877374bfd43a0d5cf17e", "lon": -76.98027616666667, "fusion_lon": 0.0}, {"is_reserved": 0, "type": "electric_scooter", "fusion_lat": 0.0, "is_disabled": 0, "rental_uris": {"ios": "https://dc.lft.to/lastmile_qr_scan", "android": "https://dc.lft.to/lastmile_qr_scan"}, "bike_id": "7f1c4b6df77827a5ef16c0f1dbe449d1", "lat": 38.91904733333333, "name": "7f1c4b6df77827a5ef16c0f1dbe449d1", "lon": -77.00045716666666, "fusion_lon": 0.0}, {"is_reserved": 0, "type": "electric_scooter", "fusion_lat": 0.0, "is_disabled": 0, "rental_uris": {"ios": "https://dc.lft.to/lastmile_qr_scan", "android": "https://dc.lft.to/lastmile_qr_scan"}, "bike_id": "acfe2eabd74248cfcfee0de8a41991ba", "lat": 38.90143483333333, "name": "acfe2eabd74248cfcfee0de8a41991ba", "lon": -77.04169, "fusion_lon": 0.0}, {"is_reserved": 0, "type": "electric_scooter", "fusion_lat": 0.0, "is_disabled": 0, "rental_uris": {"ios": "https://dc.lft.to/lastmile_qr_scan", "android": "https://dc.lft.to/lastmile_qr_scan"}, "bike_id": "9af5439d8487c8136f4cdb88e62c7ccb", "lat": 38.95506066666667, "name": "9af5439d8487c8136f4cdb88e62c7ccb", "lon": -77.06995566666667, "fusion_lon": 0.0}, {"is_reserved": 0, "type": "electric_scooter", "fusion_lat": 0.0, "is_disabled": 0, "rental_uris": {"ios": "https://dc.lft.to/lastmile_qr_scan", "android": "https://dc.lft.to/lastmile_qr_scan"}, "bike_id": "9e1d8cf0b39b0120ab7d2d1e825052a4", "lat": 38.923439, "name": "9e1d8cf0b39b0120ab7d2d1e825052a4", "lon": -76.98490466666667, "fusion_lon": 0.0}, {"is_reserved": 0, "type": "electric_scooter", "fusion_lat": 0.0, "is_disabled": 0, "rental_uris": {"ios": "https://dc.lft.to/lastmile_qr_scan", "android": "https://dc.lft.to/lastmile_qr_scan"}, "bike_id": "73f2d260775cec604ae118bc4af11b40", "lat": 38.923662666666665, "name": "73f2d260775cec604ae118bc4af11b40", "lon": -77.03640416666667, "fusion_lon": 0.0}, {"is_reserved": 0, "type": "electric_scooter", "fusion_lat": 0.0, "is_disabled": 0, "rental_uris": {"ios": "https://dc.lft.to/lastmile_qr_scan", "android": "https://dc.lft.to/lastmile_qr_scan"}, "bike_id": "f4bfa0600453d26fa731f70ac8015ddf", "lat": 38.90871533333333, "name": "f4bfa0600453d26fa731f70ac8015ddf", "lon": -77.04048283333333, "fusion_lon": 0.0}, {"is_reserved": 0, "type": "electric_scooter", "fusion_lat": 0.0, "is_disabled": 0, "rental_uris": {"ios": "https://dc.lft.to/lastmile_qr_scan", "android": "https://dc.lft.to/lastmile_qr_scan"}, "bike_id": "326729dceb63dba395978d0b81794101", "lat": 38.9430605, "name": "326729dceb63dba395978d0b81794101", "lon": -77.0253245, "fusion_lon": 0.0}, {"is_reserved": 0, "type": "electric_scooter", "fusion_lat": 0.0, "is_disabled": 0, "rental_uris": {"ios": "https://dc.lft.to/lastmile_qr_scan", "android": "https://dc.lft.to/lastmile_qr_scan"}, "bike_id": "c5255f3ac2226a71623d7856e576a07a", "lat": 38.905500333333336, "name": "c5255f3ac2226a71623d7856e576a07a", "lon": -77.00599766666667, "fusion_lon": 0.0}, {"is_reserved": 0, "type": "electric_scooter", "fusion_lat": 0.0, "is_disabled": 0, "rental_uris": {"ios": "https://dc.lft.to/lastmile_qr_scan", "android": "https://dc.lft.to/lastmile_qr_scan"}, "bike_id": "dc2130aac9ec094f6020bc5067418684", "lat": 38.935051333333334, "name": "dc2130aac9ec094f6020bc5067418684", "lon": -77.05688833333333, "fusion_lon": 0.0}, {"is_reserved": 0, "type": "electric_scooter", "fusion_lat": 0.0, "is_disabled": 0, "rental_uris": {"ios": "https://dc.lft.to/lastmile_qr_scan", "android": "https://dc.lft.to/lastmile_qr_scan"}, "bike_id": "54ff7d535fee3e5af4a9b38b7f8de8e9", "lat": 38.909099, "name": "54ff7d535fee3e5af4a9b38b7f8de8e9", "lon": -77.03516, "fusion_lon": 0.0}, {"is_reserved": 0, "type": "electric_scooter", "fusion_lat": 0.0, "is_disabled": 0, "rental_uris": {"ios": "https://dc.lft.to/lastmile_qr_scan", "android": "https://dc.lft.to/lastmile_qr_scan"}, "bike_id": "33ac7b8ffb62e86271d512769dffd693", "lat": 38.917407833333336, "name": "33ac7b8ffb62e86271d512769dffd693", "lon": -77.01775966666666, "fusion_lon": 0.0}, {"is_reserved": 0, "type": "electric_scooter", "fusion_lat": 0.0, "is_disabled": 0, "rental_uris": {"ios": "https://dc.lft.to/lastmile_qr_scan", "android": "https://dc.lft.to/lastmile_qr_scan"}, "bike_id": "e4db570bc4ad276e957aef052bf67678", "lat": 38.876371666666664, "name": "e4db570bc4ad276e957aef052bf67678", "lon": -76.992954, "fusion_lon": 0.0}, {"is_reserved": 0, "type": "electric_scooter", "fusion_lat": 0.0, "is_disabled": 0, "rental_uris": {"ios": "https://dc.lft.to/lastmile_qr_scan", "android": "https://dc.lft.to/lastmile_qr_scan"}, "bike_id": "75c50cd80ab24c1c1d7ffdc5185ccf33", "lat": 38.92599166666667, "name": "75c50cd80ab24c1c1d7ffdc5185ccf33", "lon": -77.023918, "fusion_lon": 0.0}, {"is_reserved": 0, "type": "electric_bike", "fusion_lat": 0.0, "is_disabled": 0, "rental_uris": {"ios": "https://dc.lft.to/lastmile_qr_scan", "android": "https://dc.lft.to/lastmile_qr_scan"}, "bike_id": "6ca44d5de3a1d2a21a2ff77838025ec1", "lat": 38.880025, "name": "6ca44d5de3a1d2a21a2ff77838025ec1", "lon": -76.985467, "fusion_lon": 0.0}, {"is_reserved": 0, "type": "electric_scooter", "fusion_lat": 0.0, "is_disabled": 0, "rental_uris": {"ios": "https://dc.lft.to/lastmile_qr_scan", "android": "https://dc.lft.to/lastmile_qr_scan"}, "bike_id": "2c5b99b56d6918f087f8fda02a67dc1e", "lat": 38.905709333333334, "name": "2c5b99b56d6918f087f8fda02a67dc1e", "lon": -76.9763135, "fusion_lon": 0.0}, {"is_reserved": 0, "type": "electric_scooter", "fusion_lat": 0.0, "is_disabled": 0, "rental_uris": {"ios": "https://dc.lft.to/lastmile_qr_scan", "android": "https://dc.lft.to/lastmile_qr_scan"}, "bike_id": "7d6e0c5229f60279d3210a3ea420f452", "lat": 38.87456483333333, "name": "7d6e0c5229f60279d3210a3ea420f452", "lon": -77.00485283333333, "fusion_lon": 0.0}, {"is_reserved": 0, "type": "electric_scooter", "fusion_lat": 0.0, "is_disabled": 0, "rental_uris": {"ios": "https://dc.lft.to/lastmile_qr_scan", "android": "https://dc.lft.to/lastmile_qr_scan"}, "bike_id": "f3827f54366512509b63d499051876f0", "lat": 38.907274, "name": "f3827f54366512509b63d499051876f0", "lon": -77.02888583333333, "fusion_lon": 0.0}, {"is_reserved": 0, "type": "electric_bike", "fusion_lat": 0.0, "is_disabled": 0, "rental_uris": {"ios": "https://dc.lft.to/lastmile_qr_scan", "android": "https://dc.lft.to/lastmile_qr_scan"}, "bike_id": "3af13bf48e3bf099d8efb148e96f1a79", "lat": 38.83161283333333, "name": "3af13bf48e3bf099d8efb148e96f1a79", "lon": -76.9958935, "fusion_lon": 0.0}, {"is_reserved": 0, "type": "electric_scooter", "fusion_lat": 0.0, "is_disabled": 0, "rental_uris": {"ios": "https://dc.lft.to/lastmile_qr_scan", "android": "https://dc.lft.to/lastmile_qr_scan"}, "bike_id": "40b03716070bcfe0ba3df3bbbbaa4b59", "lat": 38.92170566666667, "name": "40b03716070bcfe0ba3df3bbbbaa4b59", "lon": -77.0402075, "fusion_lon": 0.0}, {"is_reserved": 0, "type": "electric_scooter", "fusion_lat": 0.0, "is_disabled": 0, "rental_uris": {"ios": "https://dc.lft.to/lastmile_qr_scan", "android": "https://dc.lft.to/lastmile_qr_scan"}, "bike_id": "94f33ca546b0481a392c05a85849cbdd", "lat": 38.923419, "name": "94f33ca546b0481a392c05a85849cbdd", "lon": -77.05786433333333, "fusion_lon": 0.0}, {"is_reserved": 0, "type": "electric_scooter", "fusion_lat": 0.0, "is_disabled": 0, "rental_uris": {"ios": "https://dc.lft.to/lastmile_qr_scan", "android": "https://dc.lft.to/lastmile_qr_scan"}, "bike_id": "c3f97834502a5cd0e41c712293f361ee", "lat": 38.905509333333335, "name": "c3f97834502a5cd0e41c712293f361ee", "lon": -77.00595716666666, "fusion_lon": 0.0}, {"is_reserved": 0, "type": "electric_scooter", "fusion_lat": 0.0, "is_disabled": 0, "rental_uris": {"ios": "https://dc.lft.to/lastmile_qr_scan", "android": "https://dc.lft.to/lastmile_qr_scan"}, "bike_id": "cb9779d6b458ef17eb5f94a4eeea4884", "lat": 38.8737315, "name": "cb9779d6b458ef17eb5f94a4eeea4884", "lon": -77.00184316666666, "fusion_lon": 0.0}, {"is_reserved": 0, "type": "electric_scooter", "fusion_lat": 0.0, "is_disabled": 0, "rental_uris": {"ios": "https://dc.lft.to/lastmile_qr_scan", "android": "https://dc.lft.to/lastmile_qr_scan"}, "bike_id": "900fd49ed98ed3fa781db52ae91d76fd", "lat": 38.92245166666667, "name": "900fd49ed98ed3fa781db52ae91d76fd", "lon": -77.03664366666666, "fusion_lon": 0.0}, {"is_reserved": 0, "type": "electric_bike", "fusion_lat": 0.0, "is_disabled": 0, "rental_uris": {"ios": "https://dc.lft.to/lastmile_qr_scan", "android": "https://dc.lft.to/lastmile_qr_scan"}, "bike_id": "64cbeb5346faff649f4655101892cbf2", "lat": 39.010689666666664, "name": "64cbeb5346faff649f4655101892cbf2", "lon": -76.92240983333333, "fusion_lon": 0.0}, {"is_reserved": 0, "type": "electric_scooter", "fusion_lat": 0.0, "is_disabled": 0, "rental_uris": {"ios": "https://dc.lft.to/lastmile_qr_scan", "android": "https://dc.lft.to/lastmile_qr_scan"}, "bike_id": "ecc1d8d3712a08e853ca9e0c226adca8", "lat": 38.878447, "name": "ecc1d8d3712a08e853ca9e0c226adca8", "lon": -76.93125066666667, "fusion_lon": 0.0}, {"is_reserved": 0, "type": "electric_scooter", "fusion_lat": 0.0, "is_disabled": 0, "rental_uris": {"ios": "https://dc.lft.to/lastmile_qr_scan", "android": "https://dc.lft.to/lastmile_qr_scan"}, "bike_id": "7b4a3fe153a71108dfbb202a0d59e16e", "lat": 38.901778166666666, "name": "7b4a3fe153a71108dfbb202a0d59e16e", "lon": -76.98833666666667, "fusion_lon": 0.0}, {"is_reserved": 0, "type": "electric_scooter", "fusion_lat": 0.0, "is_disabled": 0, "rental_uris": {"ios": "https://dc.lft.to/lastmile_qr_scan", "android": "https://dc.lft.to/lastmile_qr_scan"}, "bike_id": "c00a622e22050c4fba8f593152e8c5ff", "lat": 38.9072925, "name": "c00a622e22050c4fba8f593152e8c5ff", "lon": -77.0477085, "fusion_lon": 0.0}, {"is_reserved": 0, "type": "electric_scooter", "fusion_lat": 0.0, "is_disabled": 0, "rental_uris": {"ios": "https://dc.lft.to/lastmile_qr_scan", "android": "https://dc.lft.to/lastmile_qr_scan"}, "bike_id": "ca84718e8b7ebbe93480afc07a6dab3c", "lat": 38.931341, "name": "ca84718e8b7ebbe93480afc07a6dab3c", "lon": -77.02197083333333, "fusion_lon": 0.0}, {"is_reserved": 0, "type": "electric_scooter", "fusion_lat": 0.0, "is_disabled": 0, "rental_uris": {"ios": "https://dc.lft.to/lastmile_qr_scan", "android": "https://dc.lft.to/lastmile_qr_scan"}, "bike_id": "80b5353537afbf3ec6c39d300b0a22fc", "lat": 38.91817616666667, "name": "80b5353537afbf3ec6c39d300b0a22fc", "lon": -77.0247385, "fusion_lon": 0.0}, {"is_reserved": 0, "type": "electric_bike", "fusion_lat": 0.0, "is_disabled": 0, "rental_uris": {"ios": "https://dc.lft.to/lastmile_qr_scan", "android": "https://dc.lft.to/lastmile_qr_scan"}, "bike_id": "ad8218bfbcecef84112cb2f074107146", "lat": 39.02518083333333, "name": "ad8218bfbcecef84112cb2f074107146", "lon": -77.01969733333334, "fusion_lon": 0.0}, {"is_reserved": 0, "type": "electric_bike", "fusion_lat": 0.0, "is_disabled": 0, "rental_uris": {"ios": "https://dc.lft.to/lastmile_qr_scan", "android": "https://dc.lft.to/lastmile_qr_scan"}, "bike_id": "a7e73efaeb809b24f1198e2660ca3314", "lat": 39.084740833333335, "name": "a7e73efaeb809b24f1198e2660ca3314", "lon": -76.95069233333334, "fusion_lon": 0.0}, {"is_reserved": 0, "type": "electric_scooter", "fusion_lat": 0.0, "is_disabled": 0, "rental_uris": {"ios": "https://dc.lft.to/lastmile_qr_scan", "android": "https://dc.lft.to/lastmile_qr_scan"}, "bike_id": "58e8fc84ace89a3ae9147d4319958554", "lat": 38.878788, "name": "58e8fc84ace89a3ae9147d4319958554", "lon": -77.0005475, "fusion_lon": 0.0}, {"is_reserved": 0, "type": "electric_scooter", "fusion_lat": 0.0, "is_disabled": 0, "rental_uris": {"ios": "https://dc.lft.to/lastmile_qr_scan", "android": "https://dc.lft.to/lastmile_qr_scan"}, "bike_id": "a9d3f310fbe8b61a367bdb33651dc85d", "lat": 38.9348085, "name": "a9d3f310fbe8b61a367bdb33651dc85d", "lon": -77.05792283333334, "fusion_lon": 0.0}, {"is_reserved": 0, "type": "electric_scooter", "fusion_lat": 0.0, "is_disabled": 0, "rental_uris": {"ios": "https://dc.lft.to/lastmile_qr_scan", "android": "https://dc.lft.to/lastmile_qr_scan"}, "bike_id": "3a8432f406131192977a1dee66a016d5", "lat": 38.920626166666665, "name": "3a8432f406131192977a1dee66a016d5", "lon": -77.04224233333333, "fusion_lon": 0.0}, {"is_reserved": 0, "type": "electric_scooter", "fusion_lat": 0.0, "is_disabled": 0, "rental_uris": {"ios": "https://dc.lft.to/lastmile_qr_scan", "android": "https://dc.lft.to/lastmile_qr_scan"}, "bike_id": "fc56c0e0da2f8bfbe620583da904ca38", "lat": 38.94092766666667, "name": "fc56c0e0da2f8bfbe620583da904ca38", "lon": -77.027203, "fusion_lon": 0.0}, {"is_reserved": 0, "type": "electric_scooter", "fusion_lat": 0.0, "is_disabled": 0, "rental_uris": {"ios": "https://dc.lft.to/lastmile_qr_scan", "android": "https://dc.lft.to/lastmile_qr_scan"}, "bike_id": "149e14b4d3bfdcaf17ab211914d4e6dc", "lat": 38.92471466666667, "name": "149e14b4d3bfdcaf17ab211914d4e6dc", "lon": -77.02215116666666, "fusion_lon": 0.0}, {"is_reserved": 0, "type": "electric_scooter", "fusion_lat": 0.0, "is_disabled": 0, "rental_uris": {"ios": "https://dc.lft.to/lastmile_qr_scan", "android": "https://dc.lft.to/lastmile_qr_scan"}, "bike_id": "10510354c71d8b5f8070e65f3c7489f4", "lat": 38.918171, "name": "10510354c71d8b5f8070e65f3c7489f4", "lon": -77.02474983333333, "fusion_lon": 0.0}, {"is_reserved": 0, "type": "electric_scooter", "fusion_lat": 0.0, "is_disabled": 0, "rental_uris": {"ios": "https://dc.lft.to/lastmile_qr_scan", "android": "https://dc.lft.to/lastmile_qr_scan"}, "bike_id": "81fd2f177bf1115c36e6f2f5b156ada5", "lat": 38.90064516666666, "name": "81fd2f177bf1115c36e6f2f5b156ada5", "lon": -77.01678433333333, "fusion_lon": 0.0}, {"is_reserved": 0, "type": "electric_scooter", "fusion_lat": 0.0, "is_disabled": 0, "rental_uris": {"ios": "https://dc.lft.to/lastmile_qr_scan", "android": "https://dc.lft.to/lastmile_qr_scan"}, "bike_id": "c1126cb4e8acfe06464979f6d26540eb", "lat": 38.8649515, "name": "c1126cb4e8acfe06464979f6d26540eb", "lon": -76.97726666666667, "fusion_lon": 0.0}, {"is_reserved": 0, "type": "electric_scooter", "fusion_lat": 0.0, "is_disabled": 0, "rental_uris": {"ios": "https://dc.lft.to/lastmile_qr_scan", "android": "https://dc.lft.to/lastmile_qr_scan"}, "bike_id": "7a9d75f3202650a0072a64950312b109", "lat": 38.89954433333333, "name": "7a9d75f3202650a0072a64950312b109", "lon": -76.92628116666667, "fusion_lon": 0.0}, {"is_reserved": 0, "type": "electric_scooter", "fusion_lat": 0.0, "is_disabled": 0, "rental_uris": {"ios": "https://dc.lft.to/lastmile_qr_scan", "android": "https://dc.lft.to/lastmile_qr_scan"}, "bike_id": "3af762b3ddecf158ae4ca696dd8ab832", "lat": 38.89304716666667, "name": "3af762b3ddecf158ae4ca696dd8ab832", "lon": -77.0198335, "fusion_lon": 0.0}, {"is_reserved": 0, "type": "electric_scooter", "fusion_lat": 0.0, "is_disabled": 0, "rental_uris": {"ios": "https://dc.lft.to/lastmile_qr_scan", "android": "https://dc.lft.to/lastmile_qr_scan"}, "bike_id": "d15de5c383e1cbeb6a0361fe980c50d2", "lat": 38.93002933333333, "name": "d15de5c383e1cbeb6a0361fe980c50d2", "lon": -77.0380225, "fusion_lon": 0.0}, {"is_reserved": 0, "type": "electric_scooter", "fusion_lat": 0.0, "is_disabled": 0, "rental_uris": {"ios": "https://dc.lft.to/lastmile_qr_scan", "android": "https://dc.lft.to/lastmile_qr_scan"}, "bike_id": "077b72927fe788cca9e1b19e64e804e3", "lat": 38.91945483333333, "name": "077b72927fe788cca9e1b19e64e804e3", "lon": -77.00204183333334, "fusion_lon": 0.0}, {"is_reserved": 0, "type": "electric_scooter", "fusion_lat": 0.0, "is_disabled": 0, "rental_uris": {"ios": "https://dc.lft.to/lastmile_qr_scan", "android": "https://dc.lft.to/lastmile_qr_scan"}, "bike_id": "fb1662243e9c961df4d65e6cf0bee7eb", "lat": 38.939702, "name": "fb1662243e9c961df4d65e6cf0bee7eb", "lon": -77.03427733333334, "fusion_lon": 0.0}, {"is_reserved": 0, "type": "electric_bike", "fusion_lat": 0.0, "is_disabled": 0, "rental_uris": {"ios": "https://dc.lft.to/lastmile_qr_scan", "android": "https://dc.lft.to/lastmile_qr_scan"}, "bike_id": "91e7de981a636efad86f2c1f4e88e42c", "lat": 38.94515216666667, "name": "91e7de981a636efad86f2c1f4e88e42c", "lon": -76.96808866666667, "fusion_lon": 0.0}, {"is_reserved": 0, "type": "electric_scooter", "fusion_lat": 0.0, "is_disabled": 0, "rental_uris": {"ios": "https://dc.lft.to/lastmile_qr_scan", "android": "https://dc.lft.to/lastmile_qr_scan"}, "bike_id": "1440d720b9f31311ad6a948212748baa", "lat": 38.897277833333334, "name": "1440d720b9f31311ad6a948212748baa", "lon": -77.04368066666666, "fusion_lon": 0.0}, {"is_reserved": 0, "type": "electric_scooter", "fusion_lat": 0.0, "is_disabled": 0, "rental_uris": {"ios": "https://dc.lft.to/lastmile_qr_scan", "android": "https://dc.lft.to/lastmile_qr_scan"}, "bike_id": "29afb2c9fde509400906d948ba7e2cdc", "lat": 38.91716866666667, "name": "29afb2c9fde509400906d948ba7e2cdc", "lon": -77.0920325, "fusion_lon": 0.0}, {"is_reserved": 0, "type": "electric_scooter", "fusion_lat": 0.0, "is_disabled": 0, "rental_uris": {"ios": "https://dc.lft.to/lastmile_qr_scan", "android": "https://dc.lft.to/lastmile_qr_scan"}, "bike_id": "e9446d2a707798fa78d80b22193fda9e", "lat": 38.88572283333333, "name": "e9446d2a707798fa78d80b22193fda9e", "lon": -77.00034383333333, "fusion_lon": 0.0}, {"is_reserved": 0, "type": "electric_scooter", "fusion_lat": 0.0, "is_disabled": 0, "rental_uris": {"ios": "https://dc.lft.to/lastmile_qr_scan", "android": "https://dc.lft.to/lastmile_qr_scan"}, "bike_id": "fcf54cf0328d89d1911ef5447e9bac83", "lat": 38.91057266666667, "name": "fcf54cf0328d89d1911ef5447e9bac83", "lon": -77.02659016666667, "fusion_lon": 0.0}, {"is_reserved": 0, "type": "electric_scooter", "fusion_lat": 0.0, "is_disabled": 0, "rental_uris": {"ios": "https://dc.lft.to/lastmile_qr_scan", "android": "https://dc.lft.to/lastmile_qr_scan"}, "bike_id": "d643aab5c9d2378f44648617cf8abb55", "lat": 38.89494633333333, "name": "d643aab5c9d2378f44648617cf8abb55", "lon": -77.0550825, "fusion_lon": 0.0}, {"is_reserved": 0, "type": "electric_scooter", "fusion_lat": 0.0, "is_disabled": 0, "rental_uris": {"ios": "https://dc.lft.to/lastmile_qr_scan", "android": "https://dc.lft.to/lastmile_qr_scan"}, "bike_id": "d846e78ef59bc98993631b7e08a163ec", "lat": 38.855507833333334, "name": "d846e78ef59bc98993631b7e08a163ec", "lon": -76.9865915, "fusion_lon": 0.0}, {"is_reserved": 0, "type": "electric_bike", "fusion_lat": 0.0, "is_disabled": 0, "rental_uris": {"ios": "https://dc.lft.to/lastmile_qr_scan", "android": "https://dc.lft.to/lastmile_qr_scan"}, "bike_id": "1276e6bdfeb427df109a356d24b0ec91", "lat": 38.97439883333333, "name": "1276e6bdfeb427df109a356d24b0ec91", "lon": -77.09612583333333, "fusion_lon": 0.0}, {"is_reserved": 0, "type": "electric_scooter", "fusion_lat": 0.0, "is_disabled": 0, "rental_uris": {"ios": "https://dc.lft.to/lastmile_qr_scan", "android": "https://dc.lft.to/lastmile_qr_scan"}, "bike_id": "c75493143577c225010479a56f99e4c0", "lat": 38.897262833333336, "name": "c75493143577c225010479a56f99e4c0", "lon": -77.04596266666667, "fusion_lon": 0.0}, {"is_reserved": 0, "type": "electric_scooter", "fusion_lat": 0.0, "is_disabled": 0, "rental_uris": {"ios": "https://dc.lft.to/lastmile_qr_scan", "android": "https://dc.lft.to/lastmile_qr_scan"}, "bike_id": "c4ceaba1da4a1557a1a52738bc8d623f", "lat": 38.923648166666666, "name": "c4ceaba1da4a1557a1a52738bc8d623f", "lon": -77.05130433333333, "fusion_lon": 0.0}, {"is_reserved": 0, "type": "electric_scooter", "fusion_lat": 0.0, "is_disabled": 0, "rental_uris": {"ios": "https://dc.lft.to/lastmile_qr_scan", "android": "https://dc.lft.to/lastmile_qr_scan"}, "bike_id": "cf01c7bb89a428767a418ea98c95b9cd", "lat": 38.91488066666667, "name": "cf01c7bb89a428767a418ea98c95b9cd", "lon": -77.021862, "fusion_lon": 0.0}, {"is_reserved": 0, "type": "electric_scooter", "fusion_lat": 0.0, "is_disabled": 0, "rental_uris": {"ios": "https://dc.lft.to/lastmile_qr_scan", "android": "https://dc.lft.to/lastmile_qr_scan"}, "bike_id": "fbd3cf8e9482dc05c4118f2a13d4e5a8", "lat": 38.914193833333336, "name": "fbd3cf8e9482dc05c4118f2a13d4e5a8", "lon": -77.03153483333334, "fusion_lon": 0.0}, {"is_reserved": 0, "type": "electric_scooter", "fusion_lat": 0.0, "is_disabled": 0, "rental_uris": {"ios": "https://dc.lft.to/lastmile_qr_scan", "android": "https://dc.lft.to/lastmile_qr_scan"}, "bike_id": "40c4b63087615873cf3a540badfcbdc3", "lat": 38.897330833333335, "name": "40c4b63087615873cf3a540badfcbdc3", "lon": -77.0254235, "fusion_lon": 0.0}, {"is_reserved": 0, "type": "electric_scooter", "fusion_lat": 0.0, "is_disabled": 0, "rental_uris": {"ios": "https://dc.lft.to/lastmile_qr_scan", "android": "https://dc.lft.to/lastmile_qr_scan"}, "bike_id": "45ba4dfcf681c5eac043b7d8a16c6e0f", "lat": 38.94266483333333, "name": "45ba4dfcf681c5eac043b7d8a16c6e0f", "lon": -76.98471383333333, "fusion_lon": 0.0}, {"is_reserved": 0, "type": "electric_scooter", "fusion_lat": 0.0, "is_disabled": 0, "rental_uris": {"ios": "https://dc.lft.to/lastmile_qr_scan", "android": "https://dc.lft.to/lastmile_qr_scan"}, "bike_id": "4a426181d483770e5a4fe9bf2b3cc255", "lat": 38.89540916666667, "name": "4a426181d483770e5a4fe9bf2b3cc255", "lon": -76.98838083333334, "fusion_lon": 0.0}, {"is_reserved": 0, "type": "electric_scooter", "fusion_lat": 0.0, "is_disabled": 0, "rental_uris": {"ios": "https://dc.lft.to/lastmile_qr_scan", "android": "https://dc.lft.to/lastmile_qr_scan"}, "bike_id": "1c4ac16d830cda51b12ea843ea5b034f", "lat": 38.883638, "name": "1c4ac16d830cda51b12ea843ea5b034f", "lon": -76.95771333333333, "fusion_lon": 0.0}, {"is_reserved": 0, "type": "electric_scooter", "fusion_lat": 0.0, "is_disabled": 0, "rental_uris": {"ios": "https://dc.lft.to/lastmile_qr_scan", "android": "https://dc.lft.to/lastmile_qr_scan"}, "bike_id": "42971bf3ed08914c2e0f326e5a9dfcde", "lat": 38.896835333333335, "name": "42971bf3ed08914c2e0f326e5a9dfcde", "lon": -77.051177, "fusion_lon": 0.0}, {"is_reserved": 0, "type": "electric_scooter", "fusion_lat": 0.0, "is_disabled": 0, "rental_uris": {"ios": "https://dc.lft.to/lastmile_qr_scan", "android": "https://dc.lft.to/lastmile_qr_scan"}, "bike_id": "9917f71ed93b0073821d7e50e615e92d", "lat": 38.919874166666666, "name": "9917f71ed93b0073821d7e50e615e92d", "lon": -77.002131, "fusion_lon": 0.0}, {"is_reserved": 0, "type": "electric_scooter", "fusion_lat": 0.0, "is_disabled": 0, "rental_uris": {"ios": "https://dc.lft.to/lastmile_qr_scan", "android": "https://dc.lft.to/lastmile_qr_scan"}, "bike_id": "f3c58bac0c2dc56132f9d2d1d6dba607", "lat": 38.9118925, "name": "f3c58bac0c2dc56132f9d2d1d6dba607", "lon": -77.06084516666667, "fusion_lon": 0.0}, {"is_reserved": 0, "type": "electric_scooter", "fusion_lat": 0.0, "is_disabled": 0, "rental_uris": {"ios": "https://dc.lft.to/lastmile_qr_scan", "android": "https://dc.lft.to/lastmile_qr_scan"}, "bike_id": "b01947705a66cbf8ac1438ec0355e455", "lat": 38.94723966666667, "name": "b01947705a66cbf8ac1438ec0355e455", "lon": -77.068052, "fusion_lon": 0.0}, {"is_reserved": 0, "type": "electric_scooter", "fusion_lat": 0.0, "is_disabled": 0, "rental_uris": {"ios": "https://dc.lft.to/lastmile_qr_scan", "android": "https://dc.lft.to/lastmile_qr_scan"}, "bike_id": "2741d3676b53dec17f1de0704b9c656d", "lat": 38.915343666666665, "name": "2741d3676b53dec17f1de0704b9c656d", "lon": -77.03186383333333, "fusion_lon": 0.0}, {"is_reserved": 0, "type": "electric_bike", "fusion_lat": 0.0, "is_disabled": 0, "rental_uris": {"ios": "https://dc.lft.to/lastmile_qr_scan", "android": "https://dc.lft.to/lastmile_qr_scan"}, "bike_id": "dc27b76340a8e42a76771ddfec6287e6", "lat": 38.9069655, "name": "dc27b76340a8e42a76771ddfec6287e6", "lon": -76.95252633333334, "fusion_lon": 0.0}, {"is_reserved": 0, "type": "electric_scooter", "fusion_lat": 0.0, "is_disabled": 0, "rental_uris": {"ios": "https://dc.lft.to/lastmile_qr_scan", "android": "https://dc.lft.to/lastmile_qr_scan"}, "bike_id": "d67fe1d3cef8ea817a3a291a492280f0", "lat": 38.9352785, "name": "d67fe1d3cef8ea817a3a291a492280f0", "lon": -77.05450783333333, "fusion_lon": 0.0}, {"is_reserved": 0, "type": "electric_scooter", "fusion_lat": 0.0, "is_disabled": 0, "rental_uris": {"ios": "https://dc.lft.to/lastmile_qr_scan", "android": "https://dc.lft.to/lastmile_qr_scan"}, "bike_id": "9717c3b05ea5fff36bfa307f67dd4fc8", "lat": 38.89959316666667, "name": "9717c3b05ea5fff36bfa307f67dd4fc8", "lon": -77.04833516666666, "fusion_lon": 0.0}, {"is_reserved": 0, "type": "electric_scooter", "fusion_lat": 0.0, "is_disabled": 0, "rental_uris": {"ios": "https://dc.lft.to/lastmile_qr_scan", "android": "https://dc.lft.to/lastmile_qr_scan"}, "bike_id": "fda407430a2ad33205bc95b0a76f41c7", "lat": 38.89319166666667, "name": "fda407430a2ad33205bc95b0a76f41c7", "lon": -77.01969016666666, "fusion_lon": 0.0}, {"is_reserved": 0, "type": "electric_scooter", "fusion_lat": 0.0, "is_disabled": 0, "rental_uris": {"ios": "https://dc.lft.to/lastmile_qr_scan", "android": "https://dc.lft.to/lastmile_qr_scan"}, "bike_id": "68047d64eb37418b67e7c1df90df571a", "lat": 38.90963333333333, "name": "68047d64eb37418b67e7c1df90df571a", "lon": -77.0237815, "fusion_lon": 0.0}, {"is_reserved": 0, "type": "electric_scooter", "fusion_lat": 0.0, "is_disabled": 0, "rental_uris": {"ios": "https://dc.lft.to/lastmile_qr_scan", "android": "https://dc.lft.to/lastmile_qr_scan"}, "bike_id": "8a9923d74349e853f25965dcfb0b45d0", "lat": 38.922398333333334, "name": "8a9923d74349e853f25965dcfb0b45d0", "lon": -77.0281565, "fusion_lon": 0.0}, {"is_reserved": 0, "type": "electric_scooter", "fusion_lat": 0.0, "is_disabled": 0, "rental_uris": {"ios": "https://dc.lft.to/lastmile_qr_scan", "android": "https://dc.lft.to/lastmile_qr_scan"}, "bike_id": "e04770ea962dfbe6634b6d4954a577e7", "lat": 38.90748683333333, "name": "e04770ea962dfbe6634b6d4954a577e7", "lon": -76.99921033333334, "fusion_lon": 0.0}, {"is_reserved": 0, "type": "electric_scooter", "fusion_lat": 0.0, "is_disabled": 0, "rental_uris": {"ios": "https://dc.lft.to/lastmile_qr_scan", "android": "https://dc.lft.to/lastmile_qr_scan"}, "bike_id": "3927753ed777bf8660ceff77a2866bde", "lat": 38.89222816666667, "name": "3927753ed777bf8660ceff77a2866bde", "lon": -77.043649, "fusion_lon": 0.0}, {"is_reserved": 0, "type": "electric_scooter", "fusion_lat": 0.0, "is_disabled": 0, "rental_uris": {"ios": "https://dc.lft.to/lastmile_qr_scan", "android": "https://dc.lft.to/lastmile_qr_scan"}, "bike_id": "6e1adb8182ca6fa9e3bda4e7f3eba241", "lat": 38.87073933333333, "name": "6e1adb8182ca6fa9e3bda4e7f3eba241", "lon": -76.9813055, "fusion_lon": 0.0}, {"is_reserved": 0, "type": "electric_scooter", "fusion_lat": 0.0, "is_disabled": 0, "rental_uris": {"ios": "https://dc.lft.to/lastmile_qr_scan", "android": "https://dc.lft.to/lastmile_qr_scan"}, "bike_id": "b0daa6d42d5366cc7135edba6d9077e5", "lat": 38.9279245, "name": "b0daa6d42d5366cc7135edba6d9077e5", "lon": -77.02134516666666, "fusion_lon": 0.0}, {"is_reserved": 0, "type": "electric_scooter", "fusion_lat": 0.0, "is_disabled": 0, "rental_uris": {"ios": "https://dc.lft.to/lastmile_qr_scan", "android": "https://dc.lft.to/lastmile_qr_scan"}, "bike_id": "5ec0cb8f81092574b9c13c089a04267d", "lat": 38.906023, "name": "5ec0cb8f81092574b9c13c089a04267d", "lon": -77.06302616666666, "fusion_lon": 0.0}, {"is_reserved": 0, "type": "electric_scooter", "fusion_lat": 0.0, "is_disabled": 0, "rental_uris": {"ios": "https://dc.lft.to/lastmile_qr_scan", "android": "https://dc.lft.to/lastmile_qr_scan"}, "bike_id": "6f96e15d84fa1264666298111e129c17", "lat": 38.9213645, "name": "6f96e15d84fa1264666298111e129c17", "lon": -77.00402333333334, "fusion_lon": 0.0}, {"is_reserved": 0, "type": "electric_bike", "fusion_lat": 0.0, "is_disabled": 0, "rental_uris": {"ios": "https://dc.lft.to/lastmile_qr_scan", "android": "https://dc.lft.to/lastmile_qr_scan"}, "bike_id": "4f1021de07da374be914d03fa28280a9", "lat": 38.95884616666667, "name": "4f1021de07da374be914d03fa28280a9", "lon": -76.970511, "fusion_lon": 0.0}, {"is_reserved": 0, "type": "electric_scooter", "fusion_lat": 0.0, "is_disabled": 0, "rental_uris": {"ios": "https://dc.lft.to/lastmile_qr_scan", "android": "https://dc.lft.to/lastmile_qr_scan"}, "bike_id": "9ffda8b708dd594bcc87e1f220824ed6", "lat": 38.8923005, "name": "9ffda8b708dd594bcc87e1f220824ed6", "lon": -77.0257455, "fusion_lon": 0.0}, {"is_reserved": 0, "type": "electric_scooter", "fusion_lat": 0.0, "is_disabled": 0, "rental_uris": {"ios": "https://dc.lft.to/lastmile_qr_scan", "android": "https://dc.lft.to/lastmile_qr_scan"}, "bike_id": "edaa0ea6a9afefa93330c2db0df84150", "lat": 38.90147, "name": "edaa0ea6a9afefa93330c2db0df84150", "lon": -77.015084, "fusion_lon": 0.0}, {"is_reserved": 0, "type": "electric_scooter", "fusion_lat": 0.0, "is_disabled": 0, "rental_uris": {"ios": "https://dc.lft.to/lastmile_qr_scan", "android": "https://dc.lft.to/lastmile_qr_scan"}, "bike_id": "d26d2c6d88a96b9ae61b57653593d603", "lat": 38.906592, "name": "d26d2c6d88a96b9ae61b57653593d603", "lon": -77.0248085, "fusion_lon": 0.0}, {"is_reserved": 0, "type": "electric_scooter", "fusion_lat": 0.0, "is_disabled": 0, "rental_uris": {"ios": "https://dc.lft.to/lastmile_qr_scan", "android": "https://dc.lft.to/lastmile_qr_scan"}, "bike_id": "8c578c8f95308038d7055dcb30842c77", "lat": 38.903923166666665, "name": "8c578c8f95308038d7055dcb30842c77", "lon": -76.99004983333333, "fusion_lon": 0.0}, {"is_reserved": 0, "type": "electric_scooter", "fusion_lat": 0.0, "is_disabled": 0, "rental_uris": {"ios": "https://dc.lft.to/lastmile_qr_scan", "android": "https://dc.lft.to/lastmile_qr_scan"}, "bike_id": "6ad1570d58e79427ef8a5c8abad86abd", "lat": 38.9205465, "name": "6ad1570d58e79427ef8a5c8abad86abd", "lon": -77.02304533333333, "fusion_lon": 0.0}, {"is_reserved": 0, "type": "electric_bike", "fusion_lat": 0.0, "is_disabled": 0, "rental_uris": {"ios": "https://dc.lft.to/lastmile_qr_scan", "android": "https://dc.lft.to/lastmile_qr_scan"}, "bike_id": "0466c1190854b858ddf0dea104eb2acc", "lat": 38.952391, "name": "0466c1190854b858ddf0dea104eb2acc", "lon": -76.982478, "fusion_lon": 0.0}, {"is_reserved": 0, "type": "electric_scooter", "fusion_lat": 0.0, "is_disabled": 0, "rental_uris": {"ios": "https://dc.lft.to/lastmile_qr_scan", "android": "https://dc.lft.to/lastmile_qr_scan"}, "bike_id": "0e329eff6e445c0eb5a8a74a0cb91d5e", "lat": 38.900710833333335, "name": "0e329eff6e445c0eb5a8a74a0cb91d5e", "lon": -77.013288, "fusion_lon": 0.0}, {"is_reserved": 0, "type": "electric_scooter", "fusion_lat": 0.0, "is_disabled": 0, "rental_uris": {"ios": "https://dc.lft.to/lastmile_qr_scan", "android": "https://dc.lft.to/lastmile_qr_scan"}, "bike_id": "1e4ac27fd8afed9ef64a0bcdbb6ddbff", "lat": 38.92672133333333, "name": "1e4ac27fd8afed9ef64a0bcdbb6ddbff", "lon": -77.02686583333333, "fusion_lon": 0.0}, {"is_reserved": 0, "type": "electric_scooter", "fusion_lat": 0.0, "is_disabled": 0, "rental_uris": {"ios": "https://dc.lft.to/lastmile_qr_scan", "android": "https://dc.lft.to/lastmile_qr_scan"}, "bike_id": "f8d800248ccb1b1a76dcf14ba4f2ed1c", "lat": 38.879431, "name": "f8d800248ccb1b1a76dcf14ba4f2ed1c", "lon": -77.00999583333333, "fusion_lon": 0.0}, {"is_reserved": 0, "type": "electric_scooter", "fusion_lat": 0.0, "is_disabled": 0, "rental_uris": {"ios": "https://dc.lft.to/lastmile_qr_scan", "android": "https://dc.lft.to/lastmile_qr_scan"}, "bike_id": "bd26d781e7c74927459bb337a411d342", "lat": 38.920369666666666, "name": "bd26d781e7c74927459bb337a411d342", "lon": -77.0197045, "fusion_lon": 0.0}, {"is_reserved": 0, "type": "electric_scooter", "fusion_lat": 0.0, "is_disabled": 0, "rental_uris": {"ios": "https://dc.lft.to/lastmile_qr_scan", "android": "https://dc.lft.to/lastmile_qr_scan"}, "bike_id": "dbc3a22a0bcef7ce7c45037bb9f89c33", "lat": 38.90728766666667, "name": "dbc3a22a0bcef7ce7c45037bb9f89c33", "lon": -77.00354133333333, "fusion_lon": 0.0}, {"is_reserved": 0, "type": "electric_scooter", "fusion_lat": 0.0, "is_disabled": 0, "rental_uris": {"ios": "https://dc.lft.to/lastmile_qr_scan", "android": "https://dc.lft.to/lastmile_qr_scan"}, "bike_id": "cb7373f959f927ae11f38eb5c0c55a6e", "lat": 38.874215666666665, "name": "cb7373f959f927ae11f38eb5c0c55a6e", "lon": -76.97181316666666, "fusion_lon": 0.0}, {"is_reserved": 0, "type": "electric_scooter", "fusion_lat": 0.0, "is_disabled": 0, "rental_uris": {"ios": "https://dc.lft.to/lastmile_qr_scan", "android": "https://dc.lft.to/lastmile_qr_scan"}, "bike_id": "d9a8e459f998516107c28ace00d61538", "lat": 38.915636166666665, "name": "d9a8e459f998516107c28ace00d61538", "lon": -77.04092616666667, "fusion_lon": 0.0}, {"is_reserved": 0, "type": "electric_scooter", "fusion_lat": 0.0, "is_disabled": 0, "rental_uris": {"ios": "https://dc.lft.to/lastmile_qr_scan", "android": "https://dc.lft.to/lastmile_qr_scan"}, "bike_id": "a6b225a94f10136a9b0a871606037af7", "lat": 38.907393666666664, "name": "a6b225a94f10136a9b0a871606037af7", "lon": -77.042933, "fusion_lon": 0.0}, {"is_reserved": 0, "type": "electric_scooter", "fusion_lat": 0.0, "is_disabled": 0, "rental_uris": {"ios": "https://dc.lft.to/lastmile_qr_scan", "android": "https://dc.lft.to/lastmile_qr_scan"}, "bike_id": "2f3c62d489d4b0cbfa64ca39c63efd44", "lat": 38.9197495, "name": "2f3c62d489d4b0cbfa64ca39c63efd44", "lon": -77.0396375, "fusion_lon": 0.0}, {"is_reserved": 0, "type": "electric_scooter", "fusion_lat": 0.0, "is_disabled": 0, "rental_uris": {"ios": "https://dc.lft.to/lastmile_qr_scan", "android": "https://dc.lft.to/lastmile_qr_scan"}, "bike_id": "e857df90facd241282dddb8e485f8b0c", "lat": 38.89231566666667, "name": "e857df90facd241282dddb8e485f8b0c", "lon": -77.02383166666667, "fusion_lon": 0.0}, {"is_reserved": 0, "type": "electric_scooter", "fusion_lat": 0.0, "is_disabled": 0, "rental_uris": {"ios": "https://dc.lft.to/lastmile_qr_scan", "android": "https://dc.lft.to/lastmile_qr_scan"}, "bike_id": "0445314f32a5016c7f1d33c49ceaa05b", "lat": 38.88544366666667, "name": "0445314f32a5016c7f1d33c49ceaa05b", "lon": -76.95445733333334, "fusion_lon": 0.0}, {"is_reserved": 0, "type": "electric_scooter", "fusion_lat": 0.0, "is_disabled": 0, "rental_uris": {"ios": "https://dc.lft.to/lastmile_qr_scan", "android": "https://dc.lft.to/lastmile_qr_scan"}, "bike_id": "fc48ff0a70d4fd152d175165393746f1", "lat": 38.915330166666664, "name": "fc48ff0a70d4fd152d175165393746f1", "lon": -77.04433266666666, "fusion_lon": 0.0}, {"is_reserved": 0, "type": "electric_scooter", "fusion_lat": 0.0, "is_disabled": 0, "rental_uris": {"ios": "https://dc.lft.to/lastmile_qr_scan", "android": "https://dc.lft.to/lastmile_qr_scan"}, "bike_id": "da57473d52030814dd6b9764a8b10066", "lat": 38.92005733333333, "name": "da57473d52030814dd6b9764a8b10066", "lon": -77.04179733333334, "fusion_lon": 0.0}, {"is_reserved": 0, "type": "electric_scooter", "fusion_lat": 0.0, "is_disabled": 0, "rental_uris": {"ios": "https://dc.lft.to/lastmile_qr_scan", "android": "https://dc.lft.to/lastmile_qr_scan"}, "bike_id": "da2f3181c83068ae45f6557203b655f9", "lat": 38.90946733333333, "name": "da2f3181c83068ae45f6557203b655f9", "lon": -77.04651766666667, "fusion_lon": 0.0}, {"is_reserved": 0, "type": "electric_scooter", "fusion_lat": 0.0, "is_disabled": 0, "rental_uris": {"ios": "https://dc.lft.to/lastmile_qr_scan", "android": "https://dc.lft.to/lastmile_qr_scan"}, "bike_id": "f596a3cfd53315b415b4bc1f9277b3f0", "lat": 38.902543666666666, "name": "f596a3cfd53315b415b4bc1f9277b3f0", "lon": -77.03968666666667, "fusion_lon": 0.0}, {"is_reserved": 0, "type": "electric_scooter", "fusion_lat": 0.0, "is_disabled": 0, "rental_uris": {"ios": "https://dc.lft.to/lastmile_qr_scan", "android": "https://dc.lft.to/lastmile_qr_scan"}, "bike_id": "855ff57ec25da540affc522cc4a624a5", "lat": 38.92172133333333, "name": "855ff57ec25da540affc522cc4a624a5", "lon": -77.04122933333333, "fusion_lon": 0.0}, {"is_reserved": 0, "type": "electric_scooter", "fusion_lat": 0.0, "is_disabled": 0, "rental_uris": {"ios": "https://dc.lft.to/lastmile_qr_scan", "android": "https://dc.lft.to/lastmile_qr_scan"}, "bike_id": "1b0d8f66ec580d0a3ad139bf0a5213f4", "lat": 38.919870333333336, "name": "1b0d8f66ec580d0a3ad139bf0a5213f4", "lon": -77.04166916666667, "fusion_lon": 0.0}, {"is_reserved": 0, "type": "electric_scooter", "fusion_lat": 0.0, "is_disabled": 0, "rental_uris": {"ios": "https://dc.lft.to/lastmile_qr_scan", "android": "https://dc.lft.to/lastmile_qr_scan"}, "bike_id": "4acfd021f4636dfb4845c01d6d483b2e", "lat": 38.93100033333333, "name": "4acfd021f4636dfb4845c01d6d483b2e", "lon": -77.024774, "fusion_lon": 0.0}, {"is_reserved": 0, "type": "electric_scooter", "fusion_lat": 0.0, "is_disabled": 0, "rental_uris": {"ios": "https://dc.lft.to/lastmile_qr_scan", "android": "https://dc.lft.to/lastmile_qr_scan"}, "bike_id": "2dcfc056d99db8814353de3498c1786b", "lat": 38.883686166666664, "name": "2dcfc056d99db8814353de3498c1786b", "lon": -76.9951865, "fusion_lon": 0.0}, {"is_reserved": 0, "type": "electric_scooter", "fusion_lat": 0.0, "is_disabled": 0, "rental_uris": {"ios": "https://dc.lft.to/lastmile_qr_scan", "android": "https://dc.lft.to/lastmile_qr_scan"}, "bike_id": "a5e2ca486ea5a360cb1e469bd0f1753e", "lat": 38.89983433333333, "name": "a5e2ca486ea5a360cb1e469bd0f1753e", "lon": -77.04193683333334, "fusion_lon": 0.0}, {"is_reserved": 0, "type": "electric_scooter", "fusion_lat": 0.0, "is_disabled": 0, "rental_uris": {"ios": "https://dc.lft.to/lastmile_qr_scan", "android": "https://dc.lft.to/lastmile_qr_scan"}, "bike_id": "af7ea88608c93b8e43358f76e4426004", "lat": 38.89942933333333, "name": "af7ea88608c93b8e43358f76e4426004", "lon": -77.01453683333334, "fusion_lon": 0.0}, {"is_reserved": 0, "type": "electric_bike", "fusion_lat": 0.0, "is_disabled": 0, "rental_uris": {"ios": "https://dc.lft.to/lastmile_qr_scan", "android": "https://dc.lft.to/lastmile_qr_scan"}, "bike_id": "a99712a5ec2ad74a9cf2966eb8eb8146", "lat": 38.990961666666664, "name": "a99712a5ec2ad74a9cf2966eb8eb8146", "lon": -76.993752, "fusion_lon": 0.0}, {"is_reserved": 0, "type": "electric_bike", "fusion_lat": 0.0, "is_disabled": 0, "rental_uris": {"ios": "https://dc.lft.to/lastmile_qr_scan", "android": "https://dc.lft.to/lastmile_qr_scan"}, "bike_id": "4fe5821dd95074c8312ff0e22b31f886", "lat": 38.86621933333333, "name": "4fe5821dd95074c8312ff0e22b31f886", "lon": -76.99004566666666, "fusion_lon": 0.0}, {"is_reserved": 0, "type": "electric_scooter", "fusion_lat": 0.0, "is_disabled": 0, "rental_uris": {"ios": "https://dc.lft.to/lastmile_qr_scan", "android": "https://dc.lft.to/lastmile_qr_scan"}, "bike_id": "c28d8f82ce557bbeb5b68c5127600980", "lat": 38.89969216666667, "name": "c28d8f82ce557bbeb5b68c5127600980", "lon": -77.04715416666667, "fusion_lon": 0.0}, {"is_reserved": 0, "type": "electric_scooter", "fusion_lat": 0.0, "is_disabled": 0, "rental_uris": {"ios": "https://dc.lft.to/lastmile_qr_scan", "android": "https://dc.lft.to/lastmile_qr_scan"}, "bike_id": "68467c6054102467fe7b5a570e5d0d3b", "lat": 38.949788166666664, "name": "68467c6054102467fe7b5a570e5d0d3b", "lon": -77.02446583333334, "fusion_lon": 0.0}, {"is_reserved": 0, "type": "electric_bike", "fusion_lat": 0.0, "is_disabled": 0, "rental_uris": {"ios": "https://dc.lft.to/lastmile_qr_scan", "android": "https://dc.lft.to/lastmile_qr_scan"}, "bike_id": "113ff052c897b360acd6cf8521a4a47b", "lat": 38.85459183333333, "name": "113ff052c897b360acd6cf8521a4a47b", "lon": -76.97227083333334, "fusion_lon": 0.0}, {"is_reserved": 0, "type": "electric_scooter", "fusion_lat": 0.0, "is_disabled": 0, "rental_uris": {"ios": "https://dc.lft.to/lastmile_qr_scan", "android": "https://dc.lft.to/lastmile_qr_scan"}, "bike_id": "5306f80a958a6833983651e0365ad569", "lat": 38.92465033333333, "name": "5306f80a958a6833983651e0365ad569", "lon": -77.0378485, "fusion_lon": 0.0}, {"is_reserved": 0, "type": "electric_scooter", "fusion_lat": 0.0, "is_disabled": 0, "rental_uris": {"ios": "https://dc.lft.to/lastmile_qr_scan", "android": "https://dc.lft.to/lastmile_qr_scan"}, "bike_id": "0d40d1d19f9e476b87cc3d9bbfce7da1", "lat": 38.914966, "name": "0d40d1d19f9e476b87cc3d9bbfce7da1", "lon": -77.04086516666666, "fusion_lon": 0.0}, {"is_reserved": 0, "type": "electric_scooter", "fusion_lat": 0.0, "is_disabled": 0, "rental_uris": {"ios": "https://dc.lft.to/lastmile_qr_scan", "android": "https://dc.lft.to/lastmile_qr_scan"}, "bike_id": "8ff8fe44d88537fb4a53a574a92f449e", "lat": 38.914361166666666, "name": "8ff8fe44d88537fb4a53a574a92f449e", "lon": -77.02287633333333, "fusion_lon": 0.0}, {"is_reserved": 0, "type": "electric_scooter", "fusion_lat": 0.0, "is_disabled": 0, "rental_uris": {"ios": "https://dc.lft.to/lastmile_qr_scan", "android": "https://dc.lft.to/lastmile_qr_scan"}, "bike_id": "04d987d69c58525b183f9349c54a0311", "lat": 38.879188, "name": "04d987d69c58525b183f9349c54a0311", "lon": -76.94477066666667, "fusion_lon": 0.0}, {"is_reserved": 0, "type": "electric_scooter", "fusion_lat": 0.0, "is_disabled": 0, "rental_uris": {"ios": "https://dc.lft.to/lastmile_qr_scan", "android": "https://dc.lft.to/lastmile_qr_scan"}, "bike_id": "4be5d7ab14d21096459a7dfd4e77e2ac", "lat": 38.894067166666666, "name": "4be5d7ab14d21096459a7dfd4e77e2ac", "lon": -77.05000133333333, "fusion_lon": 0.0}, {"is_reserved": 0, "type": "electric_scooter", "fusion_lat": 0.0, "is_disabled": 0, "rental_uris": {"ios": "https://dc.lft.to/lastmile_qr_scan", "android": "https://dc.lft.to/lastmile_qr_scan"}, "bike_id": "a1c050bdb052f0831cc3371beb42f6d9", "lat": 38.90610133333333, "name": "a1c050bdb052f0831cc3371beb42f6d9", "lon": -76.9898185, "fusion_lon": 0.0}, {"is_reserved": 0, "type": "electric_scooter", "fusion_lat": 0.0, "is_disabled": 0, "rental_uris": {"ios": "https://dc.lft.to/lastmile_qr_scan", "android": "https://dc.lft.to/lastmile_qr_scan"}, "bike_id": "dbbc8be5f5b5e3755edb4d4451b2e73c", "lat": 38.91680983333333, "name": "dbbc8be5f5b5e3755edb4d4451b2e73c", "lon": -77.02386266666667, "fusion_lon": 0.0}, {"is_reserved": 0, "type": "electric_scooter", "fusion_lat": 0.0, "is_disabled": 0, "rental_uris": {"ios": "https://dc.lft.to/lastmile_qr_scan", "android": "https://dc.lft.to/lastmile_qr_scan"}, "bike_id": "c466c115585176043a77d22c9556148e", "lat": 38.9078675, "name": "c466c115585176043a77d22c9556148e", "lon": -77.04509166666666, "fusion_lon": 0.0}, {"is_reserved": 0, "type": "electric_scooter", "fusion_lat": 0.0, "is_disabled": 0, "rental_uris": {"ios": "https://dc.lft.to/lastmile_qr_scan", "android": "https://dc.lft.to/lastmile_qr_scan"}, "bike_id": "1fc4c05ce7fc7e920d7faef607a5f9ea", "lat": 38.920427, "name": "1fc4c05ce7fc7e920d7faef607a5f9ea", "lon": -77.01679233333333, "fusion_lon": 0.0}, {"is_reserved": 0, "type": "electric_scooter", "fusion_lat": 0.0, "is_disabled": 0, "rental_uris": {"ios": "https://dc.lft.to/lastmile_qr_scan", "android": "https://dc.lft.to/lastmile_qr_scan"}, "bike_id": "a0a647aa745fdbaee8fd50cc9b782fb0", "lat": 38.904169333333336, "name": "a0a647aa745fdbaee8fd50cc9b782fb0", "lon": -76.98533533333334, "fusion_lon": 0.0}, {"is_reserved": 0, "type": "electric_scooter", "fusion_lat": 0.0, "is_disabled": 0, "rental_uris": {"ios": "https://dc.lft.to/lastmile_qr_scan", "android": "https://dc.lft.to/lastmile_qr_scan"}, "bike_id": "11722835101ea69a2f093e7ba0c24979", "lat": 38.90302666666667, "name": "11722835101ea69a2f093e7ba0c24979", "lon": -76.99839683333333, "fusion_lon": 0.0}, {"is_reserved": 0, "type": "electric_scooter", "fusion_lat": 0.0, "is_disabled": 0, "rental_uris": {"ios": "https://dc.lft.to/lastmile_qr_scan", "android": "https://dc.lft.to/lastmile_qr_scan"}, "bike_id": "589982357d648af3059f7dc5ec43deaa", "lat": 38.9248425, "name": "589982357d648af3059f7dc5ec43deaa", "lon": -77.02546983333333, "fusion_lon": 0.0}, {"is_reserved": 0, "type": "electric_scooter", "fusion_lat": 0.0, "is_disabled": 0, "rental_uris": {"ios": "https://dc.lft.to/lastmile_qr_scan", "android": "https://dc.lft.to/lastmile_qr_scan"}, "bike_id": "b9a8160e0e1b431edc7bc91545baf868", "lat": 38.90364433333333, "name": "b9a8160e0e1b431edc7bc91545baf868", "lon": -76.97817633333334, "fusion_lon": 0.0}, {"is_reserved": 0, "type": "electric_scooter", "fusion_lat": 0.0, "is_disabled": 0, "rental_uris": {"ios": "https://dc.lft.to/lastmile_qr_scan", "android": "https://dc.lft.to/lastmile_qr_scan"}, "bike_id": "3c5c9460b6160c07faf6fd6f05babe51", "lat": 38.920709333333335, "name": "3c5c9460b6160c07faf6fd6f05babe51", "lon": -77.04381033333334, "fusion_lon": 0.0}, {"is_reserved": 0, "type": "electric_scooter", "fusion_lat": 0.0, "is_disabled": 0, "rental_uris": {"ios": "https://dc.lft.to/lastmile_qr_scan", "android": "https://dc.lft.to/lastmile_qr_scan"}, "bike_id": "c5266857a5d2f6bb7c9e5f6b918f31a3", "lat": 38.952218, "name": "c5266857a5d2f6bb7c9e5f6b918f31a3", "lon": -77.06886083333333, "fusion_lon": 0.0}, {"is_reserved": 0, "type": "electric_scooter", "fusion_lat": 0.0, "is_disabled": 0, "rental_uris": {"ios": "https://dc.lft.to/lastmile_qr_scan", "android": "https://dc.lft.to/lastmile_qr_scan"}, "bike_id": "86ef7e291bb5ddc2306672cefe6caadd", "lat": 38.880078833333336, "name": "86ef7e291bb5ddc2306672cefe6caadd", "lon": -76.998357, "fusion_lon": 0.0}, {"is_reserved": 0, "type": "electric_scooter", "fusion_lat": 0.0, "is_disabled": 0, "rental_uris": {"ios": "https://dc.lft.to/lastmile_qr_scan", "android": "https://dc.lft.to/lastmile_qr_scan"}, "bike_id": "024ca24605bcc4996e9d7d33ea02e32e", "lat": 38.89510683333334, "name": "024ca24605bcc4996e9d7d33ea02e32e", "lon": -76.948846, "fusion_lon": 0.0}, {"is_reserved": 0, "type": "electric_scooter", "fusion_lat": 0.0, "is_disabled": 0, "rental_uris": {"ios": "https://dc.lft.to/lastmile_qr_scan", "android": "https://dc.lft.to/lastmile_qr_scan"}, "bike_id": "0fde56068c1ce4dfc70b43724f919555", "lat": 38.93006866666666, "name": "0fde56068c1ce4dfc70b43724f919555", "lon": -77.02118766666666, "fusion_lon": 0.0}, {"is_reserved": 0, "type": "electric_scooter", "fusion_lat": 0.0, "is_disabled": 0, "rental_uris": {"ios": "https://dc.lft.to/lastmile_qr_scan", "android": "https://dc.lft.to/lastmile_qr_scan"}, "bike_id": "334b876bc6c183596e7d4722a4de3a75", "lat": 38.94004016666667, "name": "334b876bc6c183596e7d4722a4de3a75", "lon": -77.0773845, "fusion_lon": 0.0}, {"is_reserved": 0, "type": "electric_scooter", "fusion_lat": 0.0, "is_disabled": 0, "rental_uris": {"ios": "https://dc.lft.to/lastmile_qr_scan", "android": "https://dc.lft.to/lastmile_qr_scan"}, "bike_id": "def6d2787a6210038c2584835a9078fa", "lat": 38.9284005, "name": "def6d2787a6210038c2584835a9078fa", "lon": -77.01416316666666, "fusion_lon": 0.0}, {"is_reserved": 0, "type": "electric_scooter", "fusion_lat": 0.0, "is_disabled": 0, "rental_uris": {"ios": "https://dc.lft.to/lastmile_qr_scan", "android": "https://dc.lft.to/lastmile_qr_scan"}, "bike_id": "93c64d5f61bf4d6f4c85e4d72d5aa3ff", "lat": 38.901847, "name": "93c64d5f61bf4d6f4c85e4d72d5aa3ff", "lon": -76.97675433333333, "fusion_lon": 0.0}, {"is_reserved": 0, "type": "electric_bike", "fusion_lat": 0.0, "is_disabled": 0, "rental_uris": {"ios": "https://dc.lft.to/lastmile_qr_scan", "android": "https://dc.lft.to/lastmile_qr_scan"}, "bike_id": "58e439219c042eaa52ed18262d88fac9", "lat": 39.03475733333333, "name": "58e439219c042eaa52ed18262d88fac9", "lon": -77.04101516666667, "fusion_lon": 0.0}, {"is_reserved": 0, "type": "electric_scooter", "fusion_lat": 0.0, "is_disabled": 0, "rental_uris": {"ios": "https://dc.lft.to/lastmile_qr_scan", "android": "https://dc.lft.to/lastmile_qr_scan"}, "bike_id": "acd1fc69beb926ce51f31a92211eacd1", "lat": 38.87888183333333, "name": "acd1fc69beb926ce51f31a92211eacd1", "lon": -76.96543866666667, "fusion_lon": 0.0}, {"is_reserved": 0, "type": "electric_scooter", "fusion_lat": 0.0, "is_disabled": 0, "rental_uris": {"ios": "https://dc.lft.to/lastmile_qr_scan", "android": "https://dc.lft.to/lastmile_qr_scan"}, "bike_id": "7bf711d58df0de4716f35d625bb8e469", "lat": 38.8740265, "name": "7bf711d58df0de4716f35d625bb8e469", "lon": -76.9999935, "fusion_lon": 0.0}, {"is_reserved": 0, "type": "electric_scooter", "fusion_lat": 0.0, "is_disabled": 0, "rental_uris": {"ios": "https://dc.lft.to/lastmile_qr_scan", "android": "https://dc.lft.to/lastmile_qr_scan"}, "bike_id": "7da85af52eeac929320e47e083797d6e", "lat": 38.8994085, "name": "7da85af52eeac929320e47e083797d6e", "lon": -76.93765683333334, "fusion_lon": 0.0}, {"is_reserved": 0, "type": "electric_scooter", "fusion_lat": 0.0, "is_disabled": 0, "rental_uris": {"ios": "https://dc.lft.to/lastmile_qr_scan", "android": "https://dc.lft.to/lastmile_qr_scan"}, "bike_id": "5383bf2ee152d90bdd96020a40791049", "lat": 38.902247, "name": "5383bf2ee152d90bdd96020a40791049", "lon": -77.01776066666666, "fusion_lon": 0.0}, {"is_reserved": 0, "type": "electric_scooter", "fusion_lat": 0.0, "is_disabled": 0, "rental_uris": {"ios": "https://dc.lft.to/lastmile_qr_scan", "android": "https://dc.lft.to/lastmile_qr_scan"}, "bike_id": "b08522ee7844142e26e64aab6e9f8b5d", "lat": 38.91010833333333, "name": "b08522ee7844142e26e64aab6e9f8b5d", "lon": -77.0442205, "fusion_lon": 0.0}, {"is_reserved": 0, "type": "electric_scooter", "fusion_lat": 0.0, "is_disabled": 0, "rental_uris": {"ios": "https://dc.lft.to/lastmile_qr_scan", "android": "https://dc.lft.to/lastmile_qr_scan"}, "bike_id": "0fa4ce28b8ed5abf53ca5aef2302db02", "lat": 38.90772166666667, "name": "0fa4ce28b8ed5abf53ca5aef2302db02", "lon": -77.02404666666666, "fusion_lon": 0.0}, {"is_reserved": 0, "type": "electric_scooter", "fusion_lat": 0.0, "is_disabled": 0, "rental_uris": {"ios": "https://dc.lft.to/lastmile_qr_scan", "android": "https://dc.lft.to/lastmile_qr_scan"}, "bike_id": "4d98794ef6b0b282c82605fbd3560152", "lat": 38.92158283333333, "name": "4d98794ef6b0b282c82605fbd3560152", "lon": -77.03380316666667, "fusion_lon": 0.0}, {"is_reserved": 0, "type": "electric_bike", "fusion_lat": 0.0, "is_disabled": 0, "rental_uris": {"ios": "https://dc.lft.to/lastmile_qr_scan", "android": "https://dc.lft.to/lastmile_qr_scan"}, "bike_id": "8754c7fef9dd4a0e18b22c29740692ee", "lat": 38.88306983333333, "name": "8754c7fef9dd4a0e18b22c29740692ee", "lon": -77.00197216666666, "fusion_lon": 0.0}, {"is_reserved": 0, "type": "electric_scooter", "fusion_lat": 0.0, "is_disabled": 0, "rental_uris": {"ios": "https://dc.lft.to/lastmile_qr_scan", "android": "https://dc.lft.to/lastmile_qr_scan"}, "bike_id": "21e8afd28730f508c54ba2b2f4a43ee2", "lat": 38.92215933333333, "name": "21e8afd28730f508c54ba2b2f4a43ee2", "lon": -77.04232983333333, "fusion_lon": 0.0}, {"is_reserved": 0, "type": "electric_scooter", "fusion_lat": 0.0, "is_disabled": 0, "rental_uris": {"ios": "https://dc.lft.to/lastmile_qr_scan", "android": "https://dc.lft.to/lastmile_qr_scan"}, "bike_id": "4577a5ef25869ec8fae537bbf9f78276", "lat": 38.91877066666667, "name": "4577a5ef25869ec8fae537bbf9f78276", "lon": -77.035099, "fusion_lon": 0.0}, {"is_reserved": 0, "type": "electric_scooter", "fusion_lat": 0.0, "is_disabled": 0, "rental_uris": {"ios": "https://dc.lft.to/lastmile_qr_scan", "android": "https://dc.lft.to/lastmile_qr_scan"}, "bike_id": "9e630e3001da1af48a43c41194ee96b4", "lat": 38.91655933333333, "name": "9e630e3001da1af48a43c41194ee96b4", "lon": -77.01022233333333, "fusion_lon": 0.0}, {"is_reserved": 0, "type": "electric_scooter", "fusion_lat": 0.0, "is_disabled": 0, "rental_uris": {"ios": "https://dc.lft.to/lastmile_qr_scan", "android": "https://dc.lft.to/lastmile_qr_scan"}, "bike_id": "b2f080717e944acb38e3ef8fe04993c8", "lat": 38.944880833333336, "name": "b2f080717e944acb38e3ef8fe04993c8", "lon": -77.0950085, "fusion_lon": 0.0}, {"is_reserved": 0, "type": "electric_bike", "fusion_lat": 0.0, "is_disabled": 0, "rental_uris": {"ios": "https://dc.lft.to/lastmile_qr_scan", "android": "https://dc.lft.to/lastmile_qr_scan"}, "bike_id": "b591de1ff8a0cd608c1e3227290c52a1", "lat": 38.80980816666667, "name": "b591de1ff8a0cd608c1e3227290c52a1", "lon": -77.076606, "fusion_lon": 0.0}, {"is_reserved": 0, "type": "electric_scooter", "fusion_lat": 0.0, "is_disabled": 0, "rental_uris": {"ios": "https://dc.lft.to/lastmile_qr_scan", "android": "https://dc.lft.to/lastmile_qr_scan"}, "bike_id": "49307d1e84da503837ea8c4059f73c3d", "lat": 38.9359905, "name": "49307d1e84da503837ea8c4059f73c3d", "lon": -77.03758916666666, "fusion_lon": 0.0}, {"is_reserved": 0, "type": "electric_scooter", "fusion_lat": 0.0, "is_disabled": 0, "rental_uris": {"ios": "https://dc.lft.to/lastmile_qr_scan", "android": "https://dc.lft.to/lastmile_qr_scan"}, "bike_id": "eabf1ebe0fb4c8779a30ecd8afdffeae", "lat": 38.8963135, "name": "eabf1ebe0fb4c8779a30ecd8afdffeae", "lon": -77.02852583333333, "fusion_lon": 0.0}, {"is_reserved": 0, "type": "electric_scooter", "fusion_lat": 0.0, "is_disabled": 0, "rental_uris": {"ios": "https://dc.lft.to/lastmile_qr_scan", "android": "https://dc.lft.to/lastmile_qr_scan"}, "bike_id": "c140c96f7c599385b01cd108a07df895", "lat": 38.89228583333333, "name": "c140c96f7c599385b01cd108a07df895", "lon": -77.04640166666667, "fusion_lon": 0.0}, {"is_reserved": 0, "type": "electric_scooter", "fusion_lat": 0.0, "is_disabled": 0, "rental_uris": {"ios": "https://dc.lft.to/lastmile_qr_scan", "android": "https://dc.lft.to/lastmile_qr_scan"}, "bike_id": "1b2a3d7db2a0a43277a2f343f40cc646", "lat": 38.926706333333335, "name": "1b2a3d7db2a0a43277a2f343f40cc646", "lon": -76.9953905, "fusion_lon": 0.0}, {"is_reserved": 0, "type": "electric_bike", "fusion_lat": 0.0, "is_disabled": 0, "rental_uris": {"ios": "https://dc.lft.to/lastmile_qr_scan", "android": "https://dc.lft.to/lastmile_qr_scan"}, "bike_id": "0b944cdbd7309db5327d75cb2fe17a56", "lat": 38.920225333333335, "name": "0b944cdbd7309db5327d75cb2fe17a56", "lon": -77.0033185, "fusion_lon": 0.0}, {"is_reserved": 0, "type": "electric_scooter", "fusion_lat": 0.0, "is_disabled": 0, "rental_uris": {"ios": "https://dc.lft.to/lastmile_qr_scan", "android": "https://dc.lft.to/lastmile_qr_scan"}, "bike_id": "c3ca5f5e887e46ef6679a4e5f823f2aa", "lat": 38.89824316666667, "name": "c3ca5f5e887e46ef6679a4e5f823f2aa", "lon": -76.93000316666667, "fusion_lon": 0.0}, {"is_reserved": 0, "type": "electric_scooter", "fusion_lat": 0.0, "is_disabled": 0, "rental_uris": {"ios": "https://dc.lft.to/lastmile_qr_scan", "android": "https://dc.lft.to/lastmile_qr_scan"}, "bike_id": "c010f650710fb9b7a6aaa125db986bfe", "lat": 38.897789333333336, "name": "c010f650710fb9b7a6aaa125db986bfe", "lon": -77.0478, "fusion_lon": 0.0}, {"is_reserved": 0, "type": "electric_bike", "fusion_lat": 0.0, "is_disabled": 0, "rental_uris": {"ios": "https://dc.lft.to/lastmile_qr_scan", "android": "https://dc.lft.to/lastmile_qr_scan"}, "bike_id": "09243389d751d9fcb76d99fc153d7656", "lat": 38.936429333333336, "name": "09243389d751d9fcb76d99fc153d7656", "lon": -76.9545645, "fusion_lon": 0.0}, {"is_reserved": 0, "type": "electric_scooter", "fusion_lat": 0.0, "is_disabled": 0, "rental_uris": {"ios": "https://dc.lft.to/lastmile_qr_scan", "android": "https://dc.lft.to/lastmile_qr_scan"}, "bike_id": "b321eaf13f4207e6c66c2597b254ae51", "lat": 38.89817933333333, "name": "b321eaf13f4207e6c66c2597b254ae51", "lon": -77.0127205, "fusion_lon": 0.0}, {"is_reserved": 0, "type": "electric_scooter", "fusion_lat": 0.0, "is_disabled": 0, "rental_uris": {"ios": "https://dc.lft.to/lastmile_qr_scan", "android": "https://dc.lft.to/lastmile_qr_scan"}, "bike_id": "6369fcf95be05bc5ae92fad570e52b0f", "lat": 38.89441866666667, "name": "6369fcf95be05bc5ae92fad570e52b0f", "lon": -76.98084133333333, "fusion_lon": 0.0}, {"is_reserved": 0, "type": "electric_scooter", "fusion_lat": 0.0, "is_disabled": 0, "rental_uris": {"ios": "https://dc.lft.to/lastmile_qr_scan", "android": "https://dc.lft.to/lastmile_qr_scan"}, "bike_id": "370d0e23287f2e13df3475830eb93c73", "lat": 38.918183, "name": "370d0e23287f2e13df3475830eb93c73", "lon": -77.0318975, "fusion_lon": 0.0}, {"is_reserved": 0, "type": "electric_scooter", "fusion_lat": 0.0, "is_disabled": 0, "rental_uris": {"ios": "https://dc.lft.to/lastmile_qr_scan", "android": "https://dc.lft.to/lastmile_qr_scan"}, "bike_id": "12f4f3523795ff1f2795025e62c23640", "lat": 38.924679833333336, "name": "12f4f3523795ff1f2795025e62c23640", "lon": -77.02241266666667, "fusion_lon": 0.0}, {"is_reserved": 0, "type": "electric_scooter", "fusion_lat": 0.0, "is_disabled": 0, "rental_uris": {"ios": "https://dc.lft.to/lastmile_qr_scan", "android": "https://dc.lft.to/lastmile_qr_scan"}, "bike_id": "b59450193105fe5f8a62178cfaf6aeb6", "lat": 38.90728166666667, "name": "b59450193105fe5f8a62178cfaf6aeb6", "lon": -77.00768266666667, "fusion_lon": 0.0}, {"is_reserved": 0, "type": "electric_scooter", "fusion_lat": 0.0, "is_disabled": 0, "rental_uris": {"ios": "https://dc.lft.to/lastmile_qr_scan", "android": "https://dc.lft.to/lastmile_qr_scan"}, "bike_id": "92be3d2372f317393abb1cb58d9f3e40", "lat": 38.876942166666666, "name": "92be3d2372f317393abb1cb58d9f3e40", "lon": -76.99628533333333, "fusion_lon": 0.0}, {"is_reserved": 0, "type": "electric_scooter", "fusion_lat": 0.0, "is_disabled": 0, "rental_uris": {"ios": "https://dc.lft.to/lastmile_qr_scan", "android": "https://dc.lft.to/lastmile_qr_scan"}, "bike_id": "5a66c5714f8148f7208fd66d1ec69e1b", "lat": 38.916800333333335, "name": "5a66c5714f8148f7208fd66d1ec69e1b", "lon": -77.01581283333333, "fusion_lon": 0.0}, {"is_reserved": 0, "type": "electric_scooter", "fusion_lat": 0.0, "is_disabled": 0, "rental_uris": {"ios": "https://dc.lft.to/lastmile_qr_scan", "android": "https://dc.lft.to/lastmile_qr_scan"}, "bike_id": "643154046bbf9d22344d732804a89ced", "lat": 38.890619, "name": "643154046bbf9d22344d732804a89ced", "lon": -76.99196166666667, "fusion_lon": 0.0}, {"is_reserved": 0, "type": "electric_scooter", "fusion_lat": 0.0, "is_disabled": 0, "rental_uris": {"ios": "https://dc.lft.to/lastmile_qr_scan", "android": "https://dc.lft.to/lastmile_qr_scan"}, "bike_id": "3c65cf401dac72265088db5603f577d9", "lat": 38.9018445, "name": "3c65cf401dac72265088db5603f577d9", "lon": -76.976712, "fusion_lon": 0.0}, {"is_reserved": 0, "type": "electric_scooter", "fusion_lat": 0.0, "is_disabled": 0, "rental_uris": {"ios": "https://dc.lft.to/lastmile_qr_scan", "android": "https://dc.lft.to/lastmile_qr_scan"}, "bike_id": "301e9d213ffb8888884c9af1179d0275", "lat": 38.924191666666665, "name": "301e9d213ffb8888884c9af1179d0275", "lon": -77.057609, "fusion_lon": 0.0}, {"is_reserved": 0, "type": "electric_scooter", "fusion_lat": 0.0, "is_disabled": 0, "rental_uris": {"ios": "https://dc.lft.to/lastmile_qr_scan", "android": "https://dc.lft.to/lastmile_qr_scan"}, "bike_id": "947c2797daeaac95b7974cb0d4fbb7c4", "lat": 38.9260185, "name": "947c2797daeaac95b7974cb0d4fbb7c4", "lon": -77.0241325, "fusion_lon": 0.0}, {"is_reserved": 0, "type": "electric_scooter", "fusion_lat": 0.0, "is_disabled": 0, "rental_uris": {"ios": "https://dc.lft.to/lastmile_qr_scan", "android": "https://dc.lft.to/lastmile_qr_scan"}, "bike_id": "be27ea3204fe5ecc0d7ddfe35094a8c2", "lat": 38.88713933333333, "name": "be27ea3204fe5ecc0d7ddfe35094a8c2", "lon": -76.98384466666667, "fusion_lon": 0.0}, {"is_reserved": 0, "type": "electric_scooter", "fusion_lat": 0.0, "is_disabled": 0, "rental_uris": {"ios": "https://dc.lft.to/lastmile_qr_scan", "android": "https://dc.lft.to/lastmile_qr_scan"}, "bike_id": "f1bbd256f26975f7558f8b4916727096", "lat": 38.88729383333333, "name": "f1bbd256f26975f7558f8b4916727096", "lon": -76.98377083333334, "fusion_lon": 0.0}, {"is_reserved": 0, "type": "electric_scooter", "fusion_lat": 0.0, "is_disabled": 0, "rental_uris": {"ios": "https://dc.lft.to/lastmile_qr_scan", "android": "https://dc.lft.to/lastmile_qr_scan"}, "bike_id": "16341ba4fce8462ba828d4f0c22ba29f", "lat": 38.95625583333333, "name": "16341ba4fce8462ba828d4f0c22ba29f", "lon": -77.02240883333333, "fusion_lon": 0.0}, {"is_reserved": 0, "type": "electric_scooter", "fusion_lat": 0.0, "is_disabled": 0, "rental_uris": {"ios": "https://dc.lft.to/lastmile_qr_scan", "android": "https://dc.lft.to/lastmile_qr_scan"}, "bike_id": "fc91e5e3ae230bd24f4db4ea2fe17dbe", "lat": 38.89953166666667, "name": "fc91e5e3ae230bd24f4db4ea2fe17dbe", "lon": -77.04751216666666, "fusion_lon": 0.0}, {"is_reserved": 0, "type": "electric_scooter", "fusion_lat": 0.0, "is_disabled": 0, "rental_uris": {"ios": "https://dc.lft.to/lastmile_qr_scan", "android": "https://dc.lft.to/lastmile_qr_scan"}, "bike_id": "ff3b58fb64f1fce4e8416e88a52e07c1", "lat": 38.918092666666666, "name": "ff3b58fb64f1fce4e8416e88a52e07c1", "lon": -77.0333845, "fusion_lon": 0.0}, {"is_reserved": 0, "type": "electric_scooter", "fusion_lat": 0.0, "is_disabled": 0, "rental_uris": {"ios": "https://dc.lft.to/lastmile_qr_scan", "android": "https://dc.lft.to/lastmile_qr_scan"}, "bike_id": "6426ecb463ccb07781228b4f29b85450", "lat": 38.92187366666667, "name": "6426ecb463ccb07781228b4f29b85450", "lon": -77.020887, "fusion_lon": 0.0}, {"is_reserved": 0, "type": "electric_scooter", "fusion_lat": 0.0, "is_disabled": 0, "rental_uris": {"ios": "https://dc.lft.to/lastmile_qr_scan", "android": "https://dc.lft.to/lastmile_qr_scan"}, "bike_id": "d5e959d1e31ec36a8f4693580c8d87c1", "lat": 38.907859, "name": "d5e959d1e31ec36a8f4693580c8d87c1", "lon": -77.0095925, "fusion_lon": 0.0}, {"is_reserved": 0, "type": "electric_scooter", "fusion_lat": 0.0, "is_disabled": 0, "rental_uris": {"ios": "https://dc.lft.to/lastmile_qr_scan", "android": "https://dc.lft.to/lastmile_qr_scan"}, "bike_id": "aaac65de86dd32977cc9a6bd7334ed5e", "lat": 38.909403833333336, "name": "aaac65de86dd32977cc9a6bd7334ed5e", "lon": -76.9992485, "fusion_lon": 0.0}, {"is_reserved": 0, "type": "electric_scooter", "fusion_lat": 0.0, "is_disabled": 0, "rental_uris": {"ios": "https://dc.lft.to/lastmile_qr_scan", "android": "https://dc.lft.to/lastmile_qr_scan"}, "bike_id": "9c73a00e6781adf41c53a7a50861a947", "lat": 38.879250166666665, "name": "9c73a00e6781adf41c53a7a50861a947", "lon": -77.0060355, "fusion_lon": 0.0}, {"is_reserved": 0, "type": "electric_scooter", "fusion_lat": 0.0, "is_disabled": 0, "rental_uris": {"ios": "https://dc.lft.to/lastmile_qr_scan", "android": "https://dc.lft.to/lastmile_qr_scan"}, "bike_id": "2faa5488844b09adda24557117abf7ea", "lat": 38.93423766666667, "name": "2faa5488844b09adda24557117abf7ea", "lon": -77.03287366666666, "fusion_lon": 0.0}, {"is_reserved": 0, "type": "electric_bike", "fusion_lat": 0.0, "is_disabled": 0, "rental_uris": {"ios": "https://dc.lft.to/lastmile_qr_scan", "android": "https://dc.lft.to/lastmile_qr_scan"}, "bike_id": "a5a2aa0bb0f7135a6cc097c8f04ba4c1", "lat": 38.925552, "name": "a5a2aa0bb0f7135a6cc097c8f04ba4c1", "lon": -77.00136866666666, "fusion_lon": 0.0}, {"is_reserved": 0, "type": "electric_scooter", "fusion_lat": 0.0, "is_disabled": 0, "rental_uris": {"ios": "https://dc.lft.to/lastmile_qr_scan", "android": "https://dc.lft.to/lastmile_qr_scan"}, "bike_id": "bc838d4b5ba1a750932a328e413a8cfe", "lat": 38.92111516666667, "name": "bc838d4b5ba1a750932a328e413a8cfe", "lon": -77.03640166666666, "fusion_lon": 0.0}, {"is_reserved": 0, "type": "electric_scooter", "fusion_lat": 0.0, "is_disabled": 0, "rental_uris": {"ios": "https://dc.lft.to/lastmile_qr_scan", "android": "https://dc.lft.to/lastmile_qr_scan"}, "bike_id": "19567d05ae82caffd72dbb53c6fbd892", "lat": 38.917448, "name": "19567d05ae82caffd72dbb53c6fbd892", "lon": -77.01086333333333, "fusion_lon": 0.0}, {"is_reserved": 0, "type": "electric_bike", "fusion_lat": 0.0, "is_disabled": 0, "rental_uris": {"ios": "https://dc.lft.to/lastmile_qr_scan", "android": "https://dc.lft.to/lastmile_qr_scan"}, "bike_id": "e874987587a61bc346384471de4549db", "lat": 38.835937333333334, "name": "e874987587a61bc346384471de4549db", "lon": -76.99018816666667, "fusion_lon": 0.0}, {"is_reserved": 0, "type": "electric_bike", "fusion_lat": 0.0, "is_disabled": 0, "rental_uris": {"ios": "https://dc.lft.to/lastmile_qr_scan", "android": "https://dc.lft.to/lastmile_qr_scan"}, "bike_id": "a085e310db580cfa4bc20d5a2b45e944", "lat": 38.967323, "name": "a085e310db580cfa4bc20d5a2b45e944", "lon": -77.0891475, "fusion_lon": 0.0}, {"is_reserved": 0, "type": "electric_scooter", "fusion_lat": 0.0, "is_disabled": 0, "rental_uris": {"ios": "https://dc.lft.to/lastmile_qr_scan", "android": "https://dc.lft.to/lastmile_qr_scan"}, "bike_id": "a71bacbd3cf4528540ee2221cd34a7d0", "lat": 38.93624616666666, "name": "a71bacbd3cf4528540ee2221cd34a7d0", "lon": -77.03660816666667, "fusion_lon": 0.0}, {"is_reserved": 0, "type": "electric_bike", "fusion_lat": 0.0, "is_disabled": 0, "rental_uris": {"ios": "https://dc.lft.to/lastmile_qr_scan", "android": "https://dc.lft.to/lastmile_qr_scan"}, "bike_id": "25c037c6e6fcf86a28030fec24401e12", "lat": 38.850866333333336, "name": "25c037c6e6fcf86a28030fec24401e12", "lon": -76.98160566666667, "fusion_lon": 0.0}, {"is_reserved": 0, "type": "electric_bike", "fusion_lat": 0.0, "is_disabled": 0, "rental_uris": {"ios": "https://dc.lft.to/lastmile_qr_scan", "android": "https://dc.lft.to/lastmile_qr_scan"}, "bike_id": "995b739b5c3d0c28078ac17085739957", "lat": 38.9145475, "name": "995b739b5c3d0c28078ac17085739957", "lon": -76.972825, "fusion_lon": 0.0}, {"is_reserved": 0, "type": "electric_scooter", "fusion_lat": 0.0, "is_disabled": 0, "rental_uris": {"ios": "https://dc.lft.to/lastmile_qr_scan", "android": "https://dc.lft.to/lastmile_qr_scan"}, "bike_id": "5fd636b859a335cdd0887c958785e9d1", "lat": 38.901383, "name": "5fd636b859a335cdd0887c958785e9d1", "lon": -76.9741125, "fusion_lon": 0.0}, {"is_reserved": 0, "type": "electric_scooter", "fusion_lat": 0.0, "is_disabled": 0, "rental_uris": {"ios": "https://dc.lft.to/lastmile_qr_scan", "android": "https://dc.lft.to/lastmile_qr_scan"}, "bike_id": "84ebe26ef0165fa7fabdda7d63e2e33a", "lat": 38.92217183333333, "name": "84ebe26ef0165fa7fabdda7d63e2e33a", "lon": -77.02031183333334, "fusion_lon": 0.0}, {"is_reserved": 0, "type": "electric_bike", "fusion_lat": 0.0, "is_disabled": 0, "rental_uris": {"ios": "https://dc.lft.to/lastmile_qr_scan", "android": "https://dc.lft.to/lastmile_qr_scan"}, "bike_id": "74b34e21f5714cde5d2fdc12608c7b41", "lat": 38.92606083333333, "name": "74b34e21f5714cde5d2fdc12608c7b41", "lon": -77.02433733333334, "fusion_lon": 0.0}, {"is_reserved": 0, "type": "electric_scooter", "fusion_lat": 0.0, "is_disabled": 0, "rental_uris": {"ios": "https://dc.lft.to/lastmile_qr_scan", "android": "https://dc.lft.to/lastmile_qr_scan"}, "bike_id": "25ee260abe69c11581b48cfc6d241029", "lat": 38.922326166666664, "name": "25ee260abe69c11581b48cfc6d241029", "lon": -77.02826983333334, "fusion_lon": 0.0}, {"is_reserved": 0, "type": "electric_scooter", "fusion_lat": 0.0, "is_disabled": 0, "rental_uris": {"ios": "https://dc.lft.to/lastmile_qr_scan", "android": "https://dc.lft.to/lastmile_qr_scan"}, "bike_id": "b5ebc757bf06e3d60c519a4121509b3b", "lat": 38.90999383333333, "name": "b5ebc757bf06e3d60c519a4121509b3b", "lon": -77.02692416666666, "fusion_lon": 0.0}, {"is_reserved": 0, "type": "electric_scooter", "fusion_lat": 0.0, "is_disabled": 0, "rental_uris": {"ios": "https://dc.lft.to/lastmile_qr_scan", "android": "https://dc.lft.to/lastmile_qr_scan"}, "bike_id": "c96051d0b0d89d946a6e45f523782b02", "lat": 38.88769516666667, "name": "c96051d0b0d89d946a6e45f523782b02", "lon": -77.00046883333333, "fusion_lon": 0.0}, {"is_reserved": 0, "type": "electric_scooter", "fusion_lat": 0.0, "is_disabled": 0, "rental_uris": {"ios": "https://dc.lft.to/lastmile_qr_scan", "android": "https://dc.lft.to/lastmile_qr_scan"}, "bike_id": "8cc815163c52e094a07078f9da0ffa6b", "lat": 38.9332745, "name": "8cc815163c52e094a07078f9da0ffa6b", "lon": -77.02910933333334, "fusion_lon": 0.0}, {"is_reserved": 0, "type": "electric_scooter", "fusion_lat": 0.0, "is_disabled": 0, "rental_uris": {"ios": "https://dc.lft.to/lastmile_qr_scan", "android": "https://dc.lft.to/lastmile_qr_scan"}, "bike_id": "b3d96ae5cbc88d4a728c0f2f0be516e5", "lat": 38.9220645, "name": "b3d96ae5cbc88d4a728c0f2f0be516e5", "lon": -77.01848033333333, "fusion_lon": 0.0}, {"is_reserved": 0, "type": "electric_scooter", "fusion_lat": 0.0, "is_disabled": 0, "rental_uris": {"ios": "https://dc.lft.to/lastmile_qr_scan", "android": "https://dc.lft.to/lastmile_qr_scan"}, "bike_id": "fe9dadca61b3dbf4b003220ef1c609fa", "lat": 38.901768833333335, "name": "fe9dadca61b3dbf4b003220ef1c609fa", "lon": -76.92947683333334, "fusion_lon": 0.0}, {"is_reserved": 0, "type": "electric_scooter", "fusion_lat": 0.0, "is_disabled": 0, "rental_uris": {"ios": "https://dc.lft.to/lastmile_qr_scan", "android": "https://dc.lft.to/lastmile_qr_scan"}, "bike_id": "4d21be6468c9a534db2eea9ceb51a67e", "lat": 38.901289, "name": "4d21be6468c9a534db2eea9ceb51a67e", "lon": -77.03446966666667, "fusion_lon": 0.0}, {"is_reserved": 0, "type": "electric_scooter", "fusion_lat": 0.0, "is_disabled": 0, "rental_uris": {"ios": "https://dc.lft.to/lastmile_qr_scan", "android": "https://dc.lft.to/lastmile_qr_scan"}, "bike_id": "f5cfe2596e593a4f438933e48f07f3a2", "lat": 38.933285166666664, "name": "f5cfe2596e593a4f438933e48f07f3a2", "lon": -77.02395216666666, "fusion_lon": 0.0}, {"is_reserved": 0, "type": "electric_scooter", "fusion_lat": 0.0, "is_disabled": 0, "rental_uris": {"ios": "https://dc.lft.to/lastmile_qr_scan", "android": "https://dc.lft.to/lastmile_qr_scan"}, "bike_id": "26e7c2d9f3474d147969a1d99c3467b1", "lat": 38.90268916666667, "name": "26e7c2d9f3474d147969a1d99c3467b1", "lon": -77.03921766666667, "fusion_lon": 0.0}, {"is_reserved": 0, "type": "electric_scooter", "fusion_lat": 0.0, "is_disabled": 0, "rental_uris": {"ios": "https://dc.lft.to/lastmile_qr_scan", "android": "https://dc.lft.to/lastmile_qr_scan"}, "bike_id": "4b6e9640fb56accb8d400b011cf9b510", "lat": 38.94493133333334, "name": "4b6e9640fb56accb8d400b011cf9b510", "lon": -77.007377, "fusion_lon": 0.0}, {"is_reserved": 0, "type": "electric_scooter", "fusion_lat": 0.0, "is_disabled": 0, "rental_uris": {"ios": "https://dc.lft.to/lastmile_qr_scan", "android": "https://dc.lft.to/lastmile_qr_scan"}, "bike_id": "e9957b4ae7ae6d33a0b000ecfe174123", "lat": 38.91127616666667, "name": "e9957b4ae7ae6d33a0b000ecfe174123", "lon": -77.0208515, "fusion_lon": 0.0}, {"is_reserved": 0, "type": "electric_bike", "fusion_lat": 0.0, "is_disabled": 0, "rental_uris": {"ios": "https://dc.lft.to/lastmile_qr_scan", "android": "https://dc.lft.to/lastmile_qr_scan"}, "bike_id": "639461d8fad8b805090e519585107f08", "lat": 38.95019533333333, "name": "639461d8fad8b805090e519585107f08", "lon": -77.01427833333334, "fusion_lon": 0.0}, {"is_reserved": 0, "type": "electric_scooter", "fusion_lat": 0.0, "is_disabled": 0, "rental_uris": {"ios": "https://dc.lft.to/lastmile_qr_scan", "android": "https://dc.lft.to/lastmile_qr_scan"}, "bike_id": "9a29eb286f17714a06c344f4d8ab5f8a", "lat": 38.91711183333334, "name": "9a29eb286f17714a06c344f4d8ab5f8a", "lon": -77.038902, "fusion_lon": 0.0}, {"is_reserved": 0, "type": "electric_scooter", "fusion_lat": 0.0, "is_disabled": 0, "rental_uris": {"ios": "https://dc.lft.to/lastmile_qr_scan", "android": "https://dc.lft.to/lastmile_qr_scan"}, "bike_id": "e870a30199dae958bb2da76f3bd32c06", "lat": 38.907399833333336, "name": "e870a30199dae958bb2da76f3bd32c06", "lon": -77.0034895, "fusion_lon": 0.0}, {"is_reserved": 0, "type": "electric_scooter", "fusion_lat": 0.0, "is_disabled": 0, "rental_uris": {"ios": "https://dc.lft.to/lastmile_qr_scan", "android": "https://dc.lft.to/lastmile_qr_scan"}, "bike_id": "08e09d092157796a11960bb613af789a", "lat": 38.92753583333333, "name": "08e09d092157796a11960bb613af789a", "lon": -77.03270866666666, "fusion_lon": 0.0}, {"is_reserved": 0, "type": "electric_bike", "fusion_lat": 0.0, "is_disabled": 0, "rental_uris": {"ios": "https://dc.lft.to/lastmile_qr_scan", "android": "https://dc.lft.to/lastmile_qr_scan"}, "bike_id": "c434a4049a6dceeb5545c80490bdc2a1", "lat": 38.93391066666667, "name": "c434a4049a6dceeb5545c80490bdc2a1", "lon": -77.0238785, "fusion_lon": 0.0}, {"is_reserved": 0, "type": "electric_scooter", "fusion_lat": 0.0, "is_disabled": 0, "rental_uris": {"ios": "https://dc.lft.to/lastmile_qr_scan", "android": "https://dc.lft.to/lastmile_qr_scan"}, "bike_id": "f9d81ca822f3ea686622354baf367413", "lat": 38.90312333333333, "name": "f9d81ca822f3ea686622354baf367413", "lon": -77.028156, "fusion_lon": 0.0}, {"is_reserved": 0, "type": "electric_scooter", "fusion_lat": 0.0, "is_disabled": 0, "rental_uris": {"ios": "https://dc.lft.to/lastmile_qr_scan", "android": "https://dc.lft.to/lastmile_qr_scan"}, "bike_id": "6093d35eb055c42e886e10c1e26136ca", "lat": 38.967974166666664, "name": "6093d35eb055c42e886e10c1e26136ca", "lon": -77.02562166666667, "fusion_lon": 0.0}, {"is_reserved": 0, "type": "electric_scooter", "fusion_lat": 0.0, "is_disabled": 0, "rental_uris": {"ios": "https://dc.lft.to/lastmile_qr_scan", "android": "https://dc.lft.to/lastmile_qr_scan"}, "bike_id": "b2413a8b6a371ea0f4fa62cb27df7dc5", "lat": 38.9048475, "name": "b2413a8b6a371ea0f4fa62cb27df7dc5", "lon": -76.9496195, "fusion_lon": 0.0}, {"is_reserved": 0, "type": "electric_scooter", "fusion_lat": 0.0, "is_disabled": 0, "rental_uris": {"ios": "https://dc.lft.to/lastmile_qr_scan", "android": "https://dc.lft.to/lastmile_qr_scan"}, "bike_id": "14eda38fa8890102d9c1ebd56275bde6", "lat": 38.92458116666667, "name": "14eda38fa8890102d9c1ebd56275bde6", "lon": -77.05229883333334, "fusion_lon": 0.0}, {"is_reserved": 0, "type": "electric_scooter", "fusion_lat": 0.0, "is_disabled": 0, "rental_uris": {"ios": "https://dc.lft.to/lastmile_qr_scan", "android": "https://dc.lft.to/lastmile_qr_scan"}, "bike_id": "44dc4bd4ff27e89896a29ee6b31293c5", "lat": 38.90297616666667, "name": "44dc4bd4ff27e89896a29ee6b31293c5", "lon": -77.0488595, "fusion_lon": 0.0}, {"is_reserved": 0, "type": "electric_bike", "fusion_lat": 0.0, "is_disabled": 0, "rental_uris": {"ios": "https://dc.lft.to/lastmile_qr_scan", "android": "https://dc.lft.to/lastmile_qr_scan"}, "bike_id": "25c569caac978600164a1df3ced001c7", "lat": 39.00005616666667, "name": "25c569caac978600164a1df3ced001c7", "lon": -76.91805083333334, "fusion_lon": 0.0}, {"is_reserved": 0, "type": "electric_scooter", "fusion_lat": 0.0, "is_disabled": 0, "rental_uris": {"ios": "https://dc.lft.to/lastmile_qr_scan", "android": "https://dc.lft.to/lastmile_qr_scan"}, "bike_id": "2b1b691a603f4eb9ec254bfb557d1050", "lat": 38.89233083333333, "name": "2b1b691a603f4eb9ec254bfb557d1050", "lon": -77.0499805, "fusion_lon": 0.0}, {"is_reserved": 0, "type": "electric_scooter", "fusion_lat": 0.0, "is_disabled": 0, "rental_uris": {"ios": "https://dc.lft.to/lastmile_qr_scan", "android": "https://dc.lft.to/lastmile_qr_scan"}, "bike_id": "dd9005dfdae365bc173fe2dcf0e3e3ae", "lat": 38.921850166666665, "name": "dd9005dfdae365bc173fe2dcf0e3e3ae", "lon": -77.04353316666666, "fusion_lon": 0.0}, {"is_reserved": 0, "type": "electric_scooter", "fusion_lat": 0.0, "is_disabled": 0, "rental_uris": {"ios": "https://dc.lft.to/lastmile_qr_scan", "android": "https://dc.lft.to/lastmile_qr_scan"}, "bike_id": "cb84249204863befa7110eba1649c07b", "lat": 38.926294, "name": "cb84249204863befa7110eba1649c07b", "lon": -77.04150766666666, "fusion_lon": 0.0}, {"is_reserved": 0, "type": "electric_bike", "fusion_lat": 0.0, "is_disabled": 0, "rental_uris": {"ios": "https://dc.lft.to/lastmile_qr_scan", "android": "https://dc.lft.to/lastmile_qr_scan"}, "bike_id": "c3060d45b0dfabae243982fe99a22e5a", "lat": 38.80742466666667, "name": "c3060d45b0dfabae243982fe99a22e5a", "lon": -77.09686316666667, "fusion_lon": 0.0}, {"is_reserved": 0, "type": "electric_bike", "fusion_lat": 0.0, "is_disabled": 0, "rental_uris": {"ios": "https://dc.lft.to/lastmile_qr_scan", "android": "https://dc.lft.to/lastmile_qr_scan"}, "bike_id": "bda3ba7446a5619cfb5194a10c4e9d97", "lat": 38.950911, "name": "bda3ba7446a5619cfb5194a10c4e9d97", "lon": -77.01226833333334, "fusion_lon": 0.0}, {"is_reserved": 0, "type": "electric_scooter", "fusion_lat": 0.0, "is_disabled": 0, "rental_uris": {"ios": "https://dc.lft.to/lastmile_qr_scan", "android": "https://dc.lft.to/lastmile_qr_scan"}, "bike_id": "d9d7bdb9ae757e600ec4fa3245d877e2", "lat": 38.906086333333334, "name": "d9d7bdb9ae757e600ec4fa3245d877e2", "lon": -77.05838433333334, "fusion_lon": 0.0}, {"is_reserved": 0, "type": "electric_scooter", "fusion_lat": 0.0, "is_disabled": 0, "rental_uris": {"ios": "https://dc.lft.to/lastmile_qr_scan", "android": "https://dc.lft.to/lastmile_qr_scan"}, "bike_id": "9397f48fd82c7ce7bb6f87528c35d988", "lat": 38.90761633333334, "name": "9397f48fd82c7ce7bb6f87528c35d988", "lon": -77.00118433333333, "fusion_lon": 0.0}, {"is_reserved": 0, "type": "electric_scooter", "fusion_lat": 0.0, "is_disabled": 0, "rental_uris": {"ios": "https://dc.lft.to/lastmile_qr_scan", "android": "https://dc.lft.to/lastmile_qr_scan"}, "bike_id": "a6c6bc1ac814756c9fd4bb179ad94454", "lat": 38.916423, "name": "a6c6bc1ac814756c9fd4bb179ad94454", "lon": -77.0238255, "fusion_lon": 0.0}, {"is_reserved": 0, "type": "electric_scooter", "fusion_lat": 0.0, "is_disabled": 0, "rental_uris": {"ios": "https://dc.lft.to/lastmile_qr_scan", "android": "https://dc.lft.to/lastmile_qr_scan"}, "bike_id": "b2a7e223d90d039de701be3595069cfe", "lat": 38.91441483333333, "name": "b2a7e223d90d039de701be3595069cfe", "lon": -77.00349433333334, "fusion_lon": 0.0}, {"is_reserved": 0, "type": "electric_scooter", "fusion_lat": 0.0, "is_disabled": 0, "rental_uris": {"ios": "https://dc.lft.to/lastmile_qr_scan", "android": "https://dc.lft.to/lastmile_qr_scan"}, "bike_id": "cc6256a6abad5fdc38aa20895dc0befa", "lat": 38.908744, "name": "cc6256a6abad5fdc38aa20895dc0befa", "lon": -77.071539, "fusion_lon": 0.0}, {"is_reserved": 0, "type": "electric_scooter", "fusion_lat": 0.0, "is_disabled": 0, "rental_uris": {"ios": "https://dc.lft.to/lastmile_qr_scan", "android": "https://dc.lft.to/lastmile_qr_scan"}, "bike_id": "ce8d7c1b92fa385496413b7bd4432bca", "lat": 38.918111833333334, "name": "ce8d7c1b92fa385496413b7bd4432bca", "lon": -77.03435833333333, "fusion_lon": 0.0}, {"is_reserved": 0, "type": "electric_scooter", "fusion_lat": 0.0, "is_disabled": 0, "rental_uris": {"ios": "https://dc.lft.to/lastmile_qr_scan", "android": "https://dc.lft.to/lastmile_qr_scan"}, "bike_id": "c9ffc381b7c5bcabf8b92ddd759f2f80", "lat": 38.89548766666667, "name": "c9ffc381b7c5bcabf8b92ddd759f2f80", "lon": -76.98340383333333, "fusion_lon": 0.0}, {"is_reserved": 0, "type": "electric_scooter", "fusion_lat": 0.0, "is_disabled": 0, "rental_uris": {"ios": "https://dc.lft.to/lastmile_qr_scan", "android": "https://dc.lft.to/lastmile_qr_scan"}, "bike_id": "697a3aeb85ac7ce18fcb3cb407af3f11", "lat": 38.90116833333333, "name": "697a3aeb85ac7ce18fcb3cb407af3f11", "lon": -77.03166883333333, "fusion_lon": 0.0}, {"is_reserved": 0, "type": "electric_bike", "fusion_lat": 0.0, "is_disabled": 0, "rental_uris": {"ios": "https://dc.lft.to/lastmile_qr_scan", "android": "https://dc.lft.to/lastmile_qr_scan"}, "bike_id": "d7f5795c4a08c9d913fe45e913db5482", "lat": 38.8716335, "name": "d7f5795c4a08c9d913fe45e913db5482", "lon": -77.23389083333333, "fusion_lon": 0.0}, {"is_reserved": 0, "type": "electric_scooter", "fusion_lat": 0.0, "is_disabled": 0, "rental_uris": {"ios": "https://dc.lft.to/lastmile_qr_scan", "android": "https://dc.lft.to/lastmile_qr_scan"}, "bike_id": "44ea4687f9bb19a588b3c15e87ef1df3", "lat": 38.8936275, "name": "44ea4687f9bb19a588b3c15e87ef1df3", "lon": -76.94111083333334, "fusion_lon": 0.0}, {"is_reserved": 0, "type": "electric_scooter", "fusion_lat": 0.0, "is_disabled": 0, "rental_uris": {"ios": "https://dc.lft.to/lastmile_qr_scan", "android": "https://dc.lft.to/lastmile_qr_scan"}, "bike_id": "4f8418db4c97a3665ef3edad821c8441", "lat": 38.905953833333335, "name": "4f8418db4c97a3665ef3edad821c8441", "lon": -77.04707566666667, "fusion_lon": 0.0}, {"is_reserved": 0, "type": "electric_scooter", "fusion_lat": 0.0, "is_disabled": 0, "rental_uris": {"ios": "https://dc.lft.to/lastmile_qr_scan", "android": "https://dc.lft.to/lastmile_qr_scan"}, "bike_id": "5a4bc410a0f00a476624266ba891508f", "lat": 38.87924183333333, "name": "5a4bc410a0f00a476624266ba891508f", "lon": -77.01332583333334, "fusion_lon": 0.0}, {"is_reserved": 0, "type": "electric_scooter", "fusion_lat": 0.0, "is_disabled": 0, "rental_uris": {"ios": "https://dc.lft.to/lastmile_qr_scan", "android": "https://dc.lft.to/lastmile_qr_scan"}, "bike_id": "5633dd272e4acf7b433070258251a4bf", "lat": 38.90015866666667, "name": "5633dd272e4acf7b433070258251a4bf", "lon": -77.011805, "fusion_lon": 0.0}, {"is_reserved": 0, "type": "electric_scooter", "fusion_lat": 0.0, "is_disabled": 0, "rental_uris": {"ios": "https://dc.lft.to/lastmile_qr_scan", "android": "https://dc.lft.to/lastmile_qr_scan"}, "bike_id": "df826a8233085a29da6148f46deadff0", "lat": 38.915793, "name": "df826a8233085a29da6148f46deadff0", "lon": -77.02007233333333, "fusion_lon": 0.0}, {"is_reserved": 0, "type": "electric_bike", "fusion_lat": 0.0, "is_disabled": 0, "rental_uris": {"ios": "https://dc.lft.to/lastmile_qr_scan", "android": "https://dc.lft.to/lastmile_qr_scan"}, "bike_id": "2cb23857a9ba616d0d951ae0fc2282f3", "lat": 38.90395566666667, "name": "2cb23857a9ba616d0d951ae0fc2282f3", "lon": -76.937521, "fusion_lon": 0.0}, {"is_reserved": 0, "type": "electric_scooter", "fusion_lat": 0.0, "is_disabled": 0, "rental_uris": {"ios": "https://dc.lft.to/lastmile_qr_scan", "android": "https://dc.lft.to/lastmile_qr_scan"}, "bike_id": "dbfb9a27dec7eea4e02b1f12b0fbcb78", "lat": 38.92364, "name": "dbfb9a27dec7eea4e02b1f12b0fbcb78", "lon": -77.07281033333334, "fusion_lon": 0.0}, {"is_reserved": 0, "type": "electric_scooter", "fusion_lat": 0.0, "is_disabled": 0, "rental_uris": {"ios": "https://dc.lft.to/lastmile_qr_scan", "android": "https://dc.lft.to/lastmile_qr_scan"}, "bike_id": "0d49dcf877b87959779b19a3df21eb81", "lat": 38.88699283333333, "name": "0d49dcf877b87959779b19a3df21eb81", "lon": -77.00057366666667, "fusion_lon": 0.0}, {"is_reserved": 0, "type": "electric_scooter", "fusion_lat": 0.0, "is_disabled": 0, "rental_uris": {"ios": "https://dc.lft.to/lastmile_qr_scan", "android": "https://dc.lft.to/lastmile_qr_scan"}, "bike_id": "aef3a8389a843e2c6866dbc79fb8ee31", "lat": 38.935416833333335, "name": "aef3a8389a843e2c6866dbc79fb8ee31", "lon": -77.05751916666667, "fusion_lon": 0.0}, {"is_reserved": 0, "type": "electric_scooter", "fusion_lat": 0.0, "is_disabled": 0, "rental_uris": {"ios": "https://dc.lft.to/lastmile_qr_scan", "android": "https://dc.lft.to/lastmile_qr_scan"}, "bike_id": "29c7368b008a735967e4f0885de10eae", "lat": 38.91555133333333, "name": "29c7368b008a735967e4f0885de10eae", "lon": -77.041258, "fusion_lon": 0.0}, {"is_reserved": 0, "type": "electric_bike", "fusion_lat": 0.0, "is_disabled": 0, "rental_uris": {"ios": "https://dc.lft.to/lastmile_qr_scan", "android": "https://dc.lft.to/lastmile_qr_scan"}, "bike_id": "d0c0aa1e986ff753e72212e310c741d0", "lat": 38.96787033333333, "name": "d0c0aa1e986ff753e72212e310c741d0", "lon": -76.99648316666666, "fusion_lon": 0.0}, {"is_reserved": 0, "type": "electric_scooter", "fusion_lat": 0.0, "is_disabled": 0, "rental_uris": {"ios": "https://dc.lft.to/lastmile_qr_scan", "android": "https://dc.lft.to/lastmile_qr_scan"}, "bike_id": "670bebcc43556b78abc7913e9c7ef3ab", "lat": 38.92369933333333, "name": "670bebcc43556b78abc7913e9c7ef3ab", "lon": -77.02052383333333, "fusion_lon": 0.0}, {"is_reserved": 0, "type": "electric_scooter", "fusion_lat": 0.0, "is_disabled": 0, "rental_uris": {"ios": "https://dc.lft.to/lastmile_qr_scan", "android": "https://dc.lft.to/lastmile_qr_scan"}, "bike_id": "111db5c129cf07dd0912767d9e39e6e0", "lat": 38.924693833333336, "name": "111db5c129cf07dd0912767d9e39e6e0", "lon": -77.02214566666666, "fusion_lon": 0.0}, {"is_reserved": 0, "type": "electric_scooter", "fusion_lat": 0.0, "is_disabled": 0, "rental_uris": {"ios": "https://dc.lft.to/lastmile_qr_scan", "android": "https://dc.lft.to/lastmile_qr_scan"}, "bike_id": "dc82c1dfd1edbff3ee325b8fe251a465", "lat": 38.93856, "name": "dc82c1dfd1edbff3ee325b8fe251a465", "lon": -77.07830033333333, "fusion_lon": 0.0}, {"is_reserved": 0, "type": "electric_scooter", "fusion_lat": 0.0, "is_disabled": 0, "rental_uris": {"ios": "https://dc.lft.to/lastmile_qr_scan", "android": "https://dc.lft.to/lastmile_qr_scan"}, "bike_id": "7b095101d85bf8fb98c4b8b383268225", "lat": 38.89231983333333, "name": "7b095101d85bf8fb98c4b8b383268225", "lon": -77.043716, "fusion_lon": 0.0}, {"is_reserved": 0, "type": "electric_scooter", "fusion_lat": 0.0, "is_disabled": 0, "rental_uris": {"ios": "https://dc.lft.to/lastmile_qr_scan", "android": "https://dc.lft.to/lastmile_qr_scan"}, "bike_id": "dbd509ce67b1a62a138adbeaa143e48e", "lat": 38.9223045, "name": "dbd509ce67b1a62a138adbeaa143e48e", "lon": -76.97530616666667, "fusion_lon": 0.0}, {"is_reserved": 0, "type": "electric_scooter", "fusion_lat": 0.0, "is_disabled": 0, "rental_uris": {"ios": "https://dc.lft.to/lastmile_qr_scan", "android": "https://dc.lft.to/lastmile_qr_scan"}, "bike_id": "ce62d31e6010faa7a715d6e6311b3aae", "lat": 38.933921, "name": "ce62d31e6010faa7a715d6e6311b3aae", "lon": -77.0738505, "fusion_lon": 0.0}, {"is_reserved": 0, "type": "electric_scooter", "fusion_lat": 0.0, "is_disabled": 0, "rental_uris": {"ios": "https://dc.lft.to/lastmile_qr_scan", "android": "https://dc.lft.to/lastmile_qr_scan"}, "bike_id": "365195b96bf3cb4e83cfac8ea5cbb58c", "lat": 38.916966333333335, "name": "365195b96bf3cb4e83cfac8ea5cbb58c", "lon": -77.03214233333334, "fusion_lon": 0.0}, {"is_reserved": 0, "type": "electric_scooter", "fusion_lat": 0.0, "is_disabled": 0, "rental_uris": {"ios": "https://dc.lft.to/lastmile_qr_scan", "android": "https://dc.lft.to/lastmile_qr_scan"}, "bike_id": "8ab6109f58d89e9a8e1c632ced150e44", "lat": 38.90678366666667, "name": "8ab6109f58d89e9a8e1c632ced150e44", "lon": -77.04876766666666, "fusion_lon": 0.0}, {"is_reserved": 0, "type": "electric_scooter", "fusion_lat": 0.0, "is_disabled": 0, "rental_uris": {"ios": "https://dc.lft.to/lastmile_qr_scan", "android": "https://dc.lft.to/lastmile_qr_scan"}, "bike_id": "76e5c43a434124d83c746d95cd1ea459", "lat": 38.90075816666667, "name": "76e5c43a434124d83c746d95cd1ea459", "lon": -77.04349833333333, "fusion_lon": 0.0}, {"is_reserved": 0, "type": "electric_scooter", "fusion_lat": 0.0, "is_disabled": 0, "rental_uris": {"ios": "https://dc.lft.to/lastmile_qr_scan", "android": "https://dc.lft.to/lastmile_qr_scan"}, "bike_id": "280d38c993626862cef4d7803b645b05", "lat": 38.879551666666664, "name": "280d38c993626862cef4d7803b645b05", "lon": -77.0069255, "fusion_lon": 0.0}, {"is_reserved": 0, "type": "electric_scooter", "fusion_lat": 0.0, "is_disabled": 0, "rental_uris": {"ios": "https://dc.lft.to/lastmile_qr_scan", "android": "https://dc.lft.to/lastmile_qr_scan"}, "bike_id": "d712a247c970e33fc635aad94d5b5b53", "lat": 38.90244, "name": "d712a247c970e33fc635aad94d5b5b53", "lon": -77.027681, "fusion_lon": 0.0}, {"is_reserved": 0, "type": "electric_scooter", "fusion_lat": 0.0, "is_disabled": 0, "rental_uris": {"ios": "https://dc.lft.to/lastmile_qr_scan", "android": "https://dc.lft.to/lastmile_qr_scan"}, "bike_id": "24b23014aa0d996136c258d9f842709e", "lat": 38.918577666666664, "name": "24b23014aa0d996136c258d9f842709e", "lon": -77.02601633333333, "fusion_lon": 0.0}, {"is_reserved": 0, "type": "electric_bike", "fusion_lat": 0.0, "is_disabled": 0, "rental_uris": {"ios": "https://dc.lft.to/lastmile_qr_scan", "android": "https://dc.lft.to/lastmile_qr_scan"}, "bike_id": "cc58324063327e20c6157ed3332d7f5a", "lat": 38.9256565, "name": "cc58324063327e20c6157ed3332d7f5a", "lon": -77.04036433333333, "fusion_lon": 0.0}, {"is_reserved": 0, "type": "electric_scooter", "fusion_lat": 0.0, "is_disabled": 0, "rental_uris": {"ios": "https://dc.lft.to/lastmile_qr_scan", "android": "https://dc.lft.to/lastmile_qr_scan"}, "bike_id": "a6666d13016f7c98b157b43f21a7ce8e", "lat": 38.92313383333333, "name": "a6666d13016f7c98b157b43f21a7ce8e", "lon": -77.04510333333333, "fusion_lon": 0.0}, {"is_reserved": 0, "type": "electric_scooter", "fusion_lat": 0.0, "is_disabled": 0, "rental_uris": {"ios": "https://dc.lft.to/lastmile_qr_scan", "android": "https://dc.lft.to/lastmile_qr_scan"}, "bike_id": "05c8ae926b9cc0195954e615875eaef9", "lat": 38.921022666666666, "name": "05c8ae926b9cc0195954e615875eaef9", "lon": -77.030405, "fusion_lon": 0.0}, {"is_reserved": 0, "type": "electric_scooter", "fusion_lat": 0.0, "is_disabled": 0, "rental_uris": {"ios": "https://dc.lft.to/lastmile_qr_scan", "android": "https://dc.lft.to/lastmile_qr_scan"}, "bike_id": "aeee35318e1bfa4f3088a2e463034b53", "lat": 38.915035833333334, "name": "aeee35318e1bfa4f3088a2e463034b53", "lon": -77.03218033333333, "fusion_lon": 0.0}, {"is_reserved": 0, "type": "electric_scooter", "fusion_lat": 0.0, "is_disabled": 0, "rental_uris": {"ios": "https://dc.lft.to/lastmile_qr_scan", "android": "https://dc.lft.to/lastmile_qr_scan"}, "bike_id": "f07257c4bd266819c3674d3c1ea27e1f", "lat": 38.914726, "name": "f07257c4bd266819c3674d3c1ea27e1f", "lon": -77.018552, "fusion_lon": 0.0}, {"is_reserved": 0, "type": "electric_scooter", "fusion_lat": 0.0, "is_disabled": 0, "rental_uris": {"ios": "https://dc.lft.to/lastmile_qr_scan", "android": "https://dc.lft.to/lastmile_qr_scan"}, "bike_id": "2276335c8be1bd3776e3e3f438234d61", "lat": 38.909729, "name": "2276335c8be1bd3776e3e3f438234d61", "lon": -77.02206083333333, "fusion_lon": 0.0}, {"is_reserved": 0, "type": "electric_scooter", "fusion_lat": 0.0, "is_disabled": 0, "rental_uris": {"ios": "https://dc.lft.to/lastmile_qr_scan", "android": "https://dc.lft.to/lastmile_qr_scan"}, "bike_id": "31c7d3d1be412818b5bd57d7d942c505", "lat": 38.923200333333334, "name": "31c7d3d1be412818b5bd57d7d942c505", "lon": -77.01951216666667, "fusion_lon": 0.0}, {"is_reserved": 0, "type": "electric_scooter", "fusion_lat": 0.0, "is_disabled": 0, "rental_uris": {"ios": "https://dc.lft.to/lastmile_qr_scan", "android": "https://dc.lft.to/lastmile_qr_scan"}, "bike_id": "1d45ec31efb184621ccda33d6de5e69b", "lat": 38.91828366666667, "name": "1d45ec31efb184621ccda33d6de5e69b", "lon": -77.02419683333333, "fusion_lon": 0.0}, {"is_reserved": 0, "type": "electric_scooter", "fusion_lat": 0.0, "is_disabled": 0, "rental_uris": {"ios": "https://dc.lft.to/lastmile_qr_scan", "android": "https://dc.lft.to/lastmile_qr_scan"}, "bike_id": "509d0fbf2579a10cff0a209a8856e983", "lat": 38.93659683333333, "name": "509d0fbf2579a10cff0a209a8856e983", "lon": -77.02133683333334, "fusion_lon": 0.0}, {"is_reserved": 0, "type": "electric_scooter", "fusion_lat": 0.0, "is_disabled": 0, "rental_uris": {"ios": "https://dc.lft.to/lastmile_qr_scan", "android": "https://dc.lft.to/lastmile_qr_scan"}, "bike_id": "660002c02e8c435bb85dd4227d4a973e", "lat": 38.936339, "name": "660002c02e8c435bb85dd4227d4a973e", "lon": -77.0326485, "fusion_lon": 0.0}, {"is_reserved": 0, "type": "electric_scooter", "fusion_lat": 0.0, "is_disabled": 0, "rental_uris": {"ios": "https://dc.lft.to/lastmile_qr_scan", "android": "https://dc.lft.to/lastmile_qr_scan"}, "bike_id": "80143cee18e860c91c0ab71e0f0a7dcb", "lat": 38.92746966666667, "name": "80143cee18e860c91c0ab71e0f0a7dcb", "lon": -77.026182, "fusion_lon": 0.0}, {"is_reserved": 0, "type": "electric_scooter", "fusion_lat": 0.0, "is_disabled": 0, "rental_uris": {"ios": "https://dc.lft.to/lastmile_qr_scan", "android": "https://dc.lft.to/lastmile_qr_scan"}, "bike_id": "c617fb83a96dbbdefa119bf4ac06d2cb", "lat": 38.931848333333335, "name": "c617fb83a96dbbdefa119bf4ac06d2cb", "lon": -77.019603, "fusion_lon": 0.0}, {"is_reserved": 0, "type": "electric_scooter", "fusion_lat": 0.0, "is_disabled": 0, "rental_uris": {"ios": "https://dc.lft.to/lastmile_qr_scan", "android": "https://dc.lft.to/lastmile_qr_scan"}, "bike_id": "38217be9c79f2ec1a4998f102ec5d392", "lat": 38.92479766666666, "name": "38217be9c79f2ec1a4998f102ec5d392", "lon": -77.02633183333333, "fusion_lon": 0.0}, {"is_reserved": 0, "type": "electric_scooter", "fusion_lat": 0.0, "is_disabled": 0, "rental_uris": {"ios": "https://dc.lft.to/lastmile_qr_scan", "android": "https://dc.lft.to/lastmile_qr_scan"}, "bike_id": "d503466066e62eda8e75f862018159ea", "lat": 38.930804333333334, "name": "d503466066e62eda8e75f862018159ea", "lon": -77.07765216666667, "fusion_lon": 0.0}, {"is_reserved": 0, "type": "electric_bike", "fusion_lat": 0.0, "is_disabled": 0, "rental_uris": {"ios": "https://dc.lft.to/lastmile_qr_scan", "android": "https://dc.lft.to/lastmile_qr_scan"}, "bike_id": "597ab3a30ab5c19169733966a56161ba", "lat": 38.947297, "name": "597ab3a30ab5c19169733966a56161ba", "lon": -76.99584116666666, "fusion_lon": 0.0}, {"is_reserved": 0, "type": "electric_scooter", "fusion_lat": 0.0, "is_disabled": 0, "rental_uris": {"ios": "https://dc.lft.to/lastmile_qr_scan", "android": "https://dc.lft.to/lastmile_qr_scan"}, "bike_id": "770ead03491130ed13051c045acf09fa", "lat": 38.87644, "name": "770ead03491130ed13051c045acf09fa", "lon": -77.01578383333333, "fusion_lon": 0.0}, {"is_reserved": 0, "type": "electric_bike", "fusion_lat": 0.0, "is_disabled": 0, "rental_uris": {"ios": "https://dc.lft.to/lastmile_qr_scan", "android": "https://dc.lft.to/lastmile_qr_scan"}, "bike_id": "46880e94868f8eb961efa6615dffbc45", "lat": 38.9950035, "name": "46880e94868f8eb961efa6615dffbc45", "lon": -77.001362, "fusion_lon": 0.0}, {"is_reserved": 0, "type": "electric_scooter", "fusion_lat": 0.0, "is_disabled": 0, "rental_uris": {"ios": "https://dc.lft.to/lastmile_qr_scan", "android": "https://dc.lft.to/lastmile_qr_scan"}, "bike_id": "0d41fb6b954b81f4581751e4116a511d", "lat": 38.930159833333335, "name": "0d41fb6b954b81f4581751e4116a511d", "lon": -77.04045116666667, "fusion_lon": 0.0}, {"is_reserved": 0, "type": "electric_scooter", "fusion_lat": 0.0, "is_disabled": 0, "rental_uris": {"ios": "https://dc.lft.to/lastmile_qr_scan", "android": "https://dc.lft.to/lastmile_qr_scan"}, "bike_id": "08ce3f0c5dafa355f85aa50462d5af80", "lat": 38.937891, "name": "08ce3f0c5dafa355f85aa50462d5af80", "lon": -77.03263133333333, "fusion_lon": 0.0}, {"is_reserved": 0, "type": "electric_scooter", "fusion_lat": 0.0, "is_disabled": 0, "rental_uris": {"ios": "https://dc.lft.to/lastmile_qr_scan", "android": "https://dc.lft.to/lastmile_qr_scan"}, "bike_id": "8bb4959ca9e719c74dc933a76d5d6a2a", "lat": 38.898326, "name": "8bb4959ca9e719c74dc933a76d5d6a2a", "lon": -77.05013333333333, "fusion_lon": 0.0}, {"is_reserved": 0, "type": "electric_scooter", "fusion_lat": 0.0, "is_disabled": 0, "rental_uris": {"ios": "https://dc.lft.to/lastmile_qr_scan", "android": "https://dc.lft.to/lastmile_qr_scan"}, "bike_id": "181ff5b12441de3bbd58e4139755ed0b", "lat": 38.9191865, "name": "181ff5b12441de3bbd58e4139755ed0b", "lon": -77.04808633333333, "fusion_lon": 0.0}, {"is_reserved": 0, "type": "electric_scooter", "fusion_lat": 0.0, "is_disabled": 0, "rental_uris": {"ios": "https://dc.lft.to/lastmile_qr_scan", "android": "https://dc.lft.to/lastmile_qr_scan"}, "bike_id": "bc1cbb18866b10b5e56c94cb8cb01191", "lat": 38.883608833333334, "name": "bc1cbb18866b10b5e56c94cb8cb01191", "lon": -76.9278925, "fusion_lon": 0.0}, {"is_reserved": 0, "type": "electric_scooter", "fusion_lat": 0.0, "is_disabled": 0, "rental_uris": {"ios": "https://dc.lft.to/lastmile_qr_scan", "android": "https://dc.lft.to/lastmile_qr_scan"}, "bike_id": "675f7a68e79893b3302cbbc3e0e8968a", "lat": 38.91651816666667, "name": "675f7a68e79893b3302cbbc3e0e8968a", "lon": -77.0217925, "fusion_lon": 0.0}, {"is_reserved": 0, "type": "electric_scooter", "fusion_lat": 0.0, "is_disabled": 0, "rental_uris": {"ios": "https://dc.lft.to/lastmile_qr_scan", "android": "https://dc.lft.to/lastmile_qr_scan"}, "bike_id": "9265bcba967a24e39192ead895924374", "lat": 38.9018925, "name": "9265bcba967a24e39192ead895924374", "lon": -76.934673, "fusion_lon": 0.0}, {"is_reserved": 0, "type": "electric_scooter", "fusion_lat": 0.0, "is_disabled": 0, "rental_uris": {"ios": "https://dc.lft.to/lastmile_qr_scan", "android": "https://dc.lft.to/lastmile_qr_scan"}, "bike_id": "136a1e23ac171c5eed08da266807bd7d", "lat": 38.931921, "name": "136a1e23ac171c5eed08da266807bd7d", "lon": -77.01989516666667, "fusion_lon": 0.0}, {"is_reserved": 0, "type": "electric_scooter", "fusion_lat": 0.0, "is_disabled": 0, "rental_uris": {"ios": "https://dc.lft.to/lastmile_qr_scan", "android": "https://dc.lft.to/lastmile_qr_scan"}, "bike_id": "61838dc61b980faab0130a23f66caaae", "lat": 38.8818015, "name": "61838dc61b980faab0130a23f66caaae", "lon": -77.017699, "fusion_lon": 0.0}, {"is_reserved": 0, "type": "electric_scooter", "fusion_lat": 0.0, "is_disabled": 0, "rental_uris": {"ios": "https://dc.lft.to/lastmile_qr_scan", "android": "https://dc.lft.to/lastmile_qr_scan"}, "bike_id": "9870ea59ef547acef02209b881c207d4", "lat": 38.89012616666667, "name": "9870ea59ef547acef02209b881c207d4", "lon": -77.0332145, "fusion_lon": 0.0}, {"is_reserved": 0, "type": "electric_scooter", "fusion_lat": 0.0, "is_disabled": 0, "rental_uris": {"ios": "https://dc.lft.to/lastmile_qr_scan", "android": "https://dc.lft.to/lastmile_qr_scan"}, "bike_id": "7fee42b6b0b74366fd6eb72b7d8a9649", "lat": 38.88612033333333, "name": "7fee42b6b0b74366fd6eb72b7d8a9649", "lon": -77.00334, "fusion_lon": 0.0}, {"is_reserved": 0, "type": "electric_scooter", "fusion_lat": 0.0, "is_disabled": 0, "rental_uris": {"ios": "https://dc.lft.to/lastmile_qr_scan", "android": "https://dc.lft.to/lastmile_qr_scan"}, "bike_id": "b289f583f1a743af68ab9bf6523a42bd", "lat": 38.91052766666667, "name": "b289f583f1a743af68ab9bf6523a42bd", "lon": -77.04376516666666, "fusion_lon": 0.0}, {"is_reserved": 0, "type": "electric_scooter", "fusion_lat": 0.0, "is_disabled": 0, "rental_uris": {"ios": "https://dc.lft.to/lastmile_qr_scan", "android": "https://dc.lft.to/lastmile_qr_scan"}, "bike_id": "c4dc902c08e78f40b0c02f8d4e8577f8", "lat": 38.91914283333333, "name": "c4dc902c08e78f40b0c02f8d4e8577f8", "lon": -77.0116615, "fusion_lon": 0.0}, {"is_reserved": 0, "type": "electric_scooter", "fusion_lat": 0.0, "is_disabled": 0, "rental_uris": {"ios": "https://dc.lft.to/lastmile_qr_scan", "android": "https://dc.lft.to/lastmile_qr_scan"}, "bike_id": "c10843ba4dba59a0dca8b8eb2a409166", "lat": 38.89879416666667, "name": "c10843ba4dba59a0dca8b8eb2a409166", "lon": -77.046615, "fusion_lon": 0.0}, {"is_reserved": 0, "type": "electric_scooter", "fusion_lat": 0.0, "is_disabled": 0, "rental_uris": {"ios": "https://dc.lft.to/lastmile_qr_scan", "android": "https://dc.lft.to/lastmile_qr_scan"}, "bike_id": "348d0af5a74996a7a840f59e5acbea19", "lat": 38.89434766666667, "name": "348d0af5a74996a7a840f59e5acbea19", "lon": -77.0447555, "fusion_lon": 0.0}, {"is_reserved": 0, "type": "electric_scooter", "fusion_lat": 0.0, "is_disabled": 0, "rental_uris": {"ios": "https://dc.lft.to/lastmile_qr_scan", "android": "https://dc.lft.to/lastmile_qr_scan"}, "bike_id": "f468a41ee9e2324f92eaffc5eb05200d", "lat": 38.927907833333336, "name": "f468a41ee9e2324f92eaffc5eb05200d", "lon": -77.03149533333334, "fusion_lon": 0.0},