{"data": {"bikes": [{"lon": -77.02182683333334, "bike_id": "0277d36d9e011984d03de38d00270262", "lat": 38.920139, "fusion_lon": 0.0, "fusion_lat": 0.0, "type": "electric_scooter", "name": "0277d36d9e011984d03de38d00270262", "is_disabled": 0, "rental_uris": {"ios": "https://dc.lft.to/lastmile_qr_scan", "android": "https://dc.lft.to/lastmile_qr_scan"}, "is_reserved": 0}, {"lon": -77.0363845, "bike_id": "c1c30372afbcb0fbfdf6d599c13f735f", "lat": 38.931771166666664, "fusion_lon": 0.0, "fusion_lat": 0.0, "type": "electric_scooter", "name": "c1c30372afbcb0fbfdf6d599c13f735f", "is_disabled": 0, "rental_uris": {"ios": "https://dc.lft.to/lastmile_qr_scan", "android": "https://dc.lft.to/lastmile_qr_scan"}, "is_reserved": 0}, {"lon": -77.047249, "bike_id": "673dd47a9441512850d6ff0d52231a29", "lat": 38.91125483333333, "fusion_lon": 0.0, "fusion_lat": 0.0, "type": "electric_scooter", "name": "673dd47a9441512850d6ff0d52231a29", "is_disabled": 0, "rental_uris": {"ios": "https://dc.lft.to/lastmile_qr_scan", "android": "https://dc.lft.to/lastmile_qr_scan"}, "is_reserved": 0}, {"lon": -77.01609316666666, "bike_id": "e51afc140f6df6cb1d036ebfb4c4f921", "lat": 38.91948283333333, "fusion_lon": 0.0, "fusion_lat": 0.0, "type": "electric_scooter", "name": "e51afc140f6df6cb1d036ebfb4c4f921", "is_disabled": 0, "rental_uris": {"ios": "https://dc.lft.to/lastmile_qr_scan", "android": "https://dc.lft.to/lastmile_qr_scan"}, "is_reserved": 0}, {"lon": -77.00346383333333, "bike_id": "5fcecb0eb80042fe071a9a1e2afa7ba4", "lat": 38.90277, "fusion_lon": 0.0, "fusion_lat": 0.0, "type": "electric_scooter", "name": "5fcecb0eb80042fe071a9a1e2afa7ba4", "is_disabled": 0, "rental_uris": {"ios": "https://dc.lft.to/lastmile_qr_scan", "android": "https://dc.lft.to/lastmile_qr_scan"}, "is_reserved": 0}, {"lon": -77.00091516666667, "bike_id": "5785fcb807fd2259fa4953d2e1c4850d", "lat": 38.90752533333333, "fusion_lon": 0.0, "fusion_lat": 0.0, "type": "electric_scooter", "name": "5785fcb807fd2259fa4953d2e1c4850d", "is_disabled": 0, "rental_uris": {"ios": "https://dc.lft.to/lastmile_qr_scan", "android": "https://dc.lft.to/lastmile_qr_scan"}, "is_reserved": 0}, {"lon": -77.02370366666666, "bike_id": "33d87944972ae1cbbc090c5093dc00bf", "lat": 38.920632, "fusion_lon": 0.0, "fusion_lat": 0.0, "type": "electric_scooter", "name": "33d87944972ae1cbbc090c5093dc00bf", "is_disabled": 0, "rental_uris": {"ios": "https://dc.lft.to/lastmile_qr_scan", "android": "https://dc.lft.to/lastmile_qr_scan"}, "is_reserved": 0}, {"lon": -76.94875816666666, "bike_id": "7f76f03dc705eefd0831ac069eb9b1cf", "lat": 38.8955075, "fusion_lon": 0.0, "fusion_lat": 0.0, "type": "electric_scooter", "name": "7f76f03dc705eefd0831ac069eb9b1cf", "is_disabled": 0, "rental_uris": {"ios": "https://dc.lft.to/lastmile_qr_scan", "android": "https://dc.lft.to/lastmile_qr_scan"}, "is_reserved": 0}, {"lon": -77.05084483333333, "bike_id": "f62b6aa361418adf21f441e3264c8e98", "lat": 38.89671466666667, "fusion_lon": 0.0, "fusion_lat": 0.0, "type": "electric_scooter", "name": "f62b6aa361418adf21f441e3264c8e98", "is_disabled": 0, "rental_uris": {"ios": "https://dc.lft.to/lastmile_qr_scan", "android": "https://dc.lft.to/lastmile_qr_scan"}, "is_reserved": 0}, {"lon": -77.03079583333333, "bike_id": "b897ef27cde642d34df2648b0cff41f4", "lat": 38.91028883333333, "fusion_lon": 0.0, "fusion_lat": 0.0, "type": "electric_scooter", "name": "b897ef27cde642d34df2648b0cff41f4", "is_disabled": 0, "rental_uris": {"ios": "https://dc.lft.to/lastmile_qr_scan", "android": "https://dc.lft.to/lastmile_qr_scan"}, "is_reserved": 0}, {"lon": -77.04874833333334, "bike_id": "408ffad2e66499d32adb7482ad744eb9", "lat": 38.903578, "fusion_lon": 0.0, "fusion_lat": 0.0, "type": "electric_scooter", "name": "408ffad2e66499d32adb7482ad744eb9", "is_disabled": 0, "rental_uris": {"ios": "https://dc.lft.to/lastmile_qr_scan", "android": "https://dc.lft.to/lastmile_qr_scan"}, "is_reserved": 0}, {"lon": -77.033511, "bike_id": "1edf5ee8832ccc241a82df724deaff97", "lat": 38.90282416666667, "fusion_lon": 0.0, "fusion_lat": 0.0, "type": "electric_scooter", "name": "1edf5ee8832ccc241a82df724deaff97", "is_disabled": 0, "rental_uris": {"ios": "https://dc.lft.to/lastmile_qr_scan", "android": "https://dc.lft.to/lastmile_qr_scan"}, "is_reserved": 0}, {"lon": -77.04302416666667, "bike_id": "b5cec0edc7a2b91c19f894451fb6cf0a", "lat": 38.908163, "fusion_lon": 0.0, "fusion_lat": 0.0, "type": "electric_scooter", "name": "b5cec0edc7a2b91c19f894451fb6cf0a", "is_disabled": 0, "rental_uris": {"ios": "https://dc.lft.to/lastmile_qr_scan", "android": "https://dc.lft.to/lastmile_qr_scan"}, "is_reserved": 0}, {"lon": -76.93735416666667, "bike_id": "680098b7855fb836dca92f79ba21ee87", "lat": 38.890119, "fusion_lon": 0.0, "fusion_lat": 0.0, "type": "electric_scooter", "name": "680098b7855fb836dca92f79ba21ee87", "is_disabled": 0, "rental_uris": {"ios": "https://dc.lft.to/lastmile_qr_scan", "android": "https://dc.lft.to/lastmile_qr_scan"}, "is_reserved": 0}, {"lon": -77.02957566666667, "bike_id": "6e83c2b1c13134681f9bfa4b95a9d515", "lat": 38.90523483333333, "fusion_lon": 0.0, "fusion_lat": 0.0, "type": "electric_scooter", "name": "6e83c2b1c13134681f9bfa4b95a9d515", "is_disabled": 0, "rental_uris": {"ios": "https://dc.lft.to/lastmile_qr_scan", "android": "https://dc.lft.to/lastmile_qr_scan"}, "is_reserved": 0}, {"lon": -77.0562425, "bike_id": "306ce95991541aa03ecb3a3ad65cfcc9", "lat": 38.96076933333333, "fusion_lon": 0.0, "fusion_lat": 0.0, "type": "electric_scooter", "name": "306ce95991541aa03ecb3a3ad65cfcc9", "is_disabled": 0, "rental_uris": {"ios": "https://dc.lft.to/lastmile_qr_scan", "android": "https://dc.lft.to/lastmile_qr_scan"}, "is_reserved": 0}, {"lon": -77.03468416666666, "bike_id": "81d498bd3c93d3c935415d59d05bc9b7", "lat": 38.90737566666667, "fusion_lon": 0.0, "fusion_lat": 0.0, "type": "electric_scooter", "name": "81d498bd3c93d3c935415d59d05bc9b7", "is_disabled": 0, "rental_uris": {"ios": "https://dc.lft.to/lastmile_qr_scan", "android": "https://dc.lft.to/lastmile_qr_scan"}, "is_reserved": 0}, {"lon": -77.0355395, "bike_id": "b6a40665582a68f130bc108bf65866aa", "lat": 38.92414333333333, "fusion_lon": 0.0, "fusion_lat": 0.0, "type": "electric_scooter", "name": "b6a40665582a68f130bc108bf65866aa", "is_disabled": 0, "rental_uris": {"ios": "https://dc.lft.to/lastmile_qr_scan", "android": "https://dc.lft.to/lastmile_qr_scan"}, "is_reserved": 0}, {"lon": -77.00382516666667, "bike_id": "51e3f9a1aa7f42513e7bbef3a389e69f", "lat": 38.8794275, "fusion_lon": 0.0, "fusion_lat": 0.0, "type": "electric_scooter", "name": "51e3f9a1aa7f42513e7bbef3a389e69f", "is_disabled": 0, "rental_uris": {"ios": "https://dc.lft.to/lastmile_qr_scan", "android": "https://dc.lft.to/lastmile_qr_scan"}, "is_reserved": 0}, {"lon": -77.13101916666666, "bike_id": "aca08c2f9452885f16f1e777cc09c649", "lat": 39.024404, "fusion_lon": 0.0, "fusion_lat": 0.0, "type": "electric_bike", "name": "aca08c2f9452885f16f1e777cc09c649", "is_disabled": 0, "rental_uris": {"ios": "https://dc.lft.to/lastmile_qr_scan", "android": "https://dc.lft.to/lastmile_qr_scan"}, "is_reserved": 0}, {"lon": -77.03834183333333, "bike_id": "34b7287ca594e2288decc6370e65c7d3", "lat": 38.914700333333336, "fusion_lon": 0.0, "fusion_lat": 0.0, "type": "electric_scooter", "name": "34b7287ca594e2288decc6370e65c7d3", "is_disabled": 0, "rental_uris": {"ios": "https://dc.lft.to/lastmile_qr_scan", "android": "https://dc.lft.to/lastmile_qr_scan"}, "is_reserved": 0}, {"lon": -77.03929266666667, "bike_id": "925d6ef177892b6b62f2940e902053dd", "lat": 38.92119016666667, "fusion_lon": 0.0, "fusion_lat": 0.0, "type": "electric_scooter", "name": "925d6ef177892b6b62f2940e902053dd", "is_disabled": 0, "rental_uris": {"ios": "https://dc.lft.to/lastmile_qr_scan", "android": "https://dc.lft.to/lastmile_qr_scan"}, "is_reserved": 0}, {"lon": -77.09595516666667, "bike_id": "c316698f1b7452c0943c4d46b20f7c1b", "lat": 39.0289195, "fusion_lon": 0.0, "fusion_lat": 0.0, "type": "electric_bike", "name": "c316698f1b7452c0943c4d46b20f7c1b", "is_disabled": 0, "rental_uris": {"ios": "https://dc.lft.to/lastmile_qr_scan", "android": "https://dc.lft.to/lastmile_qr_scan"}, "is_reserved": 0}, {"lon": -77.0111705, "bike_id": "dd464cbd729fe344095f3d11e27dff62", "lat": 38.885513833333334, "fusion_lon": 0.0, "fusion_lat": 0.0, "type": "electric_scooter", "name": "dd464cbd729fe344095f3d11e27dff62", "is_disabled": 0, "rental_uris": {"ios": "https://dc.lft.to/lastmile_qr_scan", "android": "https://dc.lft.to/lastmile_qr_scan"}, "is_reserved": 0}, {"lon": -77.02167233333333, "bike_id": "0da619f81214f17a60b0af19ff1760bc", "lat": 38.9002365, "fusion_lon": 0.0, "fusion_lat": 0.0, "type": "electric_scooter", "name": "0da619f81214f17a60b0af19ff1760bc", "is_disabled": 0, "rental_uris": {"ios": "https://dc.lft.to/lastmile_qr_scan", "android": "https://dc.lft.to/lastmile_qr_scan"}, "is_reserved": 0}, {"lon": -77.0431795, "bike_id": "0b83e9f5450b35e417a909678bb2088d", "lat": 38.9220295, "fusion_lon": 0.0, "fusion_lat": 0.0, "type": "electric_scooter", "name": "0b83e9f5450b35e417a909678bb2088d", "is_disabled": 0, "rental_uris": {"ios": "https://dc.lft.to/lastmile_qr_scan", "android": "https://dc.lft.to/lastmile_qr_scan"}, "is_reserved": 0}, {"lon": -77.00976716666666, "bike_id": "ec348054e26b220d322689608444414c", "lat": 38.9141125, "fusion_lon": 0.0, "fusion_lat": 0.0, "type": "electric_scooter", "name": "ec348054e26b220d322689608444414c", "is_disabled": 0, "rental_uris": {"ios": "https://dc.lft.to/lastmile_qr_scan", "android": "https://dc.lft.to/lastmile_qr_scan"}, "is_reserved": 0}, {"lon": -77.11607433333333, "bike_id": "23f780bb6b1a0a0e4d2d626cecc8e05e", "lat": 38.854901166666664, "fusion_lon": 0.0, "fusion_lat": 0.0, "type": "electric_bike", "name": "23f780bb6b1a0a0e4d2d626cecc8e05e", "is_disabled": 0, "rental_uris": {"ios": "https://dc.lft.to/lastmile_qr_scan", "android": "https://dc.lft.to/lastmile_qr_scan"}, "is_reserved": 0}, {"lon": -77.03132366666667, "bike_id": "fc91fd86e789014dc7f0f75b380e2a18", "lat": 38.92472583333333, "fusion_lon": 0.0, "fusion_lat": 0.0, "type": "electric_scooter", "name": "fc91fd86e789014dc7f0f75b380e2a18", "is_disabled": 0, "rental_uris": {"ios": "https://dc.lft.to/lastmile_qr_scan", "android": "https://dc.lft.to/lastmile_qr_scan"}, "is_reserved": 0}, {"lon": -77.03874266666666, "bike_id": "d22a87badb9309f9ee5878c15d5b2967", "lat": 38.91707066666667, "fusion_lon": 0.0, "fusion_lat": 0.0, "type": "electric_scooter", "name": "d22a87badb9309f9ee5878c15d5b2967", "is_disabled": 0, "rental_uris": {"ios": "https://dc.lft.to/lastmile_qr_scan", "android": "https://dc.lft.to/lastmile_qr_scan"}, "is_reserved": 0}, {"lon": -77.027152, "bike_id": "7f189376928ef1e6a7e13a952aaa7d41", "lat": 38.90671716666667, "fusion_lon": 0.0, "fusion_lat": 0.0, "type": "electric_scooter", "name": "7f189376928ef1e6a7e13a952aaa7d41", "is_disabled": 0, "rental_uris": {"ios": "https://dc.lft.to/lastmile_qr_scan", "android": "https://dc.lft.to/lastmile_qr_scan"}, "is_reserved": 0}, {"lon": -77.03877233333333, "bike_id": "a9fea329b4d0271196c5bc395ddfd280", "lat": 38.92239133333333, "fusion_lon": 0.0, "fusion_lat": 0.0, "type": "electric_scooter", "name": "a9fea329b4d0271196c5bc395ddfd280", "is_disabled": 0, "rental_uris": {"ios": "https://dc.lft.to/lastmile_qr_scan", "android": "https://dc.lft.to/lastmile_qr_scan"}, "is_reserved": 0}, {"lon": -77.0360045, "bike_id": "1d38ab31772ccac3021ce227ddf3ec90", "lat": 38.9269025, "fusion_lon": 0.0, "fusion_lat": 0.0, "type": "electric_scooter", "name": "1d38ab31772ccac3021ce227ddf3ec90", "is_disabled": 0, "rental_uris": {"ios": "https://dc.lft.to/lastmile_qr_scan", "android": "https://dc.lft.to/lastmile_qr_scan"}, "is_reserved": 0}, {"lon": -76.93749516666666, "bike_id": "66ed2cf3fb2eea2180d8446affb431be", "lat": 38.890571666666666, "fusion_lon": 0.0, "fusion_lat": 0.0, "type": "electric_scooter", "name": "66ed2cf3fb2eea2180d8446affb431be", "is_disabled": 0, "rental_uris": {"ios": "https://dc.lft.to/lastmile_qr_scan", "android": "https://dc.lft.to/lastmile_qr_scan"}, "is_reserved": 0}, {"lon": -77.07414483333334, "bike_id": "63d17baf960f98d11fe22ec5b8d8924b", "lat": 38.92886816666667, "fusion_lon": 0.0, "fusion_lat": 0.0, "type": "electric_scooter", "name": "63d17baf960f98d11fe22ec5b8d8924b", "is_disabled": 0, "rental_uris": {"ios": "https://dc.lft.to/lastmile_qr_scan", "android": "https://dc.lft.to/lastmile_qr_scan"}, "is_reserved": 0}, {"lon": -77.022643, "bike_id": "1655f77cdd7b598d814907f8f6268939", "lat": 38.927365333333334, "fusion_lon": 0.0, "fusion_lat": 0.0, "type": "electric_scooter", "name": "1655f77cdd7b598d814907f8f6268939", "is_disabled": 0, "rental_uris": {"ios": "https://dc.lft.to/lastmile_qr_scan", "android": "https://dc.lft.to/lastmile_qr_scan"}, "is_reserved": 0}, {"lon": -76.98912283333334, "bike_id": "29e3ce5f086a445aab3f3cbee5e58df0", "lat": 38.864942166666665, "fusion_lon": 0.0, "fusion_lat": 0.0, "type": "electric_scooter", "name": "29e3ce5f086a445aab3f3cbee5e58df0", "is_disabled": 0, "rental_uris": {"ios": "https://dc.lft.to/lastmile_qr_scan", "android": "https://dc.lft.to/lastmile_qr_scan"}, "is_reserved": 0}, {"lon": -76.93482316666666, "bike_id": "99e5cfe67ffb6b8a192d92916bcde3ed", "lat": 38.90584616666666, "fusion_lon": 0.0, "fusion_lat": 0.0, "type": "electric_scooter", "name": "99e5cfe67ffb6b8a192d92916bcde3ed", "is_disabled": 0, "rental_uris": {"ios": "https://dc.lft.to/lastmile_qr_scan", "android": "https://dc.lft.to/lastmile_qr_scan"}, "is_reserved": 0}, {"lon": -77.09044433333334, "bike_id": "ac2f278b8f153515d26deeab57c4a6f0", "lat": 38.849753666666665, "fusion_lon": 0.0, "fusion_lat": 0.0, "type": "electric_bike", "name": "ac2f278b8f153515d26deeab57c4a6f0", "is_disabled": 0, "rental_uris": {"ios": "https://dc.lft.to/lastmile_qr_scan", "android": "https://dc.lft.to/lastmile_qr_scan"}, "is_reserved": 0}, {"lon": -77.00310583333334, "bike_id": "0065e180c704d05415aad048cbb88763", "lat": 38.909009166666664, "fusion_lon": 0.0, "fusion_lat": 0.0, "type": "electric_scooter", "name": "0065e180c704d05415aad048cbb88763", "is_disabled": 0, "rental_uris": {"ios": "https://dc.lft.to/lastmile_qr_scan", "android": "https://dc.lft.to/lastmile_qr_scan"}, "is_reserved": 0}, {"lon": -77.039921, "bike_id": "22e08f987ff7e7c2374560301a4a9d2e", "lat": 38.93435683333333, "fusion_lon": 0.0, "fusion_lat": 0.0, "type": "electric_scooter", "name": "22e08f987ff7e7c2374560301a4a9d2e", "is_disabled": 0, "rental_uris": {"ios": "https://dc.lft.to/lastmile_qr_scan", "android": "https://dc.lft.to/lastmile_qr_scan"}, "is_reserved": 0}, {"lon": -76.94593583333334, "bike_id": "e7f65f2a551652dd0ed77892a47170ab", "lat": 38.901508166666666, "fusion_lon": 0.0, "fusion_lat": 0.0, "type": "electric_scooter", "name": "e7f65f2a551652dd0ed77892a47170ab", "is_disabled": 0, "rental_uris": {"ios": "https://dc.lft.to/lastmile_qr_scan", "android": "https://dc.lft.to/lastmile_qr_scan"}, "is_reserved": 0}, {"lon": -77.02943416666666, "bike_id": "63c2af7f234f84b0754df2b76a56f5ee", "lat": 38.90775683333333, "fusion_lon": 0.0, "fusion_lat": 0.0, "type": "electric_scooter", "name": "63c2af7f234f84b0754df2b76a56f5ee", "is_disabled": 0, "rental_uris": {"ios": "https://dc.lft.to/lastmile_qr_scan", "android": "https://dc.lft.to/lastmile_qr_scan"}, "is_reserved": 0}, {"lon": -77.042844, "bike_id": "880d595228c00f17baa2f216c1073ff5", "lat": 38.905470666666666, "fusion_lon": 0.0, "fusion_lat": 0.0, "type": "electric_scooter", "name": "880d595228c00f17baa2f216c1073ff5", "is_disabled": 0, "rental_uris": {"ios": "https://dc.lft.to/lastmile_qr_scan", "android": "https://dc.lft.to/lastmile_qr_scan"}, "is_reserved": 0}, {"lon": -77.0280635, "bike_id": "40baf48952fd75c1bb1f060a040899fb", "lat": 38.930815333333335, "fusion_lon": 0.0, "fusion_lat": 0.0, "type": "electric_scooter", "name": "40baf48952fd75c1bb1f060a040899fb", "is_disabled": 0, "rental_uris": {"ios": "https://dc.lft.to/lastmile_qr_scan", "android": "https://dc.lft.to/lastmile_qr_scan"}, "is_reserved": 0}, {"lon": -76.9899785, "bike_id": "c8a88bf94b3ab830b5b571132781956a", "lat": 38.8643055, "fusion_lon": 0.0, "fusion_lat": 0.0, "type": "electric_scooter", "name": "c8a88bf94b3ab830b5b571132781956a", "is_disabled": 0, "rental_uris": {"ios": "https://dc.lft.to/lastmile_qr_scan", "android": "https://dc.lft.to/lastmile_qr_scan"}, "is_reserved": 0}, {"lon": -77.0447485, "bike_id": "a29fb1bd79b5e0fb7357c43ae876ab25", "lat": 38.9153805, "fusion_lon": 0.0, "fusion_lat": 0.0, "type": "electric_scooter", "name": "a29fb1bd79b5e0fb7357c43ae876ab25", "is_disabled": 0, "rental_uris": {"ios": "https://dc.lft.to/lastmile_qr_scan", "android": "https://dc.lft.to/lastmile_qr_scan"}, "is_reserved": 0}, {"lon": -77.05355783333333, "bike_id": "ed69a409fe0a7f90de95d36db0c755a1", "lat": 38.903581, "fusion_lon": 0.0, "fusion_lat": 0.0, "type": "electric_scooter", "name": "ed69a409fe0a7f90de95d36db0c755a1", "is_disabled": 0, "rental_uris": {"ios": "https://dc.lft.to/lastmile_qr_scan", "android": "https://dc.lft.to/lastmile_qr_scan"}, "is_reserved": 0}, {"lon": -77.02302316666666, "bike_id": "7c52748272a924b3b114bbb8252bfd5f", "lat": 38.92837433333333, "fusion_lon": 0.0, "fusion_lat": 0.0, "type": "electric_scooter", "name": "7c52748272a924b3b114bbb8252bfd5f", "is_disabled": 0, "rental_uris": {"ios": "https://dc.lft.to/lastmile_qr_scan", "android": "https://dc.lft.to/lastmile_qr_scan"}, "is_reserved": 0}, {"lon": -76.980628, "bike_id": "40f19459cb404505585a909540961474", "lat": 38.884978, "fusion_lon": 0.0, "fusion_lat": 0.0, "type": "electric_scooter", "name": "40f19459cb404505585a909540961474", "is_disabled": 0, "rental_uris": {"ios": "https://dc.lft.to/lastmile_qr_scan", "android": "https://dc.lft.to/lastmile_qr_scan"}, "is_reserved": 0}, {"lon": -77.03537183333333, "bike_id": "ba9fde8f78de20b862cd63c50b27122e", "lat": 38.923469, "fusion_lon": 0.0, "fusion_lat": 0.0, "type": "electric_scooter", "name": "ba9fde8f78de20b862cd63c50b27122e", "is_disabled": 0, "rental_uris": {"ios": "https://dc.lft.to/lastmile_qr_scan", "android": "https://dc.lft.to/lastmile_qr_scan"}, "is_reserved": 0}, {"lon": -76.97395816666666, "bike_id": "7ea0f00c65447a13fc7e6826e50f0cc4", "lat": 38.90297966666667, "fusion_lon": 0.0, "fusion_lat": 0.0, "type": "electric_scooter", "name": "7ea0f00c65447a13fc7e6826e50f0cc4", "is_disabled": 0, "rental_uris": {"ios": "https://dc.lft.to/lastmile_qr_scan", "android": "https://dc.lft.to/lastmile_qr_scan"}, "is_reserved": 0}, {"lon": -77.0281965, "bike_id": "a8854b64b390f2caedcd21c368a9780c", "lat": 38.902406, "fusion_lon": 0.0, "fusion_lat": 0.0, "type": "electric_scooter", "name": "a8854b64b390f2caedcd21c368a9780c", "is_disabled": 0, "rental_uris": {"ios": "https://dc.lft.to/lastmile_qr_scan", "android": "https://dc.lft.to/lastmile_qr_scan"}, "is_reserved": 0}, {"lon": -77.0162875, "bike_id": "d0bc02f79e3da66738e16bf984149afc", "lat": 38.903851, "fusion_lon": 0.0, "fusion_lat": 0.0, "type": "electric_scooter", "name": "d0bc02f79e3da66738e16bf984149afc", "is_disabled": 0, "rental_uris": {"ios": "https://dc.lft.to/lastmile_qr_scan", "android": "https://dc.lft.to/lastmile_qr_scan"}, "is_reserved": 0}, {"lon": -77.02195283333333, "bike_id": "2d63dccbb4bd89985076e916e4468606", "lat": 38.911376833333335, "fusion_lon": 0.0, "fusion_lat": 0.0, "type": "electric_scooter", "name": "2d63dccbb4bd89985076e916e4468606", "is_disabled": 0, "rental_uris": {"ios": "https://dc.lft.to/lastmile_qr_scan", "android": "https://dc.lft.to/lastmile_qr_scan"}, "is_reserved": 0}, {"lon": -77.02457266666667, "bike_id": "237ae841d188d9e91f99587ec0fd61cf", "lat": 38.937092666666665, "fusion_lon": 0.0, "fusion_lat": 0.0, "type": "electric_scooter", "name": "237ae841d188d9e91f99587ec0fd61cf", "is_disabled": 0, "rental_uris": {"ios": "https://dc.lft.to/lastmile_qr_scan", "android": "https://dc.lft.to/lastmile_qr_scan"}, "is_reserved": 0}, {"lon": -77.01815433333333, "bike_id": "248e2498456524257d4e323b01a9c4b9", "lat": 38.93047383333333, "fusion_lon": 0.0, "fusion_lat": 0.0, "type": "electric_scooter", "name": "248e2498456524257d4e323b01a9c4b9", "is_disabled": 0, "rental_uris": {"ios": "https://dc.lft.to/lastmile_qr_scan", "android": "https://dc.lft.to/lastmile_qr_scan"}, "is_reserved": 0}, {"lon": -77.0393505, "bike_id": "31af0ab75469c1250f0b59401e400ad6", "lat": 38.91571966666667, "fusion_lon": 0.0, "fusion_lat": 0.0, "type": "electric_scooter", "name": "31af0ab75469c1250f0b59401e400ad6", "is_disabled": 0, "rental_uris": {"ios": "https://dc.lft.to/lastmile_qr_scan", "android": "https://dc.lft.to/lastmile_qr_scan"}, "is_reserved": 0}, {"lon": -77.03269566666667, "bike_id": "96f8fef39d6b71ff27e52067c272934e", "lat": 38.9344795, "fusion_lon": 0.0, "fusion_lat": 0.0, "type": "electric_scooter", "name": "96f8fef39d6b71ff27e52067c272934e", "is_disabled": 0, "rental_uris": {"ios": "https://dc.lft.to/lastmile_qr_scan", "android": "https://dc.lft.to/lastmile_qr_scan"}, "is_reserved": 0}, {"lon": -77.06388733333333, "bike_id": "d71cb81cc09fd98ca49634c32b31e84e", "lat": 38.94325416666667, "fusion_lon": 0.0, "fusion_lat": 0.0, "type": "electric_scooter", "name": "d71cb81cc09fd98ca49634c32b31e84e", "is_disabled": 0, "rental_uris": {"ios": "https://dc.lft.to/lastmile_qr_scan", "android": "https://dc.lft.to/lastmile_qr_scan"}, "is_reserved": 0}, {"lon": -77.04120033333334, "bike_id": "855c7d76e9ddf6e72e518d85c56ce218", "lat": 38.90743833333333, "fusion_lon": 0.0, "fusion_lat": 0.0, "type": "electric_scooter", "name": "855c7d76e9ddf6e72e518d85c56ce218", "is_disabled": 0, "rental_uris": {"ios": "https://dc.lft.to/lastmile_qr_scan", "android": "https://dc.lft.to/lastmile_qr_scan"}, "is_reserved": 0}, {"lon": -76.99037316666667, "bike_id": "277692e4c3b0c1855df5dee478d43053", "lat": 38.863785, "fusion_lon": 0.0, "fusion_lat": 0.0, "type": "electric_scooter", "name": "277692e4c3b0c1855df5dee478d43053", "is_disabled": 0, "rental_uris": {"ios": "https://dc.lft.to/lastmile_qr_scan", "android": "https://dc.lft.to/lastmile_qr_scan"}, "is_reserved": 0}, {"lon": -77.03848116666667, "bike_id": "2302f9de76ad15ebe7c557e4b381edb2", "lat": 38.916649166666666, "fusion_lon": 0.0, "fusion_lat": 0.0, "type": "electric_scooter", "name": "2302f9de76ad15ebe7c557e4b381edb2", "is_disabled": 0, "rental_uris": {"ios": "https://dc.lft.to/lastmile_qr_scan", "android": "https://dc.lft.to/lastmile_qr_scan"}, "is_reserved": 0}, {"lon": -77.04166766666667, "bike_id": "acca021f4282576cdc22067d95e0947b", "lat": 38.9194215, "fusion_lon": 0.0, "fusion_lat": 0.0, "type": "electric_scooter", "name": "acca021f4282576cdc22067d95e0947b", "is_disabled": 0, "rental_uris": {"ios": "https://dc.lft.to/lastmile_qr_scan", "android": "https://dc.lft.to/lastmile_qr_scan"}, "is_reserved": 0}, {"lon": -76.92199433333333, "bike_id": "fbdb1e755cdc23cadb95cea9a802e57d", "lat": 38.8950225, "fusion_lon": 0.0, "fusion_lat": 0.0, "type": "electric_bike", "name": "fbdb1e755cdc23cadb95cea9a802e57d", "is_disabled": 0, "rental_uris": {"ios": "https://dc.lft.to/lastmile_qr_scan", "android": "https://dc.lft.to/lastmile_qr_scan"}, "is_reserved": 0}, {"lon": -77.00326683333333, "bike_id": "029b8bcedb5300c667ec45fd8cefb7ca", "lat": 38.902647, "fusion_lon": 0.0, "fusion_lat": 0.0, "type": "electric_scooter", "name": "029b8bcedb5300c667ec45fd8cefb7ca", "is_disabled": 0, "rental_uris": {"ios": "https://dc.lft.to/lastmile_qr_scan", "android": "https://dc.lft.to/lastmile_qr_scan"}, "is_reserved": 0}, {"lon": -77.0246835, "bike_id": "e9895876f944a0926b00ec1111d2ec70", "lat": 38.9309625, "fusion_lon": 0.0, "fusion_lat": 0.0, "type": "electric_scooter", "name": "e9895876f944a0926b00ec1111d2ec70", "is_disabled": 0, "rental_uris": {"ios": "https://dc.lft.to/lastmile_qr_scan", "android": "https://dc.lft.to/lastmile_qr_scan"}, "is_reserved": 0}, {"lon": -77.0228005, "bike_id": "41d233f3c153616ed85f1a82eafd5ab4", "lat": 38.909597833333336, "fusion_lon": 0.0, "fusion_lat": 0.0, "type": "electric_scooter", "name": "41d233f3c153616ed85f1a82eafd5ab4", "is_disabled": 0, "rental_uris": {"ios": "https://dc.lft.to/lastmile_qr_scan", "android": "https://dc.lft.to/lastmile_qr_scan"}, "is_reserved": 0}, {"lon": -77.03187066666666, "bike_id": "8c1aa9afdf1fd37884a7330ebb9b1cc9", "lat": 38.911781833333336, "fusion_lon": 0.0, "fusion_lat": 0.0, "type": "electric_scooter", "name": "8c1aa9afdf1fd37884a7330ebb9b1cc9", "is_disabled": 0, "rental_uris": {"ios": "https://dc.lft.to/lastmile_qr_scan", "android": "https://dc.lft.to/lastmile_qr_scan"}, "is_reserved": 0}, {"lon": -77.00082466666667, "bike_id": "973088c5247eb358dfcfeb23b5126f2e", "lat": 38.894781, "fusion_lon": 0.0, "fusion_lat": 0.0, "type": "electric_scooter", "name": "973088c5247eb358dfcfeb23b5126f2e", "is_disabled": 0, "rental_uris": {"ios": "https://dc.lft.to/lastmile_qr_scan", "android": "https://dc.lft.to/lastmile_qr_scan"}, "is_reserved": 0}, {"lon": -76.9902835, "bike_id": "82b5f01f45561cea2ebe25e28f0193f4", "lat": 38.902939833333335, "fusion_lon": 0.0, "fusion_lat": 0.0, "type": "electric_scooter", "name": "82b5f01f45561cea2ebe25e28f0193f4", "is_disabled": 0, "rental_uris": {"ios": "https://dc.lft.to/lastmile_qr_scan", "android": "https://dc.lft.to/lastmile_qr_scan"}, "is_reserved": 0}, {"lon": -77.01081166666667, "bike_id": "004b148dedc3092282b0056ef9201e85", "lat": 38.907849, "fusion_lon": 0.0, "fusion_lat": 0.0, "type": "electric_scooter", "name": "004b148dedc3092282b0056ef9201e85", "is_disabled": 0, "rental_uris": {"ios": "https://dc.lft.to/lastmile_qr_scan", "android": "https://dc.lft.to/lastmile_qr_scan"}, "is_reserved": 0}, {"lon": -77.021593, "bike_id": "e48ce5cab6e5fb3ef4aab5c935f6b513", "lat": 38.89225016666666, "fusion_lon": 0.0, "fusion_lat": 0.0, "type": "electric_scooter", "name": "e48ce5cab6e5fb3ef4aab5c935f6b513", "is_disabled": 0, "rental_uris": {"ios": "https://dc.lft.to/lastmile_qr_scan", "android": "https://dc.lft.to/lastmile_qr_scan"}, "is_reserved": 0}, {"lon": -77.02727616666667, "bike_id": "3f71400b891d3724e897d93d934d4d34", "lat": 38.9409105, "fusion_lon": 0.0, "fusion_lat": 0.0, "type": "electric_scooter", "name": "3f71400b891d3724e897d93d934d4d34", "is_disabled": 0, "rental_uris": {"ios": "https://dc.lft.to/lastmile_qr_scan", "android": "https://dc.lft.to/lastmile_qr_scan"}, "is_reserved": 0}, {"lon": -77.0198445, "bike_id": "eff3ad02a027cb52e503d9aa36d01fc5", "lat": 38.9149515, "fusion_lon": 0.0, "fusion_lat": 0.0, "type": "electric_scooter", "name": "eff3ad02a027cb52e503d9aa36d01fc5", "is_disabled": 0, "rental_uris": {"ios": "https://dc.lft.to/lastmile_qr_scan", "android": "https://dc.lft.to/lastmile_qr_scan"}, "is_reserved": 0}, {"lon": -77.06134133333333, "bike_id": "796db610c913f325a100ab0f854e053b", "lat": 38.90524333333333, "fusion_lon": 0.0, "fusion_lat": 0.0, "type": "electric_scooter", "name": "796db610c913f325a100ab0f854e053b", "is_disabled": 0, "rental_uris": {"ios": "https://dc.lft.to/lastmile_qr_scan", "android": "https://dc.lft.to/lastmile_qr_scan"}, "is_reserved": 0}, {"lon": -77.009347, "bike_id": "dda09e2141ee98143552832098983c30", "lat": 38.896007, "fusion_lon": 0.0, "fusion_lat": 0.0, "type": "electric_scooter", "name": "dda09e2141ee98143552832098983c30", "is_disabled": 0, "rental_uris": {"ios": "https://dc.lft.to/lastmile_qr_scan", "android": "https://dc.lft.to/lastmile_qr_scan"}, "is_reserved": 0}, {"lon": -77.07481666666666, "bike_id": "ee3c1e60969610d8ed2f6b592109dcd8", "lat": 38.9631635, "fusion_lon": 0.0, "fusion_lat": 0.0, "type": "electric_scooter", "name": "ee3c1e60969610d8ed2f6b592109dcd8", "is_disabled": 0, "rental_uris": {"ios": "https://dc.lft.to/lastmile_qr_scan", "android": "https://dc.lft.to/lastmile_qr_scan"}, "is_reserved": 0}, {"lon": -77.02454466666667, "bike_id": "4121d1337de19e5cb6d0a71e0a57a276", "lat": 38.93103466666667, "fusion_lon": 0.0, "fusion_lat": 0.0, "type": "electric_scooter", "name": "4121d1337de19e5cb6d0a71e0a57a276", "is_disabled": 0, "rental_uris": {"ios": "https://dc.lft.to/lastmile_qr_scan", "android": "https://dc.lft.to/lastmile_qr_scan"}, "is_reserved": 0}, {"lon": -77.0354605, "bike_id": "7d30b15687e763387b2f48fbb332a9f8", "lat": 38.91833483333333, "fusion_lon": 0.0, "fusion_lat": 0.0, "type": "electric_scooter", "name": "7d30b15687e763387b2f48fbb332a9f8", "is_disabled": 0, "rental_uris": {"ios": "https://dc.lft.to/lastmile_qr_scan", "android": "https://dc.lft.to/lastmile_qr_scan"}, "is_reserved": 0}, {"lon": -77.03044233333334, "bike_id": "44348bd4afc86bd2c2a5fe6509a61c71", "lat": 38.88429383333333, "fusion_lon": 0.0, "fusion_lat": 0.0, "type": "electric_scooter", "name": "44348bd4afc86bd2c2a5fe6509a61c71", "is_disabled": 0, "rental_uris": {"ios": "https://dc.lft.to/lastmile_qr_scan", "android": "https://dc.lft.to/lastmile_qr_scan"}, "is_reserved": 0}, {"lon": -77.028394, "bike_id": "459fadef9a9aa65d582e4f799d520843", "lat": 38.8877075, "fusion_lon": 0.0, "fusion_lat": 0.0, "type": "electric_scooter", "name": "459fadef9a9aa65d582e4f799d520843", "is_disabled": 0, "rental_uris": {"ios": "https://dc.lft.to/lastmile_qr_scan", "android": "https://dc.lft.to/lastmile_qr_scan"}, "is_reserved": 0}, {"lon": -76.97814216666667, "bike_id": "f8d6b45f7f1bc2857f83ba0f999052a9", "lat": 38.90675133333333, "fusion_lon": 0.0, "fusion_lat": 0.0, "type": "electric_scooter", "name": "f8d6b45f7f1bc2857f83ba0f999052a9", "is_disabled": 0, "rental_uris": {"ios": "https://dc.lft.to/lastmile_qr_scan", "android": "https://dc.lft.to/lastmile_qr_scan"}, "is_reserved": 0}, {"lon": -77.00211666666667, "bike_id": "8bb2ba4f34e50f626f58277b2f4d0701", "lat": 38.91449333333333, "fusion_lon": 0.0, "fusion_lat": 0.0, "type": "electric_scooter", "name": "8bb2ba4f34e50f626f58277b2f4d0701", "is_disabled": 0, "rental_uris": {"ios": "https://dc.lft.to/lastmile_qr_scan", "android": "https://dc.lft.to/lastmile_qr_scan"}, "is_reserved": 0}, {"lon": -77.0401275, "bike_id": "7ff98e87e25b47049fb81ef7df5e5480", "lat": 38.910070166666664, "fusion_lon": 0.0, "fusion_lat": 0.0, "type": "electric_scooter", "name": "7ff98e87e25b47049fb81ef7df5e5480", "is_disabled": 0, "rental_uris": {"ios": "https://dc.lft.to/lastmile_qr_scan", "android": "https://dc.lft.to/lastmile_qr_scan"}, "is_reserved": 0}, {"lon": -77.0011105, "bike_id": "fa102e7b02005debfb6f08325bab4bd7", "lat": 38.91707433333333, "fusion_lon": 0.0, "fusion_lat": 0.0, "type": "electric_scooter", "name": "fa102e7b02005debfb6f08325bab4bd7", "is_disabled": 0, "rental_uris": {"ios": "https://dc.lft.to/lastmile_qr_scan", "android": "https://dc.lft.to/lastmile_qr_scan"}, "is_reserved": 0}, {"lon": -76.89537366666667, "bike_id": "898bd2ebbb3fda72e7983342dcb527fd", "lat": 38.94553833333333, "fusion_lon": 0.0, "fusion_lat": 0.0, "type": "electric_bike", "name": "898bd2ebbb3fda72e7983342dcb527fd", "is_disabled": 0, "rental_uris": {"ios": "https://dc.lft.to/lastmile_qr_scan", "android": "https://dc.lft.to/lastmile_qr_scan"}, "is_reserved": 0}, {"lon": -77.09470383333333, "bike_id": "8c16b34e67e0bb87e10670dc8746e12e", "lat": 38.807646, "fusion_lon": 0.0, "fusion_lat": 0.0, "type": "electric_bike", "name": "8c16b34e67e0bb87e10670dc8746e12e", "is_disabled": 0, "rental_uris": {"ios": "https://dc.lft.to/lastmile_qr_scan", "android": "https://dc.lft.to/lastmile_qr_scan"}, "is_reserved": 0}, {"lon": -77.0533665, "bike_id": "a2e6d213bbf026f9f88cfca3d370a70d", "lat": 38.907149, "fusion_lon": 0.0, "fusion_lat": 0.0, "type": "electric_scooter", "name": "a2e6d213bbf026f9f88cfca3d370a70d", "is_disabled": 0, "rental_uris": {"ios": "https://dc.lft.to/lastmile_qr_scan", "android": "https://dc.lft.to/lastmile_qr_scan"}, "is_reserved": 0}, {"lon": -77.05592283333333, "bike_id": "4312ec5c3c3992856ab732d13d891202", "lat": 38.916193166666666, "fusion_lon": 0.0, "fusion_lat": 0.0, "type": "electric_scooter", "name": "4312ec5c3c3992856ab732d13d891202", "is_disabled": 0, "rental_uris": {"ios": "https://dc.lft.to/lastmile_qr_scan", "android": "https://dc.lft.to/lastmile_qr_scan"}, "is_reserved": 0}, {"lon": -77.0444385, "bike_id": "7916087e77dfa11c7eb7d4f45460d875", "lat": 38.91783133333333, "fusion_lon": 0.0, "fusion_lat": 0.0, "type": "electric_scooter", "name": "7916087e77dfa11c7eb7d4f45460d875", "is_disabled": 0, "rental_uris": {"ios": "https://dc.lft.to/lastmile_qr_scan", "android": "https://dc.lft.to/lastmile_qr_scan"}, "is_reserved": 0}, {"lon": -77.03839466666666, "bike_id": "55ed10f3499a1a877957b1c9340dbe32", "lat": 38.91094916666667, "fusion_lon": 0.0, "fusion_lat": 0.0, "type": "electric_scooter", "name": "55ed10f3499a1a877957b1c9340dbe32", "is_disabled": 0, "rental_uris": {"ios": "https://dc.lft.to/lastmile_qr_scan", "android": "https://dc.lft.to/lastmile_qr_scan"}, "is_reserved": 0}, {"lon": -77.02437616666667, "bike_id": "3954d19b7ab556311a1ef79cc4126b33", "lat": 38.9249945, "fusion_lon": 0.0, "fusion_lat": 0.0, "type": "electric_scooter", "name": "3954d19b7ab556311a1ef79cc4126b33", "is_disabled": 0, "rental_uris": {"ios": "https://dc.lft.to/lastmile_qr_scan", "android": "https://dc.lft.to/lastmile_qr_scan"}, "is_reserved": 0}, {"lon": -77.03445616666667, "bike_id": "d7750bfb4eeb493ad71d13d5f3fa714d", "lat": 38.902865, "fusion_lon": 0.0, "fusion_lat": 0.0, "type": "electric_scooter", "name": "d7750bfb4eeb493ad71d13d5f3fa714d", "is_disabled": 0, "rental_uris": {"ios": "https://dc.lft.to/lastmile_qr_scan", "android": "https://dc.lft.to/lastmile_qr_scan"}, "is_reserved": 0}, {"lon": -77.04811483333333, "bike_id": "52d164b5cd395f7fcb56a42ba86ad71d", "lat": 38.91639083333333, "fusion_lon": 0.0, "fusion_lat": 0.0, "type": "electric_scooter", "name": "52d164b5cd395f7fcb56a42ba86ad71d", "is_disabled": 0, "rental_uris": {"ios": "https://dc.lft.to/lastmile_qr_scan", "android": "https://dc.lft.to/lastmile_qr_scan"}, "is_reserved": 0}, {"lon": -76.987116, "bike_id": "8d368a5f8d4a350b59a5eccd0e0e2d87", "lat": 38.90027966666667, "fusion_lon": 0.0, "fusion_lat": 0.0, "type": "electric_scooter", "name": "8d368a5f8d4a350b59a5eccd0e0e2d87", "is_disabled": 0, "rental_uris": {"ios": "https://dc.lft.to/lastmile_qr_scan", "android": "https://dc.lft.to/lastmile_qr_scan"}, "is_reserved": 0}, {"lon": -76.995452, "bike_id": "a822cef37a2b0ed0a059d36350824959", "lat": 38.862626666666664, "fusion_lon": 0.0, "fusion_lat": 0.0, "type": "electric_scooter", "name": "a822cef37a2b0ed0a059d36350824959", "is_disabled": 0, "rental_uris": {"ios": "https://dc.lft.to/lastmile_qr_scan", "android": "https://dc.lft.to/lastmile_qr_scan"}, "is_reserved": 0}, {"lon": -77.026799, "bike_id": "8b4c737990b7fd14dd4d2c97c6d93c89", "lat": 38.98457366666667, "fusion_lon": 0.0, "fusion_lat": 0.0, "type": "electric_scooter", "name": "8b4c737990b7fd14dd4d2c97c6d93c89", "is_disabled": 0, "rental_uris": {"ios": "https://dc.lft.to/lastmile_qr_scan", "android": "https://dc.lft.to/lastmile_qr_scan"}, "is_reserved": 0}, {"lon": -77.03258116666667, "bike_id": "13a50d8570370d5a506f4a41b436c236", "lat": 38.94273616666667, "fusion_lon": 0.0, "fusion_lat": 0.0, "type": "electric_scooter", "name": "13a50d8570370d5a506f4a41b436c236", "is_disabled": 0, "rental_uris": {"ios": "https://dc.lft.to/lastmile_qr_scan", "android": "https://dc.lft.to/lastmile_qr_scan"}, "is_reserved": 0}, {"lon": -77.02809016666667, "bike_id": "44e74555b0719fb5c5ffb406104b8ba4", "lat": 38.88184866666667, "fusion_lon": 0.0, "fusion_lat": 0.0, "type": "electric_scooter", "name": "44e74555b0719fb5c5ffb406104b8ba4", "is_disabled": 0, "rental_uris": {"ios": "https://dc.lft.to/lastmile_qr_scan", "android": "https://dc.lft.to/lastmile_qr_scan"}, "is_reserved": 0}, {"lon": -77.03666933333334, "bike_id": "30f456f014fddcfc9207b10bf6f3b62b", "lat": 38.936530833333336, "fusion_lon": 0.0, "fusion_lat": 0.0, "type": "electric_bike", "name": "30f456f014fddcfc9207b10bf6f3b62b", "is_disabled": 0, "rental_uris": {"ios": "https://dc.lft.to/lastmile_qr_scan", "android": "https://dc.lft.to/lastmile_qr_scan"}, "is_reserved": 0}, {"lon": -77.02370433333333, "bike_id": "754388d21d590185baa5a4059e4e9033", "lat": 38.901987166666665, "fusion_lon": 0.0, "fusion_lat": 0.0, "type": "electric_scooter", "name": "754388d21d590185baa5a4059e4e9033", "is_disabled": 0, "rental_uris": {"ios": "https://dc.lft.to/lastmile_qr_scan", "android": "https://dc.lft.to/lastmile_qr_scan"}, "is_reserved": 0}, {"lon": -77.020003, "bike_id": "418d4bed39145132168e0e0407e8cf46", "lat": 38.904508166666666, "fusion_lon": 0.0, "fusion_lat": 0.0, "type": "electric_scooter", "name": "418d4bed39145132168e0e0407e8cf46", "is_disabled": 0, "rental_uris": {"ios": "https://dc.lft.to/lastmile_qr_scan", "android": "https://dc.lft.to/lastmile_qr_scan"}, "is_reserved": 0}, {"lon": -77.0217215, "bike_id": "6ba009a4282a67d35acce2b6205ad4a3", "lat": 38.900290166666665, "fusion_lon": 0.0, "fusion_lat": 0.0, "type": "electric_scooter", "name": "6ba009a4282a67d35acce2b6205ad4a3", "is_disabled": 0, "rental_uris": {"ios": "https://dc.lft.to/lastmile_qr_scan", "android": "https://dc.lft.to/lastmile_qr_scan"}, "is_reserved": 0}, {"lon": -77.0297955, "bike_id": "274f04a904c8d8ac6df2bee36e884a87", "lat": 38.9219915, "fusion_lon": 0.0, "fusion_lat": 0.0, "type": "electric_scooter", "name": "274f04a904c8d8ac6df2bee36e884a87", "is_disabled": 0, "rental_uris": {"ios": "https://dc.lft.to/lastmile_qr_scan", "android": "https://dc.lft.to/lastmile_qr_scan"}, "is_reserved": 0}, {"lon": -76.96385983333333, "bike_id": "8718a61f9d641b127535f89fbef0e3fc", "lat": 38.9518285, "fusion_lon": 0.0, "fusion_lat": 0.0, "type": "electric_bike", "name": "8718a61f9d641b127535f89fbef0e3fc", "is_disabled": 0, "rental_uris": {"ios": "https://dc.lft.to/lastmile_qr_scan", "android": "https://dc.lft.to/lastmile_qr_scan"}, "is_reserved": 0}, {"lon": -77.0121705, "bike_id": "527a52b9020254c3e9ba0738cdb57717", "lat": 38.914406, "fusion_lon": 0.0, "fusion_lat": 0.0, "type": "electric_scooter", "name": "527a52b9020254c3e9ba0738cdb57717", "is_disabled": 0, "rental_uris": {"ios": "https://dc.lft.to/lastmile_qr_scan", "android": "https://dc.lft.to/lastmile_qr_scan"}, "is_reserved": 0}, {"lon": -76.97478416666667, "bike_id": "b3dd629c698035ad4e358dbf6161ba5f", "lat": 38.903541833333335, "fusion_lon": 0.0, "fusion_lat": 0.0, "type": "electric_scooter", "name": "b3dd629c698035ad4e358dbf6161ba5f", "is_disabled": 0, "rental_uris": {"ios": "https://dc.lft.to/lastmile_qr_scan", "android": "https://dc.lft.to/lastmile_qr_scan"}, "is_reserved": 0}, {"lon": -77.0068225, "bike_id": "2c4ed0c3b480d8d502d734830030bf1b", "lat": 38.90017683333333, "fusion_lon": 0.0, "fusion_lat": 0.0, "type": "electric_scooter", "name": "2c4ed0c3b480d8d502d734830030bf1b", "is_disabled": 0, "rental_uris": {"ios": "https://dc.lft.to/lastmile_qr_scan", "android": "https://dc.lft.to/lastmile_qr_scan"}, "is_reserved": 0}, {"lon": -77.03451033333333, "bike_id": "320f58e9fb4e7e0bbd658b9817e9abd3", "lat": 38.90682983333333, "fusion_lon": 0.0, "fusion_lat": 0.0, "type": "electric_scooter", "name": "320f58e9fb4e7e0bbd658b9817e9abd3", "is_disabled": 0, "rental_uris": {"ios": "https://dc.lft.to/lastmile_qr_scan", "android": "https://dc.lft.to/lastmile_qr_scan"}, "is_reserved": 0}, {"lon": -77.0217165, "bike_id": "f2979aa3f37db019ab0f92f79cd63220", "lat": 38.91914366666666, "fusion_lon": 0.0, "fusion_lat": 0.0, "type": "electric_scooter", "name": "f2979aa3f37db019ab0f92f79cd63220", "is_disabled": 0, "rental_uris": {"ios": "https://dc.lft.to/lastmile_qr_scan", "android": "https://dc.lft.to/lastmile_qr_scan"}, "is_reserved": 0}, {"lon": -77.04265516666666, "bike_id": "c3c9d93fd43ab5318cf42694d159b441", "lat": 38.914741666666664, "fusion_lon": 0.0, "fusion_lat": 0.0, "type": "electric_scooter", "name": "c3c9d93fd43ab5318cf42694d159b441", "is_disabled": 0, "rental_uris": {"ios": "https://dc.lft.to/lastmile_qr_scan", "android": "https://dc.lft.to/lastmile_qr_scan"}, "is_reserved": 0}, {"lon": -77.04388183333333, "bike_id": "16d2afa40de8d11d510a708243e37c44", "lat": 38.92321483333333, "fusion_lon": 0.0, "fusion_lat": 0.0, "type": "electric_scooter", "name": "16d2afa40de8d11d510a708243e37c44", "is_disabled": 0, "rental_uris": {"ios": "https://dc.lft.to/lastmile_qr_scan", "android": "https://dc.lft.to/lastmile_qr_scan"}, "is_reserved": 0}, {"lon": -76.99082883333334, "bike_id": "93e0b5a12fc54813e90fa8c5c8916cd2", "lat": 38.8623855, "fusion_lon": 0.0, "fusion_lat": 0.0, "type": "electric_bike", "name": "93e0b5a12fc54813e90fa8c5c8916cd2", "is_disabled": 0, "rental_uris": {"ios": "https://dc.lft.to/lastmile_qr_scan", "android": "https://dc.lft.to/lastmile_qr_scan"}, "is_reserved": 0}, {"lon": -77.02852183333333, "bike_id": "4e986efcc3658b8b263dee4f2e240b05", "lat": 38.9563005, "fusion_lon": 0.0, "fusion_lat": 0.0, "type": "electric_scooter", "name": "4e986efcc3658b8b263dee4f2e240b05", "is_disabled": 0, "rental_uris": {"ios": "https://dc.lft.to/lastmile_qr_scan", "android": "https://dc.lft.to/lastmile_qr_scan"}, "is_reserved": 0}, {"lon": -77.03976883333333, "bike_id": "d1204f65da6d837a124e507c99cd1af3", "lat": 38.920282666666665, "fusion_lon": 0.0, "fusion_lat": 0.0, "type": "electric_scooter", "name": "d1204f65da6d837a124e507c99cd1af3", "is_disabled": 0, "rental_uris": {"ios": "https://dc.lft.to/lastmile_qr_scan", "android": "https://dc.lft.to/lastmile_qr_scan"}, "is_reserved": 0}, {"lon": -76.99020366666667, "bike_id": "3dec73e7d03f0a79aca6f4840864746a", "lat": 38.86645466666667, "fusion_lon": 0.0, "fusion_lat": 0.0, "type": "electric_scooter", "name": "3dec73e7d03f0a79aca6f4840864746a", "is_disabled": 0, "rental_uris": {"ios": "https://dc.lft.to/lastmile_qr_scan", "android": "https://dc.lft.to/lastmile_qr_scan"}, "is_reserved": 0}, {"lon": -77.080681, "bike_id": "f8304912dbe0682224fdd98fa269d73b", "lat": 39.052835333333334, "fusion_lon": 0.0, "fusion_lat": 0.0, "type": "electric_bike", "name": "f8304912dbe0682224fdd98fa269d73b", "is_disabled": 0, "rental_uris": {"ios": "https://dc.lft.to/lastmile_qr_scan", "android": "https://dc.lft.to/lastmile_qr_scan"}, "is_reserved": 0}, {"lon": -77.04879266666667, "bike_id": "6e866a3fee195844f00f5b0cc6f6a955", "lat": 38.915621333333334, "fusion_lon": 0.0, "fusion_lat": 0.0, "type": "electric_scooter", "name": "6e866a3fee195844f00f5b0cc6f6a955", "is_disabled": 0, "rental_uris": {"ios": "https://dc.lft.to/lastmile_qr_scan", "android": "https://dc.lft.to/lastmile_qr_scan"}, "is_reserved": 0}, {"lon": -77.0246195, "bike_id": "6f94fd1394d4a98d2a4c0e8c2602ae10", "lat": 38.93881616666667, "fusion_lon": 0.0, "fusion_lat": 0.0, "type": "electric_scooter", "name": "6f94fd1394d4a98d2a4c0e8c2602ae10", "is_disabled": 0, "rental_uris": {"ios": "https://dc.lft.to/lastmile_qr_scan", "android": "https://dc.lft.to/lastmile_qr_scan"}, "is_reserved": 0}, {"lon": -77.02804133333333, "bike_id": "bac5c4b2d1ee82add4e3a35821b0feb5", "lat": 38.931460666666666, "fusion_lon": 0.0, "fusion_lat": 0.0, "type": "electric_scooter", "name": "bac5c4b2d1ee82add4e3a35821b0feb5", "is_disabled": 0, "rental_uris": {"ios": "https://dc.lft.to/lastmile_qr_scan", "android": "https://dc.lft.to/lastmile_qr_scan"}, "is_reserved": 0}, {"lon": -77.04161266666667, "bike_id": "557f8b53f362edd47cfc538a640aba76", "lat": 38.906762, "fusion_lon": 0.0, "fusion_lat": 0.0, "type": "electric_scooter", "name": "557f8b53f362edd47cfc538a640aba76", "is_disabled": 0, "rental_uris": {"ios": "https://dc.lft.to/lastmile_qr_scan", "android": "https://dc.lft.to/lastmile_qr_scan"}, "is_reserved": 0}, {"lon": -77.020582, "bike_id": "eaa58899c9ad436bd6c41b58111a54d2", "lat": 38.897323, "fusion_lon": 0.0, "fusion_lat": 0.0, "type": "electric_scooter", "name": "eaa58899c9ad436bd6c41b58111a54d2", "is_disabled": 0, "rental_uris": {"ios": "https://dc.lft.to/lastmile_qr_scan", "android": "https://dc.lft.to/lastmile_qr_scan"}, "is_reserved": 0}, {"lon": -77.03296066666667, "bike_id": "5a249c4d5dd9f4f1fb6873c56bcaa142", "lat": 38.923581666666664, "fusion_lon": 0.0, "fusion_lat": 0.0, "type": "electric_scooter", "name": "5a249c4d5dd9f4f1fb6873c56bcaa142", "is_disabled": 0, "rental_uris": {"ios": "https://dc.lft.to/lastmile_qr_scan", "android": "https://dc.lft.to/lastmile_qr_scan"}, "is_reserved": 0}, {"lon": -77.05949533333333, "bike_id": "dd12705be0dcc8c2d52b9c7407c363c2", "lat": 38.8625345, "fusion_lon": 0.0, "fusion_lat": 0.0, "type": "electric_scooter", "name": "dd12705be0dcc8c2d52b9c7407c363c2", "is_disabled": 0, "rental_uris": {"ios": "https://dc.lft.to/lastmile_qr_scan", "android": "https://dc.lft.to/lastmile_qr_scan"}, "is_reserved": 0}, {"lon": -76.99350866666667, "bike_id": "045b20fb3288c868fbac9ead9a4982dd", "lat": 38.8450585, "fusion_lon": 0.0, "fusion_lat": 0.0, "type": "electric_bike", "name": "045b20fb3288c868fbac9ead9a4982dd", "is_disabled": 0, "rental_uris": {"ios": "https://dc.lft.to/lastmile_qr_scan", "android": "https://dc.lft.to/lastmile_qr_scan"}, "is_reserved": 0}, {"lon": -77.00660616666667, "bike_id": "0d00606ed255b01db88efbf8651f159a", "lat": 38.9003385, "fusion_lon": 0.0, "fusion_lat": 0.0, "type": "electric_scooter", "name": "0d00606ed255b01db88efbf8651f159a", "is_disabled": 0, "rental_uris": {"ios": "https://dc.lft.to/lastmile_qr_scan", "android": "https://dc.lft.to/lastmile_qr_scan"}, "is_reserved": 0}, {"lon": -76.944001, "bike_id": "bd66b07a510c8a146d01c9a58f293112", "lat": 38.881425666666665, "fusion_lon": 0.0, "fusion_lat": 0.0, "type": "electric_scooter", "name": "bd66b07a510c8a146d01c9a58f293112", "is_disabled": 0, "rental_uris": {"ios": "https://dc.lft.to/lastmile_qr_scan", "android": "https://dc.lft.to/lastmile_qr_scan"}, "is_reserved": 0}, {"lon": -76.99506566666666, "bike_id": "af08b530cf5190214cc1f06508a1825d", "lat": 38.883497166666665, "fusion_lon": 0.0, "fusion_lat": 0.0, "type": "electric_scooter", "name": "af08b530cf5190214cc1f06508a1825d", "is_disabled": 0, "rental_uris": {"ios": "https://dc.lft.to/lastmile_qr_scan", "android": "https://dc.lft.to/lastmile_qr_scan"}, "is_reserved": 0}, {"lon": -77.0457205, "bike_id": "6449e23603168ed5193bc7f3eda13dc2", "lat": 38.9212635, "fusion_lon": 0.0, "fusion_lat": 0.0, "type": "electric_scooter", "name": "6449e23603168ed5193bc7f3eda13dc2", "is_disabled": 0, "rental_uris": {"ios": "https://dc.lft.to/lastmile_qr_scan", "android": "https://dc.lft.to/lastmile_qr_scan"}, "is_reserved": 0}, {"lon": -77.02273083333333, "bike_id": "082c2c43b445aeac7023909850604358", "lat": 38.92730666666667, "fusion_lon": 0.0, "fusion_lat": 0.0, "type": "electric_scooter", "name": "082c2c43b445aeac7023909850604358", "is_disabled": 0, "rental_uris": {"ios": "https://dc.lft.to/lastmile_qr_scan", "android": "https://dc.lft.to/lastmile_qr_scan"}, "is_reserved": 0}, {"lon": -77.02189716666666, "bike_id": "7828bc4921dc6c7e0eada45e0d0295ca", "lat": 38.899949666666664, "fusion_lon": 0.0, "fusion_lat": 0.0, "type": "electric_scooter", "name": "7828bc4921dc6c7e0eada45e0d0295ca", "is_disabled": 0, "rental_uris": {"ios": "https://dc.lft.to/lastmile_qr_scan", "android": "https://dc.lft.to/lastmile_qr_scan"}, "is_reserved": 0}, {"lon": -77.05267066666667, "bike_id": "2760a0bf37b261fae70f7d52996be26a", "lat": 38.92777566666667, "fusion_lon": 0.0, "fusion_lat": 0.0, "type": "electric_scooter", "name": "2760a0bf37b261fae70f7d52996be26a", "is_disabled": 0, "rental_uris": {"ios": "https://dc.lft.to/lastmile_qr_scan", "android": "https://dc.lft.to/lastmile_qr_scan"}, "is_reserved": 0}, {"lon": -77.0054045, "bike_id": "daa782c384d4406bf792b84988198bc3", "lat": 38.909586833333336, "fusion_lon": 0.0, "fusion_lat": 0.0, "type": "electric_scooter", "name": "daa782c384d4406bf792b84988198bc3", "is_disabled": 0, "rental_uris": {"ios": "https://dc.lft.to/lastmile_qr_scan", "android": "https://dc.lft.to/lastmile_qr_scan"}, "is_reserved": 0}, {"lon": -76.941492, "bike_id": "03c88a735700a35d33ecfd97d981dcbe", "lat": 38.879093833333336, "fusion_lon": 0.0, "fusion_lat": 0.0, "type": "electric_scooter", "name": "03c88a735700a35d33ecfd97d981dcbe", "is_disabled": 0, "rental_uris": {"ios": "https://dc.lft.to/lastmile_qr_scan", "android": "https://dc.lft.to/lastmile_qr_scan"}, "is_reserved": 0}, {"lon": -77.00779616666667, "bike_id": "e8d0e5fcf4bbdb12ab7e083e382930d1", "lat": 38.8973755, "fusion_lon": 0.0, "fusion_lat": 0.0, "type": "electric_scooter", "name": "e8d0e5fcf4bbdb12ab7e083e382930d1", "is_disabled": 0, "rental_uris": {"ios": "https://dc.lft.to/lastmile_qr_scan", "android": "https://dc.lft.to/lastmile_qr_scan"}, "is_reserved": 0}, {"lon": -77.03851216666666, "bike_id": "38c886803a45d64dd87788ca8777c393", "lat": 38.9175075, "fusion_lon": 0.0, "fusion_lat": 0.0, "type": "electric_scooter", "name": "38c886803a45d64dd87788ca8777c393", "is_disabled": 0, "rental_uris": {"ios": "https://dc.lft.to/lastmile_qr_scan", "android": "https://dc.lft.to/lastmile_qr_scan"}, "is_reserved": 0}, {"lon": -77.04479683333334, "bike_id": "82079377bd40c728aaac6d9734a9386b", "lat": 38.921365, "fusion_lon": 0.0, "fusion_lat": 0.0, "type": "electric_scooter", "name": "82079377bd40c728aaac6d9734a9386b", "is_disabled": 0, "rental_uris": {"ios": "https://dc.lft.to/lastmile_qr_scan", "android": "https://dc.lft.to/lastmile_qr_scan"}, "is_reserved": 0}, {"lon": -77.03310016666667, "bike_id": "2a7454064679cffdf1f26cd0a683dafc", "lat": 38.92878866666667, "fusion_lon": 0.0, "fusion_lat": 0.0, "type": "electric_scooter", "name": "2a7454064679cffdf1f26cd0a683dafc", "is_disabled": 0, "rental_uris": {"ios": "https://dc.lft.to/lastmile_qr_scan", "android": "https://dc.lft.to/lastmile_qr_scan"}, "is_reserved": 0}, {"lon": -77.0460935, "bike_id": "51a5154a6ded5e8e508461c63f423f65", "lat": 38.9219135, "fusion_lon": 0.0, "fusion_lat": 0.0, "type": "electric_scooter", "name": "51a5154a6ded5e8e508461c63f423f65", "is_disabled": 0, "rental_uris": {"ios": "https://dc.lft.to/lastmile_qr_scan", "android": "https://dc.lft.to/lastmile_qr_scan"}, "is_reserved": 0}, {"lon": -77.00313283333334, "bike_id": "783005b5594e97bb55f1683e7eb1d2a3", "lat": 38.91898366666667, "fusion_lon": 0.0, "fusion_lat": 0.0, "type": "electric_bike", "name": "783005b5594e97bb55f1683e7eb1d2a3", "is_disabled": 0, "rental_uris": {"ios": "https://dc.lft.to/lastmile_qr_scan", "android": "https://dc.lft.to/lastmile_qr_scan"}, "is_reserved": 0}, {"lon": -76.99262633333333, "bike_id": "68b335ce4ed24511caec1b3d4e05eb1c", "lat": 38.89771416666667, "fusion_lon": 0.0, "fusion_lat": 0.0, "type": "electric_scooter", "name": "68b335ce4ed24511caec1b3d4e05eb1c", "is_disabled": 0, "rental_uris": {"ios": "https://dc.lft.to/lastmile_qr_scan", "android": "https://dc.lft.to/lastmile_qr_scan"}, "is_reserved": 0}, {"lon": -77.01604566666667, "bike_id": "6b7d4aa21efa6446c08f5284d0262374", "lat": 38.90355916666667, "fusion_lon": 0.0, "fusion_lat": 0.0, "type": "electric_scooter", "name": "6b7d4aa21efa6446c08f5284d0262374", "is_disabled": 0, "rental_uris": {"ios": "https://dc.lft.to/lastmile_qr_scan", "android": "https://dc.lft.to/lastmile_qr_scan"}, "is_reserved": 0}, {"lon": -77.00438883333334, "bike_id": "462452079e1e261d4dba26b7453ccd36", "lat": 38.87747683333333, "fusion_lon": 0.0, "fusion_lat": 0.0, "type": "electric_scooter", "name": "462452079e1e261d4dba26b7453ccd36", "is_disabled": 0, "rental_uris": {"ios": "https://dc.lft.to/lastmile_qr_scan", "android": "https://dc.lft.to/lastmile_qr_scan"}, "is_reserved": 0}, {"lon": -77.00750816666667, "bike_id": "3b1da640657824ad4d63d651ea5673a9", "lat": 38.87654466666667, "fusion_lon": 0.0, "fusion_lat": 0.0, "type": "electric_scooter", "name": "3b1da640657824ad4d63d651ea5673a9", "is_disabled": 0, "rental_uris": {"ios": "https://dc.lft.to/lastmile_qr_scan", "android": "https://dc.lft.to/lastmile_qr_scan"}, "is_reserved": 0}, {"lon": -76.98077066666667, "bike_id": "13373a774460b592978611e8504eea7e", "lat": 38.901776, "fusion_lon": 0.0, "fusion_lat": 0.0, "type": "electric_scooter", "name": "13373a774460b592978611e8504eea7e", "is_disabled": 0, "rental_uris": {"ios": "https://dc.lft.to/lastmile_qr_scan", "android": "https://dc.lft.to/lastmile_qr_scan"}, "is_reserved": 0}, {"lon": -76.98335583333333, "bike_id": "03a50d6ca9d94862a6595a8f76e1f02a", "lat": 38.90088466666667, "fusion_lon": 0.0, "fusion_lat": 0.0, "type": "electric_scooter", "name": "03a50d6ca9d94862a6595a8f76e1f02a", "is_disabled": 0, "rental_uris": {"ios": "https://dc.lft.to/lastmile_qr_scan", "android": "https://dc.lft.to/lastmile_qr_scan"}, "is_reserved": 0}, {"lon": -77.06190266666667, "bike_id": "8f2ebd937e41207c9b3247f5e615eb44", "lat": 38.910588833333335, "fusion_lon": 0.0, "fusion_lat": 0.0, "type": "electric_scooter", "name": "8f2ebd937e41207c9b3247f5e615eb44", "is_disabled": 0, "rental_uris": {"ios": "https://dc.lft.to/lastmile_qr_scan", "android": "https://dc.lft.to/lastmile_qr_scan"}, "is_reserved": 0}, {"lon": -77.00187466666667, "bike_id": "4c9f3cfefb9a04992a6b8111ca2aea0b", "lat": 38.91192616666667, "fusion_lon": 0.0, "fusion_lat": 0.0, "type": "electric_scooter", "name": "4c9f3cfefb9a04992a6b8111ca2aea0b", "is_disabled": 0, "rental_uris": {"ios": "https://dc.lft.to/lastmile_qr_scan", "android": "https://dc.lft.to/lastmile_qr_scan"}, "is_reserved": 0}, {"lon": -77.06351716666667, "bike_id": "4d48db030d1815541b972f32cceb5425", "lat": 38.9445255, "fusion_lon": 0.0, "fusion_lat": 0.0, "type": "electric_scooter", "name": "4d48db030d1815541b972f32cceb5425", "is_disabled": 0, "rental_uris": {"ios": "https://dc.lft.to/lastmile_qr_scan", "android": "https://dc.lft.to/lastmile_qr_scan"}, "is_reserved": 0}, {"lon": -77.0219825, "bike_id": "36f4a355d1ac703fb7b09a391c0fc96e", "lat": 38.90543066666667, "fusion_lon": 0.0, "fusion_lat": 0.0, "type": "electric_scooter", "name": "36f4a355d1ac703fb7b09a391c0fc96e", "is_disabled": 0, "rental_uris": {"ios": "https://dc.lft.to/lastmile_qr_scan", "android": "https://dc.lft.to/lastmile_qr_scan"}, "is_reserved": 0}, {"lon": -77.03335333333334, "bike_id": "2dcb9e7c9d0811fc2d205d3d2b579b89", "lat": 38.917162833333336, "fusion_lon": 0.0, "fusion_lat": 0.0, "type": "electric_scooter", "name": "2dcb9e7c9d0811fc2d205d3d2b579b89", "is_disabled": 0, "rental_uris": {"ios": "https://dc.lft.to/lastmile_qr_scan", "android": "https://dc.lft.to/lastmile_qr_scan"}, "is_reserved": 0}, {"lon": -77.01300616666667, "bike_id": "72e6ac3b609500ab5e4b0f07ebf90df9", "lat": 38.930020999999996, "fusion_lon": 0.0, "fusion_lat": 0.0, "type": "electric_scooter", "name": "72e6ac3b609500ab5e4b0f07ebf90df9", "is_disabled": 0, "rental_uris": {"ios": "https://dc.lft.to/lastmile_qr_scan", "android": "https://dc.lft.to/lastmile_qr_scan"}, "is_reserved": 0}, {"lon": -77.03339666666666, "bike_id": "16bf8e8b3d4ff4a33a18149e18bd72ee", "lat": 38.899673166666666, "fusion_lon": 0.0, "fusion_lat": 0.0, "type": "electric_scooter", "name": "16bf8e8b3d4ff4a33a18149e18bd72ee", "is_disabled": 0, "rental_uris": {"ios": "https://dc.lft.to/lastmile_qr_scan", "android": "https://dc.lft.to/lastmile_qr_scan"}, "is_reserved": 0}, {"lon": -77.02177266666666, "bike_id": "d4ce533d571ac6ba53843cbbf15cd27e", "lat": 38.900271000000004, "fusion_lon": 0.0, "fusion_lat": 0.0, "type": "electric_scooter", "name": "d4ce533d571ac6ba53843cbbf15cd27e", "is_disabled": 0, "rental_uris": {"ios": "https://dc.lft.to/lastmile_qr_scan", "android": "https://dc.lft.to/lastmile_qr_scan"}, "is_reserved": 0}, {"lon": -77.00636016666667, "bike_id": "a5216a8ac34ef69e6e0b6b36fc5f1f72", "lat": 38.956043666666666, "fusion_lon": 0.0, "fusion_lat": 0.0, "type": "electric_scooter", "name": "a5216a8ac34ef69e6e0b6b36fc5f1f72", "is_disabled": 0, "rental_uris": {"ios": "https://dc.lft.to/lastmile_qr_scan", "android": "https://dc.lft.to/lastmile_qr_scan"}, "is_reserved": 0}, {"lon": -76.9960915, "bike_id": "b93082e02a09c9619d0fefdab8e5672a", "lat": 38.925522666666666, "fusion_lon": 0.0, "fusion_lat": 0.0, "type": "electric_scooter", "name": "b93082e02a09c9619d0fefdab8e5672a", "is_disabled": 0, "rental_uris": {"ios": "https://dc.lft.to/lastmile_qr_scan", "android": "https://dc.lft.to/lastmile_qr_scan"}, "is_reserved": 0}, {"lon": -77.011032, "bike_id": "106e9bb96d124b1a55678ce387fab424", "lat": 38.903835, "fusion_lon": 0.0, "fusion_lat": 0.0, "type": "electric_scooter", "name": "106e9bb96d124b1a55678ce387fab424", "is_disabled": 0, "rental_uris": {"ios": "https://dc.lft.to/lastmile_qr_scan", "android": "https://dc.lft.to/lastmile_qr_scan"}, "is_reserved": 0}, {"lon": -77.02715816666667, "bike_id": "61be633c037f5d06e7629ac985c5b9e4", "lat": 38.9118615, "fusion_lon": 0.0, "fusion_lat": 0.0, "type": "electric_scooter", "name": "61be633c037f5d06e7629ac985c5b9e4", "is_disabled": 0, "rental_uris": {"ios": "https://dc.lft.to/lastmile_qr_scan", "android": "https://dc.lft.to/lastmile_qr_scan"}, "is_reserved": 0}, {"lon": -77.02374316666666, "bike_id": "c4a0a33ce11f8d367dd2dad32c6329a9", "lat": 38.9266065, "fusion_lon": 0.0, "fusion_lat": 0.0, "type": "electric_scooter", "name": "c4a0a33ce11f8d367dd2dad32c6329a9", "is_disabled": 0, "rental_uris": {"ios": "https://dc.lft.to/lastmile_qr_scan", "android": "https://dc.lft.to/lastmile_qr_scan"}, "is_reserved": 0}, {"lon": -77.04899583333334, "bike_id": "2d8ab7918474ae456c4e171e2dc51b2d", "lat": 38.890026, "fusion_lon": 0.0, "fusion_lat": 0.0, "type": "electric_scooter", "name": "2d8ab7918474ae456c4e171e2dc51b2d", "is_disabled": 0, "rental_uris": {"ios": "https://dc.lft.to/lastmile_qr_scan", "android": "https://dc.lft.to/lastmile_qr_scan"}, "is_reserved": 0}, {"lon": -77.03402183333333, "bike_id": "082cf6fcb358b8a50cc09fe6c6d2acde", "lat": 38.911105166666665, "fusion_lon": 0.0, "fusion_lat": 0.0, "type": "electric_scooter", "name": "082cf6fcb358b8a50cc09fe6c6d2acde", "is_disabled": 0, "rental_uris": {"ios": "https://dc.lft.to/lastmile_qr_scan", "android": "https://dc.lft.to/lastmile_qr_scan"}, "is_reserved": 0}, {"lon": -76.970958, "bike_id": "328d6138aa43efa39d2fa682de010631", "lat": 38.9180835, "fusion_lon": 0.0, "fusion_lat": 0.0, "type": "electric_bike", "name": "328d6138aa43efa39d2fa682de010631", "is_disabled": 0, "rental_uris": {"ios": "https://dc.lft.to/lastmile_qr_scan", "android": "https://dc.lft.to/lastmile_qr_scan"}, "is_reserved": 0}, {"lon": -77.02172966666667, "bike_id": "927b98d88ca97a918c08e317d1be8b93", "lat": 38.887461, "fusion_lon": 0.0, "fusion_lat": 0.0, "type": "electric_scooter", "name": "927b98d88ca97a918c08e317d1be8b93", "is_disabled": 0, "rental_uris": {"ios": "https://dc.lft.to/lastmile_qr_scan", "android": "https://dc.lft.to/lastmile_qr_scan"}, "is_reserved": 0}, {"lon": -77.0298325, "bike_id": "4721a1a5b5d5f225d6e80f448d0d60e6", "lat": 38.907204166666666, "fusion_lon": 0.0, "fusion_lat": 0.0, "type": "electric_scooter", "name": "4721a1a5b5d5f225d6e80f448d0d60e6", "is_disabled": 0, "rental_uris": {"ios": "https://dc.lft.to/lastmile_qr_scan", "android": "https://dc.lft.to/lastmile_qr_scan"}, "is_reserved": 0}, {"lon": -76.99378433333334, "bike_id": "722814694339b6c26144f4aa0b4b6bc5", "lat": 38.92402283333333, "fusion_lon": 0.0, "fusion_lat": 0.0, "type": "electric_scooter", "name": "722814694339b6c26144f4aa0b4b6bc5", "is_disabled": 0, "rental_uris": {"ios": "https://dc.lft.to/lastmile_qr_scan", "android": "https://dc.lft.to/lastmile_qr_scan"}, "is_reserved": 0}, {"lon": -77.03733, "bike_id": "a9021b186ae207660178be56e1dc22b9", "lat": 38.927047333333334, "fusion_lon": 0.0, "fusion_lat": 0.0, "type": "electric_bike", "name": "a9021b186ae207660178be56e1dc22b9", "is_disabled": 0, "rental_uris": {"ios": "https://dc.lft.to/lastmile_qr_scan", "android": "https://dc.lft.to/lastmile_qr_scan"}, "is_reserved": 0}, {"lon": -77.00887816666666, "bike_id": "7948611b7c9f8f299934fe1fa16c747b", "lat": 38.924897666666666, "fusion_lon": 0.0, "fusion_lat": 0.0, "type": "electric_scooter", "name": "7948611b7c9f8f299934fe1fa16c747b", "is_disabled": 0, "rental_uris": {"ios": "https://dc.lft.to/lastmile_qr_scan", "android": "https://dc.lft.to/lastmile_qr_scan"}, "is_reserved": 0}, {"lon": -77.0049685, "bike_id": "8b5dfade9858b7bf6360900e4f0afffb", "lat": 38.896961166666664, "fusion_lon": 0.0, "fusion_lat": 0.0, "type": "electric_scooter", "name": "8b5dfade9858b7bf6360900e4f0afffb", "is_disabled": 0, "rental_uris": {"ios": "https://dc.lft.to/lastmile_qr_scan", "android": "https://dc.lft.to/lastmile_qr_scan"}, "is_reserved": 0}, {"lon": -77.04824283333333, "bike_id": "bffad263908eee99db0ecb9b73105d54", "lat": 38.90382916666667, "fusion_lon": 0.0, "fusion_lat": 0.0, "type": "electric_scooter", "name": "bffad263908eee99db0ecb9b73105d54", "is_disabled": 0, "rental_uris": {"ios": "https://dc.lft.to/lastmile_qr_scan", "android": "https://dc.lft.to/lastmile_qr_scan"}, "is_reserved": 0}, {"lon": -77.02156433333333, "bike_id": "5c87009899a920d7f8e1e66eb17ce901", "lat": 38.9313565, "fusion_lon": 0.0, "fusion_lat": 0.0, "type": "electric_scooter", "name": "5c87009899a920d7f8e1e66eb17ce901", "is_disabled": 0, "rental_uris": {"ios": "https://dc.lft.to/lastmile_qr_scan", "android": "https://dc.lft.to/lastmile_qr_scan"}, "is_reserved": 0}, {"lon": -77.106025, "bike_id": "8c2d68d8eedd1fad97d3e50d31f9b8fd", "lat": 38.92897466666667, "fusion_lon": 0.0, "fusion_lat": 0.0, "type": "electric_bike", "name": "8c2d68d8eedd1fad97d3e50d31f9b8fd", "is_disabled": 0, "rental_uris": {"ios": "https://dc.lft.to/lastmile_qr_scan", "android": "https://dc.lft.to/lastmile_qr_scan"}, "is_reserved": 0}, {"lon": -76.99182316666666, "bike_id": "685ef88793693827566498661fe68ce1", "lat": 38.90504883333333, "fusion_lon": 0.0, "fusion_lat": 0.0, "type": "electric_scooter", "name": "685ef88793693827566498661fe68ce1", "is_disabled": 0, "rental_uris": {"ios": "https://dc.lft.to/lastmile_qr_scan", "android": "https://dc.lft.to/lastmile_qr_scan"}, "is_reserved": 0}, {"lon": -77.0311715, "bike_id": "40960fec1b4a5d919d46bae08cb0e69d", "lat": 38.917039, "fusion_lon": 0.0, "fusion_lat": 0.0, "type": "electric_scooter", "name": "40960fec1b4a5d919d46bae08cb0e69d", "is_disabled": 0, "rental_uris": {"ios": "https://dc.lft.to/lastmile_qr_scan", "android": "https://dc.lft.to/lastmile_qr_scan"}, "is_reserved": 0}, {"lon": -77.04257366666667, "bike_id": "c48af8136f7c9e0388f701f19c98d625", "lat": 38.92264466666666, "fusion_lon": 0.0, "fusion_lat": 0.0, "type": "electric_scooter", "name": "c48af8136f7c9e0388f701f19c98d625", "is_disabled": 0, "rental_uris": {"ios": "https://dc.lft.to/lastmile_qr_scan", "android": "https://dc.lft.to/lastmile_qr_scan"}, "is_reserved": 0}, {"lon": -77.03187616666666, "bike_id": "b9df7f54f4aa88e36f8e33bcc5842850", "lat": 38.920493, "fusion_lon": 0.0, "fusion_lat": 0.0, "type": "electric_scooter", "name": "b9df7f54f4aa88e36f8e33bcc5842850", "is_disabled": 0, "rental_uris": {"ios": "https://dc.lft.to/lastmile_qr_scan", "android": "https://dc.lft.to/lastmile_qr_scan"}, "is_reserved": 0}, {"lon": -77.02981016666666, "bike_id": "3120362ade1f555f8e6f9b77898f1fc9", "lat": 38.94740733333333, "fusion_lon": 0.0, "fusion_lat": 0.0, "type": "electric_scooter", "name": "3120362ade1f555f8e6f9b77898f1fc9", "is_disabled": 0, "rental_uris": {"ios": "https://dc.lft.to/lastmile_qr_scan", "android": "https://dc.lft.to/lastmile_qr_scan"}, "is_reserved": 0}, {"lon": -76.98592683333334, "bike_id": "7af6dc8070848fa28226fc1042d8227a", "lat": 38.86060916666667, "fusion_lon": 0.0, "fusion_lat": 0.0, "type": "electric_scooter", "name": "7af6dc8070848fa28226fc1042d8227a", "is_disabled": 0, "rental_uris": {"ios": "https://dc.lft.to/lastmile_qr_scan", "android": "https://dc.lft.to/lastmile_qr_scan"}, "is_reserved": 0}, {"lon": -77.02477266666666, "bike_id": "d2c91b4e2fe8b4f7a664593cc5b65ef5", "lat": 38.900929833333336, "fusion_lon": 0.0, "fusion_lat": 0.0, "type": "electric_scooter", "name": "d2c91b4e2fe8b4f7a664593cc5b65ef5", "is_disabled": 0, "rental_uris": {"ios": "https://dc.lft.to/lastmile_qr_scan", "android": "https://dc.lft.to/lastmile_qr_scan"}, "is_reserved": 0}, {"lon": -77.04413766666667, "bike_id": "0a9ce0d1c9b3cfb1d9ed0d0680315eda", "lat": 38.9342495, "fusion_lon": 0.0, "fusion_lat": 0.0, "type": "electric_scooter", "name": "0a9ce0d1c9b3cfb1d9ed0d0680315eda", "is_disabled": 0, "rental_uris": {"ios": "https://dc.lft.to/lastmile_qr_scan", "android": "https://dc.lft.to/lastmile_qr_scan"}, "is_reserved": 0}, {"lon": -76.96155516666667, "bike_id": "6b3bc39773d516d63bf2dc0c16bacd19", "lat": 38.883601166666665, "fusion_lon": 0.0, "fusion_lat": 0.0, "type": "electric_scooter", "name": "6b3bc39773d516d63bf2dc0c16bacd19", "is_disabled": 0, "rental_uris": {"ios": "https://dc.lft.to/lastmile_qr_scan", "android": "https://dc.lft.to/lastmile_qr_scan"}, "is_reserved": 0}, {"lon": -77.04695566666666, "bike_id": "eb09d45ebbe7d746dec4f66950f38e13", "lat": 38.92122916666667, "fusion_lon": 0.0, "fusion_lat": 0.0, "type": "electric_scooter", "name": "eb09d45ebbe7d746dec4f66950f38e13", "is_disabled": 0, "rental_uris": {"ios": "https://dc.lft.to/lastmile_qr_scan", "android": "https://dc.lft.to/lastmile_qr_scan"}, "is_reserved": 0}, {"lon": -76.98537716666667, "bike_id": "c795582078c583277bc945a8df30bae7", "lat": 38.910246, "fusion_lon": 0.0, "fusion_lat": 0.0, "type": "electric_scooter", "name": "c795582078c583277bc945a8df30bae7", "is_disabled": 0, "rental_uris": {"ios": "https://dc.lft.to/lastmile_qr_scan", "android": "https://dc.lft.to/lastmile_qr_scan"}, "is_reserved": 0}, {"lon": -77.02972683333333, "bike_id": "c22b1436e7cc195eac76992b60ea6b2c", "lat": 38.931865333333334, "fusion_lon": 0.0, "fusion_lat": 0.0, "type": "electric_scooter", "name": "c22b1436e7cc195eac76992b60ea6b2c", "is_disabled": 0, "rental_uris": {"ios": "https://dc.lft.to/lastmile_qr_scan", "android": "https://dc.lft.to/lastmile_qr_scan"}, "is_reserved": 0}, {"lon": -76.98725316666666, "bike_id": "6b88ea4d6736282f1e9e37c018a88b43", "lat": 38.867151666666665, "fusion_lon": 0.0, "fusion_lat": 0.0, "type": "electric_scooter", "name": "6b88ea4d6736282f1e9e37c018a88b43", "is_disabled": 0, "rental_uris": {"ios": "https://dc.lft.to/lastmile_qr_scan", "android": "https://dc.lft.to/lastmile_qr_scan"}, "is_reserved": 0}, {"lon": -77.01530616666666, "bike_id": "7e937e296c0d1452e502bcbb964f45b9", "lat": 38.88496966666666, "fusion_lon": 0.0, "fusion_lat": 0.0, "type": "electric_scooter", "name": "7e937e296c0d1452e502bcbb964f45b9", "is_disabled": 0, "rental_uris": {"ios": "https://dc.lft.to/lastmile_qr_scan", "android": "https://dc.lft.to/lastmile_qr_scan"}, "is_reserved": 0}, {"lon": -76.94196783333334, "bike_id": "0b32935b8f1c3c6d21568d880c04fceb", "lat": 38.89375, "fusion_lon": 0.0, "fusion_lat": 0.0, "type": "electric_scooter", "name": "0b32935b8f1c3c6d21568d880c04fceb", "is_disabled": 0, "rental_uris": {"ios": "https://dc.lft.to/lastmile_qr_scan", "android": "https://dc.lft.to/lastmile_qr_scan"}, "is_reserved": 0}, {"lon": -77.03428483333333, "bike_id": "8574c9743e8102043b088ae05521aff8", "lat": 38.927348, "fusion_lon": 0.0, "fusion_lat": 0.0, "type": "electric_scooter", "name": "8574c9743e8102043b088ae05521aff8", "is_disabled": 0, "rental_uris": {"ios": "https://dc.lft.to/lastmile_qr_scan", "android": "https://dc.lft.to/lastmile_qr_scan"}, "is_reserved": 0}, {"lon": -76.988419, "bike_id": "82157a4a0acce14fedfa1bc836c0a8d5", "lat": 38.89670566666667, "fusion_lon": 0.0, "fusion_lat": 0.0, "type": "electric_scooter", "name": "82157a4a0acce14fedfa1bc836c0a8d5", "is_disabled": 0, "rental_uris": {"ios": "https://dc.lft.to/lastmile_qr_scan", "android": "https://dc.lft.to/lastmile_qr_scan"}, "is_reserved": 0}, {"lon": -77.05761166666667, "bike_id": "3abb0e9f1f39b16302964a494718fb74", "lat": 38.924938, "fusion_lon": 0.0, "fusion_lat": 0.0, "type": "electric_bike", "name": "3abb0e9f1f39b16302964a494718fb74", "is_disabled": 0, "rental_uris": {"ios": "https://dc.lft.to/lastmile_qr_scan", "android": "https://dc.lft.to/lastmile_qr_scan"}, "is_reserved": 0}, {"lon": -77.10840783333333, "bike_id": "4f297cbf156d4b8c0c67f4ccf4f60582", "lat": 38.81204366666667, "fusion_lon": 0.0, "fusion_lat": 0.0, "type": "electric_bike", "name": "4f297cbf156d4b8c0c67f4ccf4f60582", "is_disabled": 0, "rental_uris": {"ios": "https://dc.lft.to/lastmile_qr_scan", "android": "https://dc.lft.to/lastmile_qr_scan"}, "is_reserved": 0}, {"lon": -77.0230275, "bike_id": "9b2948c81fdc08cab3d429dba6037ddc", "lat": 38.92732566666667, "fusion_lon": 0.0, "fusion_lat": 0.0, "type": "electric_scooter", "name": "9b2948c81fdc08cab3d429dba6037ddc", "is_disabled": 0, "rental_uris": {"ios": "https://dc.lft.to/lastmile_qr_scan", "android": "https://dc.lft.to/lastmile_qr_scan"}, "is_reserved": 0}, {"lon": -77.02838283333334, "bike_id": "81f38a3c9b5134eb81a82f4050b1519c", "lat": 38.8877035, "fusion_lon": 0.0, "fusion_lat": 0.0, "type": "electric_scooter", "name": "81f38a3c9b5134eb81a82f4050b1519c", "is_disabled": 0, "rental_uris": {"ios": "https://dc.lft.to/lastmile_qr_scan", "android": "https://dc.lft.to/lastmile_qr_scan"}, "is_reserved": 0}, {"lon": -77.04493616666667, "bike_id": "7336f90e22eecd1622d45dc1b1bc7a58", "lat": 38.90493016666667, "fusion_lon": 0.0, "fusion_lat": 0.0, "type": "electric_scooter", "name": "7336f90e22eecd1622d45dc1b1bc7a58", "is_disabled": 0, "rental_uris": {"ios": "https://dc.lft.to/lastmile_qr_scan", "android": "https://dc.lft.to/lastmile_qr_scan"}, "is_reserved": 0}, {"lon": -76.94682383333334, "bike_id": "138178859fd8a6feb5dcc1fccbcc03c5", "lat": 38.886288, "fusion_lon": 0.0, "fusion_lat": 0.0, "type": "electric_scooter", "name": "138178859fd8a6feb5dcc1fccbcc03c5", "is_disabled": 0, "rental_uris": {"ios": "https://dc.lft.to/lastmile_qr_scan", "android": "https://dc.lft.to/lastmile_qr_scan"}, "is_reserved": 0}, {"lon": -77.00003916666667, "bike_id": "325985509370d04f2e8e831918fa9a18", "lat": 38.897455, "fusion_lon": 0.0, "fusion_lat": 0.0, "type": "electric_scooter", "name": "325985509370d04f2e8e831918fa9a18", "is_disabled": 0, "rental_uris": {"ios": "https://dc.lft.to/lastmile_qr_scan", "android": "https://dc.lft.to/lastmile_qr_scan"}, "is_reserved": 0}, {"lon": -77.04126616666667, "bike_id": "7588b587aef04537992b764190518f41", "lat": 38.91552516666667, "fusion_lon": 0.0, "fusion_lat": 0.0, "type": "electric_scooter", "name": "7588b587aef04537992b764190518f41", "is_disabled": 0, "rental_uris": {"ios": "https://dc.lft.to/lastmile_qr_scan", "android": "https://dc.lft.to/lastmile_qr_scan"}, "is_reserved": 0}, {"lon": -77.06580016666666, "bike_id": "b3e5b7a69a562596b809a095ecaf5e56", "lat": 38.91136233333334, "fusion_lon": 0.0, "fusion_lat": 0.0, "type": "electric_bike", "name": "b3e5b7a69a562596b809a095ecaf5e56", "is_disabled": 0, "rental_uris": {"ios": "https://dc.lft.to/lastmile_qr_scan", "android": "https://dc.lft.to/lastmile_qr_scan"}, "is_reserved": 0}, {"lon": -77.0280105, "bike_id": "a8bc0defa1026d31c2bb51180ba0ad67", "lat": 38.90740433333333, "fusion_lon": 0.0, "fusion_lat": 0.0, "type": "electric_scooter", "name": "a8bc0defa1026d31c2bb51180ba0ad67", "is_disabled": 0, "rental_uris": {"ios": "https://dc.lft.to/lastmile_qr_scan", "android": "https://dc.lft.to/lastmile_qr_scan"}, "is_reserved": 0}, {"lon": -76.96524633333334, "bike_id": "2b4d272b4fa690c217a469b5e56b93b3", "lat": 38.87630716666666, "fusion_lon": 0.0, "fusion_lat": 0.0, "type": "electric_scooter", "name": "2b4d272b4fa690c217a469b5e56b93b3", "is_disabled": 0, "rental_uris": {"ios": "https://dc.lft.to/lastmile_qr_scan", "android": "https://dc.lft.to/lastmile_qr_scan"}, "is_reserved": 0}, {"lon": -76.997573, "bike_id": "1f0488a39a5288e8c9e0f684e7a8fe79", "lat": 38.887645666666664, "fusion_lon": 0.0, "fusion_lat": 0.0, "type": "electric_scooter", "name": "1f0488a39a5288e8c9e0f684e7a8fe79", "is_disabled": 0, "rental_uris": {"ios": "https://dc.lft.to/lastmile_qr_scan", "android": "https://dc.lft.to/lastmile_qr_scan"}, "is_reserved": 0}, {"lon": -77.03132383333333, "bike_id": "203e4702293b8979d0170943dec673a0", "lat": 38.91558966666667, "fusion_lon": 0.0, "fusion_lat": 0.0, "type": "electric_scooter", "name": "203e4702293b8979d0170943dec673a0", "is_disabled": 0, "rental_uris": {"ios": "https://dc.lft.to/lastmile_qr_scan", "android": "https://dc.lft.to/lastmile_qr_scan"}, "is_reserved": 0}, {"lon": -77.02585366666666, "bike_id": "40a9dcfc981ca599d6564d16ef27b9d0", "lat": 38.905198, "fusion_lon": 0.0, "fusion_lat": 0.0, "type": "electric_scooter", "name": "40a9dcfc981ca599d6564d16ef27b9d0", "is_disabled": 0, "rental_uris": {"ios": "https://dc.lft.to/lastmile_qr_scan", "android": "https://dc.lft.to/lastmile_qr_scan"}, "is_reserved": 0}, {"lon": -76.91601983333334, "bike_id": "1c8b64f47fb9c24220a1cbd8ad681825", "lat": 38.879819833333336, "fusion_lon": 0.0, "fusion_lat": 0.0, "type": "electric_bike", "name": "1c8b64f47fb9c24220a1cbd8ad681825", "is_disabled": 0, "rental_uris": {"ios": "https://dc.lft.to/lastmile_qr_scan", "android": "https://dc.lft.to/lastmile_qr_scan"}, "is_reserved": 0}, {"lon": -77.03662133333333, "bike_id": "6e212ab8f76106f9242e72e406940633", "lat": 38.902712666666666, "fusion_lon": 0.0, "fusion_lat": 0.0, "type": "electric_scooter", "name": "6e212ab8f76106f9242e72e406940633", "is_disabled": 0, "rental_uris": {"ios": "https://dc.lft.to/lastmile_qr_scan", "android": "https://dc.lft.to/lastmile_qr_scan"}, "is_reserved": 0}, {"lon": -77.05887683333333, "bike_id": "98ab1ce094557bb7f972dea0470e10a3", "lat": 38.94241016666667, "fusion_lon": 0.0, "fusion_lat": 0.0, "type": "electric_scooter", "name": "98ab1ce094557bb7f972dea0470e10a3", "is_disabled": 0, "rental_uris": {"ios": "https://dc.lft.to/lastmile_qr_scan", "android": "https://dc.lft.to/lastmile_qr_scan"}, "is_reserved": 0}, {"lon": -77.060457, "bike_id": "2748ad9ae4374cb18a1e7ca1d7e5cf62", "lat": 38.93824733333334, "fusion_lon": 0.0, "fusion_lat": 0.0, "type": "electric_scooter", "name": "2748ad9ae4374cb18a1e7ca1d7e5cf62", "is_disabled": 0, "rental_uris": {"ios": "https://dc.lft.to/lastmile_qr_scan", "android": "https://dc.lft.to/lastmile_qr_scan"}, "is_reserved": 0}, {"lon": -77.07345533333333, "bike_id": "b491f8848702cc6033e166ae4850f7f9", "lat": 38.91108416666667, "fusion_lon": 0.0, "fusion_lat": 0.0, "type": "electric_scooter", "name": "b491f8848702cc6033e166ae4850f7f9", "is_disabled": 0, "rental_uris": {"ios": "https://dc.lft.to/lastmile_qr_scan", "android": "https://dc.lft.to/lastmile_qr_scan"}, "is_reserved": 0}, {"lon": -77.04565683333334, "bike_id": "1730f5f10f831cfed96c9f24338b22a8", "lat": 38.91830483333333, "fusion_lon": 0.0, "fusion_lat": 0.0, "type": "electric_scooter", "name": "1730f5f10f831cfed96c9f24338b22a8", "is_disabled": 0, "rental_uris": {"ios": "https://dc.lft.to/lastmile_qr_scan", "android": "https://dc.lft.to/lastmile_qr_scan"}, "is_reserved": 0}, {"lon": -76.9984525, "bike_id": "945c933f1b4b5e994c8f40dd48de7862", "lat": 38.90733616666667, "fusion_lon": 0.0, "fusion_lat": 0.0, "type": "electric_scooter", "name": "945c933f1b4b5e994c8f40dd48de7862", "is_disabled": 0, "rental_uris": {"ios": "https://dc.lft.to/lastmile_qr_scan", "android": "https://dc.lft.to/lastmile_qr_scan"}, "is_reserved": 0}, {"lon": -77.0248275, "bike_id": "7c8d01d7b79aa21318157c8c9ca78e9e", "lat": 38.904127833333334, "fusion_lon": 0.0, "fusion_lat": 0.0, "type": "electric_scooter", "name": "7c8d01d7b79aa21318157c8c9ca78e9e", "is_disabled": 0, "rental_uris": {"ios": "https://dc.lft.to/lastmile_qr_scan", "android": "https://dc.lft.to/lastmile_qr_scan"}, "is_reserved": 0}, {"lon": -77.01188733333333, "bike_id": "c5126949c3a8f740f8697d0e17cca135", "lat": 38.915564333333336, "fusion_lon": 0.0, "fusion_lat": 0.0, "type": "electric_scooter", "name": "c5126949c3a8f740f8697d0e17cca135", "is_disabled": 0, "rental_uris": {"ios": "https://dc.lft.to/lastmile_qr_scan", "android": "https://dc.lft.to/lastmile_qr_scan"}, "is_reserved": 0}, {"lon": -77.00005883333333, "bike_id": "d45d7fc07d2906ed0543877ee09e0840", "lat": 38.87492533333333, "fusion_lon": 0.0, "fusion_lat": 0.0, "type": "electric_scooter", "name": "d45d7fc07d2906ed0543877ee09e0840", "is_disabled": 0, "rental_uris": {"ios": "https://dc.lft.to/lastmile_qr_scan", "android": "https://dc.lft.to/lastmile_qr_scan"}, "is_reserved": 0}, {"lon": -77.041773, "bike_id": "08a38007f1127e1455bb94b0fb8ff931", "lat": 38.9176995, "fusion_lon": 0.0, "fusion_lat": 0.0, "type": "electric_scooter", "name": "08a38007f1127e1455bb94b0fb8ff931", "is_disabled": 0, "rental_uris": {"ios": "https://dc.lft.to/lastmile_qr_scan", "android": "https://dc.lft.to/lastmile_qr_scan"}, "is_reserved": 0}, {"lon": -77.01728766666666, "bike_id": "7cb856afa44ba6e3b7840a20c7e5df1c", "lat": 38.872763666666664, "fusion_lon": 0.0, "fusion_lat": 0.0, "type": "electric_scooter", "name": "7cb856afa44ba6e3b7840a20c7e5df1c", "is_disabled": 0, "rental_uris": {"ios": "https://dc.lft.to/lastmile_qr_scan", "android": "https://dc.lft.to/lastmile_qr_scan"}, "is_reserved": 0}, {"lon": -76.98227916666667, "bike_id": "6dfdc5820acd16f33b528b771d6dcb0b", "lat": 38.8661995, "fusion_lon": 0.0, "fusion_lat": 0.0, "type": "electric_scooter", "name": "6dfdc5820acd16f33b528b771d6dcb0b", "is_disabled": 0, "rental_uris": {"ios": "https://dc.lft.to/lastmile_qr_scan", "android": "https://dc.lft.to/lastmile_qr_scan"}, "is_reserved": 0}, {"lon": -77.03860033333333, "bike_id": "a465dd93b18728c3ada96e4f1f4638af", "lat": 38.91556216666667, "fusion_lon": 0.0, "fusion_lat": 0.0, "type": "electric_scooter", "name": "a465dd93b18728c3ada96e4f1f4638af", "is_disabled": 0, "rental_uris": {"ios": "https://dc.lft.to/lastmile_qr_scan", "android": "https://dc.lft.to/lastmile_qr_scan"}, "is_reserved": 0}, {"lon": -77.01556466666666, "bike_id": "617a628d0847ae1f5c17663554f0839e", "lat": 38.880339166666666, "fusion_lon": 0.0, "fusion_lat": 0.0, "type": "electric_scooter", "name": "617a628d0847ae1f5c17663554f0839e", "is_disabled": 0, "rental_uris": {"ios": "https://dc.lft.to/lastmile_qr_scan", "android": "https://dc.lft.to/lastmile_qr_scan"}, "is_reserved": 0}, {"lon": -77.12226766666667, "bike_id": "d69cefd4f2f9d10765e2a9c836eb03d3", "lat": 38.853024833333336, "fusion_lon": 0.0, "fusion_lat": 0.0, "type": "electric_bike", "name": "d69cefd4f2f9d10765e2a9c836eb03d3", "is_disabled": 0, "rental_uris": {"ios": "https://dc.lft.to/lastmile_qr_scan", "android": "https://dc.lft.to/lastmile_qr_scan"}, "is_reserved": 0}, {"lon": -76.99047066666667, "bike_id": "fa660ffd4018289d5390a4ca43018979", "lat": 38.8842045, "fusion_lon": 0.0, "fusion_lat": 0.0, "type": "electric_scooter", "name": "fa660ffd4018289d5390a4ca43018979", "is_disabled": 0, "rental_uris": {"ios": "https://dc.lft.to/lastmile_qr_scan", "android": "https://dc.lft.to/lastmile_qr_scan"}, "is_reserved": 0}, {"lon": -77.03281833333334, "bike_id": "9c8f285a4f1a4c3404ee0d531a8678e9", "lat": 38.9364445, "fusion_lon": 0.0, "fusion_lat": 0.0, "type": "electric_scooter", "name": "9c8f285a4f1a4c3404ee0d531a8678e9", "is_disabled": 0, "rental_uris": {"ios": "https://dc.lft.to/lastmile_qr_scan", "android": "https://dc.lft.to/lastmile_qr_scan"}, "is_reserved": 0}, {"lon": -77.03636966666667, "bike_id": "e6052aaf9b825c48773d473d1e38e31e", "lat": 38.912906, "fusion_lon": 0.0, "fusion_lat": 0.0, "type": "electric_scooter", "name": "e6052aaf9b825c48773d473d1e38e31e", "is_disabled": 0, "rental_uris": {"ios": "https://dc.lft.to/lastmile_qr_scan", "android": "https://dc.lft.to/lastmile_qr_scan"}, "is_reserved": 0}, {"lon": -77.023608, "bike_id": "3068f2cf4afa12314cffca0b48498eee", "lat": 38.89220016666667, "fusion_lon": 0.0, "fusion_lat": 0.0, "type": "electric_scooter", "name": "3068f2cf4afa12314cffca0b48498eee", "is_disabled": 0, "rental_uris": {"ios": "https://dc.lft.to/lastmile_qr_scan", "android": "https://dc.lft.to/lastmile_qr_scan"}, "is_reserved": 0}, {"lon": -77.00770933333334, "bike_id": "d185588ebe15bd59f88de7b1c266a3a9", "lat": 38.9838795, "fusion_lon": 0.0, "fusion_lat": 0.0, "type": "electric_bike", "name": "d185588ebe15bd59f88de7b1c266a3a9", "is_disabled": 0, "rental_uris": {"ios": "https://dc.lft.to/lastmile_qr_scan", "android": "https://dc.lft.to/lastmile_qr_scan"}, "is_reserved": 0}, {"lon": -77.02875183333333, "bike_id": "6880c2376f4aee0b979ca1382f920dd9", "lat": 38.928261166666665, "fusion_lon": 0.0, "fusion_lat": 0.0, "type": "electric_scooter", "name": "6880c2376f4aee0b979ca1382f920dd9", "is_disabled": 0, "rental_uris": {"ios": "https://dc.lft.to/lastmile_qr_scan", "android": "https://dc.lft.to/lastmile_qr_scan"}, "is_reserved": 0}, {"lon": -76.9945495, "bike_id": "819c91e8f5fec8654059fcbad8a8fdb4", "lat": 38.862198166666666, "fusion_lon": 0.0, "fusion_lat": 0.0, "type": "electric_scooter", "name": "819c91e8f5fec8654059fcbad8a8fdb4", "is_disabled": 0, "rental_uris": {"ios": "https://dc.lft.to/lastmile_qr_scan", "android": "https://dc.lft.to/lastmile_qr_scan"}, "is_reserved": 0}, {"lon": -77.031159, "bike_id": "c55a3fd3ef20895bc7f3e9a075447470", "lat": 38.917048, "fusion_lon": 0.0, "fusion_lat": 0.0, "type": "electric_scooter", "name": "c55a3fd3ef20895bc7f3e9a075447470", "is_disabled": 0, "rental_uris": {"ios": "https://dc.lft.to/lastmile_qr_scan", "android": "https://dc.lft.to/lastmile_qr_scan"}, "is_reserved": 0}, {"lon": -77.05435166666666, "bike_id": "0987f4ab992661dc63fbf16b310d6543", "lat": 38.928718833333335, "fusion_lon": 0.0, "fusion_lat": 0.0, "type": "electric_scooter", "name": "0987f4ab992661dc63fbf16b310d6543", "is_disabled": 0, "rental_uris": {"ios": "https://dc.lft.to/lastmile_qr_scan", "android": "https://dc.lft.to/lastmile_qr_scan"}, "is_reserved": 0}, {"lon": -76.98093016666667, "bike_id": "41437d5508b9cbb71c1daedd31ee7d58", "lat": 38.95357816666667, "fusion_lon": 0.0, "fusion_lat": 0.0, "type": "electric_bike", "name": "41437d5508b9cbb71c1daedd31ee7d58", "is_disabled": 0, "rental_uris": {"ios": "https://dc.lft.to/lastmile_qr_scan", "android": "https://dc.lft.to/lastmile_qr_scan"}, "is_reserved": 0}, {"lon": -77.0279825, "bike_id": "6aca95c61c07333b1812db7c37cce7f5", "lat": 38.904744666666666, "fusion_lon": 0.0, "fusion_lat": 0.0, "type": "electric_scooter", "name": "6aca95c61c07333b1812db7c37cce7f5", "is_disabled": 0, "rental_uris": {"ios": "https://dc.lft.to/lastmile_qr_scan", "android": "https://dc.lft.to/lastmile_qr_scan"}, "is_reserved": 0}, {"lon": -77.03652533333333, "bike_id": "da163c00c4ef09994a726c34978b0f3a", "lat": 38.94093633333333, "fusion_lon": 0.0, "fusion_lat": 0.0, "type": "electric_scooter", "name": "da163c00c4ef09994a726c34978b0f3a", "is_disabled": 0, "rental_uris": {"ios": "https://dc.lft.to/lastmile_qr_scan", "android": "https://dc.lft.to/lastmile_qr_scan"}, "is_reserved": 0}, {"lon": -77.03339766666667, "bike_id": "68964f0b8629d12443c33a1edff15593", "lat": 38.902355666666665, "fusion_lon": 0.0, "fusion_lat": 0.0, "type": "electric_scooter", "name": "68964f0b8629d12443c33a1edff15593", "is_disabled": 0, "rental_uris": {"ios": "https://dc.lft.to/lastmile_qr_scan", "android": "https://dc.lft.to/lastmile_qr_scan"}, "is_reserved": 0}, {"lon": -77.03028733333333, "bike_id": "dbf58c39a106ec11500d5f84395b77e6", "lat": 38.93119016666667, "fusion_lon": 0.0, "fusion_lat": 0.0, "type": "electric_scooter", "name": "dbf58c39a106ec11500d5f84395b77e6", "is_disabled": 0, "rental_uris": {"ios": "https://dc.lft.to/lastmile_qr_scan", "android": "https://dc.lft.to/lastmile_qr_scan"}, "is_reserved": 0}, {"lon": -77.0296675, "bike_id": "18d65ee8ee5866bbbd3ec99023545932", "lat": 38.90773266666667, "fusion_lon": 0.0, "fusion_lat": 0.0, "type": "electric_scooter", "name": "18d65ee8ee5866bbbd3ec99023545932", "is_disabled": 0, "rental_uris": {"ios": "https://dc.lft.to/lastmile_qr_scan", "android": "https://dc.lft.to/lastmile_qr_scan"}, "is_reserved": 0}, {"lon": -76.94633933333333, "bike_id": "3fbf619691bb4f991a9cc6dfbf560b6b", "lat": 38.89832716666667, "fusion_lon": 0.0, "fusion_lat": 0.0, "type": "electric_scooter", "name": "3fbf619691bb4f991a9cc6dfbf560b6b", "is_disabled": 0, "rental_uris": {"ios": "https://dc.lft.to/lastmile_qr_scan", "android": "https://dc.lft.to/lastmile_qr_scan"}, "is_reserved": 0}, {"lon": -77.36092566666666, "bike_id": "34f55d2c7c1a419641365abf6ff001ce", "lat": 38.93956083333333, "fusion_lon": 0.0, "fusion_lat": 0.0, "type": "electric_bike", "name": "34f55d2c7c1a419641365abf6ff001ce", "is_disabled": 0, "rental_uris": {"ios": "https://dc.lft.to/lastmile_qr_scan", "android": "https://dc.lft.to/lastmile_qr_scan"}, "is_reserved": 0}, {"lon": -76.97703883333334, "bike_id": "d8acb5421de0e0053c8e66cfc86d531d", "lat": 38.94915816666666, "fusion_lon": 0.0, "fusion_lat": 0.0, "type": "electric_bike", "name": "d8acb5421de0e0053c8e66cfc86d531d", "is_disabled": 0, "rental_uris": {"ios": "https://dc.lft.to/lastmile_qr_scan", "android": "https://dc.lft.to/lastmile_qr_scan"}, "is_reserved": 0}, {"lon": -77.02005633333333, "bike_id": "3c742d422fc7e39aea0f212ff0cd12a9", "lat": 38.91313366666667, "fusion_lon": 0.0, "fusion_lat": 0.0, "type": "electric_scooter", "name": "3c742d422fc7e39aea0f212ff0cd12a9", "is_disabled": 0, "rental_uris": {"ios": "https://dc.lft.to/lastmile_qr_scan", "android": "https://dc.lft.to/lastmile_qr_scan"}, "is_reserved": 0}, {"lon": -77.041729, "bike_id": "59953bbe5114b926f68ebfbf1a2af4d7", "lat": 38.91657216666667, "fusion_lon": 0.0, "fusion_lat": 0.0, "type": "electric_scooter", "name": "59953bbe5114b926f68ebfbf1a2af4d7", "is_disabled": 0, "rental_uris": {"ios": "https://dc.lft.to/lastmile_qr_scan", "android": "https://dc.lft.to/lastmile_qr_scan"}, "is_reserved": 0}, {"lon": -77.03868516666667, "bike_id": "212db9b2f59c1af3712474881c6ed22d", "lat": 38.9215465, "fusion_lon": 0.0, "fusion_lat": 0.0, "type": "electric_scooter", "name": "212db9b2f59c1af3712474881c6ed22d", "is_disabled": 0, "rental_uris": {"ios": "https://dc.lft.to/lastmile_qr_scan", "android": "https://dc.lft.to/lastmile_qr_scan"}, "is_reserved": 0}, {"lon": -77.03657783333334, "bike_id": "85d2f3b25d5c29b11912bc02b859548c", "lat": 38.91753216666667, "fusion_lon": 0.0, "fusion_lat": 0.0, "type": "electric_scooter", "name": "85d2f3b25d5c29b11912bc02b859548c", "is_disabled": 0, "rental_uris": {"ios": "https://dc.lft.to/lastmile_qr_scan", "android": "https://dc.lft.to/lastmile_qr_scan"}, "is_reserved": 0}, {"lon": -77.05121233333334, "bike_id": "da0673a01d91cdc8f4de7d2a631038ed", "lat": 38.90206666666667, "fusion_lon": 0.0, "fusion_lat": 0.0, "type": "electric_scooter", "name": "da0673a01d91cdc8f4de7d2a631038ed", "is_disabled": 0, "rental_uris": {"ios": "https://dc.lft.to/lastmile_qr_scan", "android": "https://dc.lft.to/lastmile_qr_scan"}, "is_reserved": 0}, {"lon": -77.0165765, "bike_id": "8f82a4e3f3e7f64d247cf02781645a04", "lat": 38.88753583333333, "fusion_lon": 0.0, "fusion_lat": 0.0, "type": "electric_scooter", "name": "8f82a4e3f3e7f64d247cf02781645a04", "is_disabled": 0, "rental_uris": {"ios": "https://dc.lft.to/lastmile_qr_scan", "android": "https://dc.lft.to/lastmile_qr_scan"}, "is_reserved": 0}, {"lon": -76.90596316666667, "bike_id": "74dd7cae8828169f286b335ee6a2aad0", "lat": 39.004554666666664, "fusion_lon": 0.0, "fusion_lat": 0.0, "type": "electric_bike", "name": "74dd7cae8828169f286b335ee6a2aad0", "is_disabled": 0, "rental_uris": {"ios": "https://dc.lft.to/lastmile_qr_scan", "android": "https://dc.lft.to/lastmile_qr_scan"}, "is_reserved": 0}, {"lon": -77.00381166666666, "bike_id": "75529b55f38061a46551a8c639e2307d", "lat": 38.89745533333333, "fusion_lon": 0.0, "fusion_lat": 0.0, "type": "electric_scooter", "name": "75529b55f38061a46551a8c639e2307d", "is_disabled": 0, "rental_uris": {"ios": "https://dc.lft.to/lastmile_qr_scan", "android": "https://dc.lft.to/lastmile_qr_scan"}, "is_reserved": 0}, {"lon": -77.00979233333334, "bike_id": "3b569d641da21ae8ab8855fbd1a85440", "lat": 38.87300183333333, "fusion_lon": 0.0, "fusion_lat": 0.0, "type": "electric_scooter", "name": "3b569d641da21ae8ab8855fbd1a85440", "is_disabled": 0, "rental_uris": {"ios": "https://dc.lft.to/lastmile_qr_scan", "android": "https://dc.lft.to/lastmile_qr_scan"}, "is_reserved": 0}, {"lon": -76.98025333333334, "bike_id": "55f9503cd6c221b453e0fa0c50dc3b25", "lat": 38.90080283333333, "fusion_lon": 0.0, "fusion_lat": 0.0, "type": "electric_bike", "name": "55f9503cd6c221b453e0fa0c50dc3b25", "is_disabled": 0, "rental_uris": {"ios": "https://dc.lft.to/lastmile_qr_scan", "android": "https://dc.lft.to/lastmile_qr_scan"}, "is_reserved": 0}, {"lon": -76.98614, "bike_id": "43cf4955b8638d09d24c26d94c842764", "lat": 38.9383025, "fusion_lon": 0.0, "fusion_lat": 0.0, "type": "electric_scooter", "name": "43cf4955b8638d09d24c26d94c842764", "is_disabled": 0, "rental_uris": {"ios": "https://dc.lft.to/lastmile_qr_scan", "android": "https://dc.lft.to/lastmile_qr_scan"}, "is_reserved": 0}, {"lon": -76.9336065, "bike_id": "521c6be8811204a1f608ac97594bea89", "lat": 38.899157333333335, "fusion_lon": 0.0, "fusion_lat": 0.0, "type": "electric_scooter", "name": "521c6be8811204a1f608ac97594bea89", "is_disabled": 0, "rental_uris": {"ios": "https://dc.lft.to/lastmile_qr_scan", "android": "https://dc.lft.to/lastmile_qr_scan"}, "is_reserved": 0}, {"lon": -77.02410716666667, "bike_id": "1c3016c2997832cd630f292b02840407", "lat": 38.9191655, "fusion_lon": 0.0, "fusion_lat": 0.0, "type": "electric_scooter", "name": "1c3016c2997832cd630f292b02840407", "is_disabled": 0, "rental_uris": {"ios": "https://dc.lft.to/lastmile_qr_scan", "android": "https://dc.lft.to/lastmile_qr_scan"}, "is_reserved": 0}, {"lon": -77.0215675, "bike_id": "4bccc6fc035094cafee712f974a28b3c", "lat": 38.89223416666667, "fusion_lon": 0.0, "fusion_lat": 0.0, "type": "electric_scooter", "name": "4bccc6fc035094cafee712f974a28b3c", "is_disabled": 0, "rental_uris": {"ios": "https://dc.lft.to/lastmile_qr_scan", "android": "https://dc.lft.to/lastmile_qr_scan"}, "is_reserved": 0}, {"lon": -77.02689533333333, "bike_id": "182f5128bd2d34ce0f8f2654f5724cef", "lat": 38.91355016666667, "fusion_lon": 0.0, "fusion_lat": 0.0, "type": "electric_scooter", "name": "182f5128bd2d34ce0f8f2654f5724cef", "is_disabled": 0, "rental_uris": {"ios": "https://dc.lft.to/lastmile_qr_scan", "android": "https://dc.lft.to/lastmile_qr_scan"}, "is_reserved": 0}, {"lon": -76.981806, "bike_id": "4d7c4f4908ea8cde912665a57b384f3b", "lat": 38.895837, "fusion_lon": 0.0, "fusion_lat": 0.0, "type": "electric_scooter", "name": "4d7c4f4908ea8cde912665a57b384f3b", "is_disabled": 0, "rental_uris": {"ios": "https://dc.lft.to/lastmile_qr_scan", "android": "https://dc.lft.to/lastmile_qr_scan"}, "is_reserved": 0}, {"lon": -77.03614866666666, "bike_id": "c4db90478c8d68ba7b59bca428f40aa5", "lat": 38.93683216666667, "fusion_lon": 0.0, "fusion_lat": 0.0, "type": "electric_scooter", "name": "c4db90478c8d68ba7b59bca428f40aa5", "is_disabled": 0, "rental_uris": {"ios": "https://dc.lft.to/lastmile_qr_scan", "android": "https://dc.lft.to/lastmile_qr_scan"}, "is_reserved": 0}, {"lon": -77.0265845, "bike_id": "f4b81cd77881b13bf143b926b4515e8a", "lat": 38.90439, "fusion_lon": 0.0, "fusion_lat": 0.0, "type": "electric_scooter", "name": "f4b81cd77881b13bf143b926b4515e8a", "is_disabled": 0, "rental_uris": {"ios": "https://dc.lft.to/lastmile_qr_scan", "android": "https://dc.lft.to/lastmile_qr_scan"}, "is_reserved": 0}, {"lon": -77.03638283333333, "bike_id": "1000f5321bfd64e4c6cfe8c0270ad54e", "lat": 38.924664166666666, "fusion_lon": 0.0, "fusion_lat": 0.0, "type": "electric_scooter", "name": "1000f5321bfd64e4c6cfe8c0270ad54e", "is_disabled": 0, "rental_uris": {"ios": "https://dc.lft.to/lastmile_qr_scan", "android": "https://dc.lft.to/lastmile_qr_scan"}, "is_reserved": 0}, {"lon": -77.0412285, "bike_id": "8bbaea9767ada0a9ae5039b66bb30748", "lat": 38.92109633333333, "fusion_lon": 0.0, "fusion_lat": 0.0, "type": "electric_scooter", "name": "8bbaea9767ada0a9ae5039b66bb30748", "is_disabled": 0, "rental_uris": {"ios": "https://dc.lft.to/lastmile_qr_scan", "android": "https://dc.lft.to/lastmile_qr_scan"}, "is_reserved": 0}, {"lon": -77.03064283333333, "bike_id": "b32c9efa7f21400b0bb7dc9e54de1a92", "lat": 38.907735, "fusion_lon": 0.0, "fusion_lat": 0.0, "type": "electric_scooter", "name": "b32c9efa7f21400b0bb7dc9e54de1a92", "is_disabled": 0, "rental_uris": {"ios": "https://dc.lft.to/lastmile_qr_scan", "android": "https://dc.lft.to/lastmile_qr_scan"}, "is_reserved": 0}, {"lon": -76.98615533333333, "bike_id": "b3db4e532a3ae78ae03d21e8c786ee97", "lat": 38.905905, "fusion_lon": 0.0, "fusion_lat": 0.0, "type": "electric_scooter", "name": "b3db4e532a3ae78ae03d21e8c786ee97", "is_disabled": 0, "rental_uris": {"ios": "https://dc.lft.to/lastmile_qr_scan", "android": "https://dc.lft.to/lastmile_qr_scan"}, "is_reserved": 0}, {"lon": -77.02962266666667, "bike_id": "34bf0b3232def8fde72e63c0ca50ae4b", "lat": 38.90735566666667, "fusion_lon": 0.0, "fusion_lat": 0.0, "type": "electric_scooter", "name": "34bf0b3232def8fde72e63c0ca50ae4b", "is_disabled": 0, "rental_uris": {"ios": "https://dc.lft.to/lastmile_qr_scan", "android": "https://dc.lft.to/lastmile_qr_scan"}, "is_reserved": 0}, {"lon": -76.94989183333334, "bike_id": "5632a763971ce62a0aded442b25ca099", "lat": 38.893870666666665, "fusion_lon": 0.0, "fusion_lat": 0.0, "type": "electric_scooter", "name": "5632a763971ce62a0aded442b25ca099", "is_disabled": 0, "rental_uris": {"ios": "https://dc.lft.to/lastmile_qr_scan", "android": "https://dc.lft.to/lastmile_qr_scan"}, "is_reserved": 0}, {"lon": -76.93176583333333, "bike_id": "a68e46d5776f66c834140281931df222", "lat": 38.8988355, "fusion_lon": 0.0, "fusion_lat": 0.0, "type": "electric_scooter", "name": "a68e46d5776f66c834140281931df222", "is_disabled": 0, "rental_uris": {"ios": "https://dc.lft.to/lastmile_qr_scan", "android": "https://dc.lft.to/lastmile_qr_scan"}, "is_reserved": 0}, {"lon": -77.0014215, "bike_id": "bfc5c28922686d63de3ac5b54c578c91", "lat": 38.842847166666665, "fusion_lon": 0.0, "fusion_lat": 0.0, "type": "electric_scooter", "name": "bfc5c28922686d63de3ac5b54c578c91", "is_disabled": 0, "rental_uris": {"ios": "https://dc.lft.to/lastmile_qr_scan", "android": "https://dc.lft.to/lastmile_qr_scan"}, "is_reserved": 0}, {"lon": -77.02725083333333, "bike_id": "a6a58f4ea8b37205565d03ee3b79b4ff", "lat": 38.92476883333333, "fusion_lon": 0.0, "fusion_lat": 0.0, "type": "electric_scooter", "name": "a6a58f4ea8b37205565d03ee3b79b4ff", "is_disabled": 0, "rental_uris": {"ios": "https://dc.lft.to/lastmile_qr_scan", "android": "https://dc.lft.to/lastmile_qr_scan"}, "is_reserved": 0}, {"lon": -77.04319666666666, "bike_id": "49ce653251341764fe8e67dc4ddc3bac", "lat": 38.918835, "fusion_lon": 0.0, "fusion_lat": 0.0, "type": "electric_scooter", "name": "49ce653251341764fe8e67dc4ddc3bac", "is_disabled": 0, "rental_uris": {"ios": "https://dc.lft.to/lastmile_qr_scan", "android": "https://dc.lft.to/lastmile_qr_scan"}, "is_reserved": 0}, {"lon": -77.03663883333333, "bike_id": "0892767211c646fc81ea3a3b5cf38934", "lat": 38.9211105, "fusion_lon": 0.0, "fusion_lat": 0.0, "type": "electric_scooter", "name": "0892767211c646fc81ea3a3b5cf38934", "is_disabled": 0, "rental_uris": {"ios": "https://dc.lft.to/lastmile_qr_scan", "android": "https://dc.lft.to/lastmile_qr_scan"}, "is_reserved": 0}, {"lon": -76.98543583333333, "bike_id": "7f59966166a412d0fec4e0ea7ebafedf", "lat": 38.91016116666667, "fusion_lon": 0.0, "fusion_lat": 0.0, "type": "electric_scooter", "name": "7f59966166a412d0fec4e0ea7ebafedf", "is_disabled": 0, "rental_uris": {"ios": "https://dc.lft.to/lastmile_qr_scan", "android": "https://dc.lft.to/lastmile_qr_scan"}, "is_reserved": 0}, {"lon": -77.032861, "bike_id": "51633cb5482e54f45f8969246fb79d38", "lat": 38.8841165, "fusion_lon": 0.0, "fusion_lat": 0.0, "type": "electric_scooter", "name": "51633cb5482e54f45f8969246fb79d38", "is_disabled": 0, "rental_uris": {"ios": "https://dc.lft.to/lastmile_qr_scan", "android": "https://dc.lft.to/lastmile_qr_scan"}, "is_reserved": 0}, {"lon": -76.96468833333333, "bike_id": "8a541ae9ce3b0afa84f61ff4761ba77f", "lat": 38.9344755, "fusion_lon": 0.0, "fusion_lat": 0.0, "type": "electric_scooter", "name": "8a541ae9ce3b0afa84f61ff4761ba77f", "is_disabled": 0, "rental_uris": {"ios": "https://dc.lft.to/lastmile_qr_scan", "android": "https://dc.lft.to/lastmile_qr_scan"}, "is_reserved": 0}, {"lon": -77.02682216666666, "bike_id": "aca4c79a6f01b0c06cd41472e38b0b34", "lat": 38.9848915, "fusion_lon": 0.0, "fusion_lat": 0.0, "type": "electric_scooter", "name": "aca4c79a6f01b0c06cd41472e38b0b34", "is_disabled": 0, "rental_uris": {"ios": "https://dc.lft.to/lastmile_qr_scan", "android": "https://dc.lft.to/lastmile_qr_scan"}, "is_reserved": 0}, {"lon": -77.042589, "bike_id": "a7d4389233913034b85e98de28413051", "lat": 38.91695433333334, "fusion_lon": 0.0, "fusion_lat": 0.0, "type": "electric_scooter", "name": "a7d4389233913034b85e98de28413051", "is_disabled": 0, "rental_uris": {"ios": "https://dc.lft.to/lastmile_qr_scan", "android": "https://dc.lft.to/lastmile_qr_scan"}, "is_reserved": 0}, {"lon": -77.04489983333333, "bike_id": "6e05771ca658ef38b3368e3c9b9a04c0", "lat": 38.90731533333334, "fusion_lon": 0.0, "fusion_lat": 0.0, "type": "electric_scooter", "name": "6e05771ca658ef38b3368e3c9b9a04c0", "is_disabled": 0, "rental_uris": {"ios": "https://dc.lft.to/lastmile_qr_scan", "android": "https://dc.lft.to/lastmile_qr_scan"}, "is_reserved": 0}, {"lon": -77.0022515, "bike_id": "1acc92ae9d91e8657a126af657b897c0", "lat": 38.8920175, "fusion_lon": 0.0, "fusion_lat": 0.0, "type": "electric_scooter", "name": "1acc92ae9d91e8657a126af657b897c0", "is_disabled": 0, "rental_uris": {"ios": "https://dc.lft.to/lastmile_qr_scan", "android": "https://dc.lft.to/lastmile_qr_scan"}, "is_reserved": 0}, {"lon": -77.01537633333334, "bike_id": "e686d77b4d0a13adf3558a747e68d41a", "lat": 38.883324333333334, "fusion_lon": 0.0, "fusion_lat": 0.0, "type": "electric_scooter", "name": "e686d77b4d0a13adf3558a747e68d41a", "is_disabled": 0, "rental_uris": {"ios": "https://dc.lft.to/lastmile_qr_scan", "android": "https://dc.lft.to/lastmile_qr_scan"}, "is_reserved": 0}, {"lon": -77.02715466666666, "bike_id": "684331414a20595fbbcadebdee1ab070", "lat": 38.9067365, "fusion_lon": 0.0, "fusion_lat": 0.0, "type": "electric_scooter", "name": "684331414a20595fbbcadebdee1ab070", "is_disabled": 0, "rental_uris": {"ios": "https://dc.lft.to/lastmile_qr_scan", "android": "https://dc.lft.to/lastmile_qr_scan"}, "is_reserved": 0}, {"lon": -77.02689416666666, "bike_id": "58f44fc337e8fe0a8c3d0e0eda16348c", "lat": 38.94888816666667, "fusion_lon": 0.0, "fusion_lat": 0.0, "type": "electric_scooter", "name": "58f44fc337e8fe0a8c3d0e0eda16348c", "is_disabled": 0, "rental_uris": {"ios": "https://dc.lft.to/lastmile_qr_scan", "android": "https://dc.lft.to/lastmile_qr_scan"}, "is_reserved": 0}, {"lon": -77.0325995, "bike_id": "53bdc109dbfdd27617a55589756791ac", "lat": 38.89727216666667, "fusion_lon": 0.0, "fusion_lat": 0.0, "type": "electric_bike", "name": "53bdc109dbfdd27617a55589756791ac", "is_disabled": 0, "rental_uris": {"ios": "https://dc.lft.to/lastmile_qr_scan", "android": "https://dc.lft.to/lastmile_qr_scan"}, "is_reserved": 0}, {"lon": -77.015204, "bike_id": "5c0ab4f00e81121977036f71051e5c00", "lat": 38.926568833333334, "fusion_lon": 0.0, "fusion_lat": 0.0, "type": "electric_scooter", "name": "5c0ab4f00e81121977036f71051e5c00", "is_disabled": 0, "rental_uris": {"ios": "https://dc.lft.to/lastmile_qr_scan", "android": "https://dc.lft.to/lastmile_qr_scan"}, "is_reserved": 0}, {"lon": -77.031602, "bike_id": "b55c854f56631da83c5291ee855a9f2f", "lat": 38.88421566666667, "fusion_lon": 0.0, "fusion_lat": 0.0, "type": "electric_scooter", "name": "b55c854f56631da83c5291ee855a9f2f", "is_disabled": 0, "rental_uris": {"ios": "https://dc.lft.to/lastmile_qr_scan", "android": "https://dc.lft.to/lastmile_qr_scan"}, "is_reserved": 0}, {"lon": -77.06349616666667, "bike_id": "979416bb85c2946861968f7348f7f8b5", "lat": 38.94454016666667, "fusion_lon": 0.0, "fusion_lat": 0.0, "type": "electric_scooter", "name": "979416bb85c2946861968f7348f7f8b5", "is_disabled": 0, "rental_uris": {"ios": "https://dc.lft.to/lastmile_qr_scan", "android": "https://dc.lft.to/lastmile_qr_scan"}, "is_reserved": 0}, {"lon": -77.04478583333334, "bike_id": "7ffe4c80f42095bc47fb9935da582cff", "lat": 38.9005065, "fusion_lon": 0.0, "fusion_lat": 0.0, "type": "electric_scooter", "name": "7ffe4c80f42095bc47fb9935da582cff", "is_disabled": 0, "rental_uris": {"ios": "https://dc.lft.to/lastmile_qr_scan", "android": "https://dc.lft.to/lastmile_qr_scan"}, "is_reserved": 0}, {"lon": -77.02167783333333, "bike_id": "194cee55b843adad71694acce9c755a1", "lat": 38.942967833333334, "fusion_lon": 0.0, "fusion_lat": 0.0, "type": "electric_scooter", "name": "194cee55b843adad71694acce9c755a1", "is_disabled": 0, "rental_uris": {"ios": "https://dc.lft.to/lastmile_qr_scan", "android": "https://dc.lft.to/lastmile_qr_scan"}, "is_reserved": 0},