{"data": {"bikes": [{"name": "bb00bc16a5eb0b92d1b6c881064b8132", "fusion_lat": 0.0, "type": "electric_scooter", "lat": 38.92895633333333, "is_reserved": 0, "is_disabled": 0, "fusion_lon": 0.0, "bike_id": "bb00bc16a5eb0b92d1b6c881064b8132", "lon": -77.02503633333333, "rental_uris": {"ios": "https://dc.lft.to/lastmile_qr_scan", "android": "https://dc.lft.to/lastmile_qr_scan"}}, {"name": "e8740f61523a4f9f358b51c782c0952a", "fusion_lat": 0.0, "type": "electric_scooter", "lat": 38.90338783333333, "is_reserved": 0, "is_disabled": 0, "fusion_lon": 0.0, "bike_id": "e8740f61523a4f9f358b51c782c0952a", "lon": -77.02535966666666, "rental_uris": {"ios": "https://dc.lft.to/lastmile_qr_scan", "android": "https://dc.lft.to/lastmile_qr_scan"}}, {"name": "0c51f702a6ba50e8cfeead742874d81a", "fusion_lat": 0.0, "type": "electric_scooter", "lat": 38.924949, "is_reserved": 0, "is_disabled": 0, "fusion_lon": 0.0, "bike_id": "0c51f702a6ba50e8cfeead742874d81a", "lon": -77.02169916666666, "rental_uris": {"ios": "https://dc.lft.to/lastmile_qr_scan", "android": "https://dc.lft.to/lastmile_qr_scan"}}, {"name": "d3332e68b6f8a177ed3f098aba4d09d4", "fusion_lat": 0.0, "type": "electric_scooter", "lat": 38.919092666666664, "is_reserved": 0, "is_disabled": 0, "fusion_lon": 0.0, "bike_id": "d3332e68b6f8a177ed3f098aba4d09d4", "lon": -77.03441916666667, "rental_uris": {"ios": "https://dc.lft.to/lastmile_qr_scan", "android": "https://dc.lft.to/lastmile_qr_scan"}}, {"name": "647818b050a665d68c483230f708fa66", "fusion_lat": 0.0, "type": "electric_scooter", "lat": 38.948339, "is_reserved": 0, "is_disabled": 0, "fusion_lon": 0.0, "bike_id": "647818b050a665d68c483230f708fa66", "lon": -77.02554633333334, "rental_uris": {"ios": "https://dc.lft.to/lastmile_qr_scan", "android": "https://dc.lft.to/lastmile_qr_scan"}}, {"name": "3fef8efde09f39c6a13bbc154c5f251f", "fusion_lat": 0.0, "type": "electric_scooter", "lat": 38.903681, "is_reserved": 0, "is_disabled": 0, "fusion_lon": 0.0, "bike_id": "3fef8efde09f39c6a13bbc154c5f251f", "lon": -77.01854233333333, "rental_uris": {"ios": "https://dc.lft.to/lastmile_qr_scan", "android": "https://dc.lft.to/lastmile_qr_scan"}}, {"name": "088450236fbf251c1a4f48c10e46ed4a", "fusion_lat": 0.0, "type": "electric_bike", "lat": 38.922763, "is_reserved": 0, "is_disabled": 0, "fusion_lon": 0.0, "bike_id": "088450236fbf251c1a4f48c10e46ed4a", "lon": -77.0224255, "rental_uris": {"ios": "https://dc.lft.to/lastmile_qr_scan", "android": "https://dc.lft.to/lastmile_qr_scan"}}, {"name": "67922b4693891bd13376f44d215107d3", "fusion_lat": 0.0, "type": "electric_scooter", "lat": 38.9418335, "is_reserved": 0, "is_disabled": 0, "fusion_lon": 0.0, "bike_id": "67922b4693891bd13376f44d215107d3", "lon": -77.02490633333333, "rental_uris": {"ios": "https://dc.lft.to/lastmile_qr_scan", "android": "https://dc.lft.to/lastmile_qr_scan"}}, {"name": "601cbbdf3bb1169472728f919216f3ef", "fusion_lat": 0.0, "type": "electric_scooter", "lat": 38.86206166666667, "is_reserved": 0, "is_disabled": 0, "fusion_lon": 0.0, "bike_id": "601cbbdf3bb1169472728f919216f3ef", "lon": -76.994658, "rental_uris": {"ios": "https://dc.lft.to/lastmile_qr_scan", "android": "https://dc.lft.to/lastmile_qr_scan"}}, {"name": "3c96a1b0d1e29c7181bbdf51c309d9d2", "fusion_lat": 0.0, "type": "electric_scooter", "lat": 38.914765833333334, "is_reserved": 0, "is_disabled": 0, "fusion_lon": 0.0, "bike_id": "3c96a1b0d1e29c7181bbdf51c309d9d2", "lon": -77.04612166666666, "rental_uris": {"ios": "https://dc.lft.to/lastmile_qr_scan", "android": "https://dc.lft.to/lastmile_qr_scan"}}, {"name": "f5a9083488905d4e19dcf7e1a00fc428", "fusion_lat": 0.0, "type": "electric_scooter", "lat": 38.87750716666667, "is_reserved": 0, "is_disabled": 0, "fusion_lon": 0.0, "bike_id": "f5a9083488905d4e19dcf7e1a00fc428", "lon": -76.97244266666667, "rental_uris": {"ios": "https://dc.lft.to/lastmile_qr_scan", "android": "https://dc.lft.to/lastmile_qr_scan"}}, {"name": "b1ced40e94aaa7141a10f58ed0217ee9", "fusion_lat": 0.0, "type": "electric_scooter", "lat": 38.93614316666667, "is_reserved": 0, "is_disabled": 0, "fusion_lon": 0.0, "bike_id": "b1ced40e94aaa7141a10f58ed0217ee9", "lon": -77.05593366666666, "rental_uris": {"ios": "https://dc.lft.to/lastmile_qr_scan", "android": "https://dc.lft.to/lastmile_qr_scan"}}, {"name": "b0afe917344a9d1e204f7f1a03fbcfb7", "fusion_lat": 0.0, "type": "electric_scooter", "lat": 38.91113516666667, "is_reserved": 0, "is_disabled": 0, "fusion_lon": 0.0, "bike_id": "b0afe917344a9d1e204f7f1a03fbcfb7", "lon": -77.04346333333334, "rental_uris": {"ios": "https://dc.lft.to/lastmile_qr_scan", "android": "https://dc.lft.to/lastmile_qr_scan"}}, {"name": "66625cc4a2733f30cbaf4854fa56e6c9", "fusion_lat": 0.0, "type": "electric_scooter", "lat": 38.89604766666667, "is_reserved": 0, "is_disabled": 0, "fusion_lon": 0.0, "bike_id": "66625cc4a2733f30cbaf4854fa56e6c9", "lon": -76.9997275, "rental_uris": {"ios": "https://dc.lft.to/lastmile_qr_scan", "android": "https://dc.lft.to/lastmile_qr_scan"}}, {"name": "e0a0fa13b9f94aa27b09f3d682dc6538", "fusion_lat": 0.0, "type": "electric_scooter", "lat": 38.874537333333336, "is_reserved": 0, "is_disabled": 0, "fusion_lon": 0.0, "bike_id": "e0a0fa13b9f94aa27b09f3d682dc6538", "lon": -77.0076675, "rental_uris": {"ios": "https://dc.lft.to/lastmile_qr_scan", "android": "https://dc.lft.to/lastmile_qr_scan"}}, {"name": "a76a89b4abf095ec2ce0598e52e1e9d7", "fusion_lat": 0.0, "type": "electric_scooter", "lat": 38.88710283333333, "is_reserved": 0, "is_disabled": 0, "fusion_lon": 0.0, "bike_id": "a76a89b4abf095ec2ce0598e52e1e9d7", "lon": -77.0282835, "rental_uris": {"ios": "https://dc.lft.to/lastmile_qr_scan", "android": "https://dc.lft.to/lastmile_qr_scan"}}, {"name": "e52c325df2bcadce0128128e05df7dbc", "fusion_lat": 0.0, "type": "electric_scooter", "lat": 38.942016, "is_reserved": 0, "is_disabled": 0, "fusion_lon": 0.0, "bike_id": "e52c325df2bcadce0128128e05df7dbc", "lon": -77.0251485, "rental_uris": {"ios": "https://dc.lft.to/lastmile_qr_scan", "android": "https://dc.lft.to/lastmile_qr_scan"}}, {"name": "37e946b5d9a700029da1470180c35b2d", "fusion_lat": 0.0, "type": "electric_bike", "lat": 38.94583516666667, "is_reserved": 0, "is_disabled": 0, "fusion_lon": 0.0, "bike_id": "37e946b5d9a700029da1470180c35b2d", "lon": -77.0026655, "rental_uris": {"ios": "https://dc.lft.to/lastmile_qr_scan", "android": "https://dc.lft.to/lastmile_qr_scan"}}, {"name": "6fd808b4cd366125adfdd3e29d9d8071", "fusion_lat": 0.0, "type": "electric_scooter", "lat": 38.900256666666664, "is_reserved": 0, "is_disabled": 0, "fusion_lon": 0.0, "bike_id": "6fd808b4cd366125adfdd3e29d9d8071", "lon": -76.998763, "rental_uris": {"ios": "https://dc.lft.to/lastmile_qr_scan", "android": "https://dc.lft.to/lastmile_qr_scan"}}, {"name": "da6f5cc1f0fd19e68d6a271292f5acc9", "fusion_lat": 0.0, "type": "electric_scooter", "lat": 38.8935385, "is_reserved": 0, "is_disabled": 0, "fusion_lon": 0.0, "bike_id": "da6f5cc1f0fd19e68d6a271292f5acc9", "lon": -77.00334066666667, "rental_uris": {"ios": "https://dc.lft.to/lastmile_qr_scan", "android": "https://dc.lft.to/lastmile_qr_scan"}}, {"name": "3a38a8968f67f0cc61b08717046589e4", "fusion_lat": 0.0, "type": "electric_scooter", "lat": 38.91812616666667, "is_reserved": 0, "is_disabled": 0, "fusion_lon": 0.0, "bike_id": "3a38a8968f67f0cc61b08717046589e4", "lon": -77.0345425, "rental_uris": {"ios": "https://dc.lft.to/lastmile_qr_scan", "android": "https://dc.lft.to/lastmile_qr_scan"}}, {"name": "1611f5a1147527dd45666763c1de5333", "fusion_lat": 0.0, "type": "electric_scooter", "lat": 38.92239, "is_reserved": 0, "is_disabled": 0, "fusion_lon": 0.0, "bike_id": "1611f5a1147527dd45666763c1de5333", "lon": -77.0347425, "rental_uris": {"ios": "https://dc.lft.to/lastmile_qr_scan", "android": "https://dc.lft.to/lastmile_qr_scan"}}, {"name": "10573786a549f592596b70504ee6e532", "fusion_lat": 0.0, "type": "electric_scooter", "lat": 38.88772083333333, "is_reserved": 0, "is_disabled": 0, "fusion_lon": 0.0, "bike_id": "10573786a549f592596b70504ee6e532", "lon": -76.932619, "rental_uris": {"ios": "https://dc.lft.to/lastmile_qr_scan", "android": "https://dc.lft.to/lastmile_qr_scan"}}, {"name": "62bd1c709dd34f5ea8546454fcb29876", "fusion_lat": 0.0, "type": "electric_scooter", "lat": 38.92967133333333, "is_reserved": 0, "is_disabled": 0, "fusion_lon": 0.0, "bike_id": "62bd1c709dd34f5ea8546454fcb29876", "lon": -77.00533633333333, "rental_uris": {"ios": "https://dc.lft.to/lastmile_qr_scan", "android": "https://dc.lft.to/lastmile_qr_scan"}}, {"name": "ca53aeb5d1026d6cf58526db7b3f8731", "fusion_lat": 0.0, "type": "electric_scooter", "lat": 38.92634116666667, "is_reserved": 0, "is_disabled": 0, "fusion_lon": 0.0, "bike_id": "ca53aeb5d1026d6cf58526db7b3f8731", "lon": -77.03471866666666, "rental_uris": {"ios": "https://dc.lft.to/lastmile_qr_scan", "android": "https://dc.lft.to/lastmile_qr_scan"}}, {"name": "f6c2488141dfe6be2763f8a1ec0d036f", "fusion_lat": 0.0, "type": "electric_scooter", "lat": 38.906687166666664, "is_reserved": 0, "is_disabled": 0, "fusion_lon": 0.0, "bike_id": "f6c2488141dfe6be2763f8a1ec0d036f", "lon": -77.03857816666667, "rental_uris": {"ios": "https://dc.lft.to/lastmile_qr_scan", "android": "https://dc.lft.to/lastmile_qr_scan"}}, {"name": "643a9a7dfd52e92f76274304589d84ec", "fusion_lat": 0.0, "type": "electric_scooter", "lat": 38.89668916666667, "is_reserved": 0, "is_disabled": 0, "fusion_lon": 0.0, "bike_id": "643a9a7dfd52e92f76274304589d84ec", "lon": -77.02615883333333, "rental_uris": {"ios": "https://dc.lft.to/lastmile_qr_scan", "android": "https://dc.lft.to/lastmile_qr_scan"}}, {"name": "abacc84e9223cf93c4d5a8f34acf67e7", "fusion_lat": 0.0, "type": "electric_scooter", "lat": 38.902219333333335, "is_reserved": 0, "is_disabled": 0, "fusion_lon": 0.0, "bike_id": "abacc84e9223cf93c4d5a8f34acf67e7", "lon": -77.02259983333333, "rental_uris": {"ios": "https://dc.lft.to/lastmile_qr_scan", "android": "https://dc.lft.to/lastmile_qr_scan"}}, {"name": "5569f9b10a1f3d80284a1b8d74053cd3", "fusion_lat": 0.0, "type": "electric_scooter", "lat": 38.9163505, "is_reserved": 0, "is_disabled": 0, "fusion_lon": 0.0, "bike_id": "5569f9b10a1f3d80284a1b8d74053cd3", "lon": -77.03209616666666, "rental_uris": {"ios": "https://dc.lft.to/lastmile_qr_scan", "android": "https://dc.lft.to/lastmile_qr_scan"}}, {"name": "262f33d41430cbf8bc852a2c88ae2702", "fusion_lat": 0.0, "type": "electric_scooter", "lat": 38.929071666666665, "is_reserved": 0, "is_disabled": 0, "fusion_lon": 0.0, "bike_id": "262f33d41430cbf8bc852a2c88ae2702", "lon": -77.03252933333333, "rental_uris": {"ios": "https://dc.lft.to/lastmile_qr_scan", "android": "https://dc.lft.to/lastmile_qr_scan"}}, {"name": "8df3a24fe24be58b123277ef278758fc", "fusion_lat": 0.0, "type": "electric_scooter", "lat": 38.898180333333336, "is_reserved": 0, "is_disabled": 0, "fusion_lon": 0.0, "bike_id": "8df3a24fe24be58b123277ef278758fc", "lon": -77.04281216666666, "rental_uris": {"ios": "https://dc.lft.to/lastmile_qr_scan", "android": "https://dc.lft.to/lastmile_qr_scan"}}, {"name": "d2c17122742f633f3f28b42fe9d7c67f", "fusion_lat": 0.0, "type": "electric_scooter", "lat": 38.96821116666667, "is_reserved": 0, "is_disabled": 0, "fusion_lon": 0.0, "bike_id": "d2c17122742f633f3f28b42fe9d7c67f", "lon": -77.017898, "rental_uris": {"ios": "https://dc.lft.to/lastmile_qr_scan", "android": "https://dc.lft.to/lastmile_qr_scan"}}, {"name": "6a2089cd695c791704dfa412911f90c1", "fusion_lat": 0.0, "type": "electric_scooter", "lat": 38.91005716666667, "is_reserved": 0, "is_disabled": 0, "fusion_lon": 0.0, "bike_id": "6a2089cd695c791704dfa412911f90c1", "lon": -77.0442205, "rental_uris": {"ios": "https://dc.lft.to/lastmile_qr_scan", "android": "https://dc.lft.to/lastmile_qr_scan"}}, {"name": "28a998cf0c51ffc3533e7d49f19442d7", "fusion_lat": 0.0, "type": "electric_scooter", "lat": 38.910012333333334, "is_reserved": 0, "is_disabled": 0, "fusion_lon": 0.0, "bike_id": "28a998cf0c51ffc3533e7d49f19442d7", "lon": -77.02896383333334, "rental_uris": {"ios": "https://dc.lft.to/lastmile_qr_scan", "android": "https://dc.lft.to/lastmile_qr_scan"}}, {"name": "4235d5594e3a974dbd6f4bcbeb95d6be", "fusion_lat": 0.0, "type": "electric_scooter", "lat": 38.887186166666666, "is_reserved": 0, "is_disabled": 0, "fusion_lon": 0.0, "bike_id": "4235d5594e3a974dbd6f4bcbeb95d6be", "lon": -77.02822183333333, "rental_uris": {"ios": "https://dc.lft.to/lastmile_qr_scan", "android": "https://dc.lft.to/lastmile_qr_scan"}}, {"name": "badf67fcb7b47b91294e863bb733486d", "fusion_lat": 0.0, "type": "electric_scooter", "lat": 38.9330485, "is_reserved": 0, "is_disabled": 0, "fusion_lon": 0.0, "bike_id": "badf67fcb7b47b91294e863bb733486d", "lon": -77.03773666666666, "rental_uris": {"ios": "https://dc.lft.to/lastmile_qr_scan", "android": "https://dc.lft.to/lastmile_qr_scan"}}, {"name": "b589bf90533676df1047bb0400ee6ce7", "fusion_lat": 0.0, "type": "electric_scooter", "lat": 38.90627533333333, "is_reserved": 0, "is_disabled": 0, "fusion_lon": 0.0, "bike_id": "b589bf90533676df1047bb0400ee6ce7", "lon": -77.05148483333333, "rental_uris": {"ios": "https://dc.lft.to/lastmile_qr_scan", "android": "https://dc.lft.to/lastmile_qr_scan"}}, {"name": "139c4edb6be9882e1affe34d1804bb8d", "fusion_lat": 0.0, "type": "electric_scooter", "lat": 38.89615466666667, "is_reserved": 0, "is_disabled": 0, "fusion_lon": 0.0, "bike_id": "139c4edb6be9882e1affe34d1804bb8d", "lon": -77.0446805, "rental_uris": {"ios": "https://dc.lft.to/lastmile_qr_scan", "android": "https://dc.lft.to/lastmile_qr_scan"}}, {"name": "e07b26aae5b856d74d4515285cf08055", "fusion_lat": 0.0, "type": "electric_scooter", "lat": 38.894951666666664, "is_reserved": 0, "is_disabled": 0, "fusion_lon": 0.0, "bike_id": "e07b26aae5b856d74d4515285cf08055", "lon": -77.0110645, "rental_uris": {"ios": "https://dc.lft.to/lastmile_qr_scan", "android": "https://dc.lft.to/lastmile_qr_scan"}}, {"name": "222aebe0fa8b997ff7581499cdd4e5ff", "fusion_lat": 0.0, "type": "electric_bike", "lat": 39.02936283333333, "is_reserved": 0, "is_disabled": 0, "fusion_lon": 0.0, "bike_id": "222aebe0fa8b997ff7581499cdd4e5ff", "lon": -77.04927416666666, "rental_uris": {"ios": "https://dc.lft.to/lastmile_qr_scan", "android": "https://dc.lft.to/lastmile_qr_scan"}}, {"name": "3b51f6a4fc8aa091bbc17443a5261aeb", "fusion_lat": 0.0, "type": "electric_scooter", "lat": 38.936047333333335, "is_reserved": 0, "is_disabled": 0, "fusion_lon": 0.0, "bike_id": "3b51f6a4fc8aa091bbc17443a5261aeb", "lon": -77.058677, "rental_uris": {"ios": "https://dc.lft.to/lastmile_qr_scan", "android": "https://dc.lft.to/lastmile_qr_scan"}}, {"name": "7bd6ea889cce57e3ff47374a2bd615ad", "fusion_lat": 0.0, "type": "electric_scooter", "lat": 38.91888383333333, "is_reserved": 0, "is_disabled": 0, "fusion_lon": 0.0, "bike_id": "7bd6ea889cce57e3ff47374a2bd615ad", "lon": -77.01973066666666, "rental_uris": {"ios": "https://dc.lft.to/lastmile_qr_scan", "android": "https://dc.lft.to/lastmile_qr_scan"}}, {"name": "1edee3d124d4f114b67730459f4ff651", "fusion_lat": 0.0, "type": "electric_scooter", "lat": 38.877016833333336, "is_reserved": 0, "is_disabled": 0, "fusion_lon": 0.0, "bike_id": "1edee3d124d4f114b67730459f4ff651", "lon": -76.99386283333334, "rental_uris": {"ios": "https://dc.lft.to/lastmile_qr_scan", "android": "https://dc.lft.to/lastmile_qr_scan"}}, {"name": "3413256ac3a1b592fb5d62cf643c350c", "fusion_lat": 0.0, "type": "electric_scooter", "lat": 38.90912433333333, "is_reserved": 0, "is_disabled": 0, "fusion_lon": 0.0, "bike_id": "3413256ac3a1b592fb5d62cf643c350c", "lon": -77.036605, "rental_uris": {"ios": "https://dc.lft.to/lastmile_qr_scan", "android": "https://dc.lft.to/lastmile_qr_scan"}}, {"name": "bde8fd4267a959ced0d41660882d0ae9", "fusion_lat": 0.0, "type": "electric_scooter", "lat": 38.8749455, "is_reserved": 0, "is_disabled": 0, "fusion_lon": 0.0, "bike_id": "bde8fd4267a959ced0d41660882d0ae9", "lon": -76.997984, "rental_uris": {"ios": "https://dc.lft.to/lastmile_qr_scan", "android": "https://dc.lft.to/lastmile_qr_scan"}}, {"name": "0c3700a06ea8fcf0570da80291e452a1", "fusion_lat": 0.0, "type": "electric_scooter", "lat": 38.9003925, "is_reserved": 0, "is_disabled": 0, "fusion_lon": 0.0, "bike_id": "0c3700a06ea8fcf0570da80291e452a1", "lon": -77.00104983333334, "rental_uris": {"ios": "https://dc.lft.to/lastmile_qr_scan", "android": "https://dc.lft.to/lastmile_qr_scan"}}, {"name": "04b7104a7add0938de9b22ac6300cbf2", "fusion_lat": 0.0, "type": "electric_scooter", "lat": 38.92722, "is_reserved": 0, "is_disabled": 0, "fusion_lon": 0.0, "bike_id": "04b7104a7add0938de9b22ac6300cbf2", "lon": -77.0056945, "rental_uris": {"ios": "https://dc.lft.to/lastmile_qr_scan", "android": "https://dc.lft.to/lastmile_qr_scan"}}, {"name": "46cf09438e9ae7a3ecb255c2ceb6a7a3", "fusion_lat": 0.0, "type": "electric_scooter", "lat": 38.89372983333333, "is_reserved": 0, "is_disabled": 0, "fusion_lon": 0.0, "bike_id": "46cf09438e9ae7a3ecb255c2ceb6a7a3", "lon": -77.0479565, "rental_uris": {"ios": "https://dc.lft.to/lastmile_qr_scan", "android": "https://dc.lft.to/lastmile_qr_scan"}}, {"name": "dcb7687b95f628b06e77bb9406283808", "fusion_lat": 0.0, "type": "electric_scooter", "lat": 38.918179, "is_reserved": 0, "is_disabled": 0, "fusion_lon": 0.0, "bike_id": "dcb7687b95f628b06e77bb9406283808", "lon": -77.03028766666667, "rental_uris": {"ios": "https://dc.lft.to/lastmile_qr_scan", "android": "https://dc.lft.to/lastmile_qr_scan"}}, {"name": "9b0c293b6511c3499c8955ef24815299", "fusion_lat": 0.0, "type": "electric_bike", "lat": 38.875805, "is_reserved": 0, "is_disabled": 0, "fusion_lon": 0.0, "bike_id": "9b0c293b6511c3499c8955ef24815299", "lon": -77.00759383333333, "rental_uris": {"ios": "https://dc.lft.to/lastmile_qr_scan", "android": "https://dc.lft.to/lastmile_qr_scan"}}, {"name": "edd6b6cf8441fbc360ba66ae0a4ee643", "fusion_lat": 0.0, "type": "electric_bike", "lat": 38.840518, "is_reserved": 0, "is_disabled": 0, "fusion_lon": 0.0, "bike_id": "edd6b6cf8441fbc360ba66ae0a4ee643", "lon": -77.06409266666667, "rental_uris": {"ios": "https://dc.lft.to/lastmile_qr_scan", "android": "https://dc.lft.to/lastmile_qr_scan"}}, {"name": "5f488d546557b38e6a8d4cb0353c1442", "fusion_lat": 0.0, "type": "electric_scooter", "lat": 38.8922035, "is_reserved": 0, "is_disabled": 0, "fusion_lon": 0.0, "bike_id": "5f488d546557b38e6a8d4cb0353c1442", "lon": -77.02230733333333, "rental_uris": {"ios": "https://dc.lft.to/lastmile_qr_scan", "android": "https://dc.lft.to/lastmile_qr_scan"}}, {"name": "b0713efe0479d31946d3571e387fb77c", "fusion_lat": 0.0, "type": "electric_scooter", "lat": 38.86242816666667, "is_reserved": 0, "is_disabled": 0, "fusion_lon": 0.0, "bike_id": "b0713efe0479d31946d3571e387fb77c", "lon": -76.99501133333334, "rental_uris": {"ios": "https://dc.lft.to/lastmile_qr_scan", "android": "https://dc.lft.to/lastmile_qr_scan"}}, {"name": "08661bd74b84486e30b174720ff6a44b", "fusion_lat": 0.0, "type": "electric_scooter", "lat": 38.8949155, "is_reserved": 0, "is_disabled": 0, "fusion_lon": 0.0, "bike_id": "08661bd74b84486e30b174720ff6a44b", "lon": -77.00214333333334, "rental_uris": {"ios": "https://dc.lft.to/lastmile_qr_scan", "android": "https://dc.lft.to/lastmile_qr_scan"}}, {"name": "3f6348db9e0308a66ce65902bd763ddf", "fusion_lat": 0.0, "type": "electric_bike", "lat": 38.857873833333336, "is_reserved": 0, "is_disabled": 0, "fusion_lon": 0.0, "bike_id": "3f6348db9e0308a66ce65902bd763ddf", "lon": -77.099645, "rental_uris": {"ios": "https://dc.lft.to/lastmile_qr_scan", "android": "https://dc.lft.to/lastmile_qr_scan"}}, {"name": "88aa7b705addf9f9b555c96bf721f617", "fusion_lat": 0.0, "type": "electric_bike", "lat": 38.875256666666665, "is_reserved": 0, "is_disabled": 0, "fusion_lon": 0.0, "bike_id": "88aa7b705addf9f9b555c96bf721f617", "lon": -77.19906183333333, "rental_uris": {"ios": "https://dc.lft.to/lastmile_qr_scan", "android": "https://dc.lft.to/lastmile_qr_scan"}}, {"name": "8879f8683e3b304f4b3549cb156a7194", "fusion_lat": 0.0, "type": "electric_scooter", "lat": 38.89907616666667, "is_reserved": 0, "is_disabled": 0, "fusion_lon": 0.0, "bike_id": "8879f8683e3b304f4b3549cb156a7194", "lon": -76.93351416666667, "rental_uris": {"ios": "https://dc.lft.to/lastmile_qr_scan", "android": "https://dc.lft.to/lastmile_qr_scan"}}, {"name": "833cd54b82d3605068c6e372c69569f1", "fusion_lat": 0.0, "type": "electric_bike", "lat": 39.094582333333335, "is_reserved": 0, "is_disabled": 0, "fusion_lon": 0.0, "bike_id": "833cd54b82d3605068c6e372c69569f1", "lon": -77.14994183333333, "rental_uris": {"ios": "https://dc.lft.to/lastmile_qr_scan", "android": "https://dc.lft.to/lastmile_qr_scan"}}, {"name": "45d770e611867373f0ad5f022e8eb996", "fusion_lat": 0.0, "type": "electric_scooter", "lat": 38.91255783333333, "is_reserved": 0, "is_disabled": 0, "fusion_lon": 0.0, "bike_id": "45d770e611867373f0ad5f022e8eb996", "lon": -77.00769966666667, "rental_uris": {"ios": "https://dc.lft.to/lastmile_qr_scan", "android": "https://dc.lft.to/lastmile_qr_scan"}}, {"name": "b838f7c6e8ef2b6113d54efab911e6f6", "fusion_lat": 0.0, "type": "electric_bike", "lat": 38.928525666666665, "is_reserved": 0, "is_disabled": 0, "fusion_lon": 0.0, "bike_id": "b838f7c6e8ef2b6113d54efab911e6f6", "lon": -77.10681183333334, "rental_uris": {"ios": "https://dc.lft.to/lastmile_qr_scan", "android": "https://dc.lft.to/lastmile_qr_scan"}}, {"name": "55a8e60e52ac3b218ad8f7b639e9dc94", "fusion_lat": 0.0, "type": "electric_scooter", "lat": 38.90132033333333, "is_reserved": 0, "is_disabled": 0, "fusion_lon": 0.0, "bike_id": "55a8e60e52ac3b218ad8f7b639e9dc94", "lon": -77.04500783333333, "rental_uris": {"ios": "https://dc.lft.to/lastmile_qr_scan", "android": "https://dc.lft.to/lastmile_qr_scan"}}, {"name": "79abc0f937095378d88c6ad9067883fd", "fusion_lat": 0.0, "type": "electric_scooter", "lat": 38.9220185, "is_reserved": 0, "is_disabled": 0, "fusion_lon": 0.0, "bike_id": "79abc0f937095378d88c6ad9067883fd", "lon": -77.04247283333333, "rental_uris": {"ios": "https://dc.lft.to/lastmile_qr_scan", "android": "https://dc.lft.to/lastmile_qr_scan"}}, {"name": "058d5f4dc57fa074e240a0a04c55a3d4", "fusion_lat": 0.0, "type": "electric_scooter", "lat": 38.89479383333333, "is_reserved": 0, "is_disabled": 0, "fusion_lon": 0.0, "bike_id": "058d5f4dc57fa074e240a0a04c55a3d4", "lon": -77.01062666666667, "rental_uris": {"ios": "https://dc.lft.to/lastmile_qr_scan", "android": "https://dc.lft.to/lastmile_qr_scan"}}, {"name": "ac01cbee9d96b84d5b8fa8cacf69d71c", "fusion_lat": 0.0, "type": "electric_scooter", "lat": 38.931543166666664, "is_reserved": 0, "is_disabled": 0, "fusion_lon": 0.0, "bike_id": "ac01cbee9d96b84d5b8fa8cacf69d71c", "lon": -77.038891, "rental_uris": {"ios": "https://dc.lft.to/lastmile_qr_scan", "android": "https://dc.lft.to/lastmile_qr_scan"}}, {"name": "f3b62bc8470023f581998e2cab9f9981", "fusion_lat": 0.0, "type": "electric_scooter", "lat": 38.93056833333333, "is_reserved": 0, "is_disabled": 0, "fusion_lon": 0.0, "bike_id": "f3b62bc8470023f581998e2cab9f9981", "lon": -77.023264, "rental_uris": {"ios": "https://dc.lft.to/lastmile_qr_scan", "android": "https://dc.lft.to/lastmile_qr_scan"}}, {"name": "8f1c4e2a50a25c2b3ca659037262fd5d", "fusion_lat": 0.0, "type": "electric_scooter", "lat": 38.863685, "is_reserved": 0, "is_disabled": 0, "fusion_lon": 0.0, "bike_id": "8f1c4e2a50a25c2b3ca659037262fd5d", "lon": -77.01362183333333, "rental_uris": {"ios": "https://dc.lft.to/lastmile_qr_scan", "android": "https://dc.lft.to/lastmile_qr_scan"}}, {"name": "23ca568a77d331d974388fbf26fe4f21", "fusion_lat": 0.0, "type": "electric_scooter", "lat": 38.924418333333335, "is_reserved": 0, "is_disabled": 0, "fusion_lon": 0.0, "bike_id": "23ca568a77d331d974388fbf26fe4f21", "lon": -77.029741, "rental_uris": {"ios": "https://dc.lft.to/lastmile_qr_scan", "android": "https://dc.lft.to/lastmile_qr_scan"}}, {"name": "20a33541c4594e3efa9d405a4a928c15", "fusion_lat": 0.0, "type": "electric_scooter", "lat": 38.89218916666667, "is_reserved": 0, "is_disabled": 0, "fusion_lon": 0.0, "bike_id": "20a33541c4594e3efa9d405a4a928c15", "lon": -77.046408, "rental_uris": {"ios": "https://dc.lft.to/lastmile_qr_scan", "android": "https://dc.lft.to/lastmile_qr_scan"}}, {"name": "ef2200055330cdd980c077e837d04e59", "fusion_lat": 0.0, "type": "electric_scooter", "lat": 38.883472833333336, "is_reserved": 0, "is_disabled": 0, "fusion_lon": 0.0, "bike_id": "ef2200055330cdd980c077e837d04e59", "lon": -76.94935333333333, "rental_uris": {"ios": "https://dc.lft.to/lastmile_qr_scan", "android": "https://dc.lft.to/lastmile_qr_scan"}}, {"name": "8afd125129f359923083e6ae22199237", "fusion_lat": 0.0, "type": "electric_scooter", "lat": 38.9276895, "is_reserved": 0, "is_disabled": 0, "fusion_lon": 0.0, "bike_id": "8afd125129f359923083e6ae22199237", "lon": -77.02715383333333, "rental_uris": {"ios": "https://dc.lft.to/lastmile_qr_scan", "android": "https://dc.lft.to/lastmile_qr_scan"}}, {"name": "a96acc54cb4481f6280f40d2ce1b8850", "fusion_lat": 0.0, "type": "electric_scooter", "lat": 38.9256275, "is_reserved": 0, "is_disabled": 0, "fusion_lon": 0.0, "bike_id": "a96acc54cb4481f6280f40d2ce1b8850", "lon": -77.06288083333334, "rental_uris": {"ios": "https://dc.lft.to/lastmile_qr_scan", "android": "https://dc.lft.to/lastmile_qr_scan"}}, {"name": "c510576ed8f6fa2a62d845069783ec71", "fusion_lat": 0.0, "type": "electric_scooter", "lat": 38.923148166666664, "is_reserved": 0, "is_disabled": 0, "fusion_lon": 0.0, "bike_id": "c510576ed8f6fa2a62d845069783ec71", "lon": -77.04764333333334, "rental_uris": {"ios": "https://dc.lft.to/lastmile_qr_scan", "android": "https://dc.lft.to/lastmile_qr_scan"}}, {"name": "d19d504b98ba07a9608102e3b65a5bcf", "fusion_lat": 0.0, "type": "electric_scooter", "lat": 38.89903016666667, "is_reserved": 0, "is_disabled": 0, "fusion_lon": 0.0, "bike_id": "d19d504b98ba07a9608102e3b65a5bcf", "lon": -77.03915333333333, "rental_uris": {"ios": "https://dc.lft.to/lastmile_qr_scan", "android": "https://dc.lft.to/lastmile_qr_scan"}}, {"name": "ae9bd1cf2bef770dbdd7a44cfc432792", "fusion_lat": 0.0, "type": "electric_scooter", "lat": 38.942065666666664, "is_reserved": 0, "is_disabled": 0, "fusion_lon": 0.0, "bike_id": "ae9bd1cf2bef770dbdd7a44cfc432792", "lon": -77.035935, "rental_uris": {"ios": "https://dc.lft.to/lastmile_qr_scan", "android": "https://dc.lft.to/lastmile_qr_scan"}}, {"name": "a2241a6e12ff6961e2344a13ebd0ae12", "fusion_lat": 0.0, "type": "electric_scooter", "lat": 38.89826766666667, "is_reserved": 0, "is_disabled": 0, "fusion_lon": 0.0, "bike_id": "a2241a6e12ff6961e2344a13ebd0ae12", "lon": -76.98780516666666, "rental_uris": {"ios": "https://dc.lft.to/lastmile_qr_scan", "android": "https://dc.lft.to/lastmile_qr_scan"}}, {"name": "1884a165c0254fba8094e978bab3d351", "fusion_lat": 0.0, "type": "electric_scooter", "lat": 38.903733333333335, "is_reserved": 0, "is_disabled": 0, "fusion_lon": 0.0, "bike_id": "1884a165c0254fba8094e978bab3d351", "lon": -77.03646566666667, "rental_uris": {"ios": "https://dc.lft.to/lastmile_qr_scan", "android": "https://dc.lft.to/lastmile_qr_scan"}}, {"name": "93884f562df717e04c6110371cc2d324", "fusion_lat": 0.0, "type": "electric_bike", "lat": 38.867448333333336, "is_reserved": 0, "is_disabled": 0, "fusion_lon": 0.0, "bike_id": "93884f562df717e04c6110371cc2d324", "lon": -76.9894085, "rental_uris": {"ios": "https://dc.lft.to/lastmile_qr_scan", "android": "https://dc.lft.to/lastmile_qr_scan"}}, {"name": "c494aa24d3aa83eecd9405cc7c2ac830", "fusion_lat": 0.0, "type": "electric_scooter", "lat": 38.90369583333333, "is_reserved": 0, "is_disabled": 0, "fusion_lon": 0.0, "bike_id": "c494aa24d3aa83eecd9405cc7c2ac830", "lon": -77.035594, "rental_uris": {"ios": "https://dc.lft.to/lastmile_qr_scan", "android": "https://dc.lft.to/lastmile_qr_scan"}}, {"name": "265c15cc9444663d4cf5e07703b85e5a", "fusion_lat": 0.0, "type": "electric_scooter", "lat": 38.905782333333335, "is_reserved": 0, "is_disabled": 0, "fusion_lon": 0.0, "bike_id": "265c15cc9444663d4cf5e07703b85e5a", "lon": -77.04020016666666, "rental_uris": {"ios": "https://dc.lft.to/lastmile_qr_scan", "android": "https://dc.lft.to/lastmile_qr_scan"}}, {"name": "30c7b05238763f5cbb251679c85688fc", "fusion_lat": 0.0, "type": "electric_scooter", "lat": 38.91343233333333, "is_reserved": 0, "is_disabled": 0, "fusion_lon": 0.0, "bike_id": "30c7b05238763f5cbb251679c85688fc", "lon": -77.04839383333334, "rental_uris": {"ios": "https://dc.lft.to/lastmile_qr_scan", "android": "https://dc.lft.to/lastmile_qr_scan"}}, {"name": "11158da476a9f470c60a0a46872d674a", "fusion_lat": 0.0, "type": "electric_scooter", "lat": 38.9012265, "is_reserved": 0, "is_disabled": 0, "fusion_lon": 0.0, "bike_id": "11158da476a9f470c60a0a46872d674a", "lon": -77.04981316666667, "rental_uris": {"ios": "https://dc.lft.to/lastmile_qr_scan", "android": "https://dc.lft.to/lastmile_qr_scan"}}, {"name": "650c9dfa5ff4b2c934bc6bd7ae976c06", "fusion_lat": 0.0, "type": "electric_scooter", "lat": 38.898545, "is_reserved": 0, "is_disabled": 0, "fusion_lon": 0.0, "bike_id": "650c9dfa5ff4b2c934bc6bd7ae976c06", "lon": -77.0161355, "rental_uris": {"ios": "https://dc.lft.to/lastmile_qr_scan", "android": "https://dc.lft.to/lastmile_qr_scan"}}, {"name": "d7073f2cd0547968c9905c1acbdc0dad", "fusion_lat": 0.0, "type": "electric_scooter", "lat": 38.904778, "is_reserved": 0, "is_disabled": 0, "fusion_lon": 0.0, "bike_id": "d7073f2cd0547968c9905c1acbdc0dad", "lon": -77.04350233333334, "rental_uris": {"ios": "https://dc.lft.to/lastmile_qr_scan", "android": "https://dc.lft.to/lastmile_qr_scan"}}, {"name": "791e3472a7c8f0f6ca08e6127a9b498e", "fusion_lat": 0.0, "type": "electric_scooter", "lat": 38.9119815, "is_reserved": 0, "is_disabled": 0, "fusion_lon": 0.0, "bike_id": "791e3472a7c8f0f6ca08e6127a9b498e", "lon": -77.01200583333333, "rental_uris": {"ios": "https://dc.lft.to/lastmile_qr_scan", "android": "https://dc.lft.to/lastmile_qr_scan"}}, {"name": "e3992f7100d90df029de84b4b58dd5f7", "fusion_lat": 0.0, "type": "electric_scooter", "lat": 38.863457333333336, "is_reserved": 0, "is_disabled": 0, "fusion_lon": 0.0, "bike_id": "e3992f7100d90df029de84b4b58dd5f7", "lon": -76.99062966666666, "rental_uris": {"ios": "https://dc.lft.to/lastmile_qr_scan", "android": "https://dc.lft.to/lastmile_qr_scan"}}, {"name": "551b98bcb0a1334638bc08568c86a52b", "fusion_lat": 0.0, "type": "electric_scooter", "lat": 38.898823166666666, "is_reserved": 0, "is_disabled": 0, "fusion_lon": 0.0, "bike_id": "551b98bcb0a1334638bc08568c86a52b", "lon": -76.93178266666666, "rental_uris": {"ios": "https://dc.lft.to/lastmile_qr_scan", "android": "https://dc.lft.to/lastmile_qr_scan"}}, {"name": "6081a05052a8df43d198f4bf97e14a82", "fusion_lat": 0.0, "type": "electric_scooter", "lat": 38.88049083333333, "is_reserved": 0, "is_disabled": 0, "fusion_lon": 0.0, "bike_id": "6081a05052a8df43d198f4bf97e14a82", "lon": -77.01331783333333, "rental_uris": {"ios": "https://dc.lft.to/lastmile_qr_scan", "android": "https://dc.lft.to/lastmile_qr_scan"}}, {"name": "c35c1b445b65eb0bf04c06e59dce13e5", "fusion_lat": 0.0, "type": "electric_scooter", "lat": 38.92049983333333, "is_reserved": 0, "is_disabled": 0, "fusion_lon": 0.0, "bike_id": "c35c1b445b65eb0bf04c06e59dce13e5", "lon": -77.023758, "rental_uris": {"ios": "https://dc.lft.to/lastmile_qr_scan", "android": "https://dc.lft.to/lastmile_qr_scan"}}, {"name": "48524f6564271a8d7ab18bba65494abe", "fusion_lat": 0.0, "type": "electric_scooter", "lat": 38.89222633333333, "is_reserved": 0, "is_disabled": 0, "fusion_lon": 0.0, "bike_id": "48524f6564271a8d7ab18bba65494abe", "lon": -77.0453855, "rental_uris": {"ios": "https://dc.lft.to/lastmile_qr_scan", "android": "https://dc.lft.to/lastmile_qr_scan"}}, {"name": "2820cf2afbfc62eedc54e50caf67e457", "fusion_lat": 0.0, "type": "electric_scooter", "lat": 38.89616566666667, "is_reserved": 0, "is_disabled": 0, "fusion_lon": 0.0, "bike_id": "2820cf2afbfc62eedc54e50caf67e457", "lon": -77.026845, "rental_uris": {"ios": "https://dc.lft.to/lastmile_qr_scan", "android": "https://dc.lft.to/lastmile_qr_scan"}}, {"name": "d58051741d91aec328a16e4c423ada42", "fusion_lat": 0.0, "type": "electric_bike", "lat": 38.97325566666667, "is_reserved": 0, "is_disabled": 0, "fusion_lon": 0.0, "bike_id": "d58051741d91aec328a16e4c423ada42", "lon": -77.02151583333334, "rental_uris": {"ios": "https://dc.lft.to/lastmile_qr_scan", "android": "https://dc.lft.to/lastmile_qr_scan"}}, {"name": "eeaeac8d441ec2e2ff44f0dcf650d5b8", "fusion_lat": 0.0, "type": "electric_scooter", "lat": 38.900234166666664, "is_reserved": 0, "is_disabled": 0, "fusion_lon": 0.0, "bike_id": "eeaeac8d441ec2e2ff44f0dcf650d5b8", "lon": -77.0216855, "rental_uris": {"ios": "https://dc.lft.to/lastmile_qr_scan", "android": "https://dc.lft.to/lastmile_qr_scan"}}, {"name": "6460df148e97547ca573934431ea1883", "fusion_lat": 0.0, "type": "electric_scooter", "lat": 38.8950195, "is_reserved": 0, "is_disabled": 0, "fusion_lon": 0.0, "bike_id": "6460df148e97547ca573934431ea1883", "lon": -77.0161285, "rental_uris": {"ios": "https://dc.lft.to/lastmile_qr_scan", "android": "https://dc.lft.to/lastmile_qr_scan"}}, {"name": "593fd788ee10f40708d82fe12e0d5d1a", "fusion_lat": 0.0, "type": "electric_bike", "lat": 38.94554383333333, "is_reserved": 0, "is_disabled": 0, "fusion_lon": 0.0, "bike_id": "593fd788ee10f40708d82fe12e0d5d1a", "lon": -76.895384, "rental_uris": {"ios": "https://dc.lft.to/lastmile_qr_scan", "android": "https://dc.lft.to/lastmile_qr_scan"}}, {"name": "c81f84a15215ab8de94aa65b9d40c7b4", "fusion_lat": 0.0, "type": "electric_scooter", "lat": 38.916078166666665, "is_reserved": 0, "is_disabled": 0, "fusion_lon": 0.0, "bike_id": "c81f84a15215ab8de94aa65b9d40c7b4", "lon": -77.03849066666666, "rental_uris": {"ios": "https://dc.lft.to/lastmile_qr_scan", "android": "https://dc.lft.to/lastmile_qr_scan"}}, {"name": "e90c207115861880c980110392139391", "fusion_lat": 0.0, "type": "electric_scooter", "lat": 38.892684, "is_reserved": 0, "is_disabled": 0, "fusion_lon": 0.0, "bike_id": "e90c207115861880c980110392139391", "lon": -77.0319195, "rental_uris": {"ios": "https://dc.lft.to/lastmile_qr_scan", "android": "https://dc.lft.to/lastmile_qr_scan"}}, {"name": "122822355ed6046510af0967d22a2c49", "fusion_lat": 0.0, "type": "electric_scooter", "lat": 38.90640883333333, "is_reserved": 0, "is_disabled": 0, "fusion_lon": 0.0, "bike_id": "122822355ed6046510af0967d22a2c49", "lon": -77.00597933333333, "rental_uris": {"ios": "https://dc.lft.to/lastmile_qr_scan", "android": "https://dc.lft.to/lastmile_qr_scan"}}, {"name": "6b004f3a4b95d8d7ec944a40aa00440d", "fusion_lat": 0.0, "type": "electric_scooter", "lat": 38.866944833333335, "is_reserved": 0, "is_disabled": 0, "fusion_lon": 0.0, "bike_id": "6b004f3a4b95d8d7ec944a40aa00440d", "lon": -76.98714383333333, "rental_uris": {"ios": "https://dc.lft.to/lastmile_qr_scan", "android": "https://dc.lft.to/lastmile_qr_scan"}}, {"name": "4c27a9674246a8f98fc7414f53dc7b7f", "fusion_lat": 0.0, "type": "electric_scooter", "lat": 38.914667333333334, "is_reserved": 0, "is_disabled": 0, "fusion_lon": 0.0, "bike_id": "4c27a9674246a8f98fc7414f53dc7b7f", "lon": -77.00226733333334, "rental_uris": {"ios": "https://dc.lft.to/lastmile_qr_scan", "android": "https://dc.lft.to/lastmile_qr_scan"}}, {"name": "7fa36215271174ecbd52a342ded67145", "fusion_lat": 0.0, "type": "electric_scooter", "lat": 38.9312275, "is_reserved": 0, "is_disabled": 0, "fusion_lon": 0.0, "bike_id": "7fa36215271174ecbd52a342ded67145", "lon": -77.0359925, "rental_uris": {"ios": "https://dc.lft.to/lastmile_qr_scan", "android": "https://dc.lft.to/lastmile_qr_scan"}}, {"name": "4cd298ac94b3d2397b846f8abbeb5cfa", "fusion_lat": 0.0, "type": "electric_scooter", "lat": 38.920554, "is_reserved": 0, "is_disabled": 0, "fusion_lon": 0.0, "bike_id": "4cd298ac94b3d2397b846f8abbeb5cfa", "lon": -77.03223166666666, "rental_uris": {"ios": "https://dc.lft.to/lastmile_qr_scan", "android": "https://dc.lft.to/lastmile_qr_scan"}}, {"name": "0f5d28a12cc8ba9de1f4ae82fe67a41a", "fusion_lat": 0.0, "type": "electric_scooter", "lat": 38.93253216666667, "is_reserved": 0, "is_disabled": 0, "fusion_lon": 0.0, "bike_id": "0f5d28a12cc8ba9de1f4ae82fe67a41a", "lon": -77.04006016666666, "rental_uris": {"ios": "https://dc.lft.to/lastmile_qr_scan", "android": "https://dc.lft.to/lastmile_qr_scan"}}, {"name": "6e683dd10fa71457cfb591fcdc0305c3", "fusion_lat": 0.0, "type": "electric_scooter", "lat": 38.913987166666665, "is_reserved": 0, "is_disabled": 0, "fusion_lon": 0.0, "bike_id": "6e683dd10fa71457cfb591fcdc0305c3", "lon": -77.03914383333333, "rental_uris": {"ios": "https://dc.lft.to/lastmile_qr_scan", "android": "https://dc.lft.to/lastmile_qr_scan"}}, {"name": "d74dbe3be8c0c380cfa5a6457b447fcb", "fusion_lat": 0.0, "type": "electric_scooter", "lat": 38.883926333333335, "is_reserved": 0, "is_disabled": 0, "fusion_lon": 0.0, "bike_id": "d74dbe3be8c0c380cfa5a6457b447fcb", "lon": -76.9304725, "rental_uris": {"ios": "https://dc.lft.to/lastmile_qr_scan", "android": "https://dc.lft.to/lastmile_qr_scan"}}, {"name": "ac22768e79320e0d18aba2a922bb299c", "fusion_lat": 0.0, "type": "electric_scooter", "lat": 38.901762166666664, "is_reserved": 0, "is_disabled": 0, "fusion_lon": 0.0, "bike_id": "ac22768e79320e0d18aba2a922bb299c", "lon": -77.03932, "rental_uris": {"ios": "https://dc.lft.to/lastmile_qr_scan", "android": "https://dc.lft.to/lastmile_qr_scan"}}, {"name": "9503cd84b0880a7e39a7518fc403f0d0", "fusion_lat": 0.0, "type": "electric_scooter", "lat": 38.898515833333335, "is_reserved": 0, "is_disabled": 0, "fusion_lon": 0.0, "bike_id": "9503cd84b0880a7e39a7518fc403f0d0", "lon": -76.99033416666667, "rental_uris": {"ios": "https://dc.lft.to/lastmile_qr_scan", "android": "https://dc.lft.to/lastmile_qr_scan"}}, {"name": "a5a7f61be2203091293cfc5ed7d86e32", "fusion_lat": 0.0, "type": "electric_scooter", "lat": 38.91537433333333, "is_reserved": 0, "is_disabled": 0, "fusion_lon": 0.0, "bike_id": "a5a7f61be2203091293cfc5ed7d86e32", "lon": -77.01224216666667, "rental_uris": {"ios": "https://dc.lft.to/lastmile_qr_scan", "android": "https://dc.lft.to/lastmile_qr_scan"}}, {"name": "ec51f6d939d852080f18d0907aaf3c01", "fusion_lat": 0.0, "type": "electric_scooter", "lat": 38.936164166666664, "is_reserved": 0, "is_disabled": 0, "fusion_lon": 0.0, "bike_id": "ec51f6d939d852080f18d0907aaf3c01", "lon": -77.03215566666667, "rental_uris": {"ios": "https://dc.lft.to/lastmile_qr_scan", "android": "https://dc.lft.to/lastmile_qr_scan"}}, {"name": "830349359cb65ccd17057320a7b888ec", "fusion_lat": 0.0, "type": "electric_scooter", "lat": 38.92875216666667, "is_reserved": 0, "is_disabled": 0, "fusion_lon": 0.0, "bike_id": "830349359cb65ccd17057320a7b888ec", "lon": -77.01379333333334, "rental_uris": {"ios": "https://dc.lft.to/lastmile_qr_scan", "android": "https://dc.lft.to/lastmile_qr_scan"}}, {"name": "6641e31df97ad7f30e6eec9bb34107f8", "fusion_lat": 0.0, "type": "electric_scooter", "lat": 38.941844333333336, "is_reserved": 0, "is_disabled": 0, "fusion_lon": 0.0, "bike_id": "6641e31df97ad7f30e6eec9bb34107f8", "lon": -77.0249275, "rental_uris": {"ios": "https://dc.lft.to/lastmile_qr_scan", "android": "https://dc.lft.to/lastmile_qr_scan"}}, {"name": "99daedf58f9253ee9989dd9a0f7978ee", "fusion_lat": 0.0, "type": "electric_scooter", "lat": 38.906825833333336, "is_reserved": 0, "is_disabled": 0, "fusion_lon": 0.0, "bike_id": "99daedf58f9253ee9989dd9a0f7978ee", "lon": -77.03642033333334, "rental_uris": {"ios": "https://dc.lft.to/lastmile_qr_scan", "android": "https://dc.lft.to/lastmile_qr_scan"}}, {"name": "a271ba242f18d52a1fd753923260f229", "fusion_lat": 0.0, "type": "electric_scooter", "lat": 38.88742583333333, "is_reserved": 0, "is_disabled": 0, "fusion_lon": 0.0, "bike_id": "a271ba242f18d52a1fd753923260f229", "lon": -77.02576566666667, "rental_uris": {"ios": "https://dc.lft.to/lastmile_qr_scan", "android": "https://dc.lft.to/lastmile_qr_scan"}}, {"name": "efd04d0499a961301177e0b2dfd49293", "fusion_lat": 0.0, "type": "electric_scooter", "lat": 38.92895383333333, "is_reserved": 0, "is_disabled": 0, "fusion_lon": 0.0, "bike_id": "efd04d0499a961301177e0b2dfd49293", "lon": -77.0325305, "rental_uris": {"ios": "https://dc.lft.to/lastmile_qr_scan", "android": "https://dc.lft.to/lastmile_qr_scan"}}, {"name": "e50151369d4300bb8f9fb32db35a84c1", "fusion_lat": 0.0, "type": "electric_scooter", "lat": 38.94434433333333, "is_reserved": 0, "is_disabled": 0, "fusion_lon": 0.0, "bike_id": "e50151369d4300bb8f9fb32db35a84c1", "lon": -77.06354933333333, "rental_uris": {"ios": "https://dc.lft.to/lastmile_qr_scan", "android": "https://dc.lft.to/lastmile_qr_scan"}}, {"name": "c207e9447c6e5253f408820dc7eb401e", "fusion_lat": 0.0, "type": "electric_scooter", "lat": 38.961060833333335, "is_reserved": 0, "is_disabled": 0, "fusion_lon": 0.0, "bike_id": "c207e9447c6e5253f408820dc7eb401e", "lon": -77.02817616666667, "rental_uris": {"ios": "https://dc.lft.to/lastmile_qr_scan", "android": "https://dc.lft.to/lastmile_qr_scan"}}, {"name": "272fec4d28f132ba8453ac9afb10bb3b", "fusion_lat": 0.0, "type": "electric_scooter", "lat": 38.91185083333333, "is_reserved": 0, "is_disabled": 0, "fusion_lon": 0.0, "bike_id": "272fec4d28f132ba8453ac9afb10bb3b", "lon": -76.99622, "rental_uris": {"ios": "https://dc.lft.to/lastmile_qr_scan", "android": "https://dc.lft.to/lastmile_qr_scan"}}, {"name": "8cfa1004f3b74bf7305d6a513beed970", "fusion_lat": 0.0, "type": "electric_scooter", "lat": 38.931715833333335, "is_reserved": 0, "is_disabled": 0, "fusion_lon": 0.0, "bike_id": "8cfa1004f3b74bf7305d6a513beed970", "lon": -77.03636716666666, "rental_uris": {"ios": "https://dc.lft.to/lastmile_qr_scan", "android": "https://dc.lft.to/lastmile_qr_scan"}}, {"name": "3b884568ebfefdae432828d0b00c20fb", "fusion_lat": 0.0, "type": "electric_scooter", "lat": 38.91435466666667, "is_reserved": 0, "is_disabled": 0, "fusion_lon": 0.0, "bike_id": "3b884568ebfefdae432828d0b00c20fb", "lon": -77.021981, "rental_uris": {"ios": "https://dc.lft.to/lastmile_qr_scan", "android": "https://dc.lft.to/lastmile_qr_scan"}}, {"name": "f056c9fe5ee0f860c0028a38c2bdbdde", "fusion_lat": 0.0, "type": "electric_scooter", "lat": 38.921501, "is_reserved": 0, "is_disabled": 0, "fusion_lon": 0.0, "bike_id": "f056c9fe5ee0f860c0028a38c2bdbdde", "lon": -77.0351205, "rental_uris": {"ios": "https://dc.lft.to/lastmile_qr_scan", "android": "https://dc.lft.to/lastmile_qr_scan"}}, {"name": "ae82e05125b12572f4b1442dd3cf2dd8", "fusion_lat": 0.0, "type": "electric_scooter", "lat": 38.884964833333335, "is_reserved": 0, "is_disabled": 0, "fusion_lon": 0.0, "bike_id": "ae82e05125b12572f4b1442dd3cf2dd8", "lon": -77.007295, "rental_uris": {"ios": "https://dc.lft.to/lastmile_qr_scan", "android": "https://dc.lft.to/lastmile_qr_scan"}}, {"name": "f9f8054f6bd9c07d7003e8f423165dc4", "fusion_lat": 0.0, "type": "electric_scooter", "lat": 38.9082425, "is_reserved": 0, "is_disabled": 0, "fusion_lon": 0.0, "bike_id": "f9f8054f6bd9c07d7003e8f423165dc4", "lon": -76.9415875, "rental_uris": {"ios": "https://dc.lft.to/lastmile_qr_scan", "android": "https://dc.lft.to/lastmile_qr_scan"}}, {"name": "947acac46212037d12861b88abd9f406", "fusion_lat": 0.0, "type": "electric_scooter", "lat": 38.9231645, "is_reserved": 0, "is_disabled": 0, "fusion_lon": 0.0, "bike_id": "947acac46212037d12861b88abd9f406", "lon": -77.045205, "rental_uris": {"ios": "https://dc.lft.to/lastmile_qr_scan", "android": "https://dc.lft.to/lastmile_qr_scan"}}, {"name": "3123ab6faf2bcbc61dc5f34c17721dfd", "fusion_lat": 0.0, "type": "electric_scooter", "lat": 38.918212833333335, "is_reserved": 0, "is_disabled": 0, "fusion_lon": 0.0, "bike_id": "3123ab6faf2bcbc61dc5f34c17721dfd", "lon": -77.04522283333333, "rental_uris": {"ios": "https://dc.lft.to/lastmile_qr_scan", "android": "https://dc.lft.to/lastmile_qr_scan"}}, {"name": "b7f5e224b27365551b751083b4477d30", "fusion_lat": 0.0, "type": "electric_scooter", "lat": 38.91728583333333, "is_reserved": 0, "is_disabled": 0, "fusion_lon": 0.0, "bike_id": "b7f5e224b27365551b751083b4477d30", "lon": -77.038432, "rental_uris": {"ios": "https://dc.lft.to/lastmile_qr_scan", "android": "https://dc.lft.to/lastmile_qr_scan"}}, {"name": "e1f65d589a8fce6614829257a2d9ab2c", "fusion_lat": 0.0, "type": "electric_scooter", "lat": 38.91668683333333, "is_reserved": 0, "is_disabled": 0, "fusion_lon": 0.0, "bike_id": "e1f65d589a8fce6614829257a2d9ab2c", "lon": -77.0296645, "rental_uris": {"ios": "https://dc.lft.to/lastmile_qr_scan", "android": "https://dc.lft.to/lastmile_qr_scan"}}, {"name": "602f97335153cbc8bc225ee18c67d456", "fusion_lat": 0.0, "type": "electric_scooter", "lat": 38.928967666666665, "is_reserved": 0, "is_disabled": 0, "fusion_lon": 0.0, "bike_id": "602f97335153cbc8bc225ee18c67d456", "lon": -77.05458216666666, "rental_uris": {"ios": "https://dc.lft.to/lastmile_qr_scan", "android": "https://dc.lft.to/lastmile_qr_scan"}}, {"name": "daa4bfbf7a4f50ba61f2b9a1c3b8a965", "fusion_lat": 0.0, "type": "electric_scooter", "lat": 38.883051333333334, "is_reserved": 0, "is_disabled": 0, "fusion_lon": 0.0, "bike_id": "daa4bfbf7a4f50ba61f2b9a1c3b8a965", "lon": -77.017486, "rental_uris": {"ios": "https://dc.lft.to/lastmile_qr_scan", "android": "https://dc.lft.to/lastmile_qr_scan"}}, {"name": "875e2a264004befffe795500003d72b2", "fusion_lat": 0.0, "type": "electric_scooter", "lat": 38.91629483333333, "is_reserved": 0, "is_disabled": 0, "fusion_lon": 0.0, "bike_id": "875e2a264004befffe795500003d72b2", "lon": -77.03171616666667, "rental_uris": {"ios": "https://dc.lft.to/lastmile_qr_scan", "android": "https://dc.lft.to/lastmile_qr_scan"}}, {"name": "6f25654817653b9214f664e40d73ffee", "fusion_lat": 0.0, "type": "electric_scooter", "lat": 38.88044266666667, "is_reserved": 0, "is_disabled": 0, "fusion_lon": 0.0, "bike_id": "6f25654817653b9214f664e40d73ffee", "lon": -76.95987116666667, "rental_uris": {"ios": "https://dc.lft.to/lastmile_qr_scan", "android": "https://dc.lft.to/lastmile_qr_scan"}}, {"name": "9dd298b8b7631ccab7127436432ca4ae", "fusion_lat": 0.0, "type": "electric_bike", "lat": 38.83231883333333, "is_reserved": 0, "is_disabled": 0, "fusion_lon": 0.0, "bike_id": "9dd298b8b7631ccab7127436432ca4ae", "lon": -77.00728666666667, "rental_uris": {"ios": "https://dc.lft.to/lastmile_qr_scan", "android": "https://dc.lft.to/lastmile_qr_scan"}}, {"name": "1665f51e83592ada77431ae14fdf6c59", "fusion_lat": 0.0, "type": "electric_bike", "lat": 38.85217, "is_reserved": 0, "is_disabled": 0, "fusion_lon": 0.0, "bike_id": "1665f51e83592ada77431ae14fdf6c59", "lon": -77.129587, "rental_uris": {"ios": "https://dc.lft.to/lastmile_qr_scan", "android": "https://dc.lft.to/lastmile_qr_scan"}}, {"name": "40e3fb45db96fd0978932f09b2f7c1e0", "fusion_lat": 0.0, "type": "electric_scooter", "lat": 38.93940216666667, "is_reserved": 0, "is_disabled": 0, "fusion_lon": 0.0, "bike_id": "40e3fb45db96fd0978932f09b2f7c1e0", "lon": -77.0326745, "rental_uris": {"ios": "https://dc.lft.to/lastmile_qr_scan", "android": "https://dc.lft.to/lastmile_qr_scan"}}, {"name": "24604c6e380baaec80401f6d2636c76c", "fusion_lat": 0.0, "type": "electric_scooter", "lat": 38.9110865, "is_reserved": 0, "is_disabled": 0, "fusion_lon": 0.0, "bike_id": "24604c6e380baaec80401f6d2636c76c", "lon": -77.04234233333334, "rental_uris": {"ios": "https://dc.lft.to/lastmile_qr_scan", "android": "https://dc.lft.to/lastmile_qr_scan"}}, {"name": "4c6a502352371458de01bd6ccf0d53a0", "fusion_lat": 0.0, "type": "electric_scooter", "lat": 38.883517499999996, "is_reserved": 0, "is_disabled": 0, "fusion_lon": 0.0, "bike_id": "4c6a502352371458de01bd6ccf0d53a0", "lon": -76.98559016666667, "rental_uris": {"ios": "https://dc.lft.to/lastmile_qr_scan", "android": "https://dc.lft.to/lastmile_qr_scan"}}, {"name": "78d9f637691b43604f01ebd08e3f9970", "fusion_lat": 0.0, "type": "electric_scooter", "lat": 38.93933116666667, "is_reserved": 0, "is_disabled": 0, "fusion_lon": 0.0, "bike_id": "78d9f637691b43604f01ebd08e3f9970", "lon": -77.03269966666667, "rental_uris": {"ios": "https://dc.lft.to/lastmile_qr_scan", "android": "https://dc.lft.to/lastmile_qr_scan"}}, {"name": "5e8ee747ab25f3dc9b510f55c0557806", "fusion_lat": 0.0, "type": "electric_scooter", "lat": 38.9029125, "is_reserved": 0, "is_disabled": 0, "fusion_lon": 0.0, "bike_id": "5e8ee747ab25f3dc9b510f55c0557806", "lon": -77.04069633333333, "rental_uris": {"ios": "https://dc.lft.to/lastmile_qr_scan", "android": "https://dc.lft.to/lastmile_qr_scan"}}, {"name": "4609d8df264ce56774a0e9cf796ead44", "fusion_lat": 0.0, "type": "electric_bike", "lat": 38.98452316666667, "is_reserved": 0, "is_disabled": 0, "fusion_lon": 0.0, "bike_id": "4609d8df264ce56774a0e9cf796ead44", "lon": -76.9552685, "rental_uris": {"ios": "https://dc.lft.to/lastmile_qr_scan", "android": "https://dc.lft.to/lastmile_qr_scan"}}, {"name": "03b577edf4ac9a9ed490c99975c4680e", "fusion_lat": 0.0, "type": "electric_bike", "lat": 38.86597, "is_reserved": 0, "is_disabled": 0, "fusion_lon": 0.0, "bike_id": "03b577edf4ac9a9ed490c99975c4680e", "lon": -76.9323025, "rental_uris": {"ios": "https://dc.lft.to/lastmile_qr_scan", "android": "https://dc.lft.to/lastmile_qr_scan"}}, {"name": "b49be1b1f0b6e6368f158abbeb4b0dbd", "fusion_lat": 0.0, "type": "electric_scooter", "lat": 38.930124666666664, "is_reserved": 0, "is_disabled": 0, "fusion_lon": 0.0, "bike_id": "b49be1b1f0b6e6368f158abbeb4b0dbd", "lon": -77.02346416666667, "rental_uris": {"ios": "https://dc.lft.to/lastmile_qr_scan", "android": "https://dc.lft.to/lastmile_qr_scan"}}, {"name": "9de1ab96bab6eafa50bcfce162fda306", "fusion_lat": 0.0, "type": "electric_scooter", "lat": 38.92429166666667, "is_reserved": 0, "is_disabled": 0, "fusion_lon": 0.0, "bike_id": "9de1ab96bab6eafa50bcfce162fda306", "lon": -77.05207833333333, "rental_uris": {"ios": "https://dc.lft.to/lastmile_qr_scan", "android": "https://dc.lft.to/lastmile_qr_scan"}}, {"name": "7393424abcb4b121fbb8652b73cdfabb", "fusion_lat": 0.0, "type": "electric_bike", "lat": 38.845711333333334, "is_reserved": 0, "is_disabled": 0, "fusion_lon": 0.0, "bike_id": "7393424abcb4b121fbb8652b73cdfabb", "lon": -77.096238, "rental_uris": {"ios": "https://dc.lft.to/lastmile_qr_scan", "android": "https://dc.lft.to/lastmile_qr_scan"}}, {"name": "d04e6b00e109fc6185a1e2eebcb6388f", "fusion_lat": 0.0, "type": "electric_bike", "lat": 38.99907783333333, "is_reserved": 0, "is_disabled": 0, "fusion_lon": 0.0, "bike_id": "d04e6b00e109fc6185a1e2eebcb6388f", "lon": -77.04623816666667, "rental_uris": {"ios": "https://dc.lft.to/lastmile_qr_scan", "android": "https://dc.lft.to/lastmile_qr_scan"}}, {"name": "3e1683f187a5e455e6a259af63404397", "fusion_lat": 0.0, "type": "electric_scooter", "lat": 38.90487866666667, "is_reserved": 0, "is_disabled": 0, "fusion_lon": 0.0, "bike_id": "3e1683f187a5e455e6a259af63404397", "lon": -77.00918483333334, "rental_uris": {"ios": "https://dc.lft.to/lastmile_qr_scan", "android": "https://dc.lft.to/lastmile_qr_scan"}}, {"name": "9a4ce23ded68aa80e2c5954380ec5d39", "fusion_lat": 0.0, "type": "electric_scooter", "lat": 38.96110866666667, "is_reserved": 0, "is_disabled": 0, "fusion_lon": 0.0, "bike_id": "9a4ce23ded68aa80e2c5954380ec5d39", "lon": -77.0281305, "rental_uris": {"ios": "https://dc.lft.to/lastmile_qr_scan", "android": "https://dc.lft.to/lastmile_qr_scan"}}, {"name": "34a50b6bfbc96fed6172e37e638322f2", "fusion_lat": 0.0, "type": "electric_scooter", "lat": 38.887125166666664, "is_reserved": 0, "is_disabled": 0, "fusion_lon": 0.0, "bike_id": "34a50b6bfbc96fed6172e37e638322f2", "lon": -77.02207183333333, "rental_uris": {"ios": "https://dc.lft.to/lastmile_qr_scan", "android": "https://dc.lft.to/lastmile_qr_scan"}}, {"name": "32a8aac5fd38a9df73c59d6d340bc430", "fusion_lat": 0.0, "type": "electric_scooter", "lat": 38.87458733333333, "is_reserved": 0, "is_disabled": 0, "fusion_lon": 0.0, "bike_id": "32a8aac5fd38a9df73c59d6d340bc430", "lon": -77.00770733333333, "rental_uris": {"ios": "https://dc.lft.to/lastmile_qr_scan", "android": "https://dc.lft.to/lastmile_qr_scan"}}, {"name": "ec6f2953250313a62b60fc68607bdb51", "fusion_lat": 0.0, "type": "electric_scooter", "lat": 38.923049166666665, "is_reserved": 0, "is_disabled": 0, "fusion_lon": 0.0, "bike_id": "ec6f2953250313a62b60fc68607bdb51", "lon": -77.01211866666667, "rental_uris": {"ios": "https://dc.lft.to/lastmile_qr_scan", "android": "https://dc.lft.to/lastmile_qr_scan"}}, {"name": "a3a30bcb0495509846512088caebc8e0", "fusion_lat": 0.0, "type": "electric_scooter", "lat": 38.907224, "is_reserved": 0, "is_disabled": 0, "fusion_lon": 0.0, "bike_id": "a3a30bcb0495509846512088caebc8e0", "lon": -77.0415985, "rental_uris": {"ios": "https://dc.lft.to/lastmile_qr_scan", "android": "https://dc.lft.to/lastmile_qr_scan"}}, {"name": "5c8fd6124bab25c21282e4fc3748b2bb", "fusion_lat": 0.0, "type": "electric_scooter", "lat": 38.911092333333336, "is_reserved": 0, "is_disabled": 0, "fusion_lon": 0.0, "bike_id": "5c8fd6124bab25c21282e4fc3748b2bb", "lon": -77.04232216666666, "rental_uris": {"ios": "https://dc.lft.to/lastmile_qr_scan", "android": "https://dc.lft.to/lastmile_qr_scan"}}, {"name": "594096191a280c5bdcdb6c87ddb9ace4", "fusion_lat": 0.0, "type": "electric_scooter", "lat": 38.89299366666667, "is_reserved": 0, "is_disabled": 0, "fusion_lon": 0.0, "bike_id": "594096191a280c5bdcdb6c87ddb9ace4", "lon": -77.020156, "rental_uris": {"ios": "https://dc.lft.to/lastmile_qr_scan", "android": "https://dc.lft.to/lastmile_qr_scan"}}, {"name": "95841fde0737893d108e85013430344d", "fusion_lat": 0.0, "type": "electric_scooter", "lat": 38.93704666666667, "is_reserved": 0, "is_disabled": 0, "fusion_lon": 0.0, "bike_id": "95841fde0737893d108e85013430344d", "lon": -77.061053, "rental_uris": {"ios": "https://dc.lft.to/lastmile_qr_scan", "android": "https://dc.lft.to/lastmile_qr_scan"}}, {"name": "6b760b204b96978a77873fecc5f45de9", "fusion_lat": 0.0, "type": "electric_scooter", "lat": 38.873826333333334, "is_reserved": 0, "is_disabled": 0, "fusion_lon": 0.0, "bike_id": "6b760b204b96978a77873fecc5f45de9", "lon": -77.0003685, "rental_uris": {"ios": "https://dc.lft.to/lastmile_qr_scan", "android": "https://dc.lft.to/lastmile_qr_scan"}}, {"name": "64758a69bc99705f1070e25dbad6845b", "fusion_lat": 0.0, "type": "electric_bike", "lat": 38.89214416666667, "is_reserved": 0, "is_disabled": 0, "fusion_lon": 0.0, "bike_id": "64758a69bc99705f1070e25dbad6845b", "lon": -77.10782, "rental_uris": {"ios": "https://dc.lft.to/lastmile_qr_scan", "android": "https://dc.lft.to/lastmile_qr_scan"}}, {"name": "58a670b5ce5a6828b68c29889747295d", "fusion_lat": 0.0, "type": "electric_scooter", "lat": 38.910998666666664, "is_reserved": 0, "is_disabled": 0, "fusion_lon": 0.0, "bike_id": "58a670b5ce5a6828b68c29889747295d", "lon": -77.07348116666667, "rental_uris": {"ios": "https://dc.lft.to/lastmile_qr_scan", "android": "https://dc.lft.to/lastmile_qr_scan"}}, {"name": "80ac17e5b84f13468ec39cdee858455f", "fusion_lat": 0.0, "type": "electric_scooter", "lat": 38.877566, "is_reserved": 0, "is_disabled": 0, "fusion_lon": 0.0, "bike_id": "80ac17e5b84f13468ec39cdee858455f", "lon": -76.9942685, "rental_uris": {"ios": "https://dc.lft.to/lastmile_qr_scan", "android": "https://dc.lft.to/lastmile_qr_scan"}}, {"name": "53d82c9d1c3f2b1ae7a1a5ac4e009ad5", "fusion_lat": 0.0, "type": "electric_scooter", "lat": 38.91256283333333, "is_reserved": 0, "is_disabled": 0, "fusion_lon": 0.0, "bike_id": "53d82c9d1c3f2b1ae7a1a5ac4e009ad5", "lon": -77.03160016666666, "rental_uris": {"ios": "https://dc.lft.to/lastmile_qr_scan", "android": "https://dc.lft.to/lastmile_qr_scan"}}, {"name": "08df1b11eaef80c6558d2314b33cbd74", "fusion_lat": 0.0, "type": "electric_scooter", "lat": 38.912867166666665, "is_reserved": 0, "is_disabled": 0, "fusion_lon": 0.0, "bike_id": "08df1b11eaef80c6558d2314b33cbd74", "lon": -77.0616715, "rental_uris": {"ios": "https://dc.lft.to/lastmile_qr_scan", "android": "https://dc.lft.to/lastmile_qr_scan"}}, {"name": "48788c3b6eac34a8029c16bcb584cb44", "fusion_lat": 0.0, "type": "electric_scooter", "lat": 38.93702016666667, "is_reserved": 0, "is_disabled": 0, "fusion_lon": 0.0, "bike_id": "48788c3b6eac34a8029c16bcb584cb44", "lon": -77.05600166666666, "rental_uris": {"ios": "https://dc.lft.to/lastmile_qr_scan", "android": "https://dc.lft.to/lastmile_qr_scan"}}, {"name": "3658d7828153160870e913a708bcb351", "fusion_lat": 0.0, "type": "electric_scooter", "lat": 38.92262916666667, "is_reserved": 0, "is_disabled": 0, "fusion_lon": 0.0, "bike_id": "3658d7828153160870e913a708bcb351", "lon": -77.02243216666666, "rental_uris": {"ios": "https://dc.lft.to/lastmile_qr_scan", "android": "https://dc.lft.to/lastmile_qr_scan"}}, {"name": "cde3451ba0f3f5c5141178f0c7dbdceb", "fusion_lat": 0.0, "type": "electric_scooter", "lat": 38.92479683333333, "is_reserved": 0, "is_disabled": 0, "fusion_lon": 0.0, "bike_id": "cde3451ba0f3f5c5141178f0c7dbdceb", "lon": -77.0522045, "rental_uris": {"ios": "https://dc.lft.to/lastmile_qr_scan", "android": "https://dc.lft.to/lastmile_qr_scan"}}, {"name": "6eeb09a1f05f6b760dc7212c1405d16a", "fusion_lat": 0.0, "type": "electric_scooter", "lat": 38.90372683333333, "is_reserved": 0, "is_disabled": 0, "fusion_lon": 0.0, "bike_id": "6eeb09a1f05f6b760dc7212c1405d16a", "lon": -77.04508983333334, "rental_uris": {"ios": "https://dc.lft.to/lastmile_qr_scan", "android": "https://dc.lft.to/lastmile_qr_scan"}}, {"name": "37898af3a4520b60f67221113a39a6c4", "fusion_lat": 0.0, "type": "electric_scooter", "lat": 38.942918, "is_reserved": 0, "is_disabled": 0, "fusion_lon": 0.0, "bike_id": "37898af3a4520b60f67221113a39a6c4", "lon": -77.02175616666666, "rental_uris": {"ios": "https://dc.lft.to/lastmile_qr_scan", "android": "https://dc.lft.to/lastmile_qr_scan"}}, {"name": "4f6413b903a44b6f14973d33b3c42147", "fusion_lat": 0.0, "type": "electric_scooter", "lat": 38.90509466666666, "is_reserved": 0, "is_disabled": 0, "fusion_lon": 0.0, "bike_id": "4f6413b903a44b6f14973d33b3c42147", "lon": -77.041548, "rental_uris": {"ios": "https://dc.lft.to/lastmile_qr_scan", "android": "https://dc.lft.to/lastmile_qr_scan"}}, {"name": "97d9efd0e959e2f78da1876bb5215eff", "fusion_lat": 0.0, "type": "electric_scooter", "lat": 38.93390383333333, "is_reserved": 0, "is_disabled": 0, "fusion_lon": 0.0, "bike_id": "97d9efd0e959e2f78da1876bb5215eff", "lon": -77.035857, "rental_uris": {"ios": "https://dc.lft.to/lastmile_qr_scan", "android": "https://dc.lft.to/lastmile_qr_scan"}}, {"name": "11722fae1980267d92dc9635863d5dfb", "fusion_lat": 0.0, "type": "electric_scooter", "lat": 38.91113216666667, "is_reserved": 0, "is_disabled": 0, "fusion_lon": 0.0, "bike_id": "11722fae1980267d92dc9635863d5dfb", "lon": -77.04356583333333, "rental_uris": {"ios": "https://dc.lft.to/lastmile_qr_scan", "android": "https://dc.lft.to/lastmile_qr_scan"}}, {"name": "c6b9c39fc32347c508be9eed7bf99599", "fusion_lat": 0.0, "type": "electric_scooter", "lat": 38.931504333333336, "is_reserved": 0, "is_disabled": 0, "fusion_lon": 0.0, "bike_id": "c6b9c39fc32347c508be9eed7bf99599", "lon": -77.03893133333334, "rental_uris": {"ios": "https://dc.lft.to/lastmile_qr_scan", "android": "https://dc.lft.to/lastmile_qr_scan"}}, {"name": "92ac05b2a80a125f7dd8a6071af8fc82", "fusion_lat": 0.0, "type": "electric_scooter", "lat": 38.883093333333335, "is_reserved": 0, "is_disabled": 0, "fusion_lon": 0.0, "bike_id": "92ac05b2a80a125f7dd8a6071af8fc82", "lon": -77.02374583333334, "rental_uris": {"ios": "https://dc.lft.to/lastmile_qr_scan", "android": "https://dc.lft.to/lastmile_qr_scan"}}, {"name": "c02dff6247f7c8da02cbf6f6721943e9", "fusion_lat": 0.0, "type": "electric_scooter", "lat": 38.90293633333334, "is_reserved": 0, "is_disabled": 0, "fusion_lon": 0.0, "bike_id": "c02dff6247f7c8da02cbf6f6721943e9", "lon": -77.02337233333333, "rental_uris": {"ios": "https://dc.lft.to/lastmile_qr_scan", "android": "https://dc.lft.to/lastmile_qr_scan"}}, {"name": "a974348988e17195a8a10ab9971b2a8d", "fusion_lat": 0.0, "type": "electric_scooter", "lat": 38.899472333333335, "is_reserved": 0, "is_disabled": 0, "fusion_lon": 0.0, "bike_id": "a974348988e17195a8a10ab9971b2a8d", "lon": -77.0311765, "rental_uris": {"ios": "https://dc.lft.to/lastmile_qr_scan", "android": "https://dc.lft.to/lastmile_qr_scan"}}, {"name": "cf21b32285bc1b8b0e877f206cccd321", "fusion_lat": 0.0, "type": "electric_scooter", "lat": 38.885904833333335, "is_reserved": 0, "is_disabled": 0, "fusion_lon": 0.0, "bike_id": "cf21b32285bc1b8b0e877f206cccd321", "lon": -77.01764266666666, "rental_uris": {"ios": "https://dc.lft.to/lastmile_qr_scan", "android": "https://dc.lft.to/lastmile_qr_scan"}}, {"name": "5fbd21f9b482a04e21743296c0beabea", "fusion_lat": 0.0, "type": "electric_scooter", "lat": 38.893432833333335, "is_reserved": 0, "is_disabled": 0, "fusion_lon": 0.0, "bike_id": "5fbd21f9b482a04e21743296c0beabea", "lon": -76.94948583333333, "rental_uris": {"ios": "https://dc.lft.to/lastmile_qr_scan", "android": "https://dc.lft.to/lastmile_qr_scan"}}, {"name": "10c8d2ecdf3b97e21457ccffe634cda5", "fusion_lat": 0.0, "type": "electric_scooter", "lat": 38.910934166666664, "is_reserved": 0, "is_disabled": 0, "fusion_lon": 0.0, "bike_id": "10c8d2ecdf3b97e21457ccffe634cda5", "lon": -77.0448655, "rental_uris": {"ios": "https://dc.lft.to/lastmile_qr_scan", "android": "https://dc.lft.to/lastmile_qr_scan"}}, {"name": "c1e3ce64f1b74f114edd95afe0542aa9", "fusion_lat": 0.0, "type": "electric_scooter", "lat": 38.897313833333335, "is_reserved": 0, "is_disabled": 0, "fusion_lon": 0.0, "bike_id": "c1e3ce64f1b74f114edd95afe0542aa9", "lon": -77.03282566666667, "rental_uris": {"ios": "https://dc.lft.to/lastmile_qr_scan", "android": "https://dc.lft.to/lastmile_qr_scan"}}, {"name": "277a3415d6d1523c641c0ff056103a42", "fusion_lat": 0.0, "type": "electric_scooter", "lat": 38.9273345, "is_reserved": 0, "is_disabled": 0, "fusion_lon": 0.0, "bike_id": "277a3415d6d1523c641c0ff056103a42", "lon": -77.03444716666667, "rental_uris": {"ios": "https://dc.lft.to/lastmile_qr_scan", "android": "https://dc.lft.to/lastmile_qr_scan"}}, {"name": "c57261be3b31d08e24b7e80f64278075", "fusion_lat": 0.0, "type": "electric_scooter", "lat": 38.9014955, "is_reserved": 0, "is_disabled": 0, "fusion_lon": 0.0, "bike_id": "c57261be3b31d08e24b7e80f64278075", "lon": -77.04031883333333, "rental_uris": {"ios": "https://dc.lft.to/lastmile_qr_scan", "android": "https://dc.lft.to/lastmile_qr_scan"}}, {"name": "0c2a5903590985b2dd73cfd14a388a53", "fusion_lat": 0.0, "type": "electric_bike", "lat": 38.95906683333333, "is_reserved": 0, "is_disabled": 0, "fusion_lon": 0.0, "bike_id": "0c2a5903590985b2dd73cfd14a388a53", "lon": -77.00156016666666, "rental_uris": {"ios": "https://dc.lft.to/lastmile_qr_scan", "android": "https://dc.lft.to/lastmile_qr_scan"}}, {"name": "ea63644a08fd1d5383338b9212a9cb11", "fusion_lat": 0.0, "type": "electric_bike", "lat": 38.9686575, "is_reserved": 0, "is_disabled": 0, "fusion_lon": 0.0, "bike_id": "ea63644a08fd1d5383338b9212a9cb11", "lon": -77.03334183333334, "rental_uris": {"ios": "https://dc.lft.to/lastmile_qr_scan", "android": "https://dc.lft.to/lastmile_qr_scan"}}, {"name": "ae88ed1e4e29df0c02d21bbcffe02543", "fusion_lat": 0.0, "type": "electric_scooter", "lat": 38.918685333333336, "is_reserved": 0, "is_disabled": 0, "fusion_lon": 0.0, "bike_id": "ae88ed1e4e29df0c02d21bbcffe02543", "lon": -77.04350333333333, "rental_uris": {"ios": "https://dc.lft.to/lastmile_qr_scan", "android": "https://dc.lft.to/lastmile_qr_scan"}}, {"name": "e7e599dada478f05e4a5cb66ca4a4f0c", "fusion_lat": 0.0, "type": "electric_scooter", "lat": 38.91728033333333, "is_reserved": 0, "is_disabled": 0, "fusion_lon": 0.0, "bike_id": "e7e599dada478f05e4a5cb66ca4a4f0c", "lon": -77.03173166666667, "rental_uris": {"ios": "https://dc.lft.to/lastmile_qr_scan", "android": "https://dc.lft.to/lastmile_qr_scan"}}, {"name": "b418ec7e1d535be453e590dd3c51c8df", "fusion_lat": 0.0, "type": "electric_scooter", "lat": 38.9156005, "is_reserved": 0, "is_disabled": 0, "fusion_lon": 0.0, "bike_id": "b418ec7e1d535be453e590dd3c51c8df", "lon": -77.02949416666667, "rental_uris": {"ios": "https://dc.lft.to/lastmile_qr_scan", "android": "https://dc.lft.to/lastmile_qr_scan"}}, {"name": "4da8292f4923488c087cb5fbed97e585", "fusion_lat": 0.0, "type": "electric_scooter", "lat": 38.929050833333335, "is_reserved": 0, "is_disabled": 0, "fusion_lon": 0.0, "bike_id": "4da8292f4923488c087cb5fbed97e585", "lon": -77.03263333333334, "rental_uris": {"ios": "https://dc.lft.to/lastmile_qr_scan", "android": "https://dc.lft.to/lastmile_qr_scan"}}, {"name": "83a9d3cb47462726a07e9a81e744ade3", "fusion_lat": 0.0, "type": "electric_scooter", "lat": 38.914036333333335, "is_reserved": 0, "is_disabled": 0, "fusion_lon": 0.0, "bike_id": "83a9d3cb47462726a07e9a81e744ade3", "lon": -77.03912266666667, "rental_uris": {"ios": "https://dc.lft.to/lastmile_qr_scan", "android": "https://dc.lft.to/lastmile_qr_scan"}}, {"name": "0446e75d99f24c4d9e5da3f5c84973fb", "fusion_lat": 0.0, "type": "electric_scooter", "lat": 38.90983033333333, "is_reserved": 0, "is_disabled": 0, "fusion_lon": 0.0, "bike_id": "0446e75d99f24c4d9e5da3f5c84973fb", "lon": -77.0487895, "rental_uris": {"ios": "https://dc.lft.to/lastmile_qr_scan", "android": "https://dc.lft.to/lastmile_qr_scan"}}, {"name": "1534088ec6fd266ec271392a84b5ba85", "fusion_lat": 0.0, "type": "electric_scooter", "lat": 38.86241666666667, "is_reserved": 0, "is_disabled": 0, "fusion_lon": 0.0, "bike_id": "1534088ec6fd266ec271392a84b5ba85", "lon": -76.99502016666666, "rental_uris": {"ios": "https://dc.lft.to/lastmile_qr_scan", "android": "https://dc.lft.to/lastmile_qr_scan"}}, {"name": "21a6c18d212452fed49bc1910dbe103e", "fusion_lat": 0.0, "type": "electric_scooter", "lat": 38.901377, "is_reserved": 0, "is_disabled": 0, "fusion_lon": 0.0, "bike_id": "21a6c18d212452fed49bc1910dbe103e", "lon": -76.99122766666666, "rental_uris": {"ios": "https://dc.lft.to/lastmile_qr_scan", "android": "https://dc.lft.to/lastmile_qr_scan"}}, {"name": "b5fe82ed1c4d587580e6659a1fb22e9f", "fusion_lat": 0.0, "type": "electric_bike", "lat": 38.84152016666667, "is_reserved": 0, "is_disabled": 0, "fusion_lon": 0.0, "bike_id": "b5fe82ed1c4d587580e6659a1fb22e9f", "lon": -77.088933, "rental_uris": {"ios": "https://dc.lft.to/lastmile_qr_scan", "android": "https://dc.lft.to/lastmile_qr_scan"}}, {"name": "0a6d728ab586ae9b02ed74f8667c1b45", "fusion_lat": 0.0, "type": "electric_scooter", "lat": 38.8988715, "is_reserved": 0, "is_disabled": 0, "fusion_lon": 0.0, "bike_id": "0a6d728ab586ae9b02ed74f8667c1b45", "lon": -76.93172966666667, "rental_uris": {"ios": "https://dc.lft.to/lastmile_qr_scan", "android": "https://dc.lft.to/lastmile_qr_scan"}}, {"name": "9a07e273e5030c46a4f8f9ca7c2be7c6", "fusion_lat": 0.0, "type": "electric_bike", "lat": 39.051927166666665, "is_reserved": 0, "is_disabled": 0, "fusion_lon": 0.0, "bike_id": "9a07e273e5030c46a4f8f9ca7c2be7c6", "lon": -77.1092155, "rental_uris": {"ios": "https://dc.lft.to/lastmile_qr_scan", "android": "https://dc.lft.to/lastmile_qr_scan"}}, {"name": "55d4220bb6d3b1f5a7c116824b4dc022", "fusion_lat": 0.0, "type": "electric_scooter", "lat": 38.925742, "is_reserved": 0, "is_disabled": 0, "fusion_lon": 0.0, "bike_id": "55d4220bb6d3b1f5a7c116824b4dc022", "lon": -77.025751, "rental_uris": {"ios": "https://dc.lft.to/lastmile_qr_scan", "android": "https://dc.lft.to/lastmile_qr_scan"}}, {"name": "d682fefdb24f13d101f78ec8a2078f43", "fusion_lat": 0.0, "type": "electric_scooter", "lat": 38.866603166666664, "is_reserved": 0, "is_disabled": 0, "fusion_lon": 0.0, "bike_id": "d682fefdb24f13d101f78ec8a2078f43", "lon": -76.98885933333334, "rental_uris": {"ios": "https://dc.lft.to/lastmile_qr_scan", "android": "https://dc.lft.to/lastmile_qr_scan"}}, {"name": "d1336cb574eeac353ca3754cee56bb44", "fusion_lat": 0.0, "type": "electric_scooter", "lat": 38.89390316666667, "is_reserved": 0, "is_disabled": 0, "fusion_lon": 0.0, "bike_id": "d1336cb574eeac353ca3754cee56bb44", "lon": -77.02995733333333, "rental_uris": {"ios": "https://dc.lft.to/lastmile_qr_scan", "android": "https://dc.lft.to/lastmile_qr_scan"}}, {"name": "982e694b1b1281d1a38e76ea7b693be4", "fusion_lat": 0.0, "type": "electric_bike", "lat": 38.903620833333335, "is_reserved": 0, "is_disabled": 0, "fusion_lon": 0.0, "bike_id": "982e694b1b1281d1a38e76ea7b693be4", "lon": -77.045357, "rental_uris": {"ios": "https://dc.lft.to/lastmile_qr_scan", "android": "https://dc.lft.to/lastmile_qr_scan"}}, {"name": "57f45145609988ea4d278db4323d8c34", "fusion_lat": 0.0, "type": "electric_scooter", "lat": 38.92877516666667, "is_reserved": 0, "is_disabled": 0, "fusion_lon": 0.0, "bike_id": "57f45145609988ea4d278db4323d8c34", "lon": -77.033089, "rental_uris": {"ios": "https://dc.lft.to/lastmile_qr_scan", "android": "https://dc.lft.to/lastmile_qr_scan"}}, {"name": "b97378464233eb641d19defedadfec9f", "fusion_lat": 0.0, "type": "electric_scooter", "lat": 38.89193383333333, "is_reserved": 0, "is_disabled": 0, "fusion_lon": 0.0, "bike_id": "b97378464233eb641d19defedadfec9f", "lon": -77.036276, "rental_uris": {"ios": "https://dc.lft.to/lastmile_qr_scan", "android": "https://dc.lft.to/lastmile_qr_scan"}}, {"name": "108218c334a745ac78b2fb682f116a6e", "fusion_lat": 0.0, "type": "electric_scooter", "lat": 38.911183, "is_reserved": 0, "is_disabled": 0, "fusion_lon": 0.0, "bike_id": "108218c334a745ac78b2fb682f116a6e", "lon": -77.03842433333334, "rental_uris": {"ios": "https://dc.lft.to/lastmile_qr_scan", "android": "https://dc.lft.to/lastmile_qr_scan"}}, {"name": "2b12111c39ca1392820652c2b317b076", "fusion_lat": 0.0, "type": "electric_scooter", "lat": 38.914193, "is_reserved": 0, "is_disabled": 0, "fusion_lon": 0.0, "bike_id": "2b12111c39ca1392820652c2b317b076", "lon": -77.0449855, "rental_uris": {"ios": "https://dc.lft.to/lastmile_qr_scan", "android": "https://dc.lft.to/lastmile_qr_scan"}}, {"name": "f25fb2c6d5a79edbdb6aa58ef6d055f8", "fusion_lat": 0.0, "type": "electric_scooter", "lat": 38.8637195, "is_reserved": 0, "is_disabled": 0, "fusion_lon": 0.0, "bike_id": "f25fb2c6d5a79edbdb6aa58ef6d055f8", "lon": -76.9905975, "rental_uris": {"ios": "https://dc.lft.to/lastmile_qr_scan", "android": "https://dc.lft.to/lastmile_qr_scan"}}, {"name": "76c942af46b79e5a4aefb7034e1416a4", "fusion_lat": 0.0, "type": "electric_scooter", "lat": 38.929035166666665, "is_reserved": 0, "is_disabled": 0, "fusion_lon": 0.0, "bike_id": "76c942af46b79e5a4aefb7034e1416a4", "lon": -77.02614216666667, "rental_uris": {"ios": "https://dc.lft.to/lastmile_qr_scan", "android": "https://dc.lft.to/lastmile_qr_scan"}}, {"name": "6f4f38b440c3971f203a50849255d10a", "fusion_lat": 0.0, "type": "electric_scooter", "lat": 38.91270433333333, "is_reserved": 0, "is_disabled": 0, "fusion_lon": 0.0, "bike_id": "6f4f38b440c3971f203a50849255d10a", "lon": -77.03901733333333, "rental_uris": {"ios": "https://dc.lft.to/lastmile_qr_scan", "android": "https://dc.lft.to/lastmile_qr_scan"}}, {"name": "923cd2f3c8e6aaaa42f2b7707c6cf1ad", "fusion_lat": 0.0, "type": "electric_scooter", "lat": 38.90019183333333, "is_reserved": 0, "is_disabled": 0, "fusion_lon": 0.0, "bike_id": "923cd2f3c8e6aaaa42f2b7707c6cf1ad", "lon": -77.03336083333333, "rental_uris": {"ios": "https://dc.lft.to/lastmile_qr_scan", "android": "https://dc.lft.to/lastmile_qr_scan"}}, {"name": "b4bbc6353a1d65606c2a874601cb0092", "fusion_lat": 0.0, "type": "electric_scooter", "lat": 38.90376766666667, "is_reserved": 0, "is_disabled": 0, "fusion_lon": 0.0, "bike_id": "b4bbc6353a1d65606c2a874601cb0092", "lon": -77.04356733333333, "rental_uris": {"ios": "https://dc.lft.to/lastmile_qr_scan", "android": "https://dc.lft.to/lastmile_qr_scan"}}, {"name": "b41a42dc10fb6d0a6b3c64fc2a87636e", "fusion_lat": 0.0, "type": "electric_scooter", "lat": 38.907954333333336, "is_reserved": 0, "is_disabled": 0, "fusion_lon": 0.0, "bike_id": "b41a42dc10fb6d0a6b3c64fc2a87636e", "lon": -77.0482395, "rental_uris": {"ios": "https://dc.lft.to/lastmile_qr_scan", "android": "https://dc.lft.to/lastmile_qr_scan"}}, {"name": "9ee7b0feb912da96af7ac255fbbda8c5", "fusion_lat": 0.0, "type": "electric_bike", "lat": 38.9650345, "is_reserved": 0, "is_disabled": 0, "fusion_lon": 0.0, "bike_id": "9ee7b0feb912da96af7ac255fbbda8c5", "lon": -77.10337566666666, "rental_uris": {"ios": "https://dc.lft.to/lastmile_qr_scan", "android": "https://dc.lft.to/lastmile_qr_scan"}}, {"name": "130b656829c1ea27ac530fe73b7425f9", "fusion_lat": 0.0, "type": "electric_scooter", "lat": 38.90077316666667, "is_reserved": 0, "is_disabled": 0, "fusion_lon": 0.0, "bike_id": "130b656829c1ea27ac530fe73b7425f9", "lon": -77.03193716666667, "rental_uris": {"ios": "https://dc.lft.to/lastmile_qr_scan", "android": "https://dc.lft.to/lastmile_qr_scan"}}, {"name": "cfde7159d814930372ee3a88f21fc965", "fusion_lat": 0.0, "type": "electric_scooter", "lat": 38.921489666666666, "is_reserved": 0, "is_disabled": 0, "fusion_lon": 0.0, "bike_id": "cfde7159d814930372ee3a88f21fc965", "lon": -77.03511466666667, "rental_uris": {"ios": "https://dc.lft.to/lastmile_qr_scan", "android": "https://dc.lft.to/lastmile_qr_scan"}}, {"name": "cee371bfb125c9e977f75a9b2f32ec50", "fusion_lat": 0.0, "type": "electric_scooter", "lat": 38.8973915, "is_reserved": 0, "is_disabled": 0, "fusion_lon": 0.0, "bike_id": "cee371bfb125c9e977f75a9b2f32ec50", "lon": -76.94259633333333, "rental_uris": {"ios": "https://dc.lft.to/lastmile_qr_scan", "android": "https://dc.lft.to/lastmile_qr_scan"}}, {"name": "6a0dfa061cf181b17a541f84cc571e0f", "fusion_lat": 0.0, "type": "electric_scooter", "lat": 38.933843833333334, "is_reserved": 0, "is_disabled": 0, "fusion_lon": 0.0, "bike_id": "6a0dfa061cf181b17a541f84cc571e0f", "lon": -77.05767016666667, "rental_uris": {"ios": "https://dc.lft.to/lastmile_qr_scan", "android": "https://dc.lft.to/lastmile_qr_scan"}}, {"name": "b0e63d06f29a1b210e0afcbe684f34ef", "fusion_lat": 0.0, "type": "electric_scooter", "lat": 38.91305083333334, "is_reserved": 0, "is_disabled": 0, "fusion_lon": 0.0, "bike_id": "b0e63d06f29a1b210e0afcbe684f34ef", "lon": -77.02172366666667, "rental_uris": {"ios": "https://dc.lft.to/lastmile_qr_scan", "android": "https://dc.lft.to/lastmile_qr_scan"}}, {"name": "221ede19d48f68adf593d97bf4076cd3", "fusion_lat": 0.0, "type": "electric_scooter", "lat": 38.904243666666666, "is_reserved": 0, "is_disabled": 0, "fusion_lon": 0.0, "bike_id": "221ede19d48f68adf593d97bf4076cd3", "lon": -77.04648866666666, "rental_uris": {"ios": "https://dc.lft.to/lastmile_qr_scan", "android": "https://dc.lft.to/lastmile_qr_scan"}}, {"name": "40bbf25bee6c96db1513edcc8be64b93", "fusion_lat": 0.0, "type": "electric_scooter", "lat": 38.917621, "is_reserved": 0, "is_disabled": 0, "fusion_lon": 0.0, "bike_id": "40bbf25bee6c96db1513edcc8be64b93", "lon": -77.02713533333333, "rental_uris": {"ios": "https://dc.lft.to/lastmile_qr_scan", "android": "https://dc.lft.to/lastmile_qr_scan"}}, {"name": "9d990fa2651770f6a4e85ced4af71c15", "fusion_lat": 0.0, "type": "electric_scooter", "lat": 38.89221783333333, "is_reserved": 0, "is_disabled": 0, "fusion_lon": 0.0, "bike_id": "9d990fa2651770f6a4e85ced4af71c15", "lon": -77.04371883333333, "rental_uris": {"ios": "https://dc.lft.to/lastmile_qr_scan", "android": "https://dc.lft.to/lastmile_qr_scan"}}, {"name": "2993c68989587a41c474c59ba6111d6c", "fusion_lat": 0.0, "type": "electric_scooter", "lat": 38.9119165, "is_reserved": 0, "is_disabled": 0, "fusion_lon": 0.0, "bike_id": "2993c68989587a41c474c59ba6111d6c", "lon": -77.0401075, "rental_uris": {"ios": "https://dc.lft.to/lastmile_qr_scan", "android": "https://dc.lft.to/lastmile_qr_scan"}}, {"name": "8807511870df64711792241aa94319aa", "fusion_lat": 0.0, "type": "electric_bike", "lat": 38.896661333333334, "is_reserved": 0, "is_disabled": 0, "fusion_lon": 0.0, "bike_id": "8807511870df64711792241aa94319aa", "lon": -77.05008166666667, "rental_uris": {"ios": "https://dc.lft.to/lastmile_qr_scan", "android": "https://dc.lft.to/lastmile_qr_scan"}}, {"name": "e59d36e927ba138e08dc078c994527de", "fusion_lat": 0.0, "type": "electric_scooter", "lat": 38.89852716666667, "is_reserved": 0, "is_disabled": 0, "fusion_lon": 0.0, "bike_id": "e59d36e927ba138e08dc078c994527de", "lon": -77.03176583333334, "rental_uris": {"ios": "https://dc.lft.to/lastmile_qr_scan", "android": "https://dc.lft.to/lastmile_qr_scan"}}, {"name": "63a85b5f6419ce99b1489642418b0ebf", "fusion_lat": 0.0, "type": "electric_scooter", "lat": 38.90395566666667, "is_reserved": 0, "is_disabled": 0, "fusion_lon": 0.0, "bike_id": "63a85b5f6419ce99b1489642418b0ebf", "lon": -77.03418266666667, "rental_uris": {"ios": "https://dc.lft.to/lastmile_qr_scan", "android": "https://dc.lft.to/lastmile_qr_scan"}}, {"name": "b4fdd6d934591347247c113f0df8906e", "fusion_lat": 0.0, "type": "electric_scooter", "lat": 38.874305666666665, "is_reserved": 0, "is_disabled": 0, "fusion_lon": 0.0, "bike_id": "b4fdd6d934591347247c113f0df8906e", "lon": -77.02068583333333, "rental_uris": {"ios": "https://dc.lft.to/lastmile_qr_scan", "android": "https://dc.lft.to/lastmile_qr_scan"}}, {"name": "b14533efff7f5244a8fbc422c8acfbca", "fusion_lat": 0.0, "type": "electric_scooter", "lat": 38.89523633333334, "is_reserved": 0, "is_disabled": 0, "fusion_lon": 0.0, "bike_id": "b14533efff7f5244a8fbc422c8acfbca", "lon": -77.04849416666667, "rental_uris": {"ios": "https://dc.lft.to/lastmile_qr_scan", "android": "https://dc.lft.to/lastmile_qr_scan"}}, {"name": "314d902ae55da5db2e84e785c44b2908", "fusion_lat": 0.0, "type": "electric_scooter", "lat": 38.895575666666666, "is_reserved": 0, "is_disabled": 0, "fusion_lon": 0.0, "bike_id": "314d902ae55da5db2e84e785c44b2908", "lon": -77.05006283333333, "rental_uris": {"ios": "https://dc.lft.to/lastmile_qr_scan", "android": "https://dc.lft.to/lastmile_qr_scan"}}, {"name": "b38129031ea3abca0d119331ca6b1163", "fusion_lat": 0.0, "type": "electric_scooter", "lat": 38.891950333333334, "is_reserved": 0, "is_disabled": 0, "fusion_lon": 0.0, "bike_id": "b38129031ea3abca0d119331ca6b1163", "lon": -77.02508866666666, "rental_uris": {"ios": "https://dc.lft.to/lastmile_qr_scan", "android": "https://dc.lft.to/lastmile_qr_scan"}}, {"name": "ffb0098a708ff87ef2719e88e085a648", "fusion_lat": 0.0, "type": "electric_scooter", "lat": 38.891001333333335, "is_reserved": 0, "is_disabled": 0, "fusion_lon": 0.0, "bike_id": "ffb0098a708ff87ef2719e88e085a648", "lon": -76.9820575, "rental_uris": {"ios": "https://dc.lft.to/lastmile_qr_scan", "android": "https://dc.lft.to/lastmile_qr_scan"}}, {"name": "890647e4b5ff6cc7955d180e86433d20", "fusion_lat": 0.0, "type": "electric_scooter", "lat": 38.891945666666665, "is_reserved": 0, "is_disabled": 0, "fusion_lon": 0.0, "bike_id": "890647e4b5ff6cc7955d180e86433d20", "lon": -77.00293, "rental_uris": {"ios": "https://dc.lft.to/lastmile_qr_scan", "android": "https://dc.lft.to/lastmile_qr_scan"}}, {"name": "41d7734fdbd33b30fd30101fcad77416", "fusion_lat": 0.0, "type": "electric_scooter", "lat": 38.9140775, "is_reserved": 0, "is_disabled": 0, "fusion_lon": 0.0, "bike_id": "41d7734fdbd33b30fd30101fcad77416", "lon": -77.03902916666667, "rental_uris": {"ios": "https://dc.lft.to/lastmile_qr_scan", "android": "https://dc.lft.to/lastmile_qr_scan"}}, {"name": "d0ee7b4a34c4090d1e79de7950aa4b20", "fusion_lat": 0.0, "type": "electric_scooter", "lat": 38.91267233333333, "is_reserved": 0, "is_disabled": 0, "fusion_lon": 0.0, "bike_id": "d0ee7b4a34c4090d1e79de7950aa4b20", "lon": -77.031439, "rental_uris": {"ios": "https://dc.lft.to/lastmile_qr_scan", "android": "https://dc.lft.to/lastmile_qr_scan"}}, {"name": "3ccbe1286ceafe92825fe2789e21ced8", "fusion_lat": 0.0, "type": "electric_scooter", "lat": 38.8999155, "is_reserved": 0, "is_disabled": 0, "fusion_lon": 0.0, "bike_id": "3ccbe1286ceafe92825fe2789e21ced8", "lon": -76.98555, "rental_uris": {"ios": "https://dc.lft.to/lastmile_qr_scan", "android": "https://dc.lft.to/lastmile_qr_scan"}}, {"name": "6a21a5ad404504e709eda103cd3e8089", "fusion_lat": 0.0, "type": "electric_scooter", "lat": 38.90040316666666, "is_reserved": 0, "is_disabled": 0, "fusion_lon": 0.0, "bike_id": "6a21a5ad404504e709eda103cd3e8089", "lon": -76.91916166666667, "rental_uris": {"ios": "https://dc.lft.to/lastmile_qr_scan", "android": "https://dc.lft.to/lastmile_qr_scan"}}, {"name": "631c8256ace56f253082f24298a97828", "fusion_lat": 0.0, "type": "electric_bike", "lat": 38.91028766666667, "is_reserved": 0, "is_disabled": 0, "fusion_lon": 0.0, "bike_id": "631c8256ace56f253082f24298a97828", "lon": -77.03441883333333, "rental_uris": {"ios": "https://dc.lft.to/lastmile_qr_scan", "android": "https://dc.lft.to/lastmile_qr_scan"}}, {"name": "079f809a0ffcae18186a0a70123ae1b8", "fusion_lat": 0.0, "type": "electric_scooter", "lat": 38.86218516666667, "is_reserved": 0, "is_disabled": 0, "fusion_lon": 0.0, "bike_id": "079f809a0ffcae18186a0a70123ae1b8", "lon": -76.9948895, "rental_uris": {"ios": "https://dc.lft.to/lastmile_qr_scan", "android": "https://dc.lft.to/lastmile_qr_scan"}}, {"name": "0f380f539b8d4f2b31ef2b887b79a991", "fusion_lat": 0.0, "type": "electric_scooter", "lat": 38.90336383333333, "is_reserved": 0, "is_disabled": 0, "fusion_lon": 0.0, "bike_id": "0f380f539b8d4f2b31ef2b887b79a991", "lon": -77.03822483333333, "rental_uris": {"ios": "https://dc.lft.to/lastmile_qr_scan", "android": "https://dc.lft.to/lastmile_qr_scan"}}, {"name": "f4d1bf154571e2edb41788596ee39cd9", "fusion_lat": 0.0, "type": "electric_scooter", "lat": 38.9067555, "is_reserved": 0, "is_disabled": 0, "fusion_lon": 0.0, "bike_id": "f4d1bf154571e2edb41788596ee39cd9", "lon": -77.038359, "rental_uris": {"ios": "https://dc.lft.to/lastmile_qr_scan", "android": "https://dc.lft.to/lastmile_qr_scan"}}, {"name": "81ed4494ed1d045a2c46af6a3f85fd2a", "fusion_lat": 0.0, "type": "electric_scooter", "lat": 38.959238666666664, "is_reserved": 0, "is_disabled": 0, "fusion_lon": 0.0, "bike_id": "81ed4494ed1d045a2c46af6a3f85fd2a", "lon": -77.03324766666667, "rental_uris": {"ios": "https://dc.lft.to/lastmile_qr_scan", "android": "https://dc.lft.to/lastmile_qr_scan"}}, {"name": "e3fa4b456d6ce1af52bd36e5217b27e8", "fusion_lat": 0.0, "type": "electric_scooter", "lat": 38.901147, "is_reserved": 0, "is_disabled": 0, "fusion_lon": 0.0, "bike_id": "e3fa4b456d6ce1af52bd36e5217b27e8", "lon": -77.05165116666667, "rental_uris": {"ios": "https://dc.lft.to/lastmile_qr_scan", "android": "https://dc.lft.to/lastmile_qr_scan"}}, {"name": "5b8609215ea1fca7f023f9ede86da887", "fusion_lat": 0.0, "type": "electric_scooter", "lat": 38.897982666666664, "is_reserved": 0, "is_disabled": 0, "fusion_lon": 0.0, "bike_id": "5b8609215ea1fca7f023f9ede86da887", "lon": -76.9948845, "rental_uris": {"ios": "https://dc.lft.to/lastmile_qr_scan", "android": "https://dc.lft.to/lastmile_qr_scan"}}, {"name": "68c1bf1d8f248e8d24e4f2feb08eb899", "fusion_lat": 0.0, "type": "electric_scooter", "lat": 38.92337233333333, "is_reserved": 0, "is_disabled": 0, "fusion_lon": 0.0, "bike_id": "68c1bf1d8f248e8d24e4f2feb08eb899", "lon": -77.05102133333334, "rental_uris": {"ios": "https://dc.lft.to/lastmile_qr_scan", "android": "https://dc.lft.to/lastmile_qr_scan"}}, {"name": "8d0d0331f8d43acc142c34febdd6a0f2", "fusion_lat": 0.0, "type": "electric_scooter", "lat": 38.896262666666665, "is_reserved": 0, "is_disabled": 0, "fusion_lon": 0.0, "bike_id": "8d0d0331f8d43acc142c34febdd6a0f2", "lon": -77.02687716666667, "rental_uris": {"ios": "https://dc.lft.to/lastmile_qr_scan", "android": "https://dc.lft.to/lastmile_qr_scan"}}, {"name": "0ace0e249d03a8e99c60798a3975e759", "fusion_lat": 0.0, "type": "electric_scooter", "lat": 38.89945816666667, "is_reserved": 0, "is_disabled": 0, "fusion_lon": 0.0, "bike_id": "0ace0e249d03a8e99c60798a3975e759", "lon": -77.02974633333334, "rental_uris": {"ios": "https://dc.lft.to/lastmile_qr_scan", "android": "https://dc.lft.to/lastmile_qr_scan"}}, {"name": "b1070bce9df66657cfb5717163d3aaad", "fusion_lat": 0.0, "type": "electric_scooter", "lat": 38.84291316666667, "is_reserved": 0, "is_disabled": 0, "fusion_lon": 0.0, "bike_id": "b1070bce9df66657cfb5717163d3aaad", "lon": -76.99943633333334, "rental_uris": {"ios": "https://dc.lft.to/lastmile_qr_scan", "android": "https://dc.lft.to/lastmile_qr_scan"}}, {"name": "9c79ddf25dc3e77c8d93cec4716b96b8", "fusion_lat": 0.0, "type": "electric_scooter", "lat": 38.922334166666666, "is_reserved": 0, "is_disabled": 0, "fusion_lon": 0.0, "bike_id": "9c79ddf25dc3e77c8d93cec4716b96b8", "lon": -77.04251016666667, "rental_uris": {"ios": "https://dc.lft.to/lastmile_qr_scan", "android": "https://dc.lft.to/lastmile_qr_scan"}}, {"name": "cb5189929965e60c470f96035bb34d85", "fusion_lat": 0.0, "type": "electric_scooter", "lat": 38.89361733333333, "is_reserved": 0, "is_disabled": 0, "fusion_lon": 0.0, "bike_id": "cb5189929965e60c470f96035bb34d85", "lon": -77.00329483333333, "rental_uris": {"ios": "https://dc.lft.to/lastmile_qr_scan", "android": "https://dc.lft.to/lastmile_qr_scan"}}, {"name": "5dd57b6715912dc3e99c857f50b7217d", "fusion_lat": 0.0, "type": "electric_scooter", "lat": 38.903537166666666, "is_reserved": 0, "is_disabled": 0, "fusion_lon": 0.0, "bike_id": "5dd57b6715912dc3e99c857f50b7217d", "lon": -77.04341433333333, "rental_uris": {"ios": "https://dc.lft.to/lastmile_qr_scan", "android": "https://dc.lft.to/lastmile_qr_scan"}}, {"name": "d75f2f3d778de40f92cc1af388d98368", "fusion_lat": 0.0, "type": "electric_scooter", "lat": 38.90429366666667, "is_reserved": 0, "is_disabled": 0, "fusion_lon": 0.0, "bike_id": "d75f2f3d778de40f92cc1af388d98368", "lon": -77.05325233333333, "rental_uris": {"ios": "https://dc.lft.to/lastmile_qr_scan", "android": "https://dc.lft.to/lastmile_qr_scan"}}, {"name": "ad2cf6d50deb3ec2888d69ecaa9d48e4", "fusion_lat": 0.0, "type": "electric_scooter", "lat": 38.93528833333333, "is_reserved": 0, "is_disabled": 0, "fusion_lon": 0.0, "bike_id": "ad2cf6d50deb3ec2888d69ecaa9d48e4", "lon": -77.0331835, "rental_uris": {"ios": "https://dc.lft.to/lastmile_qr_scan", "android": "https://dc.lft.to/lastmile_qr_scan"}}, {"name": "12f5f424c9361a515b58e2518f92ee16", "fusion_lat": 0.0, "type": "electric_scooter", "lat": 38.874573166666664, "is_reserved": 0, "is_disabled": 0, "fusion_lon": 0.0, "bike_id": "12f5f424c9361a515b58e2518f92ee16", "lon": -77.00771716666667, "rental_uris": {"ios": "https://dc.lft.to/lastmile_qr_scan", "android": "https://dc.lft.to/lastmile_qr_scan"}}, {"name": "e8dd2da2ed8c8a499634812e245335a2", "fusion_lat": 0.0, "type": "electric_scooter", "lat": 38.901292, "is_reserved": 0, "is_disabled": 0, "fusion_lon": 0.0, "bike_id": "e8dd2da2ed8c8a499634812e245335a2", "lon": -77.04410066666667, "rental_uris": {"ios": "https://dc.lft.to/lastmile_qr_scan", "android": "https://dc.lft.to/lastmile_qr_scan"}}, {"name": "70be8ddbf81373b5c932046ceb0ece59", "fusion_lat": 0.0, "type": "electric_scooter", "lat": 38.91912516666667, "is_reserved": 0, "is_disabled": 0, "fusion_lon": 0.0, "bike_id": "70be8ddbf81373b5c932046ceb0ece59", "lon": -77.03017783333334, "rental_uris": {"ios": "https://dc.lft.to/lastmile_qr_scan", "android": "https://dc.lft.to/lastmile_qr_scan"}}, {"name": "6972275a6941a24538d1d9c01739a02d", "fusion_lat": 0.0, "type": "electric_scooter", "lat": 38.90270783333333, "is_reserved": 0, "is_disabled": 0, "fusion_lon": 0.0, "bike_id": "6972275a6941a24538d1d9c01739a02d", "lon": -77.03842066666667, "rental_uris": {"ios": "https://dc.lft.to/lastmile_qr_scan", "android": "https://dc.lft.to/lastmile_qr_scan"}}, {"name": "05c4f85ce0cb93c6578176d5a2d9bc24", "fusion_lat": 0.0, "type": "electric_scooter", "lat": 38.904728, "is_reserved": 0, "is_disabled": 0, "fusion_lon": 0.0, "bike_id": "05c4f85ce0cb93c6578176d5a2d9bc24", "lon": -77.04178466666667, "rental_uris": {"ios": "https://dc.lft.to/lastmile_qr_scan", "android": "https://dc.lft.to/lastmile_qr_scan"}}, {"name": "5ccf66a22166de6f70dfc9a76142ef9f", "fusion_lat": 0.0, "type": "electric_bike", "lat": 38.8524085, "is_reserved": 0, "is_disabled": 0, "fusion_lon": 0.0, "bike_id": "5ccf66a22166de6f70dfc9a76142ef9f", "lon": -77.1143655, "rental_uris": {"ios": "https://dc.lft.to/lastmile_qr_scan", "android": "https://dc.lft.to/lastmile_qr_scan"}}, {"name": "0bf312c366981fb0d3d238f2a5c53196", "fusion_lat": 0.0, "type": "electric_scooter", "lat": 38.91941166666667, "is_reserved": 0, "is_disabled": 0, "fusion_lon": 0.0, "bike_id": "0bf312c366981fb0d3d238f2a5c53196", "lon": -77.04551483333333, "rental_uris": {"ios": "https://dc.lft.to/lastmile_qr_scan", "android": "https://dc.lft.to/lastmile_qr_scan"}}, {"name": "3026b25a5ee27674bcf5d074e2364a24", "fusion_lat": 0.0, "type": "electric_scooter", "lat": 38.90491466666667, "is_reserved": 0, "is_disabled": 0, "fusion_lon": 0.0, "bike_id": "3026b25a5ee27674bcf5d074e2364a24", "lon": -77.04650883333333, "rental_uris": {"ios": "https://dc.lft.to/lastmile_qr_scan", "android": "https://dc.lft.to/lastmile_qr_scan"}}, {"name": "bd60922c6b93c9d1cb616557cf91a8c8", "fusion_lat": 0.0, "type": "electric_bike", "lat": 38.89942283333333, "is_reserved": 0, "is_disabled": 0, "fusion_lon": 0.0, "bike_id": "bd60922c6b93c9d1cb616557cf91a8c8", "lon": -77.04727766666667, "rental_uris": {"ios": "https://dc.lft.to/lastmile_qr_scan", "android": "https://dc.lft.to/lastmile_qr_scan"}}, {"name": "a5d52cf5ff0cff3f390d396000646253", "fusion_lat": 0.0, "type": "electric_scooter", "lat": 38.860657333333336, "is_reserved": 0, "is_disabled": 0, "fusion_lon": 0.0, "bike_id": "a5d52cf5ff0cff3f390d396000646253", "lon": -76.96729033333334, "rental_uris": {"ios": "https://dc.lft.to/lastmile_qr_scan", "android": "https://dc.lft.to/lastmile_qr_scan"}}, {"name": "90fb86468f0f8b9653f2e2d0d265184e", "fusion_lat": 0.0, "type": "electric_scooter", "lat": 38.93354566666667, "is_reserved": 0, "is_disabled": 0, "fusion_lon": 0.0, "bike_id": "90fb86468f0f8b9653f2e2d0d265184e", "lon": -77.033761, "rental_uris": {"ios": "https://dc.lft.to/lastmile_qr_scan", "android": "https://dc.lft.to/lastmile_qr_scan"}}, {"name": "9252b70216d1acc0a616dcb180157b19", "fusion_lat": 0.0, "type": "electric_scooter", "lat": 38.89978, "is_reserved": 0, "is_disabled": 0, "fusion_lon": 0.0, "bike_id": "9252b70216d1acc0a616dcb180157b19", "lon": -77.02950383333334, "rental_uris": {"ios": "https://dc.lft.to/lastmile_qr_scan", "android": "https://dc.lft.to/lastmile_qr_scan"}}, {"name": "6e0d740ee8c5a8222afdbf30cc8d6089", "fusion_lat": 0.0, "type": "electric_scooter", "lat": 38.9025035, "is_reserved": 0, "is_disabled": 0, "fusion_lon": 0.0, "bike_id": "6e0d740ee8c5a8222afdbf30cc8d6089", "lon": -77.04498783333334, "rental_uris": {"ios": "https://dc.lft.to/lastmile_qr_scan", "android": "https://dc.lft.to/lastmile_qr_scan"}}, {"name": "b2898df2a9331a38d2b1ea085827651e", "fusion_lat": 0.0, "type": "electric_scooter", "lat": 38.8955785, "is_reserved": 0, "is_disabled": 0, "fusion_lon": 0.0, "bike_id": "b2898df2a9331a38d2b1ea085827651e", "lon": -77.05005066666666, "rental_uris": {"ios": "https://dc.lft.to/lastmile_qr_scan", "android": "https://dc.lft.to/lastmile_qr_scan"}}, {"name": "473b8f44ceac4b376fc1a7099ad5acdb", "fusion_lat": 0.0, "type": "electric_scooter", "lat": 38.9552215, "is_reserved": 0, "is_disabled": 0, "fusion_lon": 0.0, "bike_id": "473b8f44ceac4b376fc1a7099ad5acdb", "lon": -77.06988533333333, "rental_uris": {"ios": "https://dc.lft.to/lastmile_qr_scan", "android": "https://dc.lft.to/lastmile_qr_scan"}}, {"name": "725a94376516e3f2b19790186ff3c30f", "fusion_lat": 0.0, "type": "electric_scooter", "lat": 38.9212925, "is_reserved": 0, "is_disabled": 0, "fusion_lon": 0.0, "bike_id": "725a94376516e3f2b19790186ff3c30f", "lon": -77.03896133333333, "rental_uris": {"ios": "https://dc.lft.to/lastmile_qr_scan", "android": "https://dc.lft.to/lastmile_qr_scan"}}, {"name": "de5f921ed0c8c98184673cf6a6c8590e", "fusion_lat": 0.0, "type": "electric_scooter", "lat": 38.90254316666667, "is_reserved": 0, "is_disabled": 0, "fusion_lon": 0.0, "bike_id": "de5f921ed0c8c98184673cf6a6c8590e", "lon": -77.03344633333333, "rental_uris": {"ios": "https://dc.lft.to/lastmile_qr_scan", "android": "https://dc.lft.to/lastmile_qr_scan"}}, {"name": "adf1d7e4e8b0f8eb6f6e48e96784ee11", "fusion_lat": 0.0, "type": "electric_scooter", "lat": 38.897624666666665, "is_reserved": 0, "is_disabled": 0, "fusion_lon": 0.0, "bike_id": "adf1d7e4e8b0f8eb6f6e48e96784ee11", "lon": -77.02932433333334, "rental_uris": {"ios": "https://dc.lft.to/lastmile_qr_scan", "android": "https://dc.lft.to/lastmile_qr_scan"}}, {"name": "7c1bc5b0bad202cc62934ce8f5f1aed6", "fusion_lat": 0.0, "type": "electric_scooter", "lat": 38.876762166666666, "is_reserved": 0, "is_disabled": 0, "fusion_lon": 0.0, "bike_id": "7c1bc5b0bad202cc62934ce8f5f1aed6", "lon": -77.00058033333333, "rental_uris": {"ios": "https://dc.lft.to/lastmile_qr_scan", "android": "https://dc.lft.to/lastmile_qr_scan"}}, {"name": "89c0d1ef57bc9f79cae482708c87741d", "fusion_lat": 0.0, "type": "electric_scooter", "lat": 38.934164, "is_reserved": 0, "is_disabled": 0, "fusion_lon": 0.0, "bike_id": "89c0d1ef57bc9f79cae482708c87741d", "lon": -77.04190833333334, "rental_uris": {"ios": "https://dc.lft.to/lastmile_qr_scan", "android": "https://dc.lft.to/lastmile_qr_scan"}}, {"name": "56ae8caf3c02202a7459f8907c5df2bb", "fusion_lat": 0.0, "type": "electric_scooter", "lat": 38.9104875, "is_reserved": 0, "is_disabled": 0, "fusion_lon": 0.0, "bike_id": "56ae8caf3c02202a7459f8907c5df2bb", "lon": -77.04379066666667, "rental_uris": {"ios": "https://dc.lft.to/lastmile_qr_scan", "android": "https://dc.lft.to/lastmile_qr_scan"}}, {"name": "06f63c92008691c9d4c0f1f7d0e2ea16", "fusion_lat": 0.0, "type": "electric_scooter", "lat": 38.89849733333333, "is_reserved": 0, "is_disabled": 0, "fusion_lon": 0.0, "bike_id": "06f63c92008691c9d4c0f1f7d0e2ea16", "lon": -77.01611616666666, "rental_uris": {"ios": "https://dc.lft.to/lastmile_qr_scan", "android": "https://dc.lft.to/lastmile_qr_scan"}}, {"name": "2da8fdaafa59c36a8b46d038f710a468", "fusion_lat": 0.0, "type": "electric_scooter", "lat": 38.942779, "is_reserved": 0, "is_disabled": 0, "fusion_lon": 0.0, "bike_id": "2da8fdaafa59c36a8b46d038f710a468", "lon": -77.0250975, "rental_uris": {"ios": "https://dc.lft.to/lastmile_qr_scan", "android": "https://dc.lft.to/lastmile_qr_scan"}}, {"name": "9d9f95255559746ed9e7f479baac253c", "fusion_lat": 0.0, "type": "electric_scooter", "lat": 38.934871, "is_reserved": 0, "is_disabled": 0, "fusion_lon": 0.0, "bike_id": "9d9f95255559746ed9e7f479baac253c", "lon": -77.03283216666667, "rental_uris": {"ios": "https://dc.lft.to/lastmile_qr_scan", "android": "https://dc.lft.to/lastmile_qr_scan"}}, {"name": "e213c031fa3a0eeefc50f1906316565e", "fusion_lat": 0.0, "type": "electric_scooter", "lat": 38.899648666666664, "is_reserved": 0, "is_disabled": 0, "fusion_lon": 0.0, "bike_id": "e213c031fa3a0eeefc50f1906316565e", "lon": -76.9377625, "rental_uris": {"ios": "https://dc.lft.to/lastmile_qr_scan", "android": "https://dc.lft.to/lastmile_qr_scan"}}, {"name": "19b38ed979ed3218f24142276effb599", "fusion_lat": 0.0, "type": "electric_scooter", "lat": 38.909881166666665, "is_reserved": 0, "is_disabled": 0, "fusion_lon": 0.0, "bike_id": "19b38ed979ed3218f24142276effb599", "lon": -77.00895983333334, "rental_uris": {"ios": "https://dc.lft.to/lastmile_qr_scan", "android": "https://dc.lft.to/lastmile_qr_scan"}}, {"name": "f8b7718c32f923d331321d56b1aee91c", "fusion_lat": 0.0, "type": "electric_scooter", "lat": 38.90514816666666, "is_reserved": 0, "is_disabled": 0, "fusion_lon": 0.0, "bike_id": "f8b7718c32f923d331321d56b1aee91c", "lon": -77.0701445, "rental_uris": {"ios": "https://dc.lft.to/lastmile_qr_scan", "android": "https://dc.lft.to/lastmile_qr_scan"}}, {"name": "8430ed2608749f07ad2051e7d06b1b2d", "fusion_lat": 0.0, "type": "electric_scooter", "lat": 38.892213, "is_reserved": 0, "is_disabled": 0, "fusion_lon": 0.0, "bike_id": "8430ed2608749f07ad2051e7d06b1b2d", "lon": -77.04539233333334, "rental_uris": {"ios": "https://dc.lft.to/lastmile_qr_scan", "android": "https://dc.lft.to/lastmile_qr_scan"}}, {"name": "60b46baffe136815ea4a88cdec952d21", "fusion_lat": 0.0, "type": "electric_scooter", "lat": 38.906492666666665, "is_reserved": 0, "is_disabled": 0, "fusion_lon": 0.0, "bike_id": "60b46baffe136815ea4a88cdec952d21", "lon": -77.03860316666666, "rental_uris": {"ios": "https://dc.lft.to/lastmile_qr_scan", "android": "https://dc.lft.to/lastmile_qr_scan"}}, {"name": "49dfaa267ddd670474152146abfc6067", "fusion_lat": 0.0, "type": "electric_scooter", "lat": 38.8922165, "is_reserved": 0, "is_disabled": 0, "fusion_lon": 0.0, "bike_id": "49dfaa267ddd670474152146abfc6067", "lon": -77.030956, "rental_uris": {"ios": "https://dc.lft.to/lastmile_qr_scan", "android": "https://dc.lft.to/lastmile_qr_scan"}}, {"name": "3317e67632b00c9e9fba51d598e95752", "fusion_lat": 0.0, "type": "electric_scooter", "lat": 38.9141375, "is_reserved": 0, "is_disabled": 0, "fusion_lon": 0.0, "bike_id": "3317e67632b00c9e9fba51d598e95752", "lon": -77.03997, "rental_uris": {"ios": "https://dc.lft.to/lastmile_qr_scan", "android": "https://dc.lft.to/lastmile_qr_scan"}}, {"name": "5c39a3e5a7d938a5aeba15ca6c5ea0d3", "fusion_lat": 0.0, "type": "electric_bike", "lat": 38.990867, "is_reserved": 0, "is_disabled": 0, "fusion_lon": 0.0, "bike_id": "5c39a3e5a7d938a5aeba15ca6c5ea0d3", "lon": -76.87497383333333, "rental_uris": {"ios": "https://dc.lft.to/lastmile_qr_scan", "android": "https://dc.lft.to/lastmile_qr_scan"}}, {"name": "1f59c927d429b26260e6ec743dc88c77", "fusion_lat": 0.0, "type": "electric_scooter", "lat": 38.884123833333334, "is_reserved": 0, "is_disabled": 0, "fusion_lon": 0.0, "bike_id": "1f59c927d429b26260e6ec743dc88c77", "lon": -77.01539033333333, "rental_uris": {"ios": "https://dc.lft.to/lastmile_qr_scan", "android": "https://dc.lft.to/lastmile_qr_scan"}}, {"name": "abdeea7aad20e4e048465ff87f0887d2", "fusion_lat": 0.0, "type": "electric_scooter", "lat": 38.866727833333336, "is_reserved": 0, "is_disabled": 0, "fusion_lon": 0.0, "bike_id": "abdeea7aad20e4e048465ff87f0887d2", "lon": -76.98449266666667, "rental_uris": {"ios": "https://dc.lft.to/lastmile_qr_scan", "android": "https://dc.lft.to/lastmile_qr_scan"}}, {"name": "7ac1ae2a69a7ba14833261ec592342d8", "fusion_lat": 0.0, "type": "electric_scooter", "lat": 38.89222916666667, "is_reserved": 0, "is_disabled": 0, "fusion_lon": 0.0, "bike_id": "7ac1ae2a69a7ba14833261ec592342d8", "lon": -77.019631, "rental_uris": {"ios": "https://dc.lft.to/lastmile_qr_scan", "android": "https://dc.lft.to/lastmile_qr_scan"}}, {"name": "93e39475aa7514faad3a8cb7b555bdd8", "fusion_lat": 0.0, "type": "electric_scooter", "lat": 38.87676583333333, "is_reserved": 0, "is_disabled": 0, "fusion_lon": 0.0, "bike_id": "93e39475aa7514faad3a8cb7b555bdd8", "lon": -77.01785516666666, "rental_uris": {"ios": "https://dc.lft.to/lastmile_qr_scan", "android": "https://dc.lft.to/lastmile_qr_scan"}}, {"name": "66638b473b60019bf2b821c3d17b836d", "fusion_lat": 0.0, "type": "electric_scooter", "lat": 38.92439866666667, "is_reserved": 0, "is_disabled": 0, "fusion_lon": 0.0, "bike_id": "66638b473b60019bf2b821c3d17b836d", "lon": -77.03354766666666, "rental_uris": {"ios": "https://dc.lft.to/lastmile_qr_scan", "android": "https://dc.lft.to/lastmile_qr_scan"}}, {"name": "2ca1196ce62c7a9375186ceb9acd80a9", "fusion_lat": 0.0, "type": "electric_bike", "lat": 38.828618, "is_reserved": 0, "is_disabled": 0, "fusion_lon": 0.0, "bike_id": "2ca1196ce62c7a9375186ceb9acd80a9", "lon": -77.11230783333333, "rental_uris": {"ios": "https://dc.lft.to/lastmile_qr_scan", "android": "https://dc.lft.to/lastmile_qr_scan"}}, {"name": "39793fe2c8850b1f1db808f7090a2ec3", "fusion_lat": 0.0, "type": "electric_scooter", "lat": 38.936060166666664, "is_reserved": 0, "is_disabled": 0, "fusion_lon": 0.0, "bike_id": "39793fe2c8850b1f1db808f7090a2ec3", "lon": -77.05860783333334, "rental_uris": {"ios": "https://dc.lft.to/lastmile_qr_scan", "android": "https://dc.lft.to/lastmile_qr_scan"}}, {"name": "d8021e5ea4595fc8a7fd1dbe8cd1cda6", "fusion_lat": 0.0, "type": "electric_scooter", "lat": 38.8996735, "is_reserved": 0, "is_disabled": 0, "fusion_lon": 0.0, "bike_id": "d8021e5ea4595fc8a7fd1dbe8cd1cda6", "lon": -77.05705366666666, "rental_uris": {"ios": "https://dc.lft.to/lastmile_qr_scan", "android": "https://dc.lft.to/lastmile_qr_scan"}}, {"name": "45d0313f56eb097eda77aab024cb327f", "fusion_lat": 0.0, "type": "electric_scooter", "lat": 38.906655, "is_reserved": 0, "is_disabled": 0, "fusion_lon": 0.0, "bike_id": "45d0313f56eb097eda77aab024cb327f", "lon": -77.03869383333334, "rental_uris": {"ios": "https://dc.lft.to/lastmile_qr_scan", "android": "https://dc.lft.to/lastmile_qr_scan"}},