{"data": {"bikes": [{"fusion_lat": 0.0, "lon": -77.03593816666667, "is_reserved": 0, "bike_id": "beb730e7cb672597702d245af9710aa2", "fusion_lon": 0.0, "rental_uris": {"android": "https://dc.lft.to/lastmile_qr_scan", "ios": "https://dc.lft.to/lastmile_qr_scan"}, "name": "beb730e7cb672597702d245af9710aa2", "type": "electric_scooter", "lat": 38.91757333333334, "is_disabled": 0}, {"fusion_lat": 0.0, "lon": -77.04816733333334, "is_reserved": 0, "bike_id": "81b291e9bb8fe716b363bfe4374355fd", "fusion_lon": 0.0, "rental_uris": {"android": "https://dc.lft.to/lastmile_qr_scan", "ios": "https://dc.lft.to/lastmile_qr_scan"}, "name": "81b291e9bb8fe716b363bfe4374355fd", "type": "electric_scooter", "lat": 38.920465666666665, "is_disabled": 0}, {"fusion_lat": 0.0, "lon": -76.93737683333333, "is_reserved": 0, "bike_id": "2d73e169307e015ab782367a941f805b", "fusion_lon": 0.0, "rental_uris": {"android": "https://dc.lft.to/lastmile_qr_scan", "ios": "https://dc.lft.to/lastmile_qr_scan"}, "name": "2d73e169307e015ab782367a941f805b", "type": "electric_scooter", "lat": 38.89017116666667, "is_disabled": 0}, {"fusion_lat": 0.0, "lon": -77.04727633333333, "is_reserved": 0, "bike_id": "50d0b4cb4e7b53a7441152eb4783579a", "fusion_lon": 0.0, "rental_uris": {"android": "https://dc.lft.to/lastmile_qr_scan", "ios": "https://dc.lft.to/lastmile_qr_scan"}, "name": "50d0b4cb4e7b53a7441152eb4783579a", "type": "electric_scooter", "lat": 38.9125865, "is_disabled": 0}, {"fusion_lat": 0.0, "lon": -76.98887033333334, "is_reserved": 0, "bike_id": "5812563c297fe1bc93dad0e5c730f419", "fusion_lon": 0.0, "rental_uris": {"android": "https://dc.lft.to/lastmile_qr_scan", "ios": "https://dc.lft.to/lastmile_qr_scan"}, "name": "5812563c297fe1bc93dad0e5c730f419", "type": "electric_scooter", "lat": 38.86647216666667, "is_disabled": 0}, {"fusion_lat": 0.0, "lon": -77.01817616666666, "is_reserved": 0, "bike_id": "2fb8964b8e9235f979851792bb9d1d85", "fusion_lon": 0.0, "rental_uris": {"android": "https://dc.lft.to/lastmile_qr_scan", "ios": "https://dc.lft.to/lastmile_qr_scan"}, "name": "2fb8964b8e9235f979851792bb9d1d85", "type": "electric_scooter", "lat": 38.901425, "is_disabled": 0}, {"fusion_lat": 0.0, "lon": -77.00197166666666, "is_reserved": 0, "bike_id": "ea28ae73cbca7dde6972405e33d06d17", "fusion_lon": 0.0, "rental_uris": {"android": "https://dc.lft.to/lastmile_qr_scan", "ios": "https://dc.lft.to/lastmile_qr_scan"}, "name": "ea28ae73cbca7dde6972405e33d06d17", "type": "electric_scooter", "lat": 38.907302, "is_disabled": 0}, {"fusion_lat": 0.0, "lon": -76.98981116666667, "is_reserved": 0, "bike_id": "adf804a3e0caf9dfa5801a07966996f1", "fusion_lon": 0.0, "rental_uris": {"android": "https://dc.lft.to/lastmile_qr_scan", "ios": "https://dc.lft.to/lastmile_qr_scan"}, "name": "adf804a3e0caf9dfa5801a07966996f1", "type": "electric_bike", "lat": 38.917519166666665, "is_disabled": 0}, {"fusion_lat": 0.0, "lon": -76.99940483333333, "is_reserved": 0, "bike_id": "6ecca9c9d9fd6fe9a35b32a5fc38d2b3", "fusion_lon": 0.0, "rental_uris": {"android": "https://dc.lft.to/lastmile_qr_scan", "ios": "https://dc.lft.to/lastmile_qr_scan"}, "name": "6ecca9c9d9fd6fe9a35b32a5fc38d2b3", "type": "electric_scooter", "lat": 38.896397666666665, "is_disabled": 0}, {"fusion_lat": 0.0, "lon": -77.04314566666666, "is_reserved": 0, "bike_id": "38d0238d9eb161f03d89449db2eade7f", "fusion_lon": 0.0, "rental_uris": {"android": "https://dc.lft.to/lastmile_qr_scan", "ios": "https://dc.lft.to/lastmile_qr_scan"}, "name": "38d0238d9eb161f03d89449db2eade7f", "type": "electric_scooter", "lat": 38.9265215, "is_disabled": 0}, {"fusion_lat": 0.0, "lon": -77.03512283333333, "is_reserved": 0, "bike_id": "3a0ea2b50e02be4ae69f957f4619f65c", "fusion_lon": 0.0, "rental_uris": {"android": "https://dc.lft.to/lastmile_qr_scan", "ios": "https://dc.lft.to/lastmile_qr_scan"}, "name": "3a0ea2b50e02be4ae69f957f4619f65c", "type": "electric_scooter", "lat": 38.922017, "is_disabled": 0}, {"fusion_lat": 0.0, "lon": -77.029776, "is_reserved": 0, "bike_id": "77f429e4e5bf812580ff20bf2c358746", "fusion_lon": 0.0, "rental_uris": {"android": "https://dc.lft.to/lastmile_qr_scan", "ios": "https://dc.lft.to/lastmile_qr_scan"}, "name": "77f429e4e5bf812580ff20bf2c358746", "type": "electric_scooter", "lat": 38.92950333333334, "is_disabled": 0}, {"fusion_lat": 0.0, "lon": -77.0507395, "is_reserved": 0, "bike_id": "86b2a93bf804418ef91bac5dc794f6af", "fusion_lon": 0.0, "rental_uris": {"android": "https://dc.lft.to/lastmile_qr_scan", "ios": "https://dc.lft.to/lastmile_qr_scan"}, "name": "86b2a93bf804418ef91bac5dc794f6af", "type": "electric_scooter", "lat": 38.901829166666666, "is_disabled": 0}, {"fusion_lat": 0.0, "lon": -77.0238155, "is_reserved": 0, "bike_id": "69c9c92eb6841d3b08eb5ad8d3764ecb", "fusion_lon": 0.0, "rental_uris": {"android": "https://dc.lft.to/lastmile_qr_scan", "ios": "https://dc.lft.to/lastmile_qr_scan"}, "name": "69c9c92eb6841d3b08eb5ad8d3764ecb", "type": "electric_scooter", "lat": 38.9199595, "is_disabled": 0}, {"fusion_lat": 0.0, "lon": -76.98548383333333, "is_reserved": 0, "bike_id": "ca38a43dc6f27527e887dd27a559b29e", "fusion_lon": 0.0, "rental_uris": {"android": "https://dc.lft.to/lastmile_qr_scan", "ios": "https://dc.lft.to/lastmile_qr_scan"}, "name": "ca38a43dc6f27527e887dd27a559b29e", "type": "electric_bike", "lat": 38.881873666666664, "is_disabled": 0}, {"fusion_lat": 0.0, "lon": -77.01133916666667, "is_reserved": 0, "bike_id": "f260f9f57e8bfb0ec54e797656032fe4", "fusion_lon": 0.0, "rental_uris": {"android": "https://dc.lft.to/lastmile_qr_scan", "ios": "https://dc.lft.to/lastmile_qr_scan"}, "name": "f260f9f57e8bfb0ec54e797656032fe4", "type": "electric_scooter", "lat": 38.90639816666667, "is_disabled": 0}, {"fusion_lat": 0.0, "lon": -77.045622, "is_reserved": 0, "bike_id": "027d380fc64746f80dd6ddb986a0ba83", "fusion_lon": 0.0, "rental_uris": {"android": "https://dc.lft.to/lastmile_qr_scan", "ios": "https://dc.lft.to/lastmile_qr_scan"}, "name": "027d380fc64746f80dd6ddb986a0ba83", "type": "electric_scooter", "lat": 38.897430166666666, "is_disabled": 0}, {"fusion_lat": 0.0, "lon": -77.00589783333334, "is_reserved": 0, "bike_id": "9b9f4fbe84b81acc22d9ace23f9de3fe", "fusion_lon": 0.0, "rental_uris": {"android": "https://dc.lft.to/lastmile_qr_scan", "ios": "https://dc.lft.to/lastmile_qr_scan"}, "name": "9b9f4fbe84b81acc22d9ace23f9de3fe", "type": "electric_scooter", "lat": 38.905764166666664, "is_disabled": 0}, {"fusion_lat": 0.0, "lon": -77.04108933333333, "is_reserved": 0, "bike_id": "d905456caddb383407f8ebbc6baf682a", "fusion_lon": 0.0, "rental_uris": {"android": "https://dc.lft.to/lastmile_qr_scan", "ios": "https://dc.lft.to/lastmile_qr_scan"}, "name": "d905456caddb383407f8ebbc6baf682a", "type": "electric_scooter", "lat": 38.92513566666667, "is_disabled": 0}, {"fusion_lat": 0.0, "lon": -77.11592416666667, "is_reserved": 0, "bike_id": "8b3265d8b9409ec5b2e21c5bc7c59f9f", "fusion_lon": 0.0, "rental_uris": {"android": "https://dc.lft.to/lastmile_qr_scan", "ios": "https://dc.lft.to/lastmile_qr_scan"}, "name": "8b3265d8b9409ec5b2e21c5bc7c59f9f", "type": "electric_bike", "lat": 39.074931166666666, "is_disabled": 0}, {"fusion_lat": 0.0, "lon": -77.02976366666667, "is_reserved": 0, "bike_id": "a35a0a6d913a7576486c062d4abb597e", "fusion_lon": 0.0, "rental_uris": {"android": "https://dc.lft.to/lastmile_qr_scan", "ios": "https://dc.lft.to/lastmile_qr_scan"}, "name": "a35a0a6d913a7576486c062d4abb597e", "type": "electric_bike", "lat": 38.924464666666665, "is_disabled": 0}, {"fusion_lat": 0.0, "lon": -77.08038716666667, "is_reserved": 0, "bike_id": "3c86b0ebb3d4b049cc864fdc674bdd75", "fusion_lon": 0.0, "rental_uris": {"android": "https://dc.lft.to/lastmile_qr_scan", "ios": "https://dc.lft.to/lastmile_qr_scan"}, "name": "3c86b0ebb3d4b049cc864fdc674bdd75", "type": "electric_scooter", "lat": 38.923874833333336, "is_disabled": 0}, {"fusion_lat": 0.0, "lon": -77.04223416666666, "is_reserved": 0, "bike_id": "68d1fbe92cbd70f0f6aaf1e39f93fd6c", "fusion_lon": 0.0, "rental_uris": {"android": "https://dc.lft.to/lastmile_qr_scan", "ios": "https://dc.lft.to/lastmile_qr_scan"}, "name": "68d1fbe92cbd70f0f6aaf1e39f93fd6c", "type": "electric_scooter", "lat": 38.921535166666665, "is_disabled": 0}, {"fusion_lat": 0.0, "lon": -77.02903966666666, "is_reserved": 0, "bike_id": "f146ea2c9343c99fa03608ffbe4f57e7", "fusion_lon": 0.0, "rental_uris": {"android": "https://dc.lft.to/lastmile_qr_scan", "ios": "https://dc.lft.to/lastmile_qr_scan"}, "name": "f146ea2c9343c99fa03608ffbe4f57e7", "type": "electric_scooter", "lat": 38.92819633333333, "is_disabled": 0}, {"fusion_lat": 0.0, "lon": -77.04479316666666, "is_reserved": 0, "bike_id": "688a8fed9115d1fbcfc1d085030759ad", "fusion_lon": 0.0, "rental_uris": {"android": "https://dc.lft.to/lastmile_qr_scan", "ios": "https://dc.lft.to/lastmile_qr_scan"}, "name": "688a8fed9115d1fbcfc1d085030759ad", "type": "electric_scooter", "lat": 38.90497766666667, "is_disabled": 0}, {"fusion_lat": 0.0, "lon": -77.029577, "is_reserved": 0, "bike_id": "d2b25b11f0fa0278b49333f29f62d9ca", "fusion_lon": 0.0, "rental_uris": {"android": "https://dc.lft.to/lastmile_qr_scan", "ios": "https://dc.lft.to/lastmile_qr_scan"}, "name": "d2b25b11f0fa0278b49333f29f62d9ca", "type": "electric_scooter", "lat": 38.916835666666664, "is_disabled": 0}, {"fusion_lat": 0.0, "lon": -77.0220285, "is_reserved": 0, "bike_id": "bd44439688f87fca6448cce55ad58093", "fusion_lon": 0.0, "rental_uris": {"android": "https://dc.lft.to/lastmile_qr_scan", "ios": "https://dc.lft.to/lastmile_qr_scan"}, "name": "bd44439688f87fca6448cce55ad58093", "type": "electric_scooter", "lat": 38.92591016666667, "is_disabled": 0}, {"fusion_lat": 0.0, "lon": -76.99880483333334, "is_reserved": 0, "bike_id": "45289a53e1290159ef46be367b3880ee", "fusion_lon": 0.0, "rental_uris": {"android": "https://dc.lft.to/lastmile_qr_scan", "ios": "https://dc.lft.to/lastmile_qr_scan"}, "name": "45289a53e1290159ef46be367b3880ee", "type": "electric_scooter", "lat": 38.901280666666665, "is_disabled": 0}, {"fusion_lat": 0.0, "lon": -77.03879833333333, "is_reserved": 0, "bike_id": "1de08e5cd353aee52d1e2ffaf6cf56d8", "fusion_lon": 0.0, "rental_uris": {"android": "https://dc.lft.to/lastmile_qr_scan", "ios": "https://dc.lft.to/lastmile_qr_scan"}, "name": "1de08e5cd353aee52d1e2ffaf6cf56d8", "type": "electric_scooter", "lat": 38.914661, "is_disabled": 0}, {"fusion_lat": 0.0, "lon": -77.0019945, "is_reserved": 0, "bike_id": "663286fb35eb312cbe91b92395f7e7ba", "fusion_lon": 0.0, "rental_uris": {"android": "https://dc.lft.to/lastmile_qr_scan", "ios": "https://dc.lft.to/lastmile_qr_scan"}, "name": "663286fb35eb312cbe91b92395f7e7ba", "type": "electric_scooter", "lat": 38.90237916666667, "is_disabled": 0}, {"fusion_lat": 0.0, "lon": -76.98019766666667, "is_reserved": 0, "bike_id": "73bc87d4acb27800203d176cc13a8374", "fusion_lon": 0.0, "rental_uris": {"android": "https://dc.lft.to/lastmile_qr_scan", "ios": "https://dc.lft.to/lastmile_qr_scan"}, "name": "73bc87d4acb27800203d176cc13a8374", "type": "electric_scooter", "lat": 38.90289716666667, "is_disabled": 0}, {"fusion_lat": 0.0, "lon": -76.98693483333334, "is_reserved": 0, "bike_id": "e3b26ac312f1a1da03ad1fa1eac6ac51", "fusion_lon": 0.0, "rental_uris": {"android": "https://dc.lft.to/lastmile_qr_scan", "ios": "https://dc.lft.to/lastmile_qr_scan"}, "name": "e3b26ac312f1a1da03ad1fa1eac6ac51", "type": "electric_scooter", "lat": 38.86251266666667, "is_disabled": 0}, {"fusion_lat": 0.0, "lon": -77.04329633333333, "is_reserved": 0, "bike_id": "0dc7ca4528d0b4e026b243bbe1d3bda8", "fusion_lon": 0.0, "rental_uris": {"android": "https://dc.lft.to/lastmile_qr_scan", "ios": "https://dc.lft.to/lastmile_qr_scan"}, "name": "0dc7ca4528d0b4e026b243bbe1d3bda8", "type": "electric_scooter", "lat": 38.892234, "is_disabled": 0}, {"fusion_lat": 0.0, "lon": -77.03195216666667, "is_reserved": 0, "bike_id": "c070e0a2b4cca3af66c7471156cadc8c", "fusion_lon": 0.0, "rental_uris": {"android": "https://dc.lft.to/lastmile_qr_scan", "ios": "https://dc.lft.to/lastmile_qr_scan"}, "name": "c070e0a2b4cca3af66c7471156cadc8c", "type": "electric_scooter", "lat": 38.91634483333333, "is_disabled": 0}, {"fusion_lat": 0.0, "lon": -77.03262133333334, "is_reserved": 0, "bike_id": "e616a969fe9c81629c02c0530aa06a75", "fusion_lon": 0.0, "rental_uris": {"android": "https://dc.lft.to/lastmile_qr_scan", "ios": "https://dc.lft.to/lastmile_qr_scan"}, "name": "e616a969fe9c81629c02c0530aa06a75", "type": "electric_scooter", "lat": 38.90263566666667, "is_disabled": 0}, {"fusion_lat": 0.0, "lon": -77.00296633333333, "is_reserved": 0, "bike_id": "17a9bf5b770d3117bc7798278e073e08", "fusion_lon": 0.0, "rental_uris": {"android": "https://dc.lft.to/lastmile_qr_scan", "ios": "https://dc.lft.to/lastmile_qr_scan"}, "name": "17a9bf5b770d3117bc7798278e073e08", "type": "electric_scooter", "lat": 38.894905, "is_disabled": 0}, {"fusion_lat": 0.0, "lon": -77.0004255, "is_reserved": 0, "bike_id": "a8cad3a47c1f0633640f62c947246b5b", "fusion_lon": 0.0, "rental_uris": {"android": "https://dc.lft.to/lastmile_qr_scan", "ios": "https://dc.lft.to/lastmile_qr_scan"}, "name": "a8cad3a47c1f0633640f62c947246b5b", "type": "electric_scooter", "lat": 38.9000975, "is_disabled": 0}, {"fusion_lat": 0.0, "lon": -76.97332083333333, "is_reserved": 0, "bike_id": "a6ee9a85055f5412d8c5f701bf3bb407", "fusion_lon": 0.0, "rental_uris": {"android": "https://dc.lft.to/lastmile_qr_scan", "ios": "https://dc.lft.to/lastmile_qr_scan"}, "name": "a6ee9a85055f5412d8c5f701bf3bb407", "type": "electric_scooter", "lat": 38.9040915, "is_disabled": 0}, {"fusion_lat": 0.0, "lon": -76.99367116666667, "is_reserved": 0, "bike_id": "5cc6ccb10e515429ec9d4ce0a449beda", "fusion_lon": 0.0, "rental_uris": {"android": "https://dc.lft.to/lastmile_qr_scan", "ios": "https://dc.lft.to/lastmile_qr_scan"}, "name": "5cc6ccb10e515429ec9d4ce0a449beda", "type": "electric_scooter", "lat": 38.92839016666667, "is_disabled": 0}, {"fusion_lat": 0.0, "lon": -77.02289116666667, "is_reserved": 0, "bike_id": "3cadaa3e2c7e275c932b56bc8f97d048", "fusion_lon": 0.0, "rental_uris": {"android": "https://dc.lft.to/lastmile_qr_scan", "ios": "https://dc.lft.to/lastmile_qr_scan"}, "name": "3cadaa3e2c7e275c932b56bc8f97d048", "type": "electric_scooter", "lat": 38.901588333333336, "is_disabled": 0}, {"fusion_lat": 0.0, "lon": -77.00213733333334, "is_reserved": 0, "bike_id": "994ab3c79ca20452deb2f154552778bb", "fusion_lon": 0.0, "rental_uris": {"android": "https://dc.lft.to/lastmile_qr_scan", "ios": "https://dc.lft.to/lastmile_qr_scan"}, "name": "994ab3c79ca20452deb2f154552778bb", "type": "electric_scooter", "lat": 38.895429166666666, "is_disabled": 0}, {"fusion_lat": 0.0, "lon": -77.0629315, "is_reserved": 0, "bike_id": "c33e7c09ed4b2916359517dbe61c18c7", "fusion_lon": 0.0, "rental_uris": {"android": "https://dc.lft.to/lastmile_qr_scan", "ios": "https://dc.lft.to/lastmile_qr_scan"}, "name": "c33e7c09ed4b2916359517dbe61c18c7", "type": "electric_scooter", "lat": 38.9434465, "is_disabled": 0}, {"fusion_lat": 0.0, "lon": -77.0036995, "is_reserved": 0, "bike_id": "861dfb9811c99e61b1e0267b332c6dae", "fusion_lon": 0.0, "rental_uris": {"android": "https://dc.lft.to/lastmile_qr_scan", "ios": "https://dc.lft.to/lastmile_qr_scan"}, "name": "861dfb9811c99e61b1e0267b332c6dae", "type": "electric_scooter", "lat": 38.8972965, "is_disabled": 0}, {"fusion_lat": 0.0, "lon": -77.02180216666666, "is_reserved": 0, "bike_id": "5707bc43514f2136c085fc1a0bfed974", "fusion_lon": 0.0, "rental_uris": {"android": "https://dc.lft.to/lastmile_qr_scan", "ios": "https://dc.lft.to/lastmile_qr_scan"}, "name": "5707bc43514f2136c085fc1a0bfed974", "type": "electric_scooter", "lat": 38.9199535, "is_disabled": 0}, {"fusion_lat": 0.0, "lon": -77.04323766666667, "is_reserved": 0, "bike_id": "3ab06711254ee8b9948042110921b834", "fusion_lon": 0.0, "rental_uris": {"android": "https://dc.lft.to/lastmile_qr_scan", "ios": "https://dc.lft.to/lastmile_qr_scan"}, "name": "3ab06711254ee8b9948042110921b834", "type": "electric_scooter", "lat": 38.908811666666665, "is_disabled": 0}, {"fusion_lat": 0.0, "lon": -77.03332716666667, "is_reserved": 0, "bike_id": "fd48311f4400e8a99bb64a3adefaff15", "fusion_lon": 0.0, "rental_uris": {"android": "https://dc.lft.to/lastmile_qr_scan", "ios": "https://dc.lft.to/lastmile_qr_scan"}, "name": "fd48311f4400e8a99bb64a3adefaff15", "type": "electric_scooter", "lat": 38.9170785, "is_disabled": 0}, {"fusion_lat": 0.0, "lon": -77.04327366666666, "is_reserved": 0, "bike_id": "5d43a83249e672e3542571ad57a13a62", "fusion_lon": 0.0, "rental_uris": {"android": "https://dc.lft.to/lastmile_qr_scan", "ios": "https://dc.lft.to/lastmile_qr_scan"}, "name": "5d43a83249e672e3542571ad57a13a62", "type": "electric_scooter", "lat": 38.90726016666667, "is_disabled": 0}, {"fusion_lat": 0.0, "lon": -76.96157233333334, "is_reserved": 0, "bike_id": "af034b38985fc753bf5a726d093c01ca", "fusion_lon": 0.0, "rental_uris": {"android": "https://dc.lft.to/lastmile_qr_scan", "ios": "https://dc.lft.to/lastmile_qr_scan"}, "name": "af034b38985fc753bf5a726d093c01ca", "type": "electric_scooter", "lat": 38.883582833333335, "is_disabled": 0}, {"fusion_lat": 0.0, "lon": -77.02455433333333, "is_reserved": 0, "bike_id": "afe56051c0a502a1f1c35844d3fde4fe", "fusion_lon": 0.0, "rental_uris": {"android": "https://dc.lft.to/lastmile_qr_scan", "ios": "https://dc.lft.to/lastmile_qr_scan"}, "name": "afe56051c0a502a1f1c35844d3fde4fe", "type": "electric_scooter", "lat": 38.9168825, "is_disabled": 0}, {"fusion_lat": 0.0, "lon": -77.03486116666667, "is_reserved": 0, "bike_id": "e31cfaaea30d25976ff010b8f9c76b1e", "fusion_lon": 0.0, "rental_uris": {"android": "https://dc.lft.to/lastmile_qr_scan", "ios": "https://dc.lft.to/lastmile_qr_scan"}, "name": "e31cfaaea30d25976ff010b8f9c76b1e", "type": "electric_scooter", "lat": 38.9234235, "is_disabled": 0}, {"fusion_lat": 0.0, "lon": -77.028436, "is_reserved": 0, "bike_id": "84b282fb561ecbe33360880dd12b4a67", "fusion_lon": 0.0, "rental_uris": {"android": "https://dc.lft.to/lastmile_qr_scan", "ios": "https://dc.lft.to/lastmile_qr_scan"}, "name": "84b282fb561ecbe33360880dd12b4a67", "type": "electric_scooter", "lat": 38.92568333333333, "is_disabled": 0}, {"fusion_lat": 0.0, "lon": -77.04249566666667, "is_reserved": 0, "bike_id": "a73251ef1814faa7180f9a5588386d42", "fusion_lon": 0.0, "rental_uris": {"android": "https://dc.lft.to/lastmile_qr_scan", "ios": "https://dc.lft.to/lastmile_qr_scan"}, "name": "a73251ef1814faa7180f9a5588386d42", "type": "electric_scooter", "lat": 38.922509, "is_disabled": 0}, {"fusion_lat": 0.0, "lon": -76.98536016666667, "is_reserved": 0, "bike_id": "887c3a5a2cb29864e21a08358f5038db", "fusion_lon": 0.0, "rental_uris": {"android": "https://dc.lft.to/lastmile_qr_scan", "ios": "https://dc.lft.to/lastmile_qr_scan"}, "name": "887c3a5a2cb29864e21a08358f5038db", "type": "electric_scooter", "lat": 38.9102455, "is_disabled": 0}, {"fusion_lat": 0.0, "lon": -77.02473, "is_reserved": 0, "bike_id": "0faedc474d9cd2661c48a874f38aa20d", "fusion_lon": 0.0, "rental_uris": {"android": "https://dc.lft.to/lastmile_qr_scan", "ios": "https://dc.lft.to/lastmile_qr_scan"}, "name": "0faedc474d9cd2661c48a874f38aa20d", "type": "electric_scooter", "lat": 38.9310415, "is_disabled": 0}, {"fusion_lat": 0.0, "lon": -76.985903, "is_reserved": 0, "bike_id": "c888d8c96597b41eb774536bc2d799ad", "fusion_lon": 0.0, "rental_uris": {"android": "https://dc.lft.to/lastmile_qr_scan", "ios": "https://dc.lft.to/lastmile_qr_scan"}, "name": "c888d8c96597b41eb774536bc2d799ad", "type": "electric_scooter", "lat": 38.86058766666667, "is_disabled": 0}, {"fusion_lat": 0.0, "lon": -77.10599266666667, "is_reserved": 0, "bike_id": "9b84ecb3ab3c00d6cf8bdc368ea5c013", "fusion_lon": 0.0, "rental_uris": {"android": "https://dc.lft.to/lastmile_qr_scan", "ios": "https://dc.lft.to/lastmile_qr_scan"}, "name": "9b84ecb3ab3c00d6cf8bdc368ea5c013", "type": "electric_bike", "lat": 38.92890283333333, "is_disabled": 0}, {"fusion_lat": 0.0, "lon": -76.98727883333333, "is_reserved": 0, "bike_id": "008bce0dbe778a87e550f9276e0a0dac", "fusion_lon": 0.0, "rental_uris": {"android": "https://dc.lft.to/lastmile_qr_scan", "ios": "https://dc.lft.to/lastmile_qr_scan"}, "name": "008bce0dbe778a87e550f9276e0a0dac", "type": "electric_scooter", "lat": 38.86709833333333, "is_disabled": 0}, {"fusion_lat": 0.0, "lon": -77.0425155, "is_reserved": 0, "bike_id": "12bd6b90b2f97d0a8a3f059d4f60237e", "fusion_lon": 0.0, "rental_uris": {"android": "https://dc.lft.to/lastmile_qr_scan", "ios": "https://dc.lft.to/lastmile_qr_scan"}, "name": "12bd6b90b2f97d0a8a3f059d4f60237e", "type": "electric_scooter", "lat": 38.92431216666667, "is_disabled": 0}, {"fusion_lat": 0.0, "lon": -77.02530966666667, "is_reserved": 0, "bike_id": "89376a14d6ff1529483935434cea70d5", "fusion_lon": 0.0, "rental_uris": {"android": "https://dc.lft.to/lastmile_qr_scan", "ios": "https://dc.lft.to/lastmile_qr_scan"}, "name": "89376a14d6ff1529483935434cea70d5", "type": "electric_scooter", "lat": 38.91482333333333, "is_disabled": 0}, {"fusion_lat": 0.0, "lon": -77.02078933333334, "is_reserved": 0, "bike_id": "142b2a6f62ad585ae107aa55c278f826", "fusion_lon": 0.0, "rental_uris": {"android": "https://dc.lft.to/lastmile_qr_scan", "ios": "https://dc.lft.to/lastmile_qr_scan"}, "name": "142b2a6f62ad585ae107aa55c278f826", "type": "electric_scooter", "lat": 38.927027833333334, "is_disabled": 0}, {"fusion_lat": 0.0, "lon": -77.001891, "is_reserved": 0, "bike_id": "67c528c917d974f35b88efd17a1b8a03", "fusion_lon": 0.0, "rental_uris": {"android": "https://dc.lft.to/lastmile_qr_scan", "ios": "https://dc.lft.to/lastmile_qr_scan"}, "name": "67c528c917d974f35b88efd17a1b8a03", "type": "electric_scooter", "lat": 38.8219945, "is_disabled": 0}, {"fusion_lat": 0.0, "lon": -77.05314066666666, "is_reserved": 0, "bike_id": "b985480aeab3fec8f2037607ccdc399d", "fusion_lon": 0.0, "rental_uris": {"android": "https://dc.lft.to/lastmile_qr_scan", "ios": "https://dc.lft.to/lastmile_qr_scan"}, "name": "b985480aeab3fec8f2037607ccdc399d", "type": "electric_scooter", "lat": 38.90076766666667, "is_disabled": 0}, {"fusion_lat": 0.0, "lon": -77.03289083333334, "is_reserved": 0, "bike_id": "06200e2fc1d81e388b78672f30024d13", "fusion_lon": 0.0, "rental_uris": {"android": "https://dc.lft.to/lastmile_qr_scan", "ios": "https://dc.lft.to/lastmile_qr_scan"}, "name": "06200e2fc1d81e388b78672f30024d13", "type": "electric_scooter", "lat": 38.935125666666664, "is_disabled": 0}, {"fusion_lat": 0.0, "lon": -77.0256735, "is_reserved": 0, "bike_id": "0a54680085a04efd636835215f8b3f48", "fusion_lon": 0.0, "rental_uris": {"android": "https://dc.lft.to/lastmile_qr_scan", "ios": "https://dc.lft.to/lastmile_qr_scan"}, "name": "0a54680085a04efd636835215f8b3f48", "type": "electric_scooter", "lat": 38.91416183333333, "is_disabled": 0}, {"fusion_lat": 0.0, "lon": -77.0228925, "is_reserved": 0, "bike_id": "548dafdadd15ad983ddf44f134e4b1f4", "fusion_lon": 0.0, "rental_uris": {"android": "https://dc.lft.to/lastmile_qr_scan", "ios": "https://dc.lft.to/lastmile_qr_scan"}, "name": "548dafdadd15ad983ddf44f134e4b1f4", "type": "electric_scooter", "lat": 38.8864355, "is_disabled": 0}, {"fusion_lat": 0.0, "lon": -77.02160666666667, "is_reserved": 0, "bike_id": "300f2dda8edda15fae46cc409435b5f5", "fusion_lon": 0.0, "rental_uris": {"android": "https://dc.lft.to/lastmile_qr_scan", "ios": "https://dc.lft.to/lastmile_qr_scan"}, "name": "300f2dda8edda15fae46cc409435b5f5", "type": "electric_scooter", "lat": 38.9018895, "is_disabled": 0}, {"fusion_lat": 0.0, "lon": -77.01447316666666, "is_reserved": 0, "bike_id": "254d0e292599562b89bf4e9c9782da7a", "fusion_lon": 0.0, "rental_uris": {"android": "https://dc.lft.to/lastmile_qr_scan", "ios": "https://dc.lft.to/lastmile_qr_scan"}, "name": "254d0e292599562b89bf4e9c9782da7a", "type": "electric_bike", "lat": 38.87677433333333, "is_disabled": 0}, {"fusion_lat": 0.0, "lon": -77.04319516666666, "is_reserved": 0, "bike_id": "50c6a071b7f1685b80b8f87406d0608d", "fusion_lon": 0.0, "rental_uris": {"android": "https://dc.lft.to/lastmile_qr_scan", "ios": "https://dc.lft.to/lastmile_qr_scan"}, "name": "50c6a071b7f1685b80b8f87406d0608d", "type": "electric_scooter", "lat": 38.923292333333336, "is_disabled": 0}, {"fusion_lat": 0.0, "lon": -76.97316816666667, "is_reserved": 0, "bike_id": "ca74430589c4d55c6a114022581a0b33", "fusion_lon": 0.0, "rental_uris": {"android": "https://dc.lft.to/lastmile_qr_scan", "ios": "https://dc.lft.to/lastmile_qr_scan"}, "name": "ca74430589c4d55c6a114022581a0b33", "type": "electric_scooter", "lat": 38.91771133333334, "is_disabled": 0}, {"fusion_lat": 0.0, "lon": -76.97239783333333, "is_reserved": 0, "bike_id": "c1d1cf201355db8a278a0f97a729ee76", "fusion_lon": 0.0, "rental_uris": {"android": "https://dc.lft.to/lastmile_qr_scan", "ios": "https://dc.lft.to/lastmile_qr_scan"}, "name": "c1d1cf201355db8a278a0f97a729ee76", "type": "electric_bike", "lat": 38.949027, "is_disabled": 0}, {"fusion_lat": 0.0, "lon": -77.08587516666667, "is_reserved": 0, "bike_id": "fa3573ab9a886afd12c0f8606354cc66", "fusion_lon": 0.0, "rental_uris": {"android": "https://dc.lft.to/lastmile_qr_scan", "ios": "https://dc.lft.to/lastmile_qr_scan"}, "name": "fa3573ab9a886afd12c0f8606354cc66", "type": "electric_bike", "lat": 38.84439233333333, "is_disabled": 0}, {"fusion_lat": 0.0, "lon": -77.03433816666667, "is_reserved": 0, "bike_id": "5e9b7d01e6d9e5301c67774cf6e905ac", "fusion_lon": 0.0, "rental_uris": {"android": "https://dc.lft.to/lastmile_qr_scan", "ios": "https://dc.lft.to/lastmile_qr_scan"}, "name": "5e9b7d01e6d9e5301c67774cf6e905ac", "type": "electric_scooter", "lat": 38.919410166666665, "is_disabled": 0}, {"fusion_lat": 0.0, "lon": -77.03486733333334, "is_reserved": 0, "bike_id": "cb8b3aef16efd997edbe622e22ee218b", "fusion_lon": 0.0, "rental_uris": {"android": "https://dc.lft.to/lastmile_qr_scan", "ios": "https://dc.lft.to/lastmile_qr_scan"}, "name": "cb8b3aef16efd997edbe622e22ee218b", "type": "electric_scooter", "lat": 38.92148983333333, "is_disabled": 0}, {"fusion_lat": 0.0, "lon": -77.0068085, "is_reserved": 0, "bike_id": "afc147393fb2f09062d6e4967a495684", "fusion_lon": 0.0, "rental_uris": {"android": "https://dc.lft.to/lastmile_qr_scan", "ios": "https://dc.lft.to/lastmile_qr_scan"}, "name": "afc147393fb2f09062d6e4967a495684", "type": "electric_scooter", "lat": 38.90009233333333, "is_disabled": 0}, {"fusion_lat": 0.0, "lon": -77.0357395, "is_reserved": 0, "bike_id": "94e21c79feea7a16e7597528ddb9d081", "fusion_lon": 0.0, "rental_uris": {"android": "https://dc.lft.to/lastmile_qr_scan", "ios": "https://dc.lft.to/lastmile_qr_scan"}, "name": "94e21c79feea7a16e7597528ddb9d081", "type": "electric_scooter", "lat": 38.909647666666665, "is_disabled": 0}, {"fusion_lat": 0.0, "lon": -76.97943466666666, "is_reserved": 0, "bike_id": "798c5aed6f4d735aab507bcbc1bfd18a", "fusion_lon": 0.0, "rental_uris": {"android": "https://dc.lft.to/lastmile_qr_scan", "ios": "https://dc.lft.to/lastmile_qr_scan"}, "name": "798c5aed6f4d735aab507bcbc1bfd18a", "type": "electric_scooter", "lat": 38.901892333333336, "is_disabled": 0}, {"fusion_lat": 0.0, "lon": -77.02568116666667, "is_reserved": 0, "bike_id": "a765da0298ec523e1529d9c4653d8a77", "fusion_lon": 0.0, "rental_uris": {"android": "https://dc.lft.to/lastmile_qr_scan", "ios": "https://dc.lft.to/lastmile_qr_scan"}, "name": "a765da0298ec523e1529d9c4653d8a77", "type": "electric_scooter", "lat": 38.93080783333333, "is_disabled": 0}, {"fusion_lat": 0.0, "lon": -77.014374, "is_reserved": 0, "bike_id": "ac4eac31b4925676e92cecfe9aab7d24", "fusion_lon": 0.0, "rental_uris": {"android": "https://dc.lft.to/lastmile_qr_scan", "ios": "https://dc.lft.to/lastmile_qr_scan"}, "name": "ac4eac31b4925676e92cecfe9aab7d24", "type": "electric_scooter", "lat": 38.9298965, "is_disabled": 0}, {"fusion_lat": 0.0, "lon": -77.04397116666667, "is_reserved": 0, "bike_id": "66a8202460d9b16a2a7732dcd49d5163", "fusion_lon": 0.0, "rental_uris": {"android": "https://dc.lft.to/lastmile_qr_scan", "ios": "https://dc.lft.to/lastmile_qr_scan"}, "name": "66a8202460d9b16a2a7732dcd49d5163", "type": "electric_scooter", "lat": 38.93271266666667, "is_disabled": 0}, {"fusion_lat": 0.0, "lon": -77.05959833333333, "is_reserved": 0, "bike_id": "03965c449c4001b5fd84b30d2cef4765", "fusion_lon": 0.0, "rental_uris": {"android": "https://dc.lft.to/lastmile_qr_scan", "ios": "https://dc.lft.to/lastmile_qr_scan"}, "name": "03965c449c4001b5fd84b30d2cef4765", "type": "electric_scooter", "lat": 38.907620333333334, "is_disabled": 0}, {"fusion_lat": 0.0, "lon": -77.02219816666667, "is_reserved": 0, "bike_id": "a75f0b713d205f5484e4bd2a66cd178a", "fusion_lon": 0.0, "rental_uris": {"android": "https://dc.lft.to/lastmile_qr_scan", "ios": "https://dc.lft.to/lastmile_qr_scan"}, "name": "a75f0b713d205f5484e4bd2a66cd178a", "type": "electric_scooter", "lat": 38.905598833333336, "is_disabled": 0}, {"fusion_lat": 0.0, "lon": -76.93611933333334, "is_reserved": 0, "bike_id": "3efd5d8861de35a274ab72d730f6d598", "fusion_lon": 0.0, "rental_uris": {"android": "https://dc.lft.to/lastmile_qr_scan", "ios": "https://dc.lft.to/lastmile_qr_scan"}, "name": "3efd5d8861de35a274ab72d730f6d598", "type": "electric_scooter", "lat": 38.896816333333334, "is_disabled": 0}, {"fusion_lat": 0.0, "lon": -77.0320355, "is_reserved": 0, "bike_id": "8e1829136758acd96ea71beaeba8fc4a", "fusion_lon": 0.0, "rental_uris": {"android": "https://dc.lft.to/lastmile_qr_scan", "ios": "https://dc.lft.to/lastmile_qr_scan"}, "name": "8e1829136758acd96ea71beaeba8fc4a", "type": "electric_scooter", "lat": 38.92067216666667, "is_disabled": 0}, {"fusion_lat": 0.0, "lon": -77.04200116666667, "is_reserved": 0, "bike_id": "1815c6041cda103f065fd892b147868e", "fusion_lon": 0.0, "rental_uris": {"android": "https://dc.lft.to/lastmile_qr_scan", "ios": "https://dc.lft.to/lastmile_qr_scan"}, "name": "1815c6041cda103f065fd892b147868e", "type": "electric_scooter", "lat": 38.906535166666664, "is_disabled": 0}, {"fusion_lat": 0.0, "lon": -77.040419, "is_reserved": 0, "bike_id": "59826df221f7a3fa399abab995c0865d", "fusion_lon": 0.0, "rental_uris": {"android": "https://dc.lft.to/lastmile_qr_scan", "ios": "https://dc.lft.to/lastmile_qr_scan"}, "name": "59826df221f7a3fa399abab995c0865d", "type": "electric_scooter", "lat": 38.91861166666666, "is_disabled": 0}, {"fusion_lat": 0.0, "lon": -76.99018333333333, "is_reserved": 0, "bike_id": "00e4d3c5e7339b0c86e411aecc54c356", "fusion_lon": 0.0, "rental_uris": {"android": "https://dc.lft.to/lastmile_qr_scan", "ios": "https://dc.lft.to/lastmile_qr_scan"}, "name": "00e4d3c5e7339b0c86e411aecc54c356", "type": "electric_scooter", "lat": 38.866427333333334, "is_disabled": 0}, {"fusion_lat": 0.0, "lon": -77.0487305, "is_reserved": 0, "bike_id": "5b3eb6a9a0853a51a7c276c5e473c515", "fusion_lon": 0.0, "rental_uris": {"android": "https://dc.lft.to/lastmile_qr_scan", "ios": "https://dc.lft.to/lastmile_qr_scan"}, "name": "5b3eb6a9a0853a51a7c276c5e473c515", "type": "electric_scooter", "lat": 38.90978, "is_disabled": 0}, {"fusion_lat": 0.0, "lon": -77.02807933333334, "is_reserved": 0, "bike_id": "a191872eac14162cea8ed6dccef21ffb", "fusion_lon": 0.0, "rental_uris": {"android": "https://dc.lft.to/lastmile_qr_scan", "ios": "https://dc.lft.to/lastmile_qr_scan"}, "name": "a191872eac14162cea8ed6dccef21ffb", "type": "electric_scooter", "lat": 38.89526733333334, "is_disabled": 0}, {"fusion_lat": 0.0, "lon": -77.02795016666667, "is_reserved": 0, "bike_id": "2a59fb077e062a68fe35774225f03e64", "fusion_lon": 0.0, "rental_uris": {"android": "https://dc.lft.to/lastmile_qr_scan", "ios": "https://dc.lft.to/lastmile_qr_scan"}, "name": "2a59fb077e062a68fe35774225f03e64", "type": "electric_scooter", "lat": 39.037446333333335, "is_disabled": 0}, {"fusion_lat": 0.0, "lon": -77.00676883333334, "is_reserved": 0, "bike_id": "8528d29f50186a88abd137c2f2774295", "fusion_lon": 0.0, "rental_uris": {"android": "https://dc.lft.to/lastmile_qr_scan", "ios": "https://dc.lft.to/lastmile_qr_scan"}, "name": "8528d29f50186a88abd137c2f2774295", "type": "electric_scooter", "lat": 38.9000695, "is_disabled": 0}, {"fusion_lat": 0.0, "lon": -77.07356616666667, "is_reserved": 0, "bike_id": "a3350f153571bbc17e366546efdc7f7f", "fusion_lon": 0.0, "rental_uris": {"android": "https://dc.lft.to/lastmile_qr_scan", "ios": "https://dc.lft.to/lastmile_qr_scan"}, "name": "a3350f153571bbc17e366546efdc7f7f", "type": "electric_scooter", "lat": 38.9335625, "is_disabled": 0}, {"fusion_lat": 0.0, "lon": -76.98768616666666, "is_reserved": 0, "bike_id": "e45b6de850d79703320c0fd583bd01a1", "fusion_lon": 0.0, "rental_uris": {"android": "https://dc.lft.to/lastmile_qr_scan", "ios": "https://dc.lft.to/lastmile_qr_scan"}, "name": "e45b6de850d79703320c0fd583bd01a1", "type": "electric_bike", "lat": 38.857700333333334, "is_disabled": 0}, {"fusion_lat": 0.0, "lon": -76.97427516666667, "is_reserved": 0, "bike_id": "5c0a21a67bb087a4f94514faa3fc52b0", "fusion_lon": 0.0, "rental_uris": {"android": "https://dc.lft.to/lastmile_qr_scan", "ios": "https://dc.lft.to/lastmile_qr_scan"}, "name": "5c0a21a67bb087a4f94514faa3fc52b0", "type": "electric_scooter", "lat": 38.904490833333334, "is_disabled": 0}, {"fusion_lat": 0.0, "lon": -77.048703, "is_reserved": 0, "bike_id": "95ad077351797ab11b84c6d9deb662c4", "fusion_lon": 0.0, "rental_uris": {"android": "https://dc.lft.to/lastmile_qr_scan", "ios": "https://dc.lft.to/lastmile_qr_scan"}, "name": "95ad077351797ab11b84c6d9deb662c4", "type": "electric_scooter", "lat": 38.915617833333336, "is_disabled": 0}, {"fusion_lat": 0.0, "lon": -77.08067616666666, "is_reserved": 0, "bike_id": "beae3d56cda2d9ef50df4cbc11d7cf5a", "fusion_lon": 0.0, "rental_uris": {"android": "https://dc.lft.to/lastmile_qr_scan", "ios": "https://dc.lft.to/lastmile_qr_scan"}, "name": "beae3d56cda2d9ef50df4cbc11d7cf5a", "type": "electric_bike", "lat": 39.052778333333336, "is_disabled": 0}, {"fusion_lat": 0.0, "lon": -77.03425916666667, "is_reserved": 0, "bike_id": "7ef718711cf2aa8215071cfc1ffd7b2b", "fusion_lon": 0.0, "rental_uris": {"android": "https://dc.lft.to/lastmile_qr_scan", "ios": "https://dc.lft.to/lastmile_qr_scan"}, "name": "7ef718711cf2aa8215071cfc1ffd7b2b", "type": "electric_bike", "lat": 38.966210833333335, "is_disabled": 0}, {"fusion_lat": 0.0, "lon": -76.97479166666666, "is_reserved": 0, "bike_id": "fea9b606a0360006d880a3f69adde40b", "fusion_lon": 0.0, "rental_uris": {"android": "https://dc.lft.to/lastmile_qr_scan", "ios": "https://dc.lft.to/lastmile_qr_scan"}, "name": "fea9b606a0360006d880a3f69adde40b", "type": "electric_scooter", "lat": 38.903478166666666, "is_disabled": 0}, {"fusion_lat": 0.0, "lon": -77.0233445, "is_reserved": 0, "bike_id": "5c6d413ea6386f0a8f65a0e9829cb1bf", "fusion_lon": 0.0, "rental_uris": {"android": "https://dc.lft.to/lastmile_qr_scan", "ios": "https://dc.lft.to/lastmile_qr_scan"}, "name": "5c6d413ea6386f0a8f65a0e9829cb1bf", "type": "electric_scooter", "lat": 38.92482316666667, "is_disabled": 0}, {"fusion_lat": 0.0, "lon": -76.98595366666666, "is_reserved": 0, "bike_id": "d9cee1099f68529d397032a69575e053", "fusion_lon": 0.0, "rental_uris": {"android": "https://dc.lft.to/lastmile_qr_scan", "ios": "https://dc.lft.to/lastmile_qr_scan"}, "name": "d9cee1099f68529d397032a69575e053", "type": "electric_scooter", "lat": 38.90648183333333, "is_disabled": 0}, {"fusion_lat": 0.0, "lon": -77.0877465, "is_reserved": 0, "bike_id": "9fd373e4cd2657964b1560e5f9fd46ba", "fusion_lon": 0.0, "rental_uris": {"android": "https://dc.lft.to/lastmile_qr_scan", "ios": "https://dc.lft.to/lastmile_qr_scan"}, "name": "9fd373e4cd2657964b1560e5f9fd46ba", "type": "electric_bike", "lat": 38.8390015, "is_disabled": 0}, {"fusion_lat": 0.0, "lon": -76.97710933333333, "is_reserved": 0, "bike_id": "d204e814716d6cc5a23e5f7b239cc726", "fusion_lon": 0.0, "rental_uris": {"android": "https://dc.lft.to/lastmile_qr_scan", "ios": "https://dc.lft.to/lastmile_qr_scan"}, "name": "d204e814716d6cc5a23e5f7b239cc726", "type": "electric_scooter", "lat": 38.8877625, "is_disabled": 0}, {"fusion_lat": 0.0, "lon": -77.01752383333333, "is_reserved": 0, "bike_id": "ce9f5b926a4026895a5ff9e4d8140968", "fusion_lon": 0.0, "rental_uris": {"android": "https://dc.lft.to/lastmile_qr_scan", "ios": "https://dc.lft.to/lastmile_qr_scan"}, "name": "ce9f5b926a4026895a5ff9e4d8140968", "type": "electric_scooter", "lat": 38.89458166666667, "is_disabled": 0}, {"fusion_lat": 0.0, "lon": -77.00795933333333, "is_reserved": 0, "bike_id": "f3f3f7e023cf7d62f201549d759cd798", "fusion_lon": 0.0, "rental_uris": {"android": "https://dc.lft.to/lastmile_qr_scan", "ios": "https://dc.lft.to/lastmile_qr_scan"}, "name": "f3f3f7e023cf7d62f201549d759cd798", "type": "electric_scooter", "lat": 38.896438833333335, "is_disabled": 0}, {"fusion_lat": 0.0, "lon": -77.07234033333333, "is_reserved": 0, "bike_id": "1ec1082d8a84820194b1d00d4f08daa3", "fusion_lon": 0.0, "rental_uris": {"android": "https://dc.lft.to/lastmile_qr_scan", "ios": "https://dc.lft.to/lastmile_qr_scan"}, "name": "1ec1082d8a84820194b1d00d4f08daa3", "type": "electric_scooter", "lat": 38.940083, "is_disabled": 0}, {"fusion_lat": 0.0, "lon": -76.97871083333334, "is_reserved": 0, "bike_id": "95c3c3fa3cf54b6999248f6006005b36", "fusion_lon": 0.0, "rental_uris": {"android": "https://dc.lft.to/lastmile_qr_scan", "ios": "https://dc.lft.to/lastmile_qr_scan"}, "name": "95c3c3fa3cf54b6999248f6006005b36", "type": "electric_scooter", "lat": 38.883046, "is_disabled": 0}, {"fusion_lat": 0.0, "lon": -77.0036655, "is_reserved": 0, "bike_id": "b582ec110e24194605df71763ba74988", "fusion_lon": 0.0, "rental_uris": {"android": "https://dc.lft.to/lastmile_qr_scan", "ios": "https://dc.lft.to/lastmile_qr_scan"}, "name": "b582ec110e24194605df71763ba74988", "type": "electric_scooter", "lat": 38.897303666666666, "is_disabled": 0}, {"fusion_lat": 0.0, "lon": -77.02702666666667, "is_reserved": 0, "bike_id": "671733067a6ea77c905c76e9c55a34b3", "fusion_lon": 0.0, "rental_uris": {"android": "https://dc.lft.to/lastmile_qr_scan", "ios": "https://dc.lft.to/lastmile_qr_scan"}, "name": "671733067a6ea77c905c76e9c55a34b3", "type": "electric_scooter", "lat": 38.89741766666667, "is_disabled": 0}, {"fusion_lat": 0.0, "lon": -77.02655383333334, "is_reserved": 0, "bike_id": "6d0646384554a5a99eaed680e3cd4cea", "fusion_lon": 0.0, "rental_uris": {"android": "https://dc.lft.to/lastmile_qr_scan", "ios": "https://dc.lft.to/lastmile_qr_scan"}, "name": "6d0646384554a5a99eaed680e3cd4cea", "type": "electric_scooter", "lat": 38.97812616666667, "is_disabled": 0}, {"fusion_lat": 0.0, "lon": -77.02312333333333, "is_reserved": 0, "bike_id": "d6ce16486005c32dfb4762187d668b61", "fusion_lon": 0.0, "rental_uris": {"android": "https://dc.lft.to/lastmile_qr_scan", "ios": "https://dc.lft.to/lastmile_qr_scan"}, "name": "d6ce16486005c32dfb4762187d668b61", "type": "electric_scooter", "lat": 38.917613833333334, "is_disabled": 0}, {"fusion_lat": 0.0, "lon": -76.96771983333333, "is_reserved": 0, "bike_id": "3442cd73d863ffba69064dd27099d6f7", "fusion_lon": 0.0, "rental_uris": {"android": "https://dc.lft.to/lastmile_qr_scan", "ios": "https://dc.lft.to/lastmile_qr_scan"}, "name": "3442cd73d863ffba69064dd27099d6f7", "type": "electric_scooter", "lat": 38.85923316666667, "is_disabled": 0}, {"fusion_lat": 0.0, "lon": -76.99521516666667, "is_reserved": 0, "bike_id": "34e8db4117dc227a8250bdce365fb89a", "fusion_lon": 0.0, "rental_uris": {"android": "https://dc.lft.to/lastmile_qr_scan", "ios": "https://dc.lft.to/lastmile_qr_scan"}, "name": "34e8db4117dc227a8250bdce365fb89a", "type": "electric_scooter", "lat": 38.89543116666667, "is_disabled": 0}, {"fusion_lat": 0.0, "lon": -76.91608133333334, "is_reserved": 0, "bike_id": "e1ba8629bc4fa3db337818016e6c5481", "fusion_lon": 0.0, "rental_uris": {"android": "https://dc.lft.to/lastmile_qr_scan", "ios": "https://dc.lft.to/lastmile_qr_scan"}, "name": "e1ba8629bc4fa3db337818016e6c5481", "type": "electric_bike", "lat": 38.87963833333333, "is_disabled": 0}, {"fusion_lat": 0.0, "lon": -76.98382983333333, "is_reserved": 0, "bike_id": "eb859979c81beabf6e33fe4f043fb5cb", "fusion_lon": 0.0, "rental_uris": {"android": "https://dc.lft.to/lastmile_qr_scan", "ios": "https://dc.lft.to/lastmile_qr_scan"}, "name": "eb859979c81beabf6e33fe4f043fb5cb", "type": "electric_scooter", "lat": 38.861270833333336, "is_disabled": 0}, {"fusion_lat": 0.0, "lon": -77.018973, "is_reserved": 0, "bike_id": "1564406e6028f63b3787923558092136", "fusion_lon": 0.0, "rental_uris": {"android": "https://dc.lft.to/lastmile_qr_scan", "ios": "https://dc.lft.to/lastmile_qr_scan"}, "name": "1564406e6028f63b3787923558092136", "type": "electric_scooter", "lat": 38.904512833333335, "is_disabled": 0}, {"fusion_lat": 0.0, "lon": -77.02214133333334, "is_reserved": 0, "bike_id": "4471f7df63da4f96d480d130dbfdd746", "fusion_lon": 0.0, "rental_uris": {"android": "https://dc.lft.to/lastmile_qr_scan", "ios": "https://dc.lft.to/lastmile_qr_scan"}, "name": "4471f7df63da4f96d480d130dbfdd746", "type": "electric_scooter", "lat": 38.90199766666667, "is_disabled": 0}, {"fusion_lat": 0.0, "lon": -77.03266666666667, "is_reserved": 0, "bike_id": "c3cab67acf9b224723f8161dac17f1f6", "fusion_lon": 0.0, "rental_uris": {"android": "https://dc.lft.to/lastmile_qr_scan", "ios": "https://dc.lft.to/lastmile_qr_scan"}, "name": "c3cab67acf9b224723f8161dac17f1f6", "type": "electric_scooter", "lat": 38.928453833333336, "is_disabled": 0}, {"fusion_lat": 0.0, "lon": -77.01982333333333, "is_reserved": 0, "bike_id": "2e902064b785e0222be627d51545b5dc", "fusion_lon": 0.0, "rental_uris": {"android": "https://dc.lft.to/lastmile_qr_scan", "ios": "https://dc.lft.to/lastmile_qr_scan"}, "name": "2e902064b785e0222be627d51545b5dc", "type": "electric_scooter", "lat": 38.8858855, "is_disabled": 0}, {"fusion_lat": 0.0, "lon": -76.996106, "is_reserved": 0, "bike_id": "4790ae7a644cbadf4d9ceb37cfa37528", "fusion_lon": 0.0, "rental_uris": {"android": "https://dc.lft.to/lastmile_qr_scan", "ios": "https://dc.lft.to/lastmile_qr_scan"}, "name": "4790ae7a644cbadf4d9ceb37cfa37528", "type": "electric_scooter", "lat": 38.88558783333333, "is_disabled": 0}, {"fusion_lat": 0.0, "lon": -77.04870133333333, "is_reserved": 0, "bike_id": "6aeb5ae39ca5341c85f24d04a3e4d879", "fusion_lon": 0.0, "rental_uris": {"android": "https://dc.lft.to/lastmile_qr_scan", "ios": "https://dc.lft.to/lastmile_qr_scan"}, "name": "6aeb5ae39ca5341c85f24d04a3e4d879", "type": "electric_scooter", "lat": 38.90110883333333, "is_disabled": 0}, {"fusion_lat": 0.0, "lon": -77.0370885, "is_reserved": 0, "bike_id": "00a2a61f599b293cab3c657f68863112", "fusion_lon": 0.0, "rental_uris": {"android": "https://dc.lft.to/lastmile_qr_scan", "ios": "https://dc.lft.to/lastmile_qr_scan"}, "name": "00a2a61f599b293cab3c657f68863112", "type": "electric_scooter", "lat": 38.926318333333334, "is_disabled": 0}, {"fusion_lat": 0.0, "lon": -77.043725, "is_reserved": 0, "bike_id": "8908cf31b6d0bd97b07f7e5ab0f5302e", "fusion_lon": 0.0, "rental_uris": {"android": "https://dc.lft.to/lastmile_qr_scan", "ios": "https://dc.lft.to/lastmile_qr_scan"}, "name": "8908cf31b6d0bd97b07f7e5ab0f5302e", "type": "electric_scooter", "lat": 38.89223, "is_disabled": 0}, {"fusion_lat": 0.0, "lon": -77.0593015, "is_reserved": 0, "bike_id": "8e83e563aac6ea480322a8234cf7a438", "fusion_lon": 0.0, "rental_uris": {"android": "https://dc.lft.to/lastmile_qr_scan", "ios": "https://dc.lft.to/lastmile_qr_scan"}, "name": "8e83e563aac6ea480322a8234cf7a438", "type": "electric_bike", "lat": 38.905299666666664, "is_disabled": 0}, {"fusion_lat": 0.0, "lon": -76.9838975, "is_reserved": 0, "bike_id": "80da7b0cb828684ba86c7ef70e6a90d4", "fusion_lon": 0.0, "rental_uris": {"android": "https://dc.lft.to/lastmile_qr_scan", "ios": "https://dc.lft.to/lastmile_qr_scan"}, "name": "80da7b0cb828684ba86c7ef70e6a90d4", "type": "electric_scooter", "lat": 38.86700833333333, "is_disabled": 0}, {"fusion_lat": 0.0, "lon": -77.058856, "is_reserved": 0, "bike_id": "fc8dda127930a8cc797c23b6cb9f86cd", "fusion_lon": 0.0, "rental_uris": {"android": "https://dc.lft.to/lastmile_qr_scan", "ios": "https://dc.lft.to/lastmile_qr_scan"}, "name": "fc8dda127930a8cc797c23b6cb9f86cd", "type": "electric_scooter", "lat": 38.918246, "is_disabled": 0}, {"fusion_lat": 0.0, "lon": -77.00965616666667, "is_reserved": 0, "bike_id": "bc1d14203297e78dca5756848917d3e1", "fusion_lon": 0.0, "rental_uris": {"android": "https://dc.lft.to/lastmile_qr_scan", "ios": "https://dc.lft.to/lastmile_qr_scan"}, "name": "bc1d14203297e78dca5756848917d3e1", "type": "electric_scooter", "lat": 38.91703416666667, "is_disabled": 0}, {"fusion_lat": 0.0, "lon": -76.98107533333334, "is_reserved": 0, "bike_id": "195450947a7398d67bb09080714f5e7c", "fusion_lon": 0.0, "rental_uris": {"android": "https://dc.lft.to/lastmile_qr_scan", "ios": "https://dc.lft.to/lastmile_qr_scan"}, "name": "195450947a7398d67bb09080714f5e7c", "type": "electric_scooter", "lat": 38.904055166666666, "is_disabled": 0}, {"fusion_lat": 0.0, "lon": -77.0710225, "is_reserved": 0, "bike_id": "89dd53c38e638f4f4d055158e34d3fa1", "fusion_lon": 0.0, "rental_uris": {"android": "https://dc.lft.to/lastmile_qr_scan", "ios": "https://dc.lft.to/lastmile_qr_scan"}, "name": "89dd53c38e638f4f4d055158e34d3fa1", "type": "electric_scooter", "lat": 38.907775, "is_disabled": 0}, {"fusion_lat": 0.0, "lon": -77.01224983333333, "is_reserved": 0, "bike_id": "dddb2a1fdc3d215d258d092a8c8cc0cc", "fusion_lon": 0.0, "rental_uris": {"android": "https://dc.lft.to/lastmile_qr_scan", "ios": "https://dc.lft.to/lastmile_qr_scan"}, "name": "dddb2a1fdc3d215d258d092a8c8cc0cc", "type": "electric_scooter", "lat": 38.914295833333334, "is_disabled": 0}, {"fusion_lat": 0.0, "lon": -77.04685483333333, "is_reserved": 0, "bike_id": "d597aedddd91db0bfec0291130bcb2d9", "fusion_lon": 0.0, "rental_uris": {"android": "https://dc.lft.to/lastmile_qr_scan", "ios": "https://dc.lft.to/lastmile_qr_scan"}, "name": "d597aedddd91db0bfec0291130bcb2d9", "type": "electric_scooter", "lat": 38.92132683333333, "is_disabled": 0}, {"fusion_lat": 0.0, "lon": -77.017664, "is_reserved": 0, "bike_id": "a2166dcc3cb9bd8a9420f46e04170562", "fusion_lon": 0.0, "rental_uris": {"android": "https://dc.lft.to/lastmile_qr_scan", "ios": "https://dc.lft.to/lastmile_qr_scan"}, "name": "a2166dcc3cb9bd8a9420f46e04170562", "type": "electric_scooter", "lat": 38.87687583333334, "is_disabled": 0}, {"fusion_lat": 0.0, "lon": -77.01720166666667, "is_reserved": 0, "bike_id": "e7a3ed96f50bd3d4c170e42a849ab839", "fusion_lon": 0.0, "rental_uris": {"android": "https://dc.lft.to/lastmile_qr_scan", "ios": "https://dc.lft.to/lastmile_qr_scan"}, "name": "e7a3ed96f50bd3d4c170e42a849ab839", "type": "electric_scooter", "lat": 38.97488633333333, "is_disabled": 0}, {"fusion_lat": 0.0, "lon": -77.0386485, "is_reserved": 0, "bike_id": "21c828dddd99dba24c12cd009b8bef00", "fusion_lon": 0.0, "rental_uris": {"android": "https://dc.lft.to/lastmile_qr_scan", "ios": "https://dc.lft.to/lastmile_qr_scan"}, "name": "21c828dddd99dba24c12cd009b8bef00", "type": "electric_scooter", "lat": 38.932452, "is_disabled": 0}, {"fusion_lat": 0.0, "lon": -77.02887633333333, "is_reserved": 0, "bike_id": "13fdd411ff5607298b8ecd5503eb473b", "fusion_lon": 0.0, "rental_uris": {"android": "https://dc.lft.to/lastmile_qr_scan", "ios": "https://dc.lft.to/lastmile_qr_scan"}, "name": "13fdd411ff5607298b8ecd5503eb473b", "type": "electric_scooter", "lat": 38.94046566666667, "is_disabled": 0}, {"fusion_lat": 0.0, "lon": -76.9656225, "is_reserved": 0, "bike_id": "7d84f72fa385a7c75fa0207a516c2116", "fusion_lon": 0.0, "rental_uris": {"android": "https://dc.lft.to/lastmile_qr_scan", "ios": "https://dc.lft.to/lastmile_qr_scan"}, "name": "7d84f72fa385a7c75fa0207a516c2116", "type": "electric_bike", "lat": 38.873711666666665, "is_disabled": 0}, {"fusion_lat": 0.0, "lon": -77.02899516666666, "is_reserved": 0, "bike_id": "be8008acc7f75b04fda96a32f7b413fa", "fusion_lon": 0.0, "rental_uris": {"android": "https://dc.lft.to/lastmile_qr_scan", "ios": "https://dc.lft.to/lastmile_qr_scan"}, "name": "be8008acc7f75b04fda96a32f7b413fa", "type": "electric_scooter", "lat": 38.961311, "is_disabled": 0}, {"fusion_lat": 0.0, "lon": -77.0434405, "is_reserved": 0, "bike_id": "d5edb72813f878e07a4019bed32f1482", "fusion_lon": 0.0, "rental_uris": {"android": "https://dc.lft.to/lastmile_qr_scan", "ios": "https://dc.lft.to/lastmile_qr_scan"}, "name": "d5edb72813f878e07a4019bed32f1482", "type": "electric_scooter", "lat": 38.90753133333333, "is_disabled": 0}, {"fusion_lat": 0.0, "lon": -76.99904516666666, "is_reserved": 0, "bike_id": "0bbecf6d914615bc438f963537c19a96", "fusion_lon": 0.0, "rental_uris": {"android": "https://dc.lft.to/lastmile_qr_scan", "ios": "https://dc.lft.to/lastmile_qr_scan"}, "name": "0bbecf6d914615bc438f963537c19a96", "type": "electric_scooter", "lat": 38.924584, "is_disabled": 0}, {"fusion_lat": 0.0, "lon": -77.05309033333333, "is_reserved": 0, "bike_id": "4fef85a44f8de10cde046ba4d11005d4", "fusion_lon": 0.0, "rental_uris": {"android": "https://dc.lft.to/lastmile_qr_scan", "ios": "https://dc.lft.to/lastmile_qr_scan"}, "name": "4fef85a44f8de10cde046ba4d11005d4", "type": "electric_scooter", "lat": 38.898502666666666, "is_disabled": 0}, {"fusion_lat": 0.0, "lon": -77.02895933333333, "is_reserved": 0, "bike_id": "d4bd43cf708f0c746783f0aedadccf5b", "fusion_lon": 0.0, "rental_uris": {"android": "https://dc.lft.to/lastmile_qr_scan", "ios": "https://dc.lft.to/lastmile_qr_scan"}, "name": "d4bd43cf708f0c746783f0aedadccf5b", "type": "electric_scooter", "lat": 38.903597500000004, "is_disabled": 0}, {"fusion_lat": 0.0, "lon": -77.0121445, "is_reserved": 0, "bike_id": "bafecd5ad1f3f0dec867bfd971aefa3b", "fusion_lon": 0.0, "rental_uris": {"android": "https://dc.lft.to/lastmile_qr_scan", "ios": "https://dc.lft.to/lastmile_qr_scan"}, "name": "bafecd5ad1f3f0dec867bfd971aefa3b", "type": "electric_scooter", "lat": 38.91524366666667, "is_disabled": 0}, {"fusion_lat": 0.0, "lon": -77.02951116666667, "is_reserved": 0, "bike_id": "6ed747797b8361e5660207601c733bd8", "fusion_lon": 0.0, "rental_uris": {"android": "https://dc.lft.to/lastmile_qr_scan", "ios": "https://dc.lft.to/lastmile_qr_scan"}, "name": "6ed747797b8361e5660207601c733bd8", "type": "electric_scooter", "lat": 38.9217375, "is_disabled": 0}, {"fusion_lat": 0.0, "lon": -77.03339283333334, "is_reserved": 0, "bike_id": "a630eaae14c3f07ee9a37b6a084d217b", "fusion_lon": 0.0, "rental_uris": {"android": "https://dc.lft.to/lastmile_qr_scan", "ios": "https://dc.lft.to/lastmile_qr_scan"}, "name": "a630eaae14c3f07ee9a37b6a084d217b", "type": "electric_scooter", "lat": 38.91729383333333, "is_disabled": 0}, {"fusion_lat": 0.0, "lon": -76.97856733333333, "is_reserved": 0, "bike_id": "807b6f15077424fd636e3490b788482f", "fusion_lon": 0.0, "rental_uris": {"android": "https://dc.lft.to/lastmile_qr_scan", "ios": "https://dc.lft.to/lastmile_qr_scan"}, "name": "807b6f15077424fd636e3490b788482f", "type": "electric_scooter", "lat": 38.870696833333334, "is_disabled": 0}, {"fusion_lat": 0.0, "lon": -77.004886, "is_reserved": 0, "bike_id": "d37b202926cd2d1ef3c6864385956c00", "fusion_lon": 0.0, "rental_uris": {"android": "https://dc.lft.to/lastmile_qr_scan", "ios": "https://dc.lft.to/lastmile_qr_scan"}, "name": "d37b202926cd2d1ef3c6864385956c00", "type": "electric_scooter", "lat": 38.905602333333334, "is_disabled": 0}, {"fusion_lat": 0.0, "lon": -77.00750533333333, "is_reserved": 0, "bike_id": "7ae3c8f7a5f65d9b0a9c20bac228ae41", "fusion_lon": 0.0, "rental_uris": {"android": "https://dc.lft.to/lastmile_qr_scan", "ios": "https://dc.lft.to/lastmile_qr_scan"}, "name": "7ae3c8f7a5f65d9b0a9c20bac228ae41", "type": "electric_scooter", "lat": 38.926725166666664, "is_disabled": 0}, {"fusion_lat": 0.0, "lon": -77.0351085, "is_reserved": 0, "bike_id": "e5fd94152cbd46ba3e0c96b970abc1af", "fusion_lon": 0.0, "rental_uris": {"android": "https://dc.lft.to/lastmile_qr_scan", "ios": "https://dc.lft.to/lastmile_qr_scan"}, "name": "e5fd94152cbd46ba3e0c96b970abc1af", "type": "electric_scooter", "lat": 38.918800833333336, "is_disabled": 0}, {"fusion_lat": 0.0, "lon": -77.028031, "is_reserved": 0, "bike_id": "85bc75e0cb57ed654e1481204e154929", "fusion_lon": 0.0, "rental_uris": {"android": "https://dc.lft.to/lastmile_qr_scan", "ios": "https://dc.lft.to/lastmile_qr_scan"}, "name": "85bc75e0cb57ed654e1481204e154929", "type": "electric_scooter", "lat": 38.89230366666666, "is_disabled": 0}, {"fusion_lat": 0.0, "lon": -77.0247585, "is_reserved": 0, "bike_id": "428907bf14254c90259ac4521fb6b256", "fusion_lon": 0.0, "rental_uris": {"android": "https://dc.lft.to/lastmile_qr_scan", "ios": "https://dc.lft.to/lastmile_qr_scan"}, "name": "428907bf14254c90259ac4521fb6b256", "type": "electric_scooter", "lat": 38.91943166666667, "is_disabled": 0}, {"fusion_lat": 0.0, "lon": -77.06360016666666, "is_reserved": 0, "bike_id": "a2792428e7f609fcde25095046542ed0", "fusion_lon": 0.0, "rental_uris": {"android": "https://dc.lft.to/lastmile_qr_scan", "ios": "https://dc.lft.to/lastmile_qr_scan"}, "name": "a2792428e7f609fcde25095046542ed0", "type": "electric_scooter", "lat": 38.90685533333333, "is_disabled": 0}, {"fusion_lat": 0.0, "lon": -77.0238855, "is_reserved": 0, "bike_id": "973c85532bd001505902957a4760d2a7", "fusion_lon": 0.0, "rental_uris": {"android": "https://dc.lft.to/lastmile_qr_scan", "ios": "https://dc.lft.to/lastmile_qr_scan"}, "name": "973c85532bd001505902957a4760d2a7", "type": "electric_scooter", "lat": 38.918298666666665, "is_disabled": 0}, {"fusion_lat": 0.0, "lon": -76.998558, "is_reserved": 0, "bike_id": "6804e0f940a99ef7498c77079af71ca0", "fusion_lon": 0.0, "rental_uris": {"android": "https://dc.lft.to/lastmile_qr_scan", "ios": "https://dc.lft.to/lastmile_qr_scan"}, "name": "6804e0f940a99ef7498c77079af71ca0", "type": "electric_scooter", "lat": 38.88744783333333, "is_disabled": 0}, {"fusion_lat": 0.0, "lon": -77.03645533333334, "is_reserved": 0, "bike_id": "aeb00d8fccf1538e56fca11c81baaefa", "fusion_lon": 0.0, "rental_uris": {"android": "https://dc.lft.to/lastmile_qr_scan", "ios": "https://dc.lft.to/lastmile_qr_scan"}, "name": "aeb00d8fccf1538e56fca11c81baaefa", "type": "electric_scooter", "lat": 38.906790666666666, "is_disabled": 0}, {"fusion_lat": 0.0, "lon": -76.911674, "is_reserved": 0, "bike_id": "d0d54cd6d5fa60bc7e0f5665cc0ff27c", "fusion_lon": 0.0, "rental_uris": {"android": "https://dc.lft.to/lastmile_qr_scan", "ios": "https://dc.lft.to/lastmile_qr_scan"}, "name": "d0d54cd6d5fa60bc7e0f5665cc0ff27c", "type": "electric_scooter", "lat": 38.894059, "is_disabled": 0}, {"fusion_lat": 0.0, "lon": -76.95198316666666, "is_reserved": 0, "bike_id": "17cc49bb62887f2c428bf1f0a60c56fb", "fusion_lon": 0.0, "rental_uris": {"android": "https://dc.lft.to/lastmile_qr_scan", "ios": "https://dc.lft.to/lastmile_qr_scan"}, "name": "17cc49bb62887f2c428bf1f0a60c56fb", "type": "electric_scooter", "lat": 38.900051166666664, "is_disabled": 0}, {"fusion_lat": 0.0, "lon": -77.042558, "is_reserved": 0, "bike_id": "7ab716f4a5371258e48c3cb901eb14e7", "fusion_lon": 0.0, "rental_uris": {"android": "https://dc.lft.to/lastmile_qr_scan", "ios": "https://dc.lft.to/lastmile_qr_scan"}, "name": "7ab716f4a5371258e48c3cb901eb14e7", "type": "electric_scooter", "lat": 38.9224495, "is_disabled": 0}, {"fusion_lat": 0.0, "lon": -76.9937165, "is_reserved": 0, "bike_id": "ca93d3eba820ede3f8004aadfcb2a815", "fusion_lon": 0.0, "rental_uris": {"android": "https://dc.lft.to/lastmile_qr_scan", "ios": "https://dc.lft.to/lastmile_qr_scan"}, "name": "ca93d3eba820ede3f8004aadfcb2a815", "type": "electric_scooter", "lat": 38.883413, "is_disabled": 0}, {"fusion_lat": 0.0, "lon": -76.98090716666667, "is_reserved": 0, "bike_id": "3fb459244a3e10dd53371b04e7b848c2", "fusion_lon": 0.0, "rental_uris": {"android": "https://dc.lft.to/lastmile_qr_scan", "ios": "https://dc.lft.to/lastmile_qr_scan"}, "name": "3fb459244a3e10dd53371b04e7b848c2", "type": "electric_bike", "lat": 38.881317833333334, "is_disabled": 0}, {"fusion_lat": 0.0, "lon": -77.04355866666667, "is_reserved": 0, "bike_id": "9b90a1ae4517fd351036afba645298e2", "fusion_lon": 0.0, "rental_uris": {"android": "https://dc.lft.to/lastmile_qr_scan", "ios": "https://dc.lft.to/lastmile_qr_scan"}, "name": "9b90a1ae4517fd351036afba645298e2", "type": "electric_scooter", "lat": 38.902283833333335, "is_disabled": 0}, {"fusion_lat": 0.0, "lon": -77.02310833333334, "is_reserved": 0, "bike_id": "a0fb53947a676a301bf1386c600f4df6", "fusion_lon": 0.0, "rental_uris": {"android": "https://dc.lft.to/lastmile_qr_scan", "ios": "https://dc.lft.to/lastmile_qr_scan"}, "name": "a0fb53947a676a301bf1386c600f4df6", "type": "electric_scooter", "lat": 38.917959333333336, "is_disabled": 0}, {"fusion_lat": 0.0, "lon": -77.0542095, "is_reserved": 0, "bike_id": "606c0e217292477d93a8541eec4787df", "fusion_lon": 0.0, "rental_uris": {"android": "https://dc.lft.to/lastmile_qr_scan", "ios": "https://dc.lft.to/lastmile_qr_scan"}, "name": "606c0e217292477d93a8541eec4787df", "type": "electric_scooter", "lat": 38.902312, "is_disabled": 0}, {"fusion_lat": 0.0, "lon": -76.9336945, "is_reserved": 0, "bike_id": "7ab8997553e9d5ee346b07a357431f09", "fusion_lon": 0.0, "rental_uris": {"android": "https://dc.lft.to/lastmile_qr_scan", "ios": "https://dc.lft.to/lastmile_qr_scan"}, "name": "7ab8997553e9d5ee346b07a357431f09", "type": "electric_scooter", "lat": 38.89915766666667, "is_disabled": 0}, {"fusion_lat": 0.0, "lon": -76.9883325, "is_reserved": 0, "bike_id": "99b140bdcda2e72369310a71003b7bfb", "fusion_lon": 0.0, "rental_uris": {"android": "https://dc.lft.to/lastmile_qr_scan", "ios": "https://dc.lft.to/lastmile_qr_scan"}, "name": "99b140bdcda2e72369310a71003b7bfb", "type": "electric_scooter", "lat": 38.892450833333335, "is_disabled": 0}, {"fusion_lat": 0.0, "lon": -77.022009, "is_reserved": 0, "bike_id": "fdb232e4d4f59bef2e6eefb6f49a3fc1", "fusion_lon": 0.0, "rental_uris": {"android": "https://dc.lft.to/lastmile_qr_scan", "ios": "https://dc.lft.to/lastmile_qr_scan"}, "name": "fdb232e4d4f59bef2e6eefb6f49a3fc1", "type": "electric_scooter", "lat": 38.922733666666666, "is_disabled": 0}, {"fusion_lat": 0.0, "lon": -77.04200983333334, "is_reserved": 0, "bike_id": "bce01b3fc4a54a6af6099882191f623d", "fusion_lon": 0.0, "rental_uris": {"android": "https://dc.lft.to/lastmile_qr_scan", "ios": "https://dc.lft.to/lastmile_qr_scan"}, "name": "bce01b3fc4a54a6af6099882191f623d", "type": "electric_scooter", "lat": 38.926176166666664, "is_disabled": 0}, {"fusion_lat": 0.0, "lon": -77.01768283333334, "is_reserved": 0, "bike_id": "1219ef5c5cc4d4f90245e0cbcfab3eed", "fusion_lon": 0.0, "rental_uris": {"android": "https://dc.lft.to/lastmile_qr_scan", "ios": "https://dc.lft.to/lastmile_qr_scan"}, "name": "1219ef5c5cc4d4f90245e0cbcfab3eed", "type": "electric_scooter", "lat": 38.8770595, "is_disabled": 0}, {"fusion_lat": 0.0, "lon": -77.02386316666667, "is_reserved": 0, "bike_id": "dd0f294f446eed69ae0cbf769121a12c", "fusion_lon": 0.0, "rental_uris": {"android": "https://dc.lft.to/lastmile_qr_scan", "ios": "https://dc.lft.to/lastmile_qr_scan"}, "name": "dd0f294f446eed69ae0cbf769121a12c", "type": "electric_scooter", "lat": 38.909553833333334, "is_disabled": 0}, {"fusion_lat": 0.0, "lon": -76.99581916666666, "is_reserved": 0, "bike_id": "29b65697781471b5399ebf078de6b541", "fusion_lon": 0.0, "rental_uris": {"android": "https://dc.lft.to/lastmile_qr_scan", "ios": "https://dc.lft.to/lastmile_qr_scan"}, "name": "29b65697781471b5399ebf078de6b541", "type": "electric_scooter", "lat": 38.851764, "is_disabled": 0}, {"fusion_lat": 0.0, "lon": -76.995322, "is_reserved": 0, "bike_id": "33bd325bfe5ee1a32a2abedb601d401a", "fusion_lon": 0.0, "rental_uris": {"android": "https://dc.lft.to/lastmile_qr_scan", "ios": "https://dc.lft.to/lastmile_qr_scan"}, "name": "33bd325bfe5ee1a32a2abedb601d401a", "type": "electric_scooter", "lat": 38.883690333333334, "is_disabled": 0}, {"fusion_lat": 0.0, "lon": -77.0378035, "is_reserved": 0, "bike_id": "d73118b2b8d8f2e4d5a2af432b964aa2", "fusion_lon": 0.0, "rental_uris": {"android": "https://dc.lft.to/lastmile_qr_scan", "ios": "https://dc.lft.to/lastmile_qr_scan"}, "name": "d73118b2b8d8f2e4d5a2af432b964aa2", "type": "electric_scooter", "lat": 38.9221235, "is_disabled": 0}, {"fusion_lat": 0.0, "lon": -77.03851016666667, "is_reserved": 0, "bike_id": "f9bd7c36a9cf36f5877fa837de4a886e", "fusion_lon": 0.0, "rental_uris": {"android": "https://dc.lft.to/lastmile_qr_scan", "ios": "https://dc.lft.to/lastmile_qr_scan"}, "name": "f9bd7c36a9cf36f5877fa837de4a886e", "type": "electric_scooter", "lat": 38.90277966666667, "is_disabled": 0}, {"fusion_lat": 0.0, "lon": -76.95533083333333, "is_reserved": 0, "bike_id": "34ba1b8cd9bd24dc1d405821147be140", "fusion_lon": 0.0, "rental_uris": {"android": "https://dc.lft.to/lastmile_qr_scan", "ios": "https://dc.lft.to/lastmile_qr_scan"}, "name": "34ba1b8cd9bd24dc1d405821147be140", "type": "electric_scooter", "lat": 38.88774816666667, "is_disabled": 0}, {"fusion_lat": 0.0, "lon": -77.04327816666667, "is_reserved": 0, "bike_id": "26cbeaf2600116a8f691588a6d5bd5d6", "fusion_lon": 0.0, "rental_uris": {"android": "https://dc.lft.to/lastmile_qr_scan", "ios": "https://dc.lft.to/lastmile_qr_scan"}, "name": "26cbeaf2600116a8f691588a6d5bd5d6", "type": "electric_scooter", "lat": 38.892232666666665, "is_disabled": 0}, {"fusion_lat": 0.0, "lon": -76.99581816666667, "is_reserved": 0, "bike_id": "1102928685427dcfde585cee5fcf0112", "fusion_lon": 0.0, "rental_uris": {"android": "https://dc.lft.to/lastmile_qr_scan", "ios": "https://dc.lft.to/lastmile_qr_scan"}, "name": "1102928685427dcfde585cee5fcf0112", "type": "electric_bike", "lat": 38.852943833333335, "is_disabled": 0}, {"fusion_lat": 0.0, "lon": -77.032667, "is_reserved": 0, "bike_id": "4e773f4e58a6f340460e9efe6c2a8585", "fusion_lon": 0.0, "rental_uris": {"android": "https://dc.lft.to/lastmile_qr_scan", "ios": "https://dc.lft.to/lastmile_qr_scan"}, "name": "4e773f4e58a6f340460e9efe6c2a8585", "type": "electric_scooter", "lat": 38.9462515, "is_disabled": 0}, {"fusion_lat": 0.0, "lon": -77.00490883333333, "is_reserved": 0, "bike_id": "0bf0c1e7ce80afb170ada0dd466986ed", "fusion_lon": 0.0, "rental_uris": {"android": "https://dc.lft.to/lastmile_qr_scan", "ios": "https://dc.lft.to/lastmile_qr_scan"}, "name": "0bf0c1e7ce80afb170ada0dd466986ed", "type": "electric_scooter", "lat": 38.8747565, "is_disabled": 0}, {"fusion_lat": 0.0, "lon": -77.04927083333334, "is_reserved": 0, "bike_id": "25511c624d98ca767a131766b3b6193f", "fusion_lon": 0.0, "rental_uris": {"android": "https://dc.lft.to/lastmile_qr_scan", "ios": "https://dc.lft.to/lastmile_qr_scan"}, "name": "25511c624d98ca767a131766b3b6193f", "type": "electric_scooter", "lat": 38.8953045, "is_disabled": 0}, {"fusion_lat": 0.0, "lon": -76.99795166666667, "is_reserved": 0, "bike_id": "0f1568c881666ece61220c146a871e2b", "fusion_lon": 0.0, "rental_uris": {"android": "https://dc.lft.to/lastmile_qr_scan", "ios": "https://dc.lft.to/lastmile_qr_scan"}, "name": "0f1568c881666ece61220c146a871e2b", "type": "electric_bike", "lat": 38.956416, "is_disabled": 0}, {"fusion_lat": 0.0, "lon": -77.04731733333334, "is_reserved": 0, "bike_id": "46ddb5444cd89d5a2515cb6822d2dc36", "fusion_lon": 0.0, "rental_uris": {"android": "https://dc.lft.to/lastmile_qr_scan", "ios": "https://dc.lft.to/lastmile_qr_scan"}, "name": "46ddb5444cd89d5a2515cb6822d2dc36", "type": "electric_scooter", "lat": 38.909862833333335, "is_disabled": 0}, {"fusion_lat": 0.0, "lon": -77.05343766666667, "is_reserved": 0, "bike_id": "42c904e86fba78ad38739629d9af4e2b", "fusion_lon": 0.0, "rental_uris": {"android": "https://dc.lft.to/lastmile_qr_scan", "ios": "https://dc.lft.to/lastmile_qr_scan"}, "name": "42c904e86fba78ad38739629d9af4e2b", "type": "electric_scooter", "lat": 38.927277833333335, "is_disabled": 0}, {"fusion_lat": 0.0, "lon": -76.98093433333334, "is_reserved": 0, "bike_id": "a832571f1e9d3d559069ec58b87bf006", "fusion_lon": 0.0, "rental_uris": {"android": "https://dc.lft.to/lastmile_qr_scan", "ios": "https://dc.lft.to/lastmile_qr_scan"}, "name": "a832571f1e9d3d559069ec58b87bf006", "type": "electric_bike", "lat": 38.92111516666667, "is_disabled": 0}, {"fusion_lat": 0.0, "lon": -77.003486, "is_reserved": 0, "bike_id": "40e3d4b9bd464bd9d706efd578028280", "fusion_lon": 0.0, "rental_uris": {"android": "https://dc.lft.to/lastmile_qr_scan", "ios": "https://dc.lft.to/lastmile_qr_scan"}, "name": "40e3d4b9bd464bd9d706efd578028280", "type": "electric_scooter", "lat": 38.88619116666667, "is_disabled": 0}, {"fusion_lat": 0.0, "lon": -77.01945, "is_reserved": 0, "bike_id": "a649600d395679818bc6985e6495e3f5", "fusion_lon": 0.0, "rental_uris": {"android": "https://dc.lft.to/lastmile_qr_scan", "ios": "https://dc.lft.to/lastmile_qr_scan"}, "name": "a649600d395679818bc6985e6495e3f5", "type": "electric_scooter", "lat": 38.9241495, "is_disabled": 0}, {"fusion_lat": 0.0, "lon": -77.02286466666666, "is_reserved": 0, "bike_id": "eb97487ac2d86329bfe7aa8047618bc6", "fusion_lon": 0.0, "rental_uris": {"android": "https://dc.lft.to/lastmile_qr_scan", "ios": "https://dc.lft.to/lastmile_qr_scan"}, "name": "eb97487ac2d86329bfe7aa8047618bc6", "type": "electric_scooter", "lat": 38.87882416666667, "is_disabled": 0}, {"fusion_lat": 0.0, "lon": -77.02998416666667, "is_reserved": 0, "bike_id": "74728a2e1762f640ad54428ad8e8ae7c", "fusion_lon": 0.0, "rental_uris": {"android": "https://dc.lft.to/lastmile_qr_scan", "ios": "https://dc.lft.to/lastmile_qr_scan"}, "name": "74728a2e1762f640ad54428ad8e8ae7c", "type": "electric_scooter", "lat": 38.92678333333333, "is_disabled": 0}, {"fusion_lat": 0.0, "lon": -76.98196083333333, "is_reserved": 0, "bike_id": "9c615205e81849fead7d9a6f4a42b9b8", "fusion_lon": 0.0, "rental_uris": {"android": "https://dc.lft.to/lastmile_qr_scan", "ios": "https://dc.lft.to/lastmile_qr_scan"}, "name": "9c615205e81849fead7d9a6f4a42b9b8", "type": "electric_scooter", "lat": 38.9027935, "is_disabled": 0}, {"fusion_lat": 0.0, "lon": -77.025014, "is_reserved": 0, "bike_id": "825d125988112883fc7e4a837b82de52", "fusion_lon": 0.0, "rental_uris": {"android": "https://dc.lft.to/lastmile_qr_scan", "ios": "https://dc.lft.to/lastmile_qr_scan"}, "name": "825d125988112883fc7e4a837b82de52", "type": "electric_scooter", "lat": 38.942034166666666, "is_disabled": 0}, {"fusion_lat": 0.0, "lon": -77.0385755, "is_reserved": 0, "bike_id": "eeea67403f378399c968bbcb48ed052d", "fusion_lon": 0.0, "rental_uris": {"android": "https://dc.lft.to/lastmile_qr_scan", "ios": "https://dc.lft.to/lastmile_qr_scan"}, "name": "eeea67403f378399c968bbcb48ed052d", "type": "electric_scooter", "lat": 38.90381566666667, "is_disabled": 0}, {"fusion_lat": 0.0, "lon": -77.00191366666667, "is_reserved": 0, "bike_id": "69ded446e9124b4ec3c8493efd44d2c9", "fusion_lon": 0.0, "rental_uris": {"android": "https://dc.lft.to/lastmile_qr_scan", "ios": "https://dc.lft.to/lastmile_qr_scan"}, "name": "69ded446e9124b4ec3c8493efd44d2c9", "type": "electric_scooter", "lat": 38.894468, "is_disabled": 0}, {"fusion_lat": 0.0, "lon": -77.02482883333333, "is_reserved": 0, "bike_id": "9ecf7698150a86658b5e67a091e789c1", "fusion_lon": 0.0, "rental_uris": {"android": "https://dc.lft.to/lastmile_qr_scan", "ios": "https://dc.lft.to/lastmile_qr_scan"}, "name": "9ecf7698150a86658b5e67a091e789c1", "type": "electric_scooter", "lat": 38.9274585, "is_disabled": 0}, {"fusion_lat": 0.0, "lon": -77.04055216666667, "is_reserved": 0, "bike_id": "186efdeca10e3256dd40cf0960c6207b", "fusion_lon": 0.0, "rental_uris": {"android": "https://dc.lft.to/lastmile_qr_scan", "ios": "https://dc.lft.to/lastmile_qr_scan"}, "name": "186efdeca10e3256dd40cf0960c6207b", "type": "electric_scooter", "lat": 38.91870216666667, "is_disabled": 0}, {"fusion_lat": 0.0, "lon": -77.00381566666667, "is_reserved": 0, "bike_id": "6a8f74a120f62631c69f5b32e5fde84b", "fusion_lon": 0.0, "rental_uris": {"android": "https://dc.lft.to/lastmile_qr_scan", "ios": "https://dc.lft.to/lastmile_qr_scan"}, "name": "6a8f74a120f62631c69f5b32e5fde84b", "type": "electric_bike", "lat": 38.836067, "is_disabled": 0}, {"fusion_lat": 0.0, "lon": -77.03866466666666, "is_reserved": 0, "bike_id": "34ce622f88baf66ea93765c820a861d7", "fusion_lon": 0.0, "rental_uris": {"android": "https://dc.lft.to/lastmile_qr_scan", "ios": "https://dc.lft.to/lastmile_qr_scan"}, "name": "34ce622f88baf66ea93765c820a861d7", "type": "electric_scooter", "lat": 38.9066685, "is_disabled": 0}, {"fusion_lat": 0.0, "lon": -77.03273333333334, "is_reserved": 0, "bike_id": "639c8c0801e3cd90ff2c39904b134664", "fusion_lon": 0.0, "rental_uris": {"android": "https://dc.lft.to/lastmile_qr_scan", "ios": "https://dc.lft.to/lastmile_qr_scan"}, "name": "639c8c0801e3cd90ff2c39904b134664", "type": "electric_scooter", "lat": 38.932478833333334, "is_disabled": 0}, {"fusion_lat": 0.0, "lon": -77.03600316666666, "is_reserved": 0, "bike_id": "cd90db82ab68e878abca884a054608cc", "fusion_lon": 0.0, "rental_uris": {"android": "https://dc.lft.to/lastmile_qr_scan", "ios": "https://dc.lft.to/lastmile_qr_scan"}, "name": "cd90db82ab68e878abca884a054608cc", "type": "electric_scooter", "lat": 38.939358166666665, "is_disabled": 0}, {"fusion_lat": 0.0, "lon": -76.97670933333333, "is_reserved": 0, "bike_id": "b103593fd066fc8ff73afd9eb8829d57", "fusion_lon": 0.0, "rental_uris": {"android": "https://dc.lft.to/lastmile_qr_scan", "ios": "https://dc.lft.to/lastmile_qr_scan"}, "name": "b103593fd066fc8ff73afd9eb8829d57", "type": "electric_bike", "lat": 38.952434333333336, "is_disabled": 0}, {"fusion_lat": 0.0, "lon": -77.0303105, "is_reserved": 0, "bike_id": "bfb3b1941c9afcd64d2c0b9041b19b27", "fusion_lon": 0.0, "rental_uris": {"android": "https://dc.lft.to/lastmile_qr_scan", "ios": "https://dc.lft.to/lastmile_qr_scan"}, "name": "bfb3b1941c9afcd64d2c0b9041b19b27", "type": "electric_scooter", "lat": 38.9322365, "is_disabled": 0}, {"fusion_lat": 0.0, "lon": -77.03090583333334, "is_reserved": 0, "bike_id": "aa59a94ef0bc9fbb543a82bff236b863", "fusion_lon": 0.0, "rental_uris": {"android": "https://dc.lft.to/lastmile_qr_scan", "ios": "https://dc.lft.to/lastmile_qr_scan"}, "name": "aa59a94ef0bc9fbb543a82bff236b863", "type": "electric_scooter", "lat": 38.927288, "is_disabled": 0}, {"fusion_lat": 0.0, "lon": -76.988022, "is_reserved": 0, "bike_id": "247c9c9386696e0682feade476a6b6d0", "fusion_lon": 0.0, "rental_uris": {"android": "https://dc.lft.to/lastmile_qr_scan", "ios": "https://dc.lft.to/lastmile_qr_scan"}, "name": "247c9c9386696e0682feade476a6b6d0", "type": "electric_scooter", "lat": 38.86726566666667, "is_disabled": 0}, {"fusion_lat": 0.0, "lon": -77.0258175, "is_reserved": 0, "bike_id": "a0e46e5410f52cae337f572a9bbcb2a9", "fusion_lon": 0.0, "rental_uris": {"android": "https://dc.lft.to/lastmile_qr_scan", "ios": "https://dc.lft.to/lastmile_qr_scan"}, "name": "a0e46e5410f52cae337f572a9bbcb2a9", "type": "electric_scooter", "lat": 38.92053816666667, "is_disabled": 0}, {"fusion_lat": 0.0, "lon": -77.05564716666666, "is_reserved": 0, "bike_id": "fac4e7cfd172fccf7e5fb6895911913c", "fusion_lon": 0.0, "rental_uris": {"android": "https://dc.lft.to/lastmile_qr_scan", "ios": "https://dc.lft.to/lastmile_qr_scan"}, "name": "fac4e7cfd172fccf7e5fb6895911913c", "type": "electric_scooter", "lat": 38.909258666666666, "is_disabled": 0}, {"fusion_lat": 0.0, "lon": -77.07919483333333, "is_reserved": 0, "bike_id": "98960bb7076873c66534aa0671a7e74d", "fusion_lon": 0.0, "rental_uris": {"android": "https://dc.lft.to/lastmile_qr_scan", "ios": "https://dc.lft.to/lastmile_qr_scan"}, "name": "98960bb7076873c66534aa0671a7e74d", "type": "electric_scooter", "lat": 38.931324333333336, "is_disabled": 0}, {"fusion_lat": 0.0, "lon": -76.98304633333333, "is_reserved": 0, "bike_id": "e76c53052617f86143194eaeaeffaf29", "fusion_lon": 0.0, "rental_uris": {"android": "https://dc.lft.to/lastmile_qr_scan", "ios": "https://dc.lft.to/lastmile_qr_scan"}, "name": "e76c53052617f86143194eaeaeffaf29", "type": "electric_scooter", "lat": 38.905239, "is_disabled": 0}, {"fusion_lat": 0.0, "lon": -77.02277066666667, "is_reserved": 0, "bike_id": "0def93483bdaff56fcd4471cac36acc7", "fusion_lon": 0.0, "rental_uris": {"android": "https://dc.lft.to/lastmile_qr_scan", "ios": "https://dc.lft.to/lastmile_qr_scan"}, "name": "0def93483bdaff56fcd4471cac36acc7", "type": "electric_scooter", "lat": 38.918498166666666, "is_disabled": 0}, {"fusion_lat": 0.0, "lon": -77.00049333333334, "is_reserved": 0, "bike_id": "8495d0907e3c8555e787be1407164f49", "fusion_lon": 0.0, "rental_uris": {"android": "https://dc.lft.to/lastmile_qr_scan", "ios": "https://dc.lft.to/lastmile_qr_scan"}, "name": "8495d0907e3c8555e787be1407164f49", "type": "electric_scooter", "lat": 38.900109, "is_disabled": 0}, {"fusion_lat": 0.0, "lon": -77.02713033333333, "is_reserved": 0, "bike_id": "c0f4a5b02174631321a6cbb4398c6eae", "fusion_lon": 0.0, "rental_uris": {"android": "https://dc.lft.to/lastmile_qr_scan", "ios": "https://dc.lft.to/lastmile_qr_scan"}, "name": "c0f4a5b02174631321a6cbb4398c6eae", "type": "electric_scooter", "lat": 38.924637833333335, "is_disabled": 0}, {"fusion_lat": 0.0, "lon": -77.01247816666667, "is_reserved": 0, "bike_id": "2a408e2beebd8325cea44bae8676723d", "fusion_lon": 0.0, "rental_uris": {"android": "https://dc.lft.to/lastmile_qr_scan", "ios": "https://dc.lft.to/lastmile_qr_scan"}, "name": "2a408e2beebd8325cea44bae8676723d", "type": "electric_scooter", "lat": 38.9157445, "is_disabled": 0}, {"fusion_lat": 0.0, "lon": -76.98918516666667, "is_reserved": 0, "bike_id": "c0eb2708f3fa16e5117a2b3d26eae863", "fusion_lon": 0.0, "rental_uris": {"android": "https://dc.lft.to/lastmile_qr_scan", "ios": "https://dc.lft.to/lastmile_qr_scan"}, "name": "c0eb2708f3fa16e5117a2b3d26eae863", "type": "electric_scooter", "lat": 38.864910333333334, "is_disabled": 0}, {"fusion_lat": 0.0, "lon": -77.05916366666666, "is_reserved": 0, "bike_id": "073fcd76f7b765e7dc27acd8103ab18b", "fusion_lon": 0.0, "rental_uris": {"android": "https://dc.lft.to/lastmile_qr_scan", "ios": "https://dc.lft.to/lastmile_qr_scan"}, "name": "073fcd76f7b765e7dc27acd8103ab18b", "type": "electric_scooter", "lat": 38.9009995, "is_disabled": 0}, {"fusion_lat": 0.0, "lon": -77.09844683333333, "is_reserved": 0, "bike_id": "7b974830ecae886bd79d8ece166e0093", "fusion_lon": 0.0, "rental_uris": {"android": "https://dc.lft.to/lastmile_qr_scan", "ios": "https://dc.lft.to/lastmile_qr_scan"}, "name": "7b974830ecae886bd79d8ece166e0093", "type": "electric_bike", "lat": 38.848442, "is_disabled": 0}, {"fusion_lat": 0.0, "lon": -77.03908916666667, "is_reserved": 0, "bike_id": "e91fac97e936ea1ff65053eb6c1edd6a", "fusion_lon": 0.0, "rental_uris": {"android": "https://dc.lft.to/lastmile_qr_scan", "ios": "https://dc.lft.to/lastmile_qr_scan"}, "name": "e91fac97e936ea1ff65053eb6c1edd6a", "type": "electric_scooter", "lat": 38.932455833333336, "is_disabled": 0}, {"fusion_lat": 0.0, "lon": -76.94597766666666, "is_reserved": 0, "bike_id": "1343f88f648b020dc6678f64f8ef6fd9", "fusion_lon": 0.0, "rental_uris": {"android": "https://dc.lft.to/lastmile_qr_scan", "ios": "https://dc.lft.to/lastmile_qr_scan"}, "name": "1343f88f648b020dc6678f64f8ef6fd9", "type": "electric_scooter", "lat": 38.901483999999996, "is_disabled": 0}, {"fusion_lat": 0.0, "lon": -76.97396966666666, "is_reserved": 0, "bike_id": "09b08f85b503a7da5ed8465ce8510f2e", "fusion_lon": 0.0, "rental_uris": {"android": "https://dc.lft.to/lastmile_qr_scan", "ios": "https://dc.lft.to/lastmile_qr_scan"}, "name": "09b08f85b503a7da5ed8465ce8510f2e", "type": "electric_scooter", "lat": 38.902972, "is_disabled": 0}, {"fusion_lat": 0.0, "lon": -77.02172316666666, "is_reserved": 0, "bike_id": "999b14f0881f89e28520243add255492", "fusion_lon": 0.0, "rental_uris": {"android": "https://dc.lft.to/lastmile_qr_scan", "ios": "https://dc.lft.to/lastmile_qr_scan"}, "name": "999b14f0881f89e28520243add255492", "type": "electric_scooter", "lat": 38.89743283333333, "is_disabled": 0}, {"fusion_lat": 0.0, "lon": -77.00056033333334, "is_reserved": 0, "bike_id": "20f849b40308077aa2c0a63078d10e8f", "fusion_lon": 0.0, "rental_uris": {"android": "https://dc.lft.to/lastmile_qr_scan", "ios": "https://dc.lft.to/lastmile_qr_scan"}, "name": "20f849b40308077aa2c0a63078d10e8f", "type": "electric_scooter", "lat": 38.90736916666667, "is_disabled": 0}, {"fusion_lat": 0.0, "lon": -77.032791, "is_reserved": 0, "bike_id": "b23659d397b645b68879ac87156e7575", "fusion_lon": 0.0, "rental_uris": {"android": "https://dc.lft.to/lastmile_qr_scan", "ios": "https://dc.lft.to/lastmile_qr_scan"}, "name": "b23659d397b645b68879ac87156e7575", "type": "electric_scooter", "lat": 38.929385833333335, "is_disabled": 0}, {"fusion_lat": 0.0, "lon": -77.0181875, "is_reserved": 0, "bike_id": "1f4ae2fe2d609c7e49c4fd9940c80f87", "fusion_lon": 0.0, "rental_uris": {"android": "https://dc.lft.to/lastmile_qr_scan", "ios": "https://dc.lft.to/lastmile_qr_scan"}, "name": "1f4ae2fe2d609c7e49c4fd9940c80f87", "type": "electric_scooter", "lat": 38.93041683333333, "is_disabled": 0}, {"fusion_lat": 0.0, "lon": -77.03691033333334, "is_reserved": 0, "bike_id": "2df13c71bc8a0cfc277a3345fa9c5822", "fusion_lon": 0.0, "rental_uris": {"android": "https://dc.lft.to/lastmile_qr_scan", "ios": "https://dc.lft.to/lastmile_qr_scan"}, "name": "2df13c71bc8a0cfc277a3345fa9c5822", "type": "electric_scooter", "lat": 38.91675033333333, "is_disabled": 0}, {"fusion_lat": 0.0, "lon": -77.04351566666666, "is_reserved": 0, "bike_id": "ee5c2556b70674b261da86d0a0b1d985", "fusion_lon": 0.0, "rental_uris": {"android": "https://dc.lft.to/lastmile_qr_scan", "ios": "https://dc.lft.to/lastmile_qr_scan"}, "name": "ee5c2556b70674b261da86d0a0b1d985", "type": "electric_scooter", "lat": 38.90878566666667, "is_disabled": 0}, {"fusion_lat": 0.0, "lon": -76.999347, "is_reserved": 0, "bike_id": "d8e92420140b1ad5f774947558bc2f6d", "fusion_lon": 0.0, "rental_uris": {"android": "https://dc.lft.to/lastmile_qr_scan", "ios": "https://dc.lft.to/lastmile_qr_scan"}, "name": "d8e92420140b1ad5f774947558bc2f6d", "type": "electric_scooter", "lat": 38.906706666666665, "is_disabled": 0}, {"fusion_lat": 0.0, "lon": -77.03907133333334, "is_reserved": 0, "bike_id": "be6b6e4d1442fbaff6482209bbd55f0a", "fusion_lon": 0.0, "rental_uris": {"android": "https://dc.lft.to/lastmile_qr_scan", "ios": "https://dc.lft.to/lastmile_qr_scan"}, "name": "be6b6e4d1442fbaff6482209bbd55f0a", "type": "electric_scooter", "lat": 38.9186295, "is_disabled": 0}, {"fusion_lat": 0.0, "lon": -77.03824016666667, "is_reserved": 0, "bike_id": "73ed76c154eb369bbf4de39ea6669e3f", "fusion_lon": 0.0, "rental_uris": {"android": "https://dc.lft.to/lastmile_qr_scan", "ios": "https://dc.lft.to/lastmile_qr_scan"}, "name": "73ed76c154eb369bbf4de39ea6669e3f", "type": "electric_scooter", "lat": 38.90802133333333, "is_disabled": 0}, {"fusion_lat": 0.0, "lon": -77.074177, "is_reserved": 0, "bike_id": "be755feea38f472537935c3d06da4cf5", "fusion_lon": 0.0, "rental_uris": {"android": "https://dc.lft.to/lastmile_qr_scan", "ios": "https://dc.lft.to/lastmile_qr_scan"}, "name": "be755feea38f472537935c3d06da4cf5", "type": "electric_scooter", "lat": 38.92888933333333, "is_disabled": 0}, {"fusion_lat": 0.0, "lon": -77.06598183333334, "is_reserved": 0, "bike_id": "71263c971d647d1f680e02c81bffb84b", "fusion_lon": 0.0, "rental_uris": {"android": "https://dc.lft.to/lastmile_qr_scan", "ios": "https://dc.lft.to/lastmile_qr_scan"}, "name": "71263c971d647d1f680e02c81bffb84b", "type": "electric_scooter", "lat": 38.904109166666665, "is_disabled": 0}, {"fusion_lat": 0.0, "lon": -76.93477666666666, "is_reserved": 0, "bike_id": "523279340233b82ab62635cf1bd7128b", "fusion_lon": 0.0, "rental_uris": {"android": "https://dc.lft.to/lastmile_qr_scan", "ios": "https://dc.lft.to/lastmile_qr_scan"}, "name": "523279340233b82ab62635cf1bd7128b", "type": "electric_scooter", "lat": 38.90552016666667, "is_disabled": 0}, {"fusion_lat": 0.0, "lon": -76.98602666666666, "is_reserved": 0, "bike_id": "6505765a95498ba3d9c6751c3ccc0365", "fusion_lon": 0.0, "rental_uris": {"android": "https://dc.lft.to/lastmile_qr_scan", "ios": "https://dc.lft.to/lastmile_qr_scan"}, "name": "6505765a95498ba3d9c6751c3ccc0365", "type": "electric_scooter", "lat": 38.9001135, "is_disabled": 0}, {"fusion_lat": 0.0, "lon": -76.98994166666667, "is_reserved": 0, "bike_id": "a6e291171e5d057be5abcc7513af28cc", "fusion_lon": 0.0, "rental_uris": {"android": "https://dc.lft.to/lastmile_qr_scan", "ios": "https://dc.lft.to/lastmile_qr_scan"}, "name": "a6e291171e5d057be5abcc7513af28cc", "type": "electric_scooter", "lat": 38.86433616666667, "is_disabled": 0}, {"fusion_lat": 0.0, "lon": -77.063306, "is_reserved": 0, "bike_id": "f23f3a59535c1be765f21cf9d888cb53", "fusion_lon": 0.0, "rental_uris": {"android": "https://dc.lft.to/lastmile_qr_scan", "ios": "https://dc.lft.to/lastmile_qr_scan"}, "name": "f23f3a59535c1be765f21cf9d888cb53", "type": "electric_scooter", "lat": 38.9073935, "is_disabled": 0}, {"fusion_lat": 0.0, "lon": -77.0329655, "is_reserved": 0, "bike_id": "22c902133153cd514cae2cbae57468ea", "fusion_lon": 0.0, "rental_uris": {"android": "https://dc.lft.to/lastmile_qr_scan", "ios": "https://dc.lft.to/lastmile_qr_scan"}, "name": "22c902133153cd514cae2cbae57468ea", "type": "electric_scooter", "lat": 38.935108666666665, "is_disabled": 0}, {"fusion_lat": 0.0, "lon": -77.04021, "is_reserved": 0, "bike_id": "db7eb8895275b7a83c9c59b787d93ff3", "fusion_lon": 0.0, "rental_uris": {"android": "https://dc.lft.to/lastmile_qr_scan", "ios": "https://dc.lft.to/lastmile_qr_scan"}, "name": "db7eb8895275b7a83c9c59b787d93ff3", "type": "electric_scooter", "lat": 38.92238783333333, "is_disabled": 0}, {"fusion_lat": 0.0, "lon": -76.99335933333333, "is_reserved": 0, "bike_id": "46391e93c89013726ea38f2a6204e3ff", "fusion_lon": 0.0, "rental_uris": {"android": "https://dc.lft.to/lastmile_qr_scan", "ios": "https://dc.lft.to/lastmile_qr_scan"}, "name": "46391e93c89013726ea38f2a6204e3ff", "type": "electric_bike", "lat": 38.8936165, "is_disabled": 0}, {"fusion_lat": 0.0, "lon": -77.00058166666666, "is_reserved": 0, "bike_id": "6bb10f08d73953458144bc056deb003e", "fusion_lon": 0.0, "rental_uris": {"android": "https://dc.lft.to/lastmile_qr_scan", "ios": "https://dc.lft.to/lastmile_qr_scan"}, "name": "6bb10f08d73953458144bc056deb003e", "type": "electric_scooter", "lat": 38.89837266666667, "is_disabled": 0}, {"fusion_lat": 0.0, "lon": -77.074331, "is_reserved": 0, "bike_id": "113bc81605cd175b041c60231ecd933c", "fusion_lon": 0.0, "rental_uris": {"android": "https://dc.lft.to/lastmile_qr_scan", "ios": "https://dc.lft.to/lastmile_qr_scan"}, "name": "113bc81605cd175b041c60231ecd933c", "type": "electric_bike", "lat": 38.999455166666664, "is_disabled": 0}, {"fusion_lat": 0.0, "lon": -77.02273566666666, "is_reserved": 0, "bike_id": "ce8c491270db45cd5213a732a839f72c", "fusion_lon": 0.0, "rental_uris": {"android": "https://dc.lft.to/lastmile_qr_scan", "ios": "https://dc.lft.to/lastmile_qr_scan"}, "name": "ce8c491270db45cd5213a732a839f72c", "type": "electric_scooter", "lat": 38.89833933333333, "is_disabled": 0}, {"fusion_lat": 0.0, "lon": -77.03878133333333, "is_reserved": 0, "bike_id": "922c82b1bb56b496d25e0d95c4cc7c08", "fusion_lon": 0.0, "rental_uris": {"android": "https://dc.lft.to/lastmile_qr_scan", "ios": "https://dc.lft.to/lastmile_qr_scan"}, "name": "922c82b1bb56b496d25e0d95c4cc7c08", "type": "electric_scooter", "lat": 38.93120716666667, "is_disabled": 0}, {"fusion_lat": 0.0, "lon": -76.98720016666667, "is_reserved": 0, "bike_id": "e4e01d588dec0ec1c0129e2ac35b3d46", "fusion_lon": 0.0, "rental_uris": {"android": "https://dc.lft.to/lastmile_qr_scan", "ios": "https://dc.lft.to/lastmile_qr_scan"}, "name": "e4e01d588dec0ec1c0129e2ac35b3d46", "type": "electric_scooter", "lat": 38.86627416666666, "is_disabled": 0}, {"fusion_lat": 0.0, "lon": -77.03373266666667, "is_reserved": 0, "bike_id": "abdc9e918fe3317de135fbbd1c375f61", "fusion_lon": 0.0, "rental_uris": {"android": "https://dc.lft.to/lastmile_qr_scan", "ios": "https://dc.lft.to/lastmile_qr_scan"}, "name": "abdc9e918fe3317de135fbbd1c375f61", "type": "electric_scooter", "lat": 38.90835366666667, "is_disabled": 0}, {"fusion_lat": 0.0, "lon": -77.03868216666666, "is_reserved": 0, "bike_id": "4f25c3e4c93838128fdd148e49c272bd", "fusion_lon": 0.0, "rental_uris": {"android": "https://dc.lft.to/lastmile_qr_scan", "ios": "https://dc.lft.to/lastmile_qr_scan"}, "name": "4f25c3e4c93838128fdd148e49c272bd", "type": "electric_scooter", "lat": 38.906495166666666, "is_disabled": 0}, {"fusion_lat": 0.0, "lon": -77.02793933333334, "is_reserved": 0, "bike_id": "f250601dd1a37fd60130b68628fa0aba", "fusion_lon": 0.0, "rental_uris": {"android": "https://dc.lft.to/lastmile_qr_scan", "ios": "https://dc.lft.to/lastmile_qr_scan"}, "name": "f250601dd1a37fd60130b68628fa0aba", "type": "electric_scooter", "lat": 38.930808166666665, "is_disabled": 0}, {"fusion_lat": 0.0, "lon": -77.01086866666667, "is_reserved": 0, "bike_id": "2b53610596023e3b79f8b7272b5e86be", "fusion_lon": 0.0, "rental_uris": {"android": "https://dc.lft.to/lastmile_qr_scan", "ios": "https://dc.lft.to/lastmile_qr_scan"}, "name": "2b53610596023e3b79f8b7272b5e86be", "type": "electric_scooter", "lat": 38.90782166666666, "is_disabled": 0}, {"fusion_lat": 0.0, "lon": -77.02430033333333, "is_reserved": 0, "bike_id": "e865c95d36bda3bcc1d90f98ed4b1d18", "fusion_lon": 0.0, "rental_uris": {"android": "https://dc.lft.to/lastmile_qr_scan", "ios": "https://dc.lft.to/lastmile_qr_scan"}, "name": "e865c95d36bda3bcc1d90f98ed4b1d18", "type": "electric_scooter", "lat": 38.927207333333335, "is_disabled": 0}, {"fusion_lat": 0.0, "lon": -77.021492, "is_reserved": 0, "bike_id": "fdc9180cbda5348f3892b0a91a6047bc", "fusion_lon": 0.0, "rental_uris": {"android": "https://dc.lft.to/lastmile_qr_scan", "ios": "https://dc.lft.to/lastmile_qr_scan"}, "name": "fdc9180cbda5348f3892b0a91a6047bc", "type": "electric_scooter", "lat": 38.87913483333333, "is_disabled": 0}, {"fusion_lat": 0.0, "lon": -77.02701533333334, "is_reserved": 0, "bike_id": "63c538c5ce7b08c6e94342ca8c4ff90b", "fusion_lon": 0.0, "rental_uris": {"android": "https://dc.lft.to/lastmile_qr_scan", "ios": "https://dc.lft.to/lastmile_qr_scan"}, "name": "63c538c5ce7b08c6e94342ca8c4ff90b", "type": "electric_scooter", "lat": 38.9233455, "is_disabled": 0}, {"fusion_lat": 0.0, "lon": -77.01132433333333, "is_reserved": 0, "bike_id": "99964203311f5f4de9dc7e4acf5f29b9", "fusion_lon": 0.0, "rental_uris": {"android": "https://dc.lft.to/lastmile_qr_scan", "ios": "https://dc.lft.to/lastmile_qr_scan"}, "name": "99964203311f5f4de9dc7e4acf5f29b9", "type": "electric_scooter", "lat": 38.88036266666667, "is_disabled": 0}, {"fusion_lat": 0.0, "lon": -77.0398825, "is_reserved": 0, "bike_id": "039bb27aa431ec562a565f8499012447", "fusion_lon": 0.0, "rental_uris": {"android": "https://dc.lft.to/lastmile_qr_scan", "ios": "https://dc.lft.to/lastmile_qr_scan"}, "name": "039bb27aa431ec562a565f8499012447", "type": "electric_scooter", "lat": 38.917640666666664, "is_disabled": 0}, {"fusion_lat": 0.0, "lon": -77.01817383333334, "is_reserved": 0, "bike_id": "669fedf397765c6390e42d761c6b074a", "fusion_lon": 0.0, "rental_uris": {"android": "https://dc.lft.to/lastmile_qr_scan", "ios": "https://dc.lft.to/lastmile_qr_scan"}, "name": "669fedf397765c6390e42d761c6b074a", "type": "electric_scooter", "lat": 38.9096985, "is_disabled": 0}, {"fusion_lat": 0.0, "lon": -77.026941, "is_reserved": 0, "bike_id": "fd2c6b1602c3652d877fbc5d538d56c1", "fusion_lon": 0.0, "rental_uris": {"android": "https://dc.lft.to/lastmile_qr_scan", "ios": "https://dc.lft.to/lastmile_qr_scan"}, "name": "fd2c6b1602c3652d877fbc5d538d56c1", "type": "electric_scooter", "lat": 38.91250766666667, "is_disabled": 0}, {"fusion_lat": 0.0, "lon": -77.0334855, "is_reserved": 0, "bike_id": "630fd42f2a9a4e2ece9d3244ec3c2e92", "fusion_lon": 0.0, "rental_uris": {"android": "https://dc.lft.to/lastmile_qr_scan", "ios": "https://dc.lft.to/lastmile_qr_scan"}, "name": "630fd42f2a9a4e2ece9d3244ec3c2e92", "type": "electric_scooter", "lat": 38.89897166666667, "is_disabled": 0}, {"fusion_lat": 0.0, "lon": -77.048062, "is_reserved": 0, "bike_id": "e8089676c01a01c6737790a6add3972c", "fusion_lon": 0.0, "rental_uris": {"android": "https://dc.lft.to/lastmile_qr_scan", "ios": "https://dc.lft.to/lastmile_qr_scan"}, "name": "e8089676c01a01c6737790a6add3972c", "type": "electric_scooter", "lat": 38.91914516666667, "is_disabled": 0}, {"fusion_lat": 0.0, "lon": -76.980345, "is_reserved": 0, "bike_id": "93bcd8d2ce0eae4a9f465a678747868e", "fusion_lon": 0.0, "rental_uris": {"android": "https://dc.lft.to/lastmile_qr_scan", "ios": "https://dc.lft.to/lastmile_qr_scan"}, "name": "93bcd8d2ce0eae4a9f465a678747868e", "type": "electric_bike", "lat": 38.8896625, "is_disabled": 0}, {"fusion_lat": 0.0, "lon": -77.00689983333334, "is_reserved": 0, "bike_id": "15a67d7dbbb34b0717bf5469fced211a", "fusion_lon": 0.0, "rental_uris": {"android": "https://dc.lft.to/lastmile_qr_scan", "ios": "https://dc.lft.to/lastmile_qr_scan"}, "name": "15a67d7dbbb34b0717bf5469fced211a", "type": "electric_scooter", "lat": 38.905243166666665, "is_disabled": 0}, {"fusion_lat": 0.0, "lon": -77.00986783333333, "is_reserved": 0, "bike_id": "c46fd20b6ed8abd6b02cf281000aeffe", "fusion_lon": 0.0, "rental_uris": {"android": "https://dc.lft.to/lastmile_qr_scan", "ios": "https://dc.lft.to/lastmile_qr_scan"}, "name": "c46fd20b6ed8abd6b02cf281000aeffe", "type": "electric_scooter", "lat": 38.8729105, "is_disabled": 0}, {"fusion_lat": 0.0, "lon": -76.93616516666667, "is_reserved": 0, "bike_id": "d0aadc6cb8db587bd1bc119da945caf7", "fusion_lon": 0.0, "rental_uris": {"android": "https://dc.lft.to/lastmile_qr_scan", "ios": "https://dc.lft.to/lastmile_qr_scan"}, "name": "d0aadc6cb8db587bd1bc119da945caf7", "type": "electric_bike", "lat": 38.970531666666666, "is_disabled": 0}, {"fusion_lat": 0.0, "lon": -76.99422433333334, "is_reserved": 0, "bike_id": "9c79553b824fae1802767168c8fa3366", "fusion_lon": 0.0, "rental_uris": {"android": "https://dc.lft.to/lastmile_qr_scan", "ios": "https://dc.lft.to/lastmile_qr_scan"}, "name": "9c79553b824fae1802767168c8fa3366", "type": "electric_scooter", "lat": 38.950523833333335, "is_disabled": 0}, {"fusion_lat": 0.0, "lon": -76.99763416666667, "is_reserved": 0, "bike_id": "ff22d1bcc709faedcade5a6854291005", "fusion_lon": 0.0, "rental_uris": {"android": "https://dc.lft.to/lastmile_qr_scan", "ios": "https://dc.lft.to/lastmile_qr_scan"}, "name": "ff22d1bcc709faedcade5a6854291005", "type": "electric_scooter", "lat": 38.91111, "is_disabled": 0}, {"fusion_lat": 0.0, "lon": -77.04520683333334, "is_reserved": 0, "bike_id": "6cf0ab53a0cef8e50bd176fc3c030466", "fusion_lon": 0.0, "rental_uris": {"android": "https://dc.lft.to/lastmile_qr_scan", "ios": "https://dc.lft.to/lastmile_qr_scan"}, "name": "6cf0ab53a0cef8e50bd176fc3c030466", "type": "electric_scooter", "lat": 38.907826666666665, "is_disabled": 0}, {"fusion_lat": 0.0, "lon": -77.0239305, "is_reserved": 0, "bike_id": "96e03e5c5953c694f2c0366829118783", "fusion_lon": 0.0, "rental_uris": {"android": "https://dc.lft.to/lastmile_qr_scan", "ios": "https://dc.lft.to/lastmile_qr_scan"}, "name": "96e03e5c5953c694f2c0366829118783", "type": "electric_scooter", "lat": 38.916056833333336, "is_disabled": 0}, {"fusion_lat": 0.0, "lon": -77.00372716666666, "is_reserved": 0, "bike_id": "51698fc0226459573e58fce86daf9033", "fusion_lon": 0.0, "rental_uris": {"android": "https://dc.lft.to/lastmile_qr_scan", "ios": "https://dc.lft.to/lastmile_qr_scan"}, "name": "51698fc0226459573e58fce86daf9033", "type": "electric_scooter", "lat": 38.8972875, "is_disabled": 0}, {"fusion_lat": 0.0, "lon": -77.0172485, "is_reserved": 0, "bike_id": "7aa05f5455ab5e97ef56b4c0a3d319db", "fusion_lon": 0.0, "rental_uris": {"android": "https://dc.lft.to/lastmile_qr_scan", "ios": "https://dc.lft.to/lastmile_qr_scan"}, "name": "7aa05f5455ab5e97ef56b4c0a3d319db", "type": "electric_bike", "lat": 38.94611183333333, "is_disabled": 0}, {"fusion_lat": 0.0, "lon": -77.05587433333334, "is_reserved": 0, "bike_id": "c6bd7bdd1203df568c572972d1e290e7", "fusion_lon": 0.0, "rental_uris": {"android": "https://dc.lft.to/lastmile_qr_scan", "ios": "https://dc.lft.to/lastmile_qr_scan"}, "name": "c6bd7bdd1203df568c572972d1e290e7", "type": "electric_scooter", "lat": 38.93614083333333, "is_disabled": 0}, {"fusion_lat": 0.0, "lon": -76.9927695, "is_reserved": 0, "bike_id": "b690ec9ab2e04f8d810cf7ca8ef66644", "fusion_lon": 0.0, "rental_uris": {"android": "https://dc.lft.to/lastmile_qr_scan", "ios": "https://dc.lft.to/lastmile_qr_scan"}, "name": "b690ec9ab2e04f8d810cf7ca8ef66644", "type": "electric_scooter", "lat": 38.88620083333333, "is_disabled": 0}, {"fusion_lat": 0.0, "lon": -77.012375, "is_reserved": 0, "bike_id": "4f9b4d471f01398711dbe58e73416a26", "fusion_lon": 0.0, "rental_uris": {"android": "https://dc.lft.to/lastmile_qr_scan", "ios": "https://dc.lft.to/lastmile_qr_scan"}, "name": "4f9b4d471f01398711dbe58e73416a26", "type": "electric_scooter", "lat": 38.830463333333334, "is_disabled": 0}, {"fusion_lat": 0.0, "lon": -77.0395655, "is_reserved": 0, "bike_id": "1d086d1822e418e0e55a5ac3e1fcd212", "fusion_lon": 0.0, "rental_uris": {"android": "https://dc.lft.to/lastmile_qr_scan", "ios": "https://dc.lft.to/lastmile_qr_scan"}, "name": "1d086d1822e418e0e55a5ac3e1fcd212", "type": "electric_scooter", "lat": 38.8924285, "is_disabled": 0}, {"fusion_lat": 0.0, "lon": -77.017723, "is_reserved": 0, "bike_id": "dec6e7609b701731205098206543cb05", "fusion_lon": 0.0, "rental_uris": {"android": "https://dc.lft.to/lastmile_qr_scan", "ios": "https://dc.lft.to/lastmile_qr_scan"}, "name": "dec6e7609b701731205098206543cb05", "type": "electric_scooter", "lat": 38.9174325, "is_disabled": 0}, {"fusion_lat": 0.0, "lon": -77.0420155, "is_reserved": 0, "bike_id": "85758453a0d9e05b72f0393e76e0cc42", "fusion_lon": 0.0, "rental_uris": {"android": "https://dc.lft.to/lastmile_qr_scan", "ios": "https://dc.lft.to/lastmile_qr_scan"}, "name": "85758453a0d9e05b72f0393e76e0cc42", "type": "electric_scooter", "lat": 38.90396533333333, "is_disabled": 0}, {"fusion_lat": 0.0, "lon": -77.022091, "is_reserved": 0, "bike_id": "2eb1cebc3e3bf7ae8586a1b98f3bb52b", "fusion_lon": 0.0, "rental_uris": {"android": "https://dc.lft.to/lastmile_qr_scan", "ios": "https://dc.lft.to/lastmile_qr_scan"}, "name": "2eb1cebc3e3bf7ae8586a1b98f3bb52b", "type": "electric_scooter", "lat": 38.901830333333336, "is_disabled": 0}, {"fusion_lat": 0.0, "lon": -77.04489083333333, "is_reserved": 0, "bike_id": "34366bd0743b2b29fc78d098ec3be5b8", "fusion_lon": 0.0, "rental_uris": {"android": "https://dc.lft.to/lastmile_qr_scan", "ios": "https://dc.lft.to/lastmile_qr_scan"}, "name": "34366bd0743b2b29fc78d098ec3be5b8", "type": "electric_scooter", "lat": 38.924023, "is_disabled": 0}, {"fusion_lat": 0.0, "lon": -77.03444116666667, "is_reserved": 0, "bike_id": "a4d2bfda0941aece337da13e90b95d44", "fusion_lon": 0.0, "rental_uris": {"android": "https://dc.lft.to/lastmile_qr_scan", "ios": "https://dc.lft.to/lastmile_qr_scan"}, "name": "a4d2bfda0941aece337da13e90b95d44", "type": "electric_scooter", "lat": 38.930908, "is_disabled": 0}, {"fusion_lat": 0.0, "lon": -77.03470566666667, "is_reserved": 0, "bike_id": "3f2cc76e0eab3349382cbc4c7be68531", "fusion_lon": 0.0, "rental_uris": {"android": "https://dc.lft.to/lastmile_qr_scan", "ios": "https://dc.lft.to/lastmile_qr_scan"}, "name": "3f2cc76e0eab3349382cbc4c7be68531", "type": "electric_scooter", "lat": 38.93552066666667, "is_disabled": 0}, {"fusion_lat": 0.0, "lon": -76.99846583333333, "is_reserved": 0, "bike_id": "a08143f710c75bd1496fc1d47c63ce19", "fusion_lon": 0.0, "rental_uris": {"android": "https://dc.lft.to/lastmile_qr_scan", "ios": "https://dc.lft.to/lastmile_qr_scan"}, "name": "a08143f710c75bd1496fc1d47c63ce19", "type": "electric_scooter", "lat": 38.89082966666667, "is_disabled": 0}, {"fusion_lat": 0.0, "lon": -76.98356483333333, "is_reserved": 0, "bike_id": "1b4c8af199d3a8ab0622222642bf7402", "fusion_lon": 0.0, "rental_uris": {"android": "https://dc.lft.to/lastmile_qr_scan", "ios": "https://dc.lft.to/lastmile_qr_scan"}, "name": "1b4c8af199d3a8ab0622222642bf7402", "type": "electric_scooter", "lat": 38.88743683333333, "is_disabled": 0}, {"fusion_lat": 0.0, "lon": -77.04662516666667, "is_reserved": 0, "bike_id": "f2bcf12353b54b797e951c1f71c4017d", "fusion_lon": 0.0, "rental_uris": {"android": "https://dc.lft.to/lastmile_qr_scan", "ios": "https://dc.lft.to/lastmile_qr_scan"}, "name": "f2bcf12353b54b797e951c1f71c4017d", "type": "electric_scooter", "lat": 38.913630833333336, "is_disabled": 0}, {"fusion_lat": 0.0, "lon": -76.97530466666667, "is_reserved": 0, "bike_id": "0e36972a0d9b0fbe2509a319e65336bf", "fusion_lon": 0.0, "rental_uris": {"android": "https://dc.lft.to/lastmile_qr_scan", "ios": "https://dc.lft.to/lastmile_qr_scan"}, "name": "0e36972a0d9b0fbe2509a319e65336bf", "type": "electric_bike", "lat": 38.9033045, "is_disabled": 0}, {"fusion_lat": 0.0, "lon": -77.03442233333334, "is_reserved": 0, "bike_id": "c643f03723172905a416fd11d8326b97", "fusion_lon": 0.0, "rental_uris": {"android": "https://dc.lft.to/lastmile_qr_scan", "ios": "https://dc.lft.to/lastmile_qr_scan"}, "name": "c643f03723172905a416fd11d8326b97", "type": "electric_scooter", "lat": 38.910131, "is_disabled": 0}, {"fusion_lat": 0.0, "lon": -77.04343366666667, "is_reserved": 0, "bike_id": "010ea44c4a2b8beee94623cc20065958", "fusion_lon": 0.0, "rental_uris": {"android": "https://dc.lft.to/lastmile_qr_scan", "ios": "https://dc.lft.to/lastmile_qr_scan"}, "name": "010ea44c4a2b8beee94623cc20065958", "type": "electric_scooter", "lat": 38.908763666666665, "is_disabled": 0}, {"fusion_lat": 0.0, "lon": -76.957532, "is_reserved": 0, "bike_id": "93fbd9738b0be9a17a1cbce53e84b121", "fusion_lon": 0.0, "rental_uris": {"android": "https://dc.lft.to/lastmile_qr_scan", "ios": "https://dc.lft.to/lastmile_qr_scan"}, "name": "93fbd9738b0be9a17a1cbce53e84b121", "type": "electric_scooter", "lat": 38.884303333333335, "is_disabled": 0}, {"fusion_lat": 0.0, "lon": -76.98271116666666, "is_reserved": 0, "bike_id": "657102277c5bc4c3afc27257ea4b004a", "fusion_lon": 0.0, "rental_uris": {"android": "https://dc.lft.to/lastmile_qr_scan", "ios": "https://dc.lft.to/lastmile_qr_scan"}, "name": "657102277c5bc4c3afc27257ea4b004a", "type": "electric_scooter", "lat": 38.885267166666665, "is_disabled": 0}, {"fusion_lat": 0.0, "lon": -77.03750183333334, "is_reserved": 0, "bike_id": "94cb050c11676e0050db9718152abafc", "fusion_lon": 0.0, "rental_uris": {"android": "https://dc.lft.to/lastmile_qr_scan", "ios": "https://dc.lft.to/lastmile_qr_scan"}, "name": "94cb050c11676e0050db9718152abafc", "type": "electric_scooter", "lat": 38.922068833333334, "is_disabled": 0}, {"fusion_lat": 0.0, "lon": -77.02455683333334, "is_reserved": 0, "bike_id": "0430fa16ad8de4fb305fc48875c9117f", "fusion_lon": 0.0, "rental_uris": {"android": "https://dc.lft.to/lastmile_qr_scan", "ios": "https://dc.lft.to/lastmile_qr_scan"}, "name": "0430fa16ad8de4fb305fc48875c9117f", "type": "electric_scooter", "lat": 38.924047, "is_disabled": 0}, {"fusion_lat": 0.0, "lon": -76.9978115, "is_reserved": 0, "bike_id": "74131fe1c48fc6f36952608734428a82", "fusion_lon": 0.0, "rental_uris": {"android": "https://dc.lft.to/lastmile_qr_scan", "ios": "https://dc.lft.to/lastmile_qr_scan"}, "name": "74131fe1c48fc6f36952608734428a82", "type": "electric_scooter", "lat": 38.8442925, "is_disabled": 0}, {"fusion_lat": 0.0, "lon": -76.981095, "is_reserved": 0, "bike_id": "4dfac4397e1e8fd79b238e170686192f", "fusion_lon": 0.0, "rental_uris": {"android": "https://dc.lft.to/lastmile_qr_scan", "ios": "https://dc.lft.to/lastmile_qr_scan"}, "name": "4dfac4397e1e8fd79b238e170686192f", "type": "electric_scooter", "lat": 38.90392516666667, "is_disabled": 0}, {"fusion_lat": 0.0, "lon": -77.02695433333334, "is_reserved": 0, "bike_id": "02fef6f0b2c1d22393f97c31b937c3eb", "fusion_lon": 0.0, "rental_uris": {"android": "https://dc.lft.to/lastmile_qr_scan", "ios": "https://dc.lft.to/lastmile_qr_scan"}, "name": "02fef6f0b2c1d22393f97c31b937c3eb", "type": "electric_scooter", "lat": 38.895779833333336, "is_disabled": 0}, {"fusion_lat": 0.0, "lon": -77.04147833333333, "is_reserved": 0, "bike_id": "8913bb478873632f433d9d73c298ef9b", "fusion_lon": 0.0, "rental_uris": {"android": "https://dc.lft.to/lastmile_qr_scan", "ios": "https://dc.lft.to/lastmile_qr_scan"}, "name": "8913bb478873632f433d9d73c298ef9b", "type": "electric_scooter", "lat": 38.892197333333336, "is_disabled": 0},