{"data": {"bikes": [{"name": "262adbda42f599560e29fc28ba95cbb0", "fusion_lat": 0.0, "type": "electric_scooter", "lat": 38.876285333333335, "is_reserved": 0, "is_disabled": 0, "fusion_lon": 0.0, "bike_id": "262adbda42f599560e29fc28ba95cbb0", "lon": -77.0147175, "rental_uris": {"ios": "https://dc.lft.to/lastmile_qr_scan", "android": "https://dc.lft.to/lastmile_qr_scan"}}, {"name": "ba4a3a7b8bb347099900a000e83af559", "fusion_lat": 0.0, "type": "electric_scooter", "lat": 38.920627333333336, "is_reserved": 0, "is_disabled": 0, "fusion_lon": 0.0, "bike_id": "ba4a3a7b8bb347099900a000e83af559", "lon": -77.03471883333333, "rental_uris": {"ios": "https://dc.lft.to/lastmile_qr_scan", "android": "https://dc.lft.to/lastmile_qr_scan"}}, {"name": "a2dbeca196e595dbfc19a3a542d5e031", "fusion_lat": 0.0, "type": "electric_scooter", "lat": 38.93631466666667, "is_reserved": 0, "is_disabled": 0, "fusion_lon": 0.0, "bike_id": "a2dbeca196e595dbfc19a3a542d5e031", "lon": -77.03659933333333, "rental_uris": {"ios": "https://dc.lft.to/lastmile_qr_scan", "android": "https://dc.lft.to/lastmile_qr_scan"}}, {"name": "ae897ba365d24e0b3674ef93ec3b8d1a", "fusion_lat": 0.0, "type": "electric_scooter", "lat": 38.905620166666665, "is_reserved": 0, "is_disabled": 0, "fusion_lon": 0.0, "bike_id": "ae897ba365d24e0b3674ef93ec3b8d1a", "lon": -77.03720933333334, "rental_uris": {"ios": "https://dc.lft.to/lastmile_qr_scan", "android": "https://dc.lft.to/lastmile_qr_scan"}}, {"name": "a0f33d179bff68fec72d2aedaee92c24", "fusion_lat": 0.0, "type": "electric_scooter", "lat": 38.900281166666666, "is_reserved": 0, "is_disabled": 0, "fusion_lon": 0.0, "bike_id": "a0f33d179bff68fec72d2aedaee92c24", "lon": -76.99855633333334, "rental_uris": {"ios": "https://dc.lft.to/lastmile_qr_scan", "android": "https://dc.lft.to/lastmile_qr_scan"}}, {"name": "f9d5cd624bfc794815c0cb4f562e57bf", "fusion_lat": 0.0, "type": "electric_scooter", "lat": 38.91411983333333, "is_reserved": 0, "is_disabled": 0, "fusion_lon": 0.0, "bike_id": "f9d5cd624bfc794815c0cb4f562e57bf", "lon": -77.0309895, "rental_uris": {"ios": "https://dc.lft.to/lastmile_qr_scan", "android": "https://dc.lft.to/lastmile_qr_scan"}}, {"name": "767e58fc319c7be1c9d68e88ce0d98c1", "fusion_lat": 0.0, "type": "electric_scooter", "lat": 38.86830833333333, "is_reserved": 0, "is_disabled": 0, "fusion_lon": 0.0, "bike_id": "767e58fc319c7be1c9d68e88ce0d98c1", "lon": -76.98612533333333, "rental_uris": {"ios": "https://dc.lft.to/lastmile_qr_scan", "android": "https://dc.lft.to/lastmile_qr_scan"}}, {"name": "268674ff7d6b430108916b1d7c1a7ae6", "fusion_lat": 0.0, "type": "electric_scooter", "lat": 38.91192483333333, "is_reserved": 0, "is_disabled": 0, "fusion_lon": 0.0, "bike_id": "268674ff7d6b430108916b1d7c1a7ae6", "lon": -77.04507033333333, "rental_uris": {"ios": "https://dc.lft.to/lastmile_qr_scan", "android": "https://dc.lft.to/lastmile_qr_scan"}}, {"name": "616665e5374df6f6f5c0ea9443068cb5", "fusion_lat": 0.0, "type": "electric_scooter", "lat": 38.916117166666666, "is_reserved": 0, "is_disabled": 0, "fusion_lon": 0.0, "bike_id": "616665e5374df6f6f5c0ea9443068cb5", "lon": -77.042561, "rental_uris": {"ios": "https://dc.lft.to/lastmile_qr_scan", "android": "https://dc.lft.to/lastmile_qr_scan"}}, {"name": "eb695c663701ea82e1bb11b8975227a0", "fusion_lat": 0.0, "type": "electric_scooter", "lat": 38.938684, "is_reserved": 0, "is_disabled": 0, "fusion_lon": 0.0, "bike_id": "eb695c663701ea82e1bb11b8975227a0", "lon": -77.02223916666667, "rental_uris": {"ios": "https://dc.lft.to/lastmile_qr_scan", "android": "https://dc.lft.to/lastmile_qr_scan"}}, {"name": "744897822ddf866df633f5001da8fe33", "fusion_lat": 0.0, "type": "electric_scooter", "lat": 38.91047866666667, "is_reserved": 0, "is_disabled": 0, "fusion_lon": 0.0, "bike_id": "744897822ddf866df633f5001da8fe33", "lon": -77.04349816666667, "rental_uris": {"ios": "https://dc.lft.to/lastmile_qr_scan", "android": "https://dc.lft.to/lastmile_qr_scan"}}, {"name": "94b3885c44ed0512f64a5863d123906b", "fusion_lat": 0.0, "type": "electric_bike", "lat": 38.82443133333334, "is_reserved": 0, "is_disabled": 0, "fusion_lon": 0.0, "bike_id": "94b3885c44ed0512f64a5863d123906b", "lon": -77.070451, "rental_uris": {"ios": "https://dc.lft.to/lastmile_qr_scan", "android": "https://dc.lft.to/lastmile_qr_scan"}}, {"name": "ed256c91d611e28681e78c2d6eb79b6f", "fusion_lat": 0.0, "type": "electric_scooter", "lat": 38.90293466666667, "is_reserved": 0, "is_disabled": 0, "fusion_lon": 0.0, "bike_id": "ed256c91d611e28681e78c2d6eb79b6f", "lon": -77.05803816666666, "rental_uris": {"ios": "https://dc.lft.to/lastmile_qr_scan", "android": "https://dc.lft.to/lastmile_qr_scan"}}, {"name": "b9dcfb1d92cc3186d0452c006225e992", "fusion_lat": 0.0, "type": "electric_scooter", "lat": 38.842901499999996, "is_reserved": 0, "is_disabled": 0, "fusion_lon": 0.0, "bike_id": "b9dcfb1d92cc3186d0452c006225e992", "lon": -76.9994705, "rental_uris": {"ios": "https://dc.lft.to/lastmile_qr_scan", "android": "https://dc.lft.to/lastmile_qr_scan"}}, {"name": "2baed581544e1989289ab8a62fde2a89", "fusion_lat": 0.0, "type": "electric_scooter", "lat": 38.884303, "is_reserved": 0, "is_disabled": 0, "fusion_lon": 0.0, "bike_id": "2baed581544e1989289ab8a62fde2a89", "lon": -77.03044333333334, "rental_uris": {"ios": "https://dc.lft.to/lastmile_qr_scan", "android": "https://dc.lft.to/lastmile_qr_scan"}}, {"name": "fce0e20a9b99ca41f8b8d45e54ab1cad", "fusion_lat": 0.0, "type": "electric_scooter", "lat": 38.91808416666667, "is_reserved": 0, "is_disabled": 0, "fusion_lon": 0.0, "bike_id": "fce0e20a9b99ca41f8b8d45e54ab1cad", "lon": -77.03431316666666, "rental_uris": {"ios": "https://dc.lft.to/lastmile_qr_scan", "android": "https://dc.lft.to/lastmile_qr_scan"}}, {"name": "729b3d20fa669a19fd61afea9c45aed9", "fusion_lat": 0.0, "type": "electric_scooter", "lat": 38.922052, "is_reserved": 0, "is_disabled": 0, "fusion_lon": 0.0, "bike_id": "729b3d20fa669a19fd61afea9c45aed9", "lon": -77.04136966666667, "rental_uris": {"ios": "https://dc.lft.to/lastmile_qr_scan", "android": "https://dc.lft.to/lastmile_qr_scan"}}, {"name": "6a523fa31d5c62a13342a66c17e9be98", "fusion_lat": 0.0, "type": "electric_scooter", "lat": 38.92133183333333, "is_reserved": 0, "is_disabled": 0, "fusion_lon": 0.0, "bike_id": "6a523fa31d5c62a13342a66c17e9be98", "lon": -77.04361566666667, "rental_uris": {"ios": "https://dc.lft.to/lastmile_qr_scan", "android": "https://dc.lft.to/lastmile_qr_scan"}}, {"name": "1b3252ee14e1fd0e0c809d43d7b49917", "fusion_lat": 0.0, "type": "electric_scooter", "lat": 38.906373, "is_reserved": 0, "is_disabled": 0, "fusion_lon": 0.0, "bike_id": "1b3252ee14e1fd0e0c809d43d7b49917", "lon": -76.98569866666666, "rental_uris": {"ios": "https://dc.lft.to/lastmile_qr_scan", "android": "https://dc.lft.to/lastmile_qr_scan"}}, {"name": "219e0e9856f921988edbe0e7f70fd5fb", "fusion_lat": 0.0, "type": "electric_scooter", "lat": 38.923119, "is_reserved": 0, "is_disabled": 0, "fusion_lon": 0.0, "bike_id": "219e0e9856f921988edbe0e7f70fd5fb", "lon": -77.02972916666667, "rental_uris": {"ios": "https://dc.lft.to/lastmile_qr_scan", "android": "https://dc.lft.to/lastmile_qr_scan"}}, {"name": "acb2663e4285e19dff51e8a2e64d5bad", "fusion_lat": 0.0, "type": "electric_bike", "lat": 38.917661, "is_reserved": 0, "is_disabled": 0, "fusion_lon": 0.0, "bike_id": "acb2663e4285e19dff51e8a2e64d5bad", "lon": -76.97325366666666, "rental_uris": {"ios": "https://dc.lft.to/lastmile_qr_scan", "android": "https://dc.lft.to/lastmile_qr_scan"}}, {"name": "477dfa5879240c463f77390c132645c6", "fusion_lat": 0.0, "type": "electric_scooter", "lat": 38.87911316666667, "is_reserved": 0, "is_disabled": 0, "fusion_lon": 0.0, "bike_id": "477dfa5879240c463f77390c132645c6", "lon": -77.02241883333333, "rental_uris": {"ios": "https://dc.lft.to/lastmile_qr_scan", "android": "https://dc.lft.to/lastmile_qr_scan"}}, {"name": "0d7124a20d42645d98a324004e5554c2", "fusion_lat": 0.0, "type": "electric_bike", "lat": 38.937018333333334, "is_reserved": 0, "is_disabled": 0, "fusion_lon": 0.0, "bike_id": "0d7124a20d42645d98a324004e5554c2", "lon": -77.0329055, "rental_uris": {"ios": "https://dc.lft.to/lastmile_qr_scan", "android": "https://dc.lft.to/lastmile_qr_scan"}}, {"name": "e5e589a1fac416be7e5f90efab7a0e65", "fusion_lat": 0.0, "type": "electric_scooter", "lat": 38.885088833333334, "is_reserved": 0, "is_disabled": 0, "fusion_lon": 0.0, "bike_id": "e5e589a1fac416be7e5f90efab7a0e65", "lon": -77.021885, "rental_uris": {"ios": "https://dc.lft.to/lastmile_qr_scan", "android": "https://dc.lft.to/lastmile_qr_scan"}}, {"name": "721dcfece7fc4fa8e7f32993ca65b80f", "fusion_lat": 0.0, "type": "electric_bike", "lat": 38.927343, "is_reserved": 0, "is_disabled": 0, "fusion_lon": 0.0, "bike_id": "721dcfece7fc4fa8e7f32993ca65b80f", "lon": -77.0132805, "rental_uris": {"ios": "https://dc.lft.to/lastmile_qr_scan", "android": "https://dc.lft.to/lastmile_qr_scan"}}, {"name": "762a00033440d5c06e1f0607ecf5a02a", "fusion_lat": 0.0, "type": "electric_scooter", "lat": 38.919153666666666, "is_reserved": 0, "is_disabled": 0, "fusion_lon": 0.0, "bike_id": "762a00033440d5c06e1f0607ecf5a02a", "lon": -77.03254866666667, "rental_uris": {"ios": "https://dc.lft.to/lastmile_qr_scan", "android": "https://dc.lft.to/lastmile_qr_scan"}}, {"name": "1759e270468b8013f25075b487f45c38", "fusion_lat": 0.0, "type": "electric_scooter", "lat": 38.92234116666667, "is_reserved": 0, "is_disabled": 0, "fusion_lon": 0.0, "bike_id": "1759e270468b8013f25075b487f45c38", "lon": -77.04246816666667, "rental_uris": {"ios": "https://dc.lft.to/lastmile_qr_scan", "android": "https://dc.lft.to/lastmile_qr_scan"}}, {"name": "442cf9f3c12e40fc17712776efb1ab1c", "fusion_lat": 0.0, "type": "electric_scooter", "lat": 38.91800966666667, "is_reserved": 0, "is_disabled": 0, "fusion_lon": 0.0, "bike_id": "442cf9f3c12e40fc17712776efb1ab1c", "lon": -77.06823816666666, "rental_uris": {"ios": "https://dc.lft.to/lastmile_qr_scan", "android": "https://dc.lft.to/lastmile_qr_scan"}}, {"name": "b5b35e1ea326419c5fe11b47fc5555dd", "fusion_lat": 0.0, "type": "electric_scooter", "lat": 38.936034166666666, "is_reserved": 0, "is_disabled": 0, "fusion_lon": 0.0, "bike_id": "b5b35e1ea326419c5fe11b47fc5555dd", "lon": -77.03516633333334, "rental_uris": {"ios": "https://dc.lft.to/lastmile_qr_scan", "android": "https://dc.lft.to/lastmile_qr_scan"}}, {"name": "16b1ef0a311c2fad69e7e14ccd7e78be", "fusion_lat": 0.0, "type": "electric_scooter", "lat": 38.8959095, "is_reserved": 0, "is_disabled": 0, "fusion_lon": 0.0, "bike_id": "16b1ef0a311c2fad69e7e14ccd7e78be", "lon": -76.93717483333333, "rental_uris": {"ios": "https://dc.lft.to/lastmile_qr_scan", "android": "https://dc.lft.to/lastmile_qr_scan"}}, {"name": "864c2653e5e6ef5c965c220f2549d5a0", "fusion_lat": 0.0, "type": "electric_scooter", "lat": 38.90366083333333, "is_reserved": 0, "is_disabled": 0, "fusion_lon": 0.0, "bike_id": "864c2653e5e6ef5c965c220f2549d5a0", "lon": -77.00732516666666, "rental_uris": {"ios": "https://dc.lft.to/lastmile_qr_scan", "android": "https://dc.lft.to/lastmile_qr_scan"}}, {"name": "feef69391c47e66a6f6b03b8ec1dcc6d", "fusion_lat": 0.0, "type": "electric_scooter", "lat": 38.90155166666667, "is_reserved": 0, "is_disabled": 0, "fusion_lon": 0.0, "bike_id": "feef69391c47e66a6f6b03b8ec1dcc6d", "lon": -76.97408, "rental_uris": {"ios": "https://dc.lft.to/lastmile_qr_scan", "android": "https://dc.lft.to/lastmile_qr_scan"}}, {"name": "cb9f92489588824c1052c954f6028b4f", "fusion_lat": 0.0, "type": "electric_scooter", "lat": 38.9126885, "is_reserved": 0, "is_disabled": 0, "fusion_lon": 0.0, "bike_id": "cb9f92489588824c1052c954f6028b4f", "lon": -77.06088516666667, "rental_uris": {"ios": "https://dc.lft.to/lastmile_qr_scan", "android": "https://dc.lft.to/lastmile_qr_scan"}}, {"name": "2ce95fa3457383476ee571a6d8c2a34f", "fusion_lat": 0.0, "type": "electric_scooter", "lat": 38.914185833333335, "is_reserved": 0, "is_disabled": 0, "fusion_lon": 0.0, "bike_id": "2ce95fa3457383476ee571a6d8c2a34f", "lon": -77.0088975, "rental_uris": {"ios": "https://dc.lft.to/lastmile_qr_scan", "android": "https://dc.lft.to/lastmile_qr_scan"}}, {"name": "5213da20bc8a33e944f85b0a277bf746", "fusion_lat": 0.0, "type": "electric_scooter", "lat": 38.914050833333334, "is_reserved": 0, "is_disabled": 0, "fusion_lon": 0.0, "bike_id": "5213da20bc8a33e944f85b0a277bf746", "lon": -77.0321555, "rental_uris": {"ios": "https://dc.lft.to/lastmile_qr_scan", "android": "https://dc.lft.to/lastmile_qr_scan"}}, {"name": "08a296cb5a8c73543edd1be3324ee9e5", "fusion_lat": 0.0, "type": "electric_scooter", "lat": 38.9156965, "is_reserved": 0, "is_disabled": 0, "fusion_lon": 0.0, "bike_id": "08a296cb5a8c73543edd1be3324ee9e5", "lon": -77.046952, "rental_uris": {"ios": "https://dc.lft.to/lastmile_qr_scan", "android": "https://dc.lft.to/lastmile_qr_scan"}}, {"name": "703d4e62059de855c62d6d6d9e25900e", "fusion_lat": 0.0, "type": "electric_bike", "lat": 38.92008166666667, "is_reserved": 0, "is_disabled": 0, "fusion_lon": 0.0, "bike_id": "703d4e62059de855c62d6d6d9e25900e", "lon": -76.97493166666666, "rental_uris": {"ios": "https://dc.lft.to/lastmile_qr_scan", "android": "https://dc.lft.to/lastmile_qr_scan"}}, {"name": "e92ff1a7d736df44bcad87c230af4d0c", "fusion_lat": 0.0, "type": "electric_scooter", "lat": 38.9024655, "is_reserved": 0, "is_disabled": 0, "fusion_lon": 0.0, "bike_id": "e92ff1a7d736df44bcad87c230af4d0c", "lon": -77.01934083333333, "rental_uris": {"ios": "https://dc.lft.to/lastmile_qr_scan", "android": "https://dc.lft.to/lastmile_qr_scan"}}, {"name": "5b2c5f4080f31a17970630128ccf2df7", "fusion_lat": 0.0, "type": "electric_scooter", "lat": 38.91916466666667, "is_reserved": 0, "is_disabled": 0, "fusion_lon": 0.0, "bike_id": "5b2c5f4080f31a17970630128ccf2df7", "lon": -77.0321795, "rental_uris": {"ios": "https://dc.lft.to/lastmile_qr_scan", "android": "https://dc.lft.to/lastmile_qr_scan"}}, {"name": "fe31a54992cc579f32908d414e6fd2b8", "fusion_lat": 0.0, "type": "electric_scooter", "lat": 38.880675333333336, "is_reserved": 0, "is_disabled": 0, "fusion_lon": 0.0, "bike_id": "fe31a54992cc579f32908d414e6fd2b8", "lon": -76.935303, "rental_uris": {"ios": "https://dc.lft.to/lastmile_qr_scan", "android": "https://dc.lft.to/lastmile_qr_scan"}}, {"name": "792e6ee346813f197ad37eedb648d67a", "fusion_lat": 0.0, "type": "electric_scooter", "lat": 38.9176755, "is_reserved": 0, "is_disabled": 0, "fusion_lon": 0.0, "bike_id": "792e6ee346813f197ad37eedb648d67a", "lon": -77.023065, "rental_uris": {"ios": "https://dc.lft.to/lastmile_qr_scan", "android": "https://dc.lft.to/lastmile_qr_scan"}}, {"name": "b562202298d2209a2f1250f51d3d7cce", "fusion_lat": 0.0, "type": "electric_scooter", "lat": 38.88123133333333, "is_reserved": 0, "is_disabled": 0, "fusion_lon": 0.0, "bike_id": "b562202298d2209a2f1250f51d3d7cce", "lon": -77.01335166666667, "rental_uris": {"ios": "https://dc.lft.to/lastmile_qr_scan", "android": "https://dc.lft.to/lastmile_qr_scan"}}, {"name": "434e21dad1b1e69a994a799cb578ef71", "fusion_lat": 0.0, "type": "electric_scooter", "lat": 38.86657366666667, "is_reserved": 0, "is_disabled": 0, "fusion_lon": 0.0, "bike_id": "434e21dad1b1e69a994a799cb578ef71", "lon": -76.98887466666666, "rental_uris": {"ios": "https://dc.lft.to/lastmile_qr_scan", "android": "https://dc.lft.to/lastmile_qr_scan"}}, {"name": "37b578990679d276ca80ae3201719265", "fusion_lat": 0.0, "type": "electric_bike", "lat": 38.934135833333336, "is_reserved": 0, "is_disabled": 0, "fusion_lon": 0.0, "bike_id": "37b578990679d276ca80ae3201719265", "lon": -77.02510766666667, "rental_uris": {"ios": "https://dc.lft.to/lastmile_qr_scan", "android": "https://dc.lft.to/lastmile_qr_scan"}}, {"name": "e601ce11235012805d8853d164735276", "fusion_lat": 0.0, "type": "electric_scooter", "lat": 38.89729233333333, "is_reserved": 0, "is_disabled": 0, "fusion_lon": 0.0, "bike_id": "e601ce11235012805d8853d164735276", "lon": -77.00942966666666, "rental_uris": {"ios": "https://dc.lft.to/lastmile_qr_scan", "android": "https://dc.lft.to/lastmile_qr_scan"}}, {"name": "770548a1093314d6d6d866d785b36ef0", "fusion_lat": 0.0, "type": "electric_scooter", "lat": 38.9031245, "is_reserved": 0, "is_disabled": 0, "fusion_lon": 0.0, "bike_id": "770548a1093314d6d6d866d785b36ef0", "lon": -76.978022, "rental_uris": {"ios": "https://dc.lft.to/lastmile_qr_scan", "android": "https://dc.lft.to/lastmile_qr_scan"}}, {"name": "efd899034f0e59f072488eda27f2bd8c", "fusion_lat": 0.0, "type": "electric_scooter", "lat": 38.905865666666664, "is_reserved": 0, "is_disabled": 0, "fusion_lon": 0.0, "bike_id": "efd899034f0e59f072488eda27f2bd8c", "lon": -77.00719216666667, "rental_uris": {"ios": "https://dc.lft.to/lastmile_qr_scan", "android": "https://dc.lft.to/lastmile_qr_scan"}}, {"name": "63cdea729dde736ad1cf7c2a4b783838", "fusion_lat": 0.0, "type": "electric_scooter", "lat": 38.91125, "is_reserved": 0, "is_disabled": 0, "fusion_lon": 0.0, "bike_id": "63cdea729dde736ad1cf7c2a4b783838", "lon": -77.02798916666667, "rental_uris": {"ios": "https://dc.lft.to/lastmile_qr_scan", "android": "https://dc.lft.to/lastmile_qr_scan"}}, {"name": "d5b74fb9489395f649e5fc2bf78fd637", "fusion_lat": 0.0, "type": "electric_scooter", "lat": 38.904428333333335, "is_reserved": 0, "is_disabled": 0, "fusion_lon": 0.0, "bike_id": "d5b74fb9489395f649e5fc2bf78fd637", "lon": -76.9755905, "rental_uris": {"ios": "https://dc.lft.to/lastmile_qr_scan", "android": "https://dc.lft.to/lastmile_qr_scan"}}, {"name": "75fa819a44cc5849d60a868c58b3a9f2", "fusion_lat": 0.0, "type": "electric_scooter", "lat": 38.905449833333336, "is_reserved": 0, "is_disabled": 0, "fusion_lon": 0.0, "bike_id": "75fa819a44cc5849d60a868c58b3a9f2", "lon": -77.04299716666667, "rental_uris": {"ios": "https://dc.lft.to/lastmile_qr_scan", "android": "https://dc.lft.to/lastmile_qr_scan"}}, {"name": "d33bede795a167947bfab45022627e8a", "fusion_lat": 0.0, "type": "electric_scooter", "lat": 38.87578333333333, "is_reserved": 0, "is_disabled": 0, "fusion_lon": 0.0, "bike_id": "d33bede795a167947bfab45022627e8a", "lon": -77.01061083333333, "rental_uris": {"ios": "https://dc.lft.to/lastmile_qr_scan", "android": "https://dc.lft.to/lastmile_qr_scan"}}, {"name": "c9e5301670217c6a2517c47191e32b6a", "fusion_lat": 0.0, "type": "electric_scooter", "lat": 38.90249266666667, "is_reserved": 0, "is_disabled": 0, "fusion_lon": 0.0, "bike_id": "c9e5301670217c6a2517c47191e32b6a", "lon": -76.97701133333334, "rental_uris": {"ios": "https://dc.lft.to/lastmile_qr_scan", "android": "https://dc.lft.to/lastmile_qr_scan"}}, {"name": "004c8faa4c40ad4f14ee209522d1d055", "fusion_lat": 0.0, "type": "electric_scooter", "lat": 38.9283125, "is_reserved": 0, "is_disabled": 0, "fusion_lon": 0.0, "bike_id": "004c8faa4c40ad4f14ee209522d1d055", "lon": -77.02255933333333, "rental_uris": {"ios": "https://dc.lft.to/lastmile_qr_scan", "android": "https://dc.lft.to/lastmile_qr_scan"}}, {"name": "89f8ed87947b5e311505e5ac6a3e570a", "fusion_lat": 0.0, "type": "electric_scooter", "lat": 38.92967516666667, "is_reserved": 0, "is_disabled": 0, "fusion_lon": 0.0, "bike_id": "89f8ed87947b5e311505e5ac6a3e570a", "lon": -77.0410885, "rental_uris": {"ios": "https://dc.lft.to/lastmile_qr_scan", "android": "https://dc.lft.to/lastmile_qr_scan"}}, {"name": "65b74ac2ba1eb199b361e60ca28d45ae", "fusion_lat": 0.0, "type": "electric_scooter", "lat": 38.91991466666666, "is_reserved": 0, "is_disabled": 0, "fusion_lon": 0.0, "bike_id": "65b74ac2ba1eb199b361e60ca28d45ae", "lon": -77.02383483333334, "rental_uris": {"ios": "https://dc.lft.to/lastmile_qr_scan", "android": "https://dc.lft.to/lastmile_qr_scan"}}, {"name": "1d283f357822d0aba8e677251678ebf9", "fusion_lat": 0.0, "type": "electric_scooter", "lat": 38.917654166666665, "is_reserved": 0, "is_disabled": 0, "fusion_lon": 0.0, "bike_id": "1d283f357822d0aba8e677251678ebf9", "lon": -77.09671066666667, "rental_uris": {"ios": "https://dc.lft.to/lastmile_qr_scan", "android": "https://dc.lft.to/lastmile_qr_scan"}}, {"name": "f37e47ae930993e415b055394ca02860", "fusion_lat": 0.0, "type": "electric_scooter", "lat": 38.9129, "is_reserved": 0, "is_disabled": 0, "fusion_lon": 0.0, "bike_id": "f37e47ae930993e415b055394ca02860", "lon": -76.9374855, "rental_uris": {"ios": "https://dc.lft.to/lastmile_qr_scan", "android": "https://dc.lft.to/lastmile_qr_scan"}}, {"name": "c0dec95623e057e40be305ebb618bda4", "fusion_lat": 0.0, "type": "electric_bike", "lat": 38.893463, "is_reserved": 0, "is_disabled": 0, "fusion_lon": 0.0, "bike_id": "c0dec95623e057e40be305ebb618bda4", "lon": -76.99143783333334, "rental_uris": {"ios": "https://dc.lft.to/lastmile_qr_scan", "android": "https://dc.lft.to/lastmile_qr_scan"}}, {"name": "c9a14b2897bb329305b3cfe5da903ec2", "fusion_lat": 0.0, "type": "electric_scooter", "lat": 38.89607316666667, "is_reserved": 0, "is_disabled": 0, "fusion_lon": 0.0, "bike_id": "c9a14b2897bb329305b3cfe5da903ec2", "lon": -77.04465666666667, "rental_uris": {"ios": "https://dc.lft.to/lastmile_qr_scan", "android": "https://dc.lft.to/lastmile_qr_scan"}}, {"name": "6a12a8bb88bf74246e4d7c8488783f36", "fusion_lat": 0.0, "type": "electric_scooter", "lat": 38.907979833333336, "is_reserved": 0, "is_disabled": 0, "fusion_lon": 0.0, "bike_id": "6a12a8bb88bf74246e4d7c8488783f36", "lon": -77.018154, "rental_uris": {"ios": "https://dc.lft.to/lastmile_qr_scan", "android": "https://dc.lft.to/lastmile_qr_scan"}}, {"name": "62dc6c6352fe7af3f4f350d1fad1ef34", "fusion_lat": 0.0, "type": "electric_scooter", "lat": 38.911472, "is_reserved": 0, "is_disabled": 0, "fusion_lon": 0.0, "bike_id": "62dc6c6352fe7af3f4f350d1fad1ef34", "lon": -77.01692833333334, "rental_uris": {"ios": "https://dc.lft.to/lastmile_qr_scan", "android": "https://dc.lft.to/lastmile_qr_scan"}}, {"name": "ff49dd99a5ebcb24110ba9f5f786fb8b", "fusion_lat": 0.0, "type": "electric_scooter", "lat": 38.86654466666667, "is_reserved": 0, "is_disabled": 0, "fusion_lon": 0.0, "bike_id": "ff49dd99a5ebcb24110ba9f5f786fb8b", "lon": -76.98883333333333, "rental_uris": {"ios": "https://dc.lft.to/lastmile_qr_scan", "android": "https://dc.lft.to/lastmile_qr_scan"}}, {"name": "1b6d0e0e065595449e7ac94b056dd820", "fusion_lat": 0.0, "type": "electric_scooter", "lat": 38.91112866666667, "is_reserved": 0, "is_disabled": 0, "fusion_lon": 0.0, "bike_id": "1b6d0e0e065595449e7ac94b056dd820", "lon": -77.0246405, "rental_uris": {"ios": "https://dc.lft.to/lastmile_qr_scan", "android": "https://dc.lft.to/lastmile_qr_scan"}}, {"name": "cd5a789e5d746a8414894f33786fdb7f", "fusion_lat": 0.0, "type": "electric_scooter", "lat": 38.956104333333336, "is_reserved": 0, "is_disabled": 0, "fusion_lon": 0.0, "bike_id": "cd5a789e5d746a8414894f33786fdb7f", "lon": -77.0771135, "rental_uris": {"ios": "https://dc.lft.to/lastmile_qr_scan", "android": "https://dc.lft.to/lastmile_qr_scan"}}, {"name": "d73a3651052ed791ac1d678b7d0084be", "fusion_lat": 0.0, "type": "electric_scooter", "lat": 38.86536366666667, "is_reserved": 0, "is_disabled": 0, "fusion_lon": 0.0, "bike_id": "d73a3651052ed791ac1d678b7d0084be", "lon": -76.98705916666667, "rental_uris": {"ios": "https://dc.lft.to/lastmile_qr_scan", "android": "https://dc.lft.to/lastmile_qr_scan"}}, {"name": "1aaf87ea75388ea08c0ea73a7a14209f", "fusion_lat": 0.0, "type": "electric_scooter", "lat": 38.9191935, "is_reserved": 0, "is_disabled": 0, "fusion_lon": 0.0, "bike_id": "1aaf87ea75388ea08c0ea73a7a14209f", "lon": -77.02497733333334, "rental_uris": {"ios": "https://dc.lft.to/lastmile_qr_scan", "android": "https://dc.lft.to/lastmile_qr_scan"}}, {"name": "5d7d5365073c96601635cc4944c36dad", "fusion_lat": 0.0, "type": "electric_scooter", "lat": 38.90029933333334, "is_reserved": 0, "is_disabled": 0, "fusion_lon": 0.0, "bike_id": "5d7d5365073c96601635cc4944c36dad", "lon": -76.99861583333333, "rental_uris": {"ios": "https://dc.lft.to/lastmile_qr_scan", "android": "https://dc.lft.to/lastmile_qr_scan"}}, {"name": "a83040b85895d38c6812d1c0f021616f", "fusion_lat": 0.0, "type": "electric_scooter", "lat": 38.911770833333335, "is_reserved": 0, "is_disabled": 0, "fusion_lon": 0.0, "bike_id": "a83040b85895d38c6812d1c0f021616f", "lon": -77.03204133333334, "rental_uris": {"ios": "https://dc.lft.to/lastmile_qr_scan", "android": "https://dc.lft.to/lastmile_qr_scan"}}, {"name": "0e804340f9211b4fd3c78659a0d7e567", "fusion_lat": 0.0, "type": "electric_scooter", "lat": 38.92905316666667, "is_reserved": 0, "is_disabled": 0, "fusion_lon": 0.0, "bike_id": "0e804340f9211b4fd3c78659a0d7e567", "lon": -77.0052715, "rental_uris": {"ios": "https://dc.lft.to/lastmile_qr_scan", "android": "https://dc.lft.to/lastmile_qr_scan"}}, {"name": "c0a6ecde1bbd4bc680e4f91fe6665858", "fusion_lat": 0.0, "type": "electric_scooter", "lat": 38.91544233333333, "is_reserved": 0, "is_disabled": 0, "fusion_lon": 0.0, "bike_id": "c0a6ecde1bbd4bc680e4f91fe6665858", "lon": -77.0385035, "rental_uris": {"ios": "https://dc.lft.to/lastmile_qr_scan", "android": "https://dc.lft.to/lastmile_qr_scan"}}, {"name": "6f63b9084f4b0ecfaaacc3824ddfa875", "fusion_lat": 0.0, "type": "electric_scooter", "lat": 38.91198933333333, "is_reserved": 0, "is_disabled": 0, "fusion_lon": 0.0, "bike_id": "6f63b9084f4b0ecfaaacc3824ddfa875", "lon": -77.03446633333333, "rental_uris": {"ios": "https://dc.lft.to/lastmile_qr_scan", "android": "https://dc.lft.to/lastmile_qr_scan"}}, {"name": "c52206409dc6eb62203b728a4791d351", "fusion_lat": 0.0, "type": "electric_scooter", "lat": 38.902666833333335, "is_reserved": 0, "is_disabled": 0, "fusion_lon": 0.0, "bike_id": "c52206409dc6eb62203b728a4791d351", "lon": -77.0300005, "rental_uris": {"ios": "https://dc.lft.to/lastmile_qr_scan", "android": "https://dc.lft.to/lastmile_qr_scan"}}, {"name": "d7b1fd769ece6ebc00dd7bb5dbe98f3c", "fusion_lat": 0.0, "type": "electric_scooter", "lat": 38.91812616666667, "is_reserved": 0, "is_disabled": 0, "fusion_lon": 0.0, "bike_id": "d7b1fd769ece6ebc00dd7bb5dbe98f3c", "lon": -77.03560733333333, "rental_uris": {"ios": "https://dc.lft.to/lastmile_qr_scan", "android": "https://dc.lft.to/lastmile_qr_scan"}}, {"name": "9c4dc4bf12940954dfd4bdb3feb436a0", "fusion_lat": 0.0, "type": "electric_scooter", "lat": 38.900331, "is_reserved": 0, "is_disabled": 0, "fusion_lon": 0.0, "bike_id": "9c4dc4bf12940954dfd4bdb3feb436a0", "lon": -77.01185766666667, "rental_uris": {"ios": "https://dc.lft.to/lastmile_qr_scan", "android": "https://dc.lft.to/lastmile_qr_scan"}}, {"name": "34f110d782d81f70016428413a80d7cf", "fusion_lat": 0.0, "type": "electric_scooter", "lat": 38.9246515, "is_reserved": 0, "is_disabled": 0, "fusion_lon": 0.0, "bike_id": "34f110d782d81f70016428413a80d7cf", "lon": -77.02711633333334, "rental_uris": {"ios": "https://dc.lft.to/lastmile_qr_scan", "android": "https://dc.lft.to/lastmile_qr_scan"}}, {"name": "769f56df63d4440a4283fe6c4d44baf5", "fusion_lat": 0.0, "type": "electric_scooter", "lat": 38.9072915, "is_reserved": 0, "is_disabled": 0, "fusion_lon": 0.0, "bike_id": "769f56df63d4440a4283fe6c4d44baf5", "lon": -77.010655, "rental_uris": {"ios": "https://dc.lft.to/lastmile_qr_scan", "android": "https://dc.lft.to/lastmile_qr_scan"}}, {"name": "264b0e48a9dd531dbf112bffdaa9e271", "fusion_lat": 0.0, "type": "electric_scooter", "lat": 38.937268333333336, "is_reserved": 0, "is_disabled": 0, "fusion_lon": 0.0, "bike_id": "264b0e48a9dd531dbf112bffdaa9e271", "lon": -77.032806, "rental_uris": {"ios": "https://dc.lft.to/lastmile_qr_scan", "android": "https://dc.lft.to/lastmile_qr_scan"}}, {"name": "31b2d061997b4cbd7b1bc2c27f0d1205", "fusion_lat": 0.0, "type": "electric_scooter", "lat": 38.94254883333333, "is_reserved": 0, "is_disabled": 0, "fusion_lon": 0.0, "bike_id": "31b2d061997b4cbd7b1bc2c27f0d1205", "lon": -77.04133983333334, "rental_uris": {"ios": "https://dc.lft.to/lastmile_qr_scan", "android": "https://dc.lft.to/lastmile_qr_scan"}}, {"name": "139ed1d02c2fc82f9eeb41e8b26c57ae", "fusion_lat": 0.0, "type": "electric_scooter", "lat": 38.90147666666667, "is_reserved": 0, "is_disabled": 0, "fusion_lon": 0.0, "bike_id": "139ed1d02c2fc82f9eeb41e8b26c57ae", "lon": -76.974219, "rental_uris": {"ios": "https://dc.lft.to/lastmile_qr_scan", "android": "https://dc.lft.to/lastmile_qr_scan"}}, {"name": "c6a69b1a76aa60c978d0f453e6471877", "fusion_lat": 0.0, "type": "electric_scooter", "lat": 38.9182005, "is_reserved": 0, "is_disabled": 0, "fusion_lon": 0.0, "bike_id": "c6a69b1a76aa60c978d0f453e6471877", "lon": -77.02419716666667, "rental_uris": {"ios": "https://dc.lft.to/lastmile_qr_scan", "android": "https://dc.lft.to/lastmile_qr_scan"}}, {"name": "5ef4ff6b2fd83dafaf29c6a953f5327a", "fusion_lat": 0.0, "type": "electric_scooter", "lat": 38.9028235, "is_reserved": 0, "is_disabled": 0, "fusion_lon": 0.0, "bike_id": "5ef4ff6b2fd83dafaf29c6a953f5327a", "lon": -77.03650033333334, "rental_uris": {"ios": "https://dc.lft.to/lastmile_qr_scan", "android": "https://dc.lft.to/lastmile_qr_scan"}}, {"name": "a3b0bbb3f4abb7f3c9092d5aed527e21", "fusion_lat": 0.0, "type": "electric_scooter", "lat": 38.918172, "is_reserved": 0, "is_disabled": 0, "fusion_lon": 0.0, "bike_id": "a3b0bbb3f4abb7f3c9092d5aed527e21", "lon": -77.0128335, "rental_uris": {"ios": "https://dc.lft.to/lastmile_qr_scan", "android": "https://dc.lft.to/lastmile_qr_scan"}}, {"name": "87f582a43aa79ab718139c83496c3889", "fusion_lat": 0.0, "type": "electric_scooter", "lat": 38.912894, "is_reserved": 0, "is_disabled": 0, "fusion_lon": 0.0, "bike_id": "87f582a43aa79ab718139c83496c3889", "lon": -77.061107, "rental_uris": {"ios": "https://dc.lft.to/lastmile_qr_scan", "android": "https://dc.lft.to/lastmile_qr_scan"}}, {"name": "aa324227af2254d5046965ce88409e7b", "fusion_lat": 0.0, "type": "electric_scooter", "lat": 38.86504333333333, "is_reserved": 0, "is_disabled": 0, "fusion_lon": 0.0, "bike_id": "aa324227af2254d5046965ce88409e7b", "lon": -76.99000883333333, "rental_uris": {"ios": "https://dc.lft.to/lastmile_qr_scan", "android": "https://dc.lft.to/lastmile_qr_scan"}}, {"name": "c9ea21c29ab677b32d44f251f5c8ea38", "fusion_lat": 0.0, "type": "electric_scooter", "lat": 38.91194333333333, "is_reserved": 0, "is_disabled": 0, "fusion_lon": 0.0, "bike_id": "c9ea21c29ab677b32d44f251f5c8ea38", "lon": -77.059631, "rental_uris": {"ios": "https://dc.lft.to/lastmile_qr_scan", "android": "https://dc.lft.to/lastmile_qr_scan"}}, {"name": "aaef05b243049935e1228293c273d6e4", "fusion_lat": 0.0, "type": "electric_scooter", "lat": 38.900339333333335, "is_reserved": 0, "is_disabled": 0, "fusion_lon": 0.0, "bike_id": "aaef05b243049935e1228293c273d6e4", "lon": -77.01169633333333, "rental_uris": {"ios": "https://dc.lft.to/lastmile_qr_scan", "android": "https://dc.lft.to/lastmile_qr_scan"}}, {"name": "61c362f6050aa75bea136d6929312e7a", "fusion_lat": 0.0, "type": "electric_scooter", "lat": 38.918366, "is_reserved": 0, "is_disabled": 0, "fusion_lon": 0.0, "bike_id": "61c362f6050aa75bea136d6929312e7a", "lon": -77.02699116666666, "rental_uris": {"ios": "https://dc.lft.to/lastmile_qr_scan", "android": "https://dc.lft.to/lastmile_qr_scan"}}, {"name": "513579202df61c0425c75127f632a47b", "fusion_lat": 0.0, "type": "electric_scooter", "lat": 38.87628, "is_reserved": 0, "is_disabled": 0, "fusion_lon": 0.0, "bike_id": "513579202df61c0425c75127f632a47b", "lon": -76.96525483333333, "rental_uris": {"ios": "https://dc.lft.to/lastmile_qr_scan", "android": "https://dc.lft.to/lastmile_qr_scan"}}, {"name": "d6b23932a121ea82eb7f9366b69b835a", "fusion_lat": 0.0, "type": "electric_scooter", "lat": 38.905393833333335, "is_reserved": 0, "is_disabled": 0, "fusion_lon": 0.0, "bike_id": "d6b23932a121ea82eb7f9366b69b835a", "lon": -77.0660495, "rental_uris": {"ios": "https://dc.lft.to/lastmile_qr_scan", "android": "https://dc.lft.to/lastmile_qr_scan"}}, {"name": "30dd0c6150923f0ccd53a9d3fa02fc13", "fusion_lat": 0.0, "type": "electric_scooter", "lat": 38.916936666666665, "is_reserved": 0, "is_disabled": 0, "fusion_lon": 0.0, "bike_id": "30dd0c6150923f0ccd53a9d3fa02fc13", "lon": -77.02594583333334, "rental_uris": {"ios": "https://dc.lft.to/lastmile_qr_scan", "android": "https://dc.lft.to/lastmile_qr_scan"}}, {"name": "d32f6f7393bf3b40d3ab82e6c62b0784", "fusion_lat": 0.0, "type": "electric_scooter", "lat": 38.91556683333334, "is_reserved": 0, "is_disabled": 0, "fusion_lon": 0.0, "bike_id": "d32f6f7393bf3b40d3ab82e6c62b0784", "lon": -77.04885416666667, "rental_uris": {"ios": "https://dc.lft.to/lastmile_qr_scan", "android": "https://dc.lft.to/lastmile_qr_scan"}}, {"name": "39dc48b1e59de623cf37bd0c78debf56", "fusion_lat": 0.0, "type": "electric_bike", "lat": 38.9097095, "is_reserved": 0, "is_disabled": 0, "fusion_lon": 0.0, "bike_id": "39dc48b1e59de623cf37bd0c78debf56", "lon": -77.08824216666666, "rental_uris": {"ios": "https://dc.lft.to/lastmile_qr_scan", "android": "https://dc.lft.to/lastmile_qr_scan"}}, {"name": "361560f643926453d167b8b4659f4401", "fusion_lat": 0.0, "type": "electric_scooter", "lat": 38.89954816666667, "is_reserved": 0, "is_disabled": 0, "fusion_lon": 0.0, "bike_id": "361560f643926453d167b8b4659f4401", "lon": -77.01776033333333, "rental_uris": {"ios": "https://dc.lft.to/lastmile_qr_scan", "android": "https://dc.lft.to/lastmile_qr_scan"}}, {"name": "01455870700e1a1178c8b7984f74dd40", "fusion_lat": 0.0, "type": "electric_scooter", "lat": 38.9163265, "is_reserved": 0, "is_disabled": 0, "fusion_lon": 0.0, "bike_id": "01455870700e1a1178c8b7984f74dd40", "lon": -77.0480905, "rental_uris": {"ios": "https://dc.lft.to/lastmile_qr_scan", "android": "https://dc.lft.to/lastmile_qr_scan"}}, {"name": "044468329a588661ecc6030be7013735", "fusion_lat": 0.0, "type": "electric_scooter", "lat": 38.879191166666665, "is_reserved": 0, "is_disabled": 0, "fusion_lon": 0.0, "bike_id": "044468329a588661ecc6030be7013735", "lon": -77.02105016666667, "rental_uris": {"ios": "https://dc.lft.to/lastmile_qr_scan", "android": "https://dc.lft.to/lastmile_qr_scan"}}, {"name": "5c6b9b96cbc9b4b46d8bcd8bb93f6541", "fusion_lat": 0.0, "type": "electric_bike", "lat": 38.87527, "is_reserved": 0, "is_disabled": 0, "fusion_lon": 0.0, "bike_id": "5c6b9b96cbc9b4b46d8bcd8bb93f6541", "lon": -77.1990815, "rental_uris": {"ios": "https://dc.lft.to/lastmile_qr_scan", "android": "https://dc.lft.to/lastmile_qr_scan"}}, {"name": "eb583da61d282adcd584e58c3c49b588", "fusion_lat": 0.0, "type": "electric_scooter", "lat": 38.92723616666667, "is_reserved": 0, "is_disabled": 0, "fusion_lon": 0.0, "bike_id": "eb583da61d282adcd584e58c3c49b588", "lon": -77.0056585, "rental_uris": {"ios": "https://dc.lft.to/lastmile_qr_scan", "android": "https://dc.lft.to/lastmile_qr_scan"}}, {"name": "58a1a5a6ee6173581f0d146b814d0bc1", "fusion_lat": 0.0, "type": "electric_scooter", "lat": 38.90063383333333, "is_reserved": 0, "is_disabled": 0, "fusion_lon": 0.0, "bike_id": "58a1a5a6ee6173581f0d146b814d0bc1", "lon": -77.0488075, "rental_uris": {"ios": "https://dc.lft.to/lastmile_qr_scan", "android": "https://dc.lft.to/lastmile_qr_scan"}}, {"name": "5b9e62f8b98813061fc5ae5670943a41", "fusion_lat": 0.0, "type": "electric_bike", "lat": 39.0946125, "is_reserved": 0, "is_disabled": 0, "fusion_lon": 0.0, "bike_id": "5b9e62f8b98813061fc5ae5670943a41", "lon": -77.14995933333333, "rental_uris": {"ios": "https://dc.lft.to/lastmile_qr_scan", "android": "https://dc.lft.to/lastmile_qr_scan"}}, {"name": "61038567c85424dbb491a7ca786f77a4", "fusion_lat": 0.0, "type": "electric_scooter", "lat": 38.91563333333333, "is_reserved": 0, "is_disabled": 0, "fusion_lon": 0.0, "bike_id": "61038567c85424dbb491a7ca786f77a4", "lon": -77.03165, "rental_uris": {"ios": "https://dc.lft.to/lastmile_qr_scan", "android": "https://dc.lft.to/lastmile_qr_scan"}}, {"name": "bdccdf5e92032ffce8791e7c4b212ab8", "fusion_lat": 0.0, "type": "electric_bike", "lat": 38.85790183333334, "is_reserved": 0, "is_disabled": 0, "fusion_lon": 0.0, "bike_id": "bdccdf5e92032ffce8791e7c4b212ab8", "lon": -77.09962733333333, "rental_uris": {"ios": "https://dc.lft.to/lastmile_qr_scan", "android": "https://dc.lft.to/lastmile_qr_scan"}}, {"name": "cb7122b6ffff8285474acf8808a0b85e", "fusion_lat": 0.0, "type": "electric_scooter", "lat": 38.89908466666667, "is_reserved": 0, "is_disabled": 0, "fusion_lon": 0.0, "bike_id": "cb7122b6ffff8285474acf8808a0b85e", "lon": -76.933753, "rental_uris": {"ios": "https://dc.lft.to/lastmile_qr_scan", "android": "https://dc.lft.to/lastmile_qr_scan"}}, {"name": "0d4f88dbedce159f77b31d22544567a1", "fusion_lat": 0.0, "type": "electric_scooter", "lat": 38.91814266666667, "is_reserved": 0, "is_disabled": 0, "fusion_lon": 0.0, "bike_id": "0d4f88dbedce159f77b31d22544567a1", "lon": -77.02795, "rental_uris": {"ios": "https://dc.lft.to/lastmile_qr_scan", "android": "https://dc.lft.to/lastmile_qr_scan"}}, {"name": "81652ff5395e03578c6a2d563b30480c", "fusion_lat": 0.0, "type": "electric_scooter", "lat": 38.876186, "is_reserved": 0, "is_disabled": 0, "fusion_lon": 0.0, "bike_id": "81652ff5395e03578c6a2d563b30480c", "lon": -77.00745933333333, "rental_uris": {"ios": "https://dc.lft.to/lastmile_qr_scan", "android": "https://dc.lft.to/lastmile_qr_scan"}}, {"name": "e1e1cd7e617aea6a21e79fc117e3c6b0", "fusion_lat": 0.0, "type": "electric_scooter", "lat": 38.884578, "is_reserved": 0, "is_disabled": 0, "fusion_lon": 0.0, "bike_id": "e1e1cd7e617aea6a21e79fc117e3c6b0", "lon": -76.9247225, "rental_uris": {"ios": "https://dc.lft.to/lastmile_qr_scan", "android": "https://dc.lft.to/lastmile_qr_scan"}}, {"name": "bae4258b069bfa21086197e83145134b", "fusion_lat": 0.0, "type": "electric_bike", "lat": 38.95184866666666, "is_reserved": 0, "is_disabled": 0, "fusion_lon": 0.0, "bike_id": "bae4258b069bfa21086197e83145134b", "lon": -76.935471, "rental_uris": {"ios": "https://dc.lft.to/lastmile_qr_scan", "android": "https://dc.lft.to/lastmile_qr_scan"}}, {"name": "84ab950baf6b9d953ad029b52c3ee286", "fusion_lat": 0.0, "type": "electric_scooter", "lat": 38.87322533333333, "is_reserved": 0, "is_disabled": 0, "fusion_lon": 0.0, "bike_id": "84ab950baf6b9d953ad029b52c3ee286", "lon": -77.00104083333333, "rental_uris": {"ios": "https://dc.lft.to/lastmile_qr_scan", "android": "https://dc.lft.to/lastmile_qr_scan"}}, {"name": "9757fbb4e426196b41b38eaf3dbfa8a3", "fusion_lat": 0.0, "type": "electric_scooter", "lat": 38.90363816666667, "is_reserved": 0, "is_disabled": 0, "fusion_lon": 0.0, "bike_id": "9757fbb4e426196b41b38eaf3dbfa8a3", "lon": -77.04827683333333, "rental_uris": {"ios": "https://dc.lft.to/lastmile_qr_scan", "android": "https://dc.lft.to/lastmile_qr_scan"}}, {"name": "86c55657d3be77a31c2168d1c2d68cbb", "fusion_lat": 0.0, "type": "electric_scooter", "lat": 38.92372783333333, "is_reserved": 0, "is_disabled": 0, "fusion_lon": 0.0, "bike_id": "86c55657d3be77a31c2168d1c2d68cbb", "lon": -77.0312685, "rental_uris": {"ios": "https://dc.lft.to/lastmile_qr_scan", "android": "https://dc.lft.to/lastmile_qr_scan"}}, {"name": "bfce4639a131c82b440ce3f72fda6807", "fusion_lat": 0.0, "type": "electric_scooter", "lat": 38.9048125, "is_reserved": 0, "is_disabled": 0, "fusion_lon": 0.0, "bike_id": "bfce4639a131c82b440ce3f72fda6807", "lon": -76.9731465, "rental_uris": {"ios": "https://dc.lft.to/lastmile_qr_scan", "android": "https://dc.lft.to/lastmile_qr_scan"}}, {"name": "70262a494291d8ba3f92004ce69b0fd3", "fusion_lat": 0.0, "type": "electric_scooter", "lat": 38.937037, "is_reserved": 0, "is_disabled": 0, "fusion_lon": 0.0, "bike_id": "70262a494291d8ba3f92004ce69b0fd3", "lon": -77.056826, "rental_uris": {"ios": "https://dc.lft.to/lastmile_qr_scan", "android": "https://dc.lft.to/lastmile_qr_scan"}}, {"name": "96ec0b0cb124e39abaea2a193b1b0828", "fusion_lat": 0.0, "type": "electric_scooter", "lat": 38.90945583333333, "is_reserved": 0, "is_disabled": 0, "fusion_lon": 0.0, "bike_id": "96ec0b0cb124e39abaea2a193b1b0828", "lon": -76.9849025, "rental_uris": {"ios": "https://dc.lft.to/lastmile_qr_scan", "android": "https://dc.lft.to/lastmile_qr_scan"}}, {"name": "3620f21f0568504345e0d9cbe9721cb8", "fusion_lat": 0.0, "type": "electric_scooter", "lat": 38.91012, "is_reserved": 0, "is_disabled": 0, "fusion_lon": 0.0, "bike_id": "3620f21f0568504345e0d9cbe9721cb8", "lon": -76.99675833333333, "rental_uris": {"ios": "https://dc.lft.to/lastmile_qr_scan", "android": "https://dc.lft.to/lastmile_qr_scan"}}, {"name": "e99b0052f42667ff7467ae6b31880ab2", "fusion_lat": 0.0, "type": "electric_scooter", "lat": 38.937049333333334, "is_reserved": 0, "is_disabled": 0, "fusion_lon": 0.0, "bike_id": "e99b0052f42667ff7467ae6b31880ab2", "lon": -77.06102466666667, "rental_uris": {"ios": "https://dc.lft.to/lastmile_qr_scan", "android": "https://dc.lft.to/lastmile_qr_scan"}}, {"name": "f42c0606ce7a3d59a2a5ed4f8aa1866b", "fusion_lat": 0.0, "type": "electric_scooter", "lat": 38.90042033333334, "is_reserved": 0, "is_disabled": 0, "fusion_lon": 0.0, "bike_id": "f42c0606ce7a3d59a2a5ed4f8aa1866b", "lon": -77.04844966666667, "rental_uris": {"ios": "https://dc.lft.to/lastmile_qr_scan", "android": "https://dc.lft.to/lastmile_qr_scan"}}, {"name": "e31757d59da44812807fe291dd496ada", "fusion_lat": 0.0, "type": "electric_scooter", "lat": 38.93432933333333, "is_reserved": 0, "is_disabled": 0, "fusion_lon": 0.0, "bike_id": "e31757d59da44812807fe291dd496ada", "lon": -77.0272185, "rental_uris": {"ios": "https://dc.lft.to/lastmile_qr_scan", "android": "https://dc.lft.to/lastmile_qr_scan"}}, {"name": "9dabb112bab506f7882d513cf83d6194", "fusion_lat": 0.0, "type": "electric_bike", "lat": 38.8840325, "is_reserved": 0, "is_disabled": 0, "fusion_lon": 0.0, "bike_id": "9dabb112bab506f7882d513cf83d6194", "lon": -76.96061383333333, "rental_uris": {"ios": "https://dc.lft.to/lastmile_qr_scan", "android": "https://dc.lft.to/lastmile_qr_scan"}}, {"name": "3705c4be3ede83c95a4890cc1126567a", "fusion_lat": 0.0, "type": "electric_scooter", "lat": 38.9004105, "is_reserved": 0, "is_disabled": 0, "fusion_lon": 0.0, "bike_id": "3705c4be3ede83c95a4890cc1126567a", "lon": -76.98839766666667, "rental_uris": {"ios": "https://dc.lft.to/lastmile_qr_scan", "android": "https://dc.lft.to/lastmile_qr_scan"}}, {"name": "7bb5d1a1c4e0824154f4ade095fa1d22", "fusion_lat": 0.0, "type": "electric_scooter", "lat": 38.862455, "is_reserved": 0, "is_disabled": 0, "fusion_lon": 0.0, "bike_id": "7bb5d1a1c4e0824154f4ade095fa1d22", "lon": -76.99497283333334, "rental_uris": {"ios": "https://dc.lft.to/lastmile_qr_scan", "android": "https://dc.lft.to/lastmile_qr_scan"}}, {"name": "4390494fd4c76e3b7f47d1408c8d0421", "fusion_lat": 0.0, "type": "electric_scooter", "lat": 38.8668695, "is_reserved": 0, "is_disabled": 0, "fusion_lon": 0.0, "bike_id": "4390494fd4c76e3b7f47d1408c8d0421", "lon": -76.98905733333334, "rental_uris": {"ios": "https://dc.lft.to/lastmile_qr_scan", "android": "https://dc.lft.to/lastmile_qr_scan"}}, {"name": "e9f842e7f530b2f7caee9411725d80a6", "fusion_lat": 0.0, "type": "electric_bike", "lat": 38.909949166666664, "is_reserved": 0, "is_disabled": 0, "fusion_lon": 0.0, "bike_id": "e9f842e7f530b2f7caee9411725d80a6", "lon": -77.0400885, "rental_uris": {"ios": "https://dc.lft.to/lastmile_qr_scan", "android": "https://dc.lft.to/lastmile_qr_scan"}}, {"name": "2526105f99a3ca10805e69bded1e32f2", "fusion_lat": 0.0, "type": "electric_bike", "lat": 39.0885915, "is_reserved": 0, "is_disabled": 0, "fusion_lon": 0.0, "bike_id": "2526105f99a3ca10805e69bded1e32f2", "lon": -77.17846883333333, "rental_uris": {"ios": "https://dc.lft.to/lastmile_qr_scan", "android": "https://dc.lft.to/lastmile_qr_scan"}}, {"name": "9d3847136d82b0c065676fac50aa5f79", "fusion_lat": 0.0, "type": "electric_bike", "lat": 38.935249, "is_reserved": 0, "is_disabled": 0, "fusion_lon": 0.0, "bike_id": "9d3847136d82b0c065676fac50aa5f79", "lon": -76.95061983333333, "rental_uris": {"ios": "https://dc.lft.to/lastmile_qr_scan", "android": "https://dc.lft.to/lastmile_qr_scan"}}, {"name": "04423ec02807f731ecbcb88d8e981c37", "fusion_lat": 0.0, "type": "electric_scooter", "lat": 38.86537166666667, "is_reserved": 0, "is_disabled": 0, "fusion_lon": 0.0, "bike_id": "04423ec02807f731ecbcb88d8e981c37", "lon": -76.9870495, "rental_uris": {"ios": "https://dc.lft.to/lastmile_qr_scan", "android": "https://dc.lft.to/lastmile_qr_scan"}}, {"name": "f57842474b7c14d450a59dc8fbeaa30c", "fusion_lat": 0.0, "type": "electric_scooter", "lat": 38.90265516666667, "is_reserved": 0, "is_disabled": 0, "fusion_lon": 0.0, "bike_id": "f57842474b7c14d450a59dc8fbeaa30c", "lon": -76.98711616666667, "rental_uris": {"ios": "https://dc.lft.to/lastmile_qr_scan", "android": "https://dc.lft.to/lastmile_qr_scan"}}, {"name": "04a05bedb1168b2b05b458c696ab2833", "fusion_lat": 0.0, "type": "electric_scooter", "lat": 38.90704916666667, "is_reserved": 0, "is_disabled": 0, "fusion_lon": 0.0, "bike_id": "04a05bedb1168b2b05b458c696ab2833", "lon": -77.0296675, "rental_uris": {"ios": "https://dc.lft.to/lastmile_qr_scan", "android": "https://dc.lft.to/lastmile_qr_scan"}}, {"name": "1407004e3cd04ad38c048e532610833f", "fusion_lat": 0.0, "type": "electric_bike", "lat": 39.053192, "is_reserved": 0, "is_disabled": 0, "fusion_lon": 0.0, "bike_id": "1407004e3cd04ad38c048e532610833f", "lon": -77.0477385, "rental_uris": {"ios": "https://dc.lft.to/lastmile_qr_scan", "android": "https://dc.lft.to/lastmile_qr_scan"}}, {"name": "5ee1ba470984ee30065e964cf847afdc", "fusion_lat": 0.0, "type": "electric_bike", "lat": 38.83809633333333, "is_reserved": 0, "is_disabled": 0, "fusion_lon": 0.0, "bike_id": "5ee1ba470984ee30065e964cf847afdc", "lon": -77.09520883333333, "rental_uris": {"ios": "https://dc.lft.to/lastmile_qr_scan", "android": "https://dc.lft.to/lastmile_qr_scan"}}, {"name": "714819f3cf5538a93150ea45bda14d5a", "fusion_lat": 0.0, "type": "electric_scooter", "lat": 38.918225, "is_reserved": 0, "is_disabled": 0, "fusion_lon": 0.0, "bike_id": "714819f3cf5538a93150ea45bda14d5a", "lon": -77.04014233333334, "rental_uris": {"ios": "https://dc.lft.to/lastmile_qr_scan", "android": "https://dc.lft.to/lastmile_qr_scan"}}, {"name": "ff33cf91f356292861d214c0e2cb8aff", "fusion_lat": 0.0, "type": "electric_bike", "lat": 38.973282166666664, "is_reserved": 0, "is_disabled": 0, "fusion_lon": 0.0, "bike_id": "ff33cf91f356292861d214c0e2cb8aff", "lon": -77.02149116666666, "rental_uris": {"ios": "https://dc.lft.to/lastmile_qr_scan", "android": "https://dc.lft.to/lastmile_qr_scan"}}, {"name": "6f39248909b2c6105aa73a204c1d9351", "fusion_lat": 0.0, "type": "electric_scooter", "lat": 38.918056, "is_reserved": 0, "is_disabled": 0, "fusion_lon": 0.0, "bike_id": "6f39248909b2c6105aa73a204c1d9351", "lon": -77.02816733333333, "rental_uris": {"ios": "https://dc.lft.to/lastmile_qr_scan", "android": "https://dc.lft.to/lastmile_qr_scan"}}, {"name": "2ad5cd845c19181f74acd6a1b5b37e35", "fusion_lat": 0.0, "type": "electric_scooter", "lat": 38.93076416666667, "is_reserved": 0, "is_disabled": 0, "fusion_lon": 0.0, "bike_id": "2ad5cd845c19181f74acd6a1b5b37e35", "lon": -77.02405983333334, "rental_uris": {"ios": "https://dc.lft.to/lastmile_qr_scan", "android": "https://dc.lft.to/lastmile_qr_scan"}}, {"name": "742bc9450d1daefb6381fd12bd9040ac", "fusion_lat": 0.0, "type": "electric_scooter", "lat": 38.9342555, "is_reserved": 0, "is_disabled": 0, "fusion_lon": 0.0, "bike_id": "742bc9450d1daefb6381fd12bd9040ac", "lon": -77.04004366666666, "rental_uris": {"ios": "https://dc.lft.to/lastmile_qr_scan", "android": "https://dc.lft.to/lastmile_qr_scan"}}, {"name": "f6695f0ee39eca1ceec0332088003bc0", "fusion_lat": 0.0, "type": "electric_bike", "lat": 38.97072983333333, "is_reserved": 0, "is_disabled": 0, "fusion_lon": 0.0, "bike_id": "f6695f0ee39eca1ceec0332088003bc0", "lon": -76.936078, "rental_uris": {"ios": "https://dc.lft.to/lastmile_qr_scan", "android": "https://dc.lft.to/lastmile_qr_scan"}}, {"name": "4351bf7bcb35f7ea470ed04f643717e5", "fusion_lat": 0.0, "type": "electric_scooter", "lat": 38.874755666666665, "is_reserved": 0, "is_disabled": 0, "fusion_lon": 0.0, "bike_id": "4351bf7bcb35f7ea470ed04f643717e5", "lon": -77.0018195, "rental_uris": {"ios": "https://dc.lft.to/lastmile_qr_scan", "android": "https://dc.lft.to/lastmile_qr_scan"}}, {"name": "2fd3d3eef7d37f79fc05d7af5253ff93", "fusion_lat": 0.0, "type": "electric_bike", "lat": 38.9028585, "is_reserved": 0, "is_disabled": 0, "fusion_lon": 0.0, "bike_id": "2fd3d3eef7d37f79fc05d7af5253ff93", "lon": -76.980915, "rental_uris": {"ios": "https://dc.lft.to/lastmile_qr_scan", "android": "https://dc.lft.to/lastmile_qr_scan"}}, {"name": "0c2726ecfe4f16f43e70749450575feb", "fusion_lat": 0.0, "type": "electric_scooter", "lat": 38.901405833333335, "is_reserved": 0, "is_disabled": 0, "fusion_lon": 0.0, "bike_id": "0c2726ecfe4f16f43e70749450575feb", "lon": -76.9996835, "rental_uris": {"ios": "https://dc.lft.to/lastmile_qr_scan", "android": "https://dc.lft.to/lastmile_qr_scan"}}, {"name": "d5ac710ab81e51bfbae46c8113cb760a", "fusion_lat": 0.0, "type": "electric_scooter", "lat": 38.92112766666666, "is_reserved": 0, "is_disabled": 0, "fusion_lon": 0.0, "bike_id": "d5ac710ab81e51bfbae46c8113cb760a", "lon": -77.04392116666666, "rental_uris": {"ios": "https://dc.lft.to/lastmile_qr_scan", "android": "https://dc.lft.to/lastmile_qr_scan"}}, {"name": "c8019b98b9d19459398b71b35e7071b3", "fusion_lat": 0.0, "type": "electric_scooter", "lat": 38.89828283333333, "is_reserved": 0, "is_disabled": 0, "fusion_lon": 0.0, "bike_id": "c8019b98b9d19459398b71b35e7071b3", "lon": -77.03322933333334, "rental_uris": {"ios": "https://dc.lft.to/lastmile_qr_scan", "android": "https://dc.lft.to/lastmile_qr_scan"}}, {"name": "d382933da75e1d1f63e280a6280d789e", "fusion_lat": 0.0, "type": "electric_scooter", "lat": 38.9054985, "is_reserved": 0, "is_disabled": 0, "fusion_lon": 0.0, "bike_id": "d382933da75e1d1f63e280a6280d789e", "lon": -77.04745866666667, "rental_uris": {"ios": "https://dc.lft.to/lastmile_qr_scan", "android": "https://dc.lft.to/lastmile_qr_scan"}}, {"name": "759691523164de94941d6df112dce89a", "fusion_lat": 0.0, "type": "electric_scooter", "lat": 38.876451333333335, "is_reserved": 0, "is_disabled": 0, "fusion_lon": 0.0, "bike_id": "759691523164de94941d6df112dce89a", "lon": -76.96502616666666, "rental_uris": {"ios": "https://dc.lft.to/lastmile_qr_scan", "android": "https://dc.lft.to/lastmile_qr_scan"}}, {"name": "0ab72b7dc2713520a3e777c497ec4543", "fusion_lat": 0.0, "type": "electric_scooter", "lat": 38.899013333333336, "is_reserved": 0, "is_disabled": 0, "fusion_lon": 0.0, "bike_id": "0ab72b7dc2713520a3e777c497ec4543", "lon": -77.02171566666667, "rental_uris": {"ios": "https://dc.lft.to/lastmile_qr_scan", "android": "https://dc.lft.to/lastmile_qr_scan"}}, {"name": "4301095840091dc138e64cf72b360dbc", "fusion_lat": 0.0, "type": "electric_scooter", "lat": 38.9349595, "is_reserved": 0, "is_disabled": 0, "fusion_lon": 0.0, "bike_id": "4301095840091dc138e64cf72b360dbc", "lon": -77.025375, "rental_uris": {"ios": "https://dc.lft.to/lastmile_qr_scan", "android": "https://dc.lft.to/lastmile_qr_scan"}}, {"name": "6705ab51cab3215eebf34eb531ec3184", "fusion_lat": 0.0, "type": "electric_scooter", "lat": 38.928841166666665, "is_reserved": 0, "is_disabled": 0, "fusion_lon": 0.0, "bike_id": "6705ab51cab3215eebf34eb531ec3184", "lon": -77.03272366666667, "rental_uris": {"ios": "https://dc.lft.to/lastmile_qr_scan", "android": "https://dc.lft.to/lastmile_qr_scan"}}, {"name": "19275250f38708ff824a5159f2794e27", "fusion_lat": 0.0, "type": "electric_scooter", "lat": 38.905, "is_reserved": 0, "is_disabled": 0, "fusion_lon": 0.0, "bike_id": "19275250f38708ff824a5159f2794e27", "lon": -77.04649666666667, "rental_uris": {"ios": "https://dc.lft.to/lastmile_qr_scan", "android": "https://dc.lft.to/lastmile_qr_scan"}}, {"name": "82e8aef721e146bd4bd310738cb3921d", "fusion_lat": 0.0, "type": "electric_scooter", "lat": 38.905588333333334, "is_reserved": 0, "is_disabled": 0, "fusion_lon": 0.0, "bike_id": "82e8aef721e146bd4bd310738cb3921d", "lon": -76.98378466666666, "rental_uris": {"ios": "https://dc.lft.to/lastmile_qr_scan", "android": "https://dc.lft.to/lastmile_qr_scan"}}, {"name": "674e5a36f73bd5f752db695d85a61bdf", "fusion_lat": 0.0, "type": "electric_bike", "lat": 38.915465, "is_reserved": 0, "is_disabled": 0, "fusion_lon": 0.0, "bike_id": "674e5a36f73bd5f752db695d85a61bdf", "lon": -77.067592, "rental_uris": {"ios": "https://dc.lft.to/lastmile_qr_scan", "android": "https://dc.lft.to/lastmile_qr_scan"}}, {"name": "208af6d563ac26f91d81a5a7f25d4f2d", "fusion_lat": 0.0, "type": "electric_scooter", "lat": 38.912470666666664, "is_reserved": 0, "is_disabled": 0, "fusion_lon": 0.0, "bike_id": "208af6d563ac26f91d81a5a7f25d4f2d", "lon": -77.0320475, "rental_uris": {"ios": "https://dc.lft.to/lastmile_qr_scan", "android": "https://dc.lft.to/lastmile_qr_scan"}}, {"name": "9f17099c7e750a48127ec313378909e2", "fusion_lat": 0.0, "type": "electric_scooter", "lat": 38.926275833333335, "is_reserved": 0, "is_disabled": 0, "fusion_lon": 0.0, "bike_id": "9f17099c7e750a48127ec313378909e2", "lon": -77.03790816666667, "rental_uris": {"ios": "https://dc.lft.to/lastmile_qr_scan", "android": "https://dc.lft.to/lastmile_qr_scan"}}, {"name": "22d5467bd6af6f17c47c3883dfe42e20", "fusion_lat": 0.0, "type": "electric_scooter", "lat": 38.916994333333335, "is_reserved": 0, "is_disabled": 0, "fusion_lon": 0.0, "bike_id": "22d5467bd6af6f17c47c3883dfe42e20", "lon": -77.02279616666667, "rental_uris": {"ios": "https://dc.lft.to/lastmile_qr_scan", "android": "https://dc.lft.to/lastmile_qr_scan"}}, {"name": "7325c67d8210a2f039a60177f6cdbaba", "fusion_lat": 0.0, "type": "electric_scooter", "lat": 38.88825766666667, "is_reserved": 0, "is_disabled": 0, "fusion_lon": 0.0, "bike_id": "7325c67d8210a2f039a60177f6cdbaba", "lon": -77.0493875, "rental_uris": {"ios": "https://dc.lft.to/lastmile_qr_scan", "android": "https://dc.lft.to/lastmile_qr_scan"}}, {"name": "2cfde13be1a432eaff11fda45ad74ed3", "fusion_lat": 0.0, "type": "electric_bike", "lat": 38.86374883333333, "is_reserved": 0, "is_disabled": 0, "fusion_lon": 0.0, "bike_id": "2cfde13be1a432eaff11fda45ad74ed3", "lon": -77.12898733333333, "rental_uris": {"ios": "https://dc.lft.to/lastmile_qr_scan", "android": "https://dc.lft.to/lastmile_qr_scan"}}, {"name": "eeaddc39e3de3e63a1f1318117ed074c", "fusion_lat": 0.0, "type": "electric_bike", "lat": 38.927024, "is_reserved": 0, "is_disabled": 0, "fusion_lon": 0.0, "bike_id": "eeaddc39e3de3e63a1f1318117ed074c", "lon": -77.02281616666667, "rental_uris": {"ios": "https://dc.lft.to/lastmile_qr_scan", "android": "https://dc.lft.to/lastmile_qr_scan"}}, {"name": "d1f1c96e132101ec8c9b9f5d2727fced", "fusion_lat": 0.0, "type": "electric_scooter", "lat": 38.910642, "is_reserved": 0, "is_disabled": 0, "fusion_lon": 0.0, "bike_id": "d1f1c96e132101ec8c9b9f5d2727fced", "lon": -77.00851016666667, "rental_uris": {"ios": "https://dc.lft.to/lastmile_qr_scan", "android": "https://dc.lft.to/lastmile_qr_scan"}}, {"name": "3b0f3fc2662e2b7cfa161e590be3338f", "fusion_lat": 0.0, "type": "electric_scooter", "lat": 38.9201915, "is_reserved": 0, "is_disabled": 0, "fusion_lon": 0.0, "bike_id": "3b0f3fc2662e2b7cfa161e590be3338f", "lon": -77.0311885, "rental_uris": {"ios": "https://dc.lft.to/lastmile_qr_scan", "android": "https://dc.lft.to/lastmile_qr_scan"}}, {"name": "48353d2b1be86378c072ce22bb539251", "fusion_lat": 0.0, "type": "electric_bike", "lat": 38.9709095, "is_reserved": 0, "is_disabled": 0, "fusion_lon": 0.0, "bike_id": "48353d2b1be86378c072ce22bb539251", "lon": -77.06961183333334, "rental_uris": {"ios": "https://dc.lft.to/lastmile_qr_scan", "android": "https://dc.lft.to/lastmile_qr_scan"}}, {"name": "ab86264a16db8e2fef7708711ee64c97", "fusion_lat": 0.0, "type": "electric_scooter", "lat": 38.892353166666666, "is_reserved": 0, "is_disabled": 0, "fusion_lon": 0.0, "bike_id": "ab86264a16db8e2fef7708711ee64c97", "lon": -77.015276, "rental_uris": {"ios": "https://dc.lft.to/lastmile_qr_scan", "android": "https://dc.lft.to/lastmile_qr_scan"}}, {"name": "41e83254199849b42652fa5c31e03c88", "fusion_lat": 0.0, "type": "electric_scooter", "lat": 38.9039955, "is_reserved": 0, "is_disabled": 0, "fusion_lon": 0.0, "bike_id": "41e83254199849b42652fa5c31e03c88", "lon": -77.0643, "rental_uris": {"ios": "https://dc.lft.to/lastmile_qr_scan", "android": "https://dc.lft.to/lastmile_qr_scan"}}, {"name": "177c3c325e22fb51e87205f52157ede0", "fusion_lat": 0.0, "type": "electric_scooter", "lat": 38.93269033333333, "is_reserved": 0, "is_disabled": 0, "fusion_lon": 0.0, "bike_id": "177c3c325e22fb51e87205f52157ede0", "lon": -77.03898, "rental_uris": {"ios": "https://dc.lft.to/lastmile_qr_scan", "android": "https://dc.lft.to/lastmile_qr_scan"}}, {"name": "558469d2a6018f13d100fa7681e9f853", "fusion_lat": 0.0, "type": "electric_scooter", "lat": 38.936154333333334, "is_reserved": 0, "is_disabled": 0, "fusion_lon": 0.0, "bike_id": "558469d2a6018f13d100fa7681e9f853", "lon": -77.0321875, "rental_uris": {"ios": "https://dc.lft.to/lastmile_qr_scan", "android": "https://dc.lft.to/lastmile_qr_scan"}}, {"name": "37de4b510d8a23c65f9c5932b8c550e8", "fusion_lat": 0.0, "type": "electric_scooter", "lat": 38.911652333333336, "is_reserved": 0, "is_disabled": 0, "fusion_lon": 0.0, "bike_id": "37de4b510d8a23c65f9c5932b8c550e8", "lon": -77.01125266666666, "rental_uris": {"ios": "https://dc.lft.to/lastmile_qr_scan", "android": "https://dc.lft.to/lastmile_qr_scan"}}, {"name": "199c2495bb5f2b114a9e5bd973a86a57", "fusion_lat": 0.0, "type": "electric_scooter", "lat": 38.931115166666665, "is_reserved": 0, "is_disabled": 0, "fusion_lon": 0.0, "bike_id": "199c2495bb5f2b114a9e5bd973a86a57", "lon": -77.03839333333333, "rental_uris": {"ios": "https://dc.lft.to/lastmile_qr_scan", "android": "https://dc.lft.to/lastmile_qr_scan"}}, {"name": "6481aa2028c5792025abaa57aa6c22a2", "fusion_lat": 0.0, "type": "electric_scooter", "lat": 38.8876425, "is_reserved": 0, "is_disabled": 0, "fusion_lon": 0.0, "bike_id": "6481aa2028c5792025abaa57aa6c22a2", "lon": -76.95600033333334, "rental_uris": {"ios": "https://dc.lft.to/lastmile_qr_scan", "android": "https://dc.lft.to/lastmile_qr_scan"}}, {"name": "a8750831c6ad643854c492e68d9563b6", "fusion_lat": 0.0, "type": "electric_scooter", "lat": 38.9181755, "is_reserved": 0, "is_disabled": 0, "fusion_lon": 0.0, "bike_id": "a8750831c6ad643854c492e68d9563b6", "lon": -77.03209416666667, "rental_uris": {"ios": "https://dc.lft.to/lastmile_qr_scan", "android": "https://dc.lft.to/lastmile_qr_scan"}}, {"name": "83a6981f2dfee2f5022ecdad703247ac", "fusion_lat": 0.0, "type": "electric_scooter", "lat": 38.87808033333334, "is_reserved": 0, "is_disabled": 0, "fusion_lon": 0.0, "bike_id": "83a6981f2dfee2f5022ecdad703247ac", "lon": -77.0176585, "rental_uris": {"ios": "https://dc.lft.to/lastmile_qr_scan", "android": "https://dc.lft.to/lastmile_qr_scan"}}, {"name": "f698c47ffe31ca9fb20d53a6ad57da7b", "fusion_lat": 0.0, "type": "electric_scooter", "lat": 38.903604, "is_reserved": 0, "is_disabled": 0, "fusion_lon": 0.0, "bike_id": "f698c47ffe31ca9fb20d53a6ad57da7b", "lon": -77.00345883333334, "rental_uris": {"ios": "https://dc.lft.to/lastmile_qr_scan", "android": "https://dc.lft.to/lastmile_qr_scan"}}, {"name": "68a3092d7fdc35752b9827bc4014aae5", "fusion_lat": 0.0, "type": "electric_scooter", "lat": 38.92220783333333, "is_reserved": 0, "is_disabled": 0, "fusion_lon": 0.0, "bike_id": "68a3092d7fdc35752b9827bc4014aae5", "lon": -77.02112933333333, "rental_uris": {"ios": "https://dc.lft.to/lastmile_qr_scan", "android": "https://dc.lft.to/lastmile_qr_scan"}}, {"name": "d6e2a88b908dac6813a97e715e6f2929", "fusion_lat": 0.0, "type": "electric_scooter", "lat": 38.91194816666667, "is_reserved": 0, "is_disabled": 0, "fusion_lon": 0.0, "bike_id": "d6e2a88b908dac6813a97e715e6f2929", "lon": -77.032118, "rental_uris": {"ios": "https://dc.lft.to/lastmile_qr_scan", "android": "https://dc.lft.to/lastmile_qr_scan"}}, {"name": "cf81847b4aa1ad3b198ce7bd2756d644", "fusion_lat": 0.0, "type": "electric_scooter", "lat": 38.91796433333333, "is_reserved": 0, "is_disabled": 0, "fusion_lon": 0.0, "bike_id": "cf81847b4aa1ad3b198ce7bd2756d644", "lon": -77.04007566666667, "rental_uris": {"ios": "https://dc.lft.to/lastmile_qr_scan", "android": "https://dc.lft.to/lastmile_qr_scan"}}, {"name": "7b627fc16786ee4c8afc5be627b11023", "fusion_lat": 0.0, "type": "electric_scooter", "lat": 38.906352, "is_reserved": 0, "is_disabled": 0, "fusion_lon": 0.0, "bike_id": "7b627fc16786ee4c8afc5be627b11023", "lon": -77.00984883333334, "rental_uris": {"ios": "https://dc.lft.to/lastmile_qr_scan", "android": "https://dc.lft.to/lastmile_qr_scan"}}, {"name": "ecf2f3f9bf8d4a4b793b058d34101b64", "fusion_lat": 0.0, "type": "electric_scooter", "lat": 38.905609, "is_reserved": 0, "is_disabled": 0, "fusion_lon": 0.0, "bike_id": "ecf2f3f9bf8d4a4b793b058d34101b64", "lon": -77.00599416666667, "rental_uris": {"ios": "https://dc.lft.to/lastmile_qr_scan", "android": "https://dc.lft.to/lastmile_qr_scan"}}, {"name": "b57bd664a233bfeefe35a0100bec2c62", "fusion_lat": 0.0, "type": "electric_scooter", "lat": 38.91490816666666, "is_reserved": 0, "is_disabled": 0, "fusion_lon": 0.0, "bike_id": "b57bd664a233bfeefe35a0100bec2c62", "lon": -77.0749065, "rental_uris": {"ios": "https://dc.lft.to/lastmile_qr_scan", "android": "https://dc.lft.to/lastmile_qr_scan"}}, {"name": "bed6487d337c1d317450f807aa777f69", "fusion_lat": 0.0, "type": "electric_scooter", "lat": 38.8921905, "is_reserved": 0, "is_disabled": 0, "fusion_lon": 0.0, "bike_id": "bed6487d337c1d317450f807aa777f69", "lon": -77.02228533333333, "rental_uris": {"ios": "https://dc.lft.to/lastmile_qr_scan", "android": "https://dc.lft.to/lastmile_qr_scan"}}, {"name": "ef839dff219d5e6e72095209ccc0bee0", "fusion_lat": 0.0, "type": "electric_scooter", "lat": 38.86139266666667, "is_reserved": 0, "is_disabled": 0, "fusion_lon": 0.0, "bike_id": "ef839dff219d5e6e72095209ccc0bee0", "lon": -76.96784116666667, "rental_uris": {"ios": "https://dc.lft.to/lastmile_qr_scan", "android": "https://dc.lft.to/lastmile_qr_scan"}}, {"name": "8cdac8bfacbfb601549babf9770f4c76", "fusion_lat": 0.0, "type": "electric_scooter", "lat": 38.918062666666664, "is_reserved": 0, "is_disabled": 0, "fusion_lon": 0.0, "bike_id": "8cdac8bfacbfb601549babf9770f4c76", "lon": -77.03198366666666, "rental_uris": {"ios": "https://dc.lft.to/lastmile_qr_scan", "android": "https://dc.lft.to/lastmile_qr_scan"}}, {"name": "84efe10cb50bf049d17dcf8aa41aebc2", "fusion_lat": 0.0, "type": "electric_scooter", "lat": 38.905060166666665, "is_reserved": 0, "is_disabled": 0, "fusion_lon": 0.0, "bike_id": "84efe10cb50bf049d17dcf8aa41aebc2", "lon": -77.02952566666667, "rental_uris": {"ios": "https://dc.lft.to/lastmile_qr_scan", "android": "https://dc.lft.to/lastmile_qr_scan"}}, {"name": "de45521b09a82b95f34be52675779cca", "fusion_lat": 0.0, "type": "electric_scooter", "lat": 38.9214505, "is_reserved": 0, "is_disabled": 0, "fusion_lon": 0.0, "bike_id": "de45521b09a82b95f34be52675779cca", "lon": -77.045006, "rental_uris": {"ios": "https://dc.lft.to/lastmile_qr_scan", "android": "https://dc.lft.to/lastmile_qr_scan"}}, {"name": "107d77a747266b9b14ced78309427476", "fusion_lat": 0.0, "type": "electric_scooter", "lat": 38.92378216666667, "is_reserved": 0, "is_disabled": 0, "fusion_lon": 0.0, "bike_id": "107d77a747266b9b14ced78309427476", "lon": -76.99021266666666, "rental_uris": {"ios": "https://dc.lft.to/lastmile_qr_scan", "android": "https://dc.lft.to/lastmile_qr_scan"}}, {"name": "c5bd7b454d3b15a81953d1ec772a0522", "fusion_lat": 0.0, "type": "electric_scooter", "lat": 38.92250116666666, "is_reserved": 0, "is_disabled": 0, "fusion_lon": 0.0, "bike_id": "c5bd7b454d3b15a81953d1ec772a0522", "lon": -77.02807466666667, "rental_uris": {"ios": "https://dc.lft.to/lastmile_qr_scan", "android": "https://dc.lft.to/lastmile_qr_scan"}}, {"name": "ad8c4910c270abe6523b082a459fdb9d", "fusion_lat": 0.0, "type": "electric_bike", "lat": 38.852464, "is_reserved": 0, "is_disabled": 0, "fusion_lon": 0.0, "bike_id": "ad8c4910c270abe6523b082a459fdb9d", "lon": -77.11430033333333, "rental_uris": {"ios": "https://dc.lft.to/lastmile_qr_scan", "android": "https://dc.lft.to/lastmile_qr_scan"}}, {"name": "321fe14c366a984a469fad834a169cb3", "fusion_lat": 0.0, "type": "electric_scooter", "lat": 38.90568016666667, "is_reserved": 0, "is_disabled": 0, "fusion_lon": 0.0, "bike_id": "321fe14c366a984a469fad834a169cb3", "lon": -77.00534666666667, "rental_uris": {"ios": "https://dc.lft.to/lastmile_qr_scan", "android": "https://dc.lft.to/lastmile_qr_scan"}}, {"name": "9d4fb55f7fb9bcaa356e41e8ec8a1c72", "fusion_lat": 0.0, "type": "electric_bike", "lat": 39.08907333333333, "is_reserved": 0, "is_disabled": 0, "fusion_lon": 0.0, "bike_id": "9d4fb55f7fb9bcaa356e41e8ec8a1c72", "lon": -77.17843616666667, "rental_uris": {"ios": "https://dc.lft.to/lastmile_qr_scan", "android": "https://dc.lft.to/lastmile_qr_scan"}}, {"name": "7c0ec4e44253de150f73528b17a0a885", "fusion_lat": 0.0, "type": "electric_bike", "lat": 39.0581195, "is_reserved": 0, "is_disabled": 0, "fusion_lon": 0.0, "bike_id": "7c0ec4e44253de150f73528b17a0a885", "lon": -77.12625766666666, "rental_uris": {"ios": "https://dc.lft.to/lastmile_qr_scan", "android": "https://dc.lft.to/lastmile_qr_scan"}}, {"name": "c6cc21ad970e957ada6891676320343e", "fusion_lat": 0.0, "type": "electric_scooter", "lat": 38.919856, "is_reserved": 0, "is_disabled": 0, "fusion_lon": 0.0, "bike_id": "c6cc21ad970e957ada6891676320343e", "lon": -77.0238725, "rental_uris": {"ios": "https://dc.lft.to/lastmile_qr_scan", "android": "https://dc.lft.to/lastmile_qr_scan"}}, {"name": "b7e13393599c33e499449ed7d8d2f06d", "fusion_lat": 0.0, "type": "electric_scooter", "lat": 38.918016333333334, "is_reserved": 0, "is_disabled": 0, "fusion_lon": 0.0, "bike_id": "b7e13393599c33e499449ed7d8d2f06d", "lon": -77.03998366666667, "rental_uris": {"ios": "https://dc.lft.to/lastmile_qr_scan", "android": "https://dc.lft.to/lastmile_qr_scan"}}, {"name": "5e85d20a17aa5df43505e524de3d84d5", "fusion_lat": 0.0, "type": "electric_bike", "lat": 38.953525166666665, "is_reserved": 0, "is_disabled": 0, "fusion_lon": 0.0, "bike_id": "5e85d20a17aa5df43505e524de3d84d5", "lon": -76.98092783333334, "rental_uris": {"ios": "https://dc.lft.to/lastmile_qr_scan", "android": "https://dc.lft.to/lastmile_qr_scan"}}, {"name": "2c45a408975faba40f7b9c90e95105af", "fusion_lat": 0.0, "type": "electric_bike", "lat": 38.84614666666667, "is_reserved": 0, "is_disabled": 0, "fusion_lon": 0.0, "bike_id": "2c45a408975faba40f7b9c90e95105af", "lon": -76.97827916666667, "rental_uris": {"ios": "https://dc.lft.to/lastmile_qr_scan", "android": "https://dc.lft.to/lastmile_qr_scan"}}, {"name": "139db23bb63e355e02d394602e9d2c28", "fusion_lat": 0.0, "type": "electric_scooter", "lat": 38.92837083333333, "is_reserved": 0, "is_disabled": 0, "fusion_lon": 0.0, "bike_id": "139db23bb63e355e02d394602e9d2c28", "lon": -77.01405416666667, "rental_uris": {"ios": "https://dc.lft.to/lastmile_qr_scan", "android": "https://dc.lft.to/lastmile_qr_scan"}}, {"name": "dd2fd7b7071f4449c18f037cb93fe2bd", "fusion_lat": 0.0, "type": "electric_scooter", "lat": 38.88732383333333, "is_reserved": 0, "is_disabled": 0, "fusion_lon": 0.0, "bike_id": "dd2fd7b7071f4449c18f037cb93fe2bd", "lon": -77.0176425, "rental_uris": {"ios": "https://dc.lft.to/lastmile_qr_scan", "android": "https://dc.lft.to/lastmile_qr_scan"}}, {"name": "fea873d48907cb3f5b9498cfd80d4685", "fusion_lat": 0.0, "type": "electric_scooter", "lat": 38.90131366666667, "is_reserved": 0, "is_disabled": 0, "fusion_lon": 0.0, "bike_id": "fea873d48907cb3f5b9498cfd80d4685", "lon": -77.01810716666667, "rental_uris": {"ios": "https://dc.lft.to/lastmile_qr_scan", "android": "https://dc.lft.to/lastmile_qr_scan"}}, {"name": "275ae1efb25b4534465e658ca6547938", "fusion_lat": 0.0, "type": "electric_scooter", "lat": 38.8626585, "is_reserved": 0, "is_disabled": 0, "fusion_lon": 0.0, "bike_id": "275ae1efb25b4534465e658ca6547938", "lon": -76.987149, "rental_uris": {"ios": "https://dc.lft.to/lastmile_qr_scan", "android": "https://dc.lft.to/lastmile_qr_scan"}}, {"name": "1698863e36a9aa9b13459ac99fafeab0", "fusion_lat": 0.0, "type": "electric_scooter", "lat": 38.93389416666667, "is_reserved": 0, "is_disabled": 0, "fusion_lon": 0.0, "bike_id": "1698863e36a9aa9b13459ac99fafeab0", "lon": -77.07381366666667, "rental_uris": {"ios": "https://dc.lft.to/lastmile_qr_scan", "android": "https://dc.lft.to/lastmile_qr_scan"}}, {"name": "ee2a58ff16098da9d75fae935255e04c", "fusion_lat": 0.0, "type": "electric_scooter", "lat": 38.91699466666667, "is_reserved": 0, "is_disabled": 0, "fusion_lon": 0.0, "bike_id": "ee2a58ff16098da9d75fae935255e04c", "lon": -77.0289635, "rental_uris": {"ios": "https://dc.lft.to/lastmile_qr_scan", "android": "https://dc.lft.to/lastmile_qr_scan"}}, {"name": "b43c12efe7f582e8cd5d19eebbaec4f4", "fusion_lat": 0.0, "type": "electric_bike", "lat": 38.844306333333336, "is_reserved": 0, "is_disabled": 0, "fusion_lon": 0.0, "bike_id": "b43c12efe7f582e8cd5d19eebbaec4f4", "lon": -77.1126355, "rental_uris": {"ios": "https://dc.lft.to/lastmile_qr_scan", "android": "https://dc.lft.to/lastmile_qr_scan"}}, {"name": "246e0c40ff3efb5348cbaba6046dd11f", "fusion_lat": 0.0, "type": "electric_scooter", "lat": 38.894884833333336, "is_reserved": 0, "is_disabled": 0, "fusion_lon": 0.0, "bike_id": "246e0c40ff3efb5348cbaba6046dd11f", "lon": -77.01018216666667, "rental_uris": {"ios": "https://dc.lft.to/lastmile_qr_scan", "android": "https://dc.lft.to/lastmile_qr_scan"}}, {"name": "1d59ef9dcc811a97e38a7048462c2bcd", "fusion_lat": 0.0, "type": "electric_bike", "lat": 38.88617766666667, "is_reserved": 0, "is_disabled": 0, "fusion_lon": 0.0, "bike_id": "1d59ef9dcc811a97e38a7048462c2bcd", "lon": -77.10754533333333, "rental_uris": {"ios": "https://dc.lft.to/lastmile_qr_scan", "android": "https://dc.lft.to/lastmile_qr_scan"}}, {"name": "b2c9453c4a9f1d718cca04aef55bcae3", "fusion_lat": 0.0, "type": "electric_bike", "lat": 39.053465, "is_reserved": 0, "is_disabled": 0, "fusion_lon": 0.0, "bike_id": "b2c9453c4a9f1d718cca04aef55bcae3", "lon": -77.1359485, "rental_uris": {"ios": "https://dc.lft.to/lastmile_qr_scan", "android": "https://dc.lft.to/lastmile_qr_scan"}}, {"name": "19af6e9af6981e9f80a4f146451612c6", "fusion_lat": 0.0, "type": "electric_scooter", "lat": 38.9044505, "is_reserved": 0, "is_disabled": 0, "fusion_lon": 0.0, "bike_id": "19af6e9af6981e9f80a4f146451612c6", "lon": -77.03106866666667, "rental_uris": {"ios": "https://dc.lft.to/lastmile_qr_scan", "android": "https://dc.lft.to/lastmile_qr_scan"}}, {"name": "59172c29a5a012f980e8b2193bcf8e51", "fusion_lat": 0.0, "type": "electric_scooter", "lat": 38.9084245, "is_reserved": 0, "is_disabled": 0, "fusion_lon": 0.0, "bike_id": "59172c29a5a012f980e8b2193bcf8e51", "lon": -77.025968, "rental_uris": {"ios": "https://dc.lft.to/lastmile_qr_scan", "android": "https://dc.lft.to/lastmile_qr_scan"}}, {"name": "90b5ee7440f7712cc21144a9fcfb5c3a", "fusion_lat": 0.0, "type": "electric_scooter", "lat": 38.93520816666667, "is_reserved": 0, "is_disabled": 0, "fusion_lon": 0.0, "bike_id": "90b5ee7440f7712cc21144a9fcfb5c3a", "lon": -77.0284145, "rental_uris": {"ios": "https://dc.lft.to/lastmile_qr_scan", "android": "https://dc.lft.to/lastmile_qr_scan"}}, {"name": "c58859d4f5fb9de76b980e8840637b17", "fusion_lat": 0.0, "type": "electric_scooter", "lat": 38.902428666666665, "is_reserved": 0, "is_disabled": 0, "fusion_lon": 0.0, "bike_id": "c58859d4f5fb9de76b980e8840637b17", "lon": -77.0019835, "rental_uris": {"ios": "https://dc.lft.to/lastmile_qr_scan", "android": "https://dc.lft.to/lastmile_qr_scan"}}, {"name": "0f23a5dfe960c2274bdc71519df46309", "fusion_lat": 0.0, "type": "electric_scooter", "lat": 38.88875866666667, "is_reserved": 0, "is_disabled": 0, "fusion_lon": 0.0, "bike_id": "0f23a5dfe960c2274bdc71519df46309", "lon": -77.04856916666667, "rental_uris": {"ios": "https://dc.lft.to/lastmile_qr_scan", "android": "https://dc.lft.to/lastmile_qr_scan"}}, {"name": "ce6bb8f91516c4bcb192608e9c223f9d", "fusion_lat": 0.0, "type": "electric_scooter", "lat": 38.8953035, "is_reserved": 0, "is_disabled": 0, "fusion_lon": 0.0, "bike_id": "ce6bb8f91516c4bcb192608e9c223f9d", "lon": -77.02380183333334, "rental_uris": {"ios": "https://dc.lft.to/lastmile_qr_scan", "android": "https://dc.lft.to/lastmile_qr_scan"}}, {"name": "e298c7f389d15bc1e19a625c08b1f901", "fusion_lat": 0.0, "type": "electric_scooter", "lat": 38.938977333333334, "is_reserved": 0, "is_disabled": 0, "fusion_lon": 0.0, "bike_id": "e298c7f389d15bc1e19a625c08b1f901", "lon": -77.03283133333333, "rental_uris": {"ios": "https://dc.lft.to/lastmile_qr_scan", "android": "https://dc.lft.to/lastmile_qr_scan"}}, {"name": "611ca59ed7fed26ee552825f02067c3b", "fusion_lat": 0.0, "type": "electric_scooter", "lat": 38.91862733333333, "is_reserved": 0, "is_disabled": 0, "fusion_lon": 0.0, "bike_id": "611ca59ed7fed26ee552825f02067c3b", "lon": -77.01499033333333, "rental_uris": {"ios": "https://dc.lft.to/lastmile_qr_scan", "android": "https://dc.lft.to/lastmile_qr_scan"}}, {"name": "4a6e1087bfc9d8ccca11238f7627506c", "fusion_lat": 0.0, "type": "electric_scooter", "lat": 38.907047166666665, "is_reserved": 0, "is_disabled": 0, "fusion_lon": 0.0, "bike_id": "4a6e1087bfc9d8ccca11238f7627506c", "lon": -76.98694, "rental_uris": {"ios": "https://dc.lft.to/lastmile_qr_scan", "android": "https://dc.lft.to/lastmile_qr_scan"}}, {"name": "f16ba9a431baf159e514892b96570b37", "fusion_lat": 0.0, "type": "electric_scooter", "lat": 38.93415983333333, "is_reserved": 0, "is_disabled": 0, "fusion_lon": 0.0, "bike_id": "f16ba9a431baf159e514892b96570b37", "lon": -77.01967116666667, "rental_uris": {"ios": "https://dc.lft.to/lastmile_qr_scan", "android": "https://dc.lft.to/lastmile_qr_scan"}}, {"name": "8086c7e29a477af4a65b81cce8bbc175", "fusion_lat": 0.0, "type": "electric_scooter", "lat": 38.9210355, "is_reserved": 0, "is_disabled": 0, "fusion_lon": 0.0, "bike_id": "8086c7e29a477af4a65b81cce8bbc175", "lon": -77.04705, "rental_uris": {"ios": "https://dc.lft.to/lastmile_qr_scan", "android": "https://dc.lft.to/lastmile_qr_scan"}}, {"name": "eecba96c2c2a47c442c90aa28835a0d5", "fusion_lat": 0.0, "type": "electric_scooter", "lat": 38.930885333333336, "is_reserved": 0, "is_disabled": 0, "fusion_lon": 0.0, "bike_id": "eecba96c2c2a47c442c90aa28835a0d5", "lon": -77.02401966666666, "rental_uris": {"ios": "https://dc.lft.to/lastmile_qr_scan", "android": "https://dc.lft.to/lastmile_qr_scan"}}, {"name": "078dccf88daa9f5c6a2f2111efc9b744", "fusion_lat": 0.0, "type": "electric_bike", "lat": 38.897742, "is_reserved": 0, "is_disabled": 0, "fusion_lon": 0.0, "bike_id": "078dccf88daa9f5c6a2f2111efc9b744", "lon": -76.9043835, "rental_uris": {"ios": "https://dc.lft.to/lastmile_qr_scan", "android": "https://dc.lft.to/lastmile_qr_scan"}}, {"name": "a62f2de5989254db44a6d51878e916ef", "fusion_lat": 0.0, "type": "electric_scooter", "lat": 38.92893483333334, "is_reserved": 0, "is_disabled": 0, "fusion_lon": 0.0, "bike_id": "a62f2de5989254db44a6d51878e916ef", "lon": -77.03743666666666, "rental_uris": {"ios": "https://dc.lft.to/lastmile_qr_scan", "android": "https://dc.lft.to/lastmile_qr_scan"}}, {"name": "d615bc93cbd3fe37942393a91a2fbde6", "fusion_lat": 0.0, "type": "electric_scooter", "lat": 38.91800216666667, "is_reserved": 0, "is_disabled": 0, "fusion_lon": 0.0, "bike_id": "d615bc93cbd3fe37942393a91a2fbde6", "lon": -77.02816666666666, "rental_uris": {"ios": "https://dc.lft.to/lastmile_qr_scan", "android": "https://dc.lft.to/lastmile_qr_scan"}}, {"name": "c0d989d7811749693d965acf0ac702ec", "fusion_lat": 0.0, "type": "electric_scooter", "lat": 38.915394666666664, "is_reserved": 0, "is_disabled": 0, "fusion_lon": 0.0, "bike_id": "c0d989d7811749693d965acf0ac702ec", "lon": -77.0197395, "rental_uris": {"ios": "https://dc.lft.to/lastmile_qr_scan", "android": "https://dc.lft.to/lastmile_qr_scan"}}, {"name": "7d2e99a8d28c5be197ac70aa2d519ba7", "fusion_lat": 0.0, "type": "electric_scooter", "lat": 38.898836, "is_reserved": 0, "is_disabled": 0, "fusion_lon": 0.0, "bike_id": "7d2e99a8d28c5be197ac70aa2d519ba7", "lon": -76.9316735, "rental_uris": {"ios": "https://dc.lft.to/lastmile_qr_scan", "android": "https://dc.lft.to/lastmile_qr_scan"}}, {"name": "818892cb4a3b573e2302346e7568fe25", "fusion_lat": 0.0, "type": "electric_scooter", "lat": 38.9052505, "is_reserved": 0, "is_disabled": 0, "fusion_lon": 0.0, "bike_id": "818892cb4a3b573e2302346e7568fe25", "lon": -77.05005416666667, "rental_uris": {"ios": "https://dc.lft.to/lastmile_qr_scan", "android": "https://dc.lft.to/lastmile_qr_scan"}}, {"name": "69d9211a9585ba251f2859c2807eeebd", "fusion_lat": 0.0, "type": "electric_scooter", "lat": 38.933971166666666, "is_reserved": 0, "is_disabled": 0, "fusion_lon": 0.0, "bike_id": "69d9211a9585ba251f2859c2807eeebd", "lon": -77.03156333333334, "rental_uris": {"ios": "https://dc.lft.to/lastmile_qr_scan", "android": "https://dc.lft.to/lastmile_qr_scan"}}, {"name": "0745fe0ee2dad58889aceebefc23b27d", "fusion_lat": 0.0, "type": "electric_scooter", "lat": 38.87878166666667, "is_reserved": 0, "is_disabled": 0, "fusion_lon": 0.0, "bike_id": "0745fe0ee2dad58889aceebefc23b27d", "lon": -76.96547216666667, "rental_uris": {"ios": "https://dc.lft.to/lastmile_qr_scan", "android": "https://dc.lft.to/lastmile_qr_scan"}}, {"name": "226ec7e3d3e74e6cfd75824b5ba10e76", "fusion_lat": 0.0, "type": "electric_scooter", "lat": 38.926569666666666, "is_reserved": 0, "is_disabled": 0, "fusion_lon": 0.0, "bike_id": "226ec7e3d3e74e6cfd75824b5ba10e76", "lon": -77.02435516666667, "rental_uris": {"ios": "https://dc.lft.to/lastmile_qr_scan", "android": "https://dc.lft.to/lastmile_qr_scan"}}, {"name": "efa784be5a634dee2693532b6ae55657", "fusion_lat": 0.0, "type": "electric_scooter", "lat": 38.920349, "is_reserved": 0, "is_disabled": 0, "fusion_lon": 0.0, "bike_id": "efa784be5a634dee2693532b6ae55657", "lon": -77.02582066666666, "rental_uris": {"ios": "https://dc.lft.to/lastmile_qr_scan", "android": "https://dc.lft.to/lastmile_qr_scan"}}, {"name": "636feab1d6962e803eae764544157218", "fusion_lat": 0.0, "type": "electric_scooter", "lat": 38.917904666666665, "is_reserved": 0, "is_disabled": 0, "fusion_lon": 0.0, "bike_id": "636feab1d6962e803eae764544157218", "lon": -77.03193833333333, "rental_uris": {"ios": "https://dc.lft.to/lastmile_qr_scan", "android": "https://dc.lft.to/lastmile_qr_scan"}}, {"name": "6dcc9531b241b7f734a7dd2146a4ac40", "fusion_lat": 0.0, "type": "electric_scooter", "lat": 38.9057015, "is_reserved": 0, "is_disabled": 0, "fusion_lon": 0.0, "bike_id": "6dcc9531b241b7f734a7dd2146a4ac40", "lon": -77.021903, "rental_uris": {"ios": "https://dc.lft.to/lastmile_qr_scan", "android": "https://dc.lft.to/lastmile_qr_scan"}}, {"name": "df38ff13559366942ad6d44aaca03792", "fusion_lat": 0.0, "type": "electric_scooter", "lat": 38.935951, "is_reserved": 0, "is_disabled": 0, "fusion_lon": 0.0, "bike_id": "df38ff13559366942ad6d44aaca03792", "lon": -77.05634033333334, "rental_uris": {"ios": "https://dc.lft.to/lastmile_qr_scan", "android": "https://dc.lft.to/lastmile_qr_scan"}}, {"name": "8dc15b83b93013d4408adc07db4cea2e", "fusion_lat": 0.0, "type": "electric_scooter", "lat": 38.92358616666667, "is_reserved": 0, "is_disabled": 0, "fusion_lon": 0.0, "bike_id": "8dc15b83b93013d4408adc07db4cea2e", "lon": -77.05059833333334, "rental_uris": {"ios": "https://dc.lft.to/lastmile_qr_scan", "android": "https://dc.lft.to/lastmile_qr_scan"}}, {"name": "545be90ee52dd867ed4ceb1928bd4452", "fusion_lat": 0.0, "type": "electric_bike", "lat": 38.93959666666667, "is_reserved": 0, "is_disabled": 0, "fusion_lon": 0.0, "bike_id": "545be90ee52dd867ed4ceb1928bd4452", "lon": -77.36098083333333, "rental_uris": {"ios": "https://dc.lft.to/lastmile_qr_scan", "android": "https://dc.lft.to/lastmile_qr_scan"}}, {"name": "f0484cf368f8ef2676cd8782ec56cd2b", "fusion_lat": 0.0, "type": "electric_scooter", "lat": 38.90969583333333, "is_reserved": 0, "is_disabled": 0, "fusion_lon": 0.0, "bike_id": "f0484cf368f8ef2676cd8782ec56cd2b", "lon": -77.021718, "rental_uris": {"ios": "https://dc.lft.to/lastmile_qr_scan", "android": "https://dc.lft.to/lastmile_qr_scan"}}, {"name": "9a8b81f2dae84457eac57fb8de2222b8", "fusion_lat": 0.0, "type": "electric_scooter", "lat": 38.878099666666664, "is_reserved": 0, "is_disabled": 0, "fusion_lon": 0.0, "bike_id": "9a8b81f2dae84457eac57fb8de2222b8", "lon": -77.00542666666666, "rental_uris": {"ios": "https://dc.lft.to/lastmile_qr_scan", "android": "https://dc.lft.to/lastmile_qr_scan"}}, {"name": "e206d0325ab718696542f94a33bb9237", "fusion_lat": 0.0, "type": "electric_scooter", "lat": 38.92975533333333, "is_reserved": 0, "is_disabled": 0, "fusion_lon": 0.0, "bike_id": "e206d0325ab718696542f94a33bb9237", "lon": -77.02792383333333, "rental_uris": {"ios": "https://dc.lft.to/lastmile_qr_scan", "android": "https://dc.lft.to/lastmile_qr_scan"}}, {"name": "99f968ab4f396b338bf2c06353d469dc", "fusion_lat": 0.0, "type": "electric_bike", "lat": 38.845963, "is_reserved": 0, "is_disabled": 0, "fusion_lon": 0.0, "bike_id": "99f968ab4f396b338bf2c06353d469dc", "lon": -76.96877466666666, "rental_uris": {"ios": "https://dc.lft.to/lastmile_qr_scan", "android": "https://dc.lft.to/lastmile_qr_scan"}}, {"name": "8d77871373e5831fc8cc2a7341954449", "fusion_lat": 0.0, "type": "electric_scooter", "lat": 38.899919, "is_reserved": 0, "is_disabled": 0, "fusion_lon": 0.0, "bike_id": "8d77871373e5831fc8cc2a7341954449", "lon": -77.0556605, "rental_uris": {"ios": "https://dc.lft.to/lastmile_qr_scan", "android": "https://dc.lft.to/lastmile_qr_scan"}}, {"name": "c674f5160d7c60b611ecf018c9b5ab01", "fusion_lat": 0.0, "type": "electric_scooter", "lat": 38.913275, "is_reserved": 0, "is_disabled": 0, "fusion_lon": 0.0, "bike_id": "c674f5160d7c60b611ecf018c9b5ab01", "lon": -77.03190783333334, "rental_uris": {"ios": "https://dc.lft.to/lastmile_qr_scan", "android": "https://dc.lft.to/lastmile_qr_scan"}}, {"name": "dea7aaf17f7fdb881e9e1f006a03cf89", "fusion_lat": 0.0, "type": "electric_scooter", "lat": 38.87687533333333, "is_reserved": 0, "is_disabled": 0, "fusion_lon": 0.0, "bike_id": "dea7aaf17f7fdb881e9e1f006a03cf89", "lon": -77.0175705, "rental_uris": {"ios": "https://dc.lft.to/lastmile_qr_scan", "android": "https://dc.lft.to/lastmile_qr_scan"}}, {"name": "e2fa5a1ba97dc60b10ed1174eef722fc", "fusion_lat": 0.0, "type": "electric_bike", "lat": 38.92691333333333, "is_reserved": 0, "is_disabled": 0, "fusion_lon": 0.0, "bike_id": "e2fa5a1ba97dc60b10ed1174eef722fc", "lon": -77.00782283333334, "rental_uris": {"ios": "https://dc.lft.to/lastmile_qr_scan", "android": "https://dc.lft.to/lastmile_qr_scan"}}, {"name": "5b1dd51e9c9f9bd5462e6ad06133ab7e", "fusion_lat": 0.0, "type": "electric_scooter", "lat": 38.91488016666667, "is_reserved": 0, "is_disabled": 0, "fusion_lon": 0.0, "bike_id": "5b1dd51e9c9f9bd5462e6ad06133ab7e", "lon": -77.04091883333334, "rental_uris": {"ios": "https://dc.lft.to/lastmile_qr_scan", "android": "https://dc.lft.to/lastmile_qr_scan"}}, {"name": "d1a909513ad1d59137225e2ca8eab6a4", "fusion_lat": 0.0, "type": "electric_scooter", "lat": 38.899288, "is_reserved": 0, "is_disabled": 0, "fusion_lon": 0.0, "bike_id": "d1a909513ad1d59137225e2ca8eab6a4", "lon": -77.03372966666667, "rental_uris": {"ios": "https://dc.lft.to/lastmile_qr_scan", "android": "https://dc.lft.to/lastmile_qr_scan"}}, {"name": "7665286b6bb97622384bd4d275ff5135", "fusion_lat": 0.0, "type": "electric_scooter", "lat": 38.900226833333335, "is_reserved": 0, "is_disabled": 0, "fusion_lon": 0.0, "bike_id": "7665286b6bb97622384bd4d275ff5135", "lon": -77.05324233333333, "rental_uris": {"ios": "https://dc.lft.to/lastmile_qr_scan", "android": "https://dc.lft.to/lastmile_qr_scan"}}, {"name": "efa5edd678cd82bfec8a4f0b38983b79", "fusion_lat": 0.0, "type": "electric_bike", "lat": 38.87752016666666, "is_reserved": 0, "is_disabled": 0, "fusion_lon": 0.0, "bike_id": "efa5edd678cd82bfec8a4f0b38983b79", "lon": -76.979832, "rental_uris": {"ios": "https://dc.lft.to/lastmile_qr_scan", "android": "https://dc.lft.to/lastmile_qr_scan"}}, {"name": "8cdbc7a9dfadc0946f47d52251f86f03", "fusion_lat": 0.0, "type": "electric_scooter", "lat": 38.9155195, "is_reserved": 0, "is_disabled": 0, "fusion_lon": 0.0, "bike_id": "8cdbc7a9dfadc0946f47d52251f86f03", "lon": -77.03203883333333, "rental_uris": {"ios": "https://dc.lft.to/lastmile_qr_scan", "android": "https://dc.lft.to/lastmile_qr_scan"}}, {"name": "7346440055521cd40b5c805ab9fff336", "fusion_lat": 0.0, "type": "electric_bike", "lat": 38.959274666666666, "is_reserved": 0, "is_disabled": 0, "fusion_lon": 0.0, "bike_id": "7346440055521cd40b5c805ab9fff336", "lon": -76.92536516666667, "rental_uris": {"ios": "https://dc.lft.to/lastmile_qr_scan", "android": "https://dc.lft.to/lastmile_qr_scan"}}, {"name": "19ee88fe54720aa322fa3be0a38ef2a2", "fusion_lat": 0.0, "type": "electric_scooter", "lat": 38.928242166666664, "is_reserved": 0, "is_disabled": 0, "fusion_lon": 0.0, "bike_id": "19ee88fe54720aa322fa3be0a38ef2a2", "lon": -77.02259533333333, "rental_uris": {"ios": "https://dc.lft.to/lastmile_qr_scan", "android": "https://dc.lft.to/lastmile_qr_scan"}}, {"name": "69c755b2dee3e7c5d57a8cdd749852f2", "fusion_lat": 0.0, "type": "electric_scooter", "lat": 38.89840933333333, "is_reserved": 0, "is_disabled": 0, "fusion_lon": 0.0, "bike_id": "69c755b2dee3e7c5d57a8cdd749852f2", "lon": -77.019914, "rental_uris": {"ios": "https://dc.lft.to/lastmile_qr_scan", "android": "https://dc.lft.to/lastmile_qr_scan"}}, {"name": "c0ae63e3ffe8746540fa543874079838", "fusion_lat": 0.0, "type": "electric_scooter", "lat": 38.93527066666667, "is_reserved": 0, "is_disabled": 0, "fusion_lon": 0.0, "bike_id": "c0ae63e3ffe8746540fa543874079838", "lon": -77.03263883333334, "rental_uris": {"ios": "https://dc.lft.to/lastmile_qr_scan", "android": "https://dc.lft.to/lastmile_qr_scan"}}, {"name": "ac896fd280ec6ab6b5822ed916e69c53", "fusion_lat": 0.0, "type": "electric_scooter", "lat": 38.9301165, "is_reserved": 0, "is_disabled": 0, "fusion_lon": 0.0, "bike_id": "ac896fd280ec6ab6b5822ed916e69c53", "lon": -77.03778783333334, "rental_uris": {"ios": "https://dc.lft.to/lastmile_qr_scan", "android": "https://dc.lft.to/lastmile_qr_scan"}}, {"name": "ab2e63ccd04e8154d0c94bce7e8bcf6c", "fusion_lat": 0.0, "type": "electric_scooter", "lat": 38.85870516666667, "is_reserved": 0, "is_disabled": 0, "fusion_lon": 0.0, "bike_id": "ab2e63ccd04e8154d0c94bce7e8bcf6c", "lon": -76.9903275, "rental_uris": {"ios": "https://dc.lft.to/lastmile_qr_scan", "android": "https://dc.lft.to/lastmile_qr_scan"}}, {"name": "f6f42318fb9ce2985b57e71daf7a476e", "fusion_lat": 0.0, "type": "electric_scooter", "lat": 38.925775, "is_reserved": 0, "is_disabled": 0, "fusion_lon": 0.0, "bike_id": "f6f42318fb9ce2985b57e71daf7a476e", "lon": -77.02597016666667, "rental_uris": {"ios": "https://dc.lft.to/lastmile_qr_scan", "android": "https://dc.lft.to/lastmile_qr_scan"}}, {"name": "1bc8c04002fd196012eb6bf91c432b96", "fusion_lat": 0.0, "type": "electric_scooter", "lat": 38.96560866666667, "is_reserved": 0, "is_disabled": 0, "fusion_lon": 0.0, "bike_id": "1bc8c04002fd196012eb6bf91c432b96", "lon": -77.01622166666667, "rental_uris": {"ios": "https://dc.lft.to/lastmile_qr_scan", "android": "https://dc.lft.to/lastmile_qr_scan"}}, {"name": "37ec96d202b3c7c356d91a708e2fd306", "fusion_lat": 0.0, "type": "electric_scooter", "lat": 38.909667, "is_reserved": 0, "is_disabled": 0, "fusion_lon": 0.0, "bike_id": "37ec96d202b3c7c356d91a708e2fd306", "lon": -77.01715716666666, "rental_uris": {"ios": "https://dc.lft.to/lastmile_qr_scan", "android": "https://dc.lft.to/lastmile_qr_scan"}}, {"name": "43879201f4ab957aeb450ae54309b13e", "fusion_lat": 0.0, "type": "electric_scooter", "lat": 38.90581366666667, "is_reserved": 0, "is_disabled": 0, "fusion_lon": 0.0, "bike_id": "43879201f4ab957aeb450ae54309b13e", "lon": -77.04871833333333, "rental_uris": {"ios": "https://dc.lft.to/lastmile_qr_scan", "android": "https://dc.lft.to/lastmile_qr_scan"}}, {"name": "d7eacb99fccf5178446d528976b1e11d", "fusion_lat": 0.0, "type": "electric_bike", "lat": 38.913072666666665, "is_reserved": 0, "is_disabled": 0, "fusion_lon": 0.0, "bike_id": "d7eacb99fccf5178446d528976b1e11d", "lon": -76.97610366666666, "rental_uris": {"ios": "https://dc.lft.to/lastmile_qr_scan", "android": "https://dc.lft.to/lastmile_qr_scan"}}, {"name": "9e28bfbf887c3090b41f48b90bcdf423", "fusion_lat": 0.0, "type": "electric_scooter", "lat": 38.938740833333334, "is_reserved": 0, "is_disabled": 0, "fusion_lon": 0.0, "bike_id": "9e28bfbf887c3090b41f48b90bcdf423", "lon": -77.03263033333333, "rental_uris": {"ios": "https://dc.lft.to/lastmile_qr_scan", "android": "https://dc.lft.to/lastmile_qr_scan"}}, {"name": "8c2cacc0806874d6e845a7dceb47a4ee", "fusion_lat": 0.0, "type": "electric_scooter", "lat": 38.876319, "is_reserved": 0, "is_disabled": 0, "fusion_lon": 0.0, "bike_id": "8c2cacc0806874d6e845a7dceb47a4ee", "lon": -77.008396, "rental_uris": {"ios": "https://dc.lft.to/lastmile_qr_scan", "android": "https://dc.lft.to/lastmile_qr_scan"}}, {"name": "a83665fa9f05435c4439dd87087539b7", "fusion_lat": 0.0, "type": "electric_scooter", "lat": 38.961802166666665, "is_reserved": 0, "is_disabled": 0, "fusion_lon": 0.0, "bike_id": "a83665fa9f05435c4439dd87087539b7", "lon": -77.03228533333333, "rental_uris": {"ios": "https://dc.lft.to/lastmile_qr_scan", "android": "https://dc.lft.to/lastmile_qr_scan"}}, {"name": "cf3627d4e390dcf813a4984f71b381a0", "fusion_lat": 0.0, "type": "electric_bike", "lat": 38.861626333333334, "is_reserved": 0, "is_disabled": 0, "fusion_lon": 0.0, "bike_id": "cf3627d4e390dcf813a4984f71b381a0", "lon": -77.13090783333334, "rental_uris": {"ios": "https://dc.lft.to/lastmile_qr_scan", "android": "https://dc.lft.to/lastmile_qr_scan"}}, {"name": "4bb55cb3a6abfa770d6415e18f29c59c", "fusion_lat": 0.0, "type": "electric_scooter", "lat": 38.888379666666665, "is_reserved": 0, "is_disabled": 0, "fusion_lon": 0.0, "bike_id": "4bb55cb3a6abfa770d6415e18f29c59c", "lon": -77.04907883333334, "rental_uris": {"ios": "https://dc.lft.to/lastmile_qr_scan", "android": "https://dc.lft.to/lastmile_qr_scan"}}, {"name": "5eec26c181c62bc75e02a742b3ba8049", "fusion_lat": 0.0, "type": "electric_bike", "lat": 38.967642, "is_reserved": 0, "is_disabled": 0, "fusion_lon": 0.0, "bike_id": "5eec26c181c62bc75e02a742b3ba8049", "lon": -77.09160166666666, "rental_uris": {"ios": "https://dc.lft.to/lastmile_qr_scan", "android": "https://dc.lft.to/lastmile_qr_scan"}}, {"name": "b347665e87a440403db9ed63ad282475", "fusion_lat": 0.0, "type": "electric_scooter", "lat": 38.883383333333335, "is_reserved": 0, "is_disabled": 0, "fusion_lon": 0.0, "bike_id": "b347665e87a440403db9ed63ad282475", "lon": -77.02317466666666, "rental_uris": {"ios": "https://dc.lft.to/lastmile_qr_scan", "android": "https://dc.lft.to/lastmile_qr_scan"}}, {"name": "13f6104e074491092374da609f01d50b", "fusion_lat": 0.0, "type": "electric_scooter", "lat": 38.905632833333335, "is_reserved": 0, "is_disabled": 0, "fusion_lon": 0.0, "bike_id": "13f6104e074491092374da609f01d50b", "lon": -77.01813216666666, "rental_uris": {"ios": "https://dc.lft.to/lastmile_qr_scan", "android": "https://dc.lft.to/lastmile_qr_scan"}}, {"name": "bfbea06e1c555c7253d85186dbec472e", "fusion_lat": 0.0, "type": "electric_scooter", "lat": 38.909635, "is_reserved": 0, "is_disabled": 0, "fusion_lon": 0.0, "bike_id": "bfbea06e1c555c7253d85186dbec472e", "lon": -77.02737183333333, "rental_uris": {"ios": "https://dc.lft.to/lastmile_qr_scan", "android": "https://dc.lft.to/lastmile_qr_scan"}}, {"name": "e461827d011e0e0c12eba4134eb35d5d", "fusion_lat": 0.0, "type": "electric_scooter", "lat": 38.90237716666667, "is_reserved": 0, "is_disabled": 0, "fusion_lon": 0.0, "bike_id": "e461827d011e0e0c12eba4134eb35d5d", "lon": -76.9741185, "rental_uris": {"ios": "https://dc.lft.to/lastmile_qr_scan", "android": "https://dc.lft.to/lastmile_qr_scan"}}, {"name": "ba32ada95c6518a7e51880ee8f27ba7f", "fusion_lat": 0.0, "type": "electric_scooter", "lat": 38.90141083333334, "is_reserved": 0, "is_disabled": 0, "fusion_lon": 0.0, "bike_id": "ba32ada95c6518a7e51880ee8f27ba7f", "lon": -77.03948633333333, "rental_uris": {"ios": "https://dc.lft.to/lastmile_qr_scan", "android": "https://dc.lft.to/lastmile_qr_scan"}}, {"name": "1c28399a360e75abb8adb2835a9d9269", "fusion_lat": 0.0, "type": "electric_bike", "lat": 38.90853583333333, "is_reserved": 0, "is_disabled": 0, "fusion_lon": 0.0, "bike_id": "1c28399a360e75abb8adb2835a9d9269", "lon": -77.04039433333334, "rental_uris": {"ios": "https://dc.lft.to/lastmile_qr_scan", "android": "https://dc.lft.to/lastmile_qr_scan"}}, {"name": "bdca8717c17c119df429099f66fe2f98", "fusion_lat": 0.0, "type": "electric_scooter", "lat": 38.9218175, "is_reserved": 0, "is_disabled": 0, "fusion_lon": 0.0, "bike_id": "bdca8717c17c119df429099f66fe2f98", "lon": -77.02666366666666, "rental_uris": {"ios": "https://dc.lft.to/lastmile_qr_scan", "android": "https://dc.lft.to/lastmile_qr_scan"}}, {"name": "ed03aa9036c4c27c4ac856080014f89b", "fusion_lat": 0.0, "type": "electric_scooter", "lat": 38.91736066666667, "is_reserved": 0, "is_disabled": 0, "fusion_lon": 0.0, "bike_id": "ed03aa9036c4c27c4ac856080014f89b", "lon": -77.03636983333334, "rental_uris": {"ios": "https://dc.lft.to/lastmile_qr_scan", "android": "https://dc.lft.to/lastmile_qr_scan"}}, {"name": "41c992d54d6e163949d217bfe4d67c45", "fusion_lat": 0.0, "type": "electric_scooter", "lat": 38.914054166666666, "is_reserved": 0, "is_disabled": 0, "fusion_lon": 0.0, "bike_id": "41c992d54d6e163949d217bfe4d67c45", "lon": -77.00807033333334, "rental_uris": {"ios": "https://dc.lft.to/lastmile_qr_scan", "android": "https://dc.lft.to/lastmile_qr_scan"}}, {"name": "f72f6ba13dffa0c7baefbe63075a572e", "fusion_lat": 0.0, "type": "electric_scooter", "lat": 38.9133985, "is_reserved": 0, "is_disabled": 0, "fusion_lon": 0.0, "bike_id": "f72f6ba13dffa0c7baefbe63075a572e", "lon": -77.00230916666666, "rental_uris": {"ios": "https://dc.lft.to/lastmile_qr_scan", "android": "https://dc.lft.to/lastmile_qr_scan"}}, {"name": "4ed57a878104b696a980f5322e3a1acd", "fusion_lat": 0.0, "type": "electric_scooter", "lat": 38.909608, "is_reserved": 0, "is_disabled": 0, "fusion_lon": 0.0, "bike_id": "4ed57a878104b696a980f5322e3a1acd", "lon": -77.03163666666667, "rental_uris": {"ios": "https://dc.lft.to/lastmile_qr_scan", "android": "https://dc.lft.to/lastmile_qr_scan"}}, {"name": "4435c08bb9f7702e77d1d4d4a843d25a", "fusion_lat": 0.0, "type": "electric_bike", "lat": 38.8105115, "is_reserved": 0, "is_disabled": 0, "fusion_lon": 0.0, "bike_id": "4435c08bb9f7702e77d1d4d4a843d25a", "lon": -77.08507616666667, "rental_uris": {"ios": "https://dc.lft.to/lastmile_qr_scan", "android": "https://dc.lft.to/lastmile_qr_scan"}}, {"name": "69bbb1ac93f31844c28029c1e1441e5a", "fusion_lat": 0.0, "type": "electric_scooter", "lat": 38.89577116666667, "is_reserved": 0, "is_disabled": 0, "fusion_lon": 0.0, "bike_id": "69bbb1ac93f31844c28029c1e1441e5a", "lon": -76.981808, "rental_uris": {"ios": "https://dc.lft.to/lastmile_qr_scan", "android": "https://dc.lft.to/lastmile_qr_scan"}}, {"name": "fc4bf04f863231646bf9940058c10774", "fusion_lat": 0.0, "type": "electric_scooter", "lat": 38.917539833333336, "is_reserved": 0, "is_disabled": 0, "fusion_lon": 0.0, "bike_id": "fc4bf04f863231646bf9940058c10774", "lon": -77.03181416666666, "rental_uris": {"ios": "https://dc.lft.to/lastmile_qr_scan", "android": "https://dc.lft.to/lastmile_qr_scan"}}, {"name": "e73d43f93ef411f3ad0e5d524047086d", "fusion_lat": 0.0, "type": "electric_scooter", "lat": 38.93750933333333, "is_reserved": 0, "is_disabled": 0, "fusion_lon": 0.0, "bike_id": "e73d43f93ef411f3ad0e5d524047086d", "lon": -77.02483883333333, "rental_uris": {"ios": "https://dc.lft.to/lastmile_qr_scan", "android": "https://dc.lft.to/lastmile_qr_scan"}}, {"name": "639c7ad4a62ec51d3ebace97b73f4f4f", "fusion_lat": 0.0, "type": "electric_scooter", "lat": 38.892287, "is_reserved": 0, "is_disabled": 0, "fusion_lon": 0.0, "bike_id": "639c7ad4a62ec51d3ebace97b73f4f4f", "lon": -77.049993, "rental_uris": {"ios": "https://dc.lft.to/lastmile_qr_scan", "android": "https://dc.lft.to/lastmile_qr_scan"}}, {"name": "7526a65d974d8df278c28384c673a711", "fusion_lat": 0.0, "type": "electric_scooter", "lat": 38.9125535, "is_reserved": 0, "is_disabled": 0, "fusion_lon": 0.0, "bike_id": "7526a65d974d8df278c28384c673a711", "lon": -77.00773716666667, "rental_uris": {"ios": "https://dc.lft.to/lastmile_qr_scan", "android": "https://dc.lft.to/lastmile_qr_scan"}}, {"name": "2ab1cc2bdf76589d72fffabd3585a566", "fusion_lat": 0.0, "type": "electric_bike", "lat": 38.854276166666665, "is_reserved": 0, "is_disabled": 0, "fusion_lon": 0.0, "bike_id": "2ab1cc2bdf76589d72fffabd3585a566", "lon": -76.9096285, "rental_uris": {"ios": "https://dc.lft.to/lastmile_qr_scan", "android": "https://dc.lft.to/lastmile_qr_scan"}}, {"name": "6850e07e52a7255b83813303234212d4", "fusion_lat": 0.0, "type": "electric_scooter", "lat": 38.92054683333333, "is_reserved": 0, "is_disabled": 0, "fusion_lon": 0.0, "bike_id": "6850e07e52a7255b83813303234212d4", "lon": -77.02466066666666, "rental_uris": {"ios": "https://dc.lft.to/lastmile_qr_scan", "android": "https://dc.lft.to/lastmile_qr_scan"}}, {"name": "4cb5e4770379f41f276509a6cece1567", "fusion_lat": 0.0, "type": "electric_scooter", "lat": 38.92119316666667, "is_reserved": 0, "is_disabled": 0, "fusion_lon": 0.0, "bike_id": "4cb5e4770379f41f276509a6cece1567", "lon": -77.01311966666667, "rental_uris": {"ios": "https://dc.lft.to/lastmile_qr_scan", "android": "https://dc.lft.to/lastmile_qr_scan"}}, {"name": "080d36918e8c4740c5f04388eeca3d10", "fusion_lat": 0.0, "type": "electric_scooter", "lat": 38.939302166666664, "is_reserved": 0, "is_disabled": 0, "fusion_lon": 0.0, "bike_id": "080d36918e8c4740c5f04388eeca3d10", "lon": -77.036878, "rental_uris": {"ios": "https://dc.lft.to/lastmile_qr_scan", "android": "https://dc.lft.to/lastmile_qr_scan"}}, {"name": "b0a0175a5b5ab4657207a4b415a3cda6", "fusion_lat": 0.0, "type": "electric_scooter", "lat": 38.90075616666667, "is_reserved": 0, "is_disabled": 0, "fusion_lon": 0.0, "bike_id": "b0a0175a5b5ab4657207a4b415a3cda6", "lon": -77.05193666666666, "rental_uris": {"ios": "https://dc.lft.to/lastmile_qr_scan", "android": "https://dc.lft.to/lastmile_qr_scan"}}, {"name": "3fbd71dbf29b51d56b80ead9fb3d8230", "fusion_lat": 0.0, "type": "electric_scooter", "lat": 38.895266166666666, "is_reserved": 0, "is_disabled": 0, "fusion_lon": 0.0, "bike_id": "3fbd71dbf29b51d56b80ead9fb3d8230", "lon": -76.94890233333334, "rental_uris": {"ios": "https://dc.lft.to/lastmile_qr_scan", "android": "https://dc.lft.to/lastmile_qr_scan"}}, {"name": "22a0d99f8cdcb07dae87488e99d2471a", "fusion_lat": 0.0, "type": "electric_scooter", "lat": 38.92432766666667, "is_reserved": 0, "is_disabled": 0, "fusion_lon": 0.0, "bike_id": "22a0d99f8cdcb07dae87488e99d2471a", "lon": -77.04221866666667, "rental_uris": {"ios": "https://dc.lft.to/lastmile_qr_scan", "android": "https://dc.lft.to/lastmile_qr_scan"}}, {"name": "efd4b0e9b5ddfd9927ad40ba582213bc", "fusion_lat": 0.0, "type": "electric_bike", "lat": 38.92873683333333, "is_reserved": 0, "is_disabled": 0, "fusion_lon": 0.0, "bike_id": "efd4b0e9b5ddfd9927ad40ba582213bc", "lon": -77.0326355, "rental_uris": {"ios": "https://dc.lft.to/lastmile_qr_scan", "android": "https://dc.lft.to/lastmile_qr_scan"}}, {"name": "6a4f64b56302cc83ee4f708e25eef9c2", "fusion_lat": 0.0, "type": "electric_scooter", "lat": 38.919003333333336, "is_reserved": 0, "is_disabled": 0, "fusion_lon": 0.0, "bike_id": "6a4f64b56302cc83ee4f708e25eef9c2", "lon": -77.00044333333334, "rental_uris": {"ios": "https://dc.lft.to/lastmile_qr_scan", "android": "https://dc.lft.to/lastmile_qr_scan"}}, {"name": "8a730f4bde352789cbc30fd966e6d984", "fusion_lat": 0.0, "type": "electric_scooter", "lat": 38.86653833333333, "is_reserved": 0, "is_disabled": 0, "fusion_lon": 0.0, "bike_id": "8a730f4bde352789cbc30fd966e6d984", "lon": -76.98885566666667, "rental_uris": {"ios": "https://dc.lft.to/lastmile_qr_scan", "android": "https://dc.lft.to/lastmile_qr_scan"}}, {"name": "9bd3eaf229fa624c0a1515e78626c4f2", "fusion_lat": 0.0, "type": "electric_scooter", "lat": 38.917010166666664, "is_reserved": 0, "is_disabled": 0, "fusion_lon": 0.0, "bike_id": "9bd3eaf229fa624c0a1515e78626c4f2", "lon": -77.030799, "rental_uris": {"ios": "https://dc.lft.to/lastmile_qr_scan", "android": "https://dc.lft.to/lastmile_qr_scan"}},