{"data": {"bikes": [{"rental_uris": {"ios": "https://dc.lft.to/lastmile_qr_scan", "android": "https://dc.lft.to/lastmile_qr_scan"}, "lon": -77.0661155, "type": "electric_bike", "fusion_lat": 0.0, "lat": 38.9113395, "name": "f5570000aced9a58edf1e24c43fb0f82", "fusion_lon": 0.0, "bike_id": "f5570000aced9a58edf1e24c43fb0f82", "is_disabled": 0, "is_reserved": 0}, {"rental_uris": {"ios": "https://dc.lft.to/lastmile_qr_scan", "android": "https://dc.lft.to/lastmile_qr_scan"}, "lon": -77.02952916666666, "type": "electric_scooter", "fusion_lat": 0.0, "lat": 38.9052185, "name": "851afb72343ec0c70a701c1d0089b0b5", "fusion_lon": 0.0, "bike_id": "851afb72343ec0c70a701c1d0089b0b5", "is_disabled": 0, "is_reserved": 0}, {"rental_uris": {"ios": "https://dc.lft.to/lastmile_qr_scan", "android": "https://dc.lft.to/lastmile_qr_scan"}, "lon": -77.04703433333333, "type": "electric_scooter", "fusion_lat": 0.0, "lat": 38.908655833333334, "name": "2220758c6513e5ecefe3dfd78ef5fad5", "fusion_lon": 0.0, "bike_id": "2220758c6513e5ecefe3dfd78ef5fad5", "is_disabled": 0, "is_reserved": 0}, {"rental_uris": {"ios": "https://dc.lft.to/lastmile_qr_scan", "android": "https://dc.lft.to/lastmile_qr_scan"}, "lon": -77.02854383333333, "type": "electric_scooter", "fusion_lat": 0.0, "lat": 38.92379916666667, "name": "02b0a110ca1e969f6a15b1178d5c4f0f", "fusion_lon": 0.0, "bike_id": "02b0a110ca1e969f6a15b1178d5c4f0f", "is_disabled": 0, "is_reserved": 0}, {"rental_uris": {"ios": "https://dc.lft.to/lastmile_qr_scan", "android": "https://dc.lft.to/lastmile_qr_scan"}, "lon": -77.03870133333334, "type": "electric_scooter", "fusion_lat": 0.0, "lat": 38.91559933333333, "name": "d1979391608e47be72fa90cfdaa721fb", "fusion_lon": 0.0, "bike_id": "d1979391608e47be72fa90cfdaa721fb", "is_disabled": 0, "is_reserved": 0}, {"rental_uris": {"ios": "https://dc.lft.to/lastmile_qr_scan", "android": "https://dc.lft.to/lastmile_qr_scan"}, "lon": -77.00922166666666, "type": "electric_scooter", "fusion_lat": 0.0, "lat": 38.9124315, "name": "576618600badfdfd9a2c1fe43bef97b7", "fusion_lon": 0.0, "bike_id": "576618600badfdfd9a2c1fe43bef97b7", "is_disabled": 0, "is_reserved": 0}, {"rental_uris": {"ios": "https://dc.lft.to/lastmile_qr_scan", "android": "https://dc.lft.to/lastmile_qr_scan"}, "lon": -77.06695483333333, "type": "electric_scooter", "fusion_lat": 0.0, "lat": 38.90972, "name": "7761f9c244fc5ecdcfdd9acb2f27911a", "fusion_lon": 0.0, "bike_id": "7761f9c244fc5ecdcfdd9acb2f27911a", "is_disabled": 0, "is_reserved": 0}, {"rental_uris": {"ios": "https://dc.lft.to/lastmile_qr_scan", "android": "https://dc.lft.to/lastmile_qr_scan"}, "lon": -76.990338, "type": "electric_scooter", "fusion_lat": 0.0, "lat": 38.85872, "name": "f56453d1d1f71ac3e8682693bc36285b", "fusion_lon": 0.0, "bike_id": "f56453d1d1f71ac3e8682693bc36285b", "is_disabled": 0, "is_reserved": 0}, {"rental_uris": {"ios": "https://dc.lft.to/lastmile_qr_scan", "android": "https://dc.lft.to/lastmile_qr_scan"}, "lon": -77.03963516666667, "type": "electric_scooter", "fusion_lat": 0.0, "lat": 38.916249666666666, "name": "d068cd34419f4aaa3939bc37474786de", "fusion_lon": 0.0, "bike_id": "d068cd34419f4aaa3939bc37474786de", "is_disabled": 0, "is_reserved": 0}, {"rental_uris": {"ios": "https://dc.lft.to/lastmile_qr_scan", "android": "https://dc.lft.to/lastmile_qr_scan"}, "lon": -76.97613116666666, "type": "electric_bike", "fusion_lat": 0.0, "lat": 38.913138333333336, "name": "9123aa3961ce0ba8856bd024f969f66b", "fusion_lon": 0.0, "bike_id": "9123aa3961ce0ba8856bd024f969f66b", "is_disabled": 0, "is_reserved": 0}, {"rental_uris": {"ios": "https://dc.lft.to/lastmile_qr_scan", "android": "https://dc.lft.to/lastmile_qr_scan"}, "lon": -77.02119733333333, "type": "electric_scooter", "fusion_lat": 0.0, "lat": 38.89749783333333, "name": "52ca30337dc8f371a3af3ede9b6b5ea3", "fusion_lon": 0.0, "bike_id": "52ca30337dc8f371a3af3ede9b6b5ea3", "is_disabled": 0, "is_reserved": 0}, {"rental_uris": {"ios": "https://dc.lft.to/lastmile_qr_scan", "android": "https://dc.lft.to/lastmile_qr_scan"}, "lon": -77.02365516666667, "type": "electric_scooter", "fusion_lat": 0.0, "lat": 38.937725666666665, "name": "31eec72d13cb9e6054b31aaa028bb7f8", "fusion_lon": 0.0, "bike_id": "31eec72d13cb9e6054b31aaa028bb7f8", "is_disabled": 0, "is_reserved": 0}, {"rental_uris": {"ios": "https://dc.lft.to/lastmile_qr_scan", "android": "https://dc.lft.to/lastmile_qr_scan"}, "lon": -77.02316966666666, "type": "electric_scooter", "fusion_lat": 0.0, "lat": 38.927216666666666, "name": "7998c281d37d116adad3d95f699dcef2", "fusion_lon": 0.0, "bike_id": "7998c281d37d116adad3d95f699dcef2", "is_disabled": 0, "is_reserved": 0}, {"rental_uris": {"ios": "https://dc.lft.to/lastmile_qr_scan", "android": "https://dc.lft.to/lastmile_qr_scan"}, "lon": -77.07123966666667, "type": "electric_scooter", "fusion_lat": 0.0, "lat": 38.91469166666667, "name": "ee32f1b1dfa1e983a732fc674c6751cf", "fusion_lon": 0.0, "bike_id": "ee32f1b1dfa1e983a732fc674c6751cf", "is_disabled": 0, "is_reserved": 0}, {"rental_uris": {"ios": "https://dc.lft.to/lastmile_qr_scan", "android": "https://dc.lft.to/lastmile_qr_scan"}, "lon": -76.95415583333333, "type": "electric_scooter", "fusion_lat": 0.0, "lat": 38.890041333333336, "name": "86dc7cbb07ca31b5da18a1629cd9541b", "fusion_lon": 0.0, "bike_id": "86dc7cbb07ca31b5da18a1629cd9541b", "is_disabled": 0, "is_reserved": 0}, {"rental_uris": {"ios": "https://dc.lft.to/lastmile_qr_scan", "android": "https://dc.lft.to/lastmile_qr_scan"}, "lon": -77.10713133333333, "type": "electric_bike", "fusion_lat": 0.0, "lat": 38.85549916666667, "name": "fa1a66b74b4a220ec56bc0d8dc7e9ac4", "fusion_lon": 0.0, "bike_id": "fa1a66b74b4a220ec56bc0d8dc7e9ac4", "is_disabled": 0, "is_reserved": 0}, {"rental_uris": {"ios": "https://dc.lft.to/lastmile_qr_scan", "android": "https://dc.lft.to/lastmile_qr_scan"}, "lon": -77.0165645, "type": "electric_bike", "fusion_lat": 0.0, "lat": 38.88119366666667, "name": "9506c6f3af7e419494c15e86dab22c6f", "fusion_lon": 0.0, "bike_id": "9506c6f3af7e419494c15e86dab22c6f", "is_disabled": 0, "is_reserved": 0}, {"rental_uris": {"ios": "https://dc.lft.to/lastmile_qr_scan", "android": "https://dc.lft.to/lastmile_qr_scan"}, "lon": -77.0374525, "type": "electric_scooter", "fusion_lat": 0.0, "lat": 38.90767916666667, "name": "02d9b67c1995d288aed6deace00fa8f3", "fusion_lon": 0.0, "bike_id": "02d9b67c1995d288aed6deace00fa8f3", "is_disabled": 0, "is_reserved": 0}, {"rental_uris": {"ios": "https://dc.lft.to/lastmile_qr_scan", "android": "https://dc.lft.to/lastmile_qr_scan"}, "lon": -77.02185383333334, "type": "electric_scooter", "fusion_lat": 0.0, "lat": 38.897658666666665, "name": "f429f7c71282dabe4732773ede5c536d", "fusion_lon": 0.0, "bike_id": "f429f7c71282dabe4732773ede5c536d", "is_disabled": 0, "is_reserved": 0}, {"rental_uris": {"ios": "https://dc.lft.to/lastmile_qr_scan", "android": "https://dc.lft.to/lastmile_qr_scan"}, "lon": -77.07590116666667, "type": "electric_scooter", "fusion_lat": 0.0, "lat": 38.9121695, "name": "75e950d796dd71450bd91dfb0951d622", "fusion_lon": 0.0, "bike_id": "75e950d796dd71450bd91dfb0951d622", "is_disabled": 0, "is_reserved": 0}, {"rental_uris": {"ios": "https://dc.lft.to/lastmile_qr_scan", "android": "https://dc.lft.to/lastmile_qr_scan"}, "lon": -77.03313483333334, "type": "electric_scooter", "fusion_lat": 0.0, "lat": 38.909734666666665, "name": "0ace3c126881447fff74c06de054cb53", "fusion_lon": 0.0, "bike_id": "0ace3c126881447fff74c06de054cb53", "is_disabled": 0, "is_reserved": 0}, {"rental_uris": {"ios": "https://dc.lft.to/lastmile_qr_scan", "android": "https://dc.lft.to/lastmile_qr_scan"}, "lon": -77.04862683333333, "type": "electric_scooter", "fusion_lat": 0.0, "lat": 38.90068216666667, "name": "d8117e8117d6f983c5950356914db751", "fusion_lon": 0.0, "bike_id": "d8117e8117d6f983c5950356914db751", "is_disabled": 0, "is_reserved": 0}, {"rental_uris": {"ios": "https://dc.lft.to/lastmile_qr_scan", "android": "https://dc.lft.to/lastmile_qr_scan"}, "lon": -77.03628633333334, "type": "electric_scooter", "fusion_lat": 0.0, "lat": 38.955997333333336, "name": "205c18db18bc0001ab2c302963e79b66", "fusion_lon": 0.0, "bike_id": "205c18db18bc0001ab2c302963e79b66", "is_disabled": 0, "is_reserved": 0}, {"rental_uris": {"ios": "https://dc.lft.to/lastmile_qr_scan", "android": "https://dc.lft.to/lastmile_qr_scan"}, "lon": -77.04166, "type": "electric_scooter", "fusion_lat": 0.0, "lat": 38.901976, "name": "c4c488fe94d2981b05079a461cf38acc", "fusion_lon": 0.0, "bike_id": "c4c488fe94d2981b05079a461cf38acc", "is_disabled": 0, "is_reserved": 0}, {"rental_uris": {"ios": "https://dc.lft.to/lastmile_qr_scan", "android": "https://dc.lft.to/lastmile_qr_scan"}, "lon": -77.00756966666667, "type": "electric_scooter", "fusion_lat": 0.0, "lat": 38.9075795, "name": "f02b7689ae864cd9f1442bf75c00df54", "fusion_lon": 0.0, "bike_id": "f02b7689ae864cd9f1442bf75c00df54", "is_disabled": 0, "is_reserved": 0}, {"rental_uris": {"ios": "https://dc.lft.to/lastmile_qr_scan", "android": "https://dc.lft.to/lastmile_qr_scan"}, "lon": -77.01532016666667, "type": "electric_scooter", "fusion_lat": 0.0, "lat": 38.88748116666667, "name": "9879a4d9215c3a69cd77f043780297f4", "fusion_lon": 0.0, "bike_id": "9879a4d9215c3a69cd77f043780297f4", "is_disabled": 0, "is_reserved": 0}, {"rental_uris": {"ios": "https://dc.lft.to/lastmile_qr_scan", "android": "https://dc.lft.to/lastmile_qr_scan"}, "lon": -77.0413355, "type": "electric_scooter", "fusion_lat": 0.0, "lat": 38.924340666666666, "name": "967d57266c8ccd76218c6cb7ab0f7e67", "fusion_lon": 0.0, "bike_id": "967d57266c8ccd76218c6cb7ab0f7e67", "is_disabled": 0, "is_reserved": 0}, {"rental_uris": {"ios": "https://dc.lft.to/lastmile_qr_scan", "android": "https://dc.lft.to/lastmile_qr_scan"}, "lon": -77.05507716666666, "type": "electric_scooter", "fusion_lat": 0.0, "lat": 38.92980383333333, "name": "57676a9ee39178a1467f7be7f4e4e325", "fusion_lon": 0.0, "bike_id": "57676a9ee39178a1467f7be7f4e4e325", "is_disabled": 0, "is_reserved": 0}, {"rental_uris": {"ios": "https://dc.lft.to/lastmile_qr_scan", "android": "https://dc.lft.to/lastmile_qr_scan"}, "lon": -77.03320233333334, "type": "electric_scooter", "fusion_lat": 0.0, "lat": 38.919896, "name": "df864f47ded1a75d0448142aac5dcf49", "fusion_lon": 0.0, "bike_id": "df864f47ded1a75d0448142aac5dcf49", "is_disabled": 0, "is_reserved": 0}, {"rental_uris": {"ios": "https://dc.lft.to/lastmile_qr_scan", "android": "https://dc.lft.to/lastmile_qr_scan"}, "lon": -77.0332625, "type": "electric_scooter", "fusion_lat": 0.0, "lat": 38.919917833333336, "name": "3e930209136c2d8fa04cb118c385eb0b", "fusion_lon": 0.0, "bike_id": "3e930209136c2d8fa04cb118c385eb0b", "is_disabled": 0, "is_reserved": 0}, {"rental_uris": {"ios": "https://dc.lft.to/lastmile_qr_scan", "android": "https://dc.lft.to/lastmile_qr_scan"}, "lon": -77.03070283333334, "type": "electric_scooter", "fusion_lat": 0.0, "lat": 38.89466766666666, "name": "a8613642b6c1d051ce47ea5bd51c22e0", "fusion_lon": 0.0, "bike_id": "a8613642b6c1d051ce47ea5bd51c22e0", "is_disabled": 0, "is_reserved": 0}, {"rental_uris": {"ios": "https://dc.lft.to/lastmile_qr_scan", "android": "https://dc.lft.to/lastmile_qr_scan"}, "lon": -77.02695066666666, "type": "electric_scooter", "fusion_lat": 0.0, "lat": 38.906858166666666, "name": "c7a6ebc269604dcf69977f7d80be7328", "fusion_lon": 0.0, "bike_id": "c7a6ebc269604dcf69977f7d80be7328", "is_disabled": 0, "is_reserved": 0}, {"rental_uris": {"ios": "https://dc.lft.to/lastmile_qr_scan", "android": "https://dc.lft.to/lastmile_qr_scan"}, "lon": -77.105103, "type": "electric_bike", "fusion_lat": 0.0, "lat": 38.92848583333333, "name": "dd6a3c91f0a1b80a8eb483643fae1f7f", "fusion_lon": 0.0, "bike_id": "dd6a3c91f0a1b80a8eb483643fae1f7f", "is_disabled": 0, "is_reserved": 0}, {"rental_uris": {"ios": "https://dc.lft.to/lastmile_qr_scan", "android": "https://dc.lft.to/lastmile_qr_scan"}, "lon": -76.96723816666666, "type": "electric_scooter", "fusion_lat": 0.0, "lat": 38.8507895, "name": "a96ec0c0605fa809c6c3adefb68629f9", "fusion_lon": 0.0, "bike_id": "a96ec0c0605fa809c6c3adefb68629f9", "is_disabled": 0, "is_reserved": 0}, {"rental_uris": {"ios": "https://dc.lft.to/lastmile_qr_scan", "android": "https://dc.lft.to/lastmile_qr_scan"}, "lon": -77.03659633333334, "type": "electric_scooter", "fusion_lat": 0.0, "lat": 38.90681633333333, "name": "d63d15d3bbdd5f7e0e59594cd94c4b5c", "fusion_lon": 0.0, "bike_id": "d63d15d3bbdd5f7e0e59594cd94c4b5c", "is_disabled": 0, "is_reserved": 0}, {"rental_uris": {"ios": "https://dc.lft.to/lastmile_qr_scan", "android": "https://dc.lft.to/lastmile_qr_scan"}, "lon": -77.02527233333333, "type": "electric_scooter", "fusion_lat": 0.0, "lat": 38.92018483333333, "name": "8680ea4bb21f5fa2af93871bdbf3ea0c", "fusion_lon": 0.0, "bike_id": "8680ea4bb21f5fa2af93871bdbf3ea0c", "is_disabled": 0, "is_reserved": 0}, {"rental_uris": {"ios": "https://dc.lft.to/lastmile_qr_scan", "android": "https://dc.lft.to/lastmile_qr_scan"}, "lon": -77.073726, "type": "electric_bike", "fusion_lat": 0.0, "lat": 38.96180416666667, "name": "ae58456eed3078233bcf1e82231c8cf4", "fusion_lon": 0.0, "bike_id": "ae58456eed3078233bcf1e82231c8cf4", "is_disabled": 0, "is_reserved": 0}, {"rental_uris": {"ios": "https://dc.lft.to/lastmile_qr_scan", "android": "https://dc.lft.to/lastmile_qr_scan"}, "lon": -77.02744066666666, "type": "electric_scooter", "fusion_lat": 0.0, "lat": 38.927705833333334, "name": "9fecfa86e79808da896b9354a23c578c", "fusion_lon": 0.0, "bike_id": "9fecfa86e79808da896b9354a23c578c", "is_disabled": 0, "is_reserved": 0}, {"rental_uris": {"ios": "https://dc.lft.to/lastmile_qr_scan", "android": "https://dc.lft.to/lastmile_qr_scan"}, "lon": -76.99957333333333, "type": "electric_scooter", "fusion_lat": 0.0, "lat": 38.908677, "name": "2bc24e06ae19dd6f820d5cbd3676b82f", "fusion_lon": 0.0, "bike_id": "2bc24e06ae19dd6f820d5cbd3676b82f", "is_disabled": 0, "is_reserved": 0}, {"rental_uris": {"ios": "https://dc.lft.to/lastmile_qr_scan", "android": "https://dc.lft.to/lastmile_qr_scan"}, "lon": -77.03074833333334, "type": "electric_scooter", "fusion_lat": 0.0, "lat": 38.92386783333333, "name": "3674ad9d397df12d9147a1d573cf6699", "fusion_lon": 0.0, "bike_id": "3674ad9d397df12d9147a1d573cf6699", "is_disabled": 0, "is_reserved": 0}, {"rental_uris": {"ios": "https://dc.lft.to/lastmile_qr_scan", "android": "https://dc.lft.to/lastmile_qr_scan"}, "lon": -76.98906883333333, "type": "electric_scooter", "fusion_lat": 0.0, "lat": 38.8669305, "name": "eff996bda1fb4f41850664d7060533a0", "fusion_lon": 0.0, "bike_id": "eff996bda1fb4f41850664d7060533a0", "is_disabled": 0, "is_reserved": 0}, {"rental_uris": {"ios": "https://dc.lft.to/lastmile_qr_scan", "android": "https://dc.lft.to/lastmile_qr_scan"}, "lon": -77.07003, "type": "electric_bike", "fusion_lat": 0.0, "lat": 38.9550635, "name": "812eec42d347b5ee64891c68bfe085a5", "fusion_lon": 0.0, "bike_id": "812eec42d347b5ee64891c68bfe085a5", "is_disabled": 0, "is_reserved": 0}, {"rental_uris": {"ios": "https://dc.lft.to/lastmile_qr_scan", "android": "https://dc.lft.to/lastmile_qr_scan"}, "lon": -77.022305, "type": "electric_scooter", "fusion_lat": 0.0, "lat": 38.89225716666667, "name": "3d70ba22af5addd39ae49deaf5e0622f", "fusion_lon": 0.0, "bike_id": "3d70ba22af5addd39ae49deaf5e0622f", "is_disabled": 0, "is_reserved": 0}, {"rental_uris": {"ios": "https://dc.lft.to/lastmile_qr_scan", "android": "https://dc.lft.to/lastmile_qr_scan"}, "lon": -77.04028516666666, "type": "electric_scooter", "fusion_lat": 0.0, "lat": 38.9181465, "name": "821e54ed5dbf485c157b1348120823eb", "fusion_lon": 0.0, "bike_id": "821e54ed5dbf485c157b1348120823eb", "is_disabled": 0, "is_reserved": 0}, {"rental_uris": {"ios": "https://dc.lft.to/lastmile_qr_scan", "android": "https://dc.lft.to/lastmile_qr_scan"}, "lon": -77.05044016666666, "type": "electric_scooter", "fusion_lat": 0.0, "lat": 38.9036365, "name": "b6f1576bdd0e6fd4f79c6bfff623899b", "fusion_lon": 0.0, "bike_id": "b6f1576bdd0e6fd4f79c6bfff623899b", "is_disabled": 0, "is_reserved": 0}, {"rental_uris": {"ios": "https://dc.lft.to/lastmile_qr_scan", "android": "https://dc.lft.to/lastmile_qr_scan"}, "lon": -77.10784916666667, "type": "electric_bike", "fusion_lat": 0.0, "lat": 38.89221083333333, "name": "ddd34f7e114fb9dadcf7dadacec8be6f", "fusion_lon": 0.0, "bike_id": "ddd34f7e114fb9dadcf7dadacec8be6f", "is_disabled": 0, "is_reserved": 0}, {"rental_uris": {"ios": "https://dc.lft.to/lastmile_qr_scan", "android": "https://dc.lft.to/lastmile_qr_scan"}, "lon": -77.066332, "type": "electric_scooter", "fusion_lat": 0.0, "lat": 38.92802233333333, "name": "a994b52f3522cad868832b3d3507ea00", "fusion_lon": 0.0, "bike_id": "a994b52f3522cad868832b3d3507ea00", "is_disabled": 0, "is_reserved": 0}, {"rental_uris": {"ios": "https://dc.lft.to/lastmile_qr_scan", "android": "https://dc.lft.to/lastmile_qr_scan"}, "lon": -77.021707, "type": "electric_scooter", "fusion_lat": 0.0, "lat": 38.94296216666667, "name": "14d8d290ac7815227c87b1e9b248adfc", "fusion_lon": 0.0, "bike_id": "14d8d290ac7815227c87b1e9b248adfc", "is_disabled": 0, "is_reserved": 0}, {"rental_uris": {"ios": "https://dc.lft.to/lastmile_qr_scan", "android": "https://dc.lft.to/lastmile_qr_scan"}, "lon": -77.03860583333334, "type": "electric_scooter", "fusion_lat": 0.0, "lat": 38.90778316666667, "name": "d38c324a134831fe9bcb17e86133210a", "fusion_lon": 0.0, "bike_id": "d38c324a134831fe9bcb17e86133210a", "is_disabled": 0, "is_reserved": 0}, {"rental_uris": {"ios": "https://dc.lft.to/lastmile_qr_scan", "android": "https://dc.lft.to/lastmile_qr_scan"}, "lon": -77.03564366666667, "type": "electric_scooter", "fusion_lat": 0.0, "lat": 38.918070666666665, "name": "b120a57d424a508eed5cde01b0cbf18d", "fusion_lon": 0.0, "bike_id": "b120a57d424a508eed5cde01b0cbf18d", "is_disabled": 0, "is_reserved": 0}, {"rental_uris": {"ios": "https://dc.lft.to/lastmile_qr_scan", "android": "https://dc.lft.to/lastmile_qr_scan"}, "lon": -77.03661466666667, "type": "electric_scooter", "fusion_lat": 0.0, "lat": 38.9221255, "name": "d946f3a5fd40b7201be2ab7d769e4f86", "fusion_lon": 0.0, "bike_id": "d946f3a5fd40b7201be2ab7d769e4f86", "is_disabled": 0, "is_reserved": 0}, {"rental_uris": {"ios": "https://dc.lft.to/lastmile_qr_scan", "android": "https://dc.lft.to/lastmile_qr_scan"}, "lon": -77.03868216666666, "type": "electric_scooter", "fusion_lat": 0.0, "lat": 38.9096715, "name": "b723fc473b732a408b84347cef544dde", "fusion_lon": 0.0, "bike_id": "b723fc473b732a408b84347cef544dde", "is_disabled": 0, "is_reserved": 0}, {"rental_uris": {"ios": "https://dc.lft.to/lastmile_qr_scan", "android": "https://dc.lft.to/lastmile_qr_scan"}, "lon": -77.00987783333333, "type": "electric_scooter", "fusion_lat": 0.0, "lat": 38.87300333333334, "name": "e217e8f6e392d1f0b91e538f9abe44bb", "fusion_lon": 0.0, "bike_id": "e217e8f6e392d1f0b91e538f9abe44bb", "is_disabled": 0, "is_reserved": 0}, {"rental_uris": {"ios": "https://dc.lft.to/lastmile_qr_scan", "android": "https://dc.lft.to/lastmile_qr_scan"}, "lon": -77.05684233333334, "type": "electric_bike", "fusion_lat": 0.0, "lat": 38.90517583333333, "name": "4c17d405b12c8da54926a0a913df6147", "fusion_lon": 0.0, "bike_id": "4c17d405b12c8da54926a0a913df6147", "is_disabled": 0, "is_reserved": 0}, {"rental_uris": {"ios": "https://dc.lft.to/lastmile_qr_scan", "android": "https://dc.lft.to/lastmile_qr_scan"}, "lon": -76.9938355, "type": "electric_scooter", "fusion_lat": 0.0, "lat": 38.887248, "name": "89a8ad460af236d86fbbdd1d02e6a24b", "fusion_lon": 0.0, "bike_id": "89a8ad460af236d86fbbdd1d02e6a24b", "is_disabled": 0, "is_reserved": 0}, {"rental_uris": {"ios": "https://dc.lft.to/lastmile_qr_scan", "android": "https://dc.lft.to/lastmile_qr_scan"}, "lon": -77.03642166666667, "type": "electric_scooter", "fusion_lat": 0.0, "lat": 38.918166166666666, "name": "3a15ffbad4588c796a930b58235d9113", "fusion_lon": 0.0, "bike_id": "3a15ffbad4588c796a930b58235d9113", "is_disabled": 0, "is_reserved": 0}, {"rental_uris": {"ios": "https://dc.lft.to/lastmile_qr_scan", "android": "https://dc.lft.to/lastmile_qr_scan"}, "lon": -77.003006, "type": "electric_scooter", "fusion_lat": 0.0, "lat": 38.90905766666667, "name": "62ed8cdc39dd0bf42f0058f617f9547d", "fusion_lon": 0.0, "bike_id": "62ed8cdc39dd0bf42f0058f617f9547d", "is_disabled": 0, "is_reserved": 0}, {"rental_uris": {"ios": "https://dc.lft.to/lastmile_qr_scan", "android": "https://dc.lft.to/lastmile_qr_scan"}, "lon": -77.0022985, "type": "electric_scooter", "fusion_lat": 0.0, "lat": 38.90571533333333, "name": "877ca04df705b6e0440039cbeac1a663", "fusion_lon": 0.0, "bike_id": "877ca04df705b6e0440039cbeac1a663", "is_disabled": 0, "is_reserved": 0}, {"rental_uris": {"ios": "https://dc.lft.to/lastmile_qr_scan", "android": "https://dc.lft.to/lastmile_qr_scan"}, "lon": -76.967909, "type": "electric_scooter", "fusion_lat": 0.0, "lat": 38.86143366666667, "name": "158a119d7aca479eaaceb5739d11cde4", "fusion_lon": 0.0, "bike_id": "158a119d7aca479eaaceb5739d11cde4", "is_disabled": 0, "is_reserved": 0}, {"rental_uris": {"ios": "https://dc.lft.to/lastmile_qr_scan", "android": "https://dc.lft.to/lastmile_qr_scan"}, "lon": -77.02208966666667, "type": "electric_scooter", "fusion_lat": 0.0, "lat": 38.90971966666667, "name": "d39e2397482868748d4b1658d7b601c5", "fusion_lon": 0.0, "bike_id": "d39e2397482868748d4b1658d7b601c5", "is_disabled": 0, "is_reserved": 0}, {"rental_uris": {"ios": "https://dc.lft.to/lastmile_qr_scan", "android": "https://dc.lft.to/lastmile_qr_scan"}, "lon": -77.03168933333333, "type": "electric_scooter", "fusion_lat": 0.0, "lat": 38.899629, "name": "56abfe77f864c8117ab0a5b5eb90e096", "fusion_lon": 0.0, "bike_id": "56abfe77f864c8117ab0a5b5eb90e096", "is_disabled": 0, "is_reserved": 0}, {"rental_uris": {"ios": "https://dc.lft.to/lastmile_qr_scan", "android": "https://dc.lft.to/lastmile_qr_scan"}, "lon": -77.050282, "type": "electric_scooter", "fusion_lat": 0.0, "lat": 38.896526, "name": "96cef2233e0a30b0731a366d35087684", "fusion_lon": 0.0, "bike_id": "96cef2233e0a30b0731a366d35087684", "is_disabled": 0, "is_reserved": 0}, {"rental_uris": {"ios": "https://dc.lft.to/lastmile_qr_scan", "android": "https://dc.lft.to/lastmile_qr_scan"}, "lon": -77.11430883333334, "type": "electric_bike", "fusion_lat": 0.0, "lat": 38.85247666666667, "name": "362c5cae4d8d547e7f606215588f0b1c", "fusion_lon": 0.0, "bike_id": "362c5cae4d8d547e7f606215588f0b1c", "is_disabled": 0, "is_reserved": 0}, {"rental_uris": {"ios": "https://dc.lft.to/lastmile_qr_scan", "android": "https://dc.lft.to/lastmile_qr_scan"}, "lon": -77.03474683333333, "type": "electric_scooter", "fusion_lat": 0.0, "lat": 38.9028175, "name": "8e3e10ab3a8f4cbcd50a2df8369b3603", "fusion_lon": 0.0, "bike_id": "8e3e10ab3a8f4cbcd50a2df8369b3603", "is_disabled": 0, "is_reserved": 0}, {"rental_uris": {"ios": "https://dc.lft.to/lastmile_qr_scan", "android": "https://dc.lft.to/lastmile_qr_scan"}, "lon": -77.03325333333333, "type": "electric_scooter", "fusion_lat": 0.0, "lat": 38.921647, "name": "6e16ec5a4e39a65f50ad85415127c9e8", "fusion_lon": 0.0, "bike_id": "6e16ec5a4e39a65f50ad85415127c9e8", "is_disabled": 0, "is_reserved": 0}, {"rental_uris": {"ios": "https://dc.lft.to/lastmile_qr_scan", "android": "https://dc.lft.to/lastmile_qr_scan"}, "lon": -77.02385983333333, "type": "electric_scooter", "fusion_lat": 0.0, "lat": 38.917926, "name": "a96251614517b5e501c77d03d74b03da", "fusion_lon": 0.0, "bike_id": "a96251614517b5e501c77d03d74b03da", "is_disabled": 0, "is_reserved": 0}, {"rental_uris": {"ios": "https://dc.lft.to/lastmile_qr_scan", "android": "https://dc.lft.to/lastmile_qr_scan"}, "lon": -76.984146, "type": "electric_scooter", "fusion_lat": 0.0, "lat": 38.9139095, "name": "f6e5694a73c43b729438c98ba84752b8", "fusion_lon": 0.0, "bike_id": "f6e5694a73c43b729438c98ba84752b8", "is_disabled": 0, "is_reserved": 0}, {"rental_uris": {"ios": "https://dc.lft.to/lastmile_qr_scan", "android": "https://dc.lft.to/lastmile_qr_scan"}, "lon": -77.01739766666667, "type": "electric_scooter", "fusion_lat": 0.0, "lat": 38.87713216666667, "name": "dddf68e1ddd889a746513d7ee504b45f", "fusion_lon": 0.0, "bike_id": "dddf68e1ddd889a746513d7ee504b45f", "is_disabled": 0, "is_reserved": 0}, {"rental_uris": {"ios": "https://dc.lft.to/lastmile_qr_scan", "android": "https://dc.lft.to/lastmile_qr_scan"}, "lon": -77.0329545, "type": "electric_scooter", "fusion_lat": 0.0, "lat": 38.928721, "name": "af3022d926c45ccf7ddfdea556014f1b", "fusion_lon": 0.0, "bike_id": "af3022d926c45ccf7ddfdea556014f1b", "is_disabled": 0, "is_reserved": 0}, {"rental_uris": {"ios": "https://dc.lft.to/lastmile_qr_scan", "android": "https://dc.lft.to/lastmile_qr_scan"}, "lon": -77.03153166666667, "type": "electric_scooter", "fusion_lat": 0.0, "lat": 38.91566816666667, "name": "0ef253989d34ef68b6a760a4254a2a82", "fusion_lon": 0.0, "bike_id": "0ef253989d34ef68b6a760a4254a2a82", "is_disabled": 0, "is_reserved": 0}, {"rental_uris": {"ios": "https://dc.lft.to/lastmile_qr_scan", "android": "https://dc.lft.to/lastmile_qr_scan"}, "lon": -77.03184433333334, "type": "electric_scooter", "fusion_lat": 0.0, "lat": 38.92950533333333, "name": "2225968ddf8dfedb3d3e7ca46045ee15", "fusion_lon": 0.0, "bike_id": "2225968ddf8dfedb3d3e7ca46045ee15", "is_disabled": 0, "is_reserved": 0}, {"rental_uris": {"ios": "https://dc.lft.to/lastmile_qr_scan", "android": "https://dc.lft.to/lastmile_qr_scan"}, "lon": -77.02603083333334, "type": "electric_scooter", "fusion_lat": 0.0, "lat": 38.916974333333336, "name": "a5028c2d692e9f8130268a3856734aab", "fusion_lon": 0.0, "bike_id": "a5028c2d692e9f8130268a3856734aab", "is_disabled": 0, "is_reserved": 0}, {"rental_uris": {"ios": "https://dc.lft.to/lastmile_qr_scan", "android": "https://dc.lft.to/lastmile_qr_scan"}, "lon": -77.022307, "type": "electric_bike", "fusion_lat": 0.0, "lat": 38.95690583333333, "name": "92fe926c410e95a34bae13b2d339b8a7", "fusion_lon": 0.0, "bike_id": "92fe926c410e95a34bae13b2d339b8a7", "is_disabled": 0, "is_reserved": 0}, {"rental_uris": {"ios": "https://dc.lft.to/lastmile_qr_scan", "android": "https://dc.lft.to/lastmile_qr_scan"}, "lon": -77.023769, "type": "electric_scooter", "fusion_lat": 0.0, "lat": 38.9369405, "name": "68714cbec69e98d5d1d7d19298e16346", "fusion_lon": 0.0, "bike_id": "68714cbec69e98d5d1d7d19298e16346", "is_disabled": 0, "is_reserved": 0}, {"rental_uris": {"ios": "https://dc.lft.to/lastmile_qr_scan", "android": "https://dc.lft.to/lastmile_qr_scan"}, "lon": -77.0403825, "type": "electric_scooter", "fusion_lat": 0.0, "lat": 38.92473483333333, "name": "2d6e82365b0ae11761812a9c699e689a", "fusion_lon": 0.0, "bike_id": "2d6e82365b0ae11761812a9c699e689a", "is_disabled": 0, "is_reserved": 0}, {"rental_uris": {"ios": "https://dc.lft.to/lastmile_qr_scan", "android": "https://dc.lft.to/lastmile_qr_scan"}, "lon": -77.07304283333333, "type": "electric_scooter", "fusion_lat": 0.0, "lat": 38.935434666666666, "name": "dc5d1243764b071247c7665f15ae93c4", "fusion_lon": 0.0, "bike_id": "dc5d1243764b071247c7665f15ae93c4", "is_disabled": 0, "is_reserved": 0}, {"rental_uris": {"ios": "https://dc.lft.to/lastmile_qr_scan", "android": "https://dc.lft.to/lastmile_qr_scan"}, "lon": -76.97274183333333, "type": "electric_bike", "fusion_lat": 0.0, "lat": 38.919735333333335, "name": "349e0648d8ad262fb6e5da37aa12c8e9", "fusion_lon": 0.0, "bike_id": "349e0648d8ad262fb6e5da37aa12c8e9", "is_disabled": 0, "is_reserved": 0}, {"rental_uris": {"ios": "https://dc.lft.to/lastmile_qr_scan", "android": "https://dc.lft.to/lastmile_qr_scan"}, "lon": -76.990015, "type": "electric_scooter", "fusion_lat": 0.0, "lat": 38.865052, "name": "5b3ca6e3b9f7912f4b97492061760592", "fusion_lon": 0.0, "bike_id": "5b3ca6e3b9f7912f4b97492061760592", "is_disabled": 0, "is_reserved": 0}, {"rental_uris": {"ios": "https://dc.lft.to/lastmile_qr_scan", "android": "https://dc.lft.to/lastmile_qr_scan"}, "lon": -77.11051533333334, "type": "electric_bike", "fusion_lat": 0.0, "lat": 38.8707745, "name": "f479d311238560f4a94b221de924bd0c", "fusion_lon": 0.0, "bike_id": "f479d311238560f4a94b221de924bd0c", "is_disabled": 0, "is_reserved": 0}, {"rental_uris": {"ios": "https://dc.lft.to/lastmile_qr_scan", "android": "https://dc.lft.to/lastmile_qr_scan"}, "lon": -76.98022516666667, "type": "electric_scooter", "fusion_lat": 0.0, "lat": 38.88768983333333, "name": "3fb5a869319209028ee87fa5d9dff711", "fusion_lon": 0.0, "bike_id": "3fb5a869319209028ee87fa5d9dff711", "is_disabled": 0, "is_reserved": 0}, {"rental_uris": {"ios": "https://dc.lft.to/lastmile_qr_scan", "android": "https://dc.lft.to/lastmile_qr_scan"}, "lon": -77.02980233333334, "type": "electric_scooter", "fusion_lat": 0.0, "lat": 38.907311666666665, "name": "de2ceb729ba33313cb0768d97d8f52a6", "fusion_lon": 0.0, "bike_id": "de2ceb729ba33313cb0768d97d8f52a6", "is_disabled": 0, "is_reserved": 0}, {"rental_uris": {"ios": "https://dc.lft.to/lastmile_qr_scan", "android": "https://dc.lft.to/lastmile_qr_scan"}, "lon": -77.00738016666666, "type": "electric_scooter", "fusion_lat": 0.0, "lat": 38.916265333333335, "name": "26a89602c66a6fc7865532441b5338f2", "fusion_lon": 0.0, "bike_id": "26a89602c66a6fc7865532441b5338f2", "is_disabled": 0, "is_reserved": 0}, {"rental_uris": {"ios": "https://dc.lft.to/lastmile_qr_scan", "android": "https://dc.lft.to/lastmile_qr_scan"}, "lon": -76.95890066666666, "type": "electric_scooter", "fusion_lat": 0.0, "lat": 38.8585495, "name": "9add5ced732106c6cc81c793a4c030d5", "fusion_lon": 0.0, "bike_id": "9add5ced732106c6cc81c793a4c030d5", "is_disabled": 0, "is_reserved": 0}, {"rental_uris": {"ios": "https://dc.lft.to/lastmile_qr_scan", "android": "https://dc.lft.to/lastmile_qr_scan"}, "lon": -77.0212355, "type": "electric_scooter", "fusion_lat": 0.0, "lat": 38.93702283333333, "name": "ca1f4826270416aed913381266af1b1d", "fusion_lon": 0.0, "bike_id": "ca1f4826270416aed913381266af1b1d", "is_disabled": 0, "is_reserved": 0}, {"rental_uris": {"ios": "https://dc.lft.to/lastmile_qr_scan", "android": "https://dc.lft.to/lastmile_qr_scan"}, "lon": -77.04328783333334, "type": "electric_scooter", "fusion_lat": 0.0, "lat": 38.92793566666667, "name": "b3fe4fe03ed1918ee070cd8bb1139cfd", "fusion_lon": 0.0, "bike_id": "b3fe4fe03ed1918ee070cd8bb1139cfd", "is_disabled": 0, "is_reserved": 0}, {"rental_uris": {"ios": "https://dc.lft.to/lastmile_qr_scan", "android": "https://dc.lft.to/lastmile_qr_scan"}, "lon": -77.06536516666667, "type": "electric_scooter", "fusion_lat": 0.0, "lat": 38.904871, "name": "e42dd65de718b39368b1705b671da5b7", "fusion_lon": 0.0, "bike_id": "e42dd65de718b39368b1705b671da5b7", "is_disabled": 0, "is_reserved": 0}, {"rental_uris": {"ios": "https://dc.lft.to/lastmile_qr_scan", "android": "https://dc.lft.to/lastmile_qr_scan"}, "lon": -76.99682933333334, "type": "electric_scooter", "fusion_lat": 0.0, "lat": 38.88686333333333, "name": "cb01cdd0761a5ef1c71ff31d9c611e6e", "fusion_lon": 0.0, "bike_id": "cb01cdd0761a5ef1c71ff31d9c611e6e", "is_disabled": 0, "is_reserved": 0}, {"rental_uris": {"ios": "https://dc.lft.to/lastmile_qr_scan", "android": "https://dc.lft.to/lastmile_qr_scan"}, "lon": -77.007763, "type": "electric_scooter", "fusion_lat": 0.0, "lat": 38.89739066666667, "name": "016370c5d22c3fe1f2027172ee383974", "fusion_lon": 0.0, "bike_id": "016370c5d22c3fe1f2027172ee383974", "is_disabled": 0, "is_reserved": 0}, {"rental_uris": {"ios": "https://dc.lft.to/lastmile_qr_scan", "android": "https://dc.lft.to/lastmile_qr_scan"}, "lon": -77.01179183333333, "type": "electric_scooter", "fusion_lat": 0.0, "lat": 38.900295666666665, "name": "c517233edf6c4f9ff9d0b7f0f70c26cb", "fusion_lon": 0.0, "bike_id": "c517233edf6c4f9ff9d0b7f0f70c26cb", "is_disabled": 0, "is_reserved": 0}, {"rental_uris": {"ios": "https://dc.lft.to/lastmile_qr_scan", "android": "https://dc.lft.to/lastmile_qr_scan"}, "lon": -76.9576625, "type": "electric_scooter", "fusion_lat": 0.0, "lat": 38.8868725, "name": "367015ef021481bc086b34073abd4c14", "fusion_lon": 0.0, "bike_id": "367015ef021481bc086b34073abd4c14", "is_disabled": 0, "is_reserved": 0}, {"rental_uris": {"ios": "https://dc.lft.to/lastmile_qr_scan", "android": "https://dc.lft.to/lastmile_qr_scan"}, "lon": -77.02706483333333, "type": "electric_scooter", "fusion_lat": 0.0, "lat": 38.906681, "name": "3c2e0d1c19c3c18d0b8068078fff34b2", "fusion_lon": 0.0, "bike_id": "3c2e0d1c19c3c18d0b8068078fff34b2", "is_disabled": 0, "is_reserved": 0}, {"rental_uris": {"ios": "https://dc.lft.to/lastmile_qr_scan", "android": "https://dc.lft.to/lastmile_qr_scan"}, "lon": -77.0201855, "type": "electric_scooter", "fusion_lat": 0.0, "lat": 38.91656666666667, "name": "1643944fed42eb52bf77f24a4e4b82bf", "fusion_lon": 0.0, "bike_id": "1643944fed42eb52bf77f24a4e4b82bf", "is_disabled": 0, "is_reserved": 0}, {"rental_uris": {"ios": "https://dc.lft.to/lastmile_qr_scan", "android": "https://dc.lft.to/lastmile_qr_scan"}, "lon": -77.03471933333333, "type": "electric_scooter", "fusion_lat": 0.0, "lat": 38.9199005, "name": "7d75d6d2082b6b08a6bd23805cb6520b", "fusion_lon": 0.0, "bike_id": "7d75d6d2082b6b08a6bd23805cb6520b", "is_disabled": 0, "is_reserved": 0}, {"rental_uris": {"ios": "https://dc.lft.to/lastmile_qr_scan", "android": "https://dc.lft.to/lastmile_qr_scan"}, "lon": -77.03203383333333, "type": "electric_scooter", "fusion_lat": 0.0, "lat": 38.917975166666665, "name": "00a963bddccc42f8e1732fff53a70a6d", "fusion_lon": 0.0, "bike_id": "00a963bddccc42f8e1732fff53a70a6d", "is_disabled": 0, "is_reserved": 0}, {"rental_uris": {"ios": "https://dc.lft.to/lastmile_qr_scan", "android": "https://dc.lft.to/lastmile_qr_scan"}, "lon": -76.98262133333333, "type": "electric_scooter", "fusion_lat": 0.0, "lat": 38.86355916666667, "name": "9a5db9dd7a3c5bd6593fd825cc84c58f", "fusion_lon": 0.0, "bike_id": "9a5db9dd7a3c5bd6593fd825cc84c58f", "is_disabled": 0, "is_reserved": 0}, {"rental_uris": {"ios": "https://dc.lft.to/lastmile_qr_scan", "android": "https://dc.lft.to/lastmile_qr_scan"}, "lon": -76.967565, "type": "electric_bike", "fusion_lat": 0.0, "lat": 38.87550516666667, "name": "ac95a8a35e0236d4fb31333e6ef370b8", "fusion_lon": 0.0, "bike_id": "ac95a8a35e0236d4fb31333e6ef370b8", "is_disabled": 0, "is_reserved": 0}, {"rental_uris": {"ios": "https://dc.lft.to/lastmile_qr_scan", "android": "https://dc.lft.to/lastmile_qr_scan"}, "lon": -76.993793, "type": "electric_scooter", "fusion_lat": 0.0, "lat": 38.897460333333335, "name": "7a9ab13f69e0ff7b65f3d86a1b80c70b", "fusion_lon": 0.0, "bike_id": "7a9ab13f69e0ff7b65f3d86a1b80c70b", "is_disabled": 0, "is_reserved": 0}, {"rental_uris": {"ios": "https://dc.lft.to/lastmile_qr_scan", "android": "https://dc.lft.to/lastmile_qr_scan"}, "lon": -77.01113066666667, "type": "electric_scooter", "fusion_lat": 0.0, "lat": 38.899986, "name": "c33174c08f1b9ed0814112269c1e6c93", "fusion_lon": 0.0, "bike_id": "c33174c08f1b9ed0814112269c1e6c93", "is_disabled": 0, "is_reserved": 0}, {"rental_uris": {"ios": "https://dc.lft.to/lastmile_qr_scan", "android": "https://dc.lft.to/lastmile_qr_scan"}, "lon": -77.04410466666667, "type": "electric_scooter", "fusion_lat": 0.0, "lat": 38.90581016666667, "name": "674273502f03a23cd6582292feb9f4ec", "fusion_lon": 0.0, "bike_id": "674273502f03a23cd6582292feb9f4ec", "is_disabled": 0, "is_reserved": 0}, {"rental_uris": {"ios": "https://dc.lft.to/lastmile_qr_scan", "android": "https://dc.lft.to/lastmile_qr_scan"}, "lon": -77.054437, "type": "electric_scooter", "fusion_lat": 0.0, "lat": 38.89607133333333, "name": "3f2afd31c6b5bada88eb4179ca116b55", "fusion_lon": 0.0, "bike_id": "3f2afd31c6b5bada88eb4179ca116b55", "is_disabled": 0, "is_reserved": 0}, {"rental_uris": {"ios": "https://dc.lft.to/lastmile_qr_scan", "android": "https://dc.lft.to/lastmile_qr_scan"}, "lon": -77.04676016666667, "type": "electric_scooter", "fusion_lat": 0.0, "lat": 38.89233766666667, "name": "3464737807656b88ddd889fd83d274cf", "fusion_lon": 0.0, "bike_id": "3464737807656b88ddd889fd83d274cf", "is_disabled": 0, "is_reserved": 0}, {"rental_uris": {"ios": "https://dc.lft.to/lastmile_qr_scan", "android": "https://dc.lft.to/lastmile_qr_scan"}, "lon": -77.04011466666667, "type": "electric_scooter", "fusion_lat": 0.0, "lat": 38.932583, "name": "76720d8fdb6b4bf7dd94454eaf457e8e", "fusion_lon": 0.0, "bike_id": "76720d8fdb6b4bf7dd94454eaf457e8e", "is_disabled": 0, "is_reserved": 0}, {"rental_uris": {"ios": "https://dc.lft.to/lastmile_qr_scan", "android": "https://dc.lft.to/lastmile_qr_scan"}, "lon": -77.05107716666667, "type": "electric_scooter", "fusion_lat": 0.0, "lat": 38.9051685, "name": "e1f15bc3d4ac2819ef84c7a188133bf8", "fusion_lon": 0.0, "bike_id": "e1f15bc3d4ac2819ef84c7a188133bf8", "is_disabled": 0, "is_reserved": 0}, {"rental_uris": {"ios": "https://dc.lft.to/lastmile_qr_scan", "android": "https://dc.lft.to/lastmile_qr_scan"}, "lon": -76.998628, "type": "electric_scooter", "fusion_lat": 0.0, "lat": 38.9002755, "name": "9d6d93e90a502eed22c96e136f46cf66", "fusion_lon": 0.0, "bike_id": "9d6d93e90a502eed22c96e136f46cf66", "is_disabled": 0, "is_reserved": 0}, {"rental_uris": {"ios": "https://dc.lft.to/lastmile_qr_scan", "android": "https://dc.lft.to/lastmile_qr_scan"}, "lon": -77.012701, "type": "electric_scooter", "fusion_lat": 0.0, "lat": 38.915411666666664, "name": "7229a09058f5ec7ce2fe0c403f55be7e", "fusion_lon": 0.0, "bike_id": "7229a09058f5ec7ce2fe0c403f55be7e", "is_disabled": 0, "is_reserved": 0}, {"rental_uris": {"ios": "https://dc.lft.to/lastmile_qr_scan", "android": "https://dc.lft.to/lastmile_qr_scan"}, "lon": -77.0064465, "type": "electric_scooter", "fusion_lat": 0.0, "lat": 38.8763185, "name": "ce3f16d19c5f3847706327c933dd5bec", "fusion_lon": 0.0, "bike_id": "ce3f16d19c5f3847706327c933dd5bec", "is_disabled": 0, "is_reserved": 0}, {"rental_uris": {"ios": "https://dc.lft.to/lastmile_qr_scan", "android": "https://dc.lft.to/lastmile_qr_scan"}, "lon": -76.9809105, "type": "electric_bike", "fusion_lat": 0.0, "lat": 38.902916833333336, "name": "b44b5903bc17a4c937d2e446bf0f1902", "fusion_lon": 0.0, "bike_id": "b44b5903bc17a4c937d2e446bf0f1902", "is_disabled": 0, "is_reserved": 0}, {"rental_uris": {"ios": "https://dc.lft.to/lastmile_qr_scan", "android": "https://dc.lft.to/lastmile_qr_scan"}, "lon": -77.02463466666667, "type": "electric_scooter", "fusion_lat": 0.0, "lat": 38.938686833333335, "name": "aae3570fc1025d05ca2accb32c878982", "fusion_lon": 0.0, "bike_id": "aae3570fc1025d05ca2accb32c878982", "is_disabled": 0, "is_reserved": 0}, {"rental_uris": {"ios": "https://dc.lft.to/lastmile_qr_scan", "android": "https://dc.lft.to/lastmile_qr_scan"}, "lon": -77.07899433333333, "type": "electric_bike", "fusion_lat": 0.0, "lat": 38.839350333333336, "name": "0a6f020b5b57863d27ff7bcba88a0607", "fusion_lon": 0.0, "bike_id": "0a6f020b5b57863d27ff7bcba88a0607", "is_disabled": 0, "is_reserved": 0}, {"rental_uris": {"ios": "https://dc.lft.to/lastmile_qr_scan", "android": "https://dc.lft.to/lastmile_qr_scan"}, "lon": -77.00210183333333, "type": "electric_scooter", "fusion_lat": 0.0, "lat": 38.911896666666664, "name": "3ccc7316866d27fd558f782c6a382683", "fusion_lon": 0.0, "bike_id": "3ccc7316866d27fd558f782c6a382683", "is_disabled": 0, "is_reserved": 0}, {"rental_uris": {"ios": "https://dc.lft.to/lastmile_qr_scan", "android": "https://dc.lft.to/lastmile_qr_scan"}, "lon": -76.93618233333333, "type": "electric_bike", "fusion_lat": 0.0, "lat": 38.970656166666664, "name": "a9f7584c68c3d3ac087a94f4bb5e9bc6", "fusion_lon": 0.0, "bike_id": "a9f7584c68c3d3ac087a94f4bb5e9bc6", "is_disabled": 0, "is_reserved": 0}, {"rental_uris": {"ios": "https://dc.lft.to/lastmile_qr_scan", "android": "https://dc.lft.to/lastmile_qr_scan"}, "lon": -77.1499695, "type": "electric_bike", "fusion_lat": 0.0, "lat": 39.094625666666666, "name": "db64d696aced8c5d600f8c0f16172836", "fusion_lon": 0.0, "bike_id": "db64d696aced8c5d600f8c0f16172836", "is_disabled": 0, "is_reserved": 0}, {"rental_uris": {"ios": "https://dc.lft.to/lastmile_qr_scan", "android": "https://dc.lft.to/lastmile_qr_scan"}, "lon": -76.93370033333333, "type": "electric_scooter", "fusion_lat": 0.0, "lat": 38.899202333333335, "name": "8e5af313699ea2f711fd8d7c6f5b2a39", "fusion_lon": 0.0, "bike_id": "8e5af313699ea2f711fd8d7c6f5b2a39", "is_disabled": 0, "is_reserved": 0}, {"rental_uris": {"ios": "https://dc.lft.to/lastmile_qr_scan", "android": "https://dc.lft.to/lastmile_qr_scan"}, "lon": -77.04710566666667, "type": "electric_scooter", "fusion_lat": 0.0, "lat": 38.916817333333334, "name": "a43fef631bd4593964ae8ef956e414bd", "fusion_lon": 0.0, "bike_id": "a43fef631bd4593964ae8ef956e414bd", "is_disabled": 0, "is_reserved": 0}, {"rental_uris": {"ios": "https://dc.lft.to/lastmile_qr_scan", "android": "https://dc.lft.to/lastmile_qr_scan"}, "lon": -77.04614333333333, "type": "electric_scooter", "fusion_lat": 0.0, "lat": 38.919127, "name": "1f13205a866dfc92f2a218ca8c0f47c5", "fusion_lon": 0.0, "bike_id": "1f13205a866dfc92f2a218ca8c0f47c5", "is_disabled": 0, "is_reserved": 0}, {"rental_uris": {"ios": "https://dc.lft.to/lastmile_qr_scan", "android": "https://dc.lft.to/lastmile_qr_scan"}, "lon": -77.19910833333333, "type": "electric_bike", "fusion_lat": 0.0, "lat": 38.875329, "name": "dd9fe693aeb2a035889edbe93dc1bf92", "fusion_lon": 0.0, "bike_id": "dd9fe693aeb2a035889edbe93dc1bf92", "is_disabled": 0, "is_reserved": 0}, {"rental_uris": {"ios": "https://dc.lft.to/lastmile_qr_scan", "android": "https://dc.lft.to/lastmile_qr_scan"}, "lon": -77.00581766666667, "type": "electric_scooter", "fusion_lat": 0.0, "lat": 38.878771666666665, "name": "1f2877ea52bd66cea5fd5a51a091d747", "fusion_lon": 0.0, "bike_id": "1f2877ea52bd66cea5fd5a51a091d747", "is_disabled": 0, "is_reserved": 0}, {"rental_uris": {"ios": "https://dc.lft.to/lastmile_qr_scan", "android": "https://dc.lft.to/lastmile_qr_scan"}, "lon": -77.03439933333334, "type": "electric_scooter", "fusion_lat": 0.0, "lat": 38.904390666666664, "name": "40e3a29367a23b67bfab225f813a47f6", "fusion_lon": 0.0, "bike_id": "40e3a29367a23b67bfab225f813a47f6", "is_disabled": 0, "is_reserved": 0}, {"rental_uris": {"ios": "https://dc.lft.to/lastmile_qr_scan", "android": "https://dc.lft.to/lastmile_qr_scan"}, "lon": -77.0175565, "type": "electric_scooter", "fusion_lat": 0.0, "lat": 38.8769095, "name": "2ee4591cd3ce67a6e16583e830d07f28", "fusion_lon": 0.0, "bike_id": "2ee4591cd3ce67a6e16583e830d07f28", "is_disabled": 0, "is_reserved": 0}, {"rental_uris": {"ios": "https://dc.lft.to/lastmile_qr_scan", "android": "https://dc.lft.to/lastmile_qr_scan"}, "lon": -77.03184566666667, "type": "electric_scooter", "fusion_lat": 0.0, "lat": 38.89582083333333, "name": "752438dea1f2366464810243f6c72e6b", "fusion_lon": 0.0, "bike_id": "752438dea1f2366464810243f6c72e6b", "is_disabled": 0, "is_reserved": 0}, {"rental_uris": {"ios": "https://dc.lft.to/lastmile_qr_scan", "android": "https://dc.lft.to/lastmile_qr_scan"}, "lon": -77.0586395, "type": "electric_scooter", "fusion_lat": 0.0, "lat": 38.93605566666667, "name": "23e894b44c9fa566ba5445aa69a74445", "fusion_lon": 0.0, "bike_id": "23e894b44c9fa566ba5445aa69a74445", "is_disabled": 0, "is_reserved": 0}, {"rental_uris": {"ios": "https://dc.lft.to/lastmile_qr_scan", "android": "https://dc.lft.to/lastmile_qr_scan"}, "lon": -76.98817966666667, "type": "electric_scooter", "fusion_lat": 0.0, "lat": 38.903380166666665, "name": "e70631dc9ce28c47e0928b6eff27fb89", "fusion_lon": 0.0, "bike_id": "e70631dc9ce28c47e0928b6eff27fb89", "is_disabled": 0, "is_reserved": 0}, {"rental_uris": {"ios": "https://dc.lft.to/lastmile_qr_scan", "android": "https://dc.lft.to/lastmile_qr_scan"}, "lon": -77.02179283333334, "type": "electric_scooter", "fusion_lat": 0.0, "lat": 38.8947925, "name": "cb8df767c26f4a095ad7394a36ac759f", "fusion_lon": 0.0, "bike_id": "cb8df767c26f4a095ad7394a36ac759f", "is_disabled": 0, "is_reserved": 0}, {"rental_uris": {"ios": "https://dc.lft.to/lastmile_qr_scan", "android": "https://dc.lft.to/lastmile_qr_scan"}, "lon": -77.02711666666667, "type": "electric_scooter", "fusion_lat": 0.0, "lat": 38.9248265, "name": "df3b73614cf07a5256af565adcce02a9", "fusion_lon": 0.0, "bike_id": "df3b73614cf07a5256af565adcce02a9", "is_disabled": 0, "is_reserved": 0}, {"rental_uris": {"ios": "https://dc.lft.to/lastmile_qr_scan", "android": "https://dc.lft.to/lastmile_qr_scan"}, "lon": -77.02224466666667, "type": "electric_scooter", "fusion_lat": 0.0, "lat": 38.89357183333333, "name": "844a7817b87513a45efa50988493ee62", "fusion_lon": 0.0, "bike_id": "844a7817b87513a45efa50988493ee62", "is_disabled": 0, "is_reserved": 0}, {"rental_uris": {"ios": "https://dc.lft.to/lastmile_qr_scan", "android": "https://dc.lft.to/lastmile_qr_scan"}, "lon": -76.93301583333333, "type": "electric_scooter", "fusion_lat": 0.0, "lat": 38.8989685, "name": "dc6c65d1d742d25e0b64d62025fd80ee", "fusion_lon": 0.0, "bike_id": "dc6c65d1d742d25e0b64d62025fd80ee", "is_disabled": 0, "is_reserved": 0}, {"rental_uris": {"ios": "https://dc.lft.to/lastmile_qr_scan", "android": "https://dc.lft.to/lastmile_qr_scan"}, "lon": -76.98867, "type": "electric_scooter", "fusion_lat": 0.0, "lat": 38.900315666666664, "name": "38e74e0507d89da16f43877827372152", "fusion_lon": 0.0, "bike_id": "38e74e0507d89da16f43877827372152", "is_disabled": 0, "is_reserved": 0}, {"rental_uris": {"ios": "https://dc.lft.to/lastmile_qr_scan", "android": "https://dc.lft.to/lastmile_qr_scan"}, "lon": -77.02753483333333, "type": "electric_scooter", "fusion_lat": 0.0, "lat": 38.923863833333336, "name": "109ac44c102b26384a057d0be35c45fa", "fusion_lon": 0.0, "bike_id": "109ac44c102b26384a057d0be35c45fa", "is_disabled": 0, "is_reserved": 0}, {"rental_uris": {"ios": "https://dc.lft.to/lastmile_qr_scan", "android": "https://dc.lft.to/lastmile_qr_scan"}, "lon": -77.0954945, "type": "electric_scooter", "fusion_lat": 0.0, "lat": 38.91660366666667, "name": "13d9a1a5c9e909d2b099bcc1ce24f93c", "fusion_lon": 0.0, "bike_id": "13d9a1a5c9e909d2b099bcc1ce24f93c", "is_disabled": 0, "is_reserved": 0}, {"rental_uris": {"ios": "https://dc.lft.to/lastmile_qr_scan", "android": "https://dc.lft.to/lastmile_qr_scan"}, "lon": -76.98586316666666, "type": "electric_scooter", "fusion_lat": 0.0, "lat": 38.906615, "name": "c40e8cb6b0ed61fb360c8009704f0124", "fusion_lon": 0.0, "bike_id": "c40e8cb6b0ed61fb360c8009704f0124", "is_disabled": 0, "is_reserved": 0}, {"rental_uris": {"ios": "https://dc.lft.to/lastmile_qr_scan", "android": "https://dc.lft.to/lastmile_qr_scan"}, "lon": -77.0122615, "type": "electric_scooter", "fusion_lat": 0.0, "lat": 38.90983116666666, "name": "e65c528a9bb4a861a85888cb214fb29a", "fusion_lon": 0.0, "bike_id": "e65c528a9bb4a861a85888cb214fb29a", "is_disabled": 0, "is_reserved": 0}, {"rental_uris": {"ios": "https://dc.lft.to/lastmile_qr_scan", "android": "https://dc.lft.to/lastmile_qr_scan"}, "lon": -77.0198215, "type": "electric_bike", "fusion_lat": 0.0, "lat": 38.95658066666667, "name": "3b41a2e77a9ecddb054415712ee50949", "fusion_lon": 0.0, "bike_id": "3b41a2e77a9ecddb054415712ee50949", "is_disabled": 0, "is_reserved": 0}, {"rental_uris": {"ios": "https://dc.lft.to/lastmile_qr_scan", "android": "https://dc.lft.to/lastmile_qr_scan"}, "lon": -77.00763966666666, "type": "electric_scooter", "fusion_lat": 0.0, "lat": 38.910323166666664, "name": "80bb7feec9250903423c07526d9c8b10", "fusion_lon": 0.0, "bike_id": "80bb7feec9250903423c07526d9c8b10", "is_disabled": 0, "is_reserved": 0}, {"rental_uris": {"ios": "https://dc.lft.to/lastmile_qr_scan", "android": "https://dc.lft.to/lastmile_qr_scan"}, "lon": -77.03970416666667, "type": "electric_scooter", "fusion_lat": 0.0, "lat": 38.901339666666665, "name": "eed6f913d05a13f38389520e79863cde", "fusion_lon": 0.0, "bike_id": "eed6f913d05a13f38389520e79863cde", "is_disabled": 0, "is_reserved": 0}, {"rental_uris": {"ios": "https://dc.lft.to/lastmile_qr_scan", "android": "https://dc.lft.to/lastmile_qr_scan"}, "lon": -76.98512633333333, "type": "electric_scooter", "fusion_lat": 0.0, "lat": 38.900859833333335, "name": "138a9aab9f5c125597ad8afcf060c2e9", "fusion_lon": 0.0, "bike_id": "138a9aab9f5c125597ad8afcf060c2e9", "is_disabled": 0, "is_reserved": 0}, {"rental_uris": {"ios": "https://dc.lft.to/lastmile_qr_scan", "android": "https://dc.lft.to/lastmile_qr_scan"}, "lon": -77.04201366666666, "type": "electric_scooter", "fusion_lat": 0.0, "lat": 38.911092, "name": "e546e7098d21e3fd0366b47d34268705", "fusion_lon": 0.0, "bike_id": "e546e7098d21e3fd0366b47d34268705", "is_disabled": 0, "is_reserved": 0}, {"rental_uris": {"ios": "https://dc.lft.to/lastmile_qr_scan", "android": "https://dc.lft.to/lastmile_qr_scan"}, "lon": -77.09162766666667, "type": "electric_bike", "fusion_lat": 0.0, "lat": 38.967650666666664, "name": "9366a08233a98afadeae434c8faf0b58", "fusion_lon": 0.0, "bike_id": "9366a08233a98afadeae434c8faf0b58", "is_disabled": 0, "is_reserved": 0}, {"rental_uris": {"ios": "https://dc.lft.to/lastmile_qr_scan", "android": "https://dc.lft.to/lastmile_qr_scan"}, "lon": -77.05416283333334, "type": "electric_scooter", "fusion_lat": 0.0, "lat": 38.903966833333335, "name": "e493ab8734f0995e10a07b49af9879fa", "fusion_lon": 0.0, "bike_id": "e493ab8734f0995e10a07b49af9879fa", "is_disabled": 0, "is_reserved": 0}, {"rental_uris": {"ios": "https://dc.lft.to/lastmile_qr_scan", "android": "https://dc.lft.to/lastmile_qr_scan"}, "lon": -77.02590016666667, "type": "electric_scooter", "fusion_lat": 0.0, "lat": 38.91554216666667, "name": "b7bfea4dcfd5bca37f62eeea72b8c835", "fusion_lon": 0.0, "bike_id": "b7bfea4dcfd5bca37f62eeea72b8c835", "is_disabled": 0, "is_reserved": 0}, {"rental_uris": {"ios": "https://dc.lft.to/lastmile_qr_scan", "android": "https://dc.lft.to/lastmile_qr_scan"}, "lon": -77.04704683333334, "type": "electric_scooter", "fusion_lat": 0.0, "lat": 38.897384833333334, "name": "394292b35c43263a85b4607602c52908", "fusion_lon": 0.0, "bike_id": "394292b35c43263a85b4607602c52908", "is_disabled": 0, "is_reserved": 0}, {"rental_uris": {"ios": "https://dc.lft.to/lastmile_qr_scan", "android": "https://dc.lft.to/lastmile_qr_scan"}, "lon": -77.02509283333333, "type": "electric_bike", "fusion_lat": 0.0, "lat": 38.934157166666665, "name": "f3a6ce8cecb6d6e38b7ecf3170b870b4", "fusion_lon": 0.0, "bike_id": "f3a6ce8cecb6d6e38b7ecf3170b870b4", "is_disabled": 0, "is_reserved": 0}, {"rental_uris": {"ios": "https://dc.lft.to/lastmile_qr_scan", "android": "https://dc.lft.to/lastmile_qr_scan"}, "lon": -77.13095966666667, "type": "electric_bike", "fusion_lat": 0.0, "lat": 38.861631333333335, "name": "5a55fb46cf9243c4e21461bd1e0c485b", "fusion_lon": 0.0, "bike_id": "5a55fb46cf9243c4e21461bd1e0c485b", "is_disabled": 0, "is_reserved": 0}, {"rental_uris": {"ios": "https://dc.lft.to/lastmile_qr_scan", "android": "https://dc.lft.to/lastmile_qr_scan"}, "lon": -76.9906735, "type": "electric_scooter", "fusion_lat": 0.0, "lat": 38.90416883333333, "name": "12bb74855f73f56a726a4374e65fdc6d", "fusion_lon": 0.0, "bike_id": "12bb74855f73f56a726a4374e65fdc6d", "is_disabled": 0, "is_reserved": 0}, {"rental_uris": {"ios": "https://dc.lft.to/lastmile_qr_scan", "android": "https://dc.lft.to/lastmile_qr_scan"}, "lon": -77.0270405, "type": "electric_scooter", "fusion_lat": 0.0, "lat": 38.906663, "name": "78a35fb6761d9f5003c0a929fbcc0938", "fusion_lon": 0.0, "bike_id": "78a35fb6761d9f5003c0a929fbcc0938", "is_disabled": 0, "is_reserved": 0}, {"rental_uris": {"ios": "https://dc.lft.to/lastmile_qr_scan", "android": "https://dc.lft.to/lastmile_qr_scan"}, "lon": -77.0437205, "type": "electric_scooter", "fusion_lat": 0.0, "lat": 38.92065683333333, "name": "178b2dddfc18e31d778b804fd45d09af", "fusion_lon": 0.0, "bike_id": "178b2dddfc18e31d778b804fd45d09af", "is_disabled": 0, "is_reserved": 0}, {"rental_uris": {"ios": "https://dc.lft.to/lastmile_qr_scan", "android": "https://dc.lft.to/lastmile_qr_scan"}, "lon": -77.02314216666667, "type": "electric_scooter", "fusion_lat": 0.0, "lat": 38.883443666666665, "name": "1b203e115e395f2feaa288662b323b4f", "fusion_lon": 0.0, "bike_id": "1b203e115e395f2feaa288662b323b4f", "is_disabled": 0, "is_reserved": 0}, {"rental_uris": {"ios": "https://dc.lft.to/lastmile_qr_scan", "android": "https://dc.lft.to/lastmile_qr_scan"}, "lon": -77.02877683333334, "type": "electric_scooter", "fusion_lat": 0.0, "lat": 38.90438116666667, "name": "271db0f5b2c25f0b5d69053398ee7432", "fusion_lon": 0.0, "bike_id": "271db0f5b2c25f0b5d69053398ee7432", "is_disabled": 0, "is_reserved": 0}, {"rental_uris": {"ios": "https://dc.lft.to/lastmile_qr_scan", "android": "https://dc.lft.to/lastmile_qr_scan"}, "lon": -77.03464033333333, "type": "electric_scooter", "fusion_lat": 0.0, "lat": 38.92157566666667, "name": "b946b37fa59b154c788f9be53ddcdf55", "fusion_lon": 0.0, "bike_id": "b946b37fa59b154c788f9be53ddcdf55", "is_disabled": 0, "is_reserved": 0}, {"rental_uris": {"ios": "https://dc.lft.to/lastmile_qr_scan", "android": "https://dc.lft.to/lastmile_qr_scan"}, "lon": -77.01346, "type": "electric_bike", "fusion_lat": 0.0, "lat": 39.0000175, "name": "c05e55bf6fa3be7a4011f88049f8726f", "fusion_lon": 0.0, "bike_id": "c05e55bf6fa3be7a4011f88049f8726f", "is_disabled": 0, "is_reserved": 0}, {"rental_uris": {"ios": "https://dc.lft.to/lastmile_qr_scan", "android": "https://dc.lft.to/lastmile_qr_scan"}, "lon": -77.00654433333334, "type": "electric_scooter", "fusion_lat": 0.0, "lat": 38.87181133333333, "name": "3432f1b5c14e4233377918e157dd389f", "fusion_lon": 0.0, "bike_id": "3432f1b5c14e4233377918e157dd389f", "is_disabled": 0, "is_reserved": 0}, {"rental_uris": {"ios": "https://dc.lft.to/lastmile_qr_scan", "android": "https://dc.lft.to/lastmile_qr_scan"}, "lon": -77.01898416666667, "type": "electric_scooter", "fusion_lat": 0.0, "lat": 38.87665, "name": "96be977f057b458f2a34652314e6007c", "fusion_lon": 0.0, "bike_id": "96be977f057b458f2a34652314e6007c", "is_disabled": 0, "is_reserved": 0}, {"rental_uris": {"ios": "https://dc.lft.to/lastmile_qr_scan", "android": "https://dc.lft.to/lastmile_qr_scan"}, "lon": -77.02731883333334, "type": "electric_scooter", "fusion_lat": 0.0, "lat": 38.91384583333333, "name": "bfc6f44e139ccc29f2e68511412330c5", "fusion_lon": 0.0, "bike_id": "bfc6f44e139ccc29f2e68511412330c5", "is_disabled": 0, "is_reserved": 0}, {"rental_uris": {"ios": "https://dc.lft.to/lastmile_qr_scan", "android": "https://dc.lft.to/lastmile_qr_scan"}, "lon": -77.05533916666667, "type": "electric_scooter", "fusion_lat": 0.0, "lat": 38.927870666666664, "name": "6cced1890e0fa2d9bd1e8e6fb4f0740f", "fusion_lon": 0.0, "bike_id": "6cced1890e0fa2d9bd1e8e6fb4f0740f", "is_disabled": 0, "is_reserved": 0}, {"rental_uris": {"ios": "https://dc.lft.to/lastmile_qr_scan", "android": "https://dc.lft.to/lastmile_qr_scan"}, "lon": -77.02134233333334, "type": "electric_scooter", "fusion_lat": 0.0, "lat": 38.89502783333333, "name": "3d4f334ffa3c5e2f2d12e53c9bce3983", "fusion_lon": 0.0, "bike_id": "3d4f334ffa3c5e2f2d12e53c9bce3983", "is_disabled": 0, "is_reserved": 0}, {"rental_uris": {"ios": "https://dc.lft.to/lastmile_qr_scan", "android": "https://dc.lft.to/lastmile_qr_scan"}, "lon": -77.0111125, "type": "electric_scooter", "fusion_lat": 0.0, "lat": 38.903561833333335, "name": "de377076c2922ff957e2297ad7bef825", "fusion_lon": 0.0, "bike_id": "de377076c2922ff957e2297ad7bef825", "is_disabled": 0, "is_reserved": 0}, {"rental_uris": {"ios": "https://dc.lft.to/lastmile_qr_scan", "android": "https://dc.lft.to/lastmile_qr_scan"}, "lon": -77.03348483333333, "type": "electric_scooter", "fusion_lat": 0.0, "lat": 38.93417433333333, "name": "c28884c0464bb2a361fc27e07e61bbd3", "fusion_lon": 0.0, "bike_id": "c28884c0464bb2a361fc27e07e61bbd3", "is_disabled": 0, "is_reserved": 0}, {"rental_uris": {"ios": "https://dc.lft.to/lastmile_qr_scan", "android": "https://dc.lft.to/lastmile_qr_scan"}, "lon": -77.02244866666666, "type": "electric_scooter", "fusion_lat": 0.0, "lat": 38.92469233333333, "name": "7553e012a0484dfc978f366312f33ac8", "fusion_lon": 0.0, "bike_id": "7553e012a0484dfc978f366312f33ac8", "is_disabled": 0, "is_reserved": 0}, {"rental_uris": {"ios": "https://dc.lft.to/lastmile_qr_scan", "android": "https://dc.lft.to/lastmile_qr_scan"}, "lon": -77.048053, "type": "electric_scooter", "fusion_lat": 0.0, "lat": 38.920349, "name": "e27912dcc062068b02b7f63d49785040", "fusion_lon": 0.0, "bike_id": "e27912dcc062068b02b7f63d49785040", "is_disabled": 0, "is_reserved": 0}, {"rental_uris": {"ios": "https://dc.lft.to/lastmile_qr_scan", "android": "https://dc.lft.to/lastmile_qr_scan"}, "lon": -77.01284483333333, "type": "electric_scooter", "fusion_lat": 0.0, "lat": 38.900536833333334, "name": "7ead0a1ed0a4d775d092b874060734d1", "fusion_lon": 0.0, "bike_id": "7ead0a1ed0a4d775d092b874060734d1", "is_disabled": 0, "is_reserved": 0}, {"rental_uris": {"ios": "https://dc.lft.to/lastmile_qr_scan", "android": "https://dc.lft.to/lastmile_qr_scan"}, "lon": -77.06281983333334, "type": "electric_bike", "fusion_lat": 0.0, "lat": 38.904569, "name": "bdf639f19cfc01ddd5397db2913f4084", "fusion_lon": 0.0, "bike_id": "bdf639f19cfc01ddd5397db2913f4084", "is_disabled": 0, "is_reserved": 0}, {"rental_uris": {"ios": "https://dc.lft.to/lastmile_qr_scan", "android": "https://dc.lft.to/lastmile_qr_scan"}, "lon": -77.03418266666667, "type": "electric_scooter", "fusion_lat": 0.0, "lat": 38.9354235, "name": "15d7eb7f4ec7e96c08c4a38c76309933", "fusion_lon": 0.0, "bike_id": "15d7eb7f4ec7e96c08c4a38c76309933", "is_disabled": 0, "is_reserved": 0}, {"rental_uris": {"ios": "https://dc.lft.to/lastmile_qr_scan", "android": "https://dc.lft.to/lastmile_qr_scan"}, "lon": -77.0285845, "type": "electric_scooter", "fusion_lat": 0.0, "lat": 38.92821216666667, "name": "16942cd360eba86e9138698162bb52f6", "fusion_lon": 0.0, "bike_id": "16942cd360eba86e9138698162bb52f6", "is_disabled": 0, "is_reserved": 0}, {"rental_uris": {"ios": "https://dc.lft.to/lastmile_qr_scan", "android": "https://dc.lft.to/lastmile_qr_scan"}, "lon": -77.02351366666667, "type": "electric_scooter", "fusion_lat": 0.0, "lat": 38.925093833333335, "name": "3c63daa68e138a8994bbce54a007fcf1", "fusion_lon": 0.0, "bike_id": "3c63daa68e138a8994bbce54a007fcf1", "is_disabled": 0, "is_reserved": 0}, {"rental_uris": {"ios": "https://dc.lft.to/lastmile_qr_scan", "android": "https://dc.lft.to/lastmile_qr_scan"}, "lon": -77.04028816666667, "type": "electric_scooter", "fusion_lat": 0.0, "lat": 38.921632, "name": "0e63951d04c39016a10b2114ab333b88", "fusion_lon": 0.0, "bike_id": "0e63951d04c39016a10b2114ab333b88", "is_disabled": 0, "is_reserved": 0}, {"rental_uris": {"ios": "https://dc.lft.to/lastmile_qr_scan", "android": "https://dc.lft.to/lastmile_qr_scan"}, "lon": -77.0170045, "type": "electric_scooter", "fusion_lat": 0.0, "lat": 38.9202065, "name": "d9a71b3722fb455a1e0943242d144767", "fusion_lon": 0.0, "bike_id": "d9a71b3722fb455a1e0943242d144767", "is_disabled": 0, "is_reserved": 0}, {"rental_uris": {"ios": "https://dc.lft.to/lastmile_qr_scan", "android": "https://dc.lft.to/lastmile_qr_scan"}, "lon": -77.0353785, "type": "electric_scooter", "fusion_lat": 0.0, "lat": 38.9328575, "name": "a3fe0e56003059dbb7070d50f2b1ce55", "fusion_lon": 0.0, "bike_id": "a3fe0e56003059dbb7070d50f2b1ce55", "is_disabled": 0, "is_reserved": 0}, {"rental_uris": {"ios": "https://dc.lft.to/lastmile_qr_scan", "android": "https://dc.lft.to/lastmile_qr_scan"}, "lon": -77.10339516666667, "type": "electric_bike", "fusion_lat": 0.0, "lat": 38.85229983333333, "name": "358400e833b9a1256127957db83bbe08", "fusion_lon": 0.0, "bike_id": "358400e833b9a1256127957db83bbe08", "is_disabled": 0, "is_reserved": 0}, {"rental_uris": {"ios": "https://dc.lft.to/lastmile_qr_scan", "android": "https://dc.lft.to/lastmile_qr_scan"}, "lon": -77.03846533333333, "type": "electric_scooter", "fusion_lat": 0.0, "lat": 38.913172833333334, "name": "a5633ab3f2d2d73dbb45dbf25ef60300", "fusion_lon": 0.0, "bike_id": "a5633ab3f2d2d73dbb45dbf25ef60300", "is_disabled": 0, "is_reserved": 0}, {"rental_uris": {"ios": "https://dc.lft.to/lastmile_qr_scan", "android": "https://dc.lft.to/lastmile_qr_scan"}, "lon": -77.02679566666667, "type": "electric_scooter", "fusion_lat": 0.0, "lat": 38.88113633333333, "name": "cf6d97c7fe5990c54948af2c156481a8", "fusion_lon": 0.0, "bike_id": "cf6d97c7fe5990c54948af2c156481a8", "is_disabled": 0, "is_reserved": 0}, {"rental_uris": {"ios": "https://dc.lft.to/lastmile_qr_scan", "android": "https://dc.lft.to/lastmile_qr_scan"}, "lon": -77.04001133333334, "type": "electric_scooter", "fusion_lat": 0.0, "lat": 38.918215000000004, "name": "6de229514a6f35291ebdd819f3a2c920", "fusion_lon": 0.0, "bike_id": "6de229514a6f35291ebdd819f3a2c920", "is_disabled": 0, "is_reserved": 0}, {"rental_uris": {"ios": "https://dc.lft.to/lastmile_qr_scan", "android": "https://dc.lft.to/lastmile_qr_scan"}, "lon": -77.00135516666667, "type": "electric_scooter", "fusion_lat": 0.0, "lat": 38.904147, "name": "b5ad0f92d09206a60f06ab34ffef06da", "fusion_lon": 0.0, "bike_id": "b5ad0f92d09206a60f06ab34ffef06da", "is_disabled": 0, "is_reserved": 0}, {"rental_uris": {"ios": "https://dc.lft.to/lastmile_qr_scan", "android": "https://dc.lft.to/lastmile_qr_scan"}, "lon": -76.927281, "type": "electric_scooter", "fusion_lat": 0.0, "lat": 38.880434666666666, "name": "7d897194aa68e6553755ea7bafa93181", "fusion_lon": 0.0, "bike_id": "7d897194aa68e6553755ea7bafa93181", "is_disabled": 0, "is_reserved": 0}, {"rental_uris": {"ios": "https://dc.lft.to/lastmile_qr_scan", "android": "https://dc.lft.to/lastmile_qr_scan"}, "lon": -77.00886566666667, "type": "electric_scooter", "fusion_lat": 0.0, "lat": 38.91408283333333, "name": "82a4f200fb5e48fb97c238dd3bd7508c", "fusion_lon": 0.0, "bike_id": "82a4f200fb5e48fb97c238dd3bd7508c", "is_disabled": 0, "is_reserved": 0}, {"rental_uris": {"ios": "https://dc.lft.to/lastmile_qr_scan", "android": "https://dc.lft.to/lastmile_qr_scan"}, "lon": -77.0127625, "type": "electric_bike", "fusion_lat": 0.0, "lat": 38.8812555, "name": "20cd64aec963e4e78a241bf76e6fc954", "fusion_lon": 0.0, "bike_id": "20cd64aec963e4e78a241bf76e6fc954", "is_disabled": 0, "is_reserved": 0}, {"rental_uris": {"ios": "https://dc.lft.to/lastmile_qr_scan", "android": "https://dc.lft.to/lastmile_qr_scan"}, "lon": -77.02385883333334, "type": "electric_scooter", "fusion_lat": 0.0, "lat": 38.907096833333334, "name": "c511e1b817d274ad0bbd45fc5f9df934", "fusion_lon": 0.0, "bike_id": "c511e1b817d274ad0bbd45fc5f9df934", "is_disabled": 0, "is_reserved": 0}, {"rental_uris": {"ios": "https://dc.lft.to/lastmile_qr_scan", "android": "https://dc.lft.to/lastmile_qr_scan"}, "lon": -77.0049375, "type": "electric_scooter", "fusion_lat": 0.0, "lat": 38.8786685, "name": "d58dc79b3e6f36dd55d6ff7447991cdf", "fusion_lon": 0.0, "bike_id": "d58dc79b3e6f36dd55d6ff7447991cdf", "is_disabled": 0, "is_reserved": 0}, {"rental_uris": {"ios": "https://dc.lft.to/lastmile_qr_scan", "android": "https://dc.lft.to/lastmile_qr_scan"}, "lon": -76.92595166666666, "type": "electric_scooter", "fusion_lat": 0.0, "lat": 38.897332, "name": "5625af8a4e91b3b08019aaf07ac66a10", "fusion_lon": 0.0, "bike_id": "5625af8a4e91b3b08019aaf07ac66a10", "is_disabled": 0, "is_reserved": 0}, {"rental_uris": {"ios": "https://dc.lft.to/lastmile_qr_scan", "android": "https://dc.lft.to/lastmile_qr_scan"}, "lon": -77.0297775, "type": "electric_scooter", "fusion_lat": 0.0, "lat": 38.962322, "name": "9f697827f1e62b1ae90308a0d7be230a", "fusion_lon": 0.0, "bike_id": "9f697827f1e62b1ae90308a0d7be230a", "is_disabled": 0, "is_reserved": 0}, {"rental_uris": {"ios": "https://dc.lft.to/lastmile_qr_scan", "android": "https://dc.lft.to/lastmile_qr_scan"}, "lon": -77.04806366666666, "type": "electric_scooter", "fusion_lat": 0.0, "lat": 38.89620466666667, "name": "8a872704bc30fd117540bd8499a08e2c", "fusion_lon": 0.0, "bike_id": "8a872704bc30fd117540bd8499a08e2c", "is_disabled": 0, "is_reserved": 0}, {"rental_uris": {"ios": "https://dc.lft.to/lastmile_qr_scan", "android": "https://dc.lft.to/lastmile_qr_scan"}, "lon": -77.0372525, "type": "electric_scooter", "fusion_lat": 0.0, "lat": 38.9336275, "name": "fc897f24968c3f958df6efe11049211b", "fusion_lon": 0.0, "bike_id": "fc897f24968c3f958df6efe11049211b", "is_disabled": 0, "is_reserved": 0}, {"rental_uris": {"ios": "https://dc.lft.to/lastmile_qr_scan", "android": "https://dc.lft.to/lastmile_qr_scan"}, "lon": -77.05139933333334, "type": "electric_scooter", "fusion_lat": 0.0, "lat": 38.902466833333335, "name": "7871bb3e8bffc6533591791913c5a235", "fusion_lon": 0.0, "bike_id": "7871bb3e8bffc6533591791913c5a235", "is_disabled": 0, "is_reserved": 0}, {"rental_uris": {"ios": "https://dc.lft.to/lastmile_qr_scan", "android": "https://dc.lft.to/lastmile_qr_scan"}, "lon": -77.023787, "type": "electric_scooter", "fusion_lat": 0.0, "lat": 38.91910133333333, "name": "589a70cf4a43689fd1975f7e1039a531", "fusion_lon": 0.0, "bike_id": "589a70cf4a43689fd1975f7e1039a531", "is_disabled": 0, "is_reserved": 0}, {"rental_uris": {"ios": "https://dc.lft.to/lastmile_qr_scan", "android": "https://dc.lft.to/lastmile_qr_scan"}, "lon": -77.04464216666666, "type": "electric_scooter", "fusion_lat": 0.0, "lat": 38.911196833333335, "name": "79b611cebb55c891c5492aa4ed7c5c1f", "fusion_lon": 0.0, "bike_id": "79b611cebb55c891c5492aa4ed7c5c1f", "is_disabled": 0, "is_reserved": 0}, {"rental_uris": {"ios": "https://dc.lft.to/lastmile_qr_scan", "android": "https://dc.lft.to/lastmile_qr_scan"}, "lon": -77.02199383333334, "type": "electric_scooter", "fusion_lat": 0.0, "lat": 38.895195, "name": "a30fbdb0988efa8525a25616928addc1", "fusion_lon": 0.0, "bike_id": "a30fbdb0988efa8525a25616928addc1", "is_disabled": 0, "is_reserved": 0}, {"rental_uris": {"ios": "https://dc.lft.to/lastmile_qr_scan", "android": "https://dc.lft.to/lastmile_qr_scan"}, "lon": -77.0332545, "type": "electric_scooter", "fusion_lat": 0.0, "lat": 38.9204985, "name": "8be28fa349fe37482777ff8dfbc3b6e5", "fusion_lon": 0.0, "bike_id": "8be28fa349fe37482777ff8dfbc3b6e5", "is_disabled": 0, "is_reserved": 0}, {"rental_uris": {"ios": "https://dc.lft.to/lastmile_qr_scan", "android": "https://dc.lft.to/lastmile_qr_scan"}, "lon": -77.0296555, "type": "electric_scooter", "fusion_lat": 0.0, "lat": 38.8843855, "name": "cfaee86e864c1bb172b7f074fc015bfe", "fusion_lon": 0.0, "bike_id": "cfaee86e864c1bb172b7f074fc015bfe", "is_disabled": 0, "is_reserved": 0}, {"rental_uris": {"ios": "https://dc.lft.to/lastmile_qr_scan", "android": "https://dc.lft.to/lastmile_qr_scan"}, "lon": -77.05133866666667, "type": "electric_scooter", "fusion_lat": 0.0, "lat": 38.90527483333334, "name": "23425d57a3ec9f375bb444f2e83c7755", "fusion_lon": 0.0, "bike_id": "23425d57a3ec9f375bb444f2e83c7755", "is_disabled": 0, "is_reserved": 0}, {"rental_uris": {"ios": "https://dc.lft.to/lastmile_qr_scan", "android": "https://dc.lft.to/lastmile_qr_scan"}, "lon": -76.978169, "type": "electric_scooter", "fusion_lat": 0.0, "lat": 38.9067685, "name": "7580f271d85d15380e161d8bf19ade6e", "fusion_lon": 0.0, "bike_id": "7580f271d85d15380e161d8bf19ade6e", "is_disabled": 0, "is_reserved": 0}, {"rental_uris": {"ios": "https://dc.lft.to/lastmile_qr_scan", "android": "https://dc.lft.to/lastmile_qr_scan"}, "lon": -77.028738, "type": "electric_scooter", "fusion_lat": 0.0, "lat": 38.9134755, "name": "24e9b3f56f4decb06cf1a0881e067b84", "fusion_lon": 0.0, "bike_id": "24e9b3f56f4decb06cf1a0881e067b84", "is_disabled": 0, "is_reserved": 0}, {"rental_uris": {"ios": "https://dc.lft.to/lastmile_qr_scan", "android": "https://dc.lft.to/lastmile_qr_scan"}, "lon": -76.93538266666667, "type": "electric_bike", "fusion_lat": 0.0, "lat": 38.95557133333333, "name": "4a1c4daad5c7b3f6f0965eca52ede714", "fusion_lon": 0.0, "bike_id": "4a1c4daad5c7b3f6f0965eca52ede714", "is_disabled": 0, "is_reserved": 0}, {"rental_uris": {"ios": "https://dc.lft.to/lastmile_qr_scan", "android": "https://dc.lft.to/lastmile_qr_scan"}, "lon": -77.04381083333334, "type": "electric_scooter", "fusion_lat": 0.0, "lat": 38.92068666666667, "name": "8e8ac4f4bd72efe3925e50fa1eb53ecd", "fusion_lon": 0.0, "bike_id": "8e8ac4f4bd72efe3925e50fa1eb53ecd", "is_disabled": 0, "is_reserved": 0}, {"rental_uris": {"ios": "https://dc.lft.to/lastmile_qr_scan", "android": "https://dc.lft.to/lastmile_qr_scan"}, "lon": -77.12260833333333, "type": "electric_bike", "fusion_lat": 0.0, "lat": 38.891935, "name": "eec8ae82ce4f7a2d83ec0600cdaf2133", "fusion_lon": 0.0, "bike_id": "eec8ae82ce4f7a2d83ec0600cdaf2133", "is_disabled": 0, "is_reserved": 0}, {"rental_uris": {"ios": "https://dc.lft.to/lastmile_qr_scan", "android": "https://dc.lft.to/lastmile_qr_scan"}, "lon": -77.07685366666666, "type": "electric_bike", "fusion_lat": 0.0, "lat": 38.83190966666667, "name": "ec63361a03e179c106e99d5dfcc90ad8", "fusion_lon": 0.0, "bike_id": "ec63361a03e179c106e99d5dfcc90ad8", "is_disabled": 0, "is_reserved": 0}, {"rental_uris": {"ios": "https://dc.lft.to/lastmile_qr_scan", "android": "https://dc.lft.to/lastmile_qr_scan"}, "lon": -77.0322215, "type": "electric_scooter", "fusion_lat": 0.0, "lat": 38.925920166666664, "name": "6ef9f363635383d222407d1f693e17cb", "fusion_lon": 0.0, "bike_id": "6ef9f363635383d222407d1f693e17cb", "is_disabled": 0, "is_reserved": 0}, {"rental_uris": {"ios": "https://dc.lft.to/lastmile_qr_scan", "android": "https://dc.lft.to/lastmile_qr_scan"}, "lon": -77.1121065, "type": "electric_bike", "fusion_lat": 0.0, "lat": 38.813100666666664, "name": "296f6d1a22b3157294723d56c0fb0250", "fusion_lon": 0.0, "bike_id": "296f6d1a22b3157294723d56c0fb0250", "is_disabled": 0, "is_reserved": 0}, {"rental_uris": {"ios": "https://dc.lft.to/lastmile_qr_scan", "android": "https://dc.lft.to/lastmile_qr_scan"}, "lon": -77.012068, "type": "electric_bike", "fusion_lat": 0.0, "lat": 38.87094166666667, "name": "d09bcc1b03f5f085071ce3750183f12a", "fusion_lon": 0.0, "bike_id": "d09bcc1b03f5f085071ce3750183f12a", "is_disabled": 0, "is_reserved": 0}, {"rental_uris": {"ios": "https://dc.lft.to/lastmile_qr_scan", "android": "https://dc.lft.to/lastmile_qr_scan"}, "lon": -77.03176616666667, "type": "electric_scooter", "fusion_lat": 0.0, "lat": 38.899569666666665, "name": "120db3ebcb4f17df5c2156facd5a1971", "fusion_lon": 0.0, "bike_id": "120db3ebcb4f17df5c2156facd5a1971", "is_disabled": 0, "is_reserved": 0}, {"rental_uris": {"ios": "https://dc.lft.to/lastmile_qr_scan", "android": "https://dc.lft.to/lastmile_qr_scan"}, "lon": -76.9289285, "type": "electric_scooter", "fusion_lat": 0.0, "lat": 38.893301, "name": "f0ddfea32760daa878e2ab08d29a3fdd", "fusion_lon": 0.0, "bike_id": "f0ddfea32760daa878e2ab08d29a3fdd", "is_disabled": 0, "is_reserved": 0}, {"rental_uris": {"ios": "https://dc.lft.to/lastmile_qr_scan", "android": "https://dc.lft.to/lastmile_qr_scan"}, "lon": -77.02701033333334, "type": "electric_scooter", "fusion_lat": 0.0, "lat": 38.949790666666665, "name": "31feb4f39c16174cdd38175c991fc805", "fusion_lon": 0.0, "bike_id": "31feb4f39c16174cdd38175c991fc805", "is_disabled": 0, "is_reserved": 0}, {"rental_uris": {"ios": "https://dc.lft.to/lastmile_qr_scan", "android": "https://dc.lft.to/lastmile_qr_scan"}, "lon": -77.00029716666667, "type": "electric_scooter", "fusion_lat": 0.0, "lat": 38.907601, "name": "393fe238de54754b399a97633175391f", "fusion_lon": 0.0, "bike_id": "393fe238de54754b399a97633175391f", "is_disabled": 0, "is_reserved": 0}, {"rental_uris": {"ios": "https://dc.lft.to/lastmile_qr_scan", "android": "https://dc.lft.to/lastmile_qr_scan"}, "lon": -77.046625, "type": "electric_scooter", "fusion_lat": 0.0, "lat": 38.9055595, "name": "69e3e3c3deec7184b729996eb1a93d58", "fusion_lon": 0.0, "bike_id": "69e3e3c3deec7184b729996eb1a93d58", "is_disabled": 0, "is_reserved": 0}, {"rental_uris": {"ios": "https://dc.lft.to/lastmile_qr_scan", "android": "https://dc.lft.to/lastmile_qr_scan"}, "lon": -77.02227583333334, "type": "electric_scooter", "fusion_lat": 0.0, "lat": 38.89226133333333, "name": "ce964e21effa2dd2a9e37582b8d3f9df", "fusion_lon": 0.0, "bike_id": "ce964e21effa2dd2a9e37582b8d3f9df", "is_disabled": 0, "is_reserved": 0}, {"rental_uris": {"ios": "https://dc.lft.to/lastmile_qr_scan", "android": "https://dc.lft.to/lastmile_qr_scan"}, "lon": -77.0211, "type": "electric_scooter", "fusion_lat": 0.0, "lat": 38.913144833333334, "name": "4096daf151518aa51f77fb832a981559", "fusion_lon": 0.0, "bike_id": "4096daf151518aa51f77fb832a981559", "is_disabled": 0, "is_reserved": 0}, {"rental_uris": {"ios": "https://dc.lft.to/lastmile_qr_scan", "android": "https://dc.lft.to/lastmile_qr_scan"}, "lon": -77.01052183333333, "type": "electric_scooter", "fusion_lat": 0.0, "lat": 38.879366, "name": "969f27469a73a110e00ea718f031d67b", "fusion_lon": 0.0, "bike_id": "969f27469a73a110e00ea718f031d67b", "is_disabled": 0, "is_reserved": 0}, {"rental_uris": {"ios": "https://dc.lft.to/lastmile_qr_scan", "android": "https://dc.lft.to/lastmile_qr_scan"}, "lon": -77.00923566666667, "type": "electric_scooter", "fusion_lat": 0.0, "lat": 38.903840333333335, "name": "4df9b8090d3212fa2d52cc368a0d687a", "fusion_lon": 0.0, "bike_id": "4df9b8090d3212fa2d52cc368a0d687a", "is_disabled": 0, "is_reserved": 0}, {"rental_uris": {"ios": "https://dc.lft.to/lastmile_qr_scan", "android": "https://dc.lft.to/lastmile_qr_scan"}, "lon": -77.0460985, "type": "electric_scooter", "fusion_lat": 0.0, "lat": 38.9038675, "name": "4207fe04ec3cdfb8e0c0cbb52e950822", "fusion_lon": 0.0, "bike_id": "4207fe04ec3cdfb8e0c0cbb52e950822", "is_disabled": 0, "is_reserved": 0}, {"rental_uris": {"ios": "https://dc.lft.to/lastmile_qr_scan", "android": "https://dc.lft.to/lastmile_qr_scan"}, "lon": -76.96625933333334, "type": "electric_bike", "fusion_lat": 0.0, "lat": 38.942046166666664, "name": "f85567c2d05c5b56b38751a905079ab4", "fusion_lon": 0.0, "bike_id": "f85567c2d05c5b56b38751a905079ab4", "is_disabled": 0, "is_reserved": 0}, {"rental_uris": {"ios": "https://dc.lft.to/lastmile_qr_scan", "android": "https://dc.lft.to/lastmile_qr_scan"}, "lon": -77.00186966666666, "type": "electric_scooter", "fusion_lat": 0.0, "lat": 38.873885, "name": "e2113e64f42fb69537441858cb9558c1", "fusion_lon": 0.0, "bike_id": "e2113e64f42fb69537441858cb9558c1", "is_disabled": 0, "is_reserved": 0}, {"rental_uris": {"ios": "https://dc.lft.to/lastmile_qr_scan", "android": "https://dc.lft.to/lastmile_qr_scan"}, "lon": -77.03970316666667, "type": "electric_scooter", "fusion_lat": 0.0, "lat": 38.919829666666665, "name": "292b8010f54a785cb48757ad55ec1681", "fusion_lon": 0.0, "bike_id": "292b8010f54a785cb48757ad55ec1681", "is_disabled": 0, "is_reserved": 0}, {"rental_uris": {"ios": "https://dc.lft.to/lastmile_qr_scan", "android": "https://dc.lft.to/lastmile_qr_scan"}, "lon": -77.046873, "type": "electric_scooter", "fusion_lat": 0.0, "lat": 38.892229666666665, "name": "f19b62c05327be44869b62f48077605e", "fusion_lon": 0.0, "bike_id": "f19b62c05327be44869b62f48077605e", "is_disabled": 0, "is_reserved": 0}, {"rental_uris": {"ios": "https://dc.lft.to/lastmile_qr_scan", "android": "https://dc.lft.to/lastmile_qr_scan"}, "lon": -77.03187883333334, "type": "electric_scooter", "fusion_lat": 0.0, "lat": 38.91274833333333, "name": "50107c56b582ac36a9d28afeb82d6622", "fusion_lon": 0.0, "bike_id": "50107c56b582ac36a9d28afeb82d6622", "is_disabled": 0, "is_reserved": 0}, {"rental_uris": {"ios": "https://dc.lft.to/lastmile_qr_scan", "android": "https://dc.lft.to/lastmile_qr_scan"}, "lon": -77.05402383333333, "type": "electric_scooter", "fusion_lat": 0.0, "lat": 38.9027905, "name": "a39eae8ac1fb26b052fed82f0dccc06c", "fusion_lon": 0.0, "bike_id": "a39eae8ac1fb26b052fed82f0dccc06c", "is_disabled": 0, "is_reserved": 0}, {"rental_uris": {"ios": "https://dc.lft.to/lastmile_qr_scan", "android": "https://dc.lft.to/lastmile_qr_scan"}, "lon": -77.0418795, "type": "electric_scooter", "fusion_lat": 0.0, "lat": 38.9035055, "name": "d0710a6280484836ed46262158c1dc5d", "fusion_lon": 0.0, "bike_id": "d0710a6280484836ed46262158c1dc5d", "is_disabled": 0, "is_reserved": 0}, {"rental_uris": {"ios": "https://dc.lft.to/lastmile_qr_scan", "android": "https://dc.lft.to/lastmile_qr_scan"}, "lon": -77.04714066666666, "type": "electric_scooter", "fusion_lat": 0.0, "lat": 38.922382166666665, "name": "5d5bb45947efaac88ebe585e2e925d4f", "fusion_lon": 0.0, "bike_id": "5d5bb45947efaac88ebe585e2e925d4f", "is_disabled": 0, "is_reserved": 0}, {"rental_uris": {"ios": "https://dc.lft.to/lastmile_qr_scan", "android": "https://dc.lft.to/lastmile_qr_scan"}, "lon": -77.01766066666667, "type": "electric_scooter", "fusion_lat": 0.0, "lat": 38.921155, "name": "177b688c9b4c3c0bfdc870a84a735167", "fusion_lon": 0.0, "bike_id": "177b688c9b4c3c0bfdc870a84a735167", "is_disabled": 0, "is_reserved": 0}, {"rental_uris": {"ios": "https://dc.lft.to/lastmile_qr_scan", "android": "https://dc.lft.to/lastmile_qr_scan"}, "lon": -77.01632666666667, "type": "electric_scooter", "fusion_lat": 0.0, "lat": 38.8997045, "name": "100f356f467754257f39776555790ded", "fusion_lon": 0.0, "bike_id": "100f356f467754257f39776555790ded", "is_disabled": 0, "is_reserved": 0}, {"rental_uris": {"ios": "https://dc.lft.to/lastmile_qr_scan", "android": "https://dc.lft.to/lastmile_qr_scan"}, "lon": -77.03505416666667, "type": "electric_scooter", "fusion_lat": 0.0, "lat": 38.921525, "name": "c11eb7bcac049fe2c0f761608a90bee8", "fusion_lon": 0.0, "bike_id": "c11eb7bcac049fe2c0f761608a90bee8", "is_disabled": 0, "is_reserved": 0}, {"rental_uris": {"ios": "https://dc.lft.to/lastmile_qr_scan", "android": "https://dc.lft.to/lastmile_qr_scan"}, "lon": -77.03114366666667, "type": "electric_scooter", "fusion_lat": 0.0, "lat": 38.914161166666666, "name": "506d3d24d7a0c637fc6b098d39d14746", "fusion_lon": 0.0, "bike_id": "506d3d24d7a0c637fc6b098d39d14746", "is_disabled": 0, "is_reserved": 0}, {"rental_uris": {"ios": "https://dc.lft.to/lastmile_qr_scan", "android": "https://dc.lft.to/lastmile_qr_scan"}, "lon": -77.0382155, "type": "electric_scooter", "fusion_lat": 0.0, "lat": 38.90127483333333, "name": "1688553dca11033b8e50c2d9c80742dd", "fusion_lon": 0.0, "bike_id": "1688553dca11033b8e50c2d9c80742dd", "is_disabled": 0, "is_reserved": 0}, {"rental_uris": {"ios": "https://dc.lft.to/lastmile_qr_scan", "android": "https://dc.lft.to/lastmile_qr_scan"}, "lon": -77.021836, "type": "electric_scooter", "fusion_lat": 0.0, "lat": 38.905437166666665, "name": "3405035e1f1be07d4a7a354e190dad0f", "fusion_lon": 0.0, "bike_id": "3405035e1f1be07d4a7a354e190dad0f", "is_disabled": 0, "is_reserved": 0}, {"rental_uris": {"ios": "https://dc.lft.to/lastmile_qr_scan", "android": "https://dc.lft.to/lastmile_qr_scan"}, "lon": -76.948926, "type": "electric_scooter", "fusion_lat": 0.0, "lat": 38.895282333333334, "name": "8106d286a488ebd1dacd6661cdd536a4", "fusion_lon": 0.0, "bike_id": "8106d286a488ebd1dacd6661cdd536a4", "is_disabled": 0, "is_reserved": 0}, {"rental_uris": {"ios": "https://dc.lft.to/lastmile_qr_scan", "android": "https://dc.lft.to/lastmile_qr_scan"}, "lon": -77.027262, "type": "electric_scooter", "fusion_lat": 0.0, "lat": 38.917038166666664, "name": "83d743d5f20ec0204eba0f9f2ca53e4f", "fusion_lon": 0.0, "bike_id": "83d743d5f20ec0204eba0f9f2ca53e4f", "is_disabled": 0, "is_reserved": 0}, {"rental_uris": {"ios": "https://dc.lft.to/lastmile_qr_scan", "android": "https://dc.lft.to/lastmile_qr_scan"}, "lon": -77.052903, "type": "electric_scooter", "fusion_lat": 0.0, "lat": 38.9189265, "name": "fce26a75a7578ce2b9a020860eb21af8", "fusion_lon": 0.0, "bike_id": "fce26a75a7578ce2b9a020860eb21af8", "is_disabled": 0, "is_reserved": 0}, {"rental_uris": {"ios": "https://dc.lft.to/lastmile_qr_scan", "android": "https://dc.lft.to/lastmile_qr_scan"}, "lon": -77.00864066666666, "type": "electric_bike", "fusion_lat": 0.0, "lat": 38.827336, "name": "8c921163c4aae9fff5ea227539ab5869", "fusion_lon": 0.0, "bike_id": "8c921163c4aae9fff5ea227539ab5869", "is_disabled": 0, "is_reserved": 0}, {"rental_uris": {"ios": "https://dc.lft.to/lastmile_qr_scan", "android": "https://dc.lft.to/lastmile_qr_scan"}, "lon": -77.055018, "type": "electric_scooter", "fusion_lat": 0.0, "lat": 38.9298075, "name": "5202bee3520a2129e23f06681db714f2", "fusion_lon": 0.0, "bike_id": "5202bee3520a2129e23f06681db714f2", "is_disabled": 0, "is_reserved": 0}, {"rental_uris": {"ios": "https://dc.lft.to/lastmile_qr_scan", "android": "https://dc.lft.to/lastmile_qr_scan"}, "lon": -76.99004216666667, "type": "electric_scooter", "fusion_lat": 0.0, "lat": 38.865065333333334, "name": "bfb1f38cee53030b6714c79ef26c180c", "fusion_lon": 0.0, "bike_id": "bfb1f38cee53030b6714c79ef26c180c", "is_disabled": 0, "is_reserved": 0}, {"rental_uris": {"ios": "https://dc.lft.to/lastmile_qr_scan", "android": "https://dc.lft.to/lastmile_qr_scan"}, "lon": -77.07067116666667, "type": "electric_scooter", "fusion_lat": 0.0, "lat": 38.95222316666667, "name": "a642d10b601b446fad352eb190a832c1", "fusion_lon": 0.0, "bike_id": "a642d10b601b446fad352eb190a832c1", "is_disabled": 0, "is_reserved": 0}, {"rental_uris": {"ios": "https://dc.lft.to/lastmile_qr_scan", "android": "https://dc.lft.to/lastmile_qr_scan"}, "lon": -76.9316115, "type": "electric_bike", "fusion_lat": 0.0, "lat": 38.908652833333335, "name": "6677f7c3a1516c7e96c6d5f81437c330", "fusion_lon": 0.0, "bike_id": "6677f7c3a1516c7e96c6d5f81437c330", "is_disabled": 0, "is_reserved": 0}, {"rental_uris": {"ios": "https://dc.lft.to/lastmile_qr_scan", "android": "https://dc.lft.to/lastmile_qr_scan"}, "lon": -77.038931, "type": "electric_scooter", "fusion_lat": 0.0, "lat": 38.94397166666667, "name": "8f74f38bc690aa408f61331d6017664a", "fusion_lon": 0.0, "bike_id": "8f74f38bc690aa408f61331d6017664a", "is_disabled": 0, "is_reserved": 0}, {"rental_uris": {"ios": "https://dc.lft.to/lastmile_qr_scan", "android": "https://dc.lft.to/lastmile_qr_scan"}, "lon": -77.0317005, "type": "electric_scooter", "fusion_lat": 0.0, "lat": 38.9133775, "name": "532e72d7e00946852cc6a3c7c2d9f978", "fusion_lon": 0.0, "bike_id": "532e72d7e00946852cc6a3c7c2d9f978", "is_disabled": 0, "is_reserved": 0}, {"rental_uris": {"ios": "https://dc.lft.to/lastmile_qr_scan", "android": "https://dc.lft.to/lastmile_qr_scan"}, "lon": -77.03215383333334, "type": "electric_scooter", "fusion_lat": 0.0, "lat": 38.91640316666667, "name": "e28bd2343ea8bbc8b7fcbb7a9d5415d0", "fusion_lon": 0.0, "bike_id": "e28bd2343ea8bbc8b7fcbb7a9d5415d0", "is_disabled": 0, "is_reserved": 0}, {"rental_uris": {"ios": "https://dc.lft.to/lastmile_qr_scan", "android": "https://dc.lft.to/lastmile_qr_scan"}, "lon": -77.028104, "type": "electric_scooter", "fusion_lat": 0.0, "lat": 38.9614015, "name": "7978db72e62262c5f583d79dfcdf7b85", "fusion_lon": 0.0, "bike_id": "7978db72e62262c5f583d79dfcdf7b85", "is_disabled": 0, "is_reserved": 0}, {"rental_uris": {"ios": "https://dc.lft.to/lastmile_qr_scan", "android": "https://dc.lft.to/lastmile_qr_scan"}, "lon": -76.941457, "type": "electric_scooter", "fusion_lat": 0.0, "lat": 38.896849833333334, "name": "d27ba147ad0eecda88aa32dcf0a89697", "fusion_lon": 0.0, "bike_id": "d27ba147ad0eecda88aa32dcf0a89697", "is_disabled": 0, "is_reserved": 0}, {"rental_uris": {"ios": "https://dc.lft.to/lastmile_qr_scan", "android": "https://dc.lft.to/lastmile_qr_scan"}, "lon": -77.028918, "type": "electric_scooter", "fusion_lat": 0.0, "lat": 38.907181333333334, "name": "e8ff885be3dc68c901b12d1170bdc4b3", "fusion_lon": 0.0, "bike_id": "e8ff885be3dc68c901b12d1170bdc4b3", "is_disabled": 0, "is_reserved": 0}, {"rental_uris": {"ios": "https://dc.lft.to/lastmile_qr_scan", "android": "https://dc.lft.to/lastmile_qr_scan"}, "lon": -77.00377483333334, "type": "electric_bike", "fusion_lat": 0.0, "lat": 38.83612333333333, "name": "8449678d545590af5b7ea634920b8fa2", "fusion_lon": 0.0, "bike_id": "8449678d545590af5b7ea634920b8fa2", "is_disabled": 0, "is_reserved": 0}, {"rental_uris": {"ios": "https://dc.lft.to/lastmile_qr_scan", "android": "https://dc.lft.to/lastmile_qr_scan"}, "lon": -76.9701115, "type": "electric_bike", "fusion_lat": 0.0, "lat": 38.863726, "name": "bb19d127c109e9203649b1b560bf6d12", "fusion_lon": 0.0, "bike_id": "bb19d127c109e9203649b1b560bf6d12", "is_disabled": 0, "is_reserved": 0}, {"rental_uris": {"ios": "https://dc.lft.to/lastmile_qr_scan", "android": "https://dc.lft.to/lastmile_qr_scan"}, "lon": -76.99056633333333, "type": "electric_scooter", "fusion_lat": 0.0, "lat": 38.8635165, "name": "7635f12d32853d184b5b0d90a63fd563", "fusion_lon": 0.0, "bike_id": "7635f12d32853d184b5b0d90a63fd563", "is_disabled": 0, "is_reserved": 0}, {"rental_uris": {"ios": "https://dc.lft.to/lastmile_qr_scan", "android": "https://dc.lft.to/lastmile_qr_scan"}, "lon": -77.09553733333334, "type": "electric_bike", "fusion_lat": 0.0, "lat": 38.83733433333333, "name": "4fb848100d3e79170dd42b3ce1066df4", "fusion_lon": 0.0, "bike_id": "4fb848100d3e79170dd42b3ce1066df4", "is_disabled": 0, "is_reserved": 0}, {"rental_uris": {"ios": "https://dc.lft.to/lastmile_qr_scan", "android": "https://dc.lft.to/lastmile_qr_scan"}, "lon": -77.0248705, "type": "electric_scooter", "fusion_lat": 0.0, "lat": 38.9418435, "name": "ccdb0ece054f190a137be32806411f77", "fusion_lon": 0.0, "bike_id": "ccdb0ece054f190a137be32806411f77", "is_disabled": 0, "is_reserved": 0}, {"rental_uris": {"ios": "https://dc.lft.to/lastmile_qr_scan", "android": "https://dc.lft.to/lastmile_qr_scan"}, "lon": -77.0269195, "type": "electric_scooter", "fusion_lat": 0.0, "lat": 38.90168166666667, "name": "f72c594857399a4edc9dcf1cf58a1118", "fusion_lon": 0.0, "bike_id": "f72c594857399a4edc9dcf1cf58a1118", "is_disabled": 0, "is_reserved": 0}, {"rental_uris": {"ios": "https://dc.lft.to/lastmile_qr_scan", "android": "https://dc.lft.to/lastmile_qr_scan"}, "lon": -77.03389583333333, "type": "electric_scooter", "fusion_lat": 0.0, "lat": 38.9385865, "name": "c6cbc87669242ea2166c223e4a893a9e", "fusion_lon": 0.0, "bike_id": "c6cbc87669242ea2166c223e4a893a9e", "is_disabled": 0, "is_reserved": 0}, {"rental_uris": {"ios": "https://dc.lft.to/lastmile_qr_scan", "android": "https://dc.lft.to/lastmile_qr_scan"}, "lon": -77.06941216666667, "type": "electric_scooter", "fusion_lat": 0.0, "lat": 38.9051465, "name": "35372196475df0f1490131f89001b340", "fusion_lon": 0.0, "bike_id": "35372196475df0f1490131f89001b340", "is_disabled": 0, "is_reserved": 0}, {"rental_uris": {"ios": "https://dc.lft.to/lastmile_qr_scan", "android": "https://dc.lft.to/lastmile_qr_scan"}, "lon": -77.0975515, "type": "electric_bike", "fusion_lat": 0.0, "lat": 38.85855516666667, "name": "be3be4dbe499de6f577380be9c9dd6cf", "fusion_lon": 0.0, "bike_id": "be3be4dbe499de6f577380be9c9dd6cf", "is_disabled": 0, "is_reserved": 0}, {"rental_uris": {"ios": "https://dc.lft.to/lastmile_qr_scan", "android": "https://dc.lft.to/lastmile_qr_scan"}, "lon": -77.0405345, "type": "electric_scooter", "fusion_lat": 0.0, "lat": 38.9272295, "name": "72bc03110873a16cf069246f2ea63558", "fusion_lon": 0.0, "bike_id": "72bc03110873a16cf069246f2ea63558", "is_disabled": 0, "is_reserved": 0}, {"rental_uris": {"ios": "https://dc.lft.to/lastmile_qr_scan", "android": "https://dc.lft.to/lastmile_qr_scan"}, "lon": -77.09871866666667, "type": "electric_bike", "fusion_lat": 0.0, "lat": 38.8537625, "name": "b62d71d6a10a6b701135dc725f928ed2", "fusion_lon": 0.0, "bike_id": "b62d71d6a10a6b701135dc725f928ed2", "is_disabled": 0, "is_reserved": 0}, {"rental_uris": {"ios": "https://dc.lft.to/lastmile_qr_scan", "android": "https://dc.lft.to/lastmile_qr_scan"}, "lon": -77.03448733333333, "type": "electric_scooter", "fusion_lat": 0.0, "lat": 38.91832766666667, "name": "eaf08808f559111ca9eb777284e28476", "fusion_lon": 0.0, "bike_id": "eaf08808f559111ca9eb777284e28476", "is_disabled": 0, "is_reserved": 0}, {"rental_uris": {"ios": "https://dc.lft.to/lastmile_qr_scan", "android": "https://dc.lft.to/lastmile_qr_scan"}, "lon": -77.00185416666666, "type": "electric_scooter", "fusion_lat": 0.0, "lat": 38.87385583333333, "name": "bb2d7b4c43507ca7a90934b8df677d57", "fusion_lon": 0.0, "bike_id": "bb2d7b4c43507ca7a90934b8df677d57", "is_disabled": 0, "is_reserved": 0}, {"rental_uris": {"ios": "https://dc.lft.to/lastmile_qr_scan", "android": "https://dc.lft.to/lastmile_qr_scan"}, "lon": -77.003627, "type": "electric_scooter", "fusion_lat": 0.0, "lat": 38.898994, "name": "7d0fec78df53c0a33f727a139d5641fd", "fusion_lon": 0.0, "bike_id": "7d0fec78df53c0a33f727a139d5641fd", "is_disabled": 0, "is_reserved": 0}, {"rental_uris": {"ios": "https://dc.lft.to/lastmile_qr_scan", "android": "https://dc.lft.to/lastmile_qr_scan"}, "lon": -77.02477333333333, "type": "electric_scooter", "fusion_lat": 0.0, "lat": 38.91819066666667, "name": "43c662983d3f37094bb0503b9388d727", "fusion_lon": 0.0, "bike_id": "43c662983d3f37094bb0503b9388d727", "is_disabled": 0, "is_reserved": 0}, {"rental_uris": {"ios": "https://dc.lft.to/lastmile_qr_scan", "android": "https://dc.lft.to/lastmile_qr_scan"}, "lon": -77.04562916666667, "type": "electric_scooter", "fusion_lat": 0.0, "lat": 38.908613333333335, "name": "681425d847bc328e05aaa9348592ee9f", "fusion_lon": 0.0, "bike_id": "681425d847bc328e05aaa9348592ee9f", "is_disabled": 0, "is_reserved": 0}, {"rental_uris": {"ios": "https://dc.lft.to/lastmile_qr_scan", "android": "https://dc.lft.to/lastmile_qr_scan"}, "lon": -77.02230433333334, "type": "electric_scooter", "fusion_lat": 0.0, "lat": 38.891953, "name": "a1226359838d0cf367578c117de447d4", "fusion_lon": 0.0, "bike_id": "a1226359838d0cf367578c117de447d4", "is_disabled": 0, "is_reserved": 0}, {"rental_uris": {"ios": "https://dc.lft.to/lastmile_qr_scan", "android": "https://dc.lft.to/lastmile_qr_scan"}, "lon": -77.031703, "type": "electric_scooter", "fusion_lat": 0.0, "lat": 38.91999216666667, "name": "592843dde56079d5080d96a5f98bd275", "fusion_lon": 0.0, "bike_id": "592843dde56079d5080d96a5f98bd275", "is_disabled": 0, "is_reserved": 0}, {"rental_uris": {"ios": "https://dc.lft.to/lastmile_qr_scan", "android": "https://dc.lft.to/lastmile_qr_scan"}, "lon": -77.036777, "type": "electric_scooter", "fusion_lat": 0.0, "lat": 38.91811116666667, "name": "0e70d51421513ef954b9f61e1863a913", "fusion_lon": 0.0, "bike_id": "0e70d51421513ef954b9f61e1863a913", "is_disabled": 0, "is_reserved": 0}, {"rental_uris": {"ios": "https://dc.lft.to/lastmile_qr_scan", "android": "https://dc.lft.to/lastmile_qr_scan"}, "lon": -77.030305, "type": "electric_scooter", "fusion_lat": 0.0, "lat": 38.896067333333335, "name": "e3b0bfa71e5dee7fc166009404fddeef", "fusion_lon": 0.0, "bike_id": "e3b0bfa71e5dee7fc166009404fddeef", "is_disabled": 0, "is_reserved": 0}, {"rental_uris": {"ios": "https://dc.lft.to/lastmile_qr_scan", "android": "https://dc.lft.to/lastmile_qr_scan"}, "lon": -77.0552505, "type": "electric_scooter", "fusion_lat": 0.0, "lat": 38.8972745, "name": "fcaec655be196c59a20a49d1d8df7e3c", "fusion_lon": 0.0, "bike_id": "fcaec655be196c59a20a49d1d8df7e3c", "is_disabled": 0, "is_reserved": 0}, {"rental_uris": {"ios": "https://dc.lft.to/lastmile_qr_scan", "android": "https://dc.lft.to/lastmile_qr_scan"}, "lon": -77.04646116666666, "type": "electric_bike", "fusion_lat": 0.0, "lat": 38.85209233333333, "name": "d5677f5bd67e652f9e6849e29e47ee5f", "fusion_lon": 0.0, "bike_id": "d5677f5bd67e652f9e6849e29e47ee5f", "is_disabled": 0, "is_reserved": 0}, {"rental_uris": {"ios": "https://dc.lft.to/lastmile_qr_scan", "android": "https://dc.lft.to/lastmile_qr_scan"}, "lon": -77.03210566666667, "type": "electric_scooter", "fusion_lat": 0.0, "lat": 38.915404, "name": "81845cd0a28f97d31bcdbded6ce804d9", "fusion_lon": 0.0, "bike_id": "81845cd0a28f97d31bcdbded6ce804d9", "is_disabled": 0, "is_reserved": 0}, {"rental_uris": {"ios": "https://dc.lft.to/lastmile_qr_scan", "android": "https://dc.lft.to/lastmile_qr_scan"}, "lon": -76.93247583333333, "type": "electric_scooter", "fusion_lat": 0.0, "lat": 38.89406566666667, "name": "1cf1dfd8043b784c18a34a24c0b46d00", "fusion_lon": 0.0, "bike_id": "1cf1dfd8043b784c18a34a24c0b46d00", "is_disabled": 0, "is_reserved": 0}, {"rental_uris": {"ios": "https://dc.lft.to/lastmile_qr_scan", "android": "https://dc.lft.to/lastmile_qr_scan"}, "lon": -76.99042233333333, "type": "electric_scooter", "fusion_lat": 0.0, "lat": 38.85664366666666, "name": "5917e3bdda94a43443fe63bd7d5a238a", "fusion_lon": 0.0, "bike_id": "5917e3bdda94a43443fe63bd7d5a238a", "is_disabled": 0, "is_reserved": 0}, {"rental_uris": {"ios": "https://dc.lft.to/lastmile_qr_scan", "android": "https://dc.lft.to/lastmile_qr_scan"}, "lon": -77.015987, "type": "electric_scooter", "fusion_lat": 0.0, "lat": 38.902074166666665, "name": "79018efa19f4e3d5b540daf4d907c5b6", "fusion_lon": 0.0, "bike_id": "79018efa19f4e3d5b540daf4d907c5b6", "is_disabled": 0, "is_reserved": 0}, {"rental_uris": {"ios": "https://dc.lft.to/lastmile_qr_scan", "android": "https://dc.lft.to/lastmile_qr_scan"}, "lon": -77.12967466666667, "type": "electric_bike", "fusion_lat": 0.0, "lat": 38.807909, "name": "51ba65dd45b08142298838dcb866b70f", "fusion_lon": 0.0, "bike_id": "51ba65dd45b08142298838dcb866b70f", "is_disabled": 0, "is_reserved": 0}, {"rental_uris": {"ios": "https://dc.lft.to/lastmile_qr_scan", "android": "https://dc.lft.to/lastmile_qr_scan"}, "lon": -77.01288366666667, "type": "electric_bike", "fusion_lat": 0.0, "lat": 39.003829833333334, "name": "31d740289f31dfd46986b5a06c2fcb53", "fusion_lon": 0.0, "bike_id": "31d740289f31dfd46986b5a06c2fcb53", "is_disabled": 0, "is_reserved": 0}, {"rental_uris": {"ios": "https://dc.lft.to/lastmile_qr_scan", "android": "https://dc.lft.to/lastmile_qr_scan"}, "lon": -77.04666233333333, "type": "electric_scooter", "fusion_lat": 0.0, "lat": 38.9329705, "name": "d0bc424b1d2769647b78e0b8d0a5b82c", "fusion_lon": 0.0, "bike_id": "d0bc424b1d2769647b78e0b8d0a5b82c", "is_disabled": 0, "is_reserved": 0}, {"rental_uris": {"ios": "https://dc.lft.to/lastmile_qr_scan", "android": "https://dc.lft.to/lastmile_qr_scan"}, "lon": -77.0335785, "type": "electric_scooter", "fusion_lat": 0.0, "lat": 38.8953205, "name": "6f679efcb30e8a58086619936a6d25c4", "fusion_lon": 0.0, "bike_id": "6f679efcb30e8a58086619936a6d25c4", "is_disabled": 0, "is_reserved": 0}, {"rental_uris": {"ios": "https://dc.lft.to/lastmile_qr_scan", "android": "https://dc.lft.to/lastmile_qr_scan"}, "lon": -77.08396266666666, "type": "electric_scooter", "fusion_lat": 0.0, "lat": 38.960983666666664, "name": "d81220bca5da81ced258836701e1467d", "fusion_lon": 0.0, "bike_id": "d81220bca5da81ced258836701e1467d", "is_disabled": 0, "is_reserved": 0}, {"rental_uris": {"ios": "https://dc.lft.to/lastmile_qr_scan", "android": "https://dc.lft.to/lastmile_qr_scan"}, "lon": -77.04883116666667, "type": "electric_scooter", "fusion_lat": 0.0, "lat": 38.9020185, "name": "5d55d6683b41724d420de83ba8c692a0", "fusion_lon": 0.0, "bike_id": "5d55d6683b41724d420de83ba8c692a0", "is_disabled": 0, "is_reserved": 0}, {"rental_uris": {"ios": "https://dc.lft.to/lastmile_qr_scan", "android": "https://dc.lft.to/lastmile_qr_scan"}, "lon": -77.04507066666666, "type": "electric_scooter", "fusion_lat": 0.0, "lat": 38.911134833333335, "name": "8c584dbb7f2c07b3468da4f9087b3db7", "fusion_lon": 0.0, "bike_id": "8c584dbb7f2c07b3468da4f9087b3db7", "is_disabled": 0, "is_reserved": 0}, {"rental_uris": {"ios": "https://dc.lft.to/lastmile_qr_scan", "android": "https://dc.lft.to/lastmile_qr_scan"}, "lon": -77.02761066666666, "type": "electric_scooter", "fusion_lat": 0.0, "lat": 38.923157833333335, "name": "68d70be3596c8812edb854eb07e2fd3e", "fusion_lon": 0.0, "bike_id": "68d70be3596c8812edb854eb07e2fd3e", "is_disabled": 0, "is_reserved": 0}, {"rental_uris": {"ios": "https://dc.lft.to/lastmile_qr_scan", "android": "https://dc.lft.to/lastmile_qr_scan"}, "lon": -77.02846916666667, "type": "electric_scooter", "fusion_lat": 0.0, "lat": 38.92572116666667, "name": "510a7587b06590bde017eccc2a67426d", "fusion_lon": 0.0, "bike_id": "510a7587b06590bde017eccc2a67426d", "is_disabled": 0, "is_reserved": 0}, {"rental_uris": {"ios": "https://dc.lft.to/lastmile_qr_scan", "android": "https://dc.lft.to/lastmile_qr_scan"}, "lon": -77.04867333333333, "type": "electric_scooter", "fusion_lat": 0.0, "lat": 38.90071116666667, "name": "e9faf0be24ee5b5fac91e3353848012f", "fusion_lon": 0.0, "bike_id": "e9faf0be24ee5b5fac91e3353848012f", "is_disabled": 0, "is_reserved": 0}, {"rental_uris": {"ios": "https://dc.lft.to/lastmile_qr_scan", "android": "https://dc.lft.to/lastmile_qr_scan"}, "lon": -76.96506466666666, "type": "electric_scooter", "fusion_lat": 0.0, "lat": 38.876462333333336, "name": "fd42bc2a3636c922db6807bce3000cce", "fusion_lon": 0.0, "bike_id": "fd42bc2a3636c922db6807bce3000cce", "is_disabled": 0, "is_reserved": 0}, {"rental_uris": {"ios": "https://dc.lft.to/lastmile_qr_scan", "android": "https://dc.lft.to/lastmile_qr_scan"}, "lon": -76.93831433333334, "type": "electric_scooter", "fusion_lat": 0.0, "lat": 38.897587333333334, "name": "d5ef74c5d971b11132af8575ee25e62d", "fusion_lon": 0.0, "bike_id": "d5ef74c5d971b11132af8575ee25e62d", "is_disabled": 0, "is_reserved": 0}, {"rental_uris": {"ios": "https://dc.lft.to/lastmile_qr_scan", "android": "https://dc.lft.to/lastmile_qr_scan"}, "lon": -77.02850666666667, "type": "electric_scooter", "fusion_lat": 0.0, "lat": 38.950895833333334, "name": "860d9c54f5ba543e0c3764d4691d05d1", "fusion_lon": 0.0, "bike_id": "860d9c54f5ba543e0c3764d4691d05d1", "is_disabled": 0, "is_reserved": 0}, {"rental_uris": {"ios": "https://dc.lft.to/lastmile_qr_scan", "android": "https://dc.lft.to/lastmile_qr_scan"}, "lon": -77.055942, "type": "electric_scooter", "fusion_lat": 0.0, "lat": 38.90518983333333, "name": "f2868eac2a77a911968dceb31484d96c", "fusion_lon": 0.0, "bike_id": "f2868eac2a77a911968dceb31484d96c", "is_disabled": 0, "is_reserved": 0}, {"rental_uris": {"ios": "https://dc.lft.to/lastmile_qr_scan", "android": "https://dc.lft.to/lastmile_qr_scan"}, "lon": -77.00431966666666, "type": "electric_scooter", "fusion_lat": 0.0, "lat": 38.90399983333333, "name": "85d4c955af5589ee0ac714761677e6cf", "fusion_lon": 0.0, "bike_id": "85d4c955af5589ee0ac714761677e6cf", "is_disabled": 0, "is_reserved": 0}, {"rental_uris": {"ios": "https://dc.lft.to/lastmile_qr_scan", "android": "https://dc.lft.to/lastmile_qr_scan"}, "lon": -77.03508416666666, "type": "electric_scooter", "fusion_lat": 0.0, "lat": 38.921483333333335, "name": "1d34b95696c1723db665ffbe33987373", "fusion_lon": 0.0, "bike_id": "1d34b95696c1723db665ffbe33987373", "is_disabled": 0, "is_reserved": 0}, {"rental_uris": {"ios": "https://dc.lft.to/lastmile_qr_scan", "android": "https://dc.lft.to/lastmile_qr_scan"}, "lon": -77.03014583333334, "type": "electric_scooter", "fusion_lat": 0.0, "lat": 38.897580833333336, "name": "7ec3c2ae5a2facc051a70f8ba9c0e0f7", "fusion_lon": 0.0, "bike_id": "7ec3c2ae5a2facc051a70f8ba9c0e0f7", "is_disabled": 0, "is_reserved": 0}, {"rental_uris": {"ios": "https://dc.lft.to/lastmile_qr_scan", "android": "https://dc.lft.to/lastmile_qr_scan"}, "lon": -77.04360333333334, "type": "electric_scooter", "fusion_lat": 0.0, "lat": 38.92682633333333, "name": "fb88224b1b0e1b48bd68aab5ced66dc6", "fusion_lon": 0.0, "bike_id": "fb88224b1b0e1b48bd68aab5ced66dc6", "is_disabled": 0, "is_reserved": 0}, {"rental_uris": {"ios": "https://dc.lft.to/lastmile_qr_scan", "android": "https://dc.lft.to/lastmile_qr_scan"}, "lon": -77.0425815, "type": "electric_scooter", "fusion_lat": 0.0, "lat": 38.902798833333335, "name": "2b6afb48e393048d1718d79f8aea1247", "fusion_lon": 0.0, "bike_id": "2b6afb48e393048d1718d79f8aea1247", "is_disabled": 0, "is_reserved": 0}, {"rental_uris": {"ios": "https://dc.lft.to/lastmile_qr_scan", "android": "https://dc.lft.to/lastmile_qr_scan"}, "lon": -77.03443933333334, "type": "electric_scooter", "fusion_lat": 0.0, "lat": 38.909743166666665, "name": "0d210ac6dff7e0be182d082eedd6d06a", "fusion_lon": 0.0, "bike_id": "0d210ac6dff7e0be182d082eedd6d06a", "is_disabled": 0, "is_reserved": 0}, {"rental_uris": {"ios": "https://dc.lft.to/lastmile_qr_scan", "android": "https://dc.lft.to/lastmile_qr_scan"}, "lon": -77.03187283333334, "type": "electric_scooter", "fusion_lat": 0.0, "lat": 38.916612, "name": "0bbb85544b57d4e2ea5c9f010f6030bf", "fusion_lon": 0.0, "bike_id": "0bbb85544b57d4e2ea5c9f010f6030bf", "is_disabled": 0, "is_reserved": 0}, {"rental_uris": {"ios": "https://dc.lft.to/lastmile_qr_scan", "android": "https://dc.lft.to/lastmile_qr_scan"}, "lon": -77.0319515, "type": "electric_scooter", "fusion_lat": 0.0, "lat": 38.918159333333335, "name": "ad448498ffd257260213afbf2783f320", "fusion_lon": 0.0, "bike_id": "ad448498ffd257260213afbf2783f320", "is_disabled": 0, "is_reserved": 0}, {"rental_uris": {"ios": "https://dc.lft.to/lastmile_qr_scan", "android": "https://dc.lft.to/lastmile_qr_scan"},