{"data": {"bikes": [{"bike_id": "777a10dc4d04b4002c36ef968859bd24", "type": "electric_scooter", "is_disabled": 0, "lat": 38.88051083333333, "rental_uris": {"ios": "https://dc.lft.to/lastmile_qr_scan", "android": "https://dc.lft.to/lastmile_qr_scan"}, "is_reserved": 0, "fusion_lon": 0.0, "fusion_lat": 0.0, "lon": -77.00549933333333, "name": "777a10dc4d04b4002c36ef968859bd24"}, {"bike_id": "08c6238200cf0e39ffbcc718354c5ec0", "type": "electric_scooter", "is_disabled": 0, "lat": 38.93069366666667, "rental_uris": {"ios": "https://dc.lft.to/lastmile_qr_scan", "android": "https://dc.lft.to/lastmile_qr_scan"}, "is_reserved": 0, "fusion_lon": 0.0, "fusion_lat": 0.0, "lon": -77.0199905, "name": "08c6238200cf0e39ffbcc718354c5ec0"}, {"bike_id": "009bb32387ac3d4b5bc24de2fd198284", "type": "electric_scooter", "is_disabled": 0, "lat": 38.94203983333333, "rental_uris": {"ios": "https://dc.lft.to/lastmile_qr_scan", "android": "https://dc.lft.to/lastmile_qr_scan"}, "is_reserved": 0, "fusion_lon": 0.0, "fusion_lat": 0.0, "lon": -77.0259275, "name": "009bb32387ac3d4b5bc24de2fd198284"}, {"bike_id": "5a87b05df28022673557daa787adc97e", "type": "electric_scooter", "is_disabled": 0, "lat": 38.906810666666665, "rental_uris": {"ios": "https://dc.lft.to/lastmile_qr_scan", "android": "https://dc.lft.to/lastmile_qr_scan"}, "is_reserved": 0, "fusion_lon": 0.0, "fusion_lat": 0.0, "lon": -77.026936, "name": "5a87b05df28022673557daa787adc97e"}, {"bike_id": "79c3ec0830faf4f2dc96624adc3dc5b7", "type": "electric_scooter", "is_disabled": 0, "lat": 38.9133545, "rental_uris": {"ios": "https://dc.lft.to/lastmile_qr_scan", "android": "https://dc.lft.to/lastmile_qr_scan"}, "is_reserved": 0, "fusion_lon": 0.0, "fusion_lat": 0.0, "lon": -77.03677433333333, "name": "79c3ec0830faf4f2dc96624adc3dc5b7"}, {"bike_id": "b672e449dab6820003185e65a53203d2", "type": "electric_scooter", "is_disabled": 0, "lat": 38.90123066666666, "rental_uris": {"ios": "https://dc.lft.to/lastmile_qr_scan", "android": "https://dc.lft.to/lastmile_qr_scan"}, "is_reserved": 0, "fusion_lon": 0.0, "fusion_lat": 0.0, "lon": -77.0181625, "name": "b672e449dab6820003185e65a53203d2"}, {"bike_id": "6f43719a9f0230ab20fd421c0eb8ab96", "type": "electric_scooter", "is_disabled": 0, "lat": 38.91504466666667, "rental_uris": {"ios": "https://dc.lft.to/lastmile_qr_scan", "android": "https://dc.lft.to/lastmile_qr_scan"}, "is_reserved": 0, "fusion_lon": 0.0, "fusion_lat": 0.0, "lon": -77.01774466666667, "name": "6f43719a9f0230ab20fd421c0eb8ab96"}, {"bike_id": "cf6d6a965a8c716ad31cecb2eefca47b", "type": "electric_scooter", "is_disabled": 0, "lat": 38.917015, "rental_uris": {"ios": "https://dc.lft.to/lastmile_qr_scan", "android": "https://dc.lft.to/lastmile_qr_scan"}, "is_reserved": 0, "fusion_lon": 0.0, "fusion_lat": 0.0, "lon": -77.0237845, "name": "cf6d6a965a8c716ad31cecb2eefca47b"}, {"bike_id": "d0f9a4305409d2bdcceca09d02d85f2d", "type": "electric_scooter", "is_disabled": 0, "lat": 38.911075833333335, "rental_uris": {"ios": "https://dc.lft.to/lastmile_qr_scan", "android": "https://dc.lft.to/lastmile_qr_scan"}, "is_reserved": 0, "fusion_lon": 0.0, "fusion_lat": 0.0, "lon": -77.01147483333334, "name": "d0f9a4305409d2bdcceca09d02d85f2d"}, {"bike_id": "9319f9059a927dd4c0b545d3ce18cc8b", "type": "electric_scooter", "is_disabled": 0, "lat": 38.904887, "rental_uris": {"ios": "https://dc.lft.to/lastmile_qr_scan", "android": "https://dc.lft.to/lastmile_qr_scan"}, "is_reserved": 0, "fusion_lon": 0.0, "fusion_lat": 0.0, "lon": -77.06908066666666, "name": "9319f9059a927dd4c0b545d3ce18cc8b"}, {"bike_id": "35cbcec4f6c13967979dfed3bc1ecddc", "type": "electric_scooter", "is_disabled": 0, "lat": 38.8827035, "rental_uris": {"ios": "https://dc.lft.to/lastmile_qr_scan", "android": "https://dc.lft.to/lastmile_qr_scan"}, "is_reserved": 0, "fusion_lon": 0.0, "fusion_lat": 0.0, "lon": -76.99359083333333, "name": "35cbcec4f6c13967979dfed3bc1ecddc"}, {"bike_id": "ab4938f0189221b7dc4f15006316577e", "type": "electric_scooter", "is_disabled": 0, "lat": 38.90634466666667, "rental_uris": {"ios": "https://dc.lft.to/lastmile_qr_scan", "android": "https://dc.lft.to/lastmile_qr_scan"}, "is_reserved": 0, "fusion_lon": 0.0, "fusion_lat": 0.0, "lon": -77.0514775, "name": "ab4938f0189221b7dc4f15006316577e"}, {"bike_id": "ef6a30ca427e8fb9a0f2f2653f4315f9", "type": "electric_scooter", "is_disabled": 0, "lat": 38.875629833333335, "rental_uris": {"ios": "https://dc.lft.to/lastmile_qr_scan", "android": "https://dc.lft.to/lastmile_qr_scan"}, "is_reserved": 0, "fusion_lon": 0.0, "fusion_lat": 0.0, "lon": -76.95864266666666, "name": "ef6a30ca427e8fb9a0f2f2653f4315f9"}, {"bike_id": "ba22db03aa4d37b75bb25998b99eb9fd", "type": "electric_scooter", "is_disabled": 0, "lat": 38.9169355, "rental_uris": {"ios": "https://dc.lft.to/lastmile_qr_scan", "android": "https://dc.lft.to/lastmile_qr_scan"}, "is_reserved": 0, "fusion_lon": 0.0, "fusion_lat": 0.0, "lon": -77.0234205, "name": "ba22db03aa4d37b75bb25998b99eb9fd"}, {"bike_id": "2a4e08b4a24c44ea59e78a347af4203f", "type": "electric_scooter", "is_disabled": 0, "lat": 38.9097075, "rental_uris": {"ios": "https://dc.lft.to/lastmile_qr_scan", "android": "https://dc.lft.to/lastmile_qr_scan"}, "is_reserved": 0, "fusion_lon": 0.0, "fusion_lat": 0.0, "lon": -77.02582966666667, "name": "2a4e08b4a24c44ea59e78a347af4203f"}, {"bike_id": "860e675ab073997ef3cf2fc9f254a74f", "type": "electric_scooter", "is_disabled": 0, "lat": 38.9166005, "rental_uris": {"ios": "https://dc.lft.to/lastmile_qr_scan", "android": "https://dc.lft.to/lastmile_qr_scan"}, "is_reserved": 0, "fusion_lon": 0.0, "fusion_lat": 0.0, "lon": -77.02283933333334, "name": "860e675ab073997ef3cf2fc9f254a74f"}, {"bike_id": "a7a9d522114111244bcbc00635e834dc", "type": "electric_bike", "is_disabled": 0, "lat": 39.03700033333333, "rental_uris": {"ios": "https://dc.lft.to/lastmile_qr_scan", "android": "https://dc.lft.to/lastmile_qr_scan"}, "is_reserved": 0, "fusion_lon": 0.0, "fusion_lat": 0.0, "lon": -77.0285775, "name": "a7a9d522114111244bcbc00635e834dc"}, {"bike_id": "d03535b2fc9ca59429abcc4c3325a657", "type": "electric_scooter", "is_disabled": 0, "lat": 38.93482483333333, "rental_uris": {"ios": "https://dc.lft.to/lastmile_qr_scan", "android": "https://dc.lft.to/lastmile_qr_scan"}, "is_reserved": 0, "fusion_lon": 0.0, "fusion_lat": 0.0, "lon": -77.03417716666667, "name": "d03535b2fc9ca59429abcc4c3325a657"}, {"bike_id": "b31ab9df7b76d087c1482bcac9b2b72e", "type": "electric_scooter", "is_disabled": 0, "lat": 38.939161166666665, "rental_uris": {"ios": "https://dc.lft.to/lastmile_qr_scan", "android": "https://dc.lft.to/lastmile_qr_scan"}, "is_reserved": 0, "fusion_lon": 0.0, "fusion_lat": 0.0, "lon": -77.06050883333333, "name": "b31ab9df7b76d087c1482bcac9b2b72e"}, {"bike_id": "2761970b04072285e550a39066e7b70d", "type": "electric_scooter", "is_disabled": 0, "lat": 38.90186933333333, "rental_uris": {"ios": "https://dc.lft.to/lastmile_qr_scan", "android": "https://dc.lft.to/lastmile_qr_scan"}, "is_reserved": 0, "fusion_lon": 0.0, "fusion_lat": 0.0, "lon": -77.012919, "name": "2761970b04072285e550a39066e7b70d"}, {"bike_id": "b03ce20389255ed57e2389698ef6f1fd", "type": "electric_scooter", "is_disabled": 0, "lat": 38.913507, "rental_uris": {"ios": "https://dc.lft.to/lastmile_qr_scan", "android": "https://dc.lft.to/lastmile_qr_scan"}, "is_reserved": 0, "fusion_lon": 0.0, "fusion_lat": 0.0, "lon": -77.03188966666667, "name": "b03ce20389255ed57e2389698ef6f1fd"}, {"bike_id": "6c38747b543f4b024bdd47fc8827d378", "type": "electric_scooter", "is_disabled": 0, "lat": 38.90948916666667, "rental_uris": {"ios": "https://dc.lft.to/lastmile_qr_scan", "android": "https://dc.lft.to/lastmile_qr_scan"}, "is_reserved": 0, "fusion_lon": 0.0, "fusion_lat": 0.0, "lon": -77.0260735, "name": "6c38747b543f4b024bdd47fc8827d378"}, {"bike_id": "c3b930d2331dfb3e68b061cb4401c2d2", "type": "electric_scooter", "is_disabled": 0, "lat": 38.905299666666664, "rental_uris": {"ios": "https://dc.lft.to/lastmile_qr_scan", "android": "https://dc.lft.to/lastmile_qr_scan"}, "is_reserved": 0, "fusion_lon": 0.0, "fusion_lat": 0.0, "lon": -77.05902733333333, "name": "c3b930d2331dfb3e68b061cb4401c2d2"}, {"bike_id": "0addc5f13a19bf2b5921aa8124df0cec", "type": "electric_scooter", "is_disabled": 0, "lat": 38.92758233333333, "rental_uris": {"ios": "https://dc.lft.to/lastmile_qr_scan", "android": "https://dc.lft.to/lastmile_qr_scan"}, "is_reserved": 0, "fusion_lon": 0.0, "fusion_lat": 0.0, "lon": -77.02847516666667, "name": "0addc5f13a19bf2b5921aa8124df0cec"}, {"bike_id": "d935b668617bc238531fca9b5d39c457", "type": "electric_scooter", "is_disabled": 0, "lat": 38.898845, "rental_uris": {"ios": "https://dc.lft.to/lastmile_qr_scan", "android": "https://dc.lft.to/lastmile_qr_scan"}, "is_reserved": 0, "fusion_lon": 0.0, "fusion_lat": 0.0, "lon": -76.93176933333334, "name": "d935b668617bc238531fca9b5d39c457"}, {"bike_id": "63e2cf2a0e547a75d4427e3ae7088832", "type": "electric_scooter", "is_disabled": 0, "lat": 38.9199115, "rental_uris": {"ios": "https://dc.lft.to/lastmile_qr_scan", "android": "https://dc.lft.to/lastmile_qr_scan"}, "is_reserved": 0, "fusion_lon": 0.0, "fusion_lat": 0.0, "lon": -77.02227833333333, "name": "63e2cf2a0e547a75d4427e3ae7088832"}, {"bike_id": "40905b0144bf112b59b8546c23ac1262", "type": "electric_scooter", "is_disabled": 0, "lat": 38.862081333333336, "rental_uris": {"ios": "https://dc.lft.to/lastmile_qr_scan", "android": "https://dc.lft.to/lastmile_qr_scan"}, "is_reserved": 0, "fusion_lon": 0.0, "fusion_lat": 0.0, "lon": -76.99469333333333, "name": "40905b0144bf112b59b8546c23ac1262"}, {"bike_id": "418f1f5a64a71fdbc63b58f4ff133b96", "type": "electric_scooter", "is_disabled": 0, "lat": 38.89830033333333, "rental_uris": {"ios": "https://dc.lft.to/lastmile_qr_scan", "android": "https://dc.lft.to/lastmile_qr_scan"}, "is_reserved": 0, "fusion_lon": 0.0, "fusion_lat": 0.0, "lon": -77.02189, "name": "418f1f5a64a71fdbc63b58f4ff133b96"}, {"bike_id": "5208f6467240a8ea06810f627c481734", "type": "electric_scooter", "is_disabled": 0, "lat": 38.90510366666667, "rental_uris": {"ios": "https://dc.lft.to/lastmile_qr_scan", "android": "https://dc.lft.to/lastmile_qr_scan"}, "is_reserved": 0, "fusion_lon": 0.0, "fusion_lat": 0.0, "lon": -77.0638535, "name": "5208f6467240a8ea06810f627c481734"}, {"bike_id": "89375cb97f6e2796b23ffac6962e900a", "type": "electric_scooter", "is_disabled": 0, "lat": 38.929138, "rental_uris": {"ios": "https://dc.lft.to/lastmile_qr_scan", "android": "https://dc.lft.to/lastmile_qr_scan"}, "is_reserved": 0, "fusion_lon": 0.0, "fusion_lat": 0.0, "lon": -77.02093466666666, "name": "89375cb97f6e2796b23ffac6962e900a"}, {"bike_id": "8eec8165e1c2ff7dc4527b7096139762", "type": "electric_bike", "is_disabled": 0, "lat": 38.8662095, "rental_uris": {"ios": "https://dc.lft.to/lastmile_qr_scan", "android": "https://dc.lft.to/lastmile_qr_scan"}, "is_reserved": 0, "fusion_lon": 0.0, "fusion_lat": 0.0, "lon": -76.94570566666667, "name": "8eec8165e1c2ff7dc4527b7096139762"}, {"bike_id": "1d878e2c92bab7796ad3846c8a11250a", "type": "electric_scooter", "is_disabled": 0, "lat": 38.907729333333336, "rental_uris": {"ios": "https://dc.lft.to/lastmile_qr_scan", "android": "https://dc.lft.to/lastmile_qr_scan"}, "is_reserved": 0, "fusion_lon": 0.0, "fusion_lat": 0.0, "lon": -77.07167066666666, "name": "1d878e2c92bab7796ad3846c8a11250a"}, {"bike_id": "db5bdad1976c8f4b9e9ecb03bd8ab588", "type": "electric_scooter", "is_disabled": 0, "lat": 38.89995, "rental_uris": {"ios": "https://dc.lft.to/lastmile_qr_scan", "android": "https://dc.lft.to/lastmile_qr_scan"}, "is_reserved": 0, "fusion_lon": 0.0, "fusion_lat": 0.0, "lon": -77.0103215, "name": "db5bdad1976c8f4b9e9ecb03bd8ab588"}, {"bike_id": "22bfc736649d0c9c0f05fb4858dd61f4", "type": "electric_scooter", "is_disabled": 0, "lat": 38.88110483333333, "rental_uris": {"ios": "https://dc.lft.to/lastmile_qr_scan", "android": "https://dc.lft.to/lastmile_qr_scan"}, "is_reserved": 0, "fusion_lon": 0.0, "fusion_lat": 0.0, "lon": -77.02654233333334, "name": "22bfc736649d0c9c0f05fb4858dd61f4"}, {"bike_id": "b94c3cae8372d39e40c24ef4406a4a81", "type": "electric_scooter", "is_disabled": 0, "lat": 38.83827216666667, "rental_uris": {"ios": "https://dc.lft.to/lastmile_qr_scan", "android": "https://dc.lft.to/lastmile_qr_scan"}, "is_reserved": 0, "fusion_lon": 0.0, "fusion_lat": 0.0, "lon": -77.00272366666667, "name": "b94c3cae8372d39e40c24ef4406a4a81"}, {"bike_id": "933e91fb03d5d5401d4f30b9d6d61337", "type": "electric_scooter", "is_disabled": 0, "lat": 38.904189833333334, "rental_uris": {"ios": "https://dc.lft.to/lastmile_qr_scan", "android": "https://dc.lft.to/lastmile_qr_scan"}, "is_reserved": 0, "fusion_lon": 0.0, "fusion_lat": 0.0, "lon": -77.02724016666667, "name": "933e91fb03d5d5401d4f30b9d6d61337"}, {"bike_id": "3d6a8fffce46cd3a07c6d2c304668acb", "type": "electric_scooter", "is_disabled": 0, "lat": 38.9149365, "rental_uris": {"ios": "https://dc.lft.to/lastmile_qr_scan", "android": "https://dc.lft.to/lastmile_qr_scan"}, "is_reserved": 0, "fusion_lon": 0.0, "fusion_lat": 0.0, "lon": -76.98570416666666, "name": "3d6a8fffce46cd3a07c6d2c304668acb"}, {"bike_id": "64bb46165adccd8284116b37c615dd06", "type": "electric_scooter", "is_disabled": 0, "lat": 38.90469066666667, "rental_uris": {"ios": "https://dc.lft.to/lastmile_qr_scan", "android": "https://dc.lft.to/lastmile_qr_scan"}, "is_reserved": 0, "fusion_lon": 0.0, "fusion_lat": 0.0, "lon": -77.00736216666667, "name": "64bb46165adccd8284116b37c615dd06"}, {"bike_id": "ecb9cac6979f6c4b15a15be24e331e21", "type": "electric_scooter", "is_disabled": 0, "lat": 38.922472166666665, "rental_uris": {"ios": "https://dc.lft.to/lastmile_qr_scan", "android": "https://dc.lft.to/lastmile_qr_scan"}, "is_reserved": 0, "fusion_lon": 0.0, "fusion_lat": 0.0, "lon": -77.0283415, "name": "ecb9cac6979f6c4b15a15be24e331e21"}, {"bike_id": "badbac2b90a1a617a01620d1961ac818", "type": "electric_scooter", "is_disabled": 0, "lat": 38.902539, "rental_uris": {"ios": "https://dc.lft.to/lastmile_qr_scan", "android": "https://dc.lft.to/lastmile_qr_scan"}, "is_reserved": 0, "fusion_lon": 0.0, "fusion_lat": 0.0, "lon": -76.986707, "name": "badbac2b90a1a617a01620d1961ac818"}, {"bike_id": "b6bf12866a28d2720f643fc257d11189", "type": "electric_scooter", "is_disabled": 0, "lat": 38.921509666666665, "rental_uris": {"ios": "https://dc.lft.to/lastmile_qr_scan", "android": "https://dc.lft.to/lastmile_qr_scan"}, "is_reserved": 0, "fusion_lon": 0.0, "fusion_lat": 0.0, "lon": -77.03317683333333, "name": "b6bf12866a28d2720f643fc257d11189"}, {"bike_id": "a6ef49f06f90b36271fd3fcea7ffaf3c", "type": "electric_scooter", "is_disabled": 0, "lat": 38.89670383333333, "rental_uris": {"ios": "https://dc.lft.to/lastmile_qr_scan", "android": "https://dc.lft.to/lastmile_qr_scan"}, "is_reserved": 0, "fusion_lon": 0.0, "fusion_lat": 0.0, "lon": -77.023833, "name": "a6ef49f06f90b36271fd3fcea7ffaf3c"}, {"bike_id": "f81d537a5fafbee4fd961ae907de2225", "type": "electric_scooter", "is_disabled": 0, "lat": 38.91569583333333, "rental_uris": {"ios": "https://dc.lft.to/lastmile_qr_scan", "android": "https://dc.lft.to/lastmile_qr_scan"}, "is_reserved": 0, "fusion_lon": 0.0, "fusion_lat": 0.0, "lon": -77.02018916666667, "name": "f81d537a5fafbee4fd961ae907de2225"}, {"bike_id": "f63b964a06db214100cf01abac492d73", "type": "electric_scooter", "is_disabled": 0, "lat": 38.91654033333333, "rental_uris": {"ios": "https://dc.lft.to/lastmile_qr_scan", "android": "https://dc.lft.to/lastmile_qr_scan"}, "is_reserved": 0, "fusion_lon": 0.0, "fusion_lat": 0.0, "lon": -76.97909916666667, "name": "f63b964a06db214100cf01abac492d73"}, {"bike_id": "41719e0ed3f2874220420b27fcd3a4c3", "type": "electric_bike", "is_disabled": 0, "lat": 38.95172266666667, "rental_uris": {"ios": "https://dc.lft.to/lastmile_qr_scan", "android": "https://dc.lft.to/lastmile_qr_scan"}, "is_reserved": 0, "fusion_lon": 0.0, "fusion_lat": 0.0, "lon": -76.97730733333333, "name": "41719e0ed3f2874220420b27fcd3a4c3"}, {"bike_id": "520bf18193ff3dbaeb2b7bc7f65096f1", "type": "electric_scooter", "is_disabled": 0, "lat": 38.93361983333333, "rental_uris": {"ios": "https://dc.lft.to/lastmile_qr_scan", "android": "https://dc.lft.to/lastmile_qr_scan"}, "is_reserved": 0, "fusion_lon": 0.0, "fusion_lat": 0.0, "lon": -77.026478, "name": "520bf18193ff3dbaeb2b7bc7f65096f1"}, {"bike_id": "e52cddcecbeb0f4d11f4f9c6f8945ef2", "type": "electric_bike", "is_disabled": 0, "lat": 38.987663833333336, "rental_uris": {"ios": "https://dc.lft.to/lastmile_qr_scan", "android": "https://dc.lft.to/lastmile_qr_scan"}, "is_reserved": 0, "fusion_lon": 0.0, "fusion_lat": 0.0, "lon": -77.14058733333333, "name": "e52cddcecbeb0f4d11f4f9c6f8945ef2"}, {"bike_id": "b596503248034f5c9a5b1615c11b0eda", "type": "electric_scooter", "is_disabled": 0, "lat": 38.929596, "rental_uris": {"ios": "https://dc.lft.to/lastmile_qr_scan", "android": "https://dc.lft.to/lastmile_qr_scan"}, "is_reserved": 0, "fusion_lon": 0.0, "fusion_lat": 0.0, "lon": -77.01146983333334, "name": "b596503248034f5c9a5b1615c11b0eda"}, {"bike_id": "edc91cf298703ee64dea1ac70e262bf8", "type": "electric_scooter", "is_disabled": 0, "lat": 38.92328116666667, "rental_uris": {"ios": "https://dc.lft.to/lastmile_qr_scan", "android": "https://dc.lft.to/lastmile_qr_scan"}, "is_reserved": 0, "fusion_lon": 0.0, "fusion_lat": 0.0, "lon": -77.00890266666667, "name": "edc91cf298703ee64dea1ac70e262bf8"}, {"bike_id": "b74fb609848f36849e0d82ef6e74f886", "type": "electric_scooter", "is_disabled": 0, "lat": 38.9052415, "rental_uris": {"ios": "https://dc.lft.to/lastmile_qr_scan", "android": "https://dc.lft.to/lastmile_qr_scan"}, "is_reserved": 0, "fusion_lon": 0.0, "fusion_lat": 0.0, "lon": -77.04363466666666, "name": "b74fb609848f36849e0d82ef6e74f886"}, {"bike_id": "672e2aea7b608824523c8b6fb62994ee", "type": "electric_scooter", "is_disabled": 0, "lat": 38.9361615, "rental_uris": {"ios": "https://dc.lft.to/lastmile_qr_scan", "android": "https://dc.lft.to/lastmile_qr_scan"}, "is_reserved": 0, "fusion_lon": 0.0, "fusion_lat": 0.0, "lon": -77.037981, "name": "672e2aea7b608824523c8b6fb62994ee"}, {"bike_id": "b7dbda7aced6fd458b16fa7211d6862f", "type": "electric_bike", "is_disabled": 0, "lat": 38.910053166666664, "rental_uris": {"ios": "https://dc.lft.to/lastmile_qr_scan", "android": "https://dc.lft.to/lastmile_qr_scan"}, "is_reserved": 0, "fusion_lon": 0.0, "fusion_lat": 0.0, "lon": -77.05715016666667, "name": "b7dbda7aced6fd458b16fa7211d6862f"}, {"bike_id": "8df1836f0a094ffea7caabd82bba76d1", "type": "electric_scooter", "is_disabled": 0, "lat": 38.900519, "rental_uris": {"ios": "https://dc.lft.to/lastmile_qr_scan", "android": "https://dc.lft.to/lastmile_qr_scan"}, "is_reserved": 0, "fusion_lon": 0.0, "fusion_lat": 0.0, "lon": -77.01732966666667, "name": "8df1836f0a094ffea7caabd82bba76d1"}, {"bike_id": "8af966debb49e62cef31246a8e251aea", "type": "electric_scooter", "is_disabled": 0, "lat": 38.924890166666664, "rental_uris": {"ios": "https://dc.lft.to/lastmile_qr_scan", "android": "https://dc.lft.to/lastmile_qr_scan"}, "is_reserved": 0, "fusion_lon": 0.0, "fusion_lat": 0.0, "lon": -77.03181283333333, "name": "8af966debb49e62cef31246a8e251aea"}, {"bike_id": "5441e381e7f171d79615dc6b4774b3c8", "type": "electric_scooter", "is_disabled": 0, "lat": 38.904027666666664, "rental_uris": {"ios": "https://dc.lft.to/lastmile_qr_scan", "android": "https://dc.lft.to/lastmile_qr_scan"}, "is_reserved": 0, "fusion_lon": 0.0, "fusion_lat": 0.0, "lon": -77.0486145, "name": "5441e381e7f171d79615dc6b4774b3c8"}, {"bike_id": "1a311f4fdd76baa4399a2699a9eda8cf", "type": "electric_scooter", "is_disabled": 0, "lat": 38.90361433333333, "rental_uris": {"ios": "https://dc.lft.to/lastmile_qr_scan", "android": "https://dc.lft.to/lastmile_qr_scan"}, "is_reserved": 0, "fusion_lon": 0.0, "fusion_lat": 0.0, "lon": -76.99941683333333, "name": "1a311f4fdd76baa4399a2699a9eda8cf"}, {"bike_id": "a0443b1517492de479fe192d3c273839", "type": "electric_scooter", "is_disabled": 0, "lat": 38.898445833333334, "rental_uris": {"ios": "https://dc.lft.to/lastmile_qr_scan", "android": "https://dc.lft.to/lastmile_qr_scan"}, "is_reserved": 0, "fusion_lon": 0.0, "fusion_lat": 0.0, "lon": -77.0287155, "name": "a0443b1517492de479fe192d3c273839"}, {"bike_id": "5000897732e38428d64d76e068a5bfda", "type": "electric_scooter", "is_disabled": 0, "lat": 38.905574666666666, "rental_uris": {"ios": "https://dc.lft.to/lastmile_qr_scan", "android": "https://dc.lft.to/lastmile_qr_scan"}, "is_reserved": 0, "fusion_lon": 0.0, "fusion_lat": 0.0, "lon": -77.0651735, "name": "5000897732e38428d64d76e068a5bfda"}, {"bike_id": "d891260412ac06bf155b399e9219fe0e", "type": "electric_scooter", "is_disabled": 0, "lat": 38.889318, "rental_uris": {"ios": "https://dc.lft.to/lastmile_qr_scan", "android": "https://dc.lft.to/lastmile_qr_scan"}, "is_reserved": 0, "fusion_lon": 0.0, "fusion_lat": 0.0, "lon": -76.93577916666666, "name": "d891260412ac06bf155b399e9219fe0e"}, {"bike_id": "bfafb57569b6f8f9485ae0e6307cff1f", "type": "electric_bike", "is_disabled": 0, "lat": 38.82175016666667, "rental_uris": {"ios": "https://dc.lft.to/lastmile_qr_scan", "android": "https://dc.lft.to/lastmile_qr_scan"}, "is_reserved": 0, "fusion_lon": 0.0, "fusion_lat": 0.0, "lon": -76.99516366666667, "name": "bfafb57569b6f8f9485ae0e6307cff1f"}, {"bike_id": "ada2b6d36a3e5f57c7dafba4535202d1", "type": "electric_bike", "is_disabled": 0, "lat": 39.043090666666664, "rental_uris": {"ios": "https://dc.lft.to/lastmile_qr_scan", "android": "https://dc.lft.to/lastmile_qr_scan"}, "is_reserved": 0, "fusion_lon": 0.0, "fusion_lat": 0.0, "lon": -77.05162083333333, "name": "ada2b6d36a3e5f57c7dafba4535202d1"}, {"bike_id": "aabce59acdb1ca41f6f33ffaf9758323", "type": "electric_scooter", "is_disabled": 0, "lat": 38.878384833333335, "rental_uris": {"ios": "https://dc.lft.to/lastmile_qr_scan", "android": "https://dc.lft.to/lastmile_qr_scan"}, "is_reserved": 0, "fusion_lon": 0.0, "fusion_lat": 0.0, "lon": -76.98616166666666, "name": "aabce59acdb1ca41f6f33ffaf9758323"}, {"bike_id": "21ca59d8a6fecf9f47eacac3e178275a", "type": "electric_scooter", "is_disabled": 0, "lat": 38.9055725, "rental_uris": {"ios": "https://dc.lft.to/lastmile_qr_scan", "android": "https://dc.lft.to/lastmile_qr_scan"}, "is_reserved": 0, "fusion_lon": 0.0, "fusion_lat": 0.0, "lon": -77.04234533333333, "name": "21ca59d8a6fecf9f47eacac3e178275a"}, {"bike_id": "f8eec46034893587ddc704a6f1551b2b", "type": "electric_scooter", "is_disabled": 0, "lat": 38.919350666666666, "rental_uris": {"ios": "https://dc.lft.to/lastmile_qr_scan", "android": "https://dc.lft.to/lastmile_qr_scan"}, "is_reserved": 0, "fusion_lon": 0.0, "fusion_lat": 0.0, "lon": -77.02510733333334, "name": "f8eec46034893587ddc704a6f1551b2b"}, {"bike_id": "bb14417fc294fe69193bbd23dff0f411", "type": "electric_scooter", "is_disabled": 0, "lat": 38.8806195, "rental_uris": {"ios": "https://dc.lft.to/lastmile_qr_scan", "android": "https://dc.lft.to/lastmile_qr_scan"}, "is_reserved": 0, "fusion_lon": 0.0, "fusion_lat": 0.0, "lon": -77.0054655, "name": "bb14417fc294fe69193bbd23dff0f411"}, {"bike_id": "f04d7ad02c29288073b7f14b8bea1d9b", "type": "electric_scooter", "is_disabled": 0, "lat": 38.89353916666666, "rental_uris": {"ios": "https://dc.lft.to/lastmile_qr_scan", "android": "https://dc.lft.to/lastmile_qr_scan"}, "is_reserved": 0, "fusion_lon": 0.0, "fusion_lat": 0.0, "lon": -76.9493605, "name": "f04d7ad02c29288073b7f14b8bea1d9b"}, {"bike_id": "1614e64b92137f39770e7603f8dafb14", "type": "electric_scooter", "is_disabled": 0, "lat": 38.88858283333333, "rental_uris": {"ios": "https://dc.lft.to/lastmile_qr_scan", "android": "https://dc.lft.to/lastmile_qr_scan"}, "is_reserved": 0, "fusion_lon": 0.0, "fusion_lat": 0.0, "lon": -76.99140833333334, "name": "1614e64b92137f39770e7603f8dafb14"}, {"bike_id": "6a063d08fe127be456ce9fa99bbd3861", "type": "electric_scooter", "is_disabled": 0, "lat": 38.846432666666665, "rental_uris": {"ios": "https://dc.lft.to/lastmile_qr_scan", "android": "https://dc.lft.to/lastmile_qr_scan"}, "is_reserved": 0, "fusion_lon": 0.0, "fusion_lat": 0.0, "lon": -76.9912955, "name": "6a063d08fe127be456ce9fa99bbd3861"}, {"bike_id": "961c93781b72f1515833be9c1973ef60", "type": "electric_scooter", "is_disabled": 0, "lat": 38.91971133333333, "rental_uris": {"ios": "https://dc.lft.to/lastmile_qr_scan", "android": "https://dc.lft.to/lastmile_qr_scan"}, "is_reserved": 0, "fusion_lon": 0.0, "fusion_lat": 0.0, "lon": -77.042729, "name": "961c93781b72f1515833be9c1973ef60"}, {"bike_id": "2bb9d62f2f5c34e2a3f2943b5393f963", "type": "electric_scooter", "is_disabled": 0, "lat": 38.92669983333333, "rental_uris": {"ios": "https://dc.lft.to/lastmile_qr_scan", "android": "https://dc.lft.to/lastmile_qr_scan"}, "is_reserved": 0, "fusion_lon": 0.0, "fusion_lat": 0.0, "lon": -77.0302705, "name": "2bb9d62f2f5c34e2a3f2943b5393f963"}, {"bike_id": "8ddfe6d2e8ea311aafb8b30a1e8c4e73", "type": "electric_scooter", "is_disabled": 0, "lat": 38.920454666666664, "rental_uris": {"ios": "https://dc.lft.to/lastmile_qr_scan", "android": "https://dc.lft.to/lastmile_qr_scan"}, "is_reserved": 0, "fusion_lon": 0.0, "fusion_lat": 0.0, "lon": -77.02429866666667, "name": "8ddfe6d2e8ea311aafb8b30a1e8c4e73"}, {"bike_id": "55e04fa515f21b650f04810228a16e51", "type": "electric_scooter", "is_disabled": 0, "lat": 38.87160266666667, "rental_uris": {"ios": "https://dc.lft.to/lastmile_qr_scan", "android": "https://dc.lft.to/lastmile_qr_scan"}, "is_reserved": 0, "fusion_lon": 0.0, "fusion_lat": 0.0, "lon": -77.013528, "name": "55e04fa515f21b650f04810228a16e51"}, {"bike_id": "2fe0ccc39cf14e4bf6ce8a3a84c6cb39", "type": "electric_scooter", "is_disabled": 0, "lat": 38.9308785, "rental_uris": {"ios": "https://dc.lft.to/lastmile_qr_scan", "android": "https://dc.lft.to/lastmile_qr_scan"}, "is_reserved": 0, "fusion_lon": 0.0, "fusion_lat": 0.0, "lon": -77.02549466666666, "name": "2fe0ccc39cf14e4bf6ce8a3a84c6cb39"}, {"bike_id": "568f0cbdcbcfba720a6b8c90a87a5b06", "type": "electric_scooter", "is_disabled": 0, "lat": 38.877556, "rental_uris": {"ios": "https://dc.lft.to/lastmile_qr_scan", "android": "https://dc.lft.to/lastmile_qr_scan"}, "is_reserved": 0, "fusion_lon": 0.0, "fusion_lat": 0.0, "lon": -76.9868305, "name": "568f0cbdcbcfba720a6b8c90a87a5b06"}, {"bike_id": "a92afbe9336aa7fa8df63d6e675dde9f", "type": "electric_scooter", "is_disabled": 0, "lat": 38.90565933333333, "rental_uris": {"ios": "https://dc.lft.to/lastmile_qr_scan", "android": "https://dc.lft.to/lastmile_qr_scan"}, "is_reserved": 0, "fusion_lon": 0.0, "fusion_lat": 0.0, "lon": -76.97783966666667, "name": "a92afbe9336aa7fa8df63d6e675dde9f"}, {"bike_id": "62d8acc3cbd8533ae8d3100ae9b5131f", "type": "electric_scooter", "is_disabled": 0, "lat": 38.907079, "rental_uris": {"ios": "https://dc.lft.to/lastmile_qr_scan", "android": "https://dc.lft.to/lastmile_qr_scan"}, "is_reserved": 0, "fusion_lon": 0.0, "fusion_lat": 0.0, "lon": -77.04161366666666, "name": "62d8acc3cbd8533ae8d3100ae9b5131f"}, {"bike_id": "af4796303704083435faf28239c7dd72", "type": "electric_scooter", "is_disabled": 0, "lat": 38.9190425, "rental_uris": {"ios": "https://dc.lft.to/lastmile_qr_scan", "android": "https://dc.lft.to/lastmile_qr_scan"}, "is_reserved": 0, "fusion_lon": 0.0, "fusion_lat": 0.0, "lon": -77.03193383333333, "name": "af4796303704083435faf28239c7dd72"}, {"bike_id": "6a448eeb3762ba5a363f8eee46cc1dab", "type": "electric_scooter", "is_disabled": 0, "lat": 38.9168435, "rental_uris": {"ios": "https://dc.lft.to/lastmile_qr_scan", "android": "https://dc.lft.to/lastmile_qr_scan"}, "is_reserved": 0, "fusion_lon": 0.0, "fusion_lat": 0.0, "lon": -77.02961516666667, "name": "6a448eeb3762ba5a363f8eee46cc1dab"}, {"bike_id": "e4cbcc5b5a2adeaeaa1ea73ba58e6c64", "type": "electric_scooter", "is_disabled": 0, "lat": 38.895674, "rental_uris": {"ios": "https://dc.lft.to/lastmile_qr_scan", "android": "https://dc.lft.to/lastmile_qr_scan"}, "is_reserved": 0, "fusion_lon": 0.0, "fusion_lat": 0.0, "lon": -76.93026066666667, "name": "e4cbcc5b5a2adeaeaa1ea73ba58e6c64"}, {"bike_id": "5ccc84570629ad7b9179b0750cf65770", "type": "electric_scooter", "is_disabled": 0, "lat": 38.93994133333333, "rental_uris": {"ios": "https://dc.lft.to/lastmile_qr_scan", "android": "https://dc.lft.to/lastmile_qr_scan"}, "is_reserved": 0, "fusion_lon": 0.0, "fusion_lat": 0.0, "lon": -77.01696983333333, "name": "5ccc84570629ad7b9179b0750cf65770"}, {"bike_id": "ae3dfac651a454586f36124d961ad597", "type": "electric_scooter", "is_disabled": 0, "lat": 38.907924, "rental_uris": {"ios": "https://dc.lft.to/lastmile_qr_scan", "android": "https://dc.lft.to/lastmile_qr_scan"}, "is_reserved": 0, "fusion_lon": 0.0, "fusion_lat": 0.0, "lon": -77.00200133333334, "name": "ae3dfac651a454586f36124d961ad597"}, {"bike_id": "8993ff74cf4793494af1f738dc9488ef", "type": "electric_scooter", "is_disabled": 0, "lat": 38.91270433333333, "rental_uris": {"ios": "https://dc.lft.to/lastmile_qr_scan", "android": "https://dc.lft.to/lastmile_qr_scan"}, "is_reserved": 0, "fusion_lon": 0.0, "fusion_lat": 0.0, "lon": -77.02262216666666, "name": "8993ff74cf4793494af1f738dc9488ef"}, {"bike_id": "af1b69e2ae29c45d909993600bc49f7e", "type": "electric_scooter", "is_disabled": 0, "lat": 38.9040975, "rental_uris": {"ios": "https://dc.lft.to/lastmile_qr_scan", "android": "https://dc.lft.to/lastmile_qr_scan"}, "is_reserved": 0, "fusion_lon": 0.0, "fusion_lat": 0.0, "lon": -76.97336683333333, "name": "af1b69e2ae29c45d909993600bc49f7e"}, {"bike_id": "df9e7a7f0dedb439879d10f2e695e2ee", "type": "electric_bike", "is_disabled": 0, "lat": 39.050587166666666, "rental_uris": {"ios": "https://dc.lft.to/lastmile_qr_scan", "android": "https://dc.lft.to/lastmile_qr_scan"}, "is_reserved": 0, "fusion_lon": 0.0, "fusion_lat": 0.0, "lon": -77.05144233333333, "name": "df9e7a7f0dedb439879d10f2e695e2ee"}, {"bike_id": "d4183a569ca08f7bdebe7bd360e28152", "type": "electric_scooter", "is_disabled": 0, "lat": 38.9160255, "rental_uris": {"ios": "https://dc.lft.to/lastmile_qr_scan", "android": "https://dc.lft.to/lastmile_qr_scan"}, "is_reserved": 0, "fusion_lon": 0.0, "fusion_lat": 0.0, "lon": -77.02388, "name": "d4183a569ca08f7bdebe7bd360e28152"}, {"bike_id": "ce4b7206d01fb89d99cb53e2f6b70ee5", "type": "electric_scooter", "is_disabled": 0, "lat": 38.91106383333333, "rental_uris": {"ios": "https://dc.lft.to/lastmile_qr_scan", "android": "https://dc.lft.to/lastmile_qr_scan"}, "is_reserved": 0, "fusion_lon": 0.0, "fusion_lat": 0.0, "lon": -77.032528, "name": "ce4b7206d01fb89d99cb53e2f6b70ee5"}, {"bike_id": "de8b65efcb3304802962c1560f8e587c", "type": "electric_scooter", "is_disabled": 0, "lat": 38.89645983333333, "rental_uris": {"ios": "https://dc.lft.to/lastmile_qr_scan", "android": "https://dc.lft.to/lastmile_qr_scan"}, "is_reserved": 0, "fusion_lon": 0.0, "fusion_lat": 0.0, "lon": -77.00921616666666, "name": "de8b65efcb3304802962c1560f8e587c"}, {"bike_id": "3e75d7b01cba7416a6be7d67e5763414", "type": "electric_bike", "is_disabled": 0, "lat": 38.8324225, "rental_uris": {"ios": "https://dc.lft.to/lastmile_qr_scan", "android": "https://dc.lft.to/lastmile_qr_scan"}, "is_reserved": 0, "fusion_lon": 0.0, "fusion_lat": 0.0, "lon": -76.9462685, "name": "3e75d7b01cba7416a6be7d67e5763414"}, {"bike_id": "836b14e6ae641a33975cc2d9129dca46", "type": "electric_bike", "is_disabled": 0, "lat": 38.9787885, "rental_uris": {"ios": "https://dc.lft.to/lastmile_qr_scan", "android": "https://dc.lft.to/lastmile_qr_scan"}, "is_reserved": 0, "fusion_lon": 0.0, "fusion_lat": 0.0, "lon": -77.060275, "name": "836b14e6ae641a33975cc2d9129dca46"}, {"bike_id": "347785ac5600150b690986fdb191a558", "type": "electric_scooter", "is_disabled": 0, "lat": 38.940159666666666, "rental_uris": {"ios": "https://dc.lft.to/lastmile_qr_scan", "android": "https://dc.lft.to/lastmile_qr_scan"}, "is_reserved": 0, "fusion_lon": 0.0, "fusion_lat": 0.0, "lon": -76.97612083333334, "name": "347785ac5600150b690986fdb191a558"}, {"bike_id": "0e3072de946ab1694fadb517b8ef1055", "type": "electric_scooter", "is_disabled": 0, "lat": 38.9184325, "rental_uris": {"ios": "https://dc.lft.to/lastmile_qr_scan", "android": "https://dc.lft.to/lastmile_qr_scan"}, "is_reserved": 0, "fusion_lon": 0.0, "fusion_lat": 0.0, "lon": -76.96558, "name": "0e3072de946ab1694fadb517b8ef1055"}, {"bike_id": "d02057d5bf8a4533dae3545ed1467fbd", "type": "electric_scooter", "is_disabled": 0, "lat": 38.90956366666666, "rental_uris": {"ios": "https://dc.lft.to/lastmile_qr_scan", "android": "https://dc.lft.to/lastmile_qr_scan"}, "is_reserved": 0, "fusion_lon": 0.0, "fusion_lat": 0.0, "lon": -77.04782883333333, "name": "d02057d5bf8a4533dae3545ed1467fbd"}, {"bike_id": "58257f731404bda147b43bc709137860", "type": "electric_scooter", "is_disabled": 0, "lat": 38.8947445, "rental_uris": {"ios": "https://dc.lft.to/lastmile_qr_scan", "android": "https://dc.lft.to/lastmile_qr_scan"}, "is_reserved": 0, "fusion_lon": 0.0, "fusion_lat": 0.0, "lon": -76.94862466666666, "name": "58257f731404bda147b43bc709137860"}, {"bike_id": "996259eecf060eb98f9a789e2bc9da78", "type": "electric_scooter", "is_disabled": 0, "lat": 38.87659633333333, "rental_uris": {"ios": "https://dc.lft.to/lastmile_qr_scan", "android": "https://dc.lft.to/lastmile_qr_scan"}, "is_reserved": 0, "fusion_lon": 0.0, "fusion_lat": 0.0, "lon": -77.00421316666667, "name": "996259eecf060eb98f9a789e2bc9da78"}, {"bike_id": "89b88e31f060d6387ba6b8bec37860c1", "type": "electric_scooter", "is_disabled": 0, "lat": 38.931469666666665, "rental_uris": {"ios": "https://dc.lft.to/lastmile_qr_scan", "android": "https://dc.lft.to/lastmile_qr_scan"}, "is_reserved": 0, "fusion_lon": 0.0, "fusion_lat": 0.0, "lon": -77.03344433333334, "name": "89b88e31f060d6387ba6b8bec37860c1"}, {"bike_id": "3bda526f8b1560606145b060b70e14f2", "type": "electric_bike", "is_disabled": 0, "lat": 38.9333325, "rental_uris": {"ios": "https://dc.lft.to/lastmile_qr_scan", "android": "https://dc.lft.to/lastmile_qr_scan"}, "is_reserved": 0, "fusion_lon": 0.0, "fusion_lat": 0.0, "lon": -77.03962583333333, "name": "3bda526f8b1560606145b060b70e14f2"}, {"bike_id": "4116534844c96567f449e3f18676fc19", "type": "electric_scooter", "is_disabled": 0, "lat": 38.901856, "rental_uris": {"ios": "https://dc.lft.to/lastmile_qr_scan", "android": "https://dc.lft.to/lastmile_qr_scan"}, "is_reserved": 0, "fusion_lon": 0.0, "fusion_lat": 0.0, "lon": -77.0130375, "name": "4116534844c96567f449e3f18676fc19"}, {"bike_id": "faefbd7b496f27ceff947ae6baf137b6", "type": "electric_scooter", "is_disabled": 0, "lat": 38.8617425, "rental_uris": {"ios": "https://dc.lft.to/lastmile_qr_scan", "android": "https://dc.lft.to/lastmile_qr_scan"}, "is_reserved": 0, "fusion_lon": 0.0, "fusion_lat": 0.0, "lon": -77.088232, "name": "faefbd7b496f27ceff947ae6baf137b6"}, {"bike_id": "f133502e1ae948896693e5cc71a0ffd8", "type": "electric_scooter", "is_disabled": 0, "lat": 38.93537333333333, "rental_uris": {"ios": "https://dc.lft.to/lastmile_qr_scan", "android": "https://dc.lft.to/lastmile_qr_scan"}, "is_reserved": 0, "fusion_lon": 0.0, "fusion_lat": 0.0, "lon": -77.03401433333333, "name": "f133502e1ae948896693e5cc71a0ffd8"}, {"bike_id": "6f4b397b36e5482188b5f3afd4cd7df1", "type": "electric_scooter", "is_disabled": 0, "lat": 38.91105666666667, "rental_uris": {"ios": "https://dc.lft.to/lastmile_qr_scan", "android": "https://dc.lft.to/lastmile_qr_scan"}, "is_reserved": 0, "fusion_lon": 0.0, "fusion_lat": 0.0, "lon": -77.0383105, "name": "6f4b397b36e5482188b5f3afd4cd7df1"}, {"bike_id": "a1d1ffd5e8574102f5dd96eea74ddf82", "type": "electric_scooter", "is_disabled": 0, "lat": 38.92135666666667, "rental_uris": {"ios": "https://dc.lft.to/lastmile_qr_scan", "android": "https://dc.lft.to/lastmile_qr_scan"}, "is_reserved": 0, "fusion_lon": 0.0, "fusion_lat": 0.0, "lon": -77.01810833333333, "name": "a1d1ffd5e8574102f5dd96eea74ddf82"}, {"bike_id": "2a8fb4193c6cb0acfb501693719b4713", "type": "electric_scooter", "is_disabled": 0, "lat": 38.888882, "rental_uris": {"ios": "https://dc.lft.to/lastmile_qr_scan", "android": "https://dc.lft.to/lastmile_qr_scan"}, "is_reserved": 0, "fusion_lon": 0.0, "fusion_lat": 0.0, "lon": -77.0332615, "name": "2a8fb4193c6cb0acfb501693719b4713"}, {"bike_id": "ce0ae7743878656688c0d2af1f33b8f3", "type": "electric_scooter", "is_disabled": 0, "lat": 38.91043633333334, "rental_uris": {"ios": "https://dc.lft.to/lastmile_qr_scan", "android": "https://dc.lft.to/lastmile_qr_scan"}, "is_reserved": 0, "fusion_lon": 0.0, "fusion_lat": 0.0, "lon": -77.04350666666667, "name": "ce0ae7743878656688c0d2af1f33b8f3"}, {"bike_id": "bca0e6aac80713f4f727303c4cfab870", "type": "electric_scooter", "is_disabled": 0, "lat": 38.92855683333333, "rental_uris": {"ios": "https://dc.lft.to/lastmile_qr_scan", "android": "https://dc.lft.to/lastmile_qr_scan"}, "is_reserved": 0, "fusion_lon": 0.0, "fusion_lat": 0.0, "lon": -77.03432916666667, "name": "bca0e6aac80713f4f727303c4cfab870"}, {"bike_id": "6b95e1c97874dc145cac8d8697c8e37c", "type": "electric_scooter", "is_disabled": 0, "lat": 38.9220865, "rental_uris": {"ios": "https://dc.lft.to/lastmile_qr_scan", "android": "https://dc.lft.to/lastmile_qr_scan"}, "is_reserved": 0, "fusion_lon": 0.0, "fusion_lat": 0.0, "lon": -77.036577, "name": "6b95e1c97874dc145cac8d8697c8e37c"}, {"bike_id": "9dfb723d40a1ff178a9b612bbd7063f9", "type": "electric_scooter", "is_disabled": 0, "lat": 38.86373966666667, "rental_uris": {"ios": "https://dc.lft.to/lastmile_qr_scan", "android": "https://dc.lft.to/lastmile_qr_scan"}, "is_reserved": 0, "fusion_lon": 0.0, "fusion_lat": 0.0, "lon": -76.9906235, "name": "9dfb723d40a1ff178a9b612bbd7063f9"}, {"bike_id": "e374602bb4302cf22d5b66861f6f5c29", "type": "electric_scooter", "is_disabled": 0, "lat": 38.9148665, "rental_uris": {"ios": "https://dc.lft.to/lastmile_qr_scan", "android": "https://dc.lft.to/lastmile_qr_scan"}, "is_reserved": 0, "fusion_lon": 0.0, "fusion_lat": 0.0, "lon": -77.03214583333333, "name": "e374602bb4302cf22d5b66861f6f5c29"}, {"bike_id": "218d1ac72d521551b84110096a738741", "type": "electric_scooter", "is_disabled": 0, "lat": 38.924744833333335, "rental_uris": {"ios": "https://dc.lft.to/lastmile_qr_scan", "android": "https://dc.lft.to/lastmile_qr_scan"}, "is_reserved": 0, "fusion_lon": 0.0, "fusion_lat": 0.0, "lon": -77.02834783333333, "name": "218d1ac72d521551b84110096a738741"}, {"bike_id": "5c80d6d424f5c676800093bd0cfce780", "type": "electric_scooter", "is_disabled": 0, "lat": 38.90486666666666, "rental_uris": {"ios": "https://dc.lft.to/lastmile_qr_scan", "android": "https://dc.lft.to/lastmile_qr_scan"}, "is_reserved": 0, "fusion_lon": 0.0, "fusion_lat": 0.0, "lon": -76.94957683333334, "name": "5c80d6d424f5c676800093bd0cfce780"}, {"bike_id": "77cccec4e8b29d8fe5c0a967042cb670", "type": "electric_scooter", "is_disabled": 0, "lat": 38.86685933333333, "rental_uris": {"ios": "https://dc.lft.to/lastmile_qr_scan", "android": "https://dc.lft.to/lastmile_qr_scan"}, "is_reserved": 0, "fusion_lon": 0.0, "fusion_lat": 0.0, "lon": -76.98555033333334, "name": "77cccec4e8b29d8fe5c0a967042cb670"}, {"bike_id": "0d6444e0ba08fb6e101427cff77e65ba", "type": "electric_scooter", "is_disabled": 0, "lat": 38.940115666666664, "rental_uris": {"ios": "https://dc.lft.to/lastmile_qr_scan", "android": "https://dc.lft.to/lastmile_qr_scan"}, "is_reserved": 0, "fusion_lon": 0.0, "fusion_lat": 0.0, "lon": -77.02642716666666, "name": "0d6444e0ba08fb6e101427cff77e65ba"}, {"bike_id": "133693d60e0e14a9a4af2ea522917e8e", "type": "electric_scooter", "is_disabled": 0, "lat": 38.91723783333333, "rental_uris": {"ios": "https://dc.lft.to/lastmile_qr_scan", "android": "https://dc.lft.to/lastmile_qr_scan"}, "is_reserved": 0, "fusion_lon": 0.0, "fusion_lat": 0.0, "lon": -77.019124, "name": "133693d60e0e14a9a4af2ea522917e8e"}, {"bike_id": "8eabf764435bab3a2d825c943a8c7bc6", "type": "electric_scooter", "is_disabled": 0, "lat": 38.8766375, "rental_uris": {"ios": "https://dc.lft.to/lastmile_qr_scan", "android": "https://dc.lft.to/lastmile_qr_scan"}, "is_reserved": 0, "fusion_lon": 0.0, "fusion_lat": 0.0, "lon": -77.00824683333333, "name": "8eabf764435bab3a2d825c943a8c7bc6"}, {"bike_id": "eaf6f5dd56e2c37527db876b782d6526", "type": "electric_scooter", "is_disabled": 0, "lat": 38.91697716666667, "rental_uris": {"ios": "https://dc.lft.to/lastmile_qr_scan", "android": "https://dc.lft.to/lastmile_qr_scan"}, "is_reserved": 0, "fusion_lon": 0.0, "fusion_lat": 0.0, "lon": -77.030762, "name": "eaf6f5dd56e2c37527db876b782d6526"}, {"bike_id": "97106b20f9d61c01cdd8cb7e0fc509d5", "type": "electric_scooter", "is_disabled": 0, "lat": 38.939574, "rental_uris": {"ios": "https://dc.lft.to/lastmile_qr_scan", "android": "https://dc.lft.to/lastmile_qr_scan"}, "is_reserved": 0, "fusion_lon": 0.0, "fusion_lat": 0.0, "lon": -77.060711, "name": "97106b20f9d61c01cdd8cb7e0fc509d5"}, {"bike_id": "169749deebd99e586fd669b9ec89886f", "type": "electric_scooter", "is_disabled": 0, "lat": 38.90710133333333, "rental_uris": {"ios": "https://dc.lft.to/lastmile_qr_scan", "android": "https://dc.lft.to/lastmile_qr_scan"}, "is_reserved": 0, "fusion_lon": 0.0, "fusion_lat": 0.0, "lon": -77.02387883333333, "name": "169749deebd99e586fd669b9ec89886f"}, {"bike_id": "c809afcc0c5c3d564456fb63772fc192", "type": "electric_scooter", "is_disabled": 0, "lat": 38.91190566666667, "rental_uris": {"ios": "https://dc.lft.to/lastmile_qr_scan", "android": "https://dc.lft.to/lastmile_qr_scan"}, "is_reserved": 0, "fusion_lon": 0.0, "fusion_lat": 0.0, "lon": -77.0105815, "name": "c809afcc0c5c3d564456fb63772fc192"}, {"bike_id": "95922c450b1703a86582a319987aec7c", "type": "electric_scooter", "is_disabled": 0, "lat": 38.916776666666664, "rental_uris": {"ios": "https://dc.lft.to/lastmile_qr_scan", "android": "https://dc.lft.to/lastmile_qr_scan"}, "is_reserved": 0, "fusion_lon": 0.0, "fusion_lat": 0.0, "lon": -77.02283433333334, "name": "95922c450b1703a86582a319987aec7c"}, {"bike_id": "45bace6eee1679f07da255f94b4641be", "type": "electric_scooter", "is_disabled": 0, "lat": 38.876284166666665, "rental_uris": {"ios": "https://dc.lft.to/lastmile_qr_scan", "android": "https://dc.lft.to/lastmile_qr_scan"}, "is_reserved": 0, "fusion_lon": 0.0, "fusion_lat": 0.0, "lon": -76.96523383333333, "name": "45bace6eee1679f07da255f94b4641be"}, {"bike_id": "cb82f4c046b9f5ab0c40f066f7255de4", "type": "electric_scooter", "is_disabled": 0, "lat": 38.956177, "rental_uris": {"ios": "https://dc.lft.to/lastmile_qr_scan", "android": "https://dc.lft.to/lastmile_qr_scan"}, "is_reserved": 0, "fusion_lon": 0.0, "fusion_lat": 0.0, "lon": -77.01009433333333, "name": "cb82f4c046b9f5ab0c40f066f7255de4"}, {"bike_id": "254d7f50a9bf4143fc8a88bbfc53b904", "type": "electric_scooter", "is_disabled": 0, "lat": 38.90234316666667, "rental_uris": {"ios": "https://dc.lft.to/lastmile_qr_scan", "android": "https://dc.lft.to/lastmile_qr_scan"}, "is_reserved": 0, "fusion_lon": 0.0, "fusion_lat": 0.0, "lon": -77.04326116666667, "name": "254d7f50a9bf4143fc8a88bbfc53b904"}, {"bike_id": "b1348196c1641a6ce47ff6fc4fb6e933", "type": "electric_scooter", "is_disabled": 0, "lat": 38.920547666666664, "rental_uris": {"ios": "https://dc.lft.to/lastmile_qr_scan", "android": "https://dc.lft.to/lastmile_qr_scan"}, "is_reserved": 0, "fusion_lon": 0.0, "fusion_lat": 0.0, "lon": -76.99874283333334, "name": "b1348196c1641a6ce47ff6fc4fb6e933"}, {"bike_id": "eed799872c4d9666d4e7c8ccda7619e4", "type": "electric_scooter", "is_disabled": 0, "lat": 38.909577666666664, "rental_uris": {"ios": "https://dc.lft.to/lastmile_qr_scan", "android": "https://dc.lft.to/lastmile_qr_scan"}, "is_reserved": 0, "fusion_lon": 0.0, "fusion_lat": 0.0, "lon": -77.0330025, "name": "eed799872c4d9666d4e7c8ccda7619e4"}, {"bike_id": "65491fef0deb12686b62a0d85106fd47", "type": "electric_scooter", "is_disabled": 0, "lat": 38.965588833333335, "rental_uris": {"ios": "https://dc.lft.to/lastmile_qr_scan", "android": "https://dc.lft.to/lastmile_qr_scan"}, "is_reserved": 0, "fusion_lon": 0.0, "fusion_lat": 0.0, "lon": -77.0202325, "name": "65491fef0deb12686b62a0d85106fd47"}, {"bike_id": "c51e01d3d653d9177326462b00018b0c", "type": "electric_scooter", "is_disabled": 0, "lat": 38.8846565, "rental_uris": {"ios": "https://dc.lft.to/lastmile_qr_scan", "android": "https://dc.lft.to/lastmile_qr_scan"}, "is_reserved": 0, "fusion_lon": 0.0, "fusion_lat": 0.0, "lon": -77.025812, "name": "c51e01d3d653d9177326462b00018b0c"}, {"bike_id": "2b1be0b318f50c199fbdba3bf57d3995", "type": "electric_scooter", "is_disabled": 0, "lat": 38.90884333333333, "rental_uris": {"ios": "https://dc.lft.to/lastmile_qr_scan", "android": "https://dc.lft.to/lastmile_qr_scan"}, "is_reserved": 0, "fusion_lon": 0.0, "fusion_lat": 0.0, "lon": -77.002598, "name": "2b1be0b318f50c199fbdba3bf57d3995"}, {"bike_id": "ba49a5209619d32dd849acc05462d3bf", "type": "electric_scooter", "is_disabled": 0, "lat": 38.90821033333334, "rental_uris": {"ios": "https://dc.lft.to/lastmile_qr_scan", "android": "https://dc.lft.to/lastmile_qr_scan"}, "is_reserved": 0, "fusion_lon": 0.0, "fusion_lat": 0.0, "lon": -77.0333095, "name": "ba49a5209619d32dd849acc05462d3bf"}, {"bike_id": "f00c69875bfc75043956605dda61a57f", "type": "electric_scooter", "is_disabled": 0, "lat": 38.9303605, "rental_uris": {"ios": "https://dc.lft.to/lastmile_qr_scan", "android": "https://dc.lft.to/lastmile_qr_scan"}, "is_reserved": 0, "fusion_lon": 0.0, "fusion_lat": 0.0, "lon": -77.01821, "name": "f00c69875bfc75043956605dda61a57f"}, {"bike_id": "8c34db053daab822376b309b489654a7", "type": "electric_scooter", "is_disabled": 0, "lat": 38.90147833333333, "rental_uris": {"ios": "https://dc.lft.to/lastmile_qr_scan", "android": "https://dc.lft.to/lastmile_qr_scan"}, "is_reserved": 0, "fusion_lon": 0.0, "fusion_lat": 0.0, "lon": -77.029771, "name": "8c34db053daab822376b309b489654a7"}, {"bike_id": "f28d1d21ccf31ca258a3b80125ddc8a0", "type": "electric_scooter", "is_disabled": 0, "lat": 38.8910955, "rental_uris": {"ios": "https://dc.lft.to/lastmile_qr_scan", "android": "https://dc.lft.to/lastmile_qr_scan"}, "is_reserved": 0, "fusion_lon": 0.0, "fusion_lat": 0.0, "lon": -77.015069, "name": "f28d1d21ccf31ca258a3b80125ddc8a0"}, {"bike_id": "3b44c9c5dc92c5de2ecdfcb9492868c8", "type": "electric_scooter", "is_disabled": 0, "lat": 38.88432816666667, "rental_uris": {"ios": "https://dc.lft.to/lastmile_qr_scan", "android": "https://dc.lft.to/lastmile_qr_scan"}, "is_reserved": 0, "fusion_lon": 0.0, "fusion_lat": 0.0, "lon": -76.95757766666667, "name": "3b44c9c5dc92c5de2ecdfcb9492868c8"}, {"bike_id": "4d62f362e3f3086c48716eeb6949fdb2", "type": "electric_bike", "is_disabled": 0, "lat": 38.865145, "rental_uris": {"ios": "https://dc.lft.to/lastmile_qr_scan", "android": "https://dc.lft.to/lastmile_qr_scan"}, "is_reserved": 0, "fusion_lon": 0.0, "fusion_lat": 0.0, "lon": -77.1293655, "name": "4d62f362e3f3086c48716eeb6949fdb2"}, {"bike_id": "5aec5111f1b8b2e6c7926eb0bfd5c928", "type": "electric_bike", "is_disabled": 0, "lat": 38.8039105, "rental_uris": {"ios": "https://dc.lft.to/lastmile_qr_scan", "android": "https://dc.lft.to/lastmile_qr_scan"}, "is_reserved": 0, "fusion_lon": 0.0, "fusion_lat": 0.0, "lon": -77.05563333333333, "name": "5aec5111f1b8b2e6c7926eb0bfd5c928"}, {"bike_id": "be436db2391c9338d5f2198308b777b4", "type": "electric_scooter", "is_disabled": 0, "lat": 38.882101666666664, "rental_uris": {"ios": "https://dc.lft.to/lastmile_qr_scan", "android": "https://dc.lft.to/lastmile_qr_scan"}, "is_reserved": 0, "fusion_lon": 0.0, "fusion_lat": 0.0, "lon": -77.029055, "name": "be436db2391c9338d5f2198308b777b4"}, {"bike_id": "0e9cce112c2ed98009cb6f9c632f3c8d", "type": "electric_scooter", "is_disabled": 0, "lat": 38.901928166666664, "rental_uris": {"ios": "https://dc.lft.to/lastmile_qr_scan", "android": "https://dc.lft.to/lastmile_qr_scan"}, "is_reserved": 0, "fusion_lon": 0.0, "fusion_lat": 0.0, "lon": -76.99685516666666, "name": "0e9cce112c2ed98009cb6f9c632f3c8d"}, {"bike_id": "604c43a3712e5985a85a144c424afb82", "type": "electric_scooter", "is_disabled": 0, "lat": 38.91398933333333, "rental_uris": {"ios": "https://dc.lft.to/lastmile_qr_scan", "android": "https://dc.lft.to/lastmile_qr_scan"}, "is_reserved": 0, "fusion_lon": 0.0, "fusion_lat": 0.0, "lon": -77.03949283333333, "name": "604c43a3712e5985a85a144c424afb82"}, {"bike_id": "91fb220fb0637714f3f092ced0ab7783", "type": "electric_scooter", "is_disabled": 0, "lat": 38.897046333333336, "rental_uris": {"ios": "https://dc.lft.to/lastmile_qr_scan", "android": "https://dc.lft.to/lastmile_qr_scan"}, "is_reserved": 0, "fusion_lon": 0.0, "fusion_lat": 0.0, "lon": -76.93000183333334, "name": "91fb220fb0637714f3f092ced0ab7783"}, {"bike_id": "32268ec763731cfda5b5af7f05041360", "type": "electric_scooter", "is_disabled": 0, "lat": 38.926982, "rental_uris": {"ios": "https://dc.lft.to/lastmile_qr_scan", "android": "https://dc.lft.to/lastmile_qr_scan"}, "is_reserved": 0, "fusion_lon": 0.0, "fusion_lat": 0.0, "lon": -77.0149625, "name": "32268ec763731cfda5b5af7f05041360"}, {"bike_id": "d42a169f691d1c24b02c017eb7df4710", "type": "electric_scooter", "is_disabled": 0, "lat": 38.91811083333333, "rental_uris": {"ios": "https://dc.lft.to/lastmile_qr_scan", "android": "https://dc.lft.to/lastmile_qr_scan"}, "is_reserved": 0, "fusion_lon": 0.0, "fusion_lat": 0.0, "lon": -77.024782, "name": "d42a169f691d1c24b02c017eb7df4710"}, {"bike_id": "bcd02be25457569e433f6fb39877a28a", "type": "electric_scooter", "is_disabled": 0, "lat": 38.931735833333335, "rental_uris": {"ios": "https://dc.lft.to/lastmile_qr_scan", "android": "https://dc.lft.to/lastmile_qr_scan"}, "is_reserved": 0, "fusion_lon": 0.0, "fusion_lat": 0.0, "lon": -77.0253685, "name": "bcd02be25457569e433f6fb39877a28a"}, {"bike_id": "fea0bacada605295882a078d2a23814c", "type": "electric_scooter", "is_disabled": 0, "lat": 38.907760833333334, "rental_uris": {"ios": "https://dc.lft.to/lastmile_qr_scan", "android": "https://dc.lft.to/lastmile_qr_scan"}, "is_reserved": 0, "fusion_lon": 0.0, "fusion_lat": 0.0, "lon": -77.04505783333333, "name": "fea0bacada605295882a078d2a23814c"}, {"bike_id": "11f842434d5330a1826bfba816d91183", "type": "electric_scooter", "is_disabled": 0, "lat": 38.916303, "rental_uris": {"ios": "https://dc.lft.to/lastmile_qr_scan", "android": "https://dc.lft.to/lastmile_qr_scan"}, "is_reserved": 0, "fusion_lon": 0.0, "fusion_lat": 0.0, "lon": -77.03960116666667, "name": "11f842434d5330a1826bfba816d91183"}, {"bike_id": "f36e424a5a66ce20455783aeb7352185", "type": "electric_scooter", "is_disabled": 0, "lat": 38.9013805, "rental_uris": {"ios": "https://dc.lft.to/lastmile_qr_scan", "android": "https://dc.lft.to/lastmile_qr_scan"}, "is_reserved": 0, "fusion_lon": 0.0, "fusion_lat": 0.0, "lon": -77.01614866666667, "name": "f36e424a5a66ce20455783aeb7352185"}, {"bike_id": "61d2df7b81c3d37728c7a46175889970", "type": "electric_scooter", "is_disabled": 0, "lat": 38.91708783333333, "rental_uris": {"ios": "https://dc.lft.to/lastmile_qr_scan", "android": "https://dc.lft.to/lastmile_qr_scan"}, "is_reserved": 0, "fusion_lon": 0.0, "fusion_lat": 0.0, "lon": -77.02421366666667, "name": "61d2df7b81c3d37728c7a46175889970"}, {"bike_id": "37532961294434dcc832e046151dab68", "type": "electric_scooter", "is_disabled": 0, "lat": 38.92342983333333, "rental_uris": {"ios": "https://dc.lft.to/lastmile_qr_scan", "android": "https://dc.lft.to/lastmile_qr_scan"}, "is_reserved": 0, "fusion_lon": 0.0, "fusion_lat": 0.0, "lon": -77.05102566666666, "name": "37532961294434dcc832e046151dab68"}, {"bike_id": "0d35b58823715d45b2ddeb60c22f57a4", "type": "electric_scooter", "is_disabled": 0, "lat": 38.867195833333334, "rental_uris": {"ios": "https://dc.lft.to/lastmile_qr_scan", "android": "https://dc.lft.to/lastmile_qr_scan"}, "is_reserved": 0, "fusion_lon": 0.0, "fusion_lat": 0.0, "lon": -77.01015033333333, "name": "0d35b58823715d45b2ddeb60c22f57a4"}, {"bike_id": "5be79c3d650d05b9c7b7c8a4bbc0d0cc", "type": "electric_scooter", "is_disabled": 0, "lat": 38.93191516666667, "rental_uris": {"ios": "https://dc.lft.to/lastmile_qr_scan", "android": "https://dc.lft.to/lastmile_qr_scan"}, "is_reserved": 0, "fusion_lon": 0.0, "fusion_lat": 0.0, "lon": -77.020221, "name": "5be79c3d650d05b9c7b7c8a4bbc0d0cc"}, {"bike_id": "ec3add81ff1f7d90b49f326b5eae60bd", "type": "electric_scooter", "is_disabled": 0, "lat": 38.909960833333336, "rental_uris": {"ios": "https://dc.lft.to/lastmile_qr_scan", "android": "https://dc.lft.to/lastmile_qr_scan"}, "is_reserved": 0, "fusion_lon": 0.0, "fusion_lat": 0.0, "lon": -77.04004983333333, "name": "ec3add81ff1f7d90b49f326b5eae60bd"}, {"bike_id": "84243483e7e13d807ff847aae25932fd", "type": "electric_scooter", "is_disabled": 0, "lat": 38.89736, "rental_uris": {"ios": "https://dc.lft.to/lastmile_qr_scan", "android": "https://dc.lft.to/lastmile_qr_scan"}, "is_reserved": 0, "fusion_lon": 0.0, "fusion_lat": 0.0, "lon": -77.04606316666667, "name": "84243483e7e13d807ff847aae25932fd"}, {"bike_id": "55983f9b5e10ca04b6d224654fb01ad5", "type": "electric_scooter", "is_disabled": 0, "lat": 38.9347545, "rental_uris": {"ios": "https://dc.lft.to/lastmile_qr_scan", "android": "https://dc.lft.to/lastmile_qr_scan"}, "is_reserved": 0, "fusion_lon": 0.0, "fusion_lat": 0.0, "lon": -77.02765683333334, "name": "55983f9b5e10ca04b6d224654fb01ad5"}, {"bike_id": "88ce2f73862c8293f34f583d6f30fc61", "type": "electric_bike", "is_disabled": 0, "lat": 38.9377345, "rental_uris": {"ios": "https://dc.lft.to/lastmile_qr_scan", "android": "https://dc.lft.to/lastmile_qr_scan"}, "is_reserved": 0, "fusion_lon": 0.0, "fusion_lat": 0.0, "lon": -77.0188355, "name": "88ce2f73862c8293f34f583d6f30fc61"}, {"bike_id": "bdb17553d90f53caa90f5468cfbaadc7", "type": "electric_scooter", "is_disabled": 0, "lat": 38.830836166666664, "rental_uris": {"ios": "https://dc.lft.to/lastmile_qr_scan", "android": "https://dc.lft.to/lastmile_qr_scan"}, "is_reserved": 0, "fusion_lon": 0.0, "fusion_lat": 0.0, "lon": -77.05166066666666, "name": "bdb17553d90f53caa90f5468cfbaadc7"}, {"bike_id": "a129f6d6d7caaa387de23a84ea278525", "type": "electric_scooter", "is_disabled": 0, "lat": 38.94413733333333, "rental_uris": {"ios": "https://dc.lft.to/lastmile_qr_scan", "android": "https://dc.lft.to/lastmile_qr_scan"}, "is_reserved": 0, "fusion_lon": 0.0, "fusion_lat": 0.0, "lon": -77.01778766666666, "name": "a129f6d6d7caaa387de23a84ea278525"}, {"bike_id": "e91acb4d829e0941eecbabb59a3ab687", "type": "electric_scooter", "is_disabled": 0, "lat": 38.866847666666665, "rental_uris": {"ios": "https://dc.lft.to/lastmile_qr_scan", "android": "https://dc.lft.to/lastmile_qr_scan"}, "is_reserved": 0, "fusion_lon": 0.0, "fusion_lat": 0.0, "lon": -76.98575483333333, "name": "e91acb4d829e0941eecbabb59a3ab687"}, {"bike_id": "040520b0fcc9eecb6b2ee508f836b7d3", "type": "electric_scooter", "is_disabled": 0, "lat": 38.86649966666667, "rental_uris": {"ios": "https://dc.lft.to/lastmile_qr_scan", "android": "https://dc.lft.to/lastmile_qr_scan"}, "is_reserved": 0, "fusion_lon": 0.0, "fusion_lat": 0.0, "lon": -76.98818866666667, "name": "040520b0fcc9eecb6b2ee508f836b7d3"}, {"bike_id": "6a6fdea7f550c28adfced05bf19e0405", "type": "electric_bike", "is_disabled": 0, "lat": 38.983666666666664, "rental_uris": {"ios": "https://dc.lft.to/lastmile_qr_scan", "android": "https://dc.lft.to/lastmile_qr_scan"}, "is_reserved": 0, "fusion_lon": 0.0, "fusion_lat": 0.0, "lon": -76.97216283333333, "name": "6a6fdea7f550c28adfced05bf19e0405"}, {"bike_id": "938314c4c637fcd4b4f4ac636839a4fe", "type": "electric_scooter", "is_disabled": 0, "lat": 38.92748433333333, "rental_uris": {"ios": "https://dc.lft.to/lastmile_qr_scan", "android": "https://dc.lft.to/lastmile_qr_scan"}, "is_reserved": 0, "fusion_lon": 0.0, "fusion_lat": 0.0, "lon": -77.02537866666667, "name": "938314c4c637fcd4b4f4ac636839a4fe"}, {"bike_id": "9ec8e778f935b0201c4dddf45c483780", "type": "electric_scooter", "is_disabled": 0, "lat": 38.915452, "rental_uris": {"ios": "https://dc.lft.to/lastmile_qr_scan", "android": "https://dc.lft.to/lastmile_qr_scan"}, "is_reserved": 0, "fusion_lon": 0.0, "fusion_lat": 0.0, "lon": -77.02201333333333, "name": "9ec8e778f935b0201c4dddf45c483780"}, {"bike_id": "89dbe16f4a2a7f32f8a3a77566576bff", "type": "electric_scooter", "is_disabled": 0, "lat": 38.914393833333335, "rental_uris": {"ios": "https://dc.lft.to/lastmile_qr_scan", "android": "https://dc.lft.to/lastmile_qr_scan"}, "is_reserved": 0, "fusion_lon": 0.0, "fusion_lat": 0.0, "lon": -77.022938, "name": "89dbe16f4a2a7f32f8a3a77566576bff"}, {"bike_id": "888c4f6e3cb334bee2e977a1a9ee5e2a", "type": "electric_scooter", "is_disabled": 0, "lat": 38.916423333333334, "rental_uris": {"ios": "https://dc.lft.to/lastmile_qr_scan", "android": "https://dc.lft.to/lastmile_qr_scan"}, "is_reserved": 0, "fusion_lon": 0.0, "fusion_lat": 0.0, "lon": -77.02288816666666, "name": "888c4f6e3cb334bee2e977a1a9ee5e2a"}, {"bike_id": "0c2ecdd1389fa8d0a64b730d1cd717d9", "type": "electric_scooter", "is_disabled": 0, "lat": 38.85316516666666, "rental_uris": {"ios": "https://dc.lft.to/lastmile_qr_scan", "android": "https://dc.lft.to/lastmile_qr_scan"}, "is_reserved": 0, "fusion_lon": 0.0, "fusion_lat": 0.0, "lon": -76.98007616666666, "name": "0c2ecdd1389fa8d0a64b730d1cd717d9"}, {"bike_id": "3847bf5220025e326f34b2e97f87f5d6", "type": "electric_scooter", "is_disabled": 0, "lat": 38.866803833333336, "rental_uris": {"ios": "https://dc.lft.to/lastmile_qr_scan", "android": "https://dc.lft.to/lastmile_qr_scan"}, "is_reserved": 0, "fusion_lon": 0.0, "fusion_lat": 0.0, "lon": -76.98579666666667, "name": "3847bf5220025e326f34b2e97f87f5d6"}, {"bike_id": "701152377e80cf124b569964b4c542fb", "type": "electric_scooter", "is_disabled": 0, "lat": 38.888491333333334, "rental_uris": {"ios": "https://dc.lft.to/lastmile_qr_scan", "android": "https://dc.lft.to/lastmile_qr_scan"}, "is_reserved": 0, "fusion_lon": 0.0, "fusion_lat": 0.0, "lon": -76.926781, "name": "701152377e80cf124b569964b4c542fb"}, {"bike_id": "05167f8cfd4c2d570fbb2f7a25e1835f", "type": "electric_scooter", "is_disabled": 0, "lat": 38.9125325, "rental_uris": {"ios": "https://dc.lft.to/lastmile_qr_scan", "android": "https://dc.lft.to/lastmile_qr_scan"}, "is_reserved": 0, "fusion_lon": 0.0, "fusion_lat": 0.0, "lon": -77.03752666666666, "name": "05167f8cfd4c2d570fbb2f7a25e1835f"}, {"bike_id": "e3ea5c57dc890457436c0f1e71f11122", "type": "electric_scooter", "is_disabled": 0, "lat": 38.942719333333336, "rental_uris": {"ios": "https://dc.lft.to/lastmile_qr_scan", "android": "https://dc.lft.to/lastmile_qr_scan"}, "is_reserved": 0, "fusion_lon": 0.0, "fusion_lat": 0.0, "lon": -77.03260033333333, "name": "e3ea5c57dc890457436c0f1e71f11122"}, {"bike_id": "23c21f53b68e5b8e7623c45874d7e035", "type": "electric_scooter", "is_disabled": 0, "lat": 38.87867116666666, "rental_uris": {"ios": "https://dc.lft.to/lastmile_qr_scan", "android": "https://dc.lft.to/lastmile_qr_scan"}, "is_reserved": 0, "fusion_lon": 0.0, "fusion_lat": 0.0, "lon": -76.96982716666666, "name": "23c21f53b68e5b8e7623c45874d7e035"}, {"bike_id": "41bae6178498670d8dd02b81ea1b9823", "type": "electric_scooter", "is_disabled": 0, "lat": 38.91106933333333, "rental_uris": {"ios": "https://dc.lft.to/lastmile_qr_scan", "android": "https://dc.lft.to/lastmile_qr_scan"}, "is_reserved": 0, "fusion_lon": 0.0, "fusion_lat": 0.0, "lon": -77.03829483333334, "name": "41bae6178498670d8dd02b81ea1b9823"}, {"bike_id": "30558e1a5cb3a4149f4c1bc4aa7f5cda", "type": "electric_scooter", "is_disabled": 0, "lat": 38.902437166666665, "rental_uris": {"ios": "https://dc.lft.to/lastmile_qr_scan", "android": "https://dc.lft.to/lastmile_qr_scan"}, "is_reserved": 0, "fusion_lon": 0.0, "fusion_lat": 0.0, "lon": -77.04326883333333, "name": "30558e1a5cb3a4149f4c1bc4aa7f5cda"}, {"bike_id": "ba3d517a2749f2c9b5153fc8ae7ef4ad", "type": "electric_scooter", "is_disabled": 0, "lat": 38.92913, "rental_uris": {"ios": "https://dc.lft.to/lastmile_qr_scan", "android": "https://dc.lft.to/lastmile_qr_scan"}, "is_reserved": 0, "fusion_lon": 0.0, "fusion_lat": 0.0, "lon": -77.02090616666666, "name": "ba3d517a2749f2c9b5153fc8ae7ef4ad"}, {"bike_id": "3e8c31abf9bb0eec4f42fc0bbaacbed2", "type": "electric_scooter", "is_disabled": 0, "lat": 38.874212, "rental_uris": {"ios": "https://dc.lft.to/lastmile_qr_scan", "android": "https://dc.lft.to/lastmile_qr_scan"}, "is_reserved": 0, "fusion_lon": 0.0, "fusion_lat": 0.0, "lon": -76.96908416666666, "name": "3e8c31abf9bb0eec4f42fc0bbaacbed2"}, {"bike_id": "4525748cbd1913664ef57b1026545db2", "type": "electric_scooter", "is_disabled": 0, "lat": 38.92479483333334, "rental_uris": {"ios": "https://dc.lft.to/lastmile_qr_scan", "android": "https://dc.lft.to/lastmile_qr_scan"}, "is_reserved": 0, "fusion_lon": 0.0, "fusion_lat": 0.0, "lon": -77.02827416666666, "name": "4525748cbd1913664ef57b1026545db2"}, {"bike_id": "29125583a2f224a0c88f79a1cc06e2e6", "type": "electric_scooter", "is_disabled": 0, "lat": 38.91544733333333, "rental_uris": {"ios": "https://dc.lft.to/lastmile_qr_scan", "android": "https://dc.lft.to/lastmile_qr_scan"}, "is_reserved": 0, "fusion_lon": 0.0, "fusion_lat": 0.0, "lon": -77.01220366666666, "name": "29125583a2f224a0c88f79a1cc06e2e6"}, {"bike_id": "7cc24f956df0196c872ea5e7f5b24e19", "type": "electric_bike", "is_disabled": 0, "lat": 38.898012333333334, "rental_uris": {"ios": "https://dc.lft.to/lastmile_qr_scan", "android": "https://dc.lft.to/lastmile_qr_scan"}, "is_reserved": 0, "fusion_lon": 0.0, "fusion_lat": 0.0, "lon": -76.990826, "name": "7cc24f956df0196c872ea5e7f5b24e19"}, {"bike_id": "dfc06b5c176831d3e5e18d6daf729970", "type": "electric_bike", "is_disabled": 0, "lat": 38.859348, "rental_uris": {"ios": "https://dc.lft.to/lastmile_qr_scan", "android": "https://dc.lft.to/lastmile_qr_scan"}, "is_reserved": 0, "fusion_lon": 0.0, "fusion_lat": 0.0, "lon": -77.11830716666667, "name": "dfc06b5c176831d3e5e18d6daf729970"}, {"bike_id": "95be326184557234fce512bd53ed0916", "type": "electric_scooter", "is_disabled": 0, "lat": 38.9054795, "rental_uris": {"ios": "https://dc.lft.to/lastmile_qr_scan", "android": "https://dc.lft.to/lastmile_qr_scan"}, "is_reserved": 0, "fusion_lon": 0.0, "fusion_lat": 0.0, "lon": -77.032434, "name": "95be326184557234fce512bd53ed0916"}, {"bike_id": "f7a9691d17d0cace179c6ab7fc77017c", "type": "electric_scooter", "is_disabled": 0, "lat": 38.9094395, "rental_uris": {"ios": "https://dc.lft.to/lastmile_qr_scan", "android": "https://dc.lft.to/lastmile_qr_scan"}, "is_reserved": 0, "fusion_lon": 0.0, "fusion_lat": 0.0, "lon": -77.03443066666667, "name": "f7a9691d17d0cace179c6ab7fc77017c"}, {"bike_id": "f55a691c888ec27e7a6e62415c9a55e1", "type": "electric_bike", "is_disabled": 0, "lat": 38.823677833333335, "rental_uris": {"ios": "https://dc.lft.to/lastmile_qr_scan", "android": "https://dc.lft.to/lastmile_qr_scan"}, "is_reserved": 0, "fusion_lon": 0.0, "fusion_lat": 0.0, "lon": -77.00219933333334, "name": "f55a691c888ec27e7a6e62415c9a55e1"}, {"bike_id": "f4d5c1b972a5eb3722a8c00301efa98a", "type": "electric_scooter", "is_disabled": 0, "lat": 38.957063166666664, "rental_uris": {"ios": "https://dc.lft.to/lastmile_qr_scan", "android": "https://dc.lft.to/lastmile_qr_scan"}, "is_reserved": 0, "fusion_lon": 0.0, "fusion_lat": 0.0, "lon": -77.077463, "name": "f4d5c1b972a5eb3722a8c00301efa98a"}, {"bike_id": "763c79da7269b10feb917473d2e0158c", "type": "electric_scooter", "is_disabled": 0, "lat": 38.908437666666664, "rental_uris": {"ios": "https://dc.lft.to/lastmile_qr_scan", "android": "https://dc.lft.to/lastmile_qr_scan"}, "is_reserved": 0, "fusion_lon": 0.0, "fusion_lat": 0.0, "lon": -77.02194916666667, "name": "763c79da7269b10feb917473d2e0158c"}, {"bike_id": "e49eb55236c1d4646ca20100dfb6e632", "type": "electric_bike", "is_disabled": 0, "lat": 38.90828616666667, "rental_uris": {"ios": "https://dc.lft.to/lastmile_qr_scan", "android": "https://dc.lft.to/lastmile_qr_scan"}, "is_reserved": 0, "fusion_lon": 0.0, "fusion_lat": 0.0, "lon": -76.9415685, "name": "e49eb55236c1d4646ca20100dfb6e632"}, {"bike_id": "f59cdc107a6ea4d96256b474cffda2fe", "type": "electric_scooter", "is_disabled": 0, "lat": 38.893454, "rental_uris": {"ios": "https://dc.lft.to/lastmile_qr_scan", "android": "https://dc.lft.to/lastmile_qr_scan"}, "is_reserved": 0, "fusion_lon": 0.0, "fusion_lat": 0.0, "lon": -76.99271583333334, "name": "f59cdc107a6ea4d96256b474cffda2fe"}, {"bike_id": "e441130bf933d33b2854dff5b9398648", "type": "electric_scooter", "is_disabled": 0, "lat": 38.90963716666667, "rental_uris": {"ios": "https://dc.lft.to/lastmile_qr_scan", "android": "https://dc.lft.to/lastmile_qr_scan"}, "is_reserved": 0, "fusion_lon": 0.0, "fusion_lat": 0.0, "lon": -77.03228366666667, "name": "e441130bf933d33b2854dff5b9398648"}, {"bike_id": "592cb9b7682e568d1a833f7273221d17", "type": "electric_bike", "is_disabled": 0, "lat": 38.8813235, "rental_uris": {"ios": "https://dc.lft.to/lastmile_qr_scan", "android": "https://dc.lft.to/lastmile_qr_scan"}, "is_reserved": 0, "fusion_lon": 0.0, "fusion_lat": 0.0, "lon": -77.09350616666667, "name": "592cb9b7682e568d1a833f7273221d17"}, {"bike_id": "37478ede6c0d1b05f06096d447166d74", "type": "electric_scooter", "is_disabled": 0, "lat": 38.876521833333335, "rental_uris": {"ios": "https://dc.lft.to/lastmile_qr_scan", "android": "https://dc.lft.to/lastmile_qr_scan"}, "is_reserved": 0, "fusion_lon": 0.0, "fusion_lat": 0.0, "lon": -77.00423716666667, "name": "37478ede6c0d1b05f06096d447166d74"}, {"bike_id": "85d2dee2bb285b534e8883a1abfa5441", "type": "electric_scooter", "is_disabled": 0, "lat": 38.9170425, "rental_uris": {"ios": "https://dc.lft.to/lastmile_qr_scan", "android": "https://dc.lft.to/lastmile_qr_scan"}, "is_reserved": 0, "fusion_lon": 0.0, "fusion_lat": 0.0, "lon": -77.02341266666667, "name": "85d2dee2bb285b534e8883a1abfa5441"}, {"bike_id": "ae9a62a5191b93cfd6c47d3b1c07147c", "type": "electric_bike", "is_disabled": 0, "lat": 39.03762566666666, "rental_uris": {"ios": "https://dc.lft.to/lastmile_qr_scan", "android": "https://dc.lft.to/lastmile_qr_scan"}, "is_reserved": 0, "fusion_lon": 0.0, "fusion_lat": 0.0, "lon": -77.05482366666666, "name": "ae9a62a5191b93cfd6c47d3b1c07147c"}, {"bike_id": "ccd973902478babf0b925ef306463d0f", "type": "electric_bike", "is_disabled": 0, "lat": 39.05497283333333, "rental_uris": {"ios": "https://dc.lft.to/lastmile_qr_scan", "android": "https://dc.lft.to/lastmile_qr_scan"}, "is_reserved": 0, "fusion_lon": 0.0, "fusion_lat": 0.0, "lon": -77.11787616666666, "name": "ccd973902478babf0b925ef306463d0f"}, {"bike_id": "cf25ab69ee90a12bb37a08024f31ba53", "type": "electric_scooter", "is_disabled": 0, "lat": 38.877418, "rental_uris": {"ios": "https://dc.lft.to/lastmile_qr_scan", "android": "https://dc.lft.to/lastmile_qr_scan"}, "is_reserved": 0, "fusion_lon": 0.0, "fusion_lat": 0.0, "lon": -76.99715616666667, "name": "cf25ab69ee90a12bb37a08024f31ba53"}, {"bike_id": "d6c13abbfed7831a28e5d85f5307ef7a", "type": "electric_scooter", "is_disabled": 0, "lat": 38.926924666666665, "rental_uris": {"ios": "https://dc.lft.to/lastmile_qr_scan", "android": "https://dc.lft.to/lastmile_qr_scan"}, "is_reserved": 0, "fusion_lon": 0.0, "fusion_lat": 0.0, "lon": -77.07320316666667, "name": "d6c13abbfed7831a28e5d85f5307ef7a"}, {"bike_id": "204862b2b81e8c6f995b1331e89a95ea", "type": "electric_scooter", "is_disabled": 0, "lat": 38.885338833333336, "rental_uris": {"ios": "https://dc.lft.to/lastmile_qr_scan", "android": "https://dc.lft.to/lastmile_qr_scan"}, "is_reserved": 0, "fusion_lon": 0.0, "fusion_lat": 0.0, "lon": -76.99828883333333, "name": "204862b2b81e8c6f995b1331e89a95ea"}, {"bike_id": "a30a089c270d9aff55f16159e52c782d", "type": "electric_scooter", "is_disabled": 0, "lat": 38.89239216666667, "rental_uris": {"ios": "https://dc.lft.to/lastmile_qr_scan", "android": "https://dc.lft.to/lastmile_qr_scan"}, "is_reserved": 0, "fusion_lon": 0.0, "fusion_lat": 0.0, "lon": -76.95328783333333, "name": "a30a089c270d9aff55f16159e52c782d"}, {"bike_id": "66cea245dda1b4615f39adf99453d98a", "type": "electric_scooter", "is_disabled": 0, "lat": 38.865052, "rental_uris": {"ios": "https://dc.lft.to/lastmile_qr_scan", "android": "https://dc.lft.to/lastmile_qr_scan"}, "is_reserved": 0, "fusion_lon": 0.0, "fusion_lat": 0.0, "lon": -76.99003483333334, "name": "66cea245dda1b4615f39adf99453d98a"}, {"bike_id": "daab380267ad036ab1415560d3b6f1d9", "type": "electric_scooter", "is_disabled": 0, "lat": 38.9337545, "rental_uris": {"ios": "https://dc.lft.to/lastmile_qr_scan", "android": "https://dc.lft.to/lastmile_qr_scan"}, "is_reserved": 0, "fusion_lon": 0.0, "fusion_lat": 0.0, "lon": -77.05727983333334, "name": "daab380267ad036ab1415560d3b6f1d9"}, {"bike_id": "236a8596891076e799c835571ea83315", "type": "electric_bike", "is_disabled": 0, "lat": 38.80903716666667, "rental_uris": {"ios": "https://dc.lft.to/lastmile_qr_scan", "android": "https://dc.lft.to/lastmile_qr_scan"}, "is_reserved": 0, "fusion_lon": 0.0, "fusion_lat": 0.0, "lon": -77.08659466666667, "name": "236a8596891076e799c835571ea83315"}, {"bike_id": "1456aa1b9cd00a74b56c8f6638532bf8", "type": "electric_scooter", "is_disabled": 0, "lat": 38.9115225, "rental_uris": {"ios": "https://dc.lft.to/lastmile_qr_scan", "android": "https://dc.lft.to/lastmile_qr_scan"}, "is_reserved": 0, "fusion_lon": 0.0, "fusion_lat": 0.0, "lon": -77.029595, "name": "1456aa1b9cd00a74b56c8f6638532bf8"}, {"bike_id": "92be9beea3b767dd62856b6933afc463", "type": "electric_scooter", "is_disabled": 0, "lat": 38.90955433333333, "rental_uris": {"ios": "https://dc.lft.to/lastmile_qr_scan", "android": "https://dc.lft.to/lastmile_qr_scan"}, "is_reserved": 0, "fusion_lon": 0.0, "fusion_lat": 0.0, "lon": -77.03337266666666, "name": "92be9beea3b767dd62856b6933afc463"}, {"bike_id": "560bef54863195f6366dccacffc0f7b3", "type": "electric_scooter", "is_disabled": 0, "lat": 38.90241483333333, "rental_uris": {"ios": "https://dc.lft.to/lastmile_qr_scan", "android": "https://dc.lft.to/lastmile_qr_scan"}, "is_reserved": 0, "fusion_lon": 0.0, "fusion_lat": 0.0, "lon": -77.04333583333333, "name": "560bef54863195f6366dccacffc0f7b3"}, {"bike_id": "643a2125c2ecc0d780688440e78e5cce", "type": "electric_scooter", "is_disabled": 0, "lat": 38.911315, "rental_uris": {"ios": "https://dc.lft.to/lastmile_qr_scan", "android": "https://dc.lft.to/lastmile_qr_scan"}, "is_reserved": 0, "fusion_lon": 0.0, "fusion_lat": 0.0, "lon": -77.02188633333333, "name": "643a2125c2ecc0d780688440e78e5cce"}, {"bike_id": "0bc2f84516b429c0aa8ee83fcaf393f6", "type": "electric_scooter", "is_disabled": 0, "lat": 38.92634983333333, "rental_uris": {"ios": "https://dc.lft.to/lastmile_qr_scan", "android": "https://dc.lft.to/lastmile_qr_scan"}, "is_reserved": 0, "fusion_lon": 0.0, "fusion_lat": 0.0, "lon": -77.01382166666667, "name": "0bc2f84516b429c0aa8ee83fcaf393f6"}, {"bike_id": "14e849573d942cc4587f860ad93e85e8", "type": "electric_scooter", "is_disabled": 0, "lat": 38.912191, "rental_uris": {"ios": "https://dc.lft.to/lastmile_qr_scan", "android": "https://dc.lft.to/lastmile_qr_scan"}, "is_reserved": 0, "fusion_lon": 0.0, "fusion_lat": 0.0, "lon": -77.03196833333334, "name": "14e849573d942cc4587f860ad93e85e8"}, {"bike_id": "aceaa439ef81919aa2fc3013bdaee013", "type": "electric_scooter", "is_disabled": 0, "lat": 38.92216633333334, "rental_uris": {"ios": "https://dc.lft.to/lastmile_qr_scan", "android": "https://dc.lft.to/lastmile_qr_scan"}, "is_reserved": 0, "fusion_lon": 0.0, "fusion_lat": 0.0, "lon": -77.0221365, "name": "aceaa439ef81919aa2fc3013bdaee013"}, {"bike_id": "ab284b950bc011bcebb13f115b8c2650", "type": "electric_scooter", "is_disabled": 0, "lat": 38.918512, "rental_uris": {"ios": "https://dc.lft.to/lastmile_qr_scan", "android": "https://dc.lft.to/lastmile_qr_scan"}, "is_reserved": 0, "fusion_lon": 0.0, "fusion_lat": 0.0, "lon": -77.03183233333333, "name": "ab284b950bc011bcebb13f115b8c2650"}, {"bike_id": "7927d60ef0c9de097f5c0731ba77d9bb", "type": "electric_scooter", "is_disabled": 0, "lat": 38.9170695, "rental_uris": {"ios": "https://dc.lft.to/lastmile_qr_scan", "android": "https://dc.lft.to/lastmile_qr_scan"}, "is_reserved": 0, "fusion_lon": 0.0, "fusion_lat": 0.0, "lon": -77.0121205, "name": "7927d60ef0c9de097f5c0731ba77d9bb"}, {"bike_id": "7e31bfc6b82a1e962d371b0ca3b138df", "type": "electric_scooter", "is_disabled": 0, "lat": 38.897307166666664, "rental_uris": {"ios": "https://dc.lft.to/lastmile_qr_scan", "android": "https://dc.lft.to/lastmile_qr_scan"}, "is_reserved": 0, "fusion_lon": 0.0, "fusion_lat": 0.0, "lon": -77.05473566666667, "name": "7e31bfc6b82a1e962d371b0ca3b138df"}, {"bike_id": "a4e6dd06abfd45c6c9ead9a169a56dbd", "type": "electric_scooter", "is_disabled": 0, "lat": 38.91676116666667, "rental_uris": {"ios": "https://dc.lft.to/lastmile_qr_scan", "android": "https://dc.lft.to/lastmile_qr_scan"}, "is_reserved": 0, "fusion_lon": 0.0, "fusion_lat": 0.0, "lon": -77.02286083333334, "name": "a4e6dd06abfd45c6c9ead9a169a56dbd"}, {"bike_id": "c116ca5f9ffdb897011205890c7f7b7f", "type": "electric_scooter", "is_disabled": 0, "lat": 38.90599133333333, "rental_uris": {"ios": "https://dc.lft.to/lastmile_qr_scan", "android": "https://dc.lft.to/lastmile_qr_scan"}, "is_reserved": 0, "fusion_lon": 0.0, "fusion_lat": 0.0, "lon": -77.0271045, "name": "c116ca5f9ffdb897011205890c7f7b7f"}, {"bike_id": "5fa806ab0e239d351ee52fbf00e13f0f", "type": "electric_bike", "is_disabled": 0, "lat": 38.849682666666666, "rental_uris": {"ios": "https://dc.lft.to/lastmile_qr_scan", "android": "https://dc.lft.to/lastmile_qr_scan"}, "is_reserved": 0, "fusion_lon": 0.0, "fusion_lat": 0.0, "lon": -77.07758, "name": "5fa806ab0e239d351ee52fbf00e13f0f"}, {"bike_id": "aad6ab28aad73d87ca9c470e81ccf528", "type": "electric_bike", "is_disabled": 0, "lat": 38.94473583333333, "rental_uris": {"ios": "https://dc.lft.to/lastmile_qr_scan", "android": "https://dc.lft.to/lastmile_qr_scan"}, "is_reserved": 0, "fusion_lon": 0.0, "fusion_lat": 0.0, "lon": -76.9868635, "name": "aad6ab28aad73d87ca9c470e81ccf528"}, {"bike_id": "4f902706905d464b58f9e7c1408015cd", "type": "electric_scooter", "is_disabled": 0, "lat": 38.9121435, "rental_uris": {"ios": "https://dc.lft.to/lastmile_qr_scan", "android": "https://dc.lft.to/lastmile_qr_scan"}, "is_reserved": 0, "fusion_lon": 0.0, "fusion_lat": 0.0, "lon": -76.987811, "name": "4f902706905d464b58f9e7c1408015cd"}, {"bike_id": "58d7eb8f8feeaec03f53507f685105f9", "type": "electric_scooter", "is_disabled": 0, "lat": 38.915049833333335, "rental_uris": {"ios": "https://dc.lft.to/lastmile_qr_scan", "android": "https://dc.lft.to/lastmile_qr_scan"}, "is_reserved": 0, "fusion_lon": 0.0, "fusion_lat": 0.0, "lon": -77.01774833333333, "name": "58d7eb8f8feeaec03f53507f685105f9"}, {"bike_id": "f0f4a3d16760da005b84cf95b71b1653", "type": "electric_scooter", "is_disabled": 0, "lat": 38.922366833333335, "rental_uris": {"ios": "https://dc.lft.to/lastmile_qr_scan", "android": "https://dc.lft.to/lastmile_qr_scan"}, "is_reserved": 0, "fusion_lon": 0.0, "fusion_lat": 0.0, "lon": -77.03697383333333, "name": "f0f4a3d16760da005b84cf95b71b1653"}, {"bike_id": "d3fe93f4ebd111e1ea59c27629de559e", "type": "electric_scooter", "is_disabled": 0, "lat": 38.904166000000004, "rental_uris": {"ios": "https://dc.lft.to/lastmile_qr_scan", "android": "https://dc.lft.to/lastmile_qr_scan"}, "is_reserved": 0, "fusion_lon": 0.0, "fusion_lat": 0.0, "lon": -77.0687685, "name": "d3fe93f4ebd111e1ea59c27629de559e"}, {"bike_id": "e493f1d2c5342825c21610d9c6663d1c", "type": "electric_scooter", "is_disabled": 0, "lat": 38.866545, "rental_uris": {"ios": "https://dc.lft.to/lastmile_qr_scan", "android": "https://dc.lft.to/lastmile_qr_scan"}, "is_reserved": 0, "fusion_lon": 0.0, "fusion_lat": 0.0, "lon": -76.98884633333333, "name": "e493f1d2c5342825c21610d9c6663d1c"}, {"bike_id": "729261d42e5fe33284fed2bed9253d70", "type": "electric_scooter", "is_disabled": 0, "lat": 38.90370566666667, "rental_uris": {"ios": "https://dc.lft.to/lastmile_qr_scan", "android": "https://dc.lft.to/lastmile_qr_scan"}, "is_reserved": 0, "fusion_lon": 0.0, "fusion_lat": 0.0, "lon": -77.021765, "name": "729261d42e5fe33284fed2bed9253d70"}, {"bike_id": "0d991bea4fa081285342fccbd8f681f0", "type": "electric_scooter", "is_disabled": 0, "lat": 38.912655666666666, "rental_uris": {"ios": "https://dc.lft.to/lastmile_qr_scan", "android": "https://dc.lft.to/lastmile_qr_scan"}, "is_reserved": 0, "fusion_lon": 0.0, "fusion_lat": 0.0, "lon": -77.0385675, "name": "0d991bea4fa081285342fccbd8f681f0"}, {"bike_id": "c60650f09980edcafccdd0cc057cbd37", "type": "electric_scooter", "is_disabled": 0, "lat": 38.956267833333335, "rental_uris": {"ios": "https://dc.lft.to/lastmile_qr_scan", "android": "https://dc.lft.to/lastmile_qr_scan"}, "is_reserved": 0, "fusion_lon": 0.0, "fusion_lat": 0.0, "lon": -77.03618366666667, "name": "c60650f09980edcafccdd0cc057cbd37"}, {"bike_id": "719292a89a47950e0b87b35f0ca48ae1", "type": "electric_scooter", "is_disabled": 0, "lat": 38.9057265, "rental_uris": {"ios": "https://dc.lft.to/lastmile_qr_scan", "android": "https://dc.lft.to/lastmile_qr_scan"}, "is_reserved": 0, "fusion_lon": 0.0, "fusion_lat": 0.0, "lon": -77.0269365, "name": "719292a89a47950e0b87b35f0ca48ae1"}, {"bike_id": "585e2a073e7844535d5f5658856ad31f", "type": "electric_scooter", "is_disabled": 0, "lat": 38.9072195, "rental_uris": {"ios": "https://dc.lft.to/lastmile_qr_scan", "android": "https://dc.lft.to/lastmile_qr_scan"}, "is_reserved": 0, "fusion_lon": 0.0, "fusion_lat": 0.0, "lon": -77.04507133333334, "name": "585e2a073e7844535d5f5658856ad31f"}, {"bike_id": "a08b2b7cfc3e2d7df35025d714ba537c", "type": "electric_scooter", "is_disabled": 0, "lat": 38.88532933333333, "rental_uris": {"ios": "https://dc.lft.to/lastmile_qr_scan", "android": "https://dc.lft.to/lastmile_qr_scan"}, "is_reserved": 0, "fusion_lon": 0.0, "fusion_lat": 0.0, "lon": -76.99821383333334, "name": "a08b2b7cfc3e2d7df35025d714ba537c"}, {"bike_id": "604131675d7652b1f97005ebfdadf585", "type": "electric_scooter", "is_disabled": 0, "lat": 38.92326216666667, "rental_uris": {"ios": "https://dc.lft.to/lastmile_qr_scan", "android": "https://dc.lft.to/lastmile_qr_scan"}, "is_reserved": 0, "fusion_lon": 0.0, "fusion_lat": 0.0, "lon": -77.03784, "name": "604131675d7652b1f97005ebfdadf585"}, {"bike_id": "a970724d419faf6bf144ece1995068ed", "type": "electric_scooter", "is_disabled": 0, "lat": 38.901180833333335, "rental_uris": {"ios": "https://dc.lft.to/lastmile_qr_scan", "android": "https://dc.lft.to/lastmile_qr_scan"}, "is_reserved": 0, "fusion_lon": 0.0, "fusion_lat": 0.0, "lon": -76.929514, "name": "a970724d419faf6bf144ece1995068ed"}, {"bike_id": "aadccdf031f2fd3f0b215603b98f0fed", "type": "electric_bike", "is_disabled": 0, "lat": 38.973969833333335, "rental_uris": {"ios": "https://dc.lft.to/lastmile_qr_scan", "android": "https://dc.lft.to/lastmile_qr_scan"}, "is_reserved": 0, "fusion_lon": 0.0, "fusion_lat": 0.0, "lon": -77.06451933333334, "name": "aadccdf031f2fd3f0b215603b98f0fed"}, {"bike_id": "f6cfbf97dc6649bd86594efd9e02d942", "type": "electric_scooter", "is_disabled": 0, "lat": 38.90300466666667, "rental_uris": {"ios": "https://dc.lft.to/lastmile_qr_scan", "android": "https://dc.lft.to/lastmile_qr_scan"}, "is_reserved": 0, "fusion_lon": 0.0, "fusion_lat": 0.0, "lon": -77.0653645, "name": "f6cfbf97dc6649bd86594efd9e02d942"}, {"bike_id": "fc7786f835447a9cce07f7aec9d81d65", "type": "electric_bike", "is_disabled": 0, "lat": 38.9317925, "rental_uris": {"ios": "https://dc.lft.to/lastmile_qr_scan", "android": "https://dc.lft.to/lastmile_qr_scan"}, "is_reserved": 0, "fusion_lon": 0.0, "fusion_lat": 0.0, "lon": -77.0355085, "name": "fc7786f835447a9cce07f7aec9d81d65"}, {"bike_id": "dfe1f77d66c4d5a9c86ea1f20025c5b0", "type": "electric_scooter", "is_disabled": 0, "lat": 38.89915633333333, "rental_uris": {"ios": "https://dc.lft.to/lastmile_qr_scan", "android": "https://dc.lft.to/lastmile_qr_scan"}, "is_reserved": 0, "fusion_lon": 0.0, "fusion_lat": 0.0, "lon": -77.03926716666666, "name": "dfe1f77d66c4d5a9c86ea1f20025c5b0"}, {"bike_id": "16cc090bd0e78a197ffc956bc1998cc4", "type": "electric_scooter", "is_disabled": 0, "lat": 38.8620765, "rental_uris": {"ios": "https://dc.lft.to/lastmile_qr_scan", "android": "https://dc.lft.to/lastmile_qr_scan"}, "is_reserved": 0, "fusion_lon": 0.0, "fusion_lat": 0.0, "lon": -76.99469233333333, "name": "16cc090bd0e78a197ffc956bc1998cc4"}, {"bike_id": "c5feb7092bcc39bb60c0cd24d7b968ed", "type": "electric_scooter", "is_disabled": 0, "lat": 38.93375733333333, "rental_uris": {"ios": "https://dc.lft.to/lastmile_qr_scan", "android": "https://dc.lft.to/lastmile_qr_scan"}, "is_reserved": 0, "fusion_lon": 0.0, "fusion_lat": 0.0, "lon": -77.05732266666666, "name": "c5feb7092bcc39bb60c0cd24d7b968ed"}, {"bike_id": "c49323e21f9d308fd4eb290b9bf3704c", "type": "electric_scooter", "is_disabled": 0, "lat": 38.92272916666667, "rental_uris": {"ios": "https://dc.lft.to/lastmile_qr_scan", "android": "https://dc.lft.to/lastmile_qr_scan"}, "is_reserved": 0, "fusion_lon": 0.0, "fusion_lat": 0.0, "lon": -77.0188685, "name": "c49323e21f9d308fd4eb290b9bf3704c"}, {"bike_id": "3fe5ae4e6620af358bc0aaf2458ec0e1", "type": "electric_scooter", "is_disabled": 0, "lat": 38.92161616666667, "rental_uris": {"ios": "https://dc.lft.to/lastmile_qr_scan", "android": "https://dc.lft.to/lastmile_qr_scan"}, "is_reserved": 0, "fusion_lon": 0.0, "fusion_lat": 0.0, "lon": -77.03847516666667, "name": "3fe5ae4e6620af358bc0aaf2458ec0e1"}, {"bike_id": "ae453d81fbe4f15e290edc6d17767182", "type": "electric_scooter", "is_disabled": 0, "lat": 38.90525866666667, "rental_uris": {"ios": "https://dc.lft.to/lastmile_qr_scan", "android": "https://dc.lft.to/lastmile_qr_scan"}, "is_reserved": 0, "fusion_lon": 0.0, "fusion_lat": 0.0, "lon": -76.98622966666667, "name": "ae453d81fbe4f15e290edc6d17767182"}, {"bike_id": "208760552ae0c9f7a6d76f33cb3f8624", "type": "electric_scooter", "is_disabled": 0, "lat": 38.86694683333333, "rental_uris": {"ios": "https://dc.lft.to/lastmile_qr_scan", "android": "https://dc.lft.to/lastmile_qr_scan"}, "is_reserved": 0, "fusion_lon": 0.0, "fusion_lat": 0.0, "lon": -76.98711183333333, "name": "208760552ae0c9f7a6d76f33cb3f8624"}, {"bike_id": "1e99de998673c5564c3bd0c87f96aa78", "type": "electric_scooter", "is_disabled": 0, "lat": 38.862117166666664, "rental_uris": {"ios": "https://dc.lft.to/lastmile_qr_scan", "android": "https://dc.lft.to/lastmile_qr_scan"}, "is_reserved": 0, "fusion_lon": 0.0, "fusion_lat": 0.0, "lon": -76.99474183333334, "name": "1e99de998673c5564c3bd0c87f96aa78"}, {"bike_id": "62504b51b51054dd81570378b60f8780", "type": "electric_bike", "is_disabled": 0, "lat": 38.906204, "rental_uris": {"ios": "https://dc.lft.to/lastmile_qr_scan", "android": "https://dc.lft.to/lastmile_qr_scan"}, "is_reserved": 0, "fusion_lon": 0.0, "fusion_lat": 0.0, "lon": -76.98605366666666, "name": "62504b51b51054dd81570378b60f8780"}, {"bike_id": "7259010f707ed381d452440b5fc6b4a5", "type": "electric_scooter", "is_disabled": 0, "lat": 38.857520666666666, "rental_uris": {"ios": "https://dc.lft.to/lastmile_qr_scan", "android": "https://dc.lft.to/lastmile_qr_scan"}, "is_reserved": 0, "fusion_lon": 0.0, "fusion_lat": 0.0, "lon": -76.99299883333333, "name": "7259010f707ed381d452440b5fc6b4a5"}, {"bike_id": "20b59dce609bccdfce0f6fd11bcdd037", "type": "electric_scooter", "is_disabled": 0, "lat": 38.947132333333336, "rental_uris": {"ios": "https://dc.lft.to/lastmile_qr_scan", "android": "https://dc.lft.to/lastmile_qr_scan"}, "is_reserved": 0, "fusion_lon": 0.0, "fusion_lat": 0.0, "lon": -77.02777383333333, "name": "20b59dce609bccdfce0f6fd11bcdd037"}, {"bike_id": "ae6625d36e2398b7958b30b0edd2cf8d", "type": "electric_bike", "is_disabled": 0, "lat": 38.86332183333333, "rental_uris": {"ios": "https://dc.lft.to/lastmile_qr_scan", "android": "https://dc.lft.to/lastmile_qr_scan"}, "is_reserved": 0, "fusion_lon": 0.0, "fusion_lat": 0.0, "lon": -76.98718816666667, "name": "ae6625d36e2398b7958b30b0edd2cf8d"}, {"bike_id": "f826ded86cf97daca71c06e3228e5a07", "type": "electric_scooter", "is_disabled": 0, "lat": 38.899235, "rental_uris": {"ios": "https://dc.lft.to/lastmile_qr_scan", "android": "https://dc.lft.to/lastmile_qr_scan"}, "is_reserved": 0, "fusion_lon": 0.0, "fusion_lat": 0.0, "lon": -77.0036275, "name": "f826ded86cf97daca71c06e3228e5a07"}, {"bike_id": "437b59018e2af7f6af28894bc946bd93", "type": "electric_scooter", "is_disabled": 0, "lat": 38.93820483333333, "rental_uris": {"ios": "https://dc.lft.to/lastmile_qr_scan", "android": "https://dc.lft.to/lastmile_qr_scan"}, "is_reserved": 0, "fusion_lon": 0.0, "fusion_lat": 0.0, "lon": -77.02712466666667, "name": "437b59018e2af7f6af28894bc946bd93"}, {"bike_id": "642c7dd5b41e8d9e09301fae8e6db962", "type": "electric_scooter", "is_disabled": 0, "lat": 38.923590833333336, "rental_uris": {"ios": "https://dc.lft.to/lastmile_qr_scan", "android": "https://dc.lft.to/lastmile_qr_scan"}, "is_reserved": 0, "fusion_lon": 0.0, "fusion_lat": 0.0, "lon": -77.03526916666667, "name": "642c7dd5b41e8d9e09301fae8e6db962"}, {"bike_id": "b874bba6d6f371c491c7049629cca5ea", "type": "electric_bike", "is_disabled": 0, "lat": 38.953491666666665, "rental_uris": {"ios": "https://dc.lft.to/lastmile_qr_scan", "android": "https://dc.lft.to/lastmile_qr_scan"}, "is_reserved": 0, "fusion_lon": 0.0, "fusion_lat": 0.0, "lon": -77.036476, "name": "b874bba6d6f371c491c7049629cca5ea"}, {"bike_id": "43633e9c41bb6c642280e528b8915566", "type": "electric_bike", "is_disabled": 0, "lat": 38.829472333333335, "rental_uris": {"ios": "https://dc.lft.to/lastmile_qr_scan", "android": "https://dc.lft.to/lastmile_qr_scan"}, "is_reserved": 0, "fusion_lon": 0.0, "fusion_lat": 0.0, "lon": -77.12355833333334, "name": "43633e9c41bb6c642280e528b8915566"}, {"bike_id": "367607266f2650b692f4f997a15722f2", "type": "electric_scooter", "is_disabled": 0, "lat": 38.91351016666667, "rental_uris": {"ios": "https://dc.lft.to/lastmile_qr_scan", "android": "https://dc.lft.to/lastmile_qr_scan"}, "is_reserved": 0, "fusion_lon": 0.0, "fusion_lat": 0.0, "lon": -77.03196116666666, "name": "367607266f2650b692f4f997a15722f2"}, {"bike_id": "d41cb64a9eb40c4eac21b1a178404474", "type": "electric_scooter", "is_disabled": 0, "lat": 38.894828333333336, "rental_uris": {"ios": "https://dc.lft.to/lastmile_qr_scan", "android": "https://dc.lft.to/lastmile_qr_scan"}, "is_reserved": 0, "fusion_lon": 0.0, "fusion_lat": 0.0, "lon": -76.9952035, "name": "d41cb64a9eb40c4eac21b1a178404474"}, {"bike_id": "6cc85f0399ba070cb5ca087bfeb8a9a6", "type": "electric_scooter", "is_disabled": 0, "lat": 38.916998166666666, "rental_uris": {"ios": "https://dc.lft.to/lastmile_qr_scan", "android": "https://dc.lft.to/lastmile_qr_scan"}, "is_reserved": 0, "fusion_lon": 0.0, "fusion_lat": 0.0, "lon": -77.02598883333333, "name": "6cc85f0399ba070cb5ca087bfeb8a9a6"}, {"bike_id": "1658c7065f04ecf8a32abeb57a2db4d1", "type": "electric_scooter", "is_disabled": 0, "lat": 38.931330833333334, "rental_uris": {"ios": "https://dc.lft.to/lastmile_qr_scan", "android": "https://dc.lft.to/lastmile_qr_scan"}, "is_reserved": 0, "fusion_lon": 0.0, "fusion_lat": 0.0, "lon": -77.05726516666667, "name": "1658c7065f04ecf8a32abeb57a2db4d1"}, {"bike_id": "8276df4a30bd4e9e692c73c4a0b354db", "type": "electric_scooter", "is_disabled": 0, "lat": 38.91542666666667, "rental_uris": {"ios": "https://dc.lft.to/lastmile_qr_scan", "android": "https://dc.lft.to/lastmile_qr_scan"}, "is_reserved": 0, "fusion_lon": 0.0, "fusion_lat": 0.0, "lon": -77.0384805, "name": "8276df4a30bd4e9e692c73c4a0b354db"}, {"bike_id": "e1212567a0d1f9e142a688d0608100ea", "type": "electric_scooter", "is_disabled": 0, "lat": 38.8917955, "rental_uris": {"ios": "https://dc.lft.to/lastmile_qr_scan", "android": "https://dc.lft.to/lastmile_qr_scan"}, "is_reserved": 0, "fusion_lon": 0.0, "fusion_lat": 0.0, "lon": -77.01513483333333, "name": "e1212567a0d1f9e142a688d0608100ea"}, {"bike_id": "2d19f6b461959c3a85bc8db7ddad2a9a", "type": "electric_scooter", "is_disabled": 0, "lat": 38.92039183333333, "rental_uris": {"ios": "https://dc.lft.to/lastmile_qr_scan", "android": "https://dc.lft.to/lastmile_qr_scan"}, "is_reserved": 0, "fusion_lon": 0.0, "fusion_lat": 0.0, "lon": -77.02424383333333, "name": "2d19f6b461959c3a85bc8db7ddad2a9a"}, {"bike_id": "35bcf4ca57ce0fb2e191952ab81eacba", "type": "electric_scooter", "is_disabled": 0, "lat": 38.90005033333333, "rental_uris": {"ios": "https://dc.lft.to/lastmile_qr_scan", "android": "https://dc.lft.to/lastmile_qr_scan"}, "is_reserved": 0, "fusion_lon": 0.0, "fusion_lat": 0.0, "lon": -76.98532283333333, "name": "35bcf4ca57ce0fb2e191952ab81eacba"}, {"bike_id": "bfa3eb7ea9308fb8892eb3f3eda2429a", "type": "electric_scooter", "is_disabled": 0, "lat": 38.91548216666666, "rental_uris": {"ios": "https://dc.lft.to/lastmile_qr_scan", "android": "https://dc.lft.to/lastmile_qr_scan"}, "is_reserved": 0, "fusion_lon": 0.0, "fusion_lat": 0.0, "lon": -77.02202983333333, "name": "bfa3eb7ea9308fb8892eb3f3eda2429a"}, {"bike_id": "0b15d66b354354b75d974e5f638b86b4", "type": "electric_scooter", "is_disabled": 0, "lat": 38.907847, "rental_uris": {"ios": "https://dc.lft.to/lastmile_qr_scan", "android": "https://dc.lft.to/lastmile_qr_scan"}, "is_reserved": 0, "fusion_lon": 0.0, "fusion_lat": 0.0, "lon": -77.01081116666667, "name": "0b15d66b354354b75d974e5f638b86b4"}, {"bike_id": "f5645c2bc7762d9c2d02bc33fae6233c", "type": "electric_scooter", "is_disabled": 0, "lat": 38.90055783333333, "rental_uris": {"ios": "https://dc.lft.to/lastmile_qr_scan", "android": "https://dc.lft.to/lastmile_qr_scan"}, "is_reserved": 0, "fusion_lon": 0.0, "fusion_lat": 0.0, "lon": -77.0416645, "name": "f5645c2bc7762d9c2d02bc33fae6233c"}, {"bike_id": "41eba55aeb0340b4384f730639b2b466", "type": "electric_scooter", "is_disabled": 0, "lat": 38.96550766666667, "rental_uris": {"ios": "https://dc.lft.to/lastmile_qr_scan", "android": "https://dc.lft.to/lastmile_qr_scan"}, "is_reserved": 0, "fusion_lon": 0.0, "fusion_lat": 0.0, "lon": -77.0362625, "name": "41eba55aeb0340b4384f730639b2b466"}, {"bike_id": "135ec025c4e6b6c388d97f44c5994441", "type": "electric_scooter", "is_disabled": 0, "lat": 38.916712, "rental_uris": {"ios": "https://dc.lft.to/lastmile_qr_scan", "android": "https://dc.lft.to/lastmile_qr_scan"}, "is_reserved": 0, "fusion_lon": 0.0, "fusion_lat": 0.0, "lon": -77.02390166666666, "name": "135ec025c4e6b6c388d97f44c5994441"}, {"bike_id": "cbb77b8a0adbdfac9bc5d17a2bf76481", "type": "electric_scooter", "is_disabled": 0, "lat": 38.876641, "rental_uris": {"ios": "https://dc.lft.to/lastmile_qr_scan", "android": "https://dc.lft.to/lastmile_qr_scan"}, "is_reserved": 0, "fusion_lon": 0.0, "fusion_lat": 0.0, "lon": -77.0042605, "name": "cbb77b8a0adbdfac9bc5d17a2bf76481"}, {"bike_id": "f4cce9c46427b98bf6efbcb64839f3a8", "type": "electric_scooter", "is_disabled": 0, "lat": 38.9023975, "rental_uris": {"ios": "https://dc.lft.to/lastmile_qr_scan", "android": "https://dc.lft.to/lastmile_qr_scan"}, "is_reserved": 0, "fusion_lon": 0.0, "fusion_lat": 0.0, "lon": -77.0411215, "name": "f4cce9c46427b98bf6efbcb64839f3a8"}, {"bike_id": "da0ac090211307bc17e042b008ae90de", "type": "electric_scooter", "is_disabled": 0, "lat": 38.8966355, "rental_uris": {"ios": "https://dc.lft.to/lastmile_qr_scan", "android": "https://dc.lft.to/lastmile_qr_scan"}, "is_reserved": 0, "fusion_lon": 0.0, "fusion_lat": 0.0, "lon": -77.07109766666666, "name": "da0ac090211307bc17e042b008ae90de"}, {"bike_id": "7b33e320811bb536d721b3f791cfbcd2", "type": "electric_scooter", "is_disabled": 0, "lat": 38.918071833333336, "rental_uris": {"ios": "https://dc.lft.to/lastmile_qr_scan", "android": "https://dc.lft.to/lastmile_qr_scan"}, "is_reserved": 0, "fusion_lon": 0.0, "fusion_lat": 0.0, "lon": -77.03438333333334, "name": "7b33e320811bb536d721b3f791cfbcd2"}, {"bike_id": "9a278335af7a20dd0cfbf337f6020bc3", "type": "electric_scooter", "is_disabled": 0, "lat": 38.919337166666665, "rental_uris": {"ios": "https://dc.lft.to/lastmile_qr_scan", "android": "https://dc.lft.to/lastmile_qr_scan"}, "is_reserved": 0, "fusion_lon": 0.0, "fusion_lat": 0.0, "lon": -77.070868, "name": "9a278335af7a20dd0cfbf337f6020bc3"}, {"bike_id": "cb40686c18c571b1c08493fdb3bbbdb0", "type": "electric_scooter", "is_disabled": 0, "lat": 38.8662485, "rental_uris": {"ios": "https://dc.lft.to/lastmile_qr_scan", "android": "https://dc.lft.to/lastmile_qr_scan"}, "is_reserved": 0, "fusion_lon": 0.0, "fusion_lat": 0.0, "lon": -76.987143, "name": "cb40686c18c571b1c08493fdb3bbbdb0"}, {"bike_id": "a36880d9f92805cf358830390905164f", "type": "electric_scooter", "is_disabled": 0, "lat": 38.922875, "rental_uris": {"ios": "https://dc.lft.to/lastmile_qr_scan", "android": "https://dc.lft.to/lastmile_qr_scan"}, "is_reserved": 0, "fusion_lon": 0.0, "fusion_lat": 0.0, "lon": -77.04462833333334, "name": "a36880d9f92805cf358830390905164f"}, {"bike_id": "a79f5829e694ada6be8d4394b1bbfa10", "type": "electric_bike", "is_disabled": 0, "lat": 38.93153916666667, "rental_uris": {"ios": "https://dc.lft.to/lastmile_qr_scan", "android": "https://dc.lft.to/lastmile_qr_scan"}, "is_reserved": 0, "fusion_lon": 0.0, "fusion_lat": 0.0, "lon": -77.07863516666667, "name": "a79f5829e694ada6be8d4394b1bbfa10"}, {"bike_id": "d1c8231e2a04f889e9c852f22be9ebc0", "type": "electric_scooter", "is_disabled": 0, "lat": 38.88783183333334, "rental_uris": {"ios": "https://dc.lft.to/lastmile_qr_scan", "android": "https://dc.lft.to/lastmile_qr_scan"}, "is_reserved": 0, "fusion_lon": 0.0, "fusion_lat": 0.0, "lon": -76.95528116666667, "name": "d1c8231e2a04f889e9c852f22be9ebc0"}, {"bike_id": "e8577da1b2bdb13fbd9f3c9064ab325a", "type": "electric_scooter", "is_disabled": 0, "lat": 38.920624, "rental_uris": {"ios": "https://dc.lft.to/lastmile_qr_scan", "android": "https://dc.lft.to/lastmile_qr_scan"}, "is_reserved": 0, "fusion_lon": 0.0, "fusion_lat": 0.0, "lon": -77.04251966666666, "name": "e8577da1b2bdb13fbd9f3c9064ab325a"}, {"bike_id": "4a0d5878d2b09ddd9841a16485d147e6", "type": "electric_scooter", "is_disabled": 0, "lat": 38.90850566666667, "rental_uris": {"ios": "https://dc.lft.to/lastmile_qr_scan", "android": "https://dc.lft.to/lastmile_qr_scan"}, "is_reserved": 0, "fusion_lon": 0.0, "fusion_lat": 0.0, "lon": -77.02231133333333, "name": "4a0d5878d2b09ddd9841a16485d147e6"}, {"bike_id": "ffa334a14643a13fbf703994201cbc5e", "type": "electric_scooter", "is_disabled": 0, "lat": 38.92235216666667, "rental_uris": {"ios": "https://dc.lft.to/lastmile_qr_scan", "android": "https://dc.lft.to/lastmile_qr_scan"}, "is_reserved": 0, "fusion_lon": 0.0, "fusion_lat": 0.0, "lon": -77.031383, "name": "ffa334a14643a13fbf703994201cbc5e"}, {"bike_id": "3ad65197718f2e9dc221c1fe743c4966", "type": "electric_scooter", "is_disabled": 0, "lat": 38.902576333333336, "rental_uris": {"ios": "https://dc.lft.to/lastmile_qr_scan", "android": "https://dc.lft.to/lastmile_qr_scan"}, "is_reserved": 0, "fusion_lon": 0.0, "fusion_lat": 0.0, "lon": -77.033737, "name": "3ad65197718f2e9dc221c1fe743c4966"}, {"bike_id": "03a1278ad78899ab62b9aa3e8ffd39ed", "type": "electric_scooter", "is_disabled": 0, "lat": 38.90794183333333, "rental_uris": {"ios": "https://dc.lft.to/lastmile_qr_scan", "android": "https://dc.lft.to/lastmile_qr_scan"}, "is_reserved": 0, "fusion_lon": 0.0, "fusion_lat": 0.0, "lon": -77.04825366666667, "name": "03a1278ad78899ab62b9aa3e8ffd39ed"}, {"bike_id": "b3965befd2d2c6d4ca2964614f13feaa", "type": "electric_scooter", "is_disabled": 0, "lat": 38.906830666666664, "rental_uris": {"ios": "https://dc.lft.to/lastmile_qr_scan", "android": "https://dc.lft.to/lastmile_qr_scan"}, "is_reserved": 0, "fusion_lon": 0.0, "fusion_lat": 0.0, "lon": -77.02691016666667, "name": "b3965befd2d2c6d4ca2964614f13feaa"}, {"bike_id": "176bbd22aaeaf65ccfe73b9b64329b53", "type": "electric_bike", "is_disabled": 0, "lat": 39.057860833333336, "rental_uris": {"ios": "https://dc.lft.to/lastmile_qr_scan", "android": "https://dc.lft.to/lastmile_qr_scan"}, "is_reserved": 0, "fusion_lon": 0.0, "fusion_lat": 0.0, "lon": -77.15021933333334, "name": "176bbd22aaeaf65ccfe73b9b64329b53"}, {"bike_id": "aadba8abc372875e98cf81446cf64d69", "type": "electric_scooter", "is_disabled": 0, "lat": 38.90061816666667, "rental_uris": {"ios": "https://dc.lft.to/lastmile_qr_scan", "android": "https://dc.lft.to/lastmile_qr_scan"}, "is_reserved": 0, "fusion_lon": 0.0, "fusion_lat": 0.0, "lon": -76.93475766666667, "name": "aadba8abc372875e98cf81446cf64d69"}, {"bike_id": "4936d76cc34f0b5a7c9940006e9833a8", "type": "electric_scooter", "is_disabled": 0, "lat": 38.9041515, "rental_uris": {"ios": "https://dc.lft.to/lastmile_qr_scan", "android": "https://dc.lft.to/lastmile_qr_scan"}, "is_reserved": 0, "fusion_lon": 0.0, "fusion_lat": 0.0, "lon": -77.0485895, "name": "4936d76cc34f0b5a7c9940006e9833a8"}, {"bike_id": "2ca37e9b48f851928f4364923b96945f", "type": "electric_scooter", "is_disabled": 0, "lat": 38.911074666666664, "rental_uris": {"ios": "https://dc.lft.to/lastmile_qr_scan", "android": "https://dc.lft.to/lastmile_qr_scan"}, "is_reserved": 0, "fusion_lon": 0.0, "fusion_lat": 0.0, "lon": -77.02417133333333, "name": "2ca37e9b48f851928f4364923b96945f"}, {"bike_id": "07662629b55437c3f4a6ae672a52355e", "type": "electric_scooter", "is_disabled": 0, "lat": 38.9057355, "rental_uris": {"ios": "https://dc.lft.to/lastmile_qr_scan", "android": "https://dc.lft.to/lastmile_qr_scan"}, "is_reserved": 0, "fusion_lon": 0.0, "fusion_lat": 0.0, "lon": -77.00583466666667, "name": "07662629b55437c3f4a6ae672a52355e"}, {"bike_id": "49afedc0d695be3bfc91a59d94719a09", "type": "electric_scooter", "is_disabled": 0, "lat": 38.91812783333334, "rental_uris": {"ios": "https://dc.lft.to/lastmile_qr_scan", "android": "https://dc.lft.to/lastmile_qr_scan"}, "is_reserved": 0, "fusion_lon": 0.0, "fusion_lat": 0.0, "lon": -77.02479066666666, "name": "49afedc0d695be3bfc91a59d94719a09"}, {"bike_id": "693c39d0da34092c231a609320d0724c", "type": "electric_scooter", "is_disabled": 0, "lat": 38.91645616666667, "rental_uris": {"ios": "https://dc.lft.to/lastmile_qr_scan", "android": "https://dc.lft.to/lastmile_qr_scan"}, "is_reserved": 0, "fusion_lon": 0.0, "fusion_lat": 0.0, "lon": -77.02417966666667, "name": "693c39d0da34092c231a609320d0724c"}, {"bike_id": "30cf477f68c983628a77a1bc86946ccb", "type": "electric_scooter", "is_disabled": 0, "lat": 38.907815666666664, "rental_uris": {"ios": "https://dc.lft.to/lastmile_qr_scan", "android": "https://dc.lft.to/lastmile_qr_scan"}, "is_reserved": 0, "fusion_lon": 0.0, "fusion_lat": 0.0, "lon": -77.01860233333333, "name": "30cf477f68c983628a77a1bc86946ccb"}, {"bike_id": "9ac5a98b81089856ef2f3c770265a57e", "type": "electric_scooter", "is_disabled": 0, "lat": 38.856997, "rental_uris": {"ios": "https://dc.lft.to/lastmile_qr_scan", "android": "https://dc.lft.to/lastmile_qr_scan"}, "is_reserved": 0, "fusion_lon": 0.0, "fusion_lat": 0.0, "lon": -76.98970116666666, "name": "9ac5a98b81089856ef2f3c770265a57e"}, {"bike_id": "3fe7f7abba629b557f6df46beb74e553", "type": "electric_scooter", "is_disabled": 0, "lat": 38.906046333333336, "rental_uris": {"ios": "https://dc.lft.to/lastmile_qr_scan", "android": "https://dc.lft.to/lastmile_qr_scan"}, "is_reserved": 0, "fusion_lon": 0.0, "fusion_lat": 0.0, "lon": -77.0269055, "name": "3fe7f7abba629b557f6df46beb74e553"}, {"bike_id": "161853a601b91c27313114588062c8b0", "type": "electric_bike", "is_disabled": 0, "lat": 38.819882, "rental_uris": {"ios": "https://dc.lft.to/lastmile_qr_scan", "android": "https://dc.lft.to/lastmile_qr_scan"}, "is_reserved": 0, "fusion_lon": 0.0, "fusion_lat": 0.0, "lon": -76.99808066666667, "name": "161853a601b91c27313114588062c8b0"}, {"bike_id": "2a8a53068e94aa4e33b1621790a2b608", "type": "electric_scooter", "is_disabled": 0, "lat": 38.90528583333333, "rental_uris": {"ios": "https://dc.lft.to/lastmile_qr_scan", "android": "https://dc.lft.to/lastmile_qr_scan"}, "is_reserved": 0, "fusion_lon": 0.0, "fusion_lat": 0.0, "lon": -77.05006166666666, "name": "2a8a53068e94aa4e33b1621790a2b608"}, {"bike_id": "8276b0c7eada69190ef9991fe1eea473", "type": "electric_scooter", "is_disabled": 0, "lat": 38.85204983333333, "rental_uris": {"ios": "https://dc.lft.to/lastmile_qr_scan", "android": "https://dc.lft.to/lastmile_qr_scan"}, "is_reserved": 0, "fusion_lon": 0.0, "fusion_lat": 0.0, "lon": -76.98557466666666, "name": "8276b0c7eada69190ef9991fe1eea473"},