{"data": {"bikes": [{"type": "electric_scooter", "name": "aba02c26b47ea0a17f085bf778044227", "lat": 38.904016666666664, "fusion_lat": 0.0, "bike_id": "aba02c26b47ea0a17f085bf778044227", "is_reserved": 0, "lon": -77.03447933333334, "is_disabled": 0, "fusion_lon": 0.0, "rental_uris": {"android": "https://dc.lft.to/lastmile_qr_scan", "ios": "https://dc.lft.to/lastmile_qr_scan"}}, {"type": "electric_scooter", "name": "abb49d480a4e548dde89b3767bc5fe30", "lat": 38.896317, "fusion_lat": 0.0, "bike_id": "abb49d480a4e548dde89b3767bc5fe30", "is_reserved": 0, "lon": -77.0401745, "is_disabled": 0, "fusion_lon": 0.0, "rental_uris": {"android": "https://dc.lft.to/lastmile_qr_scan", "ios": "https://dc.lft.to/lastmile_qr_scan"}}, {"type": "electric_scooter", "name": "3a61c19302e20882445e6ce09e1b0a58", "lat": 38.9109845, "fusion_lat": 0.0, "bike_id": "3a61c19302e20882445e6ce09e1b0a58", "is_reserved": 0, "lon": -77.02720516666666, "is_disabled": 0, "fusion_lon": 0.0, "rental_uris": {"android": "https://dc.lft.to/lastmile_qr_scan", "ios": "https://dc.lft.to/lastmile_qr_scan"}}, {"type": "electric_scooter", "name": "5163670e0da8d8aaa1651a4268e5ae95", "lat": 38.8758205, "fusion_lat": 0.0, "bike_id": "5163670e0da8d8aaa1651a4268e5ae95", "is_reserved": 0, "lon": -77.004158, "is_disabled": 0, "fusion_lon": 0.0, "rental_uris": {"android": "https://dc.lft.to/lastmile_qr_scan", "ios": "https://dc.lft.to/lastmile_qr_scan"}}, {"type": "electric_scooter", "name": "fdd48b8e4f7583d3614d2cce5a2195f8", "lat": 38.9225165, "fusion_lat": 0.0, "bike_id": "fdd48b8e4f7583d3614d2cce5a2195f8", "is_reserved": 0, "lon": -77.019516, "is_disabled": 0, "fusion_lon": 0.0, "rental_uris": {"android": "https://dc.lft.to/lastmile_qr_scan", "ios": "https://dc.lft.to/lastmile_qr_scan"}}, {"type": "electric_scooter", "name": "71ffb5df8fd78c2bcceb5d117cda3348", "lat": 38.903401333333335, "fusion_lat": 0.0, "bike_id": "71ffb5df8fd78c2bcceb5d117cda3348", "is_reserved": 0, "lon": -77.02114883333333, "is_disabled": 0, "fusion_lon": 0.0, "rental_uris": {"android": "https://dc.lft.to/lastmile_qr_scan", "ios": "https://dc.lft.to/lastmile_qr_scan"}}, {"type": "electric_scooter", "name": "f83573fe8d48d8d8810df36df28b17ae", "lat": 38.90273333333333, "fusion_lat": 0.0, "bike_id": "f83573fe8d48d8d8810df36df28b17ae", "is_reserved": 0, "lon": -77.0384735, "is_disabled": 0, "fusion_lon": 0.0, "rental_uris": {"android": "https://dc.lft.to/lastmile_qr_scan", "ios": "https://dc.lft.to/lastmile_qr_scan"}}, {"type": "electric_scooter", "name": "2ab25d87dcbb83489ceb8afecb2dccce", "lat": 38.92076616666667, "fusion_lat": 0.0, "bike_id": "2ab25d87dcbb83489ceb8afecb2dccce", "is_reserved": 0, "lon": -77.01825466666666, "is_disabled": 0, "fusion_lon": 0.0, "rental_uris": {"android": "https://dc.lft.to/lastmile_qr_scan", "ios": "https://dc.lft.to/lastmile_qr_scan"}}, {"type": "electric_scooter", "name": "3f56ad461e34bf0b283186cbc04f3303", "lat": 38.856049166666665, "fusion_lat": 0.0, "bike_id": "3f56ad461e34bf0b283186cbc04f3303", "is_reserved": 0, "lon": -76.97856233333333, "is_disabled": 0, "fusion_lon": 0.0, "rental_uris": {"android": "https://dc.lft.to/lastmile_qr_scan", "ios": "https://dc.lft.to/lastmile_qr_scan"}}, {"type": "electric_scooter", "name": "b5842156fedc6bb7b5e761fb688a8a98", "lat": 38.923089166666664, "fusion_lat": 0.0, "bike_id": "b5842156fedc6bb7b5e761fb688a8a98", "is_reserved": 0, "lon": -77.02896066666666, "is_disabled": 0, "fusion_lon": 0.0, "rental_uris": {"android": "https://dc.lft.to/lastmile_qr_scan", "ios": "https://dc.lft.to/lastmile_qr_scan"}}, {"type": "electric_scooter", "name": "7fa3e1689626f475cce1847485f22ebe", "lat": 38.92253066666667, "fusion_lat": 0.0, "bike_id": "7fa3e1689626f475cce1847485f22ebe", "is_reserved": 0, "lon": -77.04257466666667, "is_disabled": 0, "fusion_lon": 0.0, "rental_uris": {"android": "https://dc.lft.to/lastmile_qr_scan", "ios": "https://dc.lft.to/lastmile_qr_scan"}}, {"type": "electric_scooter", "name": "dbc1f918cd779b55be3335e4ce5ab1bc", "lat": 38.92340266666667, "fusion_lat": 0.0, "bike_id": "dbc1f918cd779b55be3335e4ce5ab1bc", "is_reserved": 0, "lon": -77.03888816666667, "is_disabled": 0, "fusion_lon": 0.0, "rental_uris": {"android": "https://dc.lft.to/lastmile_qr_scan", "ios": "https://dc.lft.to/lastmile_qr_scan"}}, {"type": "electric_scooter", "name": "aae5bc56c95527c9d74e62e10f741330", "lat": 38.90672933333333, "fusion_lat": 0.0, "bike_id": "aae5bc56c95527c9d74e62e10f741330", "is_reserved": 0, "lon": -77.03645616666667, "is_disabled": 0, "fusion_lon": 0.0, "rental_uris": {"android": "https://dc.lft.to/lastmile_qr_scan", "ios": "https://dc.lft.to/lastmile_qr_scan"}}, {"type": "electric_scooter", "name": "fa834989ae3c0d0b94c8b21e13b5b6f5", "lat": 38.864337666666664, "fusion_lat": 0.0, "bike_id": "fa834989ae3c0d0b94c8b21e13b5b6f5", "is_reserved": 0, "lon": -76.98006216666667, "is_disabled": 0, "fusion_lon": 0.0, "rental_uris": {"android": "https://dc.lft.to/lastmile_qr_scan", "ios": "https://dc.lft.to/lastmile_qr_scan"}}, {"type": "electric_scooter", "name": "38bb5fba7463c00ade623892d7255a99", "lat": 38.92846983333333, "fusion_lat": 0.0, "bike_id": "38bb5fba7463c00ade623892d7255a99", "is_reserved": 0, "lon": -76.9960295, "is_disabled": 0, "fusion_lon": 0.0, "rental_uris": {"android": "https://dc.lft.to/lastmile_qr_scan", "ios": "https://dc.lft.to/lastmile_qr_scan"}}, {"type": "electric_scooter", "name": "67ef421b35b7d991a26bc55db44cc7ba", "lat": 38.95719833333333, "fusion_lat": 0.0, "bike_id": "67ef421b35b7d991a26bc55db44cc7ba", "is_reserved": 0, "lon": -77.03255016666667, "is_disabled": 0, "fusion_lon": 0.0, "rental_uris": {"android": "https://dc.lft.to/lastmile_qr_scan", "ios": "https://dc.lft.to/lastmile_qr_scan"}}, {"type": "electric_scooter", "name": "995f305175a5e3c631be978a51e7c3c0", "lat": 38.91085233333333, "fusion_lat": 0.0, "bike_id": "995f305175a5e3c631be978a51e7c3c0", "is_reserved": 0, "lon": -77.01622166666667, "is_disabled": 0, "fusion_lon": 0.0, "rental_uris": {"android": "https://dc.lft.to/lastmile_qr_scan", "ios": "https://dc.lft.to/lastmile_qr_scan"}}, {"type": "electric_scooter", "name": "faf32e3dc8127b49f18d125d7cdde99f", "lat": 38.9217805, "fusion_lat": 0.0, "bike_id": "faf32e3dc8127b49f18d125d7cdde99f", "is_reserved": 0, "lon": -77.04693866666666, "is_disabled": 0, "fusion_lon": 0.0, "rental_uris": {"android": "https://dc.lft.to/lastmile_qr_scan", "ios": "https://dc.lft.to/lastmile_qr_scan"}}, {"type": "electric_scooter", "name": "f5cee8bad0b407f6f1aadcbce52d1346", "lat": 38.93214733333333, "fusion_lat": 0.0, "bike_id": "f5cee8bad0b407f6f1aadcbce52d1346", "is_reserved": 0, "lon": -77.0336565, "is_disabled": 0, "fusion_lon": 0.0, "rental_uris": {"android": "https://dc.lft.to/lastmile_qr_scan", "ios": "https://dc.lft.to/lastmile_qr_scan"}}, {"type": "electric_scooter", "name": "a32955b832f44feb6b4903054f57d61b", "lat": 38.89222133333333, "fusion_lat": 0.0, "bike_id": "a32955b832f44feb6b4903054f57d61b", "is_reserved": 0, "lon": -77.04867216666666, "is_disabled": 0, "fusion_lon": 0.0, "rental_uris": {"android": "https://dc.lft.to/lastmile_qr_scan", "ios": "https://dc.lft.to/lastmile_qr_scan"}}, {"type": "electric_scooter", "name": "46c3cbc852ba4402f6f7508295227ff5", "lat": 38.90499533333333, "fusion_lat": 0.0, "bike_id": "46c3cbc852ba4402f6f7508295227ff5", "is_reserved": 0, "lon": -77.068813, "is_disabled": 0, "fusion_lon": 0.0, "rental_uris": {"android": "https://dc.lft.to/lastmile_qr_scan", "ios": "https://dc.lft.to/lastmile_qr_scan"}}, {"type": "electric_scooter", "name": "779a2b7bb44c47553b81cb423b9ad9b7", "lat": 38.921080333333336, "fusion_lat": 0.0, "bike_id": "779a2b7bb44c47553b81cb423b9ad9b7", "is_reserved": 0, "lon": -77.06330866666667, "is_disabled": 0, "fusion_lon": 0.0, "rental_uris": {"android": "https://dc.lft.to/lastmile_qr_scan", "ios": "https://dc.lft.to/lastmile_qr_scan"}}, {"type": "electric_scooter", "name": "765870878c86fa88ae188327bc8ac172", "lat": 38.90722916666667, "fusion_lat": 0.0, "bike_id": "765870878c86fa88ae188327bc8ac172", "is_reserved": 0, "lon": -77.0440785, "is_disabled": 0, "fusion_lon": 0.0, "rental_uris": {"android": "https://dc.lft.to/lastmile_qr_scan", "ios": "https://dc.lft.to/lastmile_qr_scan"}}, {"type": "electric_scooter", "name": "fe385d91a0a946b4c9c321240c56ba60", "lat": 38.887408, "fusion_lat": 0.0, "bike_id": "fe385d91a0a946b4c9c321240c56ba60", "is_reserved": 0, "lon": -77.02225233333333, "is_disabled": 0, "fusion_lon": 0.0, "rental_uris": {"android": "https://dc.lft.to/lastmile_qr_scan", "ios": "https://dc.lft.to/lastmile_qr_scan"}}, {"type": "electric_scooter", "name": "27e4787e28227c8a2f8c944995d66841", "lat": 38.895077666666666, "fusion_lat": 0.0, "bike_id": "27e4787e28227c8a2f8c944995d66841", "is_reserved": 0, "lon": -77.00338316666667, "is_disabled": 0, "fusion_lon": 0.0, "rental_uris": {"android": "https://dc.lft.to/lastmile_qr_scan", "ios": "https://dc.lft.to/lastmile_qr_scan"}}, {"type": "electric_scooter", "name": "70cfcc28f182bc21cec3dcdf31a4ff05", "lat": 38.90838516666667, "fusion_lat": 0.0, "bike_id": "70cfcc28f182bc21cec3dcdf31a4ff05", "is_reserved": 0, "lon": -77.039482, "is_disabled": 0, "fusion_lon": 0.0, "rental_uris": {"android": "https://dc.lft.to/lastmile_qr_scan", "ios": "https://dc.lft.to/lastmile_qr_scan"}}, {"type": "electric_scooter", "name": "fc7780fbc2cecfcaded9904eea6f6c40", "lat": 38.927116, "fusion_lat": 0.0, "bike_id": "fc7780fbc2cecfcaded9904eea6f6c40", "is_reserved": 0, "lon": -77.0160005, "is_disabled": 0, "fusion_lon": 0.0, "rental_uris": {"android": "https://dc.lft.to/lastmile_qr_scan", "ios": "https://dc.lft.to/lastmile_qr_scan"}}, {"type": "electric_scooter", "name": "b20ef7f3a60b672e31e688c755b57896", "lat": 38.894177666666664, "fusion_lat": 0.0, "bike_id": "b20ef7f3a60b672e31e688c755b57896", "is_reserved": 0, "lon": -77.02982216666666, "is_disabled": 0, "fusion_lon": 0.0, "rental_uris": {"android": "https://dc.lft.to/lastmile_qr_scan", "ios": "https://dc.lft.to/lastmile_qr_scan"}}, {"type": "electric_scooter", "name": "a08b6c636d1e15abc12582e2b1ba5add", "lat": 38.9053045, "fusion_lat": 0.0, "bike_id": "a08b6c636d1e15abc12582e2b1ba5add", "is_reserved": 0, "lon": -77.06102283333334, "is_disabled": 0, "fusion_lon": 0.0, "rental_uris": {"android": "https://dc.lft.to/lastmile_qr_scan", "ios": "https://dc.lft.to/lastmile_qr_scan"}}, {"type": "electric_scooter", "name": "abde832eca116743e4da2506d0c65393", "lat": 38.916736666666665, "fusion_lat": 0.0, "bike_id": "abde832eca116743e4da2506d0c65393", "is_reserved": 0, "lon": -77.02957616666667, "is_disabled": 0, "fusion_lon": 0.0, "rental_uris": {"android": "https://dc.lft.to/lastmile_qr_scan", "ios": "https://dc.lft.to/lastmile_qr_scan"}}, {"type": "electric_scooter", "name": "ee3fdcf51da6c941853c39ed8532f1cd", "lat": 38.93130083333333, "fusion_lat": 0.0, "bike_id": "ee3fdcf51da6c941853c39ed8532f1cd", "is_reserved": 0, "lon": -77.0385575, "is_disabled": 0, "fusion_lon": 0.0, "rental_uris": {"android": "https://dc.lft.to/lastmile_qr_scan", "ios": "https://dc.lft.to/lastmile_qr_scan"}}, {"type": "electric_bike", "name": "252d20e8615ac031b38ca70a31482b23", "lat": 38.93191183333333, "fusion_lat": 0.0, "bike_id": "252d20e8615ac031b38ca70a31482b23", "is_reserved": 0, "lon": -77.22930116666667, "is_disabled": 0, "fusion_lon": 0.0, "rental_uris": {"android": "https://dc.lft.to/lastmile_qr_scan", "ios": "https://dc.lft.to/lastmile_qr_scan"}}, {"type": "electric_bike", "name": "10baf81fc22cc8a372c9a3eb9ecf5f08", "lat": 38.81144283333333, "fusion_lat": 0.0, "bike_id": "10baf81fc22cc8a372c9a3eb9ecf5f08", "is_reserved": 0, "lon": -77.05033216666666, "is_disabled": 0, "fusion_lon": 0.0, "rental_uris": {"android": "https://dc.lft.to/lastmile_qr_scan", "ios": "https://dc.lft.to/lastmile_qr_scan"}}, {"type": "electric_scooter", "name": "c90d1dd4a654da1ef4f12dedb487bcf5", "lat": 38.90011283333333, "fusion_lat": 0.0, "bike_id": "c90d1dd4a654da1ef4f12dedb487bcf5", "is_reserved": 0, "lon": -76.99170983333333, "is_disabled": 0, "fusion_lon": 0.0, "rental_uris": {"android": "https://dc.lft.to/lastmile_qr_scan", "ios": "https://dc.lft.to/lastmile_qr_scan"}}, {"type": "electric_scooter", "name": "55e9ffc864a644abf7299f67c5de8b1e", "lat": 38.8836805, "fusion_lat": 0.0, "bike_id": "55e9ffc864a644abf7299f67c5de8b1e", "is_reserved": 0, "lon": -77.02001816666667, "is_disabled": 0, "fusion_lon": 0.0, "rental_uris": {"android": "https://dc.lft.to/lastmile_qr_scan", "ios": "https://dc.lft.to/lastmile_qr_scan"}}, {"type": "electric_scooter", "name": "31b87c7e07adfa025a9c55ea957a18d3", "lat": 38.8830135, "fusion_lat": 0.0, "bike_id": "31b87c7e07adfa025a9c55ea957a18d3", "is_reserved": 0, "lon": -77.02476183333333, "is_disabled": 0, "fusion_lon": 0.0, "rental_uris": {"android": "https://dc.lft.to/lastmile_qr_scan", "ios": "https://dc.lft.to/lastmile_qr_scan"}}, {"type": "electric_scooter", "name": "2e6945ed3c5dac67f13cdcab77524566", "lat": 38.90555233333333, "fusion_lat": 0.0, "bike_id": "2e6945ed3c5dac67f13cdcab77524566", "is_reserved": 0, "lon": -77.043481, "is_disabled": 0, "fusion_lon": 0.0, "rental_uris": {"android": "https://dc.lft.to/lastmile_qr_scan", "ios": "https://dc.lft.to/lastmile_qr_scan"}}, {"type": "electric_scooter", "name": "8576933fb1c729a6266a21a1551661c9", "lat": 38.903919333333334, "fusion_lat": 0.0, "bike_id": "8576933fb1c729a6266a21a1551661c9", "is_reserved": 0, "lon": -77.04054066666667, "is_disabled": 0, "fusion_lon": 0.0, "rental_uris": {"android": "https://dc.lft.to/lastmile_qr_scan", "ios": "https://dc.lft.to/lastmile_qr_scan"}}, {"type": "electric_scooter", "name": "0e1db866d5e03be9a4c6f0cec8e28135", "lat": 38.923632, "fusion_lat": 0.0, "bike_id": "0e1db866d5e03be9a4c6f0cec8e28135", "is_reserved": 0, "lon": -77.019058, "is_disabled": 0, "fusion_lon": 0.0, "rental_uris": {"android": "https://dc.lft.to/lastmile_qr_scan", "ios": "https://dc.lft.to/lastmile_qr_scan"}}, {"type": "electric_scooter", "name": "d55ff59aa04dc97f98f00aadc4a00a41", "lat": 38.91802533333333, "fusion_lat": 0.0, "bike_id": "d55ff59aa04dc97f98f00aadc4a00a41", "is_reserved": 0, "lon": -77.0269955, "is_disabled": 0, "fusion_lon": 0.0, "rental_uris": {"android": "https://dc.lft.to/lastmile_qr_scan", "ios": "https://dc.lft.to/lastmile_qr_scan"}}, {"type": "electric_scooter", "name": "bc68dbc4b62a7b4ca46efbdfa742e00d", "lat": 38.89221516666667, "fusion_lat": 0.0, "bike_id": "bc68dbc4b62a7b4ca46efbdfa742e00d", "is_reserved": 0, "lon": -77.041952, "is_disabled": 0, "fusion_lon": 0.0, "rental_uris": {"android": "https://dc.lft.to/lastmile_qr_scan", "ios": "https://dc.lft.to/lastmile_qr_scan"}}, {"type": "electric_bike", "name": "14fa00e041a9f8aec85e1ca0e096e607", "lat": 38.951242, "fusion_lat": 0.0, "bike_id": "14fa00e041a9f8aec85e1ca0e096e607", "is_reserved": 0, "lon": -77.01256283333333, "is_disabled": 0, "fusion_lon": 0.0, "rental_uris": {"android": "https://dc.lft.to/lastmile_qr_scan", "ios": "https://dc.lft.to/lastmile_qr_scan"}}, {"type": "electric_scooter", "name": "047d03a78be9da470aef6452c0450e4e", "lat": 38.894036666666665, "fusion_lat": 0.0, "bike_id": "047d03a78be9da470aef6452c0450e4e", "is_reserved": 0, "lon": -76.99496216666667, "is_disabled": 0, "fusion_lon": 0.0, "rental_uris": {"android": "https://dc.lft.to/lastmile_qr_scan", "ios": "https://dc.lft.to/lastmile_qr_scan"}}, {"type": "electric_scooter", "name": "584f52075614abd8485f4b0bad9d83d2", "lat": 38.954897833333334, "fusion_lat": 0.0, "bike_id": "584f52075614abd8485f4b0bad9d83d2", "is_reserved": 0, "lon": -77.01718816666667, "is_disabled": 0, "fusion_lon": 0.0, "rental_uris": {"android": "https://dc.lft.to/lastmile_qr_scan", "ios": "https://dc.lft.to/lastmile_qr_scan"}}, {"type": "electric_scooter", "name": "8502448e306967e89d535d882f8afa86", "lat": 38.928329166666664, "fusion_lat": 0.0, "bike_id": "8502448e306967e89d535d882f8afa86", "is_reserved": 0, "lon": -77.01419666666666, "is_disabled": 0, "fusion_lon": 0.0, "rental_uris": {"android": "https://dc.lft.to/lastmile_qr_scan", "ios": "https://dc.lft.to/lastmile_qr_scan"}}, {"type": "electric_scooter", "name": "4cac365184de1ffbc8b4487abfcf7def", "lat": 38.8746285, "fusion_lat": 0.0, "bike_id": "4cac365184de1ffbc8b4487abfcf7def", "is_reserved": 0, "lon": -77.01894866666666, "is_disabled": 0, "fusion_lon": 0.0, "rental_uris": {"android": "https://dc.lft.to/lastmile_qr_scan", "ios": "https://dc.lft.to/lastmile_qr_scan"}}, {"type": "electric_scooter", "name": "859b8e6bff884e5f3e903ccc7209802e", "lat": 38.9276655, "fusion_lat": 0.0, "bike_id": "859b8e6bff884e5f3e903ccc7209802e", "is_reserved": 0, "lon": -77.02737133333333, "is_disabled": 0, "fusion_lon": 0.0, "rental_uris": {"android": "https://dc.lft.to/lastmile_qr_scan", "ios": "https://dc.lft.to/lastmile_qr_scan"}}, {"type": "electric_scooter", "name": "2a6f6edf458ed48936c162346c1f5cc3", "lat": 38.866913833333335, "fusion_lat": 0.0, "bike_id": "2a6f6edf458ed48936c162346c1f5cc3", "is_reserved": 0, "lon": -76.98546333333333, "is_disabled": 0, "fusion_lon": 0.0, "rental_uris": {"android": "https://dc.lft.to/lastmile_qr_scan", "ios": "https://dc.lft.to/lastmile_qr_scan"}}, {"type": "electric_scooter", "name": "191f909fd0a993f16697ee7fc396bbf4", "lat": 38.90371733333333, "fusion_lat": 0.0, "bike_id": "191f909fd0a993f16697ee7fc396bbf4", "is_reserved": 0, "lon": -77.044977, "is_disabled": 0, "fusion_lon": 0.0, "rental_uris": {"android": "https://dc.lft.to/lastmile_qr_scan", "ios": "https://dc.lft.to/lastmile_qr_scan"}}, {"type": "electric_scooter", "name": "102825c0ff17333c2ee81d0e8918f1ca", "lat": 38.89829833333334, "fusion_lat": 0.0, "bike_id": "102825c0ff17333c2ee81d0e8918f1ca", "is_reserved": 0, "lon": -76.946323, "is_disabled": 0, "fusion_lon": 0.0, "rental_uris": {"android": "https://dc.lft.to/lastmile_qr_scan", "ios": "https://dc.lft.to/lastmile_qr_scan"}}, {"type": "electric_scooter", "name": "72d51ee0442ddcfcac35f8b4eb5965f0", "lat": 38.9072635, "fusion_lat": 0.0, "bike_id": "72d51ee0442ddcfcac35f8b4eb5965f0", "is_reserved": 0, "lon": -77.0249285, "is_disabled": 0, "fusion_lon": 0.0, "rental_uris": {"android": "https://dc.lft.to/lastmile_qr_scan", "ios": "https://dc.lft.to/lastmile_qr_scan"}}, {"type": "electric_scooter", "name": "4487215258c7ee8a97d728309ba65169", "lat": 38.92416816666667, "fusion_lat": 0.0, "bike_id": "4487215258c7ee8a97d728309ba65169", "is_reserved": 0, "lon": -77.02008883333333, "is_disabled": 0, "fusion_lon": 0.0, "rental_uris": {"android": "https://dc.lft.to/lastmile_qr_scan", "ios": "https://dc.lft.to/lastmile_qr_scan"}}, {"type": "electric_scooter", "name": "0f5d2ddb3ca5bc0cea474c9c8be84295", "lat": 38.88121433333333, "fusion_lat": 0.0, "bike_id": "0f5d2ddb3ca5bc0cea474c9c8be84295", "is_reserved": 0, "lon": -77.01655866666667, "is_disabled": 0, "fusion_lon": 0.0, "rental_uris": {"android": "https://dc.lft.to/lastmile_qr_scan", "ios": "https://dc.lft.to/lastmile_qr_scan"}}, {"type": "electric_bike", "name": "a0581b0c3fa5efb8b32bd2f2c8491d6a", "lat": 38.90769216666666, "fusion_lat": 0.0, "bike_id": "a0581b0c3fa5efb8b32bd2f2c8491d6a", "is_reserved": 0, "lon": -77.03767416666666, "is_disabled": 0, "fusion_lon": 0.0, "rental_uris": {"android": "https://dc.lft.to/lastmile_qr_scan", "ios": "https://dc.lft.to/lastmile_qr_scan"}}, {"type": "electric_scooter", "name": "0373e39b91aa498938ba72fa6696c53b", "lat": 38.941633333333336, "fusion_lat": 0.0, "bike_id": "0373e39b91aa498938ba72fa6696c53b", "is_reserved": 0, "lon": -77.02556733333333, "is_disabled": 0, "fusion_lon": 0.0, "rental_uris": {"android": "https://dc.lft.to/lastmile_qr_scan", "ios": "https://dc.lft.to/lastmile_qr_scan"}}, {"type": "electric_scooter", "name": "3801d2bd8716d40e84544ad9ce612e2d", "lat": 38.9348335, "fusion_lat": 0.0, "bike_id": "3801d2bd8716d40e84544ad9ce612e2d", "is_reserved": 0, "lon": -77.08146583333334, "is_disabled": 0, "fusion_lon": 0.0, "rental_uris": {"android": "https://dc.lft.to/lastmile_qr_scan", "ios": "https://dc.lft.to/lastmile_qr_scan"}}, {"type": "electric_scooter", "name": "6049605b1ff89369dde0515a2f6f9ed0", "lat": 38.89941833333334, "fusion_lat": 0.0, "bike_id": "6049605b1ff89369dde0515a2f6f9ed0", "is_reserved": 0, "lon": -76.997324, "is_disabled": 0, "fusion_lon": 0.0, "rental_uris": {"android": "https://dc.lft.to/lastmile_qr_scan", "ios": "https://dc.lft.to/lastmile_qr_scan"}}, {"type": "electric_scooter", "name": "7365cc1efdd3a082b847f773344ba93c", "lat": 38.934248833333335, "fusion_lat": 0.0, "bike_id": "7365cc1efdd3a082b847f773344ba93c", "is_reserved": 0, "lon": -77.0400165, "is_disabled": 0, "fusion_lon": 0.0, "rental_uris": {"android": "https://dc.lft.to/lastmile_qr_scan", "ios": "https://dc.lft.to/lastmile_qr_scan"}}, {"type": "electric_scooter", "name": "b836643b4e18902e8285edf65a5e2113", "lat": 38.9354295, "fusion_lat": 0.0, "bike_id": "b836643b4e18902e8285edf65a5e2113", "is_reserved": 0, "lon": -77.03096783333334, "is_disabled": 0, "fusion_lon": 0.0, "rental_uris": {"android": "https://dc.lft.to/lastmile_qr_scan", "ios": "https://dc.lft.to/lastmile_qr_scan"}}, {"type": "electric_scooter", "name": "cec710377989fcf31e5844fa0c376a12", "lat": 38.907174833333336, "fusion_lat": 0.0, "bike_id": "cec710377989fcf31e5844fa0c376a12", "is_reserved": 0, "lon": -77.01910483333333, "is_disabled": 0, "fusion_lon": 0.0, "rental_uris": {"android": "https://dc.lft.to/lastmile_qr_scan", "ios": "https://dc.lft.to/lastmile_qr_scan"}}, {"type": "electric_scooter", "name": "24854803032a2476f02773b102d30a2b", "lat": 38.88742216666667, "fusion_lat": 0.0, "bike_id": "24854803032a2476f02773b102d30a2b", "is_reserved": 0, "lon": -77.022801, "is_disabled": 0, "fusion_lon": 0.0, "rental_uris": {"android": "https://dc.lft.to/lastmile_qr_scan", "ios": "https://dc.lft.to/lastmile_qr_scan"}}, {"type": "electric_scooter", "name": "fed8c55fa65278cf0aab365d16521d48", "lat": 38.90575616666667, "fusion_lat": 0.0, "bike_id": "fed8c55fa65278cf0aab365d16521d48", "is_reserved": 0, "lon": -77.04032733333334, "is_disabled": 0, "fusion_lon": 0.0, "rental_uris": {"android": "https://dc.lft.to/lastmile_qr_scan", "ios": "https://dc.lft.to/lastmile_qr_scan"}}, {"type": "electric_scooter", "name": "3e1325def4d22d57a68632c9c8a456b8", "lat": 38.91815533333333, "fusion_lat": 0.0, "bike_id": "3e1325def4d22d57a68632c9c8a456b8", "is_reserved": 0, "lon": -77.02477166666667, "is_disabled": 0, "fusion_lon": 0.0, "rental_uris": {"android": "https://dc.lft.to/lastmile_qr_scan", "ios": "https://dc.lft.to/lastmile_qr_scan"}}, {"type": "electric_bike", "name": "745b361258d81fa26f2a91706c5738e4", "lat": 38.852472666666664, "fusion_lat": 0.0, "bike_id": "745b361258d81fa26f2a91706c5738e4", "is_reserved": 0, "lon": -77.10786416666667, "is_disabled": 0, "fusion_lon": 0.0, "rental_uris": {"android": "https://dc.lft.to/lastmile_qr_scan", "ios": "https://dc.lft.to/lastmile_qr_scan"}}, {"type": "electric_scooter", "name": "98ed2eb71aa5efd1f3a1466b908f5bde", "lat": 38.9026725, "fusion_lat": 0.0, "bike_id": "98ed2eb71aa5efd1f3a1466b908f5bde", "is_reserved": 0, "lon": -77.0446915, "is_disabled": 0, "fusion_lon": 0.0, "rental_uris": {"android": "https://dc.lft.to/lastmile_qr_scan", "ios": "https://dc.lft.to/lastmile_qr_scan"}}, {"type": "electric_scooter", "name": "788ed0648baba3492d7a39b672b0e937", "lat": 38.88106966666667, "fusion_lat": 0.0, "bike_id": "788ed0648baba3492d7a39b672b0e937", "is_reserved": 0, "lon": -77.0263615, "is_disabled": 0, "fusion_lon": 0.0, "rental_uris": {"android": "https://dc.lft.to/lastmile_qr_scan", "ios": "https://dc.lft.to/lastmile_qr_scan"}}, {"type": "electric_bike", "name": "5757a43d642a41474fec3f5e0eedb1f9", "lat": 38.82176716666667, "fusion_lat": 0.0, "bike_id": "5757a43d642a41474fec3f5e0eedb1f9", "is_reserved": 0, "lon": -76.995113, "is_disabled": 0, "fusion_lon": 0.0, "rental_uris": {"android": "https://dc.lft.to/lastmile_qr_scan", "ios": "https://dc.lft.to/lastmile_qr_scan"}}, {"type": "electric_scooter", "name": "66f89fa73c860008f92c3c76d3c3b48f", "lat": 38.90718183333333, "fusion_lat": 0.0, "bike_id": "66f89fa73c860008f92c3c76d3c3b48f", "is_reserved": 0, "lon": -77.00932566666667, "is_disabled": 0, "fusion_lon": 0.0, "rental_uris": {"android": "https://dc.lft.to/lastmile_qr_scan", "ios": "https://dc.lft.to/lastmile_qr_scan"}}, {"type": "electric_scooter", "name": "d3b080f8501a6df679ca521605ffb309", "lat": 38.9180545, "fusion_lat": 0.0, "bike_id": "d3b080f8501a6df679ca521605ffb309", "is_reserved": 0, "lon": -77.03694633333333, "is_disabled": 0, "fusion_lon": 0.0, "rental_uris": {"android": "https://dc.lft.to/lastmile_qr_scan", "ios": "https://dc.lft.to/lastmile_qr_scan"}}, {"type": "electric_scooter", "name": "20fae329239a11731c9293452c1ff5d4", "lat": 38.88499766666666, "fusion_lat": 0.0, "bike_id": "20fae329239a11731c9293452c1ff5d4", "is_reserved": 0, "lon": -77.02165616666667, "is_disabled": 0, "fusion_lon": 0.0, "rental_uris": {"android": "https://dc.lft.to/lastmile_qr_scan", "ios": "https://dc.lft.to/lastmile_qr_scan"}}, {"type": "electric_bike", "name": "5b990b7ef1a7f0e6e899265a9960fb8d", "lat": 38.890635333333336, "fusion_lat": 0.0, "bike_id": "5b990b7ef1a7f0e6e899265a9960fb8d", "is_reserved": 0, "lon": -77.184354, "is_disabled": 0, "fusion_lon": 0.0, "rental_uris": {"android": "https://dc.lft.to/lastmile_qr_scan", "ios": "https://dc.lft.to/lastmile_qr_scan"}}, {"type": "electric_scooter", "name": "1a6eec8ba9cebeb3c2e7cd8850aba49c", "lat": 38.86627416666666, "fusion_lat": 0.0, "bike_id": "1a6eec8ba9cebeb3c2e7cd8850aba49c", "is_reserved": 0, "lon": -76.9870895, "is_disabled": 0, "fusion_lon": 0.0, "rental_uris": {"android": "https://dc.lft.to/lastmile_qr_scan", "ios": "https://dc.lft.to/lastmile_qr_scan"}}, {"type": "electric_bike", "name": "0a6c5fe00f961a4864a0c7164a1a6003", "lat": 38.819908833333336, "fusion_lat": 0.0, "bike_id": "0a6c5fe00f961a4864a0c7164a1a6003", "is_reserved": 0, "lon": -76.9981345, "is_disabled": 0, "fusion_lon": 0.0, "rental_uris": {"android": "https://dc.lft.to/lastmile_qr_scan", "ios": "https://dc.lft.to/lastmile_qr_scan"}}, {"type": "electric_scooter", "name": "e6930bdb1f9fb7b3b2194a9819624d1b", "lat": 38.912574, "fusion_lat": 0.0, "bike_id": "e6930bdb1f9fb7b3b2194a9819624d1b", "is_reserved": 0, "lon": -77.04117683333334, "is_disabled": 0, "fusion_lon": 0.0, "rental_uris": {"android": "https://dc.lft.to/lastmile_qr_scan", "ios": "https://dc.lft.to/lastmile_qr_scan"}}, {"type": "electric_scooter", "name": "9a624aa3c389404719a240718fe643b0", "lat": 38.8788775, "fusion_lat": 0.0, "bike_id": "9a624aa3c389404719a240718fe643b0", "is_reserved": 0, "lon": -77.02327716666667, "is_disabled": 0, "fusion_lon": 0.0, "rental_uris": {"android": "https://dc.lft.to/lastmile_qr_scan", "ios": "https://dc.lft.to/lastmile_qr_scan"}}, {"type": "electric_scooter", "name": "7c220de4f251f5830d9274a187b5e1b7", "lat": 38.93072683333333, "fusion_lat": 0.0, "bike_id": "7c220de4f251f5830d9274a187b5e1b7", "is_reserved": 0, "lon": -77.03494883333333, "is_disabled": 0, "fusion_lon": 0.0, "rental_uris": {"android": "https://dc.lft.to/lastmile_qr_scan", "ios": "https://dc.lft.to/lastmile_qr_scan"}}, {"type": "electric_scooter", "name": "22861057ce04e60bee5e18eb24715232", "lat": 38.924664166666666, "fusion_lat": 0.0, "bike_id": "22861057ce04e60bee5e18eb24715232", "is_reserved": 0, "lon": -77.02149816666666, "is_disabled": 0, "fusion_lon": 0.0, "rental_uris": {"android": "https://dc.lft.to/lastmile_qr_scan", "ios": "https://dc.lft.to/lastmile_qr_scan"}}, {"type": "electric_scooter", "name": "1b34ad93a60113351c1cbfd61b12aa3b", "lat": 38.91786616666667, "fusion_lat": 0.0, "bike_id": "1b34ad93a60113351c1cbfd61b12aa3b", "is_reserved": 0, "lon": -77.02310983333334, "is_disabled": 0, "fusion_lon": 0.0, "rental_uris": {"android": "https://dc.lft.to/lastmile_qr_scan", "ios": "https://dc.lft.to/lastmile_qr_scan"}}, {"type": "electric_scooter", "name": "d25849eaa562dbeea48202c988c236c9", "lat": 38.90301216666667, "fusion_lat": 0.0, "bike_id": "d25849eaa562dbeea48202c988c236c9", "is_reserved": 0, "lon": -77.060268, "is_disabled": 0, "fusion_lon": 0.0, "rental_uris": {"android": "https://dc.lft.to/lastmile_qr_scan", "ios": "https://dc.lft.to/lastmile_qr_scan"}}, {"type": "electric_scooter", "name": "76fdd422a6fcc041b68c50f6d2e87196", "lat": 38.9025815, "fusion_lat": 0.0, "bike_id": "76fdd422a6fcc041b68c50f6d2e87196", "is_reserved": 0, "lon": -77.008212, "is_disabled": 0, "fusion_lon": 0.0, "rental_uris": {"android": "https://dc.lft.to/lastmile_qr_scan", "ios": "https://dc.lft.to/lastmile_qr_scan"}}, {"type": "electric_bike", "name": "c6ee216cee78cf8ffdf16b6a002ab214", "lat": 38.8332585, "fusion_lat": 0.0, "bike_id": "c6ee216cee78cf8ffdf16b6a002ab214", "is_reserved": 0, "lon": -76.99998533333333, "is_disabled": 0, "fusion_lon": 0.0, "rental_uris": {"android": "https://dc.lft.to/lastmile_qr_scan", "ios": "https://dc.lft.to/lastmile_qr_scan"}}, {"type": "electric_scooter", "name": "4c691269a25c2bb673c40acf1c3095ba", "lat": 38.934279333333336, "fusion_lat": 0.0, "bike_id": "4c691269a25c2bb673c40acf1c3095ba", "is_reserved": 0, "lon": -77.0399805, "is_disabled": 0, "fusion_lon": 0.0, "rental_uris": {"android": "https://dc.lft.to/lastmile_qr_scan", "ios": "https://dc.lft.to/lastmile_qr_scan"}}, {"type": "electric_scooter", "name": "80cbd77dcb823db7b66cbd7db17ec768", "lat": 38.89464016666667, "fusion_lat": 0.0, "bike_id": "80cbd77dcb823db7b66cbd7db17ec768", "is_reserved": 0, "lon": -76.94963233333333, "is_disabled": 0, "fusion_lon": 0.0, "rental_uris": {"android": "https://dc.lft.to/lastmile_qr_scan", "ios": "https://dc.lft.to/lastmile_qr_scan"}}, {"type": "electric_scooter", "name": "f4e8e384eebbc11faf00eb8e30e23ce4", "lat": 38.9068255, "fusion_lat": 0.0, "bike_id": "f4e8e384eebbc11faf00eb8e30e23ce4", "is_reserved": 0, "lon": -77.02693066666667, "is_disabled": 0, "fusion_lon": 0.0, "rental_uris": {"android": "https://dc.lft.to/lastmile_qr_scan", "ios": "https://dc.lft.to/lastmile_qr_scan"}}, {"type": "electric_scooter", "name": "a388a14075f97e0540cda1f5aeeb0326", "lat": 38.941902666666664, "fusion_lat": 0.0, "bike_id": "a388a14075f97e0540cda1f5aeeb0326", "is_reserved": 0, "lon": -77.03839066666667, "is_disabled": 0, "fusion_lon": 0.0, "rental_uris": {"android": "https://dc.lft.to/lastmile_qr_scan", "ios": "https://dc.lft.to/lastmile_qr_scan"}}, {"type": "electric_scooter", "name": "fc22f2969cef3910e072a41b43d947d2", "lat": 38.9024905, "fusion_lat": 0.0, "bike_id": "fc22f2969cef3910e072a41b43d947d2", "is_reserved": 0, "lon": -77.027445, "is_disabled": 0, "fusion_lon": 0.0, "rental_uris": {"android": "https://dc.lft.to/lastmile_qr_scan", "ios": "https://dc.lft.to/lastmile_qr_scan"}}, {"type": "electric_scooter", "name": "fe34eb8601f409cad4450b0cea7d56cb", "lat": 38.904939, "fusion_lat": 0.0, "bike_id": "fe34eb8601f409cad4450b0cea7d56cb", "is_reserved": 0, "lon": -77.04046066666666, "is_disabled": 0, "fusion_lon": 0.0, "rental_uris": {"android": "https://dc.lft.to/lastmile_qr_scan", "ios": "https://dc.lft.to/lastmile_qr_scan"}}, {"type": "electric_scooter", "name": "1a9915a680a66adb48ea72c8d7953796", "lat": 38.919654333333334, "fusion_lat": 0.0, "bike_id": "1a9915a680a66adb48ea72c8d7953796", "is_reserved": 0, "lon": -77.0184155, "is_disabled": 0, "fusion_lon": 0.0, "rental_uris": {"android": "https://dc.lft.to/lastmile_qr_scan", "ios": "https://dc.lft.to/lastmile_qr_scan"}}, {"type": "electric_scooter", "name": "42cb00ff6d6dacd7ce8a1ef9324d1fcb", "lat": 38.92684583333333, "fusion_lat": 0.0, "bike_id": "42cb00ff6d6dacd7ce8a1ef9324d1fcb", "is_reserved": 0, "lon": -77.01546816666666, "is_disabled": 0, "fusion_lon": 0.0, "rental_uris": {"android": "https://dc.lft.to/lastmile_qr_scan", "ios": "https://dc.lft.to/lastmile_qr_scan"}}, {"type": "electric_scooter", "name": "17d77276dee710a7c14d220c8b78ebad", "lat": 38.901275, "fusion_lat": 0.0, "bike_id": "17d77276dee710a7c14d220c8b78ebad", "is_reserved": 0, "lon": -77.01798483333333, "is_disabled": 0, "fusion_lon": 0.0, "rental_uris": {"android": "https://dc.lft.to/lastmile_qr_scan", "ios": "https://dc.lft.to/lastmile_qr_scan"}}, {"type": "electric_scooter", "name": "27893ce34dfeec5cb739767bf73612af", "lat": 38.911545, "fusion_lat": 0.0, "bike_id": "27893ce34dfeec5cb739767bf73612af", "is_reserved": 0, "lon": -77.0238225, "is_disabled": 0, "fusion_lon": 0.0, "rental_uris": {"android": "https://dc.lft.to/lastmile_qr_scan", "ios": "https://dc.lft.to/lastmile_qr_scan"}}, {"type": "electric_scooter", "name": "e3175dc7aaff7666e1fdb761c12e0e67", "lat": 38.907619833333335, "fusion_lat": 0.0, "bike_id": "e3175dc7aaff7666e1fdb761c12e0e67", "is_reserved": 0, "lon": -77.03212833333333, "is_disabled": 0, "fusion_lon": 0.0, "rental_uris": {"android": "https://dc.lft.to/lastmile_qr_scan", "ios": "https://dc.lft.to/lastmile_qr_scan"}}, {"type": "electric_scooter", "name": "e768b5ce523aa5c23354f20f1c6db7bc", "lat": 38.90860466666667, "fusion_lat": 0.0, "bike_id": "e768b5ce523aa5c23354f20f1c6db7bc", "is_reserved": 0, "lon": -77.04737416666667, "is_disabled": 0, "fusion_lon": 0.0, "rental_uris": {"android": "https://dc.lft.to/lastmile_qr_scan", "ios": "https://dc.lft.to/lastmile_qr_scan"}}, {"type": "electric_scooter", "name": "545bce559b5b57e4fae1436cadef1908", "lat": 38.9056725, "fusion_lat": 0.0, "bike_id": "545bce559b5b57e4fae1436cadef1908", "is_reserved": 0, "lon": -77.0346595, "is_disabled": 0, "fusion_lon": 0.0, "rental_uris": {"android": "https://dc.lft.to/lastmile_qr_scan", "ios": "https://dc.lft.to/lastmile_qr_scan"}}, {"type": "electric_scooter", "name": "aa5f3e6e98d9fd69b600d60381aa389e", "lat": 38.897131, "fusion_lat": 0.0, "bike_id": "aa5f3e6e98d9fd69b600d60381aa389e", "is_reserved": 0, "lon": -77.00840866666667, "is_disabled": 0, "fusion_lon": 0.0, "rental_uris": {"android": "https://dc.lft.to/lastmile_qr_scan", "ios": "https://dc.lft.to/lastmile_qr_scan"}}, {"type": "electric_scooter", "name": "d2be9e7b233c34662cb0607cc6564af9", "lat": 38.902601833333335, "fusion_lat": 0.0, "bike_id": "d2be9e7b233c34662cb0607cc6564af9", "is_reserved": 0, "lon": -77.00881666666666, "is_disabled": 0, "fusion_lon": 0.0, "rental_uris": {"android": "https://dc.lft.to/lastmile_qr_scan", "ios": "https://dc.lft.to/lastmile_qr_scan"}}, {"type": "electric_scooter", "name": "0f27ade6c739eb592b91b0f563648630", "lat": 38.921795333333336, "fusion_lat": 0.0, "bike_id": "0f27ade6c739eb592b91b0f563648630", "is_reserved": 0, "lon": -77.04700966666667, "is_disabled": 0, "fusion_lon": 0.0, "rental_uris": {"android": "https://dc.lft.to/lastmile_qr_scan", "ios": "https://dc.lft.to/lastmile_qr_scan"}}, {"type": "electric_scooter", "name": "93a5c56cb4134f5d3031449a4c5ff58f", "lat": 38.9181355, "fusion_lat": 0.0, "bike_id": "93a5c56cb4134f5d3031449a4c5ff58f", "is_reserved": 0, "lon": -77.02475633333333, "is_disabled": 0, "fusion_lon": 0.0, "rental_uris": {"android": "https://dc.lft.to/lastmile_qr_scan", "ios": "https://dc.lft.to/lastmile_qr_scan"}}, {"type": "electric_scooter", "name": "7e18dce35d544f21e603b377ff6ec7cd", "lat": 38.89496666666667, "fusion_lat": 0.0, "bike_id": "7e18dce35d544f21e603b377ff6ec7cd", "is_reserved": 0, "lon": -77.02172916666666, "is_disabled": 0, "fusion_lon": 0.0, "rental_uris": {"android": "https://dc.lft.to/lastmile_qr_scan", "ios": "https://dc.lft.to/lastmile_qr_scan"}}, {"type": "electric_scooter", "name": "575bea2c781fa5cfdb5f6d7e5bf695c4", "lat": 38.91920916666667, "fusion_lat": 0.0, "bike_id": "575bea2c781fa5cfdb5f6d7e5bf695c4", "is_reserved": 0, "lon": -77.032188, "is_disabled": 0, "fusion_lon": 0.0, "rental_uris": {"android": "https://dc.lft.to/lastmile_qr_scan", "ios": "https://dc.lft.to/lastmile_qr_scan"}}, {"type": "electric_scooter", "name": "eabe89976a935812cc95667bb9eadb24", "lat": 38.920911333333336, "fusion_lat": 0.0, "bike_id": "eabe89976a935812cc95667bb9eadb24", "is_reserved": 0, "lon": -77.02328133333333, "is_disabled": 0, "fusion_lon": 0.0, "rental_uris": {"android": "https://dc.lft.to/lastmile_qr_scan", "ios": "https://dc.lft.to/lastmile_qr_scan"}}, {"type": "electric_scooter", "name": "5348eacd6a9f7139b3b9d1c61918506f", "lat": 38.89610066666667, "fusion_lat": 0.0, "bike_id": "5348eacd6a9f7139b3b9d1c61918506f", "is_reserved": 0, "lon": -77.04515816666667, "is_disabled": 0, "fusion_lon": 0.0, "rental_uris": {"android": "https://dc.lft.to/lastmile_qr_scan", "ios": "https://dc.lft.to/lastmile_qr_scan"}}, {"type": "electric_scooter", "name": "ab17f10f3286196a5d00d91fbb4ef4ae", "lat": 38.926774333333334, "fusion_lat": 0.0, "bike_id": "ab17f10f3286196a5d00d91fbb4ef4ae", "is_reserved": 0, "lon": -77.02263433333333, "is_disabled": 0, "fusion_lon": 0.0, "rental_uris": {"android": "https://dc.lft.to/lastmile_qr_scan", "ios": "https://dc.lft.to/lastmile_qr_scan"}}, {"type": "electric_scooter", "name": "e4fee45673914377babe7aea000a2c79", "lat": 38.93185183333333, "fusion_lat": 0.0, "bike_id": "e4fee45673914377babe7aea000a2c79", "is_reserved": 0, "lon": -77.03105183333334, "is_disabled": 0, "fusion_lon": 0.0, "rental_uris": {"android": "https://dc.lft.to/lastmile_qr_scan", "ios": "https://dc.lft.to/lastmile_qr_scan"}}, {"type": "electric_scooter", "name": "75f91cfe23561b410b9c10125aa71ad6", "lat": 38.897269666666666, "fusion_lat": 0.0, "bike_id": "75f91cfe23561b410b9c10125aa71ad6", "is_reserved": 0, "lon": -76.99471683333333, "is_disabled": 0, "fusion_lon": 0.0, "rental_uris": {"android": "https://dc.lft.to/lastmile_qr_scan", "ios": "https://dc.lft.to/lastmile_qr_scan"}}, {"type": "electric_scooter", "name": "42d3980635316070faf2b39bd6a78ee3", "lat": 38.898480166666666, "fusion_lat": 0.0, "bike_id": "42d3980635316070faf2b39bd6a78ee3", "is_reserved": 0, "lon": -77.032723, "is_disabled": 0, "fusion_lon": 0.0, "rental_uris": {"android": "https://dc.lft.to/lastmile_qr_scan", "ios": "https://dc.lft.to/lastmile_qr_scan"}}, {"type": "electric_bike", "name": "0f02341dc938b5e67a3ea9ffad0e780c", "lat": 38.953032666666665, "fusion_lat": 0.0, "bike_id": "0f02341dc938b5e67a3ea9ffad0e780c", "is_reserved": 0, "lon": -76.99782316666666, "is_disabled": 0, "fusion_lon": 0.0, "rental_uris": {"android": "https://dc.lft.to/lastmile_qr_scan", "ios": "https://dc.lft.to/lastmile_qr_scan"}}, {"type": "electric_scooter", "name": "b08a5b58cd868e72388b563a5e0e75d3", "lat": 38.914121, "fusion_lat": 0.0, "bike_id": "b08a5b58cd868e72388b563a5e0e75d3", "is_reserved": 0, "lon": -77.0223395, "is_disabled": 0, "fusion_lon": 0.0, "rental_uris": {"android": "https://dc.lft.to/lastmile_qr_scan", "ios": "https://dc.lft.to/lastmile_qr_scan"}}, {"type": "electric_scooter", "name": "8cea17be6b6af7ca96fdda52921864cb", "lat": 38.90290983333333, "fusion_lat": 0.0, "bike_id": "8cea17be6b6af7ca96fdda52921864cb", "is_reserved": 0, "lon": -77.04335016666667, "is_disabled": 0, "fusion_lon": 0.0, "rental_uris": {"android": "https://dc.lft.to/lastmile_qr_scan", "ios": "https://dc.lft.to/lastmile_qr_scan"}}, {"type": "electric_scooter", "name": "c4b7ff5cbada5bf1e6fc565a6024e5d2", "lat": 38.903612833333334, "fusion_lat": 0.0, "bike_id": "c4b7ff5cbada5bf1e6fc565a6024e5d2", "is_reserved": 0, "lon": -77.03486966666667, "is_disabled": 0, "fusion_lon": 0.0, "rental_uris": {"android": "https://dc.lft.to/lastmile_qr_scan", "ios": "https://dc.lft.to/lastmile_qr_scan"}}, {"type": "electric_scooter", "name": "42a54ac2123f5e5c96bb7f06dd37c41c", "lat": 38.9170955, "fusion_lat": 0.0, "bike_id": "42a54ac2123f5e5c96bb7f06dd37c41c", "is_reserved": 0, "lon": -77.02822966666666, "is_disabled": 0, "fusion_lon": 0.0, "rental_uris": {"android": "https://dc.lft.to/lastmile_qr_scan", "ios": "https://dc.lft.to/lastmile_qr_scan"}}, {"type": "electric_scooter", "name": "c39c3847e6d5b77cf0176ce494c310c3", "lat": 38.910497666666664, "fusion_lat": 0.0, "bike_id": "c39c3847e6d5b77cf0176ce494c310c3", "is_reserved": 0, "lon": -77.026832, "is_disabled": 0, "fusion_lon": 0.0, "rental_uris": {"android": "https://dc.lft.to/lastmile_qr_scan", "ios": "https://dc.lft.to/lastmile_qr_scan"}}, {"type": "electric_scooter", "name": "ee84bce743d1338e4956507b542d55a4", "lat": 38.91824483333333, "fusion_lat": 0.0, "bike_id": "ee84bce743d1338e4956507b542d55a4", "is_reserved": 0, "lon": -77.03163766666667, "is_disabled": 0, "fusion_lon": 0.0, "rental_uris": {"android": "https://dc.lft.to/lastmile_qr_scan", "ios": "https://dc.lft.to/lastmile_qr_scan"}}, {"type": "electric_scooter", "name": "2dbd400276b5bd6342c3c1f4203b13f7", "lat": 38.876665, "fusion_lat": 0.0, "bike_id": "2dbd400276b5bd6342c3c1f4203b13f7", "is_reserved": 0, "lon": -77.00735483333334, "is_disabled": 0, "fusion_lon": 0.0, "rental_uris": {"android": "https://dc.lft.to/lastmile_qr_scan", "ios": "https://dc.lft.to/lastmile_qr_scan"}}, {"type": "electric_scooter", "name": "0a93b79f4ff8473160ed09c9346f7a12", "lat": 38.901142666666665, "fusion_lat": 0.0, "bike_id": "0a93b79f4ff8473160ed09c9346f7a12", "is_reserved": 0, "lon": -77.04233066666667, "is_disabled": 0, "fusion_lon": 0.0, "rental_uris": {"android": "https://dc.lft.to/lastmile_qr_scan", "ios": "https://dc.lft.to/lastmile_qr_scan"}}, {"type": "electric_scooter", "name": "4d329146bd03be110514ecb2db7760e8", "lat": 38.91604533333334, "fusion_lat": 0.0, "bike_id": "4d329146bd03be110514ecb2db7760e8", "is_reserved": 0, "lon": -77.02181216666666, "is_disabled": 0, "fusion_lon": 0.0, "rental_uris": {"android": "https://dc.lft.to/lastmile_qr_scan", "ios": "https://dc.lft.to/lastmile_qr_scan"}}, {"type": "electric_bike", "name": "689bb49bf014bf7a6b68ec7366a5a924", "lat": 38.903578833333334, "fusion_lat": 0.0, "bike_id": "689bb49bf014bf7a6b68ec7366a5a924", "is_reserved": 0, "lon": -77.06323516666667, "is_disabled": 0, "fusion_lon": 0.0, "rental_uris": {"android": "https://dc.lft.to/lastmile_qr_scan", "ios": "https://dc.lft.to/lastmile_qr_scan"}}, {"type": "electric_scooter", "name": "f563abe543a65c87644d4c4f07193628", "lat": 38.906930833333334, "fusion_lat": 0.0, "bike_id": "f563abe543a65c87644d4c4f07193628", "is_reserved": 0, "lon": -76.9997765, "is_disabled": 0, "fusion_lon": 0.0, "rental_uris": {"android": "https://dc.lft.to/lastmile_qr_scan", "ios": "https://dc.lft.to/lastmile_qr_scan"}}, {"type": "electric_scooter", "name": "a8e01b657b750c25e1e347f7fa886b69", "lat": 38.8667975, "fusion_lat": 0.0, "bike_id": "a8e01b657b750c25e1e347f7fa886b69", "is_reserved": 0, "lon": -76.98564983333333, "is_disabled": 0, "fusion_lon": 0.0, "rental_uris": {"android": "https://dc.lft.to/lastmile_qr_scan", "ios": "https://dc.lft.to/lastmile_qr_scan"}}, {"type": "electric_scooter", "name": "ec14d8d6d1b6316158a2a37db8bbe960", "lat": 38.91703233333333, "fusion_lat": 0.0, "bike_id": "ec14d8d6d1b6316158a2a37db8bbe960", "is_reserved": 0, "lon": -77.03864466666667, "is_disabled": 0, "fusion_lon": 0.0, "rental_uris": {"android": "https://dc.lft.to/lastmile_qr_scan", "ios": "https://dc.lft.to/lastmile_qr_scan"}}, {"type": "electric_scooter", "name": "6372181b3ed422950bdcd48dddf91569", "lat": 38.91708416666667, "fusion_lat": 0.0, "bike_id": "6372181b3ed422950bdcd48dddf91569", "is_reserved": 0, "lon": -77.0386535, "is_disabled": 0, "fusion_lon": 0.0, "rental_uris": {"android": "https://dc.lft.to/lastmile_qr_scan", "ios": "https://dc.lft.to/lastmile_qr_scan"}}, {"type": "electric_scooter", "name": "0b212bcc2484766b0d30ea83d962542b", "lat": 38.91999466666667, "fusion_lat": 0.0, "bike_id": "0b212bcc2484766b0d30ea83d962542b", "is_reserved": 0, "lon": -77.03221683333334, "is_disabled": 0, "fusion_lon": 0.0, "rental_uris": {"android": "https://dc.lft.to/lastmile_qr_scan", "ios": "https://dc.lft.to/lastmile_qr_scan"}}, {"type": "electric_scooter", "name": "6f1aa1d148a96799a3e8603e99f90edf", "lat": 38.9278705, "fusion_lat": 0.0, "bike_id": "6f1aa1d148a96799a3e8603e99f90edf", "is_reserved": 0, "lon": -77.02313416666667, "is_disabled": 0, "fusion_lon": 0.0, "rental_uris": {"android": "https://dc.lft.to/lastmile_qr_scan", "ios": "https://dc.lft.to/lastmile_qr_scan"}}, {"type": "electric_scooter", "name": "2d10c484d98d7baca2f2351ad85e1e76", "lat": 38.91578766666667, "fusion_lat": 0.0, "bike_id": "2d10c484d98d7baca2f2351ad85e1e76", "is_reserved": 0, "lon": -77.03187016666666, "is_disabled": 0, "fusion_lon": 0.0, "rental_uris": {"android": "https://dc.lft.to/lastmile_qr_scan", "ios": "https://dc.lft.to/lastmile_qr_scan"}}, {"type": "electric_scooter", "name": "bfcb0d8a7fbc62b9e80a64d7a9d446c7", "lat": 38.85588683333334, "fusion_lat": 0.0, "bike_id": "bfcb0d8a7fbc62b9e80a64d7a9d446c7", "is_reserved": 0, "lon": -76.98725583333334, "is_disabled": 0, "fusion_lon": 0.0, "rental_uris": {"android": "https://dc.lft.to/lastmile_qr_scan", "ios": "https://dc.lft.to/lastmile_qr_scan"}}, {"type": "electric_scooter", "name": "74593dd56f7bc24de5ffcc90a7be06b4", "lat": 38.931077, "fusion_lat": 0.0, "bike_id": "74593dd56f7bc24de5ffcc90a7be06b4", "is_reserved": 0, "lon": -77.02121233333334, "is_disabled": 0, "fusion_lon": 0.0, "rental_uris": {"android": "https://dc.lft.to/lastmile_qr_scan", "ios": "https://dc.lft.to/lastmile_qr_scan"}}, {"type": "electric_scooter", "name": "c8471f451140cfd9c79fddd3bde25d7c", "lat": 38.920474, "fusion_lat": 0.0, "bike_id": "c8471f451140cfd9c79fddd3bde25d7c", "is_reserved": 0, "lon": -77.02572783333333, "is_disabled": 0, "fusion_lon": 0.0, "rental_uris": {"android": "https://dc.lft.to/lastmile_qr_scan", "ios": "https://dc.lft.to/lastmile_qr_scan"}}, {"type": "electric_scooter", "name": "e82f116268c42efe8b32373ba5d25ab3", "lat": 38.90415983333333, "fusion_lat": 0.0, "bike_id": "e82f116268c42efe8b32373ba5d25ab3", "is_reserved": 0, "lon": -77.04365183333333, "is_disabled": 0, "fusion_lon": 0.0, "rental_uris": {"android": "https://dc.lft.to/lastmile_qr_scan", "ios": "https://dc.lft.to/lastmile_qr_scan"}}, {"type": "electric_scooter", "name": "b8d1f0df5846ec33b20d5b99b2d71df5", "lat": 38.930807333333334, "fusion_lat": 0.0, "bike_id": "b8d1f0df5846ec33b20d5b99b2d71df5", "is_reserved": 0, "lon": -77.0279045, "is_disabled": 0, "fusion_lon": 0.0, "rental_uris": {"android": "https://dc.lft.to/lastmile_qr_scan", "ios": "https://dc.lft.to/lastmile_qr_scan"}}, {"type": "electric_scooter", "name": "93fe31ca4f12c0147c71e44fa68b7b96", "lat": 38.9028195, "fusion_lat": 0.0, "bike_id": "93fe31ca4f12c0147c71e44fa68b7b96", "is_reserved": 0, "lon": -77.023161, "is_disabled": 0, "fusion_lon": 0.0, "rental_uris": {"android": "https://dc.lft.to/lastmile_qr_scan", "ios": "https://dc.lft.to/lastmile_qr_scan"}}, {"type": "electric_scooter", "name": "2b7ecbf28d60b0ca2f85d24e8aee24dc", "lat": 38.887063, "fusion_lat": 0.0, "bike_id": "2b7ecbf28d60b0ca2f85d24e8aee24dc", "is_reserved": 0, "lon": -77.01372933333333, "is_disabled": 0, "fusion_lon": 0.0, "rental_uris": {"android": "https://dc.lft.to/lastmile_qr_scan", "ios": "https://dc.lft.to/lastmile_qr_scan"}}, {"type": "electric_scooter", "name": "a74d13ff50b4ddb2f93d472f5bc00361", "lat": 38.8993225, "fusion_lat": 0.0, "bike_id": "a74d13ff50b4ddb2f93d472f5bc00361", "is_reserved": 0, "lon": -77.04027, "is_disabled": 0, "fusion_lon": 0.0, "rental_uris": {"android": "https://dc.lft.to/lastmile_qr_scan", "ios": "https://dc.lft.to/lastmile_qr_scan"}}, {"type": "electric_scooter", "name": "6e93b7305972074f0a9b1760a9d7e19e", "lat": 38.91188783333333, "fusion_lat": 0.0, "bike_id": "6e93b7305972074f0a9b1760a9d7e19e", "is_reserved": 0, "lon": -77.0022465, "is_disabled": 0, "fusion_lon": 0.0, "rental_uris": {"android": "https://dc.lft.to/lastmile_qr_scan", "ios": "https://dc.lft.to/lastmile_qr_scan"}}, {"type": "electric_scooter", "name": "4e712456f7390f3b939b9caed815e7d5", "lat": 38.89355483333333, "fusion_lat": 0.0, "bike_id": "4e712456f7390f3b939b9caed815e7d5", "is_reserved": 0, "lon": -77.003362, "is_disabled": 0, "fusion_lon": 0.0, "rental_uris": {"android": "https://dc.lft.to/lastmile_qr_scan", "ios": "https://dc.lft.to/lastmile_qr_scan"}}, {"type": "electric_scooter", "name": "8eda1d6011f933c467b82ee3efedf8bb", "lat": 38.9285555, "fusion_lat": 0.0, "bike_id": "8eda1d6011f933c467b82ee3efedf8bb", "is_reserved": 0, "lon": -77.035005, "is_disabled": 0, "fusion_lon": 0.0, "rental_uris": {"android": "https://dc.lft.to/lastmile_qr_scan", "ios": "https://dc.lft.to/lastmile_qr_scan"}}, {"type": "electric_scooter", "name": "6e4b943907621d7734e1bfd9d17833b1", "lat": 38.904555, "fusion_lat": 0.0, "bike_id": "6e4b943907621d7734e1bfd9d17833b1", "is_reserved": 0, "lon": -76.9948675, "is_disabled": 0, "fusion_lon": 0.0, "rental_uris": {"android": "https://dc.lft.to/lastmile_qr_scan", "ios": "https://dc.lft.to/lastmile_qr_scan"}}, {"type": "electric_scooter", "name": "65654dcd9f49391aa9d5cac99b4d8a55", "lat": 38.89749966666667, "fusion_lat": 0.0, "bike_id": "65654dcd9f49391aa9d5cac99b4d8a55", "is_reserved": 0, "lon": -77.04482766666666, "is_disabled": 0, "fusion_lon": 0.0, "rental_uris": {"android": "https://dc.lft.to/lastmile_qr_scan", "ios": "https://dc.lft.to/lastmile_qr_scan"}}, {"type": "electric_scooter", "name": "d50d43110e3bd351829f8b3370191b3d", "lat": 38.903538833333336, "fusion_lat": 0.0, "bike_id": "d50d43110e3bd351829f8b3370191b3d", "is_reserved": 0, "lon": -77.02799433333334, "is_disabled": 0, "fusion_lon": 0.0, "rental_uris": {"android": "https://dc.lft.to/lastmile_qr_scan", "ios": "https://dc.lft.to/lastmile_qr_scan"}}, {"type": "electric_bike", "name": "6748a6d985f6f093cd1c51baf79a1619", "lat": 38.8839855, "fusion_lat": 0.0, "bike_id": "6748a6d985f6f093cd1c51baf79a1619", "is_reserved": 0, "lon": -76.96056633333333, "is_disabled": 0, "fusion_lon": 0.0, "rental_uris": {"android": "https://dc.lft.to/lastmile_qr_scan", "ios": "https://dc.lft.to/lastmile_qr_scan"}}, {"type": "electric_scooter", "name": "d17505727d5ad9c6e685e29a1602872f", "lat": 38.92208333333333, "fusion_lat": 0.0, "bike_id": "d17505727d5ad9c6e685e29a1602872f", "is_reserved": 0, "lon": -77.03652016666666, "is_disabled": 0, "fusion_lon": 0.0, "rental_uris": {"android": "https://dc.lft.to/lastmile_qr_scan", "ios": "https://dc.lft.to/lastmile_qr_scan"}}, {"type": "electric_scooter", "name": "d98b5814a17c932a676dd1274b847e5a", "lat": 38.895751833333335, "fusion_lat": 0.0, "bike_id": "d98b5814a17c932a676dd1274b847e5a", "is_reserved": 0, "lon": -77.02987766666666, "is_disabled": 0, "fusion_lon": 0.0, "rental_uris": {"android": "https://dc.lft.to/lastmile_qr_scan", "ios": "https://dc.lft.to/lastmile_qr_scan"}}, {"type": "electric_scooter", "name": "214d36c89623abe10330a0c061cee714", "lat": 38.895724666666666, "fusion_lat": 0.0, "bike_id": "214d36c89623abe10330a0c061cee714", "is_reserved": 0, "lon": -77.02162716666666, "is_disabled": 0, "fusion_lon": 0.0, "rental_uris": {"android": "https://dc.lft.to/lastmile_qr_scan", "ios": "https://dc.lft.to/lastmile_qr_scan"}}, {"type": "electric_scooter", "name": "fdb24acbe2dd603b34c0ef801c87ebaf", "lat": 38.902747, "fusion_lat": 0.0, "bike_id": "fdb24acbe2dd603b34c0ef801c87ebaf", "is_reserved": 0, "lon": -77.038309, "is_disabled": 0, "fusion_lon": 0.0, "rental_uris": {"android": "https://dc.lft.to/lastmile_qr_scan", "ios": "https://dc.lft.to/lastmile_qr_scan"}}, {"type": "electric_scooter", "name": "de7215c7a29c5e8bcadf8b4b58fe3b4e", "lat": 38.863886666666666, "fusion_lat": 0.0, "bike_id": "de7215c7a29c5e8bcadf8b4b58fe3b4e", "is_reserved": 0, "lon": -76.99040333333333, "is_disabled": 0, "fusion_lon": 0.0, "rental_uris": {"android": "https://dc.lft.to/lastmile_qr_scan", "ios": "https://dc.lft.to/lastmile_qr_scan"}}, {"type": "electric_scooter", "name": "95e8e14fcac597586adc4c4b1418f0b5", "lat": 38.9011015, "fusion_lat": 0.0, "bike_id": "95e8e14fcac597586adc4c4b1418f0b5", "is_reserved": 0, "lon": -77.04222966666667, "is_disabled": 0, "fusion_lon": 0.0, "rental_uris": {"android": "https://dc.lft.to/lastmile_qr_scan", "ios": "https://dc.lft.to/lastmile_qr_scan"}}, {"type": "electric_scooter", "name": "6851135ea8c14089475b628f1e1e93eb", "lat": 38.897285833333335, "fusion_lat": 0.0, "bike_id": "6851135ea8c14089475b628f1e1e93eb", "is_reserved": 0, "lon": -76.94699383333334, "is_disabled": 0, "fusion_lon": 0.0, "rental_uris": {"android": "https://dc.lft.to/lastmile_qr_scan", "ios": "https://dc.lft.to/lastmile_qr_scan"}}, {"type": "electric_scooter", "name": "5ef01e83010080bfd34c6f263a231797", "lat": 38.8602915, "fusion_lat": 0.0, "bike_id": "5ef01e83010080bfd34c6f263a231797", "is_reserved": 0, "lon": -76.98373416666666, "is_disabled": 0, "fusion_lon": 0.0, "rental_uris": {"android": "https://dc.lft.to/lastmile_qr_scan", "ios": "https://dc.lft.to/lastmile_qr_scan"}}, {"type": "electric_bike", "name": "e048d609b6c58a76ed33b924b494580a", "lat": 38.9029455, "fusion_lat": 0.0, "bike_id": "e048d609b6c58a76ed33b924b494580a", "is_reserved": 0, "lon": -77.02374883333333, "is_disabled": 0, "fusion_lon": 0.0, "rental_uris": {"android": "https://dc.lft.to/lastmile_qr_scan", "ios": "https://dc.lft.to/lastmile_qr_scan"}}, {"type": "electric_scooter", "name": "979b21da30d04b06aa2a5539935e3cb8", "lat": 38.902717833333334, "fusion_lat": 0.0, "bike_id": "979b21da30d04b06aa2a5539935e3cb8", "is_reserved": 0, "lon": -77.03953966666667, "is_disabled": 0, "fusion_lon": 0.0, "rental_uris": {"android": "https://dc.lft.to/lastmile_qr_scan", "ios": "https://dc.lft.to/lastmile_qr_scan"}}, {"type": "electric_scooter", "name": "afc01351af908f803657c8c10f32d111", "lat": 38.911067333333335, "fusion_lat": 0.0, "bike_id": "afc01351af908f803657c8c10f32d111", "is_reserved": 0, "lon": -77.03834366666666, "is_disabled": 0, "fusion_lon": 0.0, "rental_uris": {"android": "https://dc.lft.to/lastmile_qr_scan", "ios": "https://dc.lft.to/lastmile_qr_scan"}}, {"type": "electric_scooter", "name": "69a6147d096144a3d5a339e97156eb77", "lat": 38.8934325, "fusion_lat": 0.0, "bike_id": "69a6147d096144a3d5a339e97156eb77", "is_reserved": 0, "lon": -76.939729, "is_disabled": 0, "fusion_lon": 0.0, "rental_uris": {"android": "https://dc.lft.to/lastmile_qr_scan", "ios": "https://dc.lft.to/lastmile_qr_scan"}}, {"type": "electric_scooter", "name": "eb898d8834f004f6b4069e119511ebd1", "lat": 38.918768666666665, "fusion_lat": 0.0, "bike_id": "eb898d8834f004f6b4069e119511ebd1", "is_reserved": 0, "lon": -77.04197466666666, "is_disabled": 0, "fusion_lon": 0.0, "rental_uris": {"android": "https://dc.lft.to/lastmile_qr_scan", "ios": "https://dc.lft.to/lastmile_qr_scan"}}, {"type": "electric_scooter", "name": "434e0a94ed8d6f8845bced5aa0566898", "lat": 38.921204, "fusion_lat": 0.0, "bike_id": "434e0a94ed8d6f8845bced5aa0566898", "is_reserved": 0, "lon": -77.02071833333333, "is_disabled": 0, "fusion_lon": 0.0, "rental_uris": {"android": "https://dc.lft.to/lastmile_qr_scan", "ios": "https://dc.lft.to/lastmile_qr_scan"}}, {"type": "electric_scooter", "name": "850db2805ef2383f9175f3c32f6cc6cf", "lat": 38.907046666666666, "fusion_lat": 0.0, "bike_id": "850db2805ef2383f9175f3c32f6cc6cf", "is_reserved": 0, "lon": -77.03191116666666, "is_disabled": 0, "fusion_lon": 0.0, "rental_uris": {"android": "https://dc.lft.to/lastmile_qr_scan", "ios": "https://dc.lft.to/lastmile_qr_scan"}}, {"type": "electric_scooter", "name": "dac70433c2456c7f0954de54408d2741", "lat": 38.9111065, "fusion_lat": 0.0, "bike_id": "dac70433c2456c7f0954de54408d2741", "is_reserved": 0, "lon": -77.03831933333333, "is_disabled": 0, "fusion_lon": 0.0, "rental_uris": {"android": "https://dc.lft.to/lastmile_qr_scan", "ios": "https://dc.lft.to/lastmile_qr_scan"}}, {"type": "electric_scooter", "name": "65a935bbfda84e258e595e5fd404d158", "lat": 38.89839516666667, "fusion_lat": 0.0, "bike_id": "65a935bbfda84e258e595e5fd404d158", "is_reserved": 0, "lon": -77.01268433333334, "is_disabled": 0, "fusion_lon": 0.0, "rental_uris": {"android": "https://dc.lft.to/lastmile_qr_scan", "ios": "https://dc.lft.to/lastmile_qr_scan"}}, {"type": "electric_scooter", "name": "4ee55c1c0ae412f8a75109239a6dc74c", "lat": 38.932655833333335, "fusion_lat": 0.0, "bike_id": "4ee55c1c0ae412f8a75109239a6dc74c", "is_reserved": 0, "lon": -77.03876866666667, "is_disabled": 0, "fusion_lon": 0.0, "rental_uris": {"android": "https://dc.lft.to/lastmile_qr_scan", "ios": "https://dc.lft.to/lastmile_qr_scan"}}, {"type": "electric_bike", "name": "673cb59770977b9188fef4475ac8e8de", "lat": 39.010766833333335, "fusion_lat": 0.0, "bike_id": "673cb59770977b9188fef4475ac8e8de", "is_reserved": 0, "lon": -76.910648, "is_disabled": 0, "fusion_lon": 0.0, "rental_uris": {"android": "https://dc.lft.to/lastmile_qr_scan", "ios": "https://dc.lft.to/lastmile_qr_scan"}}, {"type": "electric_scooter", "name": "0aacba6ae99ae0b0a08acd9e414173b8", "lat": 38.9098895, "fusion_lat": 0.0, "bike_id": "0aacba6ae99ae0b0a08acd9e414173b8", "is_reserved": 0, "lon": -77.00497533333333, "is_disabled": 0, "fusion_lon": 0.0, "rental_uris": {"android": "https://dc.lft.to/lastmile_qr_scan", "ios": "https://dc.lft.to/lastmile_qr_scan"}}, {"type": "electric_scooter", "name": "e40783dca30654a13123eb847e834471", "lat": 38.9023985, "fusion_lat": 0.0, "bike_id": "e40783dca30654a13123eb847e834471", "is_reserved": 0, "lon": -77.03923366666666, "is_disabled": 0, "fusion_lon": 0.0, "rental_uris": {"android": "https://dc.lft.to/lastmile_qr_scan", "ios": "https://dc.lft.to/lastmile_qr_scan"}}, {"type": "electric_scooter", "name": "e514ad22f1230d5a4924defd694dca68", "lat": 38.897250166666666, "fusion_lat": 0.0, "bike_id": "e514ad22f1230d5a4924defd694dca68", "is_reserved": 0, "lon": -77.0250365, "is_disabled": 0, "fusion_lon": 0.0, "rental_uris": {"android": "https://dc.lft.to/lastmile_qr_scan", "ios": "https://dc.lft.to/lastmile_qr_scan"}}, {"type": "electric_scooter", "name": "5b41b582b979e3d0460a0f266245d2bf", "lat": 38.894742666666666, "fusion_lat": 0.0, "bike_id": "5b41b582b979e3d0460a0f266245d2bf", "is_reserved": 0, "lon": -77.02071, "is_disabled": 0, "fusion_lon": 0.0, "rental_uris": {"android": "https://dc.lft.to/lastmile_qr_scan", "ios": "https://dc.lft.to/lastmile_qr_scan"}}, {"type": "electric_scooter", "name": "947492678fa68eacacbcd16ee0b6ac80", "lat": 38.944414333333334, "fusion_lat": 0.0, "bike_id": "947492678fa68eacacbcd16ee0b6ac80", "is_reserved": 0, "lon": -77.06405683333334, "is_disabled": 0, "fusion_lon": 0.0, "rental_uris": {"android": "https://dc.lft.to/lastmile_qr_scan", "ios": "https://dc.lft.to/lastmile_qr_scan"}}, {"type": "electric_scooter", "name": "874399b7f8fbae80413372750e9bcca3", "lat": 38.902303833333335, "fusion_lat": 0.0, "bike_id": "874399b7f8fbae80413372750e9bcca3", "is_reserved": 0, "lon": -77.03932066666667, "is_disabled": 0, "fusion_lon": 0.0, "rental_uris": {"android": "https://dc.lft.to/lastmile_qr_scan", "ios": "https://dc.lft.to/lastmile_qr_scan"}}, {"type": "electric_scooter", "name": "d9fe85b60724f6745020b83c137719bf", "lat": 38.92042683333333, "fusion_lat": 0.0, "bike_id": "d9fe85b60724f6745020b83c137719bf", "is_reserved": 0, "lon": -77.01671266666666, "is_disabled": 0, "fusion_lon": 0.0, "rental_uris": {"android": "https://dc.lft.to/lastmile_qr_scan", "ios": "https://dc.lft.to/lastmile_qr_scan"}}, {"type": "electric_scooter", "name": "f1cedf5120ab309bda1ca2d06c810c19", "lat": 38.9056015, "fusion_lat": 0.0, "bike_id": "f1cedf5120ab309bda1ca2d06c810c19", "is_reserved": 0, "lon": -77.043382, "is_disabled": 0, "fusion_lon": 0.0, "rental_uris": {"android": "https://dc.lft.to/lastmile_qr_scan", "ios": "https://dc.lft.to/lastmile_qr_scan"}}, {"type": "electric_bike", "name": "a1bf677f691867a594bc417393f71ebe", "lat": 38.8864835, "fusion_lat": 0.0, "bike_id": "a1bf677f691867a594bc417393f71ebe", "is_reserved": 0, "lon": -77.0283755, "is_disabled": 0, "fusion_lon": 0.0, "rental_uris": {"android": "https://dc.lft.to/lastmile_qr_scan", "ios": "https://dc.lft.to/lastmile_qr_scan"}}, {"type": "electric_scooter", "name": "a4fba3e0a745e27a220feaaf975f24dd", "lat": 38.8833145, "fusion_lat": 0.0, "bike_id": "a4fba3e0a745e27a220feaaf975f24dd", "is_reserved": 0, "lon": -77.02813883333333, "is_disabled": 0, "fusion_lon": 0.0, "rental_uris": {"android": "https://dc.lft.to/lastmile_qr_scan", "ios": "https://dc.lft.to/lastmile_qr_scan"}}, {"type": "electric_scooter", "name": "0d0effb22db8684c595130197f85537b", "lat": 38.89884266666667, "fusion_lat": 0.0, "bike_id": "0d0effb22db8684c595130197f85537b", "is_reserved": 0, "lon": -77.03966716666666, "is_disabled": 0, "fusion_lon": 0.0, "rental_uris": {"android": "https://dc.lft.to/lastmile_qr_scan", "ios": "https://dc.lft.to/lastmile_qr_scan"}}, {"type": "electric_scooter", "name": "be70db6efe78b4af05f09bf5baaa9ae3", "lat": 38.900092666666666, "fusion_lat": 0.0, "bike_id": "be70db6efe78b4af05f09bf5baaa9ae3", "is_reserved": 0, "lon": -77.04141566666667, "is_disabled": 0, "fusion_lon": 0.0, "rental_uris": {"android": "https://dc.lft.to/lastmile_qr_scan", "ios": "https://dc.lft.to/lastmile_qr_scan"}}, {"type": "electric_scooter", "name": "598e6de63b0658a63e17f03f4b510b65", "lat": 38.91710166666667, "fusion_lat": 0.0, "bike_id": "598e6de63b0658a63e17f03f4b510b65", "is_reserved": 0, "lon": -77.02848316666666, "is_disabled": 0, "fusion_lon": 0.0, "rental_uris": {"android": "https://dc.lft.to/lastmile_qr_scan", "ios": "https://dc.lft.to/lastmile_qr_scan"}}, {"type": "electric_scooter", "name": "5a24d365f6b2e459ceddff0c3858325b", "lat": 38.89225916666667, "fusion_lat": 0.0, "bike_id": "5a24d365f6b2e459ceddff0c3858325b", "is_reserved": 0, "lon": -77.0433, "is_disabled": 0, "fusion_lon": 0.0, "rental_uris": {"android": "https://dc.lft.to/lastmile_qr_scan", "ios": "https://dc.lft.to/lastmile_qr_scan"}}, {"type": "electric_scooter", "name": "e13970bf63afa14f5f6824e764b4772e", "lat": 38.90163316666667, "fusion_lat": 0.0, "bike_id": "e13970bf63afa14f5f6824e764b4772e", "is_reserved": 0, "lon": -76.930744, "is_disabled": 0, "fusion_lon": 0.0, "rental_uris": {"android": "https://dc.lft.to/lastmile_qr_scan", "ios": "https://dc.lft.to/lastmile_qr_scan"}}, {"type": "electric_scooter", "name": "f7872b6ce0ea24a821c6147b7895e751", "lat": 38.8923015, "fusion_lat": 0.0, "bike_id": "f7872b6ce0ea24a821c6147b7895e751", "is_reserved": 0, "lon": -77.05004733333334, "is_disabled": 0, "fusion_lon": 0.0, "rental_uris": {"android": "https://dc.lft.to/lastmile_qr_scan", "ios": "https://dc.lft.to/lastmile_qr_scan"}}, {"type": "electric_scooter", "name": "045aae0949e29a24946d97ed459f0f03", "lat": 38.902516166666665, "fusion_lat": 0.0, "bike_id": "045aae0949e29a24946d97ed459f0f03", "is_reserved": 0, "lon": -77.03427833333333, "is_disabled": 0, "fusion_lon": 0.0, "rental_uris": {"android": "https://dc.lft.to/lastmile_qr_scan", "ios": "https://dc.lft.to/lastmile_qr_scan"}}, {"type": "electric_scooter", "name": "0851d4d1d4fb25418036585919726a63", "lat": 38.894688, "fusion_lat": 0.0, "bike_id": "0851d4d1d4fb25418036585919726a63", "is_reserved": 0, "lon": -77.01658266666666, "is_disabled": 0, "fusion_lon": 0.0, "rental_uris": {"android": "https://dc.lft.to/lastmile_qr_scan", "ios": "https://dc.lft.to/lastmile_qr_scan"}}, {"type": "electric_scooter", "name": "d1065738cdbe294668d14f7b69854205", "lat": 38.8829395, "fusion_lat": 0.0, "bike_id": "d1065738cdbe294668d14f7b69854205", "is_reserved": 0, "lon": -77.01755416666667, "is_disabled": 0, "fusion_lon": 0.0, "rental_uris": {"android": "https://dc.lft.to/lastmile_qr_scan", "ios": "https://dc.lft.to/lastmile_qr_scan"}}, {"type": "electric_scooter", "name": "355843c927108809d9b7769707e88200", "lat": 38.887362, "fusion_lat": 0.0, "bike_id": "355843c927108809d9b7769707e88200", "is_reserved": 0, "lon": -77.0316835, "is_disabled": 0, "fusion_lon": 0.0, "rental_uris": {"android": "https://dc.lft.to/lastmile_qr_scan", "ios": "https://dc.lft.to/lastmile_qr_scan"}}, {"type": "electric_scooter", "name": "a1bb4037c372f99b838b2099088a00c6", "lat": 38.88697833333333, "fusion_lat": 0.0, "bike_id": "a1bb4037c372f99b838b2099088a00c6", "is_reserved": 0, "lon": -77.00062566666666, "is_disabled": 0, "fusion_lon": 0.0, "rental_uris": {"android": "https://dc.lft.to/lastmile_qr_scan", "ios": "https://dc.lft.to/lastmile_qr_scan"}}, {"type": "electric_bike", "name": "068d1b110da1eeb4978743ad6add636e", "lat": 38.884918, "fusion_lat": 0.0, "bike_id": "068d1b110da1eeb4978743ad6add636e", "is_reserved": 0, "lon": -76.956676, "is_disabled": 0, "fusion_lon": 0.0, "rental_uris": {"android": "https://dc.lft.to/lastmile_qr_scan", "ios": "https://dc.lft.to/lastmile_qr_scan"}}, {"type": "electric_scooter", "name": "29f64b06d3b7a792c1754e338e18105a", "lat": 38.924898, "fusion_lat": 0.0, "bike_id": "29f64b06d3b7a792c1754e338e18105a", "is_reserved": 0, "lon": -77.02157033333333, "is_disabled": 0, "fusion_lon": 0.0, "rental_uris": {"android": "https://dc.lft.to/lastmile_qr_scan", "ios": "https://dc.lft.to/lastmile_qr_scan"}}, {"type": "electric_scooter", "name": "d3f1a169af44873e7da57876241facbf", "lat": 38.920402, "fusion_lat": 0.0, "bike_id": "d3f1a169af44873e7da57876241facbf", "is_reserved": 0, "lon": -77.01677216666667, "is_disabled": 0, "fusion_lon": 0.0, "rental_uris": {"android": "https://dc.lft.to/lastmile_qr_scan", "ios": "https://dc.lft.to/lastmile_qr_scan"}}, {"type": "electric_scooter", "name": "26f796a3d55cb477c3ee29601244698f", "lat": 38.9149665, "fusion_lat": 0.0, "bike_id": "26f796a3d55cb477c3ee29601244698f", "is_reserved": 0, "lon": -76.9835675, "is_disabled": 0, "fusion_lon": 0.0, "rental_uris": {"android": "https://dc.lft.to/lastmile_qr_scan", "ios": "https://dc.lft.to/lastmile_qr_scan"}}, {"type": "electric_scooter", "name": "9781bb433d82b07a94f1becd4243d104", "lat": 38.886114, "fusion_lat": 0.0, "bike_id": "9781bb433d82b07a94f1becd4243d104", "is_reserved": 0, "lon": -77.01251316666666, "is_disabled": 0, "fusion_lon": 0.0, "rental_uris": {"android": "https://dc.lft.to/lastmile_qr_scan", "ios": "https://dc.lft.to/lastmile_qr_scan"}}, {"type": "electric_scooter", "name": "595100d27c1132b2f8bcc2dbc1c909eb", "lat": 38.9086345, "fusion_lat": 0.0, "bike_id": "595100d27c1132b2f8bcc2dbc1c909eb", "is_reserved": 0, "lon": -77.069155, "is_disabled": 0, "fusion_lon": 0.0, "rental_uris": {"android": "https://dc.lft.to/lastmile_qr_scan", "ios": "https://dc.lft.to/lastmile_qr_scan"}}, {"type": "electric_scooter", "name": "94647798da393024bcdea660c3bd7117", "lat": 38.92437683333333, "fusion_lat": 0.0, "bike_id": "94647798da393024bcdea660c3bd7117", "is_reserved": 0, "lon": -77.02021916666666, "is_disabled": 0, "fusion_lon": 0.0, "rental_uris": {"android": "https://dc.lft.to/lastmile_qr_scan", "ios": "https://dc.lft.to/lastmile_qr_scan"}}, {"type": "electric_scooter", "name": "246b1b0656b4fe6fce13ec06d55b51f9", "lat": 38.89726133333333, "fusion_lat": 0.0, "bike_id": "246b1b0656b4fe6fce13ec06d55b51f9", "is_reserved": 0, "lon": -76.99469733333333, "is_disabled": 0, "fusion_lon": 0.0, "rental_uris": {"android": "https://dc.lft.to/lastmile_qr_scan", "ios": "https://dc.lft.to/lastmile_qr_scan"}}, {"type": "electric_scooter", "name": "7568de842aece7d803e37db93f935539", "lat": 38.90673566666667, "fusion_lat": 0.0, "bike_id": "7568de842aece7d803e37db93f935539", "is_reserved": 0, "lon": -77.04623133333334, "is_disabled": 0, "fusion_lon": 0.0, "rental_uris": {"android": "https://dc.lft.to/lastmile_qr_scan", "ios": "https://dc.lft.to/lastmile_qr_scan"}}, {"type": "electric_scooter", "name": "b6b5287182d398a7875163337f1cca65", "lat": 38.90725966666667, "fusion_lat": 0.0, "bike_id": "b6b5287182d398a7875163337f1cca65", "is_reserved": 0, "lon": -77.01134333333333, "is_disabled": 0, "fusion_lon": 0.0, "rental_uris": {"android": "https://dc.lft.to/lastmile_qr_scan", "ios": "https://dc.lft.to/lastmile_qr_scan"}}, {"type": "electric_bike", "name": "bc1eb6a5e17e62fcf4899c2b7887c17c", "lat": 38.85788933333333, "fusion_lat": 0.0, "bike_id": "bc1eb6a5e17e62fcf4899c2b7887c17c", "is_reserved": 0, "lon": -77.099649, "is_disabled": 0, "fusion_lon": 0.0, "rental_uris": {"android": "https://dc.lft.to/lastmile_qr_scan", "ios": "https://dc.lft.to/lastmile_qr_scan"}}, {"type": "electric_scooter", "name": "b76590f1d5aaa7f68d8cf684527719c2", "lat": 38.89523283333333, "fusion_lat": 0.0, "bike_id": "b76590f1d5aaa7f68d8cf684527719c2", "is_reserved": 0, "lon": -77.00205233333334, "is_disabled": 0, "fusion_lon": 0.0, "rental_uris": {"android": "https://dc.lft.to/lastmile_qr_scan", "ios": "https://dc.lft.to/lastmile_qr_scan"}}, {"type": "electric_bike", "name": "6780a9d9a6cad9f7115b80986c192127", "lat": 38.90426166666666, "fusion_lat": 0.0, "bike_id": "6780a9d9a6cad9f7115b80986c192127", "is_reserved": 0, "lon": -76.9723015, "is_disabled": 0, "fusion_lon": 0.0, "rental_uris": {"android": "https://dc.lft.to/lastmile_qr_scan", "ios": "https://dc.lft.to/lastmile_qr_scan"}}, {"type": "electric_bike", "name": "f3047e1f0e9a2af8dd9555dd7a6be84b", "lat": 39.014147666666666, "fusion_lat": 0.0, "bike_id": "f3047e1f0e9a2af8dd9555dd7a6be84b", "is_reserved": 0, "lon": -77.0449935, "is_disabled": 0, "fusion_lon": 0.0, "rental_uris": {"android": "https://dc.lft.to/lastmile_qr_scan", "ios": "https://dc.lft.to/lastmile_qr_scan"}}, {"type": "electric_scooter", "name": "ad8758645c18432b4d7879085f96a390", "lat": 38.909152666666664, "fusion_lat": 0.0, "bike_id": "ad8758645c18432b4d7879085f96a390", "is_reserved": 0, "lon": -76.98633966666667, "is_disabled": 0, "fusion_lon": 0.0, "rental_uris": {"android": "https://dc.lft.to/lastmile_qr_scan", "ios": "https://dc.lft.to/lastmile_qr_scan"}}, {"type": "electric_bike", "name": "7c0a924556183afc7e387670610eb707", "lat": 38.898042, "fusion_lat": 0.0, "bike_id": "7c0a924556183afc7e387670610eb707", "is_reserved": 0, "lon": -76.99078683333333, "is_disabled": 0, "fusion_lon": 0.0, "rental_uris": {"android": "https://dc.lft.to/lastmile_qr_scan", "ios": "https://dc.lft.to/lastmile_qr_scan"}}, {"type": "electric_bike", "name": "70daba109216ca916cf38bdec87a7d3d", "lat": 38.81607733333333, "fusion_lat": 0.0, "bike_id": "70daba109216ca916cf38bdec87a7d3d", "is_reserved": 0, "lon": -76.99655966666667, "is_disabled": 0, "fusion_lon": 0.0, "rental_uris": {"android": "https://dc.lft.to/lastmile_qr_scan", "ios": "https://dc.lft.to/lastmile_qr_scan"}}, {"type": "electric_scooter", "name": "52f9af4269218c680dab095365d24dec", "lat": 38.96111033333333, "fusion_lat": 0.0, "bike_id": "52f9af4269218c680dab095365d24dec", "is_reserved": 0, "lon": -77.00948716666667, "is_disabled": 0, "fusion_lon": 0.0, "rental_uris": {"android": "https://dc.lft.to/lastmile_qr_scan", "ios": "https://dc.lft.to/lastmile_qr_scan"}}, {"type": "electric_bike", "name": "2a27997c16ac50b6db3e7be54f5d8972", "lat": 38.93046566666666, "fusion_lat": 0.0, "bike_id": "2a27997c16ac50b6db3e7be54f5d8972", "is_reserved": 0, "lon": -76.958369, "is_disabled": 0, "fusion_lon": 0.0, "rental_uris": {"android": "https://dc.lft.to/lastmile_qr_scan", "ios": "https://dc.lft.to/lastmile_qr_scan"}}, {"type": "electric_scooter", "name": "30e536de5e09ced3fe43a206fe27a688", "lat": 38.90403216666667, "fusion_lat": 0.0, "bike_id": "30e536de5e09ced3fe43a206fe27a688", "is_reserved": 0, "lon": -77.03231166666667, "is_disabled": 0, "fusion_lon": 0.0, "rental_uris": {"android": "https://dc.lft.to/lastmile_qr_scan", "ios": "https://dc.lft.to/lastmile_qr_scan"}}, {"type": "electric_scooter", "name": "21c99f9d8cf762f978cfefa013df4f24", "lat": 38.883776166666664, "fusion_lat": 0.0, "bike_id": "21c99f9d8cf762f978cfefa013df4f24", "is_reserved": 0, "lon": -76.995209, "is_disabled": 0, "fusion_lon": 0.0, "rental_uris": {"android": "https://dc.lft.to/lastmile_qr_scan", "ios": "https://dc.lft.to/lastmile_qr_scan"}}, {"type": "electric_scooter", "name": "0db39140a25aaa1521284eb6cc502258", "lat": 38.91403316666667, "fusion_lat": 0.0, "bike_id": "0db39140a25aaa1521284eb6cc502258", "is_reserved": 0, "lon": -77.022812, "is_disabled": 0, "fusion_lon": 0.0, "rental_uris": {"android": "https://dc.lft.to/lastmile_qr_scan", "ios": "https://dc.lft.to/lastmile_qr_scan"}}, {"type": "electric_scooter", "name": "73a2bdc9c81916a3345d77acf58b1e5e", "lat": 38.92217216666667, "fusion_lat": 0.0, "bike_id": "73a2bdc9c81916a3345d77acf58b1e5e", "is_reserved": 0, "lon": -77.04335966666666, "is_disabled": 0, "fusion_lon": 0.0, "rental_uris": {"android": "https://dc.lft.to/lastmile_qr_scan", "ios": "https://dc.lft.to/lastmile_qr_scan"}}, {"type": "electric_scooter", "name": "3aeabc47fd3dcfcfd34ceb039e072a74", "lat": 38.91263416666666, "fusion_lat": 0.0, "bike_id": "3aeabc47fd3dcfcfd34ceb039e072a74", "is_reserved": 0, "lon": -77.048418, "is_disabled": 0, "fusion_lon": 0.0, "rental_uris": {"android": "https://dc.lft.to/lastmile_qr_scan", "ios": "https://dc.lft.to/lastmile_qr_scan"}}, {"type": "electric_scooter", "name": "5daa2d56593661f7d2f748cfc9861e25", "lat": 38.909526166666666, "fusion_lat": 0.0, "bike_id": "5daa2d56593661f7d2f748cfc9861e25", "is_reserved": 0, "lon": -76.98538183333334, "is_disabled": 0, "fusion_lon": 0.0, "rental_uris": {"android": "https://dc.lft.to/lastmile_qr_scan", "ios": "https://dc.lft.to/lastmile_qr_scan"}}, {"type": "electric_bike", "name": "1384f35f7af2c012249c7e322d612651", "lat": 38.865147666666665, "fusion_lat": 0.0, "bike_id": "1384f35f7af2c012249c7e322d612651", "is_reserved": 0, "lon": -77.129373, "is_disabled": 0, "fusion_lon": 0.0, "rental_uris": {"android": "https://dc.lft.to/lastmile_qr_scan", "ios": "https://dc.lft.to/lastmile_qr_scan"}}, {"type": "electric_scooter", "name": "14cd3ac559e27a29d3112ba237e305f9", "lat": 38.923616, "fusion_lat": 0.0, "bike_id": "14cd3ac559e27a29d3112ba237e305f9", "is_reserved": 0, "lon": -77.05051683333333, "is_disabled": 0, "fusion_lon": 0.0, "rental_uris": {"android": "https://dc.lft.to/lastmile_qr_scan", "ios": "https://dc.lft.to/lastmile_qr_scan"}}, {"type": "electric_scooter", "name": "57dbd92439b2d6fb89feca38e471822a", "lat": 38.912649, "fusion_lat": 0.0, "bike_id": "57dbd92439b2d6fb89feca38e471822a", "is_reserved": 0, "lon": -77.00798133333333, "is_disabled": 0, "fusion_lon": 0.0, "rental_uris": {"android": "https://dc.lft.to/lastmile_qr_scan", "ios": "https://dc.lft.to/lastmile_qr_scan"}}, {"type": "electric_scooter", "name": "efb7bb60a21bd862223fbf4b14744db0", "lat": 38.90232966666667, "fusion_lat": 0.0, "bike_id": "efb7bb60a21bd862223fbf4b14744db0", "is_reserved": 0, "lon": -77.02691716666666, "is_disabled": 0, "fusion_lon": 0.0, "rental_uris": {"android": "https://dc.lft.to/lastmile_qr_scan", "ios": "https://dc.lft.to/lastmile_qr_scan"}}, {"type": "electric_scooter", "name": "4c2de88dce5b337d675f198eb5cf15f0", "lat": 38.90359516666667, "fusion_lat": 0.0, "bike_id": "4c2de88dce5b337d675f198eb5cf15f0", "is_reserved": 0, "lon": -77.0299955, "is_disabled": 0, "fusion_lon": 0.0, "rental_uris": {"android": "https://dc.lft.to/lastmile_qr_scan", "ios": "https://dc.lft.to/lastmile_qr_scan"}}, {"type": "electric_scooter", "name": "f1824474139424ecfc342a1c6e004dbf", "lat": 38.87674783333333, "fusion_lat": 0.0, "bike_id": "f1824474139424ecfc342a1c6e004dbf", "is_reserved": 0, "lon": -77.0176295, "is_disabled": 0, "fusion_lon": 0.0, "rental_uris": {"android": "https://dc.lft.to/lastmile_qr_scan", "ios": "https://dc.lft.to/lastmile_qr_scan"}}, {"type": "electric_scooter", "name": "ff5612342a3ce91309b503aa1177a078", "lat": 38.89359666666667, "fusion_lat": 0.0, "bike_id": "ff5612342a3ce91309b503aa1177a078", "is_reserved": 0, "lon": -76.92593883333333, "is_disabled": 0, "fusion_lon": 0.0, "rental_uris": {"android": "https://dc.lft.to/lastmile_qr_scan", "ios": "https://dc.lft.to/lastmile_qr_scan"}}, {"type": "electric_scooter", "name": "b7e70b2f8ba955c9f12a3021d0dad9f4", "lat": 38.89569083333333, "fusion_lat": 0.0, "bike_id": "b7e70b2f8ba955c9f12a3021d0dad9f4", "is_reserved": 0, "lon": -77.025564, "is_disabled": 0, "fusion_lon": 0.0, "rental_uris": {"android": "https://dc.lft.to/lastmile_qr_scan", "ios": "https://dc.lft.to/lastmile_qr_scan"}}, {"type": "electric_scooter", "name": "882c95fff5e88006ab27fda1911ac168", "lat": 38.914882166666665, "fusion_lat": 0.0, "bike_id": "882c95fff5e88006ab27fda1911ac168", "is_reserved": 0, "lon": -77.04833783333333, "is_disabled": 0, "fusion_lon": 0.0, "rental_uris": {"android": "https://dc.lft.to/lastmile_qr_scan", "ios": "https://dc.lft.to/lastmile_qr_scan"}}, {"type": "electric_scooter", "name": "b2ad8a34bf2efc37b974bf16d3ae7d40", "lat": 38.95194083333333, "fusion_lat": 0.0, "bike_id": "b2ad8a34bf2efc37b974bf16d3ae7d40", "is_reserved": 0, "lon": -77.06659766666667, "is_disabled": 0, "fusion_lon": 0.0, "rental_uris": {"android": "https://dc.lft.to/lastmile_qr_scan", "ios": "https://dc.lft.to/lastmile_qr_scan"}}, {"type": "electric_scooter", "name": "f8f9214e5213a7643ad9ac981c963583", "lat": 38.895344333333334, "fusion_lat": 0.0, "bike_id": "f8f9214e5213a7643ad9ac981c963583", "is_reserved": 0, "lon": -77.03158066666667, "is_disabled": 0, "fusion_lon": 0.0, "rental_uris": {"android": "https://dc.lft.to/lastmile_qr_scan", "ios": "https://dc.lft.to/lastmile_qr_scan"}}, {"type": "electric_scooter", "name": "1af7d27d555ac4a704da0be2fe22882a", "lat": 38.90123916666667, "fusion_lat": 0.0, "bike_id": "1af7d27d555ac4a704da0be2fe22882a", "is_reserved": 0, "lon": -77.0433555, "is_disabled": 0, "fusion_lon": 0.0, "rental_uris": {"android": "https://dc.lft.to/lastmile_qr_scan", "ios": "https://dc.lft.to/lastmile_qr_scan"}}, {"type": "electric_scooter", "name": "485ea9442240e08882e18dbd32b7bbbd", "lat": 38.9121445, "fusion_lat": 0.0, "bike_id": "485ea9442240e08882e18dbd32b7bbbd", "is_reserved": 0, "lon": -77.03208116666667, "is_disabled": 0, "fusion_lon": 0.0, "rental_uris": {"android": "https://dc.lft.to/lastmile_qr_scan", "ios": "https://dc.lft.to/lastmile_qr_scan"}}, {"type": "electric_scooter", "name": "bf9a75ef7284f0f3081ad6c2a2b83328", "lat": 38.931013666666665, "fusion_lat": 0.0, "bike_id": "bf9a75ef7284f0f3081ad6c2a2b83328", "is_reserved": 0, "lon": -77.024803, "is_disabled": 0, "fusion_lon": 0.0, "rental_uris": {"android": "https://dc.lft.to/lastmile_qr_scan", "ios": "https://dc.lft.to/lastmile_qr_scan"}}, {"type": "electric_scooter", "name": "7be8ec45e9c72f37273a07816ddab62c", "lat": 38.922552833333334, "fusion_lat": 0.0, "bike_id": "7be8ec45e9c72f37273a07816ddab62c", "is_reserved": 0, "lon": -77.0092185, "is_disabled": 0, "fusion_lon": 0.0, "rental_uris": {"android": "https://dc.lft.to/lastmile_qr_scan", "ios": "https://dc.lft.to/lastmile_qr_scan"}}, {"type": "electric_scooter", "name": "687eb04716a7cdb88b01deeb01c59fd9", "lat": 38.89729033333333, "fusion_lat": 0.0, "bike_id": "687eb04716a7cdb88b01deeb01c59fd9", "is_reserved": 0, "lon": -77.00374916666667, "is_disabled": 0, "fusion_lon": 0.0, "rental_uris": {"android": "https://dc.lft.to/lastmile_qr_scan", "ios": "https://dc.lft.to/lastmile_qr_scan"}}, {"type": "electric_bike", "name": "b530e5c669f2c38ec5a51d70ea027965", "lat": 38.900338166666664, "fusion_lat": 0.0, "bike_id": "b530e5c669f2c38ec5a51d70ea027965", "is_reserved": 0, "lon": -76.97224133333333, "is_disabled": 0, "fusion_lon": 0.0, "rental_uris": {"android": "https://dc.lft.to/lastmile_qr_scan", "ios": "https://dc.lft.to/lastmile_qr_scan"}}, {"type": "electric_scooter", "name": "e2d2f679b94cf16441a99696c745105d", "lat": 38.8845105, "fusion_lat": 0.0, "bike_id": "e2d2f679b94cf16441a99696c745105d", "is_reserved": 0, "lon": -77.028181, "is_disabled": 0, "fusion_lon": 0.0, "rental_uris": {"android": "https://dc.lft.to/lastmile_qr_scan", "ios": "https://dc.lft.to/lastmile_qr_scan"}}, {"type": "electric_scooter", "name": "66c7d726eb3f559f2f93c50d37fbebc7", "lat": 38.9056215, "fusion_lat": 0.0, "bike_id": "66c7d726eb3f559f2f93c50d37fbebc7", "is_reserved": 0, "lon": -77.03468633333334, "is_disabled": 0, "fusion_lon": 0.0, "rental_uris": {"android": "https://dc.lft.to/lastmile_qr_scan", "ios": "https://dc.lft.to/lastmile_qr_scan"}}, {"type": "electric_scooter", "name": "6a81ca106970232de66b2c7cd201bc25", "lat": 38.87704083333333, "fusion_lat": 0.0, "bike_id": "6a81ca106970232de66b2c7cd201bc25", "is_reserved": 0, "lon": -77.00389683333333, "is_disabled": 0, "fusion_lon": 0.0, "rental_uris": {"android": "https://dc.lft.to/lastmile_qr_scan", "ios": "https://dc.lft.to/lastmile_qr_scan"}}, {"type": "electric_scooter", "name": "916266d103c27132b27c72ec604549d9", "lat": 38.9248135, "fusion_lat": 0.0, "bike_id": "916266d103c27132b27c72ec604549d9", "is_reserved": 0, "lon": -77.02144716666666, "is_disabled": 0, "fusion_lon": 0.0, "rental_uris": {"android": "https://dc.lft.to/lastmile_qr_scan", "ios": "https://dc.lft.to/lastmile_qr_scan"}}, {"type": "electric_scooter", "name": "1fbfb4e3d6db7ba17419647e67631bd1", "lat": 38.8981235, "fusion_lat": 0.0, "bike_id": "1fbfb4e3d6db7ba17419647e67631bd1", "is_reserved": 0, "lon": -77.02923133333333, "is_disabled": 0, "fusion_lon": 0.0, "rental_uris": {"android": "https://dc.lft.to/lastmile_qr_scan", "ios": "https://dc.lft.to/lastmile_qr_scan"}}, {"type": "electric_scooter", "name": "27fe4196c1e3b7333e919e742d86ac7c", "lat": 38.904894166666665, "fusion_lat": 0.0, "bike_id": "27fe4196c1e3b7333e919e742d86ac7c", "is_reserved": 0, "lon": -77.04353016666667, "is_disabled": 0, "fusion_lon": 0.0, "rental_uris": {"android": "https://dc.lft.to/lastmile_qr_scan", "ios": "https://dc.lft.to/lastmile_qr_scan"}}, {"type": "electric_bike", "name": "12ba1f43000b784a96074316643e96fb", "lat": 38.908605666666666, "fusion_lat": 0.0, "bike_id": "12ba1f43000b784a96074316643e96fb", "is_reserved": 0, "lon": -76.9995675, "is_disabled": 0, "fusion_lon": 0.0, "rental_uris": {"android": "https://dc.lft.to/lastmile_qr_scan", "ios": "https://dc.lft.to/lastmile_qr_scan"}}, {"type": "electric_scooter", "name": "cf6db8be5a6eb20830a882146509c303", "lat": 38.915992833333334, "fusion_lat": 0.0, "bike_id": "cf6db8be5a6eb20830a882146509c303", "is_reserved": 0, "lon": -77.02398733333334, "is_disabled": 0, "fusion_lon": 0.0, "rental_uris": {"android": "https://dc.lft.to/lastmile_qr_scan", "ios": "https://dc.lft.to/lastmile_qr_scan"}}, {"type": "electric_scooter", "name": "190f455cddc5e7849e922a24c669ef2c", "lat": 38.909940666666664, "fusion_lat": 0.0, "bike_id": "190f455cddc5e7849e922a24c669ef2c", "is_reserved": 0, "lon": -77.02694166666667, "is_disabled": 0, "fusion_lon": 0.0, "rental_uris": {"android": "https://dc.lft.to/lastmile_qr_scan", "ios": "https://dc.lft.to/lastmile_qr_scan"}}, {"type": "electric_scooter", "name": "2e532e442e08917fadf7cd467426d4a1", "lat": 38.90001816666667, "fusion_lat": 0.0, "bike_id": "2e532e442e08917fadf7cd467426d4a1", "is_reserved": 0, "lon": -76.9983385, "is_disabled": 0, "fusion_lon": 0.0, "rental_uris": {"android": "https://dc.lft.to/lastmile_qr_scan", "ios": "https://dc.lft.to/lastmile_qr_scan"}}, {"type": "electric_scooter", "name": "41b781761406637f9d519234466c4270", "lat": 38.9317985, "fusion_lat": 0.0, "bike_id": "41b781761406637f9d519234466c4270", "is_reserved": 0, "lon": -77.036424, "is_disabled": 0, "fusion_lon": 0.0, "rental_uris": {"android": "https://dc.lft.to/lastmile_qr_scan", "ios": "https://dc.lft.to/lastmile_qr_scan"}}, {"type": "electric_scooter", "name": "e958df886c860983cadc8834515092ec", "lat": 38.91727183333333, "fusion_lat": 0.0, "bike_id": "e958df886c860983cadc8834515092ec", "is_reserved": 0, "lon": -77.03658216666666, "is_disabled": 0, "fusion_lon": 0.0, "rental_uris": {"android": "https://dc.lft.to/lastmile_qr_scan", "ios": "https://dc.lft.to/lastmile_qr_scan"}}, {"type": "electric_scooter", "name": "f94993473e2f3d55a8d54fdad807f14f", "lat": 38.89728383333333, "fusion_lat": 0.0, "bike_id": "f94993473e2f3d55a8d54fdad807f14f", "is_reserved": 0, "lon": -77.04737916666667, "is_disabled": 0, "fusion_lon": 0.0, "rental_uris": {"android": "https://dc.lft.to/lastmile_qr_scan", "ios": "https://dc.lft.to/lastmile_qr_scan"}}, {"type": "electric_scooter", "name": "b5326d1c0067b58a8cdca2b5681e02d0", "lat": 38.90906616666667, "fusion_lat": 0.0, "bike_id": "b5326d1c0067b58a8cdca2b5681e02d0", "is_reserved": 0, "lon": -77.07261533333333, "is_disabled": 0, "fusion_lon": 0.0, "rental_uris": {"android": "https://dc.lft.to/lastmile_qr_scan", "ios": "https://dc.lft.to/lastmile_qr_scan"}}, {"type": "electric_bike", "name": "064cb25e56d1d82668809688984c53d4", "lat": 38.91690766666667, "fusion_lat": 0.0, "bike_id": "064cb25e56d1d82668809688984c53d4", "is_reserved": 0, "lon": -77.03775083333333, "is_disabled": 0, "fusion_lon": 0.0, "rental_uris": {"android": "https://dc.lft.to/lastmile_qr_scan", "ios": "https://dc.lft.to/lastmile_qr_scan"}}, {"type": "electric_scooter", "name": "0f8c8e7edb96c4520626ab467dadb0b6", "lat": 38.947864833333334, "fusion_lat": 0.0, "bike_id": "0f8c8e7edb96c4520626ab467dadb0b6", "is_reserved": 0, "lon": -77.0802145, "is_disabled": 0, "fusion_lon": 0.0, "rental_uris": {"android": "https://dc.lft.to/lastmile_qr_scan", "ios": "https://dc.lft.to/lastmile_qr_scan"}}, {"type": "electric_scooter", "name": "adc1e4a5174c8b8079d55bdab9024968", "lat": 38.9098005, "fusion_lat": 0.0, "bike_id": "adc1e4a5174c8b8079d55bdab9024968", "is_reserved": 0, "lon": -77.02182716666667, "is_disabled": 0, "fusion_lon": 0.0, "rental_uris": {"android": "https://dc.lft.to/lastmile_qr_scan", "ios": "https://dc.lft.to/lastmile_qr_scan"}}, {"type": "electric_scooter", "name": "659df856dae8f407738ede4a8949c81a", "lat": 38.903610666666665, "fusion_lat": 0.0, "bike_id": "659df856dae8f407738ede4a8949c81a", "is_reserved": 0, "lon": -77.03719133333334, "is_disabled": 0, "fusion_lon": 0.0, "rental_uris": {"android": "https://dc.lft.to/lastmile_qr_scan", "ios": "https://dc.lft.to/lastmile_qr_scan"}}, {"type": "electric_scooter", "name": "b551c91ff07a46621ebef1aa9308962e", "lat": 38.9334305, "fusion_lat": 0.0, "bike_id": "b551c91ff07a46621ebef1aa9308962e", "is_reserved": 0, "lon": -77.02846333333333, "is_disabled": 0, "fusion_lon": 0.0, "rental_uris": {"android": "https://dc.lft.to/lastmile_qr_scan", "ios": "https://dc.lft.to/lastmile_qr_scan"}}, {"type": "electric_scooter", "name": "8325235030d6e4dea1f211c7bee598e8", "lat": 38.89817383333333, "fusion_lat": 0.0, "bike_id": "8325235030d6e4dea1f211c7bee598e8", "is_reserved": 0, "lon": -76.93130783333334, "is_disabled": 0, "fusion_lon": 0.0, "rental_uris": {"android": "https://dc.lft.to/lastmile_qr_scan", "ios": "https://dc.lft.to/lastmile_qr_scan"}}, {"type": "electric_scooter", "name": "42b68f911e9aee41ed2fcf35095694fc", "lat": 38.900366, "fusion_lat": 0.0, "bike_id": "42b68f911e9aee41ed2fcf35095694fc", "is_reserved": 0, "lon": -76.99841866666667, "is_disabled": 0, "fusion_lon": 0.0, "rental_uris": {"android": "https://dc.lft.to/lastmile_qr_scan", "ios": "https://dc.lft.to/lastmile_qr_scan"}}, {"type": "electric_scooter", "name": "1a55492dc67a9dfd66b951aab106efbc", "lat": 38.928193666666665, "fusion_lat": 0.0, "bike_id": "1a55492dc67a9dfd66b951aab106efbc", "is_reserved": 0, "lon": -77.0140605, "is_disabled": 0, "fusion_lon": 0.0, "rental_uris": {"android": "https://dc.lft.to/lastmile_qr_scan", "ios": "https://dc.lft.to/lastmile_qr_scan"}}, {"type": "electric_scooter", "name": "eefc256724c7db15173638578a62978a", "lat": 38.903034, "fusion_lat": 0.0, "bike_id": "eefc256724c7db15173638578a62978a", "is_reserved": 0, "lon": -77.034812, "is_disabled": 0, "fusion_lon": 0.0, "rental_uris": {"android": "https://dc.lft.to/lastmile_qr_scan", "ios": "https://dc.lft.to/lastmile_qr_scan"}}, {"type": "electric_bike", "name": "3baf246827b7b91b95129309782a7845", "lat": 38.922162, "fusion_lat": 0.0, "bike_id": "3baf246827b7b91b95129309782a7845", "is_reserved": 0, "lon": -77.20142566666667, "is_disabled": 0, "fusion_lon": 0.0, "rental_uris": {"android": "https://dc.lft.to/lastmile_qr_scan", "ios": "https://dc.lft.to/lastmile_qr_scan"}}, {"type": "electric_scooter", "name": "23e8f1083673031b5b3f1900e6b75a8d", "lat": 38.955985166666665, "fusion_lat": 0.0, "bike_id": "23e8f1083673031b5b3f1900e6b75a8d", "is_reserved": 0, "lon": -77.08065166666667, "is_disabled": 0, "fusion_lon": 0.0, "rental_uris": {"android": "https://dc.lft.to/lastmile_qr_scan", "ios": "https://dc.lft.to/lastmile_qr_scan"}}, {"type": "electric_scooter", "name": "5f8534e951f4a45121c0e4bb2f1080ff", "lat": 38.88441233333333, "fusion_lat": 0.0, "bike_id": "5f8534e951f4a45121c0e4bb2f1080ff", "is_reserved": 0, "lon": -77.02524783333334, "is_disabled": 0, "fusion_lon": 0.0, "rental_uris": {"android": "https://dc.lft.to/lastmile_qr_scan", "ios": "https://dc.lft.to/lastmile_qr_scan"}}, {"type": "electric_scooter", "name": "32a593289758d52306857bcf099fbf52", "lat": 38.906633166666666, "fusion_lat": 0.0, "bike_id": "32a593289758d52306857bcf099fbf52", "is_reserved": 0, "lon": -77.02700916666667, "is_disabled": 0, "fusion_lon": 0.0, "rental_uris": {"android": "https://dc.lft.to/lastmile_qr_scan", "ios": "https://dc.lft.to/lastmile_qr_scan"}}, {"type": "electric_scooter", "name": "7a2a868624c86e7c54dd966effcc4728", "lat": 38.92437783333333, "fusion_lat": 0.0, "bike_id": "7a2a868624c86e7c54dd966effcc4728", "is_reserved": 0, "lon": -77.0340445, "is_disabled": 0, "fusion_lon": 0.0, "rental_uris": {"android": "https://dc.lft.to/lastmile_qr_scan", "ios": "https://dc.lft.to/lastmile_qr_scan"}}, {"type": "electric_scooter", "name": "e184de65238faf3ba20acbfab023b1fe", "lat": 38.92497, "fusion_lat": 0.0, "bike_id": "e184de65238faf3ba20acbfab023b1fe", "is_reserved": 0, "lon": -77.02171383333334, "is_disabled": 0, "fusion_lon": 0.0, "rental_uris": {"android": "https://dc.lft.to/lastmile_qr_scan", "ios": "https://dc.lft.to/lastmile_qr_scan"}}, {"type": "electric_scooter", "name": "236f3da390bdabf642203e33e14e8b9e", "lat": 38.928633166666664, "fusion_lat": 0.0, "bike_id": "236f3da390bdabf642203e33e14e8b9e", "is_reserved": 0, "lon": -77.02726416666667, "is_disabled": 0, "fusion_lon": 0.0, "rental_uris": {"android": "https://dc.lft.to/lastmile_qr_scan", "ios": "https://dc.lft.to/lastmile_qr_scan"}}, {"type": "electric_scooter", "name": "a239b3cd78a343a131e5b113b14364c2", "lat": 38.924481166666666, "fusion_lat": 0.0, "bike_id": "a239b3cd78a343a131e5b113b14364c2", "is_reserved": 0, "lon": -77.02143183333334, "is_disabled": 0, "fusion_lon": 0.0, "rental_uris": {"android": "https://dc.lft.to/lastmile_qr_scan", "ios": "https://dc.lft.to/lastmile_qr_scan"}}, {"type": "electric_scooter", "name": "eb8fe55b904ce21b1d40ddc1e5db9504", "lat": 38.866535666666664, "fusion_lat": 0.0, "bike_id": "eb8fe55b904ce21b1d40ddc1e5db9504", "is_reserved": 0, "lon": -76.98888083333334, "is_disabled": 0, "fusion_lon": 0.0, "rental_uris": {"android": "https://dc.lft.to/lastmile_qr_scan", "ios": "https://dc.lft.to/lastmile_qr_scan"}}, {"type": "electric_scooter", "name": "74a71c7ec67fc9af133883048e1424ee", "lat": 38.90494, "fusion_lat": 0.0, "bike_id": "74a71c7ec67fc9af133883048e1424ee", "is_reserved": 0, "lon": -77.02964433333334, "is_disabled": 0, "fusion_lon": 0.0, "rental_uris": {"android": "https://dc.lft.to/lastmile_qr_scan", "ios": "https://dc.lft.to/lastmile_qr_scan"}}, {"type": "electric_scooter", "name": "c78f0c4a0c3bf698b451252d0eb77574", "lat": 38.93098583333333, "fusion_lat": 0.0, "bike_id": "c78f0c4a0c3bf698b451252d0eb77574", "is_reserved": 0, "lon": -77.02476316666667, "is_disabled": 0, "fusion_lon": 0.0, "rental_uris": {"android": "https://dc.lft.to/lastmile_qr_scan", "ios": "https://dc.lft.to/lastmile_qr_scan"}}, {"type": "electric_scooter", "name": "540688d95ff04c059ad1718a78ed4a0e", "lat": 38.93053966666667, "fusion_lat": 0.0, "bike_id": "540688d95ff04c059ad1718a78ed4a0e", "is_reserved": 0, "lon": -77.01867116666666, "is_disabled": 0, "fusion_lon": 0.0, "rental_uris": {"android": "https://dc.lft.to/lastmile_qr_scan", "ios": "https://dc.lft.to/lastmile_qr_scan"}}, {"type": "electric_scooter", "name": "8a7d1be9f3fd0919eef29410f38c7639", "lat": 38.89041683333333, "fusion_lat": 0.0, "bike_id": "8a7d1be9f3fd0919eef29410f38c7639", "is_reserved": 0, "lon": -76.9524515, "is_disabled": 0, "fusion_lon": 0.0, "rental_uris": {"android": "https://dc.lft.to/lastmile_qr_scan", "ios": "https://dc.lft.to/lastmile_qr_scan"}}, {"type": "electric_bike", "name": "9fce32f177798af622253b9590f3cc5a", "lat": 38.79698583333333, "fusion_lat": 0.0, "bike_id": "9fce32f177798af622253b9590f3cc5a", "is_reserved": 0, "lon": -77.00368483333334, "is_disabled": 0, "fusion_lon": 0.0, "rental_uris": {"android": "https://dc.lft.to/lastmile_qr_scan", "ios": "https://dc.lft.to/lastmile_qr_scan"}}, {"type": "electric_scooter", "name": "6a7b72403581b11a28e2cb788e47938e", "lat": 38.899491833333336, "fusion_lat": 0.0, "bike_id": "6a7b72403581b11a28e2cb788e47938e", "is_reserved": 0, "lon": -76.9815095, "is_disabled": 0, "fusion_lon": 0.0, "rental_uris": {"android": "https://dc.lft.to/lastmile_qr_scan", "ios": "https://dc.lft.to/lastmile_qr_scan"}}, {"type": "electric_scooter", "name": "e6ccf9842c68eb9d360ff602200ac251", "lat": 38.90785666666667, "fusion_lat": 0.0, "bike_id": "e6ccf9842c68eb9d360ff602200ac251", "is_reserved": 0, "lon": -77.02709216666666, "is_disabled": 0, "fusion_lon": 0.0, "rental_uris": {"android": "https://dc.lft.to/lastmile_qr_scan", "ios": "https://dc.lft.to/lastmile_qr_scan"}}, {"type": "electric_scooter", "name": "1635ccf39b700fd0ccb475cadd39b342", "lat": 38.909689, "fusion_lat": 0.0, "bike_id": "1635ccf39b700fd0ccb475cadd39b342", "is_reserved": 0, "lon": -77.04520566666666, "is_disabled": 0, "fusion_lon": 0.0, "rental_uris": {"android": "https://dc.lft.to/lastmile_qr_scan", "ios": "https://dc.lft.to/lastmile_qr_scan"}}, {"type": "electric_scooter", "name": "de0e147ac80ffae53a2cd4a50e86ae62", "lat": 38.898957833333334, "fusion_lat": 0.0, "bike_id": "de0e147ac80ffae53a2cd4a50e86ae62", "is_reserved": 0, "lon": -77.03282766666666, "is_disabled": 0, "fusion_lon": 0.0, "rental_uris": {"android": "https://dc.lft.to/lastmile_qr_scan", "ios": "https://dc.lft.to/lastmile_qr_scan"}}, {"type": "electric_scooter", "name": "0de53842a981b3ed95fd4ae781caf795", "lat": 38.9159605, "fusion_lat": 0.0, "bike_id": "0de53842a981b3ed95fd4ae781caf795", "is_reserved": 0, "lon": -77.04640433333333, "is_disabled": 0, "fusion_lon": 0.0, "rental_uris": {"android": "https://dc.lft.to/lastmile_qr_scan", "ios": "https://dc.lft.to/lastmile_qr_scan"}}, {"type": "electric_scooter", "name": "22b5d5378a9d0d05892127ec6c1adfe1", "lat": 38.9244895, "fusion_lat": 0.0, "bike_id": "22b5d5378a9d0d05892127ec6c1adfe1", "is_reserved": 0, "lon": -77.021426, "is_disabled": 0, "fusion_lon": 0.0, "rental_uris": {"android": "https://dc.lft.to/lastmile_qr_scan", "ios": "https://dc.lft.to/lastmile_qr_scan"}}, {"type": "electric_scooter", "name": "9b0af93602f7cb4fec1016227e67858d", "lat": 38.873763, "fusion_lat": 0.0, "bike_id": "9b0af93602f7cb4fec1016227e67858d", "is_reserved": 0, "lon": -77.00114333333333, "is_disabled": 0, "fusion_lon": 0.0, "rental_uris": {"android": "https://dc.lft.to/lastmile_qr_scan", "ios": "https://dc.lft.to/lastmile_qr_scan"}}, {"type": "electric_scooter", "name": "df5cdc48f9a6329fca0ee4e4fe9ea633", "lat": 38.93396216666667, "fusion_lat": 0.0, "bike_id": "df5cdc48f9a6329fca0ee4e4fe9ea633", "is_reserved": 0, "lon": -77.05744116666666, "is_disabled": 0, "fusion_lon": 0.0, "rental_uris": {"android": "https://dc.lft.to/lastmile_qr_scan", "ios": "https://dc.lft.to/lastmile_qr_scan"}}, {"type": "electric_scooter", "name": "5ef4ca7da10bd207f596388cccb19931", "lat": 38.901105, "fusion_lat": 0.0, "bike_id": "5ef4ca7da10bd207f596388cccb19931", "is_reserved": 0, "lon": -77.03233, "is_disabled": 0, "fusion_lon": 0.0, "rental_uris": {"android": "https://dc.lft.to/lastmile_qr_scan", "ios": "https://dc.lft.to/lastmile_qr_scan"}}, {"type": "electric_scooter", "name": "01f7f280a96f7778525a1b4ec1a54361", "lat": 38.892285666666666, "fusion_lat": 0.0, "bike_id": "01f7f280a96f7778525a1b4ec1a54361", "is_reserved": 0, "lon": -77.01765316666666, "is_disabled": 0, "fusion_lon": 0.0, "rental_uris": {"android": "https://dc.lft.to/lastmile_qr_scan", "ios": "https://dc.lft.to/lastmile_qr_scan"}}, {"type": "electric_scooter", "name": "46e7b0548a2d3d0798bfb824d716554e", "lat": 38.9141075, "fusion_lat": 0.0, "bike_id": "46e7b0548a2d3d0798bfb824d716554e", "is_reserved": 0, "lon": -77.02332116666666, "is_disabled": 0, "fusion_lon": 0.0, "rental_uris": {"android": "https://dc.lft.to/lastmile_qr_scan", "ios": "https://dc.lft.to/lastmile_qr_scan"}}, {"type": "electric_scooter", "name": "26b1be843b57f6bb804fba63985d094c", "lat": 38.92673033333333, "fusion_lat": 0.0, "bike_id": "26b1be843b57f6bb804fba63985d094c", "is_reserved": 0, "lon": -77.03798433333333, "is_disabled": 0, "fusion_lon": 0.0, "rental_uris": {"android": "https://dc.lft.to/lastmile_qr_scan", "ios": "https://dc.lft.to/lastmile_qr_scan"}}, {"type": "electric_scooter", "name": "edef7c5f9a834ed60255d87102e496e3", "lat": 38.91756566666667, "fusion_lat": 0.0, "bike_id": "edef7c5f9a834ed60255d87102e496e3", "is_reserved": 0, "lon": -77.02803133333333, "is_disabled": 0, "fusion_lon": 0.0, "rental_uris": {"android": "https://dc.lft.to/lastmile_qr_scan", "ios": "https://dc.lft.to/lastmile_qr_scan"}}, {"type": "electric_scooter", "name": "7b09f8cb73495ca0ec81d4725e4c750f", "lat": 38.950966333333334, "fusion_lat": 0.0, "bike_id": "7b09f8cb73495ca0ec81d4725e4c750f", "is_reserved": 0, "lon": -77.097105, "is_disabled": 0, "fusion_lon": 0.0, "rental_uris": {"android": "https://dc.lft.to/lastmile_qr_scan", "ios": "https://dc.lft.to/lastmile_qr_scan"}}, {"type": "electric_scooter", "name": "dd91c9edf961c50819187d0652bae5e5", "lat": 38.92653983333334, "fusion_lat": 0.0, "bike_id": "dd91c9edf961c50819187d0652bae5e5", "is_reserved": 0, "lon": -77.03730116666667, "is_disabled": 0, "fusion_lon": 0.0, "rental_uris": {"android": "https://dc.lft.to/lastmile_qr_scan", "ios": "https://dc.lft.to/lastmile_qr_scan"}}, {"type": "electric_scooter", "name": "193d939f11d7fb21d44ccef68114dd74", "lat": 38.936978333333336, "fusion_lat": 0.0, "bike_id": "193d939f11d7fb21d44ccef68114dd74", "is_reserved": 0, "lon": -77.05605716666666, "is_disabled": 0, "fusion_lon": 0.0, "rental_uris": {"android": "https://dc.lft.to/lastmile_qr_scan", "ios": "https://dc.lft.to/lastmile_qr_scan"}}, {"type": "electric_scooter", "name": "a3e2a645b73441fef67c164c0291b497", "lat": 38.88427983333333, "fusion_lat": 0.0, "bike_id": "a3e2a645b73441fef67c164c0291b497", "is_reserved": 0, "lon": -76.99601716666666, "is_disabled": 0, "fusion_lon": 0.0, "rental_uris": {"android": "https://dc.lft.to/lastmile_qr_scan", "ios": "https://dc.lft.to/lastmile_qr_scan"}}, {"type": "electric_scooter", "name": "caad1d91c9cd60db556898d42483509d", "lat": 38.90908566666667, "fusion_lat": 0.0, "bike_id": "caad1d91c9cd60db556898d42483509d", "is_reserved": 0, "lon": -77.02808583333334, "is_disabled": 0, "fusion_lon": 0.0, "rental_uris": {"android": "https://dc.lft.to/lastmile_qr_scan", "ios": "https://dc.lft.to/lastmile_qr_scan"}}, {"type": "electric_scooter", "name": "d4693426405bfcfda864232a6841e0d5", "lat": 38.887464, "fusion_lat": 0.0, "bike_id": "d4693426405bfcfda864232a6841e0d5", "is_reserved": 0, "lon": -77.01729266666666, "is_disabled": 0, "fusion_lon": 0.0, "rental_uris": {"android": "https://dc.lft.to/lastmile_qr_scan", "ios": "https://dc.lft.to/lastmile_qr_scan"}}, {"type": "electric_scooter", "name": "f7e3800bc733e79032ba875b682521c3", "lat": 38.912562, "fusion_lat": 0.0, "bike_id": "f7e3800bc733e79032ba875b682521c3", "is_reserved": 0, "lon": -77.02548783333333, "is_disabled": 0, "fusion_lon": 0.0, "rental_uris": {"android": "https://dc.lft.to/lastmile_qr_scan", "ios": "https://dc.lft.to/lastmile_qr_scan"}}, {"type": "electric_bike", "name": "ee32e7d33f04b2a8453ab2ef7a42905d", "lat": 38.98500383333333, "fusion_lat": 0.0, "bike_id": "ee32e7d33f04b2a8453ab2ef7a42905d", "is_reserved": 0, "lon": -76.981909, "is_disabled": 0, "fusion_lon": 0.0, "rental_uris": {"android": "https://dc.lft.to/lastmile_qr_scan", "ios": "https://dc.lft.to/lastmile_qr_scan"}}, {"type": "electric_scooter", "name": "b76b9ee65c02781c42e4872ba4e1c26e", "lat": 38.92647933333333, "fusion_lat": 0.0, "bike_id": "b76b9ee65c02781c42e4872ba4e1c26e", "is_reserved": 0, "lon": -77.03679683333333, "is_disabled": 0, "fusion_lon": 0.0, "rental_uris": {"android": "https://dc.lft.to/lastmile_qr_scan", "ios": "https://dc.lft.to/lastmile_qr_scan"}}, {"type": "electric_scooter", "name": "f1c80b9b0093378c1d5c171f7cdca33d", "lat": 38.91040666666667, "fusion_lat": 0.0, "bike_id": "f1c80b9b0093378c1d5c171f7cdca33d", "is_reserved": 0, "lon": -77.04347066666666, "is_disabled": 0, "fusion_lon": 0.0, "rental_uris": {"android": "https://dc.lft.to/lastmile_qr_scan", "ios": "https://dc.lft.to/lastmile_qr_scan"}}, {"type": "electric_scooter", "name": "c633a4635d8a9c8ee0e833dc5de64cb5", "lat": 38.903547, "fusion_lat": 0.0, "bike_id": "c633a4635d8a9c8ee0e833dc5de64cb5", "is_reserved": 0, "lon": -77.06015266666667, "is_disabled": 0, "fusion_lon": 0.0, "rental_uris": {"android": "https://dc.lft.to/lastmile_qr_scan", "ios": "https://dc.lft.to/lastmile_qr_scan"}},