{"data": {"bikes": [{"name": "4a73671bebc302395db5b4876bbe598a", "fusion_lon": 0.0, "lat": 38.91632533333333, "is_reserved": 0, "type": "electric_scooter", "bike_id": "4a73671bebc302395db5b4876bbe598a", "is_disabled": 0, "rental_uris": {"android": "https://dc.lft.to/lastmile_qr_scan", "ios": "https://dc.lft.to/lastmile_qr_scan"}, "lon": -77.03849966666667, "fusion_lat": 0.0}, {"name": "3aa2e834c76f5758fda772f4f8f407e3", "fusion_lon": 0.0, "lat": 38.90006233333333, "is_reserved": 0, "type": "electric_scooter", "bike_id": "3aa2e834c76f5758fda772f4f8f407e3", "is_disabled": 0, "rental_uris": {"android": "https://dc.lft.to/lastmile_qr_scan", "ios": "https://dc.lft.to/lastmile_qr_scan"}, "lon": -76.99619933333334, "fusion_lat": 0.0}, {"name": "4c7986b515364c001b31637d0dd0eee9", "fusion_lon": 0.0, "lat": 38.90584883333333, "is_reserved": 0, "type": "electric_scooter", "bike_id": "4c7986b515364c001b31637d0dd0eee9", "is_disabled": 0, "rental_uris": {"android": "https://dc.lft.to/lastmile_qr_scan", "ios": "https://dc.lft.to/lastmile_qr_scan"}, "lon": -77.04143583333334, "fusion_lat": 0.0}, {"name": "ec922a5ac858506e5ed9446033170f95", "fusion_lon": 0.0, "lat": 38.86057016666667, "is_reserved": 0, "type": "electric_scooter", "bike_id": "ec922a5ac858506e5ed9446033170f95", "is_disabled": 0, "rental_uris": {"android": "https://dc.lft.to/lastmile_qr_scan", "ios": "https://dc.lft.to/lastmile_qr_scan"}, "lon": -76.98501533333334, "fusion_lat": 0.0}, {"name": "dcda29b11e4aeb6732bde74e615e6f65", "fusion_lon": 0.0, "lat": 38.89617033333333, "is_reserved": 0, "type": "electric_scooter", "bike_id": "dcda29b11e4aeb6732bde74e615e6f65", "is_disabled": 0, "rental_uris": {"android": "https://dc.lft.to/lastmile_qr_scan", "ios": "https://dc.lft.to/lastmile_qr_scan"}, "lon": -77.04595283333333, "fusion_lat": 0.0}, {"name": "7447aba4dfc0a9d384ec152f14bb89ec", "fusion_lon": 0.0, "lat": 39.0432255, "is_reserved": 0, "type": "electric_bike", "bike_id": "7447aba4dfc0a9d384ec152f14bb89ec", "is_disabled": 0, "rental_uris": {"android": "https://dc.lft.to/lastmile_qr_scan", "ios": "https://dc.lft.to/lastmile_qr_scan"}, "lon": -77.05153433333334, "fusion_lat": 0.0}, {"name": "54e9ec8d26f88b8b2164e11eb769c865", "fusion_lon": 0.0, "lat": 38.8824385, "is_reserved": 0, "type": "electric_bike", "bike_id": "54e9ec8d26f88b8b2164e11eb769c865", "is_disabled": 0, "rental_uris": {"android": "https://dc.lft.to/lastmile_qr_scan", "ios": "https://dc.lft.to/lastmile_qr_scan"}, "lon": -76.96261716666666, "fusion_lat": 0.0}, {"name": "622eebc76c2e4fc57ffe44214c04deeb", "fusion_lon": 0.0, "lat": 38.89221383333334, "is_reserved": 0, "type": "electric_scooter", "bike_id": "622eebc76c2e4fc57ffe44214c04deeb", "is_disabled": 0, "rental_uris": {"android": "https://dc.lft.to/lastmile_qr_scan", "ios": "https://dc.lft.to/lastmile_qr_scan"}, "lon": -77.04684516666667, "fusion_lat": 0.0}, {"name": "85af777a4b4b28c9058ff900c1571dcf", "fusion_lon": 0.0, "lat": 38.9250575, "is_reserved": 0, "type": "electric_scooter", "bike_id": "85af777a4b4b28c9058ff900c1571dcf", "is_disabled": 0, "rental_uris": {"android": "https://dc.lft.to/lastmile_qr_scan", "ios": "https://dc.lft.to/lastmile_qr_scan"}, "lon": -76.99567433333333, "fusion_lat": 0.0}, {"name": "bffb65cd4a7efa182f6e37fccb788d87", "fusion_lon": 0.0, "lat": 38.9199145, "is_reserved": 0, "type": "electric_scooter", "bike_id": "bffb65cd4a7efa182f6e37fccb788d87", "is_disabled": 0, "rental_uris": {"android": "https://dc.lft.to/lastmile_qr_scan", "ios": "https://dc.lft.to/lastmile_qr_scan"}, "lon": -77.04175416666666, "fusion_lat": 0.0}, {"name": "0e0423664dcfad56cb4f574211114ea0", "fusion_lon": 0.0, "lat": 38.92964966666667, "is_reserved": 0, "type": "electric_scooter", "bike_id": "0e0423664dcfad56cb4f574211114ea0", "is_disabled": 0, "rental_uris": {"android": "https://dc.lft.to/lastmile_qr_scan", "ios": "https://dc.lft.to/lastmile_qr_scan"}, "lon": -77.02334483333334, "fusion_lat": 0.0}, {"name": "2e197463219652b73512101ab52587ea", "fusion_lon": 0.0, "lat": 38.921626833333335, "is_reserved": 0, "type": "electric_scooter", "bike_id": "2e197463219652b73512101ab52587ea", "is_disabled": 0, "rental_uris": {"android": "https://dc.lft.to/lastmile_qr_scan", "ios": "https://dc.lft.to/lastmile_qr_scan"}, "lon": -77.032534, "fusion_lat": 0.0}, {"name": "3493b1c6d955ff13d5d9b87ccd809fd5", "fusion_lon": 0.0, "lat": 38.9153535, "is_reserved": 0, "type": "electric_scooter", "bike_id": "3493b1c6d955ff13d5d9b87ccd809fd5", "is_disabled": 0, "rental_uris": {"android": "https://dc.lft.to/lastmile_qr_scan", "ios": "https://dc.lft.to/lastmile_qr_scan"}, "lon": -76.970099, "fusion_lat": 0.0}, {"name": "193f955396a440b6698e77077b89aee0", "fusion_lon": 0.0, "lat": 38.900023833333336, "is_reserved": 0, "type": "electric_scooter", "bike_id": "193f955396a440b6698e77077b89aee0", "is_disabled": 0, "rental_uris": {"android": "https://dc.lft.to/lastmile_qr_scan", "ios": "https://dc.lft.to/lastmile_qr_scan"}, "lon": -76.99714616666667, "fusion_lat": 0.0}, {"name": "c582b3b601339a52cc401f2c1f2b9cc0", "fusion_lon": 0.0, "lat": 38.906737666666665, "is_reserved": 0, "type": "electric_scooter", "bike_id": "c582b3b601339a52cc401f2c1f2b9cc0", "is_disabled": 0, "rental_uris": {"android": "https://dc.lft.to/lastmile_qr_scan", "ios": "https://dc.lft.to/lastmile_qr_scan"}, "lon": -77.071202, "fusion_lat": 0.0}, {"name": "37dcc8f38e9c879fd616e6a0607c0d27", "fusion_lon": 0.0, "lat": 38.89352366666667, "is_reserved": 0, "type": "electric_scooter", "bike_id": "37dcc8f38e9c879fd616e6a0607c0d27", "is_disabled": 0, "rental_uris": {"android": "https://dc.lft.to/lastmile_qr_scan", "ios": "https://dc.lft.to/lastmile_qr_scan"}, "lon": -76.94935066666666, "fusion_lat": 0.0}, {"name": "dd95db5a31c9dbe835e8faf599cb2f46", "fusion_lon": 0.0, "lat": 38.894867833333336, "is_reserved": 0, "type": "electric_bike", "bike_id": "dd95db5a31c9dbe835e8faf599cb2f46", "is_disabled": 0, "rental_uris": {"android": "https://dc.lft.to/lastmile_qr_scan", "ios": "https://dc.lft.to/lastmile_qr_scan"}, "lon": -77.071131, "fusion_lat": 0.0}, {"name": "c6ab9be7ac1c02f1e02f7cba748d89ac", "fusion_lon": 0.0, "lat": 38.89713916666667, "is_reserved": 0, "type": "electric_scooter", "bike_id": "c6ab9be7ac1c02f1e02f7cba748d89ac", "is_disabled": 0, "rental_uris": {"android": "https://dc.lft.to/lastmile_qr_scan", "ios": "https://dc.lft.to/lastmile_qr_scan"}, "lon": -77.023879, "fusion_lat": 0.0}, {"name": "41c28662a7054cf6afecd1f0dee02d5a", "fusion_lon": 0.0, "lat": 38.914137, "is_reserved": 0, "type": "electric_scooter", "bike_id": "41c28662a7054cf6afecd1f0dee02d5a", "is_disabled": 0, "rental_uris": {"android": "https://dc.lft.to/lastmile_qr_scan", "ios": "https://dc.lft.to/lastmile_qr_scan"}, "lon": -77.03167666666667, "fusion_lat": 0.0}, {"name": "8855e9e737ebf95fce83d691a9447b62", "fusion_lon": 0.0, "lat": 38.9036755, "is_reserved": 0, "type": "electric_scooter", "bike_id": "8855e9e737ebf95fce83d691a9447b62", "is_disabled": 0, "rental_uris": {"android": "https://dc.lft.to/lastmile_qr_scan", "ios": "https://dc.lft.to/lastmile_qr_scan"}, "lon": -77.03980633333333, "fusion_lat": 0.0}, {"name": "031e5286345a0b0dab71c36c7ea60b60", "fusion_lon": 0.0, "lat": 38.90629633333333, "is_reserved": 0, "type": "electric_scooter", "bike_id": "031e5286345a0b0dab71c36c7ea60b60", "is_disabled": 0, "rental_uris": {"android": "https://dc.lft.to/lastmile_qr_scan", "ios": "https://dc.lft.to/lastmile_qr_scan"}, "lon": -77.04136566666666, "fusion_lat": 0.0}, {"name": "4f0c886fd52791a3eacd5d5f0a33102c", "fusion_lon": 0.0, "lat": 38.915539333333335, "is_reserved": 0, "type": "electric_scooter", "bike_id": "4f0c886fd52791a3eacd5d5f0a33102c", "is_disabled": 0, "rental_uris": {"android": "https://dc.lft.to/lastmile_qr_scan", "ios": "https://dc.lft.to/lastmile_qr_scan"}, "lon": -77.0417665, "fusion_lat": 0.0}, {"name": "a8a141e64cad8943c57ebd1686ad39b3", "fusion_lon": 0.0, "lat": 38.957291, "is_reserved": 0, "type": "electric_scooter", "bike_id": "a8a141e64cad8943c57ebd1686ad39b3", "is_disabled": 0, "rental_uris": {"android": "https://dc.lft.to/lastmile_qr_scan", "ios": "https://dc.lft.to/lastmile_qr_scan"}, "lon": -77.02405133333333, "fusion_lat": 0.0}, {"name": "4229aba128a466fbe00ca1df8a39c079", "fusion_lon": 0.0, "lat": 38.90125233333333, "is_reserved": 0, "type": "electric_scooter", "bike_id": "4229aba128a466fbe00ca1df8a39c079", "is_disabled": 0, "rental_uris": {"android": "https://dc.lft.to/lastmile_qr_scan", "ios": "https://dc.lft.to/lastmile_qr_scan"}, "lon": -77.05004016666666, "fusion_lat": 0.0}, {"name": "e612fd50c53716cf5556a57097f555ea", "fusion_lon": 0.0, "lat": 38.90717333333333, "is_reserved": 0, "type": "electric_scooter", "bike_id": "e612fd50c53716cf5556a57097f555ea", "is_disabled": 0, "rental_uris": {"android": "https://dc.lft.to/lastmile_qr_scan", "ios": "https://dc.lft.to/lastmile_qr_scan"}, "lon": -77.07609383333333, "fusion_lat": 0.0}, {"name": "a946d16e9a21f304be5da91e7fb5f9ea", "fusion_lon": 0.0, "lat": 38.9117225, "is_reserved": 0, "type": "electric_scooter", "bike_id": "a946d16e9a21f304be5da91e7fb5f9ea", "is_disabled": 0, "rental_uris": {"android": "https://dc.lft.to/lastmile_qr_scan", "ios": "https://dc.lft.to/lastmile_qr_scan"}, "lon": -77.03842316666666, "fusion_lat": 0.0}, {"name": "0f82fc79c898f79b8a34b5291516f42f", "fusion_lon": 0.0, "lat": 38.92329733333333, "is_reserved": 0, "type": "electric_scooter", "bike_id": "0f82fc79c898f79b8a34b5291516f42f", "is_disabled": 0, "rental_uris": {"android": "https://dc.lft.to/lastmile_qr_scan", "ios": "https://dc.lft.to/lastmile_qr_scan"}, "lon": -77.043047, "fusion_lat": 0.0}, {"name": "07dbc87ceffb4484c65aba955ad24f08", "fusion_lon": 0.0, "lat": 38.919819, "is_reserved": 0, "type": "electric_scooter", "bike_id": "07dbc87ceffb4484c65aba955ad24f08", "is_disabled": 0, "rental_uris": {"android": "https://dc.lft.to/lastmile_qr_scan", "ios": "https://dc.lft.to/lastmile_qr_scan"}, "lon": -77.04164316666666, "fusion_lat": 0.0}, {"name": "0262afca2e65992da189ba51473746ed", "fusion_lon": 0.0, "lat": 38.90409483333333, "is_reserved": 0, "type": "electric_scooter", "bike_id": "0262afca2e65992da189ba51473746ed", "is_disabled": 0, "rental_uris": {"android": "https://dc.lft.to/lastmile_qr_scan", "ios": "https://dc.lft.to/lastmile_qr_scan"}, "lon": -76.97331433333333, "fusion_lat": 0.0}, {"name": "641a7d78d056d0e24335fcacde69ef80", "fusion_lon": 0.0, "lat": 38.88250333333333, "is_reserved": 0, "type": "electric_scooter", "bike_id": "641a7d78d056d0e24335fcacde69ef80", "is_disabled": 0, "rental_uris": {"android": "https://dc.lft.to/lastmile_qr_scan", "ios": "https://dc.lft.to/lastmile_qr_scan"}, "lon": -76.99115416666666, "fusion_lat": 0.0}, {"name": "71250d1d13c729d4e2107e6ceccb5d5b", "fusion_lon": 0.0, "lat": 38.896144166666666, "is_reserved": 0, "type": "electric_scooter", "bike_id": "71250d1d13c729d4e2107e6ceccb5d5b", "is_disabled": 0, "rental_uris": {"android": "https://dc.lft.to/lastmile_qr_scan", "ios": "https://dc.lft.to/lastmile_qr_scan"}, "lon": -77.04557216666667, "fusion_lat": 0.0}, {"name": "77a540384a768ace3ce167b68c28c71a", "fusion_lon": 0.0, "lat": 38.9251235, "is_reserved": 0, "type": "electric_scooter", "bike_id": "77a540384a768ace3ce167b68c28c71a", "is_disabled": 0, "rental_uris": {"android": "https://dc.lft.to/lastmile_qr_scan", "ios": "https://dc.lft.to/lastmile_qr_scan"}, "lon": -77.038853, "fusion_lat": 0.0}, {"name": "f540d32b0feb852c634902045eb09afa", "fusion_lon": 0.0, "lat": 38.9187045, "is_reserved": 0, "type": "electric_scooter", "bike_id": "f540d32b0feb852c634902045eb09afa", "is_disabled": 0, "rental_uris": {"android": "https://dc.lft.to/lastmile_qr_scan", "ios": "https://dc.lft.to/lastmile_qr_scan"}, "lon": -77.047604, "fusion_lat": 0.0}, {"name": "84641a935c14a502ae91de4a7167af38", "fusion_lon": 0.0, "lat": 38.9221895, "is_reserved": 0, "type": "electric_scooter", "bike_id": "84641a935c14a502ae91de4a7167af38", "is_disabled": 0, "rental_uris": {"android": "https://dc.lft.to/lastmile_qr_scan", "ios": "https://dc.lft.to/lastmile_qr_scan"}, "lon": -77.03457416666667, "fusion_lat": 0.0}, {"name": "6b848e623405d895b7c87144f6cd3f59", "fusion_lon": 0.0, "lat": 38.8070695, "is_reserved": 0, "type": "electric_bike", "bike_id": "6b848e623405d895b7c87144f6cd3f59", "is_disabled": 0, "rental_uris": {"android": "https://dc.lft.to/lastmile_qr_scan", "ios": "https://dc.lft.to/lastmile_qr_scan"}, "lon": -77.06174516666667, "fusion_lat": 0.0}, {"name": "2fda715d83c93171b84fa7b9ac42645d", "fusion_lon": 0.0, "lat": 38.88477116666667, "is_reserved": 0, "type": "electric_scooter", "bike_id": "2fda715d83c93171b84fa7b9ac42645d", "is_disabled": 0, "rental_uris": {"android": "https://dc.lft.to/lastmile_qr_scan", "ios": "https://dc.lft.to/lastmile_qr_scan"}, "lon": -77.03205116666666, "fusion_lat": 0.0}, {"name": "7e772a31dabd13bafe90cd915cb16da5", "fusion_lon": 0.0, "lat": 38.92846083333333, "is_reserved": 0, "type": "electric_scooter", "bike_id": "7e772a31dabd13bafe90cd915cb16da5", "is_disabled": 0, "rental_uris": {"android": "https://dc.lft.to/lastmile_qr_scan", "ios": "https://dc.lft.to/lastmile_qr_scan"}, "lon": -77.01407566666667, "fusion_lat": 0.0}, {"name": "f8f1f251353603c5fbc93d7060bf8d8d", "fusion_lon": 0.0, "lat": 38.863844, "is_reserved": 0, "type": "electric_scooter", "bike_id": "f8f1f251353603c5fbc93d7060bf8d8d", "is_disabled": 0, "rental_uris": {"android": "https://dc.lft.to/lastmile_qr_scan", "ios": "https://dc.lft.to/lastmile_qr_scan"}, "lon": -76.99039816666667, "fusion_lat": 0.0}, {"name": "625ee34e0b6423e1e69a72478efe69a1", "fusion_lon": 0.0, "lat": 38.886163333333336, "is_reserved": 0, "type": "electric_scooter", "bike_id": "625ee34e0b6423e1e69a72478efe69a1", "is_disabled": 0, "rental_uris": {"android": "https://dc.lft.to/lastmile_qr_scan", "ios": "https://dc.lft.to/lastmile_qr_scan"}, "lon": -76.95579483333333, "fusion_lat": 0.0}, {"name": "f5a524d85ea1b743a6cd98122e2b0ca8", "fusion_lon": 0.0, "lat": 38.90381466666667, "is_reserved": 0, "type": "electric_scooter", "bike_id": "f5a524d85ea1b743a6cd98122e2b0ca8", "is_disabled": 0, "rental_uris": {"android": "https://dc.lft.to/lastmile_qr_scan", "ios": "https://dc.lft.to/lastmile_qr_scan"}, "lon": -77.0337895, "fusion_lat": 0.0}, {"name": "c6ce363d4425568ce21dd5dac7b7b027", "fusion_lon": 0.0, "lat": 38.9172825, "is_reserved": 0, "type": "electric_scooter", "bike_id": "c6ce363d4425568ce21dd5dac7b7b027", "is_disabled": 0, "rental_uris": {"android": "https://dc.lft.to/lastmile_qr_scan", "ios": "https://dc.lft.to/lastmile_qr_scan"}, "lon": -77.03660866666667, "fusion_lat": 0.0}, {"name": "ed6cc12bf81436b7d82d2acab25eb11c", "fusion_lon": 0.0, "lat": 38.89458316666666, "is_reserved": 0, "type": "electric_scooter", "bike_id": "ed6cc12bf81436b7d82d2acab25eb11c", "is_disabled": 0, "rental_uris": {"android": "https://dc.lft.to/lastmile_qr_scan", "ios": "https://dc.lft.to/lastmile_qr_scan"}, "lon": -77.02257183333333, "fusion_lat": 0.0}, {"name": "6ad7de9bdf506cb07ee5d4b3148938b9", "fusion_lon": 0.0, "lat": 38.90013116666667, "is_reserved": 0, "type": "electric_scooter", "bike_id": "6ad7de9bdf506cb07ee5d4b3148938b9", "is_disabled": 0, "rental_uris": {"android": "https://dc.lft.to/lastmile_qr_scan", "ios": "https://dc.lft.to/lastmile_qr_scan"}, "lon": -77.04486516666667, "fusion_lat": 0.0}, {"name": "1984e00f6a1149b600a7c2dc6d03e383", "fusion_lon": 0.0, "lat": 38.9243545, "is_reserved": 0, "type": "electric_scooter", "bike_id": "1984e00f6a1149b600a7c2dc6d03e383", "is_disabled": 0, "rental_uris": {"android": "https://dc.lft.to/lastmile_qr_scan", "ios": "https://dc.lft.to/lastmile_qr_scan"}, "lon": -77.05205966666666, "fusion_lat": 0.0}, {"name": "3ac9ff780c25798aae85c17a9de5658e", "fusion_lon": 0.0, "lat": 38.90324, "is_reserved": 0, "type": "electric_scooter", "bike_id": "3ac9ff780c25798aae85c17a9de5658e", "is_disabled": 0, "rental_uris": {"android": "https://dc.lft.to/lastmile_qr_scan", "ios": "https://dc.lft.to/lastmile_qr_scan"}, "lon": -76.97550483333333, "fusion_lat": 0.0}, {"name": "62e325741681bca37efc6cd69b5fbf84", "fusion_lon": 0.0, "lat": 38.88744033333333, "is_reserved": 0, "type": "electric_scooter", "bike_id": "62e325741681bca37efc6cd69b5fbf84", "is_disabled": 0, "rental_uris": {"android": "https://dc.lft.to/lastmile_qr_scan", "ios": "https://dc.lft.to/lastmile_qr_scan"}, "lon": -77.0272705, "fusion_lat": 0.0}, {"name": "479ce32729e14aaf28630c30f41563a3", "fusion_lon": 0.0, "lat": 38.80909483333333, "is_reserved": 0, "type": "electric_bike", "bike_id": "479ce32729e14aaf28630c30f41563a3", "is_disabled": 0, "rental_uris": {"android": "https://dc.lft.to/lastmile_qr_scan", "ios": "https://dc.lft.to/lastmile_qr_scan"}, "lon": -77.08662833333334, "fusion_lat": 0.0}, {"name": "ee8775c7bb72884700a20062105764f1", "fusion_lon": 0.0, "lat": 38.898577, "is_reserved": 0, "type": "electric_scooter", "bike_id": "ee8775c7bb72884700a20062105764f1", "is_disabled": 0, "rental_uris": {"android": "https://dc.lft.to/lastmile_qr_scan", "ios": "https://dc.lft.to/lastmile_qr_scan"}, "lon": -76.98172866666667, "fusion_lat": 0.0}, {"name": "d98dd4a6e2972747374531c5318742c3", "fusion_lon": 0.0, "lat": 38.9112815, "is_reserved": 0, "type": "electric_scooter", "bike_id": "d98dd4a6e2972747374531c5318742c3", "is_disabled": 0, "rental_uris": {"android": "https://dc.lft.to/lastmile_qr_scan", "ios": "https://dc.lft.to/lastmile_qr_scan"}, "lon": -77.04426766666667, "fusion_lat": 0.0}, {"name": "d8c0fd3ba322a4b427ffc23a3fdecd75", "fusion_lon": 0.0, "lat": 38.86513083333333, "is_reserved": 0, "type": "electric_scooter", "bike_id": "d8c0fd3ba322a4b427ffc23a3fdecd75", "is_disabled": 0, "rental_uris": {"android": "https://dc.lft.to/lastmile_qr_scan", "ios": "https://dc.lft.to/lastmile_qr_scan"}, "lon": -76.99019233333334, "fusion_lat": 0.0}, {"name": "2ddf37e0579da9c5d56f360995afe35c", "fusion_lon": 0.0, "lat": 38.9234485, "is_reserved": 0, "type": "electric_scooter", "bike_id": "2ddf37e0579da9c5d56f360995afe35c", "is_disabled": 0, "rental_uris": {"android": "https://dc.lft.to/lastmile_qr_scan", "ios": "https://dc.lft.to/lastmile_qr_scan"}, "lon": -77.05082316666666, "fusion_lat": 0.0}, {"name": "c1397b9d86519675e6d535bb20505d8b", "fusion_lon": 0.0, "lat": 38.8717645, "is_reserved": 0, "type": "electric_scooter", "bike_id": "c1397b9d86519675e6d535bb20505d8b", "is_disabled": 0, "rental_uris": {"android": "https://dc.lft.to/lastmile_qr_scan", "ios": "https://dc.lft.to/lastmile_qr_scan"}, "lon": -77.0061355, "fusion_lat": 0.0}, {"name": "55eb663ccce6f388d14882b994bb690e", "fusion_lon": 0.0, "lat": 38.921162333333335, "is_reserved": 0, "type": "electric_scooter", "bike_id": "55eb663ccce6f388d14882b994bb690e", "is_disabled": 0, "rental_uris": {"android": "https://dc.lft.to/lastmile_qr_scan", "ios": "https://dc.lft.to/lastmile_qr_scan"}, "lon": -77.0437125, "fusion_lat": 0.0}, {"name": "b448fecfc3267d10c1a3be7568c2dcce", "fusion_lon": 0.0, "lat": 38.9297155, "is_reserved": 0, "type": "electric_scooter", "bike_id": "b448fecfc3267d10c1a3be7568c2dcce", "is_disabled": 0, "rental_uris": {"android": "https://dc.lft.to/lastmile_qr_scan", "ios": "https://dc.lft.to/lastmile_qr_scan"}, "lon": -77.02947566666667, "fusion_lat": 0.0}, {"name": "3790da3e8105046a0638f22b861fc025", "fusion_lon": 0.0, "lat": 38.83814383333333, "is_reserved": 0, "type": "electric_bike", "bike_id": "3790da3e8105046a0638f22b861fc025", "is_disabled": 0, "rental_uris": {"android": "https://dc.lft.to/lastmile_qr_scan", "ios": "https://dc.lft.to/lastmile_qr_scan"}, "lon": -77.09519283333333, "fusion_lat": 0.0}, {"name": "a02f38311eb76212b8be36e820ea728f", "fusion_lon": 0.0, "lat": 38.85775133333333, "is_reserved": 0, "type": "electric_bike", "bike_id": "a02f38311eb76212b8be36e820ea728f", "is_disabled": 0, "rental_uris": {"android": "https://dc.lft.to/lastmile_qr_scan", "ios": "https://dc.lft.to/lastmile_qr_scan"}, "lon": -76.98772383333333, "fusion_lat": 0.0}, {"name": "6fda5c4867a48f251a3cf930d5ba415a", "fusion_lon": 0.0, "lat": 38.893448166666666, "is_reserved": 0, "type": "electric_scooter", "bike_id": "6fda5c4867a48f251a3cf930d5ba415a", "is_disabled": 0, "rental_uris": {"android": "https://dc.lft.to/lastmile_qr_scan", "ios": "https://dc.lft.to/lastmile_qr_scan"}, "lon": -77.01718283333334, "fusion_lat": 0.0}, {"name": "2aa99726ffd87ced2f120eddab41f547", "fusion_lon": 0.0, "lat": 38.9126665, "is_reserved": 0, "type": "electric_scooter", "bike_id": "2aa99726ffd87ced2f120eddab41f547", "is_disabled": 0, "rental_uris": {"android": "https://dc.lft.to/lastmile_qr_scan", "ios": "https://dc.lft.to/lastmile_qr_scan"}, "lon": -77.03295116666666, "fusion_lat": 0.0}, {"name": "505e2f027b536efe96418513d776d792", "fusion_lon": 0.0, "lat": 38.89893883333333, "is_reserved": 0, "type": "electric_scooter", "bike_id": "505e2f027b536efe96418513d776d792", "is_disabled": 0, "rental_uris": {"android": "https://dc.lft.to/lastmile_qr_scan", "ios": "https://dc.lft.to/lastmile_qr_scan"}, "lon": -76.97708416666667, "fusion_lat": 0.0}, {"name": "97a49b0b766785d2acbcd3a58a9127b8", "fusion_lon": 0.0, "lat": 38.95529466666667, "is_reserved": 0, "type": "electric_scooter", "bike_id": "97a49b0b766785d2acbcd3a58a9127b8", "is_disabled": 0, "rental_uris": {"android": "https://dc.lft.to/lastmile_qr_scan", "ios": "https://dc.lft.to/lastmile_qr_scan"}, "lon": -77.02777283333333, "fusion_lat": 0.0}, {"name": "9dffdc79d349a3b195771ed1ee05cd19", "fusion_lon": 0.0, "lat": 38.90800333333333, "is_reserved": 0, "type": "electric_scooter", "bike_id": "9dffdc79d349a3b195771ed1ee05cd19", "is_disabled": 0, "rental_uris": {"android": "https://dc.lft.to/lastmile_qr_scan", "ios": "https://dc.lft.to/lastmile_qr_scan"}, "lon": -77.0365445, "fusion_lat": 0.0}, {"name": "880dc4d31e0cc6a9f0af88823566491f", "fusion_lon": 0.0, "lat": 38.91257616666667, "is_reserved": 0, "type": "electric_scooter", "bike_id": "880dc4d31e0cc6a9f0af88823566491f", "is_disabled": 0, "rental_uris": {"android": "https://dc.lft.to/lastmile_qr_scan", "ios": "https://dc.lft.to/lastmile_qr_scan"}, "lon": -77.0385405, "fusion_lat": 0.0}, {"name": "956e8f4dcd48ddaf12f1048304c08b6d", "fusion_lon": 0.0, "lat": 38.927752166666664, "is_reserved": 0, "type": "electric_scooter", "bike_id": "956e8f4dcd48ddaf12f1048304c08b6d", "is_disabled": 0, "rental_uris": {"android": "https://dc.lft.to/lastmile_qr_scan", "ios": "https://dc.lft.to/lastmile_qr_scan"}, "lon": -77.03059266666666, "fusion_lat": 0.0}, {"name": "74cb41d97ff225bc5afbe390304699b3", "fusion_lon": 0.0, "lat": 38.90313916666667, "is_reserved": 0, "type": "electric_scooter", "bike_id": "74cb41d97ff225bc5afbe390304699b3", "is_disabled": 0, "rental_uris": {"android": "https://dc.lft.to/lastmile_qr_scan", "ios": "https://dc.lft.to/lastmile_qr_scan"}, "lon": -76.9780165, "fusion_lat": 0.0}, {"name": "78491fa2bc953ccdc0db8daccfd68971", "fusion_lon": 0.0, "lat": 38.889098833333335, "is_reserved": 0, "type": "electric_scooter", "bike_id": "78491fa2bc953ccdc0db8daccfd68971", "is_disabled": 0, "rental_uris": {"android": "https://dc.lft.to/lastmile_qr_scan", "ios": "https://dc.lft.to/lastmile_qr_scan"}, "lon": -77.052193, "fusion_lat": 0.0}, {"name": "ea3508d3f0265b590b0f17f423d0d6e9", "fusion_lon": 0.0, "lat": 38.868805, "is_reserved": 0, "type": "electric_bike", "bike_id": "ea3508d3f0265b590b0f17f423d0d6e9", "is_disabled": 0, "rental_uris": {"android": "https://dc.lft.to/lastmile_qr_scan", "ios": "https://dc.lft.to/lastmile_qr_scan"}, "lon": -76.957765, "fusion_lat": 0.0}, {"name": "8f0cd5d365f036b0143d9093e1e41ac0", "fusion_lon": 0.0, "lat": 38.913353666666666, "is_reserved": 0, "type": "electric_scooter", "bike_id": "8f0cd5d365f036b0143d9093e1e41ac0", "is_disabled": 0, "rental_uris": {"android": "https://dc.lft.to/lastmile_qr_scan", "ios": "https://dc.lft.to/lastmile_qr_scan"}, "lon": -77.04226066666666, "fusion_lat": 0.0}, {"name": "788ffdcba9814e761639b22072bf78c7", "fusion_lon": 0.0, "lat": 38.90611533333333, "is_reserved": 0, "type": "electric_scooter", "bike_id": "788ffdcba9814e761639b22072bf78c7", "is_disabled": 0, "rental_uris": {"android": "https://dc.lft.to/lastmile_qr_scan", "ios": "https://dc.lft.to/lastmile_qr_scan"}, "lon": -76.9927375, "fusion_lat": 0.0}, {"name": "4341d1bee00350cda7a8a21602cd0b47", "fusion_lon": 0.0, "lat": 38.90034, "is_reserved": 0, "type": "electric_bike", "bike_id": "4341d1bee00350cda7a8a21602cd0b47", "is_disabled": 0, "rental_uris": {"android": "https://dc.lft.to/lastmile_qr_scan", "ios": "https://dc.lft.to/lastmile_qr_scan"}, "lon": -76.972255, "fusion_lat": 0.0}, {"name": "0d6c7eb0341b324a9828a14b455604be", "fusion_lon": 0.0, "lat": 38.858951166666664, "is_reserved": 0, "type": "electric_bike", "bike_id": "0d6c7eb0341b324a9828a14b455604be", "is_disabled": 0, "rental_uris": {"android": "https://dc.lft.to/lastmile_qr_scan", "ios": "https://dc.lft.to/lastmile_qr_scan"}, "lon": -77.11865583333334, "fusion_lat": 0.0}, {"name": "7c331f46b18e451baa015064d86c407d", "fusion_lon": 0.0, "lat": 38.909724, "is_reserved": 0, "type": "electric_scooter", "bike_id": "7c331f46b18e451baa015064d86c407d", "is_disabled": 0, "rental_uris": {"android": "https://dc.lft.to/lastmile_qr_scan", "ios": "https://dc.lft.to/lastmile_qr_scan"}, "lon": -77.04866966666667, "fusion_lat": 0.0}, {"name": "4e098e230893aefd64ca55ff7c3f861b", "fusion_lon": 0.0, "lat": 38.94510233333333, "is_reserved": 0, "type": "electric_scooter", "bike_id": "4e098e230893aefd64ca55ff7c3f861b", "is_disabled": 0, "rental_uris": {"android": "https://dc.lft.to/lastmile_qr_scan", "ios": "https://dc.lft.to/lastmile_qr_scan"}, "lon": -77.033196, "fusion_lat": 0.0}, {"name": "33982c6e8963889ebe9d3d49001423cb", "fusion_lon": 0.0, "lat": 38.90380416666667, "is_reserved": 0, "type": "electric_scooter", "bike_id": "33982c6e8963889ebe9d3d49001423cb", "is_disabled": 0, "rental_uris": {"android": "https://dc.lft.to/lastmile_qr_scan", "ios": "https://dc.lft.to/lastmile_qr_scan"}, "lon": -77.03633616666667, "fusion_lat": 0.0}, {"name": "dd5c68379d6489b8fc4a82b98d176b68", "fusion_lon": 0.0, "lat": 38.88458833333333, "is_reserved": 0, "type": "electric_scooter", "bike_id": "dd5c68379d6489b8fc4a82b98d176b68", "is_disabled": 0, "rental_uris": {"android": "https://dc.lft.to/lastmile_qr_scan", "ios": "https://dc.lft.to/lastmile_qr_scan"}, "lon": -76.95749133333334, "fusion_lat": 0.0}, {"name": "bdde60a6a7d06b024717334a02e18de5", "fusion_lon": 0.0, "lat": 38.919132, "is_reserved": 0, "type": "electric_scooter", "bike_id": "bdde60a6a7d06b024717334a02e18de5", "is_disabled": 0, "rental_uris": {"android": "https://dc.lft.to/lastmile_qr_scan", "ios": "https://dc.lft.to/lastmile_qr_scan"}, "lon": -77.00989783333333, "fusion_lat": 0.0}, {"name": "f64af2d1bc715be7a03e63bce843eb34", "fusion_lon": 0.0, "lat": 38.90731666666667, "is_reserved": 0, "type": "electric_scooter", "bike_id": "f64af2d1bc715be7a03e63bce843eb34", "is_disabled": 0, "rental_uris": {"android": "https://dc.lft.to/lastmile_qr_scan", "ios": "https://dc.lft.to/lastmile_qr_scan"}, "lon": -77.01135966666666, "fusion_lat": 0.0}, {"name": "3f8553f1843c224570cab93aa6fdb19d", "fusion_lon": 0.0, "lat": 38.90862466666667, "is_reserved": 0, "type": "electric_scooter", "bike_id": "3f8553f1843c224570cab93aa6fdb19d", "is_disabled": 0, "rental_uris": {"android": "https://dc.lft.to/lastmile_qr_scan", "ios": "https://dc.lft.to/lastmile_qr_scan"}, "lon": -77.02418166666666, "fusion_lat": 0.0}, {"name": "798230c9e6f3a90bd79f77489637d980", "fusion_lon": 0.0, "lat": 38.9094185, "is_reserved": 0, "type": "electric_scooter", "bike_id": "798230c9e6f3a90bd79f77489637d980", "is_disabled": 0, "rental_uris": {"android": "https://dc.lft.to/lastmile_qr_scan", "ios": "https://dc.lft.to/lastmile_qr_scan"}, "lon": -77.04252533333333, "fusion_lat": 0.0}, {"name": "9606d139d8a928f4841135d6faba4ff2", "fusion_lon": 0.0, "lat": 38.922287, "is_reserved": 0, "type": "electric_scooter", "bike_id": "9606d139d8a928f4841135d6faba4ff2", "is_disabled": 0, "rental_uris": {"android": "https://dc.lft.to/lastmile_qr_scan", "ios": "https://dc.lft.to/lastmile_qr_scan"}, "lon": -77.02974283333333, "fusion_lat": 0.0}, {"name": "9cce06da57e2c10d6761bd763303c542", "fusion_lon": 0.0, "lat": 38.924240833333336, "is_reserved": 0, "type": "electric_scooter", "bike_id": "9cce06da57e2c10d6761bd763303c542", "is_disabled": 0, "rental_uris": {"android": "https://dc.lft.to/lastmile_qr_scan", "ios": "https://dc.lft.to/lastmile_qr_scan"}, "lon": -77.02013366666667, "fusion_lat": 0.0}, {"name": "ceddd9da407de41270e79b2c1c53f8b0", "fusion_lon": 0.0, "lat": 38.900696333333336, "is_reserved": 0, "type": "electric_scooter", "bike_id": "ceddd9da407de41270e79b2c1c53f8b0", "is_disabled": 0, "rental_uris": {"android": "https://dc.lft.to/lastmile_qr_scan", "ios": "https://dc.lft.to/lastmile_qr_scan"}, "lon": -77.03069083333334, "fusion_lat": 0.0}, {"name": "c558bc9b5bdcdc4d9addedebf85a8936", "fusion_lon": 0.0, "lat": 38.913198333333334, "is_reserved": 0, "type": "electric_scooter", "bike_id": "c558bc9b5bdcdc4d9addedebf85a8936", "is_disabled": 0, "rental_uris": {"android": "https://dc.lft.to/lastmile_qr_scan", "ios": "https://dc.lft.to/lastmile_qr_scan"}, "lon": -76.9849055, "fusion_lat": 0.0}, {"name": "e757c44abbb9e70b35c50c75922bc914", "fusion_lon": 0.0, "lat": 38.92492716666667, "is_reserved": 0, "type": "electric_scooter", "bike_id": "e757c44abbb9e70b35c50c75922bc914", "is_disabled": 0, "rental_uris": {"android": "https://dc.lft.to/lastmile_qr_scan", "ios": "https://dc.lft.to/lastmile_qr_scan"}, "lon": -77.05246783333334, "fusion_lat": 0.0}, {"name": "7acd7b3f3c4a0d6aae2d6158092d4408", "fusion_lon": 0.0, "lat": 38.924445166666665, "is_reserved": 0, "type": "electric_bike", "bike_id": "7acd7b3f3c4a0d6aae2d6158092d4408", "is_disabled": 0, "rental_uris": {"android": "https://dc.lft.to/lastmile_qr_scan", "ios": "https://dc.lft.to/lastmile_qr_scan"}, "lon": -77.2256885, "fusion_lat": 0.0}, {"name": "8f82751b7c503a2d4a9166fd25235c6d", "fusion_lon": 0.0, "lat": 38.928758, "is_reserved": 0, "type": "electric_scooter", "bike_id": "8f82751b7c503a2d4a9166fd25235c6d", "is_disabled": 0, "rental_uris": {"android": "https://dc.lft.to/lastmile_qr_scan", "ios": "https://dc.lft.to/lastmile_qr_scan"}, "lon": -77.03734533333333, "fusion_lat": 0.0}, {"name": "136ddfcd06016b0656b3b5c592dedd2e", "fusion_lon": 0.0, "lat": 38.91564416666667, "is_reserved": 0, "type": "electric_scooter", "bike_id": "136ddfcd06016b0656b3b5c592dedd2e", "is_disabled": 0, "rental_uris": {"android": "https://dc.lft.to/lastmile_qr_scan", "ios": "https://dc.lft.to/lastmile_qr_scan"}, "lon": -77.03169533333333, "fusion_lat": 0.0}, {"name": "aa2ba5f5d2814f5063dc8c96358cb54d", "fusion_lon": 0.0, "lat": 38.87450316666666, "is_reserved": 0, "type": "electric_scooter", "bike_id": "aa2ba5f5d2814f5063dc8c96358cb54d", "is_disabled": 0, "rental_uris": {"android": "https://dc.lft.to/lastmile_qr_scan", "ios": "https://dc.lft.to/lastmile_qr_scan"}, "lon": -77.00298833333333, "fusion_lat": 0.0}, {"name": "ef1907daa88678f7012c2a47b5ae4857", "fusion_lon": 0.0, "lat": 38.90817366666667, "is_reserved": 0, "type": "electric_scooter", "bike_id": "ef1907daa88678f7012c2a47b5ae4857", "is_disabled": 0, "rental_uris": {"android": "https://dc.lft.to/lastmile_qr_scan", "ios": "https://dc.lft.to/lastmile_qr_scan"}, "lon": -77.04330666666667, "fusion_lat": 0.0}, {"name": "e3e69a8646c898a8905b441c29692246", "fusion_lon": 0.0, "lat": 38.8813635, "is_reserved": 0, "type": "electric_scooter", "bike_id": "e3e69a8646c898a8905b441c29692246", "is_disabled": 0, "rental_uris": {"android": "https://dc.lft.to/lastmile_qr_scan", "ios": "https://dc.lft.to/lastmile_qr_scan"}, "lon": -77.01335316666666, "fusion_lat": 0.0}, {"name": "d635f98c1c68d239432992e6d3d07a48", "fusion_lon": 0.0, "lat": 38.88738683333333, "is_reserved": 0, "type": "electric_scooter", "bike_id": "d635f98c1c68d239432992e6d3d07a48", "is_disabled": 0, "rental_uris": {"android": "https://dc.lft.to/lastmile_qr_scan", "ios": "https://dc.lft.to/lastmile_qr_scan"}, "lon": -77.01534283333334, "fusion_lat": 0.0}, {"name": "73616cd1e332d6b727e5a39ab888f78f", "fusion_lon": 0.0, "lat": 38.923441, "is_reserved": 0, "type": "electric_scooter", "bike_id": "73616cd1e332d6b727e5a39ab888f78f", "is_disabled": 0, "rental_uris": {"android": "https://dc.lft.to/lastmile_qr_scan", "ios": "https://dc.lft.to/lastmile_qr_scan"}, "lon": -77.0508105, "fusion_lat": 0.0}, {"name": "967eac16a3a90c07082e42631904e913", "fusion_lon": 0.0, "lat": 38.92419833333334, "is_reserved": 0, "type": "electric_scooter", "bike_id": "967eac16a3a90c07082e42631904e913", "is_disabled": 0, "rental_uris": {"android": "https://dc.lft.to/lastmile_qr_scan", "ios": "https://dc.lft.to/lastmile_qr_scan"}, "lon": -77.05061833333333, "fusion_lat": 0.0}, {"name": "648e7a5e6f61eca0752fdfa6575421a4", "fusion_lon": 0.0, "lat": 38.983660666666665, "is_reserved": 0, "type": "electric_bike", "bike_id": "648e7a5e6f61eca0752fdfa6575421a4", "is_disabled": 0, "rental_uris": {"android": "https://dc.lft.to/lastmile_qr_scan", "ios": "https://dc.lft.to/lastmile_qr_scan"}, "lon": -76.97217766666667, "fusion_lat": 0.0}, {"name": "8a424640c164f64eebe2166f098f4f4b", "fusion_lon": 0.0, "lat": 38.9174505, "is_reserved": 0, "type": "electric_scooter", "bike_id": "8a424640c164f64eebe2166f098f4f4b", "is_disabled": 0, "rental_uris": {"android": "https://dc.lft.to/lastmile_qr_scan", "ios": "https://dc.lft.to/lastmile_qr_scan"}, "lon": -77.01467616666666, "fusion_lat": 0.0}, {"name": "32ab7726046e3c437e77b6bd2dbe85f4", "fusion_lon": 0.0, "lat": 38.86243, "is_reserved": 0, "type": "electric_scooter", "bike_id": "32ab7726046e3c437e77b6bd2dbe85f4", "is_disabled": 0, "rental_uris": {"android": "https://dc.lft.to/lastmile_qr_scan", "ios": "https://dc.lft.to/lastmile_qr_scan"}, "lon": -76.994964, "fusion_lat": 0.0}, {"name": "2523acc5533fde988324e63436b9f28d", "fusion_lon": 0.0, "lat": 38.93667516666667, "is_reserved": 0, "type": "electric_scooter", "bike_id": "2523acc5533fde988324e63436b9f28d", "is_disabled": 0, "rental_uris": {"android": "https://dc.lft.to/lastmile_qr_scan", "ios": "https://dc.lft.to/lastmile_qr_scan"}, "lon": -77.03566433333333, "fusion_lat": 0.0}, {"name": "c9e39969b01b25d42ee859070bad041d", "fusion_lon": 0.0, "lat": 38.902559833333335, "is_reserved": 0, "type": "electric_scooter", "bike_id": "c9e39969b01b25d42ee859070bad041d", "is_disabled": 0, "rental_uris": {"android": "https://dc.lft.to/lastmile_qr_scan", "ios": "https://dc.lft.to/lastmile_qr_scan"}, "lon": -77.04381033333334, "fusion_lat": 0.0}, {"name": "036be7871a596e8e5b3bb9fb07cecf0a", "fusion_lon": 0.0, "lat": 38.957485, "is_reserved": 0, "type": "electric_scooter", "bike_id": "036be7871a596e8e5b3bb9fb07cecf0a", "is_disabled": 0, "rental_uris": {"android": "https://dc.lft.to/lastmile_qr_scan", "ios": "https://dc.lft.to/lastmile_qr_scan"}, "lon": -77.02058433333333, "fusion_lat": 0.0}, {"name": "cddf5f5ee5cb46c92536da8b95f81bf0", "fusion_lon": 0.0, "lat": 38.831458, "is_reserved": 0, "type": "electric_scooter", "bike_id": "cddf5f5ee5cb46c92536da8b95f81bf0", "is_disabled": 0, "rental_uris": {"android": "https://dc.lft.to/lastmile_qr_scan", "ios": "https://dc.lft.to/lastmile_qr_scan"}, "lon": -77.05128383333333, "fusion_lat": 0.0}, {"name": "44099ed52b65513862d647e09e22deb4", "fusion_lon": 0.0, "lat": 38.91825633333333, "is_reserved": 0, "type": "electric_scooter", "bike_id": "44099ed52b65513862d647e09e22deb4", "is_disabled": 0, "rental_uris": {"android": "https://dc.lft.to/lastmile_qr_scan", "ios": "https://dc.lft.to/lastmile_qr_scan"}, "lon": -77.02713966666667, "fusion_lat": 0.0}, {"name": "07494d802b7400fcbcb0623bf6e4023d", "fusion_lon": 0.0, "lat": 38.89715366666667, "is_reserved": 0, "type": "electric_scooter", "bike_id": "07494d802b7400fcbcb0623bf6e4023d", "is_disabled": 0, "rental_uris": {"android": "https://dc.lft.to/lastmile_qr_scan", "ios": "https://dc.lft.to/lastmile_qr_scan"}, "lon": -76.973435, "fusion_lat": 0.0}, {"name": "094cabe0d749b9744a185ba294d5c4ed", "fusion_lon": 0.0, "lat": 38.907423666666666, "is_reserved": 0, "type": "electric_scooter", "bike_id": "094cabe0d749b9744a185ba294d5c4ed", "is_disabled": 0, "rental_uris": {"android": "https://dc.lft.to/lastmile_qr_scan", "ios": "https://dc.lft.to/lastmile_qr_scan"}, "lon": -77.03179866666666, "fusion_lat": 0.0}, {"name": "65908241da13197c6cc518d0b5fb5588", "fusion_lon": 0.0, "lat": 38.8787395, "is_reserved": 0, "type": "electric_scooter", "bike_id": "65908241da13197c6cc518d0b5fb5588", "is_disabled": 0, "rental_uris": {"android": "https://dc.lft.to/lastmile_qr_scan", "ios": "https://dc.lft.to/lastmile_qr_scan"}, "lon": -77.02299166666667, "fusion_lat": 0.0}, {"name": "b5b97c337c786b4fd7e4ddd3a0523d52", "fusion_lon": 0.0, "lat": 38.90053983333333, "is_reserved": 0, "type": "electric_scooter", "bike_id": "b5b97c337c786b4fd7e4ddd3a0523d52", "is_disabled": 0, "rental_uris": {"android": "https://dc.lft.to/lastmile_qr_scan", "ios": "https://dc.lft.to/lastmile_qr_scan"}, "lon": -77.013272, "fusion_lat": 0.0}, {"name": "aef49a57052cce396b35a202a561824f", "fusion_lon": 0.0, "lat": 38.885253, "is_reserved": 0, "type": "electric_scooter", "bike_id": "aef49a57052cce396b35a202a561824f", "is_disabled": 0, "rental_uris": {"android": "https://dc.lft.to/lastmile_qr_scan", "ios": "https://dc.lft.to/lastmile_qr_scan"}, "lon": -77.0113605, "fusion_lat": 0.0}, {"name": "43f2a6f3dffcbeb8623bfaf7679071a7", "fusion_lon": 0.0, "lat": 38.905136, "is_reserved": 0, "type": "electric_scooter", "bike_id": "43f2a6f3dffcbeb8623bfaf7679071a7", "is_disabled": 0, "rental_uris": {"android": "https://dc.lft.to/lastmile_qr_scan", "ios": "https://dc.lft.to/lastmile_qr_scan"}, "lon": -77.001339, "fusion_lat": 0.0}, {"name": "ee897a0db33e2e60e55ee3d4a0841e4f", "fusion_lon": 0.0, "lat": 38.9459405, "is_reserved": 0, "type": "electric_scooter", "bike_id": "ee897a0db33e2e60e55ee3d4a0841e4f", "is_disabled": 0, "rental_uris": {"android": "https://dc.lft.to/lastmile_qr_scan", "ios": "https://dc.lft.to/lastmile_qr_scan"}, "lon": -77.06463033333333, "fusion_lat": 0.0}, {"name": "5e1c1914b3ba1f0369f33f8ec84b66e5", "fusion_lon": 0.0, "lat": 39.0399255, "is_reserved": 0, "type": "electric_bike", "bike_id": "5e1c1914b3ba1f0369f33f8ec84b66e5", "is_disabled": 0, "rental_uris": {"android": "https://dc.lft.to/lastmile_qr_scan", "ios": "https://dc.lft.to/lastmile_qr_scan"}, "lon": -76.99920533333334, "fusion_lat": 0.0}, {"name": "a43e2f745319d3e805a4af8629ebe693", "fusion_lon": 0.0, "lat": 38.919244, "is_reserved": 0, "type": "electric_scooter", "bike_id": "a43e2f745319d3e805a4af8629ebe693", "is_disabled": 0, "rental_uris": {"android": "https://dc.lft.to/lastmile_qr_scan", "ios": "https://dc.lft.to/lastmile_qr_scan"}, "lon": -77.03173933333333, "fusion_lat": 0.0}, {"name": "1898dc2797e122543a8270c04602566c", "fusion_lon": 0.0, "lat": 38.8768025, "is_reserved": 0, "type": "electric_scooter", "bike_id": "1898dc2797e122543a8270c04602566c", "is_disabled": 0, "rental_uris": {"android": "https://dc.lft.to/lastmile_qr_scan", "ios": "https://dc.lft.to/lastmile_qr_scan"}, "lon": -76.99827683333334, "fusion_lat": 0.0}, {"name": "3d5322a21398365ba11cffaa4ffe37e6", "fusion_lon": 0.0, "lat": 38.9615845, "is_reserved": 0, "type": "electric_scooter", "bike_id": "3d5322a21398365ba11cffaa4ffe37e6", "is_disabled": 0, "rental_uris": {"android": "https://dc.lft.to/lastmile_qr_scan", "ios": "https://dc.lft.to/lastmile_qr_scan"}, "lon": -77.03232433333334, "fusion_lat": 0.0}, {"name": "3bc0173adf20230f94379dd2a91aaf94", "fusion_lon": 0.0, "lat": 38.89716133333334, "is_reserved": 0, "type": "electric_scooter", "bike_id": "3bc0173adf20230f94379dd2a91aaf94", "is_disabled": 0, "rental_uris": {"android": "https://dc.lft.to/lastmile_qr_scan", "ios": "https://dc.lft.to/lastmile_qr_scan"}, "lon": -77.02647916666666, "fusion_lat": 0.0}, {"name": "fa0130f000ddefe881fb478eb81876b5", "fusion_lon": 0.0, "lat": 38.90328516666667, "is_reserved": 0, "type": "electric_scooter", "bike_id": "fa0130f000ddefe881fb478eb81876b5", "is_disabled": 0, "rental_uris": {"android": "https://dc.lft.to/lastmile_qr_scan", "ios": "https://dc.lft.to/lastmile_qr_scan"}, "lon": -77.02730183333334, "fusion_lat": 0.0}, {"name": "9c00310bfb6620701d4214469708b261", "fusion_lon": 0.0, "lat": 38.89906833333333, "is_reserved": 0, "type": "electric_scooter", "bike_id": "9c00310bfb6620701d4214469708b261", "is_disabled": 0, "rental_uris": {"android": "https://dc.lft.to/lastmile_qr_scan", "ios": "https://dc.lft.to/lastmile_qr_scan"}, "lon": -77.04908966666666, "fusion_lat": 0.0}, {"name": "2713156ed4b6e0aeadc6686781b3f6a0", "fusion_lon": 0.0, "lat": 38.92352866666667, "is_reserved": 0, "type": "electric_scooter", "bike_id": "2713156ed4b6e0aeadc6686781b3f6a0", "is_disabled": 0, "rental_uris": {"android": "https://dc.lft.to/lastmile_qr_scan", "ios": "https://dc.lft.to/lastmile_qr_scan"}, "lon": -77.04158466666667, "fusion_lat": 0.0}, {"name": "3562e47801e00261b3ada8fee8954f66", "fusion_lon": 0.0, "lat": 38.937658, "is_reserved": 0, "type": "electric_scooter", "bike_id": "3562e47801e00261b3ada8fee8954f66", "is_disabled": 0, "rental_uris": {"android": "https://dc.lft.to/lastmile_qr_scan", "ios": "https://dc.lft.to/lastmile_qr_scan"}, "lon": -77.02513933333333, "fusion_lat": 0.0}, {"name": "a7001cea44e6157306037fd27275b173", "fusion_lon": 0.0, "lat": 38.8936655, "is_reserved": 0, "type": "electric_scooter", "bike_id": "a7001cea44e6157306037fd27275b173", "is_disabled": 0, "rental_uris": {"android": "https://dc.lft.to/lastmile_qr_scan", "ios": "https://dc.lft.to/lastmile_qr_scan"}, "lon": -77.0467795, "fusion_lat": 0.0}, {"name": "3c94545b26b67cd44cc69bf2c9faf2f9", "fusion_lon": 0.0, "lat": 38.9203275, "is_reserved": 0, "type": "electric_scooter", "bike_id": "3c94545b26b67cd44cc69bf2c9faf2f9", "is_disabled": 0, "rental_uris": {"android": "https://dc.lft.to/lastmile_qr_scan", "ios": "https://dc.lft.to/lastmile_qr_scan"}, "lon": -77.02584583333334, "fusion_lat": 0.0}, {"name": "3fd8265dcba8786fcf4bff11632e2886", "fusion_lon": 0.0, "lat": 38.872289333333335, "is_reserved": 0, "type": "electric_scooter", "bike_id": "3fd8265dcba8786fcf4bff11632e2886", "is_disabled": 0, "rental_uris": {"android": "https://dc.lft.to/lastmile_qr_scan", "ios": "https://dc.lft.to/lastmile_qr_scan"}, "lon": -77.01762916666667, "fusion_lat": 0.0}, {"name": "54f89ecdf021c3c5a0296ab2b2f78341", "fusion_lon": 0.0, "lat": 38.87347416666667, "is_reserved": 0, "type": "electric_scooter", "bike_id": "54f89ecdf021c3c5a0296ab2b2f78341", "is_disabled": 0, "rental_uris": {"android": "https://dc.lft.to/lastmile_qr_scan", "ios": "https://dc.lft.to/lastmile_qr_scan"}, "lon": -77.00268166666666, "fusion_lat": 0.0}, {"name": "fcb01ac609612ff475b2d4b423336522", "fusion_lon": 0.0, "lat": 38.91354883333333, "is_reserved": 0, "type": "electric_scooter", "bike_id": "fcb01ac609612ff475b2d4b423336522", "is_disabled": 0, "rental_uris": {"android": "https://dc.lft.to/lastmile_qr_scan", "ios": "https://dc.lft.to/lastmile_qr_scan"}, "lon": -77.01544233333334, "fusion_lat": 0.0}, {"name": "b807148e9bc26249444c766f7670c996", "fusion_lon": 0.0, "lat": 38.9622475, "is_reserved": 0, "type": "electric_bike", "bike_id": "b807148e9bc26249444c766f7670c996", "is_disabled": 0, "rental_uris": {"android": "https://dc.lft.to/lastmile_qr_scan", "ios": "https://dc.lft.to/lastmile_qr_scan"}, "lon": -77.02626833333333, "fusion_lat": 0.0}, {"name": "e1b6a7a8afd19e59f13482ec562a29f4", "fusion_lon": 0.0, "lat": 38.906732833333336, "is_reserved": 0, "type": "electric_scooter", "bike_id": "e1b6a7a8afd19e59f13482ec562a29f4", "is_disabled": 0, "rental_uris": {"android": "https://dc.lft.to/lastmile_qr_scan", "ios": "https://dc.lft.to/lastmile_qr_scan"}, "lon": -77.0717225, "fusion_lat": 0.0}, {"name": "583052be58413245f682beb91ec2cf82", "fusion_lon": 0.0, "lat": 38.900077833333334, "is_reserved": 0, "type": "electric_scooter", "bike_id": "583052be58413245f682beb91ec2cf82", "is_disabled": 0, "rental_uris": {"android": "https://dc.lft.to/lastmile_qr_scan", "ios": "https://dc.lft.to/lastmile_qr_scan"}, "lon": -77.006985, "fusion_lat": 0.0}, {"name": "a0c6d68e59a328009053c1836ccf6a4d", "fusion_lon": 0.0, "lat": 38.92857633333333, "is_reserved": 0, "type": "electric_scooter", "bike_id": "a0c6d68e59a328009053c1836ccf6a4d", "is_disabled": 0, "rental_uris": {"android": "https://dc.lft.to/lastmile_qr_scan", "ios": "https://dc.lft.to/lastmile_qr_scan"}, "lon": -77.037327, "fusion_lat": 0.0}, {"name": "aa492a28c37bfaa1fa25a52664c82ac3", "fusion_lon": 0.0, "lat": 38.90013716666667, "is_reserved": 0, "type": "electric_scooter", "bike_id": "aa492a28c37bfaa1fa25a52664c82ac3", "is_disabled": 0, "rental_uris": {"android": "https://dc.lft.to/lastmile_qr_scan", "ios": "https://dc.lft.to/lastmile_qr_scan"}, "lon": -77.04497833333333, "fusion_lat": 0.0}, {"name": "434cf275cebd696c25b31524e7e69a3a", "fusion_lon": 0.0, "lat": 38.88455183333333, "is_reserved": 0, "type": "electric_scooter", "bike_id": "434cf275cebd696c25b31524e7e69a3a", "is_disabled": 0, "rental_uris": {"android": "https://dc.lft.to/lastmile_qr_scan", "ios": "https://dc.lft.to/lastmile_qr_scan"}, "lon": -76.92620783333334, "fusion_lat": 0.0}, {"name": "f936365459eb6cba591ca68f7b8a4c41", "fusion_lon": 0.0, "lat": 38.90598416666667, "is_reserved": 0, "type": "electric_scooter", "bike_id": "f936365459eb6cba591ca68f7b8a4c41", "is_disabled": 0, "rental_uris": {"android": "https://dc.lft.to/lastmile_qr_scan", "ios": "https://dc.lft.to/lastmile_qr_scan"}, "lon": -77.02108266666667, "fusion_lat": 0.0}, {"name": "bae3c8c644058afed52fd0926186ab3d", "fusion_lon": 0.0, "lat": 38.902463166666664, "is_reserved": 0, "type": "electric_scooter", "bike_id": "bae3c8c644058afed52fd0926186ab3d", "is_disabled": 0, "rental_uris": {"android": "https://dc.lft.to/lastmile_qr_scan", "ios": "https://dc.lft.to/lastmile_qr_scan"}, "lon": -77.0019775, "fusion_lat": 0.0}, {"name": "c43cc532ec696d0d0d509f422e39efa7", "fusion_lon": 0.0, "lat": 38.8923675, "is_reserved": 0, "type": "electric_scooter", "bike_id": "c43cc532ec696d0d0d509f422e39efa7", "is_disabled": 0, "rental_uris": {"android": "https://dc.lft.to/lastmile_qr_scan", "ios": "https://dc.lft.to/lastmile_qr_scan"}, "lon": -77.03207516666667, "fusion_lat": 0.0}, {"name": "8a0bbdb9fa60a8191341856c9f378ae6", "fusion_lon": 0.0, "lat": 38.88912583333333, "is_reserved": 0, "type": "electric_scooter", "bike_id": "8a0bbdb9fa60a8191341856c9f378ae6", "is_disabled": 0, "rental_uris": {"android": "https://dc.lft.to/lastmile_qr_scan", "ios": "https://dc.lft.to/lastmile_qr_scan"}, "lon": -76.99176216666666, "fusion_lat": 0.0}, {"name": "44370d5e5737eb4795055e8c779a35b6", "fusion_lon": 0.0, "lat": 38.910027166666666, "is_reserved": 0, "type": "electric_scooter", "bike_id": "44370d5e5737eb4795055e8c779a35b6", "is_disabled": 0, "rental_uris": {"android": "https://dc.lft.to/lastmile_qr_scan", "ios": "https://dc.lft.to/lastmile_qr_scan"}, "lon": -77.04363683333334, "fusion_lat": 0.0}, {"name": "c860acb9f932b1b39acbea9a22e2ef54", "fusion_lon": 0.0, "lat": 38.83837833333333, "is_reserved": 0, "type": "electric_bike", "bike_id": "c860acb9f932b1b39acbea9a22e2ef54", "is_disabled": 0, "rental_uris": {"android": "https://dc.lft.to/lastmile_qr_scan", "ios": "https://dc.lft.to/lastmile_qr_scan"}, "lon": -77.00236633333333, "fusion_lat": 0.0}, {"name": "2ca370c7263abe7a396de998fbaa5757", "fusion_lon": 0.0, "lat": 38.91691083333333, "is_reserved": 0, "type": "electric_scooter", "bike_id": "2ca370c7263abe7a396de998fbaa5757", "is_disabled": 0, "rental_uris": {"android": "https://dc.lft.to/lastmile_qr_scan", "ios": "https://dc.lft.to/lastmile_qr_scan"}, "lon": -77.0376725, "fusion_lat": 0.0}, {"name": "cadd6dbbe50528329319605233fc3ac4", "fusion_lon": 0.0, "lat": 38.932491666666664, "is_reserved": 0, "type": "electric_scooter", "bike_id": "cadd6dbbe50528329319605233fc3ac4", "is_disabled": 0, "rental_uris": {"android": "https://dc.lft.to/lastmile_qr_scan", "ios": "https://dc.lft.to/lastmile_qr_scan"}, "lon": -77.038529, "fusion_lat": 0.0}, {"name": "35b68a34c33088e3f04a0a5c81766c73", "fusion_lon": 0.0, "lat": 38.908532, "is_reserved": 0, "type": "electric_scooter", "bike_id": "35b68a34c33088e3f04a0a5c81766c73", "is_disabled": 0, "rental_uris": {"android": "https://dc.lft.to/lastmile_qr_scan", "ios": "https://dc.lft.to/lastmile_qr_scan"}, "lon": -77.0253685, "fusion_lat": 0.0}, {"name": "e6d509da75624ec99c6baecd84577ccc", "fusion_lon": 0.0, "lat": 38.9119165, "is_reserved": 0, "type": "electric_scooter", "bike_id": "e6d509da75624ec99c6baecd84577ccc", "is_disabled": 0, "rental_uris": {"android": "https://dc.lft.to/lastmile_qr_scan", "ios": "https://dc.lft.to/lastmile_qr_scan"}, "lon": -77.0382935, "fusion_lat": 0.0}, {"name": "73b3b74618a29faf26a7a71dac4e14b3", "fusion_lon": 0.0, "lat": 38.870846666666665, "is_reserved": 0, "type": "electric_scooter", "bike_id": "73b3b74618a29faf26a7a71dac4e14b3", "is_disabled": 0, "rental_uris": {"android": "https://dc.lft.to/lastmile_qr_scan", "ios": "https://dc.lft.to/lastmile_qr_scan"}, "lon": -77.01353766666666, "fusion_lat": 0.0}, {"name": "f98831ea40e4284693acaf2f4e21612a", "fusion_lon": 0.0, "lat": 38.92471616666667, "is_reserved": 0, "type": "electric_scooter", "bike_id": "f98831ea40e4284693acaf2f4e21612a", "is_disabled": 0, "rental_uris": {"android": "https://dc.lft.to/lastmile_qr_scan", "ios": "https://dc.lft.to/lastmile_qr_scan"}, "lon": -77.03899133333333, "fusion_lat": 0.0}, {"name": "e26baeab465fd547717db5d4484ce0dd", "fusion_lon": 0.0, "lat": 38.905810833333334, "is_reserved": 0, "type": "electric_scooter", "bike_id": "e26baeab465fd547717db5d4484ce0dd", "is_disabled": 0, "rental_uris": {"android": "https://dc.lft.to/lastmile_qr_scan", "ios": "https://dc.lft.to/lastmile_qr_scan"}, "lon": -77.041496, "fusion_lat": 0.0}, {"name": "7095980ef12b7470abaa6157d70065cd", "fusion_lon": 0.0, "lat": 38.962235166666666, "is_reserved": 0, "type": "electric_bike", "bike_id": "7095980ef12b7470abaa6157d70065cd", "is_disabled": 0, "rental_uris": {"android": "https://dc.lft.to/lastmile_qr_scan", "ios": "https://dc.lft.to/lastmile_qr_scan"}, "lon": -77.026239, "fusion_lat": 0.0}, {"name": "d3c891be12267c4be70d82e1a5c65a1e", "fusion_lon": 0.0, "lat": 38.884545, "is_reserved": 0, "type": "electric_scooter", "bike_id": "d3c891be12267c4be70d82e1a5c65a1e", "is_disabled": 0, "rental_uris": {"android": "https://dc.lft.to/lastmile_qr_scan", "ios": "https://dc.lft.to/lastmile_qr_scan"}, "lon": -76.95744066666667, "fusion_lat": 0.0}, {"name": "797c1dd4a9cd0610380aca7f775f1fe0", "fusion_lon": 0.0, "lat": 38.919608833333335, "is_reserved": 0, "type": "electric_scooter", "bike_id": "797c1dd4a9cd0610380aca7f775f1fe0", "is_disabled": 0, "rental_uris": {"android": "https://dc.lft.to/lastmile_qr_scan", "ios": "https://dc.lft.to/lastmile_qr_scan"}, "lon": -77.01895366666666, "fusion_lat": 0.0}, {"name": "7429c2f40a059ad5574ab3a771fe6a54", "fusion_lon": 0.0, "lat": 39.05496683333333, "is_reserved": 0, "type": "electric_bike", "bike_id": "7429c2f40a059ad5574ab3a771fe6a54", "is_disabled": 0, "rental_uris": {"android": "https://dc.lft.to/lastmile_qr_scan", "ios": "https://dc.lft.to/lastmile_qr_scan"}, "lon": -77.1178855, "fusion_lat": 0.0}, {"name": "f33c1298b90413fabb0ada37786e7245", "fusion_lon": 0.0, "lat": 38.90035566666667, "is_reserved": 0, "type": "electric_scooter", "bike_id": "f33c1298b90413fabb0ada37786e7245", "is_disabled": 0, "rental_uris": {"android": "https://dc.lft.to/lastmile_qr_scan", "ios": "https://dc.lft.to/lastmile_qr_scan"}, "lon": -76.994335, "fusion_lat": 0.0}, {"name": "e9aeff97d0f7e6d9a84319dbbbb1c704", "fusion_lon": 0.0, "lat": 38.9265815, "is_reserved": 0, "type": "electric_scooter", "bike_id": "e9aeff97d0f7e6d9a84319dbbbb1c704", "is_disabled": 0, "rental_uris": {"android": "https://dc.lft.to/lastmile_qr_scan", "ios": "https://dc.lft.to/lastmile_qr_scan"}, "lon": -77.00867533333333, "fusion_lat": 0.0}, {"name": "51635796d11680712683e5bddca12d92", "fusion_lon": 0.0, "lat": 39.03413316666666, "is_reserved": 0, "type": "electric_bike", "bike_id": "51635796d11680712683e5bddca12d92", "is_disabled": 0, "rental_uris": {"android": "https://dc.lft.to/lastmile_qr_scan", "ios": "https://dc.lft.to/lastmile_qr_scan"}, "lon": -77.042367, "fusion_lat": 0.0}, {"name": "f29eda3961137dbc1688ea5f83374b84", "fusion_lon": 0.0, "lat": 38.90559116666667, "is_reserved": 0, "type": "electric_scooter", "bike_id": "f29eda3961137dbc1688ea5f83374b84", "is_disabled": 0, "rental_uris": {"android": "https://dc.lft.to/lastmile_qr_scan", "ios": "https://dc.lft.to/lastmile_qr_scan"}, "lon": -77.0475805, "fusion_lat": 0.0}, {"name": "1a88667f013d118cdd9b10fd0af46351", "fusion_lon": 0.0, "lat": 38.91559783333334, "is_reserved": 0, "type": "electric_scooter", "bike_id": "1a88667f013d118cdd9b10fd0af46351", "is_disabled": 0, "rental_uris": {"android": "https://dc.lft.to/lastmile_qr_scan", "ios": "https://dc.lft.to/lastmile_qr_scan"}, "lon": -77.010384, "fusion_lat": 0.0}, {"name": "4754cdbded6cf0f7c52f67ac50790d5a", "fusion_lon": 0.0, "lat": 38.90086016666667, "is_reserved": 0, "type": "electric_scooter", "bike_id": "4754cdbded6cf0f7c52f67ac50790d5a", "is_disabled": 0, "rental_uris": {"android": "https://dc.lft.to/lastmile_qr_scan", "ios": "https://dc.lft.to/lastmile_qr_scan"}, "lon": -77.04981566666666, "fusion_lat": 0.0}, {"name": "5d29d7ff34248e1a05940cbb40097306", "fusion_lon": 0.0, "lat": 38.914263166666665, "is_reserved": 0, "type": "electric_scooter", "bike_id": "5d29d7ff34248e1a05940cbb40097306", "is_disabled": 0, "rental_uris": {"android": "https://dc.lft.to/lastmile_qr_scan", "ios": "https://dc.lft.to/lastmile_qr_scan"}, "lon": -77.03711, "fusion_lat": 0.0}, {"name": "a7c483b469783a1f352b15b9a657cc93", "fusion_lon": 0.0, "lat": 38.9063145, "is_reserved": 0, "type": "electric_scooter", "bike_id": "a7c483b469783a1f352b15b9a657cc93", "is_disabled": 0, "rental_uris": {"android": "https://dc.lft.to/lastmile_qr_scan", "ios": "https://dc.lft.to/lastmile_qr_scan"}, "lon": -77.04346416666667, "fusion_lat": 0.0}, {"name": "620e242a14d1a626e30180e840dad0ed", "fusion_lon": 0.0, "lat": 38.916356, "is_reserved": 0, "type": "electric_scooter", "bike_id": "620e242a14d1a626e30180e840dad0ed", "is_disabled": 0, "rental_uris": {"android": "https://dc.lft.to/lastmile_qr_scan", "ios": "https://dc.lft.to/lastmile_qr_scan"}, "lon": -77.023914, "fusion_lat": 0.0}, {"name": "93d99ab6d8b251d4194e322b99a7ba4d", "fusion_lon": 0.0, "lat": 38.89851633333333, "is_reserved": 0, "type": "electric_scooter", "bike_id": "93d99ab6d8b251d4194e322b99a7ba4d", "is_disabled": 0, "rental_uris": {"android": "https://dc.lft.to/lastmile_qr_scan", "ios": "https://dc.lft.to/lastmile_qr_scan"}, "lon": -77.023906, "fusion_lat": 0.0}, {"name": "54bdef09cca687173ee7e6779e6e63ee", "fusion_lon": 0.0, "lat": 38.897499833333335, "is_reserved": 0, "type": "electric_scooter", "bike_id": "54bdef09cca687173ee7e6779e6e63ee", "is_disabled": 0, "rental_uris": {"android": "https://dc.lft.to/lastmile_qr_scan", "ios": "https://dc.lft.to/lastmile_qr_scan"}, "lon": -77.0269755, "fusion_lat": 0.0}, {"name": "ed40daaee356ebb5753f49050ed94417", "fusion_lon": 0.0, "lat": 38.911074166666666, "is_reserved": 0, "type": "electric_scooter", "bike_id": "ed40daaee356ebb5753f49050ed94417", "is_disabled": 0, "rental_uris": {"android": "https://dc.lft.to/lastmile_qr_scan", "ios": "https://dc.lft.to/lastmile_qr_scan"}, "lon": -77.0382885, "fusion_lat": 0.0}, {"name": "e5fb308b2a0bfc9b412314c841db4ec3", "fusion_lon": 0.0, "lat": 38.926812166666664, "is_reserved": 0, "type": "electric_scooter", "bike_id": "e5fb308b2a0bfc9b412314c841db4ec3", "is_disabled": 0, "rental_uris": {"android": "https://dc.lft.to/lastmile_qr_scan", "ios": "https://dc.lft.to/lastmile_qr_scan"}, "lon": -77.0149135, "fusion_lat": 0.0}, {"name": "62bab477736342d485724e2533f565b8", "fusion_lon": 0.0, "lat": 38.897033, "is_reserved": 0, "type": "electric_scooter", "bike_id": "62bab477736342d485724e2533f565b8", "is_disabled": 0, "rental_uris": {"android": "https://dc.lft.to/lastmile_qr_scan", "ios": "https://dc.lft.to/lastmile_qr_scan"}, "lon": -76.92997916666667, "fusion_lat": 0.0}, {"name": "c42a402aea9c9051fa14d914e8cd89cd", "fusion_lon": 0.0, "lat": 38.916797, "is_reserved": 0, "type": "electric_bike", "bike_id": "c42a402aea9c9051fa14d914e8cd89cd", "is_disabled": 0, "rental_uris": {"android": "https://dc.lft.to/lastmile_qr_scan", "ios": "https://dc.lft.to/lastmile_qr_scan"}, "lon": -77.06938816666667, "fusion_lat": 0.0}, {"name": "92ab769405651a763fa88223cb385f76", "fusion_lon": 0.0, "lat": 38.916197333333336, "is_reserved": 0, "type": "electric_scooter", "bike_id": "92ab769405651a763fa88223cb385f76", "is_disabled": 0, "rental_uris": {"android": "https://dc.lft.to/lastmile_qr_scan", "ios": "https://dc.lft.to/lastmile_qr_scan"}, "lon": -77.03852716666667, "fusion_lat": 0.0}, {"name": "faa32ba872532d94281cb989817f9869", "fusion_lon": 0.0, "lat": 38.9238235, "is_reserved": 0, "type": "electric_scooter", "bike_id": "faa32ba872532d94281cb989817f9869", "is_disabled": 0, "rental_uris": {"android": "https://dc.lft.to/lastmile_qr_scan", "ios": "https://dc.lft.to/lastmile_qr_scan"}, "lon": -77.03098233333333, "fusion_lat": 0.0}, {"name": "655aa715dd3a6a66e879ac08a83c37ab", "fusion_lon": 0.0, "lat": 38.899209, "is_reserved": 0, "type": "electric_scooter", "bike_id": "655aa715dd3a6a66e879ac08a83c37ab", "is_disabled": 0, "rental_uris": {"android": "https://dc.lft.to/lastmile_qr_scan", "ios": "https://dc.lft.to/lastmile_qr_scan"}, "lon": -77.070672, "fusion_lat": 0.0}, {"name": "f68f83da5a9b71b540b788bc73972674", "fusion_lon": 0.0, "lat": 38.866248166666665, "is_reserved": 0, "type": "electric_scooter", "bike_id": "f68f83da5a9b71b540b788bc73972674", "is_disabled": 0, "rental_uris": {"android": "https://dc.lft.to/lastmile_qr_scan", "ios": "https://dc.lft.to/lastmile_qr_scan"}, "lon": -76.989145, "fusion_lat": 0.0}, {"name": "e6d009d14bdd9334f189227aa0ee1906", "fusion_lon": 0.0, "lat": 38.903790666666666, "is_reserved": 0, "type": "electric_scooter", "bike_id": "e6d009d14bdd9334f189227aa0ee1906", "is_disabled": 0, "rental_uris": {"android": "https://dc.lft.to/lastmile_qr_scan", "ios": "https://dc.lft.to/lastmile_qr_scan"}, "lon": -77.04487633333333, "fusion_lat": 0.0}, {"name": "145b891d571d32967edcc0167e055189", "fusion_lon": 0.0, "lat": 38.92695633333334, "is_reserved": 0, "type": "electric_scooter", "bike_id": "145b891d571d32967edcc0167e055189", "is_disabled": 0, "rental_uris": {"android": "https://dc.lft.to/lastmile_qr_scan", "ios": "https://dc.lft.to/lastmile_qr_scan"}, "lon": -77.02104166666666, "fusion_lat": 0.0}, {"name": "60b56d19e1974d0072bf9a850a619901", "fusion_lon": 0.0, "lat": 38.907992666666665, "is_reserved": 0, "type": "electric_scooter", "bike_id": "60b56d19e1974d0072bf9a850a619901", "is_disabled": 0, "rental_uris": {"android": "https://dc.lft.to/lastmile_qr_scan", "ios": "https://dc.lft.to/lastmile_qr_scan"}, "lon": -77.031829, "fusion_lat": 0.0}, {"name": "55cb7e1a5a2635f779e9195149c59190", "fusion_lon": 0.0, "lat": 38.906731, "is_reserved": 0, "type": "electric_scooter", "bike_id": "55cb7e1a5a2635f779e9195149c59190", "is_disabled": 0, "rental_uris": {"android": "https://dc.lft.to/lastmile_qr_scan", "ios": "https://dc.lft.to/lastmile_qr_scan"}, "lon": -77.03756266666667, "fusion_lat": 0.0}, {"name": "0b65ce9db1cc2010d088935e77fb9160", "fusion_lon": 0.0, "lat": 38.9093945, "is_reserved": 0, "type": "electric_scooter", "bike_id": "0b65ce9db1cc2010d088935e77fb9160", "is_disabled": 0, "rental_uris": {"android": "https://dc.lft.to/lastmile_qr_scan", "ios": "https://dc.lft.to/lastmile_qr_scan"}, "lon": -77.0494375, "fusion_lat": 0.0}, {"name": "08c3a3534c2a23b9e2dedc44c2bd7b67", "fusion_lon": 0.0, "lat": 38.91139366666667, "is_reserved": 0, "type": "electric_scooter", "bike_id": "08c3a3534c2a23b9e2dedc44c2bd7b67", "is_disabled": 0, "rental_uris": {"android": "https://dc.lft.to/lastmile_qr_scan", "ios": "https://dc.lft.to/lastmile_qr_scan"}, "lon": -77.03844766666667, "fusion_lat": 0.0}, {"name": "2c2ebae80a07abe46665443ad8baa666", "fusion_lon": 0.0, "lat": 38.92240983333333, "is_reserved": 0, "type": "electric_scooter", "bike_id": "2c2ebae80a07abe46665443ad8baa666", "is_disabled": 0, "rental_uris": {"android": "https://dc.lft.to/lastmile_qr_scan", "ios": "https://dc.lft.to/lastmile_qr_scan"}, "lon": -77.04495816666666, "fusion_lat": 0.0}, {"name": "b9dc800f517611aecf7b2021a02143c4", "fusion_lon": 0.0, "lat": 38.9288455, "is_reserved": 0, "type": "electric_scooter", "bike_id": "b9dc800f517611aecf7b2021a02143c4", "is_disabled": 0, "rental_uris": {"android": "https://dc.lft.to/lastmile_qr_scan", "ios": "https://dc.lft.to/lastmile_qr_scan"}, "lon": -77.01362833333333, "fusion_lat": 0.0}, {"name": "f2d0ec649f090bdf239851c4bee263bd", "fusion_lon": 0.0, "lat": 38.911184166666665, "is_reserved": 0, "type": "electric_scooter", "bike_id": "f2d0ec649f090bdf239851c4bee263bd", "is_disabled": 0, "rental_uris": {"android": "https://dc.lft.to/lastmile_qr_scan", "ios": "https://dc.lft.to/lastmile_qr_scan"}, "lon": -77.00604883333334, "fusion_lat": 0.0}, {"name": "67dceb53d292c8bcc755444003696a4d", "fusion_lon": 0.0, "lat": 38.884928, "is_reserved": 0, "type": "electric_scooter", "bike_id": "67dceb53d292c8bcc755444003696a4d", "is_disabled": 0, "rental_uris": {"android": "https://dc.lft.to/lastmile_qr_scan", "ios": "https://dc.lft.to/lastmile_qr_scan"}, "lon": -77.00712033333333, "fusion_lat": 0.0}, {"name": "f8d2bcde6f2d5c6ce73696ee4fed11d7", "fusion_lon": 0.0, "lat": 38.915619, "is_reserved": 0, "type": "electric_scooter", "bike_id": "f8d2bcde6f2d5c6ce73696ee4fed11d7", "is_disabled": 0, "rental_uris": {"android": "https://dc.lft.to/lastmile_qr_scan", "ios": "https://dc.lft.to/lastmile_qr_scan"}, "lon": -77.04278833333333, "fusion_lat": 0.0}, {"name": "3e014281d6230927a41e7808e97ad483", "fusion_lon": 0.0, "lat": 38.905733833333336, "is_reserved": 0, "type": "electric_scooter", "bike_id": "3e014281d6230927a41e7808e97ad483", "is_disabled": 0, "rental_uris": {"android": "https://dc.lft.to/lastmile_qr_scan", "ios": "https://dc.lft.to/lastmile_qr_scan"}, "lon": -77.0344205, "fusion_lat": 0.0}, {"name": "99f75b981c9711892aabdf3d9f9814be", "fusion_lon": 0.0, "lat": 38.892885666666665, "is_reserved": 0, "type": "electric_bike", "bike_id": "99f75b981c9711892aabdf3d9f9814be", "is_disabled": 0, "rental_uris": {"android": "https://dc.lft.to/lastmile_qr_scan", "ios": "https://dc.lft.to/lastmile_qr_scan"}, "lon": -76.97620133333334, "fusion_lat": 0.0}, {"name": "8b6c8b6a5ea5eb80ffb71eaea1705f89", "fusion_lon": 0.0, "lat": 38.896151833333334, "is_reserved": 0, "type": "electric_scooter", "bike_id": "8b6c8b6a5ea5eb80ffb71eaea1705f89", "is_disabled": 0, "rental_uris": {"android": "https://dc.lft.to/lastmile_qr_scan", "ios": "https://dc.lft.to/lastmile_qr_scan"}, "lon": -77.02192733333334, "fusion_lat": 0.0}, {"name": "1e01a0059c8f95fd5ec2d84e7b474377", "fusion_lon": 0.0, "lat": 38.8973245, "is_reserved": 0, "type": "electric_scooter", "bike_id": "1e01a0059c8f95fd5ec2d84e7b474377", "is_disabled": 0, "rental_uris": {"android": "https://dc.lft.to/lastmile_qr_scan", "ios": "https://dc.lft.to/lastmile_qr_scan"}, "lon": -77.02144583333333, "fusion_lat": 0.0}, {"name": "de848cff6cf7fb3093e1af4c9e487311", "fusion_lon": 0.0, "lat": 38.924550333333336, "is_reserved": 0, "type": "electric_scooter", "bike_id": "de848cff6cf7fb3093e1af4c9e487311", "is_disabled": 0, "rental_uris": {"android": "https://dc.lft.to/lastmile_qr_scan", "ios": "https://dc.lft.to/lastmile_qr_scan"}, "lon": -77.02709983333334, "fusion_lat": 0.0}, {"name": "e8e7fee7cbb6cee15d27a42d52152f80", "fusion_lon": 0.0, "lat": 38.9028305, "is_reserved": 0, "type": "electric_scooter", "bike_id": "e8e7fee7cbb6cee15d27a42d52152f80", "is_disabled": 0, "rental_uris": {"android": "https://dc.lft.to/lastmile_qr_scan", "ios": "https://dc.lft.to/lastmile_qr_scan"}, "lon": -77.05810133333334, "fusion_lat": 0.0}, {"name": "6b08fc362bf61b3c86dcf82ea277a316", "fusion_lon": 0.0, "lat": 39.0578605, "is_reserved": 0, "type": "electric_bike", "bike_id": "6b08fc362bf61b3c86dcf82ea277a316", "is_disabled": 0, "rental_uris": {"android": "https://dc.lft.to/lastmile_qr_scan", "ios": "https://dc.lft.to/lastmile_qr_scan"}, "lon": -77.15020433333333, "fusion_lat": 0.0}, {"name": "e48c027acb544bb177a6a95a3ba7c272", "fusion_lon": 0.0, "lat": 38.921114, "is_reserved": 0, "type": "electric_scooter", "bike_id": "e48c027acb544bb177a6a95a3ba7c272", "is_disabled": 0, "rental_uris": {"android": "https://dc.lft.to/lastmile_qr_scan", "ios": "https://dc.lft.to/lastmile_qr_scan"}, "lon": -77.0176415, "fusion_lat": 0.0}, {"name": "2fe8e98b92981c89127287b7687f3ac9", "fusion_lon": 0.0, "lat": 38.9267535, "is_reserved": 0, "type": "electric_scooter", "bike_id": "2fe8e98b92981c89127287b7687f3ac9", "is_disabled": 0, "rental_uris": {"android": "https://dc.lft.to/lastmile_qr_scan", "ios": "https://dc.lft.to/lastmile_qr_scan"}, "lon": -77.0150815, "fusion_lat": 0.0}, {"name": "a44ec299cad0321348006aaf3b476bcb", "fusion_lon": 0.0, "lat": 38.85691033333333, "is_reserved": 0, "type": "electric_scooter", "bike_id": "a44ec299cad0321348006aaf3b476bcb", "is_disabled": 0, "rental_uris": {"android": "https://dc.lft.to/lastmile_qr_scan", "ios": "https://dc.lft.to/lastmile_qr_scan"}, "lon": -76.98966733333333, "fusion_lat": 0.0}, {"name": "3a9c8cf1f245f81f02c8cbdc21a32722", "fusion_lon": 0.0, "lat": 38.93003816666667, "is_reserved": 0, "type": "electric_scooter", "bike_id": "3a9c8cf1f245f81f02c8cbdc21a32722", "is_disabled": 0, "rental_uris": {"android": "https://dc.lft.to/lastmile_qr_scan", "ios": "https://dc.lft.to/lastmile_qr_scan"}, "lon": -77.01433066666667, "fusion_lat": 0.0}, {"name": "d8209074978d3bb647de5f57ef2f3e18", "fusion_lon": 0.0, "lat": 38.90057566666667, "is_reserved": 0, "type": "electric_scooter", "bike_id": "d8209074978d3bb647de5f57ef2f3e18", "is_disabled": 0, "rental_uris": {"android": "https://dc.lft.to/lastmile_qr_scan", "ios": "https://dc.lft.to/lastmile_qr_scan"}, "lon": -76.93473166666666, "fusion_lat": 0.0}, {"name": "2243499f01ec3c478e49c10253036e17", "fusion_lon": 0.0, "lat": 38.905831666666664, "is_reserved": 0, "type": "electric_scooter", "bike_id": "2243499f01ec3c478e49c10253036e17", "is_disabled": 0, "rental_uris": {"android": "https://dc.lft.to/lastmile_qr_scan", "ios": "https://dc.lft.to/lastmile_qr_scan"}, "lon": -77.07015766666666, "fusion_lat": 0.0}, {"name": "c950209d68ca7f08642a9a74edf636fa", "fusion_lon": 0.0, "lat": 38.93718333333333, "is_reserved": 0, "type": "electric_scooter", "bike_id": "c950209d68ca7f08642a9a74edf636fa", "is_disabled": 0, "rental_uris": {"android": "https://dc.lft.to/lastmile_qr_scan", "ios": "https://dc.lft.to/lastmile_qr_scan"}, "lon": -77.02427866666666, "fusion_lat": 0.0}, {"name": "f78a9e94fb72836ecc6608ff09cbc0db", "fusion_lon": 0.0, "lat": 38.896052, "is_reserved": 0, "type": "electric_scooter", "bike_id": "f78a9e94fb72836ecc6608ff09cbc0db", "is_disabled": 0, "rental_uris": {"android": "https://dc.lft.to/lastmile_qr_scan", "ios": "https://dc.lft.to/lastmile_qr_scan"}, "lon": -77.02207983333334, "fusion_lat": 0.0}, {"name": "a9f84cc84a196d3a486c6c2af1df7770", "fusion_lon": 0.0, "lat": 38.96300166666666, "is_reserved": 0, "type": "electric_bike", "bike_id": "a9f84cc84a196d3a486c6c2af1df7770", "is_disabled": 0, "rental_uris": {"android": "https://dc.lft.to/lastmile_qr_scan", "ios": "https://dc.lft.to/lastmile_qr_scan"}, "lon": -77.01120733333333, "fusion_lat": 0.0}, {"name": "b001eb17b4907ab2c811076ca2c92000", "fusion_lon": 0.0, "lat": 38.912687166666664, "is_reserved": 0, "type": "electric_scooter", "bike_id": "b001eb17b4907ab2c811076ca2c92000", "is_disabled": 0, "rental_uris": {"android": "https://dc.lft.to/lastmile_qr_scan", "ios": "https://dc.lft.to/lastmile_qr_scan"}, "lon": -77.02227716666667, "fusion_lat": 0.0}, {"name": "516ed174b4c97ff2ac53b843d155670b", "fusion_lon": 0.0, "lat": 38.929215666666664, "is_reserved": 0, "type": "electric_scooter", "bike_id": "516ed174b4c97ff2ac53b843d155670b", "is_disabled": 0, "rental_uris": {"android": "https://dc.lft.to/lastmile_qr_scan", "ios": "https://dc.lft.to/lastmile_qr_scan"}, "lon": -77.03252366666666, "fusion_lat": 0.0}, {"name": "5876c55d20f4722cb5053f620c00a3c9", "fusion_lon": 0.0, "lat": 38.9181205, "is_reserved": 0, "type": "electric_scooter", "bike_id": "5876c55d20f4722cb5053f620c00a3c9", "is_disabled": 0, "rental_uris": {"android": "https://dc.lft.to/lastmile_qr_scan", "ios": "https://dc.lft.to/lastmile_qr_scan"}, "lon": -77.089615, "fusion_lat": 0.0}, {"name": "0586fac936b5c527992c8a56733d25ad", "fusion_lon": 0.0, "lat": 38.90483916666667, "is_reserved": 0, "type": "electric_scooter", "bike_id": "0586fac936b5c527992c8a56733d25ad", "is_disabled": 0, "rental_uris": {"android": "https://dc.lft.to/lastmile_qr_scan", "ios": "https://dc.lft.to/lastmile_qr_scan"}, "lon": -77.04187983333334, "fusion_lat": 0.0}, {"name": "59000db6f1544c83a440ea2ad451e23a", "fusion_lon": 0.0, "lat": 38.91911016666667, "is_reserved": 0, "type": "electric_scooter", "bike_id": "59000db6f1544c83a440ea2ad451e23a", "is_disabled": 0, "rental_uris": {"android": "https://dc.lft.to/lastmile_qr_scan", "ios": "https://dc.lft.to/lastmile_qr_scan"}, "lon": -77.0154045, "fusion_lat": 0.0}, {"name": "d9b920361c672bb130eccb0f0d34372a", "fusion_lon": 0.0, "lat": 38.91693033333333, "is_reserved": 0, "type": "electric_scooter", "bike_id": "d9b920361c672bb130eccb0f0d34372a", "is_disabled": 0, "rental_uris": {"android": "https://dc.lft.to/lastmile_qr_scan", "ios": "https://dc.lft.to/lastmile_qr_scan"}, "lon": -77.03478333333334, "fusion_lat": 0.0}, {"name": "45d76f034867a1995d65241e616cb820", "fusion_lon": 0.0, "lat": 38.9533, "is_reserved": 0, "type": "electric_bike", "bike_id": "45d76f034867a1995d65241e616cb820", "is_disabled": 0, "rental_uris": {"android": "https://dc.lft.to/lastmile_qr_scan", "ios": "https://dc.lft.to/lastmile_qr_scan"}, "lon": -76.98251783333333, "fusion_lat": 0.0}, {"name": "b043c4854c78c665d563f378ec7ee4b2", "fusion_lon": 0.0, "lat": 38.914736166666664, "is_reserved": 0, "type": "electric_scooter", "bike_id": "b043c4854c78c665d563f378ec7ee4b2", "is_disabled": 0, "rental_uris": {"android": "https://dc.lft.to/lastmile_qr_scan", "ios": "https://dc.lft.to/lastmile_qr_scan"}, "lon": -77.03184883333333, "fusion_lat": 0.0}, {"name": "60b6a35129841c0ca1d36df5b249c7b5", "fusion_lon": 0.0, "lat": 38.92972533333333, "is_reserved": 0, "type": "electric_scooter", "bike_id": "60b6a35129841c0ca1d36df5b249c7b5", "is_disabled": 0, "rental_uris": {"android": "https://dc.lft.to/lastmile_qr_scan", "ios": "https://dc.lft.to/lastmile_qr_scan"}, "lon": -77.01689283333333, "fusion_lat": 0.0}, {"name": "93099ead1d70f80c11f2f7c622ec5d5e", "fusion_lon": 0.0, "lat": 38.907403333333335, "is_reserved": 0, "type": "electric_scooter", "bike_id": "93099ead1d70f80c11f2f7c622ec5d5e", "is_disabled": 0, "rental_uris": {"android": "https://dc.lft.to/lastmile_qr_scan", "ios": "https://dc.lft.to/lastmile_qr_scan"}, "lon": -77.04351466666667, "fusion_lat": 0.0}, {"name": "766ee551d39157fa33f56f13ab59d5b8", "fusion_lon": 0.0, "lat": 38.963193833333335, "is_reserved": 0, "type": "electric_bike", "bike_id": "766ee551d39157fa33f56f13ab59d5b8", "is_disabled": 0, "rental_uris": {"android": "https://dc.lft.to/lastmile_qr_scan", "ios": "https://dc.lft.to/lastmile_qr_scan"}, "lon": -76.97357683333334, "fusion_lat": 0.0}, {"name": "a004e9f02d50a1715912cb819e6f4156", "fusion_lon": 0.0, "lat": 38.928473333333336, "is_reserved": 0, "type": "electric_scooter", "bike_id": "a004e9f02d50a1715912cb819e6f4156", "is_disabled": 0, "rental_uris": {"android": "https://dc.lft.to/lastmile_qr_scan", "ios": "https://dc.lft.to/lastmile_qr_scan"}, "lon": -77.03614516666667, "fusion_lat": 0.0}, {"name": "dafea6a25f4a612a5e6949abb9e737fb", "fusion_lon": 0.0, "lat": 38.91558783333333, "is_reserved": 0, "type": "electric_scooter", "bike_id": "dafea6a25f4a612a5e6949abb9e737fb", "is_disabled": 0, "rental_uris": {"android": "https://dc.lft.to/lastmile_qr_scan", "ios": "https://dc.lft.to/lastmile_qr_scan"}, "lon": -77.05317466666666, "fusion_lat": 0.0}, {"name": "31c5f1bb5d2cc43e36f0fd515d0323c9", "fusion_lon": 0.0, "lat": 38.88690583333333, "is_reserved": 0, "type": "electric_scooter", "bike_id": "31c5f1bb5d2cc43e36f0fd515d0323c9", "is_disabled": 0, "rental_uris": {"android": "https://dc.lft.to/lastmile_qr_scan", "ios": "https://dc.lft.to/lastmile_qr_scan"}, "lon": -76.976348, "fusion_lat": 0.0}, {"name": "9b256337362c8069b4ebf29df87b7ca7", "fusion_lon": 0.0, "lat": 38.92154716666667, "is_reserved": 0, "type": "electric_scooter", "bike_id": "9b256337362c8069b4ebf29df87b7ca7", "is_disabled": 0, "rental_uris": {"android": "https://dc.lft.to/lastmile_qr_scan", "ios": "https://dc.lft.to/lastmile_qr_scan"}, "lon": -77.0208065, "fusion_lat": 0.0}, {"name": "95591b5f9cad2e40e077700a5e82d0f1", "fusion_lon": 0.0, "lat": 38.925507833333334, "is_reserved": 0, "type": "electric_scooter", "bike_id": "95591b5f9cad2e40e077700a5e82d0f1", "is_disabled": 0, "rental_uris": {"android": "https://dc.lft.to/lastmile_qr_scan", "ios": "https://dc.lft.to/lastmile_qr_scan"}, "lon": -76.972246, "fusion_lat": 0.0}, {"name": "abe83874148e69a8017bb24d9ddb0a08", "fusion_lon": 0.0, "lat": 38.8917295, "is_reserved": 0, "type": "electric_bike", "bike_id": "abe83874148e69a8017bb24d9ddb0a08", "is_disabled": 0, "rental_uris": {"android": "https://dc.lft.to/lastmile_qr_scan", "ios": "https://dc.lft.to/lastmile_qr_scan"}, "lon": -77.019722, "fusion_lat": 0.0}, {"name": "6c8f6484adc08addc673baac0a6ce479", "fusion_lon": 0.0, "lat": 38.87495466666667, "is_reserved": 0, "type": "electric_scooter", "bike_id": "6c8f6484adc08addc673baac0a6ce479", "is_disabled": 0, "rental_uris": {"android": "https://dc.lft.to/lastmile_qr_scan", "ios": "https://dc.lft.to/lastmile_qr_scan"}, "lon": -76.99973616666666, "fusion_lat": 0.0}, {"name": "e4706769bc7474f96a71e69ee85761b6", "fusion_lon": 0.0, "lat": 38.9036695, "is_reserved": 0, "type": "electric_scooter", "bike_id": "e4706769bc7474f96a71e69ee85761b6", "is_disabled": 0, "rental_uris": {"android": "https://dc.lft.to/lastmile_qr_scan", "ios": "https://dc.lft.to/lastmile_qr_scan"}, "lon": -77.04499033333333, "fusion_lat": 0.0}, {"name": "d69f7973544ab40a7ae522e2be95256b", "fusion_lon": 0.0, "lat": 38.924307, "is_reserved": 0, "type": "electric_scooter", "bike_id": "d69f7973544ab40a7ae522e2be95256b", "is_disabled": 0, "rental_uris": {"android": "https://dc.lft.to/lastmile_qr_scan", "ios": "https://dc.lft.to/lastmile_qr_scan"}, "lon": -77.04248333333334, "fusion_lat": 0.0}, {"name": "fa7abaf2d2c35848c2e67a7be2ac1604", "fusion_lon": 0.0, "lat": 38.9256385, "is_reserved": 0, "type": "electric_scooter", "bike_id": "fa7abaf2d2c35848c2e67a7be2ac1604", "is_disabled": 0, "rental_uris": {"android": "https://dc.lft.to/lastmile_qr_scan", "ios": "https://dc.lft.to/lastmile_qr_scan"}, "lon": -77.04377466666666, "fusion_lat": 0.0}, {"name": "565e82b82c2fceac5c091bf0c99c8ae5", "fusion_lon": 0.0, "lat": 38.924574166666666, "is_reserved": 0, "type": "electric_scooter", "bike_id": "565e82b82c2fceac5c091bf0c99c8ae5", "is_disabled": 0, "rental_uris": {"android": "https://dc.lft.to/lastmile_qr_scan", "ios": "https://dc.lft.to/lastmile_qr_scan"}, "lon": -77.08164533333333, "fusion_lat": 0.0}, {"name": "a8d8a5e29384a728c0ff2dda7b38892f", "fusion_lon": 0.0, "lat": 38.926133666666665, "is_reserved": 0, "type": "electric_scooter", "bike_id": "a8d8a5e29384a728c0ff2dda7b38892f", "is_disabled": 0, "rental_uris": {"android": "https://dc.lft.to/lastmile_qr_scan", "ios": "https://dc.lft.to/lastmile_qr_scan"}, "lon": -77.02413783333333, "fusion_lat": 0.0}, {"name": "5e75a2faab9294e1b77440f27a6b119f", "fusion_lon": 0.0, "lat": 38.883629, "is_reserved": 0, "type": "electric_scooter", "bike_id": "5e75a2faab9294e1b77440f27a6b119f", "is_disabled": 0, "rental_uris": {"android": "https://dc.lft.to/lastmile_qr_scan", "ios": "https://dc.lft.to/lastmile_qr_scan"}, "lon": -76.99481966666667, "fusion_lat": 0.0}, {"name": "4147ca6d61247e0348e4b2a799ba56a5", "fusion_lon": 0.0, "lat": 38.82367633333333, "is_reserved": 0, "type": "electric_bike", "bike_id": "4147ca6d61247e0348e4b2a799ba56a5", "is_disabled": 0, "rental_uris": {"android": "https://dc.lft.to/lastmile_qr_scan", "ios": "https://dc.lft.to/lastmile_qr_scan"}, "lon": -77.00218233333334, "fusion_lat": 0.0}, {"name": "5a8b840ae9e89e28c8d2938982d7c604", "fusion_lon": 0.0, "lat": 38.9287625, "is_reserved": 0, "type": "electric_bike", "bike_id": "5a8b840ae9e89e28c8d2938982d7c604", "is_disabled": 0, "rental_uris": {"android": "https://dc.lft.to/lastmile_qr_scan", "ios": "https://dc.lft.to/lastmile_qr_scan"}, "lon": -77.01241033333334, "fusion_lat": 0.0}, {"name": "4710fe143bf0c15150b2a09738cdcf40", "fusion_lon": 0.0, "lat": 38.95683116666667, "is_reserved": 0, "type": "electric_bike", "bike_id": "4710fe143bf0c15150b2a09738cdcf40", "is_disabled": 0, "rental_uris": {"android": "https://dc.lft.to/lastmile_qr_scan", "ios": "https://dc.lft.to/lastmile_qr_scan"}, "lon": -77.0222355, "fusion_lat": 0.0}, {"name": "e87709bada2471b9a97ded2b62fab1d0", "fusion_lon": 0.0, "lat": 38.958418, "is_reserved": 0, "type": "electric_scooter", "bike_id": "e87709bada2471b9a97ded2b62fab1d0", "is_disabled": 0, "rental_uris": {"android": "https://dc.lft.to/lastmile_qr_scan", "ios": "https://dc.lft.to/lastmile_qr_scan"}, "lon": -77.02736266666666, "fusion_lat": 0.0}, {"name": "8d08408ddf4789179f4e3044c3ad9f2e", "fusion_lon": 0.0, "lat": 38.918746166666665, "is_reserved": 0, "type": "electric_scooter", "bike_id": "8d08408ddf4789179f4e3044c3ad9f2e", "is_disabled": 0, "rental_uris": {"android": "https://dc.lft.to/lastmile_qr_scan", "ios": "https://dc.lft.to/lastmile_qr_scan"}, "lon": -77.04372533333333, "fusion_lat": 0.0}, {"name": "fc71af148e38f4d84cf9caf9ffd6e4bc", "fusion_lon": 0.0, "lat": 38.909676, "is_reserved": 0, "type": "electric_scooter", "bike_id": "fc71af148e38f4d84cf9caf9ffd6e4bc", "is_disabled": 0, "rental_uris": {"android": "https://dc.lft.to/lastmile_qr_scan", "ios": "https://dc.lft.to/lastmile_qr_scan"}, "lon": -77.03380083333333, "fusion_lat": 0.0}, {"name": "6f823fae3e6bf64e4b81bd6866ca172b", "fusion_lon": 0.0, "lat": 38.9222835, "is_reserved": 0, "type": "electric_scooter", "bike_id": "6f823fae3e6bf64e4b81bd6866ca172b", "is_disabled": 0, "rental_uris": {"android": "https://dc.lft.to/lastmile_qr_scan", "ios": "https://dc.lft.to/lastmile_qr_scan"}, "lon": -77.04712283333333, "fusion_lat": 0.0}, {"name": "20b9660defe98165fae6f9563e32d742", "fusion_lon": 0.0, "lat": 38.859363333333334, "is_reserved": 0, "type": "electric_bike", "bike_id": "20b9660defe98165fae6f9563e32d742", "is_disabled": 0, "rental_uris": {"android": "https://dc.lft.to/lastmile_qr_scan", "ios": "https://dc.lft.to/lastmile_qr_scan"}, "lon": -77.11830116666667, "fusion_lat": 0.0}, {"name": "2d0ab2ef497024724277a1970ffa49fc", "fusion_lon": 0.0, "lat": 38.94984816666667, "is_reserved": 0, "type": "electric_scooter", "bike_id": "2d0ab2ef497024724277a1970ffa49fc", "is_disabled": 0, "rental_uris": {"android": "https://dc.lft.to/lastmile_qr_scan", "ios": "https://dc.lft.to/lastmile_qr_scan"}, "lon": -77.02646033333333, "fusion_lat": 0.0}, {"name": "339630d24727d887fde11edd40405a2d", "fusion_lon": 0.0, "lat": 38.886034, "is_reserved": 0, "type": "electric_scooter", "bike_id": "339630d24727d887fde11edd40405a2d", "is_disabled": 0, "rental_uris": {"android": "https://dc.lft.to/lastmile_qr_scan", "ios": "https://dc.lft.to/lastmile_qr_scan"}, "lon": -77.0013425, "fusion_lat": 0.0}, {"name": "7dd3a8a21b66e9223c2bb97f09e813ab", "fusion_lon": 0.0, "lat": 38.87710333333333, "is_reserved": 0, "type": "electric_scooter", "bike_id": "7dd3a8a21b66e9223c2bb97f09e813ab", "is_disabled": 0, "rental_uris": {"android": "https://dc.lft.to/lastmile_qr_scan", "ios": "https://dc.lft.to/lastmile_qr_scan"}, "lon": -77.01768283333334, "fusion_lat": 0.0}, {"name": "3bc7a83da904ccdde2918dcc188ed1a9", "fusion_lon": 0.0, "lat": 38.92353383333333, "is_reserved": 0, "type": "electric_scooter", "bike_id": "3bc7a83da904ccdde2918dcc188ed1a9", "is_disabled": 0, "rental_uris": {"android": "https://dc.lft.to/lastmile_qr_scan", "ios": "https://dc.lft.to/lastmile_qr_scan"}, "lon": -77.0528, "fusion_lat": 0.0}, {"name": "24f60c468cc9141f0e93edc16ef6ddd8", "fusion_lon": 0.0, "lat": 38.94177666666667, "is_reserved": 0, "type": "electric_scooter", "bike_id": "24f60c468cc9141f0e93edc16ef6ddd8", "is_disabled": 0, "rental_uris": {"android": "https://dc.lft.to/lastmile_qr_scan", "ios": "https://dc.lft.to/lastmile_qr_scan"}, "lon": -77.02794266666666, "fusion_lat": 0.0}, {"name": "e9d6882bc636eba556368fad879493eb", "fusion_lon": 0.0, "lat": 38.922175333333335, "is_reserved": 0, "type": "electric_scooter", "bike_id": "e9d6882bc636eba556368fad879493eb", "is_disabled": 0, "rental_uris": {"android": "https://dc.lft.to/lastmile_qr_scan", "ios": "https://dc.lft.to/lastmile_qr_scan"}, "lon": -77.032937, "fusion_lat": 0.0}, {"name": "08cb3de368c106e738bdc2e69f9b4b70", "fusion_lon": 0.0, "lat": 38.941834166666666, "is_reserved": 0, "type": "electric_scooter", "bike_id": "08cb3de368c106e738bdc2e69f9b4b70", "is_disabled": 0, "rental_uris": {"android": "https://dc.lft.to/lastmile_qr_scan", "ios": "https://dc.lft.to/lastmile_qr_scan"}, "lon": -77.02490366666666, "fusion_lat": 0.0}, {"name": "9679e93080d3687249319d5e25822987", "fusion_lon": 0.0, "lat": 38.8985355, "is_reserved": 0, "type": "electric_scooter", "bike_id": "9679e93080d3687249319d5e25822987", "is_disabled": 0, "rental_uris": {"android": "https://dc.lft.to/lastmile_qr_scan", "ios": "https://dc.lft.to/lastmile_qr_scan"}, "lon": -77.02385533333333, "fusion_lat": 0.0}, {"name": "62ce70a73d74e371b2f7741a8dcba923", "fusion_lon": 0.0, "lat": 38.91955216666667, "is_reserved": 0, "type": "electric_scooter", "bike_id": "62ce70a73d74e371b2f7741a8dcba923", "is_disabled": 0, "rental_uris": {"android": "https://dc.lft.to/lastmile_qr_scan", "ios": "https://dc.lft.to/lastmile_qr_scan"}, "lon": -77.03465616666666, "fusion_lat": 0.0}, {"name": "c8f93f71379b14205d44276777a7caa3", "fusion_lon": 0.0, "lat": 38.923093333333334, "is_reserved": 0, "type": "electric_bike", "bike_id": "c8f93f71379b14205d44276777a7caa3", "is_disabled": 0, "rental_uris": {"android": "https://dc.lft.to/lastmile_qr_scan", "ios": "https://dc.lft.to/lastmile_qr_scan"}, "lon": -77.022599, "fusion_lat": 0.0}, {"name": "08674f9a9f1e6bb412532fd755fe47a2", "fusion_lon": 0.0, "lat": 38.92699866666667, "is_reserved": 0, "type": "electric_scooter", "bike_id": "08674f9a9f1e6bb412532fd755fe47a2", "is_disabled": 0, "rental_uris": {"android": "https://dc.lft.to/lastmile_qr_scan", "ios": "https://dc.lft.to/lastmile_qr_scan"}, "lon": -77.02416366666667, "fusion_lat": 0.0}, {"name": "73ebb1b6712f5b4da39c61f51a603fe8", "fusion_lon": 0.0, "lat": 38.916238666666665, "is_reserved": 0, "type": "electric_scooter", "bike_id": "73ebb1b6712f5b4da39c61f51a603fe8", "is_disabled": 0, "rental_uris": {"android": "https://dc.lft.to/lastmile_qr_scan", "ios": "https://dc.lft.to/lastmile_qr_scan"}, "lon": -77.03855816666666, "fusion_lat": 0.0}, {"name": "8dbb99700a3dc90cd18f27d1b9a51e64", "fusion_lon": 0.0, "lat": 38.91421066666667, "is_reserved": 0, "type": "electric_scooter", "bike_id": "8dbb99700a3dc90cd18f27d1b9a51e64", "is_disabled": 0, "rental_uris": {"android": "https://dc.lft.to/lastmile_qr_scan", "ios": "https://dc.lft.to/lastmile_qr_scan"}, "lon": -77.03210333333334, "fusion_lat": 0.0}, {"name": "72ae682ef400536d296b654483bcd6ca", "fusion_lon": 0.0, "lat": 38.99344816666667, "is_reserved": 0, "type": "electric_bike", "bike_id": "72ae682ef400536d296b654483bcd6ca", "is_disabled": 0, "rental_uris": {"android": "https://dc.lft.to/lastmile_qr_scan", "ios": "https://dc.lft.to/lastmile_qr_scan"}, "lon": -77.1157625, "fusion_lat": 0.0}, {"name": "749546ccf0d6392295458ea9ed9fb275", "fusion_lon": 0.0, "lat": 38.91693516666667, "is_reserved": 0, "type": "electric_scooter", "bike_id": "749546ccf0d6392295458ea9ed9fb275", "is_disabled": 0, "rental_uris": {"android": "https://dc.lft.to/lastmile_qr_scan", "ios": "https://dc.lft.to/lastmile_qr_scan"}, "lon": -77.025177, "fusion_lat": 0.0}, {"name": "2851c03cf1909903fdc01301a4821296", "fusion_lon": 0.0, "lat": 38.865041166666664, "is_reserved": 0, "type": "electric_scooter", "bike_id": "2851c03cf1909903fdc01301a4821296", "is_disabled": 0, "rental_uris": {"android": "https://dc.lft.to/lastmile_qr_scan", "ios": "https://dc.lft.to/lastmile_qr_scan"}, "lon": -76.990015, "fusion_lat": 0.0}, {"name": "a65550a528f39dc6e6e114bbd243854a", "fusion_lon": 0.0, "lat": 38.807605, "is_reserved": 0, "type": "electric_bike", "bike_id": "a65550a528f39dc6e6e114bbd243854a", "is_disabled": 0, "rental_uris": {"android": "https://dc.lft.to/lastmile_qr_scan", "ios": "https://dc.lft.to/lastmile_qr_scan"}, "lon": -77.09466383333333, "fusion_lat": 0.0}, {"name": "cd969cf4daa1f18a7f4a233ad087a19b", "fusion_lon": 0.0, "lat": 38.9192735, "is_reserved": 0, "type": "electric_scooter", "bike_id": "cd969cf4daa1f18a7f4a233ad087a19b", "is_disabled": 0, "rental_uris": {"android": "https://dc.lft.to/lastmile_qr_scan", "ios": "https://dc.lft.to/lastmile_qr_scan"}, "lon": -77.04253683333333, "fusion_lat": 0.0}, {"name": "726941d34f1db75330ac20b65d0cba0b", "fusion_lon": 0.0, "lat": 38.91174, "is_reserved": 0, "type": "electric_scooter", "bike_id": "726941d34f1db75330ac20b65d0cba0b", "is_disabled": 0, "rental_uris": {"android": "https://dc.lft.to/lastmile_qr_scan", "ios": "https://dc.lft.to/lastmile_qr_scan"}, "lon": -77.01122466666666, "fusion_lat": 0.0}, {"name": "86653dcdedb8a9206917598208c0e5c6", "fusion_lon": 0.0, "lat": 38.86371333333334, "is_reserved": 0, "type": "electric_scooter", "bike_id": "86653dcdedb8a9206917598208c0e5c6", "is_disabled": 0, "rental_uris": {"android": "https://dc.lft.to/lastmile_qr_scan", "ios": "https://dc.lft.to/lastmile_qr_scan"}, "lon": -76.99059783333334, "fusion_lat": 0.0}, {"name": "4e2f36bc16ef977b2951041b92126b4c", "fusion_lon": 0.0, "lat": 38.91317166666666, "is_reserved": 0, "type": "electric_bike", "bike_id": "4e2f36bc16ef977b2951041b92126b4c", "is_disabled": 0, "rental_uris": {"android": "https://dc.lft.to/lastmile_qr_scan", "ios": "https://dc.lft.to/lastmile_qr_scan"}, "lon": -77.2230825, "fusion_lat": 0.0}, {"name": "d64495bae96fff778cc6443959b507f2", "fusion_lon": 0.0, "lat": 38.9375625, "is_reserved": 0, "type": "electric_scooter", "bike_id": "d64495bae96fff778cc6443959b507f2", "is_disabled": 0, "rental_uris": {"android": "https://dc.lft.to/lastmile_qr_scan", "ios": "https://dc.lft.to/lastmile_qr_scan"}, "lon": -77.02476616666667, "fusion_lat": 0.0}, {"name": "d370292c66e7191d482d5b18cffd08a6", "fusion_lon": 0.0, "lat": 38.917287333333334, "is_reserved": 0, "type": "electric_scooter", "bike_id": "d370292c66e7191d482d5b18cffd08a6", "is_disabled": 0, "rental_uris": {"android": "https://dc.lft.to/lastmile_qr_scan", "ios": "https://dc.lft.to/lastmile_qr_scan"}, "lon": -77.03209733333334, "fusion_lat": 0.0}, {"name": "3416ea393cb4ea7bb15706b1c5cfe93f", "fusion_lon": 0.0, "lat": 38.883689833333335, "is_reserved": 0, "type": "electric_scooter", "bike_id": "3416ea393cb4ea7bb15706b1c5cfe93f", "is_disabled": 0, "rental_uris": {"android": "https://dc.lft.to/lastmile_qr_scan", "ios": "https://dc.lft.to/lastmile_qr_scan"}, "lon": -76.99515583333333, "fusion_lat": 0.0}, {"name": "e326bc2ee97eaac52cb9b22f575957d7", "fusion_lon": 0.0, "lat": 38.89193366666667, "is_reserved": 0, "type": "electric_scooter", "bike_id": "e326bc2ee97eaac52cb9b22f575957d7", "is_disabled": 0, "rental_uris": {"android": "https://dc.lft.to/lastmile_qr_scan", "ios": "https://dc.lft.to/lastmile_qr_scan"}, "lon": -77.0029585, "fusion_lat": 0.0}, {"name": "6c88ad4372c25e4cb89dd45128400cf4", "fusion_lon": 0.0, "lat": 38.866863, "is_reserved": 0, "type": "electric_scooter", "bike_id": "6c88ad4372c25e4cb89dd45128400cf4", "is_disabled": 0, "rental_uris": {"android": "https://dc.lft.to/lastmile_qr_scan", "ios": "https://dc.lft.to/lastmile_qr_scan"}, "lon": -76.985548, "fusion_lat": 0.0}, {"name": "e62b06e76c0443bcd313f2a548969cb9", "fusion_lon": 0.0, "lat": 38.90256766666667, "is_reserved": 0, "type": "electric_scooter", "bike_id": "e62b06e76c0443bcd313f2a548969cb9", "is_disabled": 0, "rental_uris": {"android": "https://dc.lft.to/lastmile_qr_scan", "ios": "https://dc.lft.to/lastmile_qr_scan"}, "lon": -77.0395935, "fusion_lat": 0.0}, {"name": "8db90570b6db853a46037a8a7ee4c968", "fusion_lon": 0.0, "lat": 38.9318645, "is_reserved": 0, "type": "electric_scooter", "bike_id": "8db90570b6db853a46037a8a7ee4c968", "is_disabled": 0, "rental_uris": {"android": "https://dc.lft.to/lastmile_qr_scan", "ios": "https://dc.lft.to/lastmile_qr_scan"}, "lon": -77.03881433333333, "fusion_lat": 0.0}, {"name": "3de9c575697b30964535dcd96343cb1c", "fusion_lon": 0.0, "lat": 38.91053866666667, "is_reserved": 0, "type": "electric_scooter", "bike_id": "3de9c575697b30964535dcd96343cb1c", "is_disabled": 0, "rental_uris": {"android": "https://dc.lft.to/lastmile_qr_scan", "ios": "https://dc.lft.to/lastmile_qr_scan"}, "lon": -77.05390033333333, "fusion_lat": 0.0}, {"name": "89f8d7840bad702ed5506fe55613d057", "fusion_lon": 0.0, "lat": 38.90478783333333, "is_reserved": 0, "type": "electric_scooter", "bike_id": "89f8d7840bad702ed5506fe55613d057", "is_disabled": 0, "rental_uris": {"android": "https://dc.lft.to/lastmile_qr_scan", "ios": "https://dc.lft.to/lastmile_qr_scan"}, "lon": -77.053294, "fusion_lat": 0.0}, {"name": "ab3a039b0c5e908e05ec4c0a86ac6a00", "fusion_lon": 0.0, "lat": 38.97670766666667, "is_reserved": 0, "type": "electric_scooter", "bike_id": "ab3a039b0c5e908e05ec4c0a86ac6a00", "is_disabled": 0, "rental_uris": {"android": "https://dc.lft.to/lastmile_qr_scan", "ios": "https://dc.lft.to/lastmile_qr_scan"}, "lon": -77.0165595, "fusion_lat": 0.0}, {"name": "f61ffd9a51d098cebfc03e49bd9b3b3b", "fusion_lon": 0.0, "lat": 38.924164833333336, "is_reserved": 0, "type": "electric_scooter", "bike_id": "f61ffd9a51d098cebfc03e49bd9b3b3b", "is_disabled": 0, "rental_uris": {"android": "https://dc.lft.to/lastmile_qr_scan", "ios": "https://dc.lft.to/lastmile_qr_scan"}, "lon": -77.0506465, "fusion_lat": 0.0}, {"name": "463fcf5f6da99b10301da630c5922f93", "fusion_lon": 0.0, "lat": 38.884805666666665, "is_reserved": 0, "type": "electric_scooter", "bike_id": "463fcf5f6da99b10301da630c5922f93", "is_disabled": 0, "rental_uris": {"android": "https://dc.lft.to/lastmile_qr_scan", "ios": "https://dc.lft.to/lastmile_qr_scan"}, "lon": -77.00916633333334, "fusion_lat": 0.0}, {"name": "18d051019bdbdb017e939d4774d6db3f", "fusion_lon": 0.0, "lat": 38.88883383333334, "is_reserved": 0, "type": "electric_scooter", "bike_id": "18d051019bdbdb017e939d4774d6db3f", "is_disabled": 0, "rental_uris": {"android": "https://dc.lft.to/lastmile_qr_scan", "ios": "https://dc.lft.to/lastmile_qr_scan"}, "lon": -76.9477795, "fusion_lat": 0.0}, {"name": "115aff7fe89743d8c72a53e6673187f0", "fusion_lon": 0.0, "lat": 38.877198166666666, "is_reserved": 0, "type": "electric_scooter", "bike_id": "115aff7fe89743d8c72a53e6673187f0", "is_disabled": 0, "rental_uris": {"android": "https://dc.lft.to/lastmile_qr_scan", "ios": "https://dc.lft.to/lastmile_qr_scan"}, "lon": -77.01757016666667, "fusion_lat": 0.0}, {"name": "7a33326e193a58c601b8d8bd294c6f2a", "fusion_lon": 0.0, "lat": 38.900878666666664, "is_reserved": 0, "type": "electric_scooter", "bike_id": "7a33326e193a58c601b8d8bd294c6f2a", "is_disabled": 0, "rental_uris": {"android": "https://dc.lft.to/lastmile_qr_scan", "ios": "https://dc.lft.to/lastmile_qr_scan"}, "lon": -76.98323533333334, "fusion_lat": 0.0}, {"name": "e04d21248278b7c21d953c7f391930aa", "fusion_lon": 0.0, "lat": 38.94260116666667, "is_reserved": 0, "type": "electric_bike", "bike_id": "e04d21248278b7c21d953c7f391930aa", "is_disabled": 0, "rental_uris": {"android": "https://dc.lft.to/lastmile_qr_scan", "ios": "https://dc.lft.to/lastmile_qr_scan"}, "lon": -77.028329, "fusion_lat": 0.0}, {"name": "906e69f28a39db99d562fea614e0f4d8", "fusion_lon": 0.0, "lat": 38.92412983333333, "is_reserved": 0, "type": "electric_scooter", "bike_id": "906e69f28a39db99d562fea614e0f4d8", "is_disabled": 0, "rental_uris": {"android": "https://dc.lft.to/lastmile_qr_scan", "ios": "https://dc.lft.to/lastmile_qr_scan"}, "lon": -77.020227, "fusion_lat": 0.0}, {"name": "127e1365a985307913c6b547792edfa3", "fusion_lon": 0.0, "lat": 38.910311666666665, "is_reserved": 0, "type": "electric_scooter", "bike_id": "127e1365a985307913c6b547792edfa3", "is_disabled": 0, "rental_uris": {"android": "https://dc.lft.to/lastmile_qr_scan", "ios": "https://dc.lft.to/lastmile_qr_scan"}, "lon": -77.00762683333333, "fusion_lat": 0.0}, {"name": "65f7f34ed9ed606a595f67567ff4e00b", "fusion_lon": 0.0, "lat": 38.907947666666665, "is_reserved": 0, "type": "electric_scooter", "bike_id": "65f7f34ed9ed606a595f67567ff4e00b", "is_disabled": 0, "rental_uris": {"android": "https://dc.lft.to/lastmile_qr_scan", "ios": "https://dc.lft.to/lastmile_qr_scan"}, "lon": -77.00205433333333, "fusion_lat": 0.0}, {"name": "7d1c02d7d91311de889bc4368d26652b", "fusion_lon": 0.0, "lat": 38.93222933333333, "is_reserved": 0, "type": "electric_scooter", "bike_id": "7d1c02d7d91311de889bc4368d26652b", "is_disabled": 0, "rental_uris": {"android": "https://dc.lft.to/lastmile_qr_scan", "ios": "https://dc.lft.to/lastmile_qr_scan"}, "lon": -77.0387205, "fusion_lat": 0.0}, {"name": "f8f98cedc0bdc471c03520d98beda174", "fusion_lon": 0.0, "lat": 38.7960305, "is_reserved": 0, "type": "electric_bike", "bike_id": "f8f98cedc0bdc471c03520d98beda174", "is_disabled": 0, "rental_uris": {"android": "https://dc.lft.to/lastmile_qr_scan", "ios": "https://dc.lft.to/lastmile_qr_scan"}, "lon": -76.997381, "fusion_lat": 0.0}, {"name": "cb16e0af9e9c4dba6a7406321e27b764", "fusion_lon": 0.0, "lat": 38.893177666666666, "is_reserved": 0, "type": "electric_scooter", "bike_id": "cb16e0af9e9c4dba6a7406321e27b764", "is_disabled": 0, "rental_uris": {"android": "https://dc.lft.to/lastmile_qr_scan", "ios": "https://dc.lft.to/lastmile_qr_scan"}, "lon": -77.01792033333334, "fusion_lat": 0.0}, {"name": "0fddd558fcebdca89d9e11b52feb20ae", "fusion_lon": 0.0, "lat": 38.87396016666667, "is_reserved": 0, "type": "electric_scooter", "bike_id": "0fddd558fcebdca89d9e11b52feb20ae", "is_disabled": 0, "rental_uris": {"android": "https://dc.lft.to/lastmile_qr_scan", "ios": "https://dc.lft.to/lastmile_qr_scan"}, "lon": -77.00024616666667, "fusion_lat": 0.0}, {"name": "a181701d4db175a1df5e7977fc4a9813", "fusion_lon": 0.0, "lat": 38.922358833333334, "is_reserved": 0, "type": "electric_scooter", "bike_id": "a181701d4db175a1df5e7977fc4a9813", "is_disabled": 0, "rental_uris": {"android": "https://dc.lft.to/lastmile_qr_scan", "ios": "https://dc.lft.to/lastmile_qr_scan"}, "lon": -77.03665883333333, "fusion_lat": 0.0}, {"name": "2eb6e7e1d4ba4476630502d2f85106a0", "fusion_lon": 0.0, "lat": 38.907989666666666, "is_reserved": 0, "type": "electric_scooter", "bike_id": "2eb6e7e1d4ba4476630502d2f85106a0", "is_disabled": 0, "rental_uris": {"android": "https://dc.lft.to/lastmile_qr_scan", "ios": "https://dc.lft.to/lastmile_qr_scan"}, "lon": -77.031337, "fusion_lat": 0.0}, {"name": "fd7eb9805245c69876d169e7470e08ab", "fusion_lon": 0.0, "lat": 38.892196, "is_reserved": 0, "type": "electric_scooter", "bike_id": "fd7eb9805245c69876d169e7470e08ab", "is_disabled": 0, "rental_uris": {"android": "https://dc.lft.to/lastmile_qr_scan", "ios": "https://dc.lft.to/lastmile_qr_scan"}, "lon": -77.04306233333334, "fusion_lat": 0.0}, {"name": "b57c3c80e17002c88d5558f9cf140e87", "fusion_lon": 0.0, "lat": 38.903877333333334, "is_reserved": 0, "type": "electric_scooter", "bike_id": "b57c3c80e17002c88d5558f9cf140e87", "is_disabled": 0, "rental_uris": {"android": "https://dc.lft.to/lastmile_qr_scan", "ios": "https://dc.lft.to/lastmile_qr_scan"}, "lon": -77.02816666666666, "fusion_lat": 0.0}, {"name": "183abea06981751ec5c92dfb8a594c9c", "fusion_lon": 0.0, "lat": 38.90229766666667, "is_reserved": 0, "type": "electric_scooter", "bike_id": "183abea06981751ec5c92dfb8a594c9c", "is_disabled": 0, "rental_uris": {"android": "https://dc.lft.to/lastmile_qr_scan", "ios": "https://dc.lft.to/lastmile_qr_scan"}, "lon": -76.98925183333333, "fusion_lat": 0.0}, {"name": "e4aa3303cc3e2cb7c03764ac96f610a9", "fusion_lon": 0.0, "lat": 38.884915, "is_reserved": 0, "type": "electric_scooter", "bike_id": "e4aa3303cc3e2cb7c03764ac96f610a9", "is_disabled": 0, "rental_uris": {"android": "https://dc.lft.to/lastmile_qr_scan", "ios": "https://dc.lft.to/lastmile_qr_scan"}, "lon": -77.00706983333333, "fusion_lat": 0.0}, {"name": "619d1ba4ac2d641212ed0ca572e646ac", "fusion_lon": 0.0, "lat": 38.900340166666666, "is_reserved": 0, "type": "electric_scooter", "bike_id": "619d1ba4ac2d641212ed0ca572e646ac", "is_disabled": 0, "rental_uris": {"android": "https://dc.lft.to/lastmile_qr_scan", "ios": "https://dc.lft.to/lastmile_qr_scan"}, "lon": -77.00299483333333, "fusion_lat": 0.0}, {"name": "523a0d965273282a81db88149269a777", "fusion_lon": 0.0, "lat": 38.902091666666664, "is_reserved": 0, "type": "electric_scooter", "bike_id": "523a0d965273282a81db88149269a777", "is_disabled": 0, "rental_uris": {"android": "https://dc.lft.to/lastmile_qr_scan", "ios": "https://dc.lft.to/lastmile_qr_scan"}, "lon": -77.04687283333334, "fusion_lat": 0.0}, {"name": "d7f8ac6ee3595fe084be8c18a2df0646", "fusion_lon": 0.0, "lat": 38.920199, "is_reserved": 0, "type": "electric_scooter", "bike_id": "d7f8ac6ee3595fe084be8c18a2df0646", "is_disabled": 0, "rental_uris": {"android": "https://dc.lft.to/lastmile_qr_scan", "ios": "https://dc.lft.to/lastmile_qr_scan"}, "lon": -77.04188683333334, "fusion_lat": 0.0}, {"name": "0316f3df584487417c5d32134abe58fd", "fusion_lon": 0.0, "lat": 38.91717933333334, "is_reserved": 0, "type": "electric_scooter", "bike_id": "0316f3df584487417c5d32134abe58fd", "is_disabled": 0, "rental_uris": {"android": "https://dc.lft.to/lastmile_qr_scan", "ios": "https://dc.lft.to/lastmile_qr_scan"}, "lon": -77.02591083333333, "fusion_lat": 0.0}, {"name": "e28ac445237da728ba0172f2fe58d565", "fusion_lon": 0.0, "lat": 38.93303016666667, "is_reserved": 0, "type": "electric_scooter", "bike_id": "e28ac445237da728ba0172f2fe58d565", "is_disabled": 0, "rental_uris": {"android": "https://dc.lft.to/lastmile_qr_scan", "ios": "https://dc.lft.to/lastmile_qr_scan"}, "lon": -77.07264183333334, "fusion_lat": 0.0}, {"name": "a1841ed2485b8f4ae65693e3b7ca08cf", "fusion_lon": 0.0, "lat": 38.9112165, "is_reserved": 0, "type": "electric_scooter", "bike_id": "a1841ed2485b8f4ae65693e3b7ca08cf", "is_disabled": 0, "rental_uris": {"android": "https://dc.lft.to/lastmile_qr_scan", "ios": "https://dc.lft.to/lastmile_qr_scan"}, "lon": -77.03042116666667, "fusion_lat": 0.0}, {"name": "6d9ce528b29c5bf47845a75c09dcafa3", "fusion_lon": 0.0, "lat": 38.89222216666667, "is_reserved": 0, "type": "electric_scooter", "bike_id": "6d9ce528b29c5bf47845a75c09dcafa3", "is_disabled": 0, "rental_uris": {"android": "https://dc.lft.to/lastmile_qr_scan", "ios": "https://dc.lft.to/lastmile_qr_scan"}, "lon": -77.0321965, "fusion_lat": 0.0}, {"name": "8b8e6f71e615f93cb1e813863fc9c536", "fusion_lon": 0.0, "lat": 38.93058533333333, "is_reserved": 0, "type": "electric_scooter", "bike_id": "8b8e6f71e615f93cb1e813863fc9c536", "is_disabled": 0, "rental_uris": {"android": "https://dc.lft.to/lastmile_qr_scan", "ios": "https://dc.lft.to/lastmile_qr_scan"}, "lon": -77.0335865, "fusion_lat": 0.0}, {"name": "59d8b09b96e866aa846975e0adc99ed4", "fusion_lon": 0.0, "lat": 38.91417716666667, "is_reserved": 0, "type": "electric_scooter", "bike_id": "59d8b09b96e866aa846975e0adc99ed4", "is_disabled": 0, "rental_uris": {"android": "https://dc.lft.to/lastmile_qr_scan", "ios": "https://dc.lft.to/lastmile_qr_scan"}, "lon": -77.022504, "fusion_lat": 0.0}, {"name": "7212efb1598e104b36cc61f8e18a6875", "fusion_lon": 0.0, "lat": 38.8927685, "is_reserved": 0, "type": "electric_scooter", "bike_id": "7212efb1598e104b36cc61f8e18a6875", "is_disabled": 0, "rental_uris": {"android": "https://dc.lft.to/lastmile_qr_scan", "ios": "https://dc.lft.to/lastmile_qr_scan"}, "lon": -77.003578, "fusion_lat": 0.0},