{"data": {"bikes": [{"lon": -77.0326235, "bike_id": "00ae09a5a547879871974b3ddc5a5815", "lat": 38.937735333333336, "fusion_lon": 0.0, "fusion_lat": 0.0, "type": "electric_scooter", "name": "00ae09a5a547879871974b3ddc5a5815", "is_disabled": 0, "rental_uris": {"ios": "https://dc.lft.to/lastmile_qr_scan", "android": "https://dc.lft.to/lastmile_qr_scan"}, "is_reserved": 0}, {"lon": -76.9975555, "bike_id": "2a222532e0aa5251c641f02ac6262e85", "lat": 38.950138, "fusion_lon": 0.0, "fusion_lat": 0.0, "type": "electric_bike", "name": "2a222532e0aa5251c641f02ac6262e85", "is_disabled": 0, "rental_uris": {"ios": "https://dc.lft.to/lastmile_qr_scan", "android": "https://dc.lft.to/lastmile_qr_scan"}, "is_reserved": 0}, {"lon": -77.02328, "bike_id": "e7c34e905ee4229a2e19f38852aae6bf", "lat": 38.935289833333336, "fusion_lon": 0.0, "fusion_lat": 0.0, "type": "electric_scooter", "name": "e7c34e905ee4229a2e19f38852aae6bf", "is_disabled": 0, "rental_uris": {"ios": "https://dc.lft.to/lastmile_qr_scan", "android": "https://dc.lft.to/lastmile_qr_scan"}, "is_reserved": 0}, {"lon": -77.04451283333333, "bike_id": "ae9d155a32ec6f0768df532df7588856", "lat": 38.911204833333336, "fusion_lon": 0.0, "fusion_lat": 0.0, "type": "electric_scooter", "name": "ae9d155a32ec6f0768df532df7588856", "is_disabled": 0, "rental_uris": {"ios": "https://dc.lft.to/lastmile_qr_scan", "android": "https://dc.lft.to/lastmile_qr_scan"}, "is_reserved": 0}, {"lon": -77.03850066666666, "bike_id": "4fa0595a8949a31999f15a534f00fba8", "lat": 38.93249183333333, "fusion_lon": 0.0, "fusion_lat": 0.0, "type": "electric_scooter", "name": "4fa0595a8949a31999f15a534f00fba8", "is_disabled": 0, "rental_uris": {"ios": "https://dc.lft.to/lastmile_qr_scan", "android": "https://dc.lft.to/lastmile_qr_scan"}, "is_reserved": 0}, {"lon": -76.950046, "bike_id": "a0efea0e0b365ea64983491a177edb32", "lat": 38.893803, "fusion_lon": 0.0, "fusion_lat": 0.0, "type": "electric_scooter", "name": "a0efea0e0b365ea64983491a177edb32", "is_disabled": 0, "rental_uris": {"ios": "https://dc.lft.to/lastmile_qr_scan", "android": "https://dc.lft.to/lastmile_qr_scan"}, "is_reserved": 0}, {"lon": -77.038681, "bike_id": "70b06cf252d27f4f511b86cc032960f6", "lat": 38.909725333333334, "fusion_lon": 0.0, "fusion_lat": 0.0, "type": "electric_scooter", "name": "70b06cf252d27f4f511b86cc032960f6", "is_disabled": 0, "rental_uris": {"ios": "https://dc.lft.to/lastmile_qr_scan", "android": "https://dc.lft.to/lastmile_qr_scan"}, "is_reserved": 0}, {"lon": -76.97559583333333, "bike_id": "5e77b33128e33c67295510070388ed38", "lat": 38.9245745, "fusion_lon": 0.0, "fusion_lat": 0.0, "type": "electric_bike", "name": "5e77b33128e33c67295510070388ed38", "is_disabled": 0, "rental_uris": {"ios": "https://dc.lft.to/lastmile_qr_scan", "android": "https://dc.lft.to/lastmile_qr_scan"}, "is_reserved": 0}, {"lon": -77.0326405, "bike_id": "7ddc81d4a504ef13e6b9115035ffa1c1", "lat": 38.93137483333334, "fusion_lon": 0.0, "fusion_lat": 0.0, "type": "electric_scooter", "name": "7ddc81d4a504ef13e6b9115035ffa1c1", "is_disabled": 0, "rental_uris": {"ios": "https://dc.lft.to/lastmile_qr_scan", "android": "https://dc.lft.to/lastmile_qr_scan"}, "is_reserved": 0}, {"lon": -76.97858783333334, "bike_id": "b016b0fdd44b66613b7202e02ae9e5b3", "lat": 38.907225, "fusion_lon": 0.0, "fusion_lat": 0.0, "type": "electric_scooter", "name": "b016b0fdd44b66613b7202e02ae9e5b3", "is_disabled": 0, "rental_uris": {"ios": "https://dc.lft.to/lastmile_qr_scan", "android": "https://dc.lft.to/lastmile_qr_scan"}, "is_reserved": 0}, {"lon": -77.0386625, "bike_id": "6b53552a7e9aaac4c4cd1b1930bda2c2", "lat": 38.91266066666667, "fusion_lon": 0.0, "fusion_lat": 0.0, "type": "electric_scooter", "name": "6b53552a7e9aaac4c4cd1b1930bda2c2", "is_disabled": 0, "rental_uris": {"ios": "https://dc.lft.to/lastmile_qr_scan", "android": "https://dc.lft.to/lastmile_qr_scan"}, "is_reserved": 0}, {"lon": -77.01586166666667, "bike_id": "78235aeb980c8005b307be43c3399783", "lat": 38.88307233333333, "fusion_lon": 0.0, "fusion_lat": 0.0, "type": "electric_scooter", "name": "78235aeb980c8005b307be43c3399783", "is_disabled": 0, "rental_uris": {"ios": "https://dc.lft.to/lastmile_qr_scan", "android": "https://dc.lft.to/lastmile_qr_scan"}, "is_reserved": 0}, {"lon": -77.0209315, "bike_id": "a6160d79744e7129f648dc48203d56a5", "lat": 38.92914366666667, "fusion_lon": 0.0, "fusion_lat": 0.0, "type": "electric_scooter", "name": "a6160d79744e7129f648dc48203d56a5", "is_disabled": 0, "rental_uris": {"ios": "https://dc.lft.to/lastmile_qr_scan", "android": "https://dc.lft.to/lastmile_qr_scan"}, "is_reserved": 0}, {"lon": -77.023301, "bike_id": "3a841a04a4bc00e0b480bb68eef8413e", "lat": 38.922253833333336, "fusion_lon": 0.0, "fusion_lat": 0.0, "type": "electric_scooter", "name": "3a841a04a4bc00e0b480bb68eef8413e", "is_disabled": 0, "rental_uris": {"ios": "https://dc.lft.to/lastmile_qr_scan", "android": "https://dc.lft.to/lastmile_qr_scan"}, "is_reserved": 0}, {"lon": -76.948886, "bike_id": "fc5d48f87187dd85e37d1b160f55c2af", "lat": 38.895095833333336, "fusion_lon": 0.0, "fusion_lat": 0.0, "type": "electric_scooter", "name": "fc5d48f87187dd85e37d1b160f55c2af", "is_disabled": 0, "rental_uris": {"ios": "https://dc.lft.to/lastmile_qr_scan", "android": "https://dc.lft.to/lastmile_qr_scan"}, "is_reserved": 0}, {"lon": -77.02649433333333, "bike_id": "229dab42fdc800c72159c94b0d16e6e9", "lat": 38.897191, "fusion_lon": 0.0, "fusion_lat": 0.0, "type": "electric_scooter", "name": "229dab42fdc800c72159c94b0d16e6e9", "is_disabled": 0, "rental_uris": {"ios": "https://dc.lft.to/lastmile_qr_scan", "android": "https://dc.lft.to/lastmile_qr_scan"}, "is_reserved": 0}, {"lon": -77.016683, "bike_id": "dcd3ef4074679ced65b0f567c51b5d9f", "lat": 38.881172666666664, "fusion_lon": 0.0, "fusion_lat": 0.0, "type": "electric_scooter", "name": "dcd3ef4074679ced65b0f567c51b5d9f", "is_disabled": 0, "rental_uris": {"ios": "https://dc.lft.to/lastmile_qr_scan", "android": "https://dc.lft.to/lastmile_qr_scan"}, "is_reserved": 0}, {"lon": -77.02087716666666, "bike_id": "fac2b576f4bf34ce0674adadfa5a7792", "lat": 38.95754433333333, "fusion_lon": 0.0, "fusion_lat": 0.0, "type": "electric_scooter", "name": "fac2b576f4bf34ce0674adadfa5a7792", "is_disabled": 0, "rental_uris": {"ios": "https://dc.lft.to/lastmile_qr_scan", "android": "https://dc.lft.to/lastmile_qr_scan"}, "is_reserved": 0}, {"lon": -77.05573016666666, "bike_id": "f760586c3394b5cb9545462e72fa1584", "lat": 38.9159925, "fusion_lon": 0.0, "fusion_lat": 0.0, "type": "electric_scooter", "name": "f760586c3394b5cb9545462e72fa1584", "is_disabled": 0, "rental_uris": {"ios": "https://dc.lft.to/lastmile_qr_scan", "android": "https://dc.lft.to/lastmile_qr_scan"}, "is_reserved": 0}, {"lon": -77.031834, "bike_id": "8de9086a6f0f424f3dd8a47a1dd3a510", "lat": 38.913430166666664, "fusion_lon": 0.0, "fusion_lat": 0.0, "type": "electric_scooter", "name": "8de9086a6f0f424f3dd8a47a1dd3a510", "is_disabled": 0, "rental_uris": {"ios": "https://dc.lft.to/lastmile_qr_scan", "android": "https://dc.lft.to/lastmile_qr_scan"}, "is_reserved": 0}, {"lon": -76.9900225, "bike_id": "0a742098ff4283d7001ff421d42709ab", "lat": 38.865051333333334, "fusion_lon": 0.0, "fusion_lat": 0.0, "type": "electric_scooter", "name": "0a742098ff4283d7001ff421d42709ab", "is_disabled": 0, "rental_uris": {"ios": "https://dc.lft.to/lastmile_qr_scan", "android": "https://dc.lft.to/lastmile_qr_scan"}, "is_reserved": 0}, {"lon": -77.0440755, "bike_id": "6be834cd921d3a60a15d4ddaa4760387", "lat": 38.90891833333333, "fusion_lon": 0.0, "fusion_lat": 0.0, "type": "electric_scooter", "name": "6be834cd921d3a60a15d4ddaa4760387", "is_disabled": 0, "rental_uris": {"ios": "https://dc.lft.to/lastmile_qr_scan", "android": "https://dc.lft.to/lastmile_qr_scan"}, "is_reserved": 0}, {"lon": -77.03332866666666, "bike_id": "f21d612e144687b6e349d06750773d6c", "lat": 38.93645033333333, "fusion_lon": 0.0, "fusion_lat": 0.0, "type": "electric_scooter", "name": "f21d612e144687b6e349d06750773d6c", "is_disabled": 0, "rental_uris": {"ios": "https://dc.lft.to/lastmile_qr_scan", "android": "https://dc.lft.to/lastmile_qr_scan"}, "is_reserved": 0}, {"lon": -76.9933335, "bike_id": "b0d76cccca239642e454f1fa7e43c88a", "lat": 38.8714255, "fusion_lon": 0.0, "fusion_lat": 0.0, "type": "electric_scooter", "name": "b0d76cccca239642e454f1fa7e43c88a", "is_disabled": 0, "rental_uris": {"ios": "https://dc.lft.to/lastmile_qr_scan", "android": "https://dc.lft.to/lastmile_qr_scan"}, "is_reserved": 0}, {"lon": -76.98706966666667, "bike_id": "e871d88dd78904abfec58dae6fe58cb1", "lat": 38.865381666666664, "fusion_lon": 0.0, "fusion_lat": 0.0, "type": "electric_scooter", "name": "e871d88dd78904abfec58dae6fe58cb1", "is_disabled": 0, "rental_uris": {"ios": "https://dc.lft.to/lastmile_qr_scan", "android": "https://dc.lft.to/lastmile_qr_scan"}, "is_reserved": 0}, {"lon": -77.026895, "bike_id": "7888415ba3cb3a747ea89a864788fab9", "lat": 38.924804, "fusion_lon": 0.0, "fusion_lat": 0.0, "type": "electric_scooter", "name": "7888415ba3cb3a747ea89a864788fab9", "is_disabled": 0, "rental_uris": {"ios": "https://dc.lft.to/lastmile_qr_scan", "android": "https://dc.lft.to/lastmile_qr_scan"}, "is_reserved": 0}, {"lon": -77.02720183333334, "bike_id": "565ed06337e39b8eac4f78e6669fcda8", "lat": 38.9106845, "fusion_lon": 0.0, "fusion_lat": 0.0, "type": "electric_scooter", "name": "565ed06337e39b8eac4f78e6669fcda8", "is_disabled": 0, "rental_uris": {"ios": "https://dc.lft.to/lastmile_qr_scan", "android": "https://dc.lft.to/lastmile_qr_scan"}, "is_reserved": 0}, {"lon": -77.0331605, "bike_id": "421a7fe491910e42de3aff5cc61c049a", "lat": 38.90372633333333, "fusion_lon": 0.0, "fusion_lat": 0.0, "type": "electric_scooter", "name": "421a7fe491910e42de3aff5cc61c049a", "is_disabled": 0, "rental_uris": {"ios": "https://dc.lft.to/lastmile_qr_scan", "android": "https://dc.lft.to/lastmile_qr_scan"}, "is_reserved": 0}, {"lon": -76.98726633333334, "bike_id": "3fc8f97dc2a25101aa13e1891b419568", "lat": 38.867094, "fusion_lon": 0.0, "fusion_lat": 0.0, "type": "electric_scooter", "name": "3fc8f97dc2a25101aa13e1891b419568", "is_disabled": 0, "rental_uris": {"ios": "https://dc.lft.to/lastmile_qr_scan", "android": "https://dc.lft.to/lastmile_qr_scan"}, "is_reserved": 0}, {"lon": -77.03200533333333, "bike_id": "b99f3a4490055908d955168fe8f0d60f", "lat": 38.896363, "fusion_lon": 0.0, "fusion_lat": 0.0, "type": "electric_scooter", "name": "b99f3a4490055908d955168fe8f0d60f", "is_disabled": 0, "rental_uris": {"ios": "https://dc.lft.to/lastmile_qr_scan", "android": "https://dc.lft.to/lastmile_qr_scan"}, "is_reserved": 0}, {"lon": -76.9299705, "bike_id": "634eadf5966b7fd7dfe5e43a649ab6a5", "lat": 38.901887, "fusion_lon": 0.0, "fusion_lat": 0.0, "type": "electric_scooter", "name": "634eadf5966b7fd7dfe5e43a649ab6a5", "is_disabled": 0, "rental_uris": {"ios": "https://dc.lft.to/lastmile_qr_scan", "android": "https://dc.lft.to/lastmile_qr_scan"}, "is_reserved": 0}, {"lon": -77.02169216666667, "bike_id": "30c6c004d5e5d6e261874e544ec7d35f", "lat": 38.8833035, "fusion_lon": 0.0, "fusion_lat": 0.0, "type": "electric_scooter", "name": "30c6c004d5e5d6e261874e544ec7d35f", "is_disabled": 0, "rental_uris": {"ios": "https://dc.lft.to/lastmile_qr_scan", "android": "https://dc.lft.to/lastmile_qr_scan"}, "is_reserved": 0}, {"lon": -77.04019283333334, "bike_id": "e1bc45bd583adfffcbdcf3a58c79b58e", "lat": 38.91112433333333, "fusion_lon": 0.0, "fusion_lat": 0.0, "type": "electric_scooter", "name": "e1bc45bd583adfffcbdcf3a58c79b58e", "is_disabled": 0, "rental_uris": {"ios": "https://dc.lft.to/lastmile_qr_scan", "android": "https://dc.lft.to/lastmile_qr_scan"}, "is_reserved": 0}, {"lon": -77.0142165, "bike_id": "5dd33cb7570042c351c5859479272e55", "lat": 38.928650166666664, "fusion_lon": 0.0, "fusion_lat": 0.0, "type": "electric_scooter", "name": "5dd33cb7570042c351c5859479272e55", "is_disabled": 0, "rental_uris": {"ios": "https://dc.lft.to/lastmile_qr_scan", "android": "https://dc.lft.to/lastmile_qr_scan"}, "is_reserved": 0}, {"lon": -77.0435475, "bike_id": "af585fcea0d5b870ee2c8231e09bbfc6", "lat": 38.9071615, "fusion_lon": 0.0, "fusion_lat": 0.0, "type": "electric_scooter", "name": "af585fcea0d5b870ee2c8231e09bbfc6", "is_disabled": 0, "rental_uris": {"ios": "https://dc.lft.to/lastmile_qr_scan", "android": "https://dc.lft.to/lastmile_qr_scan"}, "is_reserved": 0}, {"lon": -77.03206633333333, "bike_id": "784c9db978412746ba9e2a5809522597", "lat": 38.915367833333335, "fusion_lon": 0.0, "fusion_lat": 0.0, "type": "electric_scooter", "name": "784c9db978412746ba9e2a5809522597", "is_disabled": 0, "rental_uris": {"ios": "https://dc.lft.to/lastmile_qr_scan", "android": "https://dc.lft.to/lastmile_qr_scan"}, "is_reserved": 0}, {"lon": -77.045199, "bike_id": "28fd2935fc73bd33e789341986763a82", "lat": 38.88603616666666, "fusion_lon": 0.0, "fusion_lat": 0.0, "type": "electric_scooter", "name": "28fd2935fc73bd33e789341986763a82", "is_disabled": 0, "rental_uris": {"ios": "https://dc.lft.to/lastmile_qr_scan", "android": "https://dc.lft.to/lastmile_qr_scan"}, "is_reserved": 0}, {"lon": -77.023062, "bike_id": "ad077040e0cfcb73d81d6ecb543de0d8", "lat": 38.9168, "fusion_lon": 0.0, "fusion_lat": 0.0, "type": "electric_scooter", "name": "ad077040e0cfcb73d81d6ecb543de0d8", "is_disabled": 0, "rental_uris": {"ios": "https://dc.lft.to/lastmile_qr_scan", "android": "https://dc.lft.to/lastmile_qr_scan"}, "is_reserved": 0}, {"lon": -77.1091155, "bike_id": "7ed2c0d9778a9dab0ca33834b36a7280", "lat": 39.052069, "fusion_lon": 0.0, "fusion_lat": 0.0, "type": "electric_bike", "name": "7ed2c0d9778a9dab0ca33834b36a7280", "is_disabled": 0, "rental_uris": {"ios": "https://dc.lft.to/lastmile_qr_scan", "android": "https://dc.lft.to/lastmile_qr_scan"}, "is_reserved": 0}, {"lon": -77.0271535, "bike_id": "1983e2d2ec7f1939b63f58cdf4852ac1", "lat": 38.92767166666667, "fusion_lon": 0.0, "fusion_lat": 0.0, "type": "electric_scooter", "name": "1983e2d2ec7f1939b63f58cdf4852ac1", "is_disabled": 0, "rental_uris": {"ios": "https://dc.lft.to/lastmile_qr_scan", "android": "https://dc.lft.to/lastmile_qr_scan"}, "is_reserved": 0}, {"lon": -77.03904216666666, "bike_id": "60d98827dd1a873142d68a31a3544ce0", "lat": 38.918418, "fusion_lon": 0.0, "fusion_lat": 0.0, "type": "electric_scooter", "name": "60d98827dd1a873142d68a31a3544ce0", "is_disabled": 0, "rental_uris": {"ios": "https://dc.lft.to/lastmile_qr_scan", "android": "https://dc.lft.to/lastmile_qr_scan"}, "is_reserved": 0}, {"lon": -77.01233633333334, "bike_id": "0b4e133f03ddec4fa527962825e30239", "lat": 38.8929485, "fusion_lon": 0.0, "fusion_lat": 0.0, "type": "electric_scooter", "name": "0b4e133f03ddec4fa527962825e30239", "is_disabled": 0, "rental_uris": {"ios": "https://dc.lft.to/lastmile_qr_scan", "android": "https://dc.lft.to/lastmile_qr_scan"}, "is_reserved": 0}, {"lon": -77.0318115, "bike_id": "bf5d1a5f15d1d0299f0d78fa372e3c1f", "lat": 38.892155333333335, "fusion_lon": 0.0, "fusion_lat": 0.0, "type": "electric_scooter", "name": "bf5d1a5f15d1d0299f0d78fa372e3c1f", "is_disabled": 0, "rental_uris": {"ios": "https://dc.lft.to/lastmile_qr_scan", "android": "https://dc.lft.to/lastmile_qr_scan"}, "is_reserved": 0}, {"lon": -77.016304, "bike_id": "faf2d5f2141c92d0636ec5065a972749", "lat": 38.905727166666665, "fusion_lon": 0.0, "fusion_lat": 0.0, "type": "electric_scooter", "name": "faf2d5f2141c92d0636ec5065a972749", "is_disabled": 0, "rental_uris": {"ios": "https://dc.lft.to/lastmile_qr_scan", "android": "https://dc.lft.to/lastmile_qr_scan"}, "is_reserved": 0}, {"lon": -77.02697916666666, "bike_id": "ab33891bd80cc5850a718f50684c086a", "lat": 38.91778866666667, "fusion_lon": 0.0, "fusion_lat": 0.0, "type": "electric_scooter", "name": "ab33891bd80cc5850a718f50684c086a", "is_disabled": 0, "rental_uris": {"ios": "https://dc.lft.to/lastmile_qr_scan", "android": "https://dc.lft.to/lastmile_qr_scan"}, "is_reserved": 0}, {"lon": -77.035575, "bike_id": "2d4d288356274c65c5bbcbe9d4ed44fd", "lat": 38.908575666666664, "fusion_lon": 0.0, "fusion_lat": 0.0, "type": "electric_scooter", "name": "2d4d288356274c65c5bbcbe9d4ed44fd", "is_disabled": 0, "rental_uris": {"ios": "https://dc.lft.to/lastmile_qr_scan", "android": "https://dc.lft.to/lastmile_qr_scan"}, "is_reserved": 0}, {"lon": -76.9885635, "bike_id": "02baf86d98dd818f643393ceec4e85c8", "lat": 38.900298, "fusion_lon": 0.0, "fusion_lat": 0.0, "type": "electric_scooter", "name": "02baf86d98dd818f643393ceec4e85c8", "is_disabled": 0, "rental_uris": {"ios": "https://dc.lft.to/lastmile_qr_scan", "android": "https://dc.lft.to/lastmile_qr_scan"}, "is_reserved": 0}, {"lon": -77.03809733333334, "bike_id": "ff2a14399c8801be6059040807580910", "lat": 38.920667333333334, "fusion_lon": 0.0, "fusion_lat": 0.0, "type": "electric_scooter", "name": "ff2a14399c8801be6059040807580910", "is_disabled": 0, "rental_uris": {"ios": "https://dc.lft.to/lastmile_qr_scan", "android": "https://dc.lft.to/lastmile_qr_scan"}, "is_reserved": 0}, {"lon": -76.99759516666667, "bike_id": "441c647fecea121ac49727a37ff888d9", "lat": 38.9004095, "fusion_lon": 0.0, "fusion_lat": 0.0, "type": "electric_scooter", "name": "441c647fecea121ac49727a37ff888d9", "is_disabled": 0, "rental_uris": {"ios": "https://dc.lft.to/lastmile_qr_scan", "android": "https://dc.lft.to/lastmile_qr_scan"}, "is_reserved": 0}, {"lon": -77.0364455, "bike_id": "8fdab97606e27c9b5df466f903f28acb", "lat": 38.905628666666665, "fusion_lon": 0.0, "fusion_lat": 0.0, "type": "electric_scooter", "name": "8fdab97606e27c9b5df466f903f28acb", "is_disabled": 0, "rental_uris": {"ios": "https://dc.lft.to/lastmile_qr_scan", "android": "https://dc.lft.to/lastmile_qr_scan"}, "is_reserved": 0}, {"lon": -77.0321555, "bike_id": "6cdb7940a27fa97f940516d93879981d", "lat": 38.9170935, "fusion_lon": 0.0, "fusion_lat": 0.0, "type": "electric_scooter", "name": "6cdb7940a27fa97f940516d93879981d", "is_disabled": 0, "rental_uris": {"ios": "https://dc.lft.to/lastmile_qr_scan", "android": "https://dc.lft.to/lastmile_qr_scan"}, "is_reserved": 0}, {"lon": -77.03999933333333, "bike_id": "890cf35e8bb2e8666cdeba735b4ec85e", "lat": 38.93303266666667, "fusion_lon": 0.0, "fusion_lat": 0.0, "type": "electric_scooter", "name": "890cf35e8bb2e8666cdeba735b4ec85e", "is_disabled": 0, "rental_uris": {"ios": "https://dc.lft.to/lastmile_qr_scan", "android": "https://dc.lft.to/lastmile_qr_scan"}, "is_reserved": 0}, {"lon": -77.01759333333334, "bike_id": "9f0a35e84d84ed67068edb0ad84ecac0", "lat": 38.885981666666666, "fusion_lon": 0.0, "fusion_lat": 0.0, "type": "electric_scooter", "name": "9f0a35e84d84ed67068edb0ad84ecac0", "is_disabled": 0, "rental_uris": {"ios": "https://dc.lft.to/lastmile_qr_scan", "android": "https://dc.lft.to/lastmile_qr_scan"}, "is_reserved": 0}, {"lon": -77.08195483333333, "bike_id": "944e119d0d462e6ec4dbebba4d69d90b", "lat": 38.92209183333333, "fusion_lon": 0.0, "fusion_lat": 0.0, "type": "electric_bike", "name": "944e119d0d462e6ec4dbebba4d69d90b", "is_disabled": 0, "rental_uris": {"ios": "https://dc.lft.to/lastmile_qr_scan", "android": "https://dc.lft.to/lastmile_qr_scan"}, "is_reserved": 0}, {"lon": -77.04122283333334, "bike_id": "e665cad17523b6a9f199a95518473301", "lat": 38.944103, "fusion_lon": 0.0, "fusion_lat": 0.0, "type": "electric_bike", "name": "e665cad17523b6a9f199a95518473301", "is_disabled": 0, "rental_uris": {"ios": "https://dc.lft.to/lastmile_qr_scan", "android": "https://dc.lft.to/lastmile_qr_scan"}, "is_reserved": 0}, {"lon": -77.02262183333333, "bike_id": "b49d9fb00fa384e2931b7bf8fa8a2701", "lat": 38.912740666666664, "fusion_lon": 0.0, "fusion_lat": 0.0, "type": "electric_scooter", "name": "b49d9fb00fa384e2931b7bf8fa8a2701", "is_disabled": 0, "rental_uris": {"ios": "https://dc.lft.to/lastmile_qr_scan", "android": "https://dc.lft.to/lastmile_qr_scan"}, "is_reserved": 0}, {"lon": -77.006673, "bike_id": "c629f8d4a7ea0e7c3db3d9b23aceba42", "lat": 38.94505433333333, "fusion_lon": 0.0, "fusion_lat": 0.0, "type": "electric_bike", "name": "c629f8d4a7ea0e7c3db3d9b23aceba42", "is_disabled": 0, "rental_uris": {"ios": "https://dc.lft.to/lastmile_qr_scan", "android": "https://dc.lft.to/lastmile_qr_scan"}, "is_reserved": 0}, {"lon": -77.03863166666666, "bike_id": "d30bd18bd6f2688740c40246bedd20c2", "lat": 38.9201485, "fusion_lon": 0.0, "fusion_lat": 0.0, "type": "electric_scooter", "name": "d30bd18bd6f2688740c40246bedd20c2", "is_disabled": 0, "rental_uris": {"ios": "https://dc.lft.to/lastmile_qr_scan", "android": "https://dc.lft.to/lastmile_qr_scan"}, "is_reserved": 0}, {"lon": -77.07664016666666, "bike_id": "a9fb4d12fa27727d99dc19af09e5027c", "lat": 38.862655333333336, "fusion_lon": 0.0, "fusion_lat": 0.0, "type": "electric_bike", "name": "a9fb4d12fa27727d99dc19af09e5027c", "is_disabled": 0, "rental_uris": {"ios": "https://dc.lft.to/lastmile_qr_scan", "android": "https://dc.lft.to/lastmile_qr_scan"}, "is_reserved": 0}, {"lon": -77.0497695, "bike_id": "347fc7bcc3f355d622a1e795d56e0ede", "lat": 39.062916, "fusion_lon": 0.0, "fusion_lat": 0.0, "type": "electric_bike", "name": "347fc7bcc3f355d622a1e795d56e0ede", "is_disabled": 0, "rental_uris": {"ios": "https://dc.lft.to/lastmile_qr_scan", "android": "https://dc.lft.to/lastmile_qr_scan"}, "is_reserved": 0}, {"lon": -76.99490733333333, "bike_id": "bb41a87901b90a3fb9f18ead09ea1cc4", "lat": 38.8795565, "fusion_lon": 0.0, "fusion_lat": 0.0, "type": "electric_scooter", "name": "bb41a87901b90a3fb9f18ead09ea1cc4", "is_disabled": 0, "rental_uris": {"ios": "https://dc.lft.to/lastmile_qr_scan", "android": "https://dc.lft.to/lastmile_qr_scan"}, "is_reserved": 0}, {"lon": -76.99849666666667, "bike_id": "2e6af8ea7f9e5f646a3bef4b922e7be3", "lat": 38.901002166666665, "fusion_lon": 0.0, "fusion_lat": 0.0, "type": "electric_scooter", "name": "2e6af8ea7f9e5f646a3bef4b922e7be3", "is_disabled": 0, "rental_uris": {"ios": "https://dc.lft.to/lastmile_qr_scan", "android": "https://dc.lft.to/lastmile_qr_scan"}, "is_reserved": 0}, {"lon": -76.9786945, "bike_id": "e80074ae4c56744e6aa6ac205b691455", "lat": 38.883070000000004, "fusion_lon": 0.0, "fusion_lat": 0.0, "type": "electric_scooter", "name": "e80074ae4c56744e6aa6ac205b691455", "is_disabled": 0, "rental_uris": {"ios": "https://dc.lft.to/lastmile_qr_scan", "android": "https://dc.lft.to/lastmile_qr_scan"}, "is_reserved": 0}, {"lon": -77.03181133333334, "bike_id": "313d4f7f9584f55c8b779b04d120cb21", "lat": 38.919278166666665, "fusion_lon": 0.0, "fusion_lat": 0.0, "type": "electric_scooter", "name": "313d4f7f9584f55c8b779b04d120cb21", "is_disabled": 0, "rental_uris": {"ios": "https://dc.lft.to/lastmile_qr_scan", "android": "https://dc.lft.to/lastmile_qr_scan"}, "is_reserved": 0}, {"lon": -77.05151483333333, "bike_id": "1b9c876e33cd15032c2a48eefaae2432", "lat": 38.89865283333334, "fusion_lon": 0.0, "fusion_lat": 0.0, "type": "electric_scooter", "name": "1b9c876e33cd15032c2a48eefaae2432", "is_disabled": 0, "rental_uris": {"ios": "https://dc.lft.to/lastmile_qr_scan", "android": "https://dc.lft.to/lastmile_qr_scan"}, "is_reserved": 0}, {"lon": -77.02437716666667, "bike_id": "fb7f19b3237d909983acfad23ae0507c", "lat": 38.922638166666665, "fusion_lon": 0.0, "fusion_lat": 0.0, "type": "electric_scooter", "name": "fb7f19b3237d909983acfad23ae0507c", "is_disabled": 0, "rental_uris": {"ios": "https://dc.lft.to/lastmile_qr_scan", "android": "https://dc.lft.to/lastmile_qr_scan"}, "is_reserved": 0}, {"lon": -77.02695483333333, "bike_id": "f09c0b73bb0c8b550e3160a81415b6ed", "lat": 38.906201833333334, "fusion_lon": 0.0, "fusion_lat": 0.0, "type": "electric_scooter", "name": "f09c0b73bb0c8b550e3160a81415b6ed", "is_disabled": 0, "rental_uris": {"ios": "https://dc.lft.to/lastmile_qr_scan", "android": "https://dc.lft.to/lastmile_qr_scan"}, "is_reserved": 0}, {"lon": -76.9936785, "bike_id": "f14853f1c0ac33a158ef2fd52d1f7476", "lat": 38.940246, "fusion_lon": 0.0, "fusion_lat": 0.0, "type": "electric_scooter", "name": "f14853f1c0ac33a158ef2fd52d1f7476", "is_disabled": 0, "rental_uris": {"ios": "https://dc.lft.to/lastmile_qr_scan", "android": "https://dc.lft.to/lastmile_qr_scan"}, "is_reserved": 0}, {"lon": -76.9901115, "bike_id": "c765955bffea7ebdff5d6e458a4311a5", "lat": 38.945999, "fusion_lon": 0.0, "fusion_lat": 0.0, "type": "electric_scooter", "name": "c765955bffea7ebdff5d6e458a4311a5", "is_disabled": 0, "rental_uris": {"ios": "https://dc.lft.to/lastmile_qr_scan", "android": "https://dc.lft.to/lastmile_qr_scan"}, "is_reserved": 0}, {"lon": -76.973905, "bike_id": "1224ce44175d946cf51057cbb99b3e0e", "lat": 38.905594666666666, "fusion_lon": 0.0, "fusion_lat": 0.0, "type": "electric_scooter", "name": "1224ce44175d946cf51057cbb99b3e0e", "is_disabled": 0, "rental_uris": {"ios": "https://dc.lft.to/lastmile_qr_scan", "android": "https://dc.lft.to/lastmile_qr_scan"}, "is_reserved": 0}, {"lon": -77.03421033333333, "bike_id": "22cf4aedfc5dfa4a1cfad978d822f469", "lat": 38.922443666666666, "fusion_lon": 0.0, "fusion_lat": 0.0, "type": "electric_scooter", "name": "22cf4aedfc5dfa4a1cfad978d822f469", "is_disabled": 0, "rental_uris": {"ios": "https://dc.lft.to/lastmile_qr_scan", "android": "https://dc.lft.to/lastmile_qr_scan"}, "is_reserved": 0}, {"lon": -77.032566, "bike_id": "30d89131a048ea984683a63d97a83ce8", "lat": 38.9340055, "fusion_lon": 0.0, "fusion_lat": 0.0, "type": "electric_scooter", "name": "30d89131a048ea984683a63d97a83ce8", "is_disabled": 0, "rental_uris": {"ios": "https://dc.lft.to/lastmile_qr_scan", "android": "https://dc.lft.to/lastmile_qr_scan"}, "is_reserved": 0}, {"lon": -77.0389795, "bike_id": "c563086af8eb6fb39de42e6b49a2afa1", "lat": 38.923542, "fusion_lon": 0.0, "fusion_lat": 0.0, "type": "electric_scooter", "name": "c563086af8eb6fb39de42e6b49a2afa1", "is_disabled": 0, "rental_uris": {"ios": "https://dc.lft.to/lastmile_qr_scan", "android": "https://dc.lft.to/lastmile_qr_scan"}, "is_reserved": 0}, {"lon": -77.03499433333333, "bike_id": "9446d94bfebc46b4c2a0cb4f3c20d583", "lat": 38.937551, "fusion_lon": 0.0, "fusion_lat": 0.0, "type": "electric_scooter", "name": "9446d94bfebc46b4c2a0cb4f3c20d583", "is_disabled": 0, "rental_uris": {"ios": "https://dc.lft.to/lastmile_qr_scan", "android": "https://dc.lft.to/lastmile_qr_scan"}, "is_reserved": 0}, {"lon": -77.02680233333334, "bike_id": "046bd6b68a0f4abb79db597239f0ead8", "lat": 38.897071, "fusion_lon": 0.0, "fusion_lat": 0.0, "type": "electric_scooter", "name": "046bd6b68a0f4abb79db597239f0ead8", "is_disabled": 0, "rental_uris": {"ios": "https://dc.lft.to/lastmile_qr_scan", "android": "https://dc.lft.to/lastmile_qr_scan"}, "is_reserved": 0}, {"lon": -77.03847583333334, "bike_id": "9e6b4b8161b89d4cf7f88ee329d8596b", "lat": 38.9166855, "fusion_lon": 0.0, "fusion_lat": 0.0, "type": "electric_scooter", "name": "9e6b4b8161b89d4cf7f88ee329d8596b", "is_disabled": 0, "rental_uris": {"ios": "https://dc.lft.to/lastmile_qr_scan", "android": "https://dc.lft.to/lastmile_qr_scan"}, "is_reserved": 0}, {"lon": -76.94636083333333, "bike_id": "34eefe3ffac3d506a5795298ff6675e2", "lat": 38.8983195, "fusion_lon": 0.0, "fusion_lat": 0.0, "type": "electric_scooter", "name": "34eefe3ffac3d506a5795298ff6675e2", "is_disabled": 0, "rental_uris": {"ios": "https://dc.lft.to/lastmile_qr_scan", "android": "https://dc.lft.to/lastmile_qr_scan"}, "is_reserved": 0}, {"lon": -76.980622, "bike_id": "ff89b7e2059fe7f6a0a457489035ff3d", "lat": 38.901805333333336, "fusion_lon": 0.0, "fusion_lat": 0.0, "type": "electric_scooter", "name": "ff89b7e2059fe7f6a0a457489035ff3d", "is_disabled": 0, "rental_uris": {"ios": "https://dc.lft.to/lastmile_qr_scan", "android": "https://dc.lft.to/lastmile_qr_scan"}, "is_reserved": 0}, {"lon": -77.0296175, "bike_id": "fb2c8e3f1776f56c3db4558af279224e", "lat": 38.929308, "fusion_lon": 0.0, "fusion_lat": 0.0, "type": "electric_scooter", "name": "fb2c8e3f1776f56c3db4558af279224e", "is_disabled": 0, "rental_uris": {"ios": "https://dc.lft.to/lastmile_qr_scan", "android": "https://dc.lft.to/lastmile_qr_scan"}, "is_reserved": 0}, {"lon": -77.0634035, "bike_id": "84473b7eacf1299b9f791afbabdb7f9a", "lat": 38.906834333333336, "fusion_lon": 0.0, "fusion_lat": 0.0, "type": "electric_scooter", "name": "84473b7eacf1299b9f791afbabdb7f9a", "is_disabled": 0, "rental_uris": {"ios": "https://dc.lft.to/lastmile_qr_scan", "android": "https://dc.lft.to/lastmile_qr_scan"}, "is_reserved": 0}, {"lon": -77.05535666666667, "bike_id": "d2029629ad8fe4d597802979103301a0", "lat": 38.934322, "fusion_lon": 0.0, "fusion_lat": 0.0, "type": "electric_scooter", "name": "d2029629ad8fe4d597802979103301a0", "is_disabled": 0, "rental_uris": {"ios": "https://dc.lft.to/lastmile_qr_scan", "android": "https://dc.lft.to/lastmile_qr_scan"}, "is_reserved": 0}, {"lon": -77.00355983333333, "bike_id": "f6789b209542afc75e956d2eec5d7d2b", "lat": 38.8992915, "fusion_lon": 0.0, "fusion_lat": 0.0, "type": "electric_scooter", "name": "f6789b209542afc75e956d2eec5d7d2b", "is_disabled": 0, "rental_uris": {"ios": "https://dc.lft.to/lastmile_qr_scan", "android": "https://dc.lft.to/lastmile_qr_scan"}, "is_reserved": 0}, {"lon": -77.08458333333333, "bike_id": "fbb872e904412a69d05f66715f1bcc7c", "lat": 38.84817966666667, "fusion_lon": 0.0, "fusion_lat": 0.0, "type": "electric_bike", "name": "fbb872e904412a69d05f66715f1bcc7c", "is_disabled": 0, "rental_uris": {"ios": "https://dc.lft.to/lastmile_qr_scan", "android": "https://dc.lft.to/lastmile_qr_scan"}, "is_reserved": 0}, {"lon": -77.04188716666667, "bike_id": "53eb647f9ede1526e085213135798655", "lat": 38.907416, "fusion_lon": 0.0, "fusion_lat": 0.0, "type": "electric_scooter", "name": "53eb647f9ede1526e085213135798655", "is_disabled": 0, "rental_uris": {"ios": "https://dc.lft.to/lastmile_qr_scan", "android": "https://dc.lft.to/lastmile_qr_scan"}, "is_reserved": 0}, {"lon": -77.03179483333334, "bike_id": "ed55bc0013d665346ec5ad81d336fd73", "lat": 38.9033805, "fusion_lon": 0.0, "fusion_lat": 0.0, "type": "electric_scooter", "name": "ed55bc0013d665346ec5ad81d336fd73", "is_disabled": 0, "rental_uris": {"ios": "https://dc.lft.to/lastmile_qr_scan", "android": "https://dc.lft.to/lastmile_qr_scan"}, "is_reserved": 0}, {"lon": -77.0229225, "bike_id": "3e6cabebd35066e920864db3e98ca59c", "lat": 38.9223065, "fusion_lon": 0.0, "fusion_lat": 0.0, "type": "electric_scooter", "name": "3e6cabebd35066e920864db3e98ca59c", "is_disabled": 0, "rental_uris": {"ios": "https://dc.lft.to/lastmile_qr_scan", "android": "https://dc.lft.to/lastmile_qr_scan"}, "is_reserved": 0}, {"lon": -77.05565733333333, "bike_id": "e3f16c12b51aea6f05c28e3282ca4c2b", "lat": 38.899990333333335, "fusion_lon": 0.0, "fusion_lat": 0.0, "type": "electric_scooter", "name": "e3f16c12b51aea6f05c28e3282ca4c2b", "is_disabled": 0, "rental_uris": {"ios": "https://dc.lft.to/lastmile_qr_scan", "android": "https://dc.lft.to/lastmile_qr_scan"}, "is_reserved": 0}, {"lon": -77.04472366666667, "bike_id": "59bc57e2dfdba9cc9baee3d566f71639", "lat": 38.923879, "fusion_lon": 0.0, "fusion_lat": 0.0, "type": "electric_scooter", "name": "59bc57e2dfdba9cc9baee3d566f71639", "is_disabled": 0, "rental_uris": {"ios": "https://dc.lft.to/lastmile_qr_scan", "android": "https://dc.lft.to/lastmile_qr_scan"}, "is_reserved": 0}, {"lon": -77.0050125, "bike_id": "8a051246087041b4a6b2691eb4638cfa", "lat": 38.90542333333333, "fusion_lon": 0.0, "fusion_lat": 0.0, "type": "electric_scooter", "name": "8a051246087041b4a6b2691eb4638cfa", "is_disabled": 0, "rental_uris": {"ios": "https://dc.lft.to/lastmile_qr_scan", "android": "https://dc.lft.to/lastmile_qr_scan"}, "is_reserved": 0}, {"lon": -77.01900733333333, "bike_id": "b2b6a8e89bb00ba1d39ea4a707e0c441", "lat": 38.899691833333335, "fusion_lon": 0.0, "fusion_lat": 0.0, "type": "electric_scooter", "name": "b2b6a8e89bb00ba1d39ea4a707e0c441", "is_disabled": 0, "rental_uris": {"ios": "https://dc.lft.to/lastmile_qr_scan", "android": "https://dc.lft.to/lastmile_qr_scan"}, "is_reserved": 0}, {"lon": -76.9743, "bike_id": "cd9629fbc682cf9ccb633c4a9b6defc7", "lat": 38.90401766666667, "fusion_lon": 0.0, "fusion_lat": 0.0, "type": "electric_scooter", "name": "cd9629fbc682cf9ccb633c4a9b6defc7", "is_disabled": 0, "rental_uris": {"ios": "https://dc.lft.to/lastmile_qr_scan", "android": "https://dc.lft.to/lastmile_qr_scan"}, "is_reserved": 0}, {"lon": -77.02699183333333, "bike_id": "bc6789f454334fd7fe4f01b268e9f0e5", "lat": 38.917785333333335, "fusion_lon": 0.0, "fusion_lat": 0.0, "type": "electric_scooter", "name": "bc6789f454334fd7fe4f01b268e9f0e5", "is_disabled": 0, "rental_uris": {"ios": "https://dc.lft.to/lastmile_qr_scan", "android": "https://dc.lft.to/lastmile_qr_scan"}, "is_reserved": 0}, {"lon": -77.0423195, "bike_id": "c57fb9f467c1d1eaf8b5f832ba3d0287", "lat": 38.91412283333333, "fusion_lon": 0.0, "fusion_lat": 0.0, "type": "electric_scooter", "name": "c57fb9f467c1d1eaf8b5f832ba3d0287", "is_disabled": 0, "rental_uris": {"ios": "https://dc.lft.to/lastmile_qr_scan", "android": "https://dc.lft.to/lastmile_qr_scan"}, "is_reserved": 0}, {"lon": -77.0327005, "bike_id": "85387332cc12df513662b38127b3a2d5", "lat": 38.919905, "fusion_lon": 0.0, "fusion_lat": 0.0, "type": "electric_scooter", "name": "85387332cc12df513662b38127b3a2d5", "is_disabled": 0, "rental_uris": {"ios": "https://dc.lft.to/lastmile_qr_scan", "android": "https://dc.lft.to/lastmile_qr_scan"}, "is_reserved": 0}, {"lon": -76.9852685, "bike_id": "527d529efb3129eb102c23971c0b9a4f", "lat": 38.86685516666667, "fusion_lon": 0.0, "fusion_lat": 0.0, "type": "electric_scooter", "name": "527d529efb3129eb102c23971c0b9a4f", "is_disabled": 0, "rental_uris": {"ios": "https://dc.lft.to/lastmile_qr_scan", "android": "https://dc.lft.to/lastmile_qr_scan"}, "is_reserved": 0}, {"lon": -76.907389, "bike_id": "3923bbcff582dbe1900f9a4868cdb2d1", "lat": 38.8961385, "fusion_lon": 0.0, "fusion_lat": 0.0, "type": "electric_bike", "name": "3923bbcff582dbe1900f9a4868cdb2d1", "is_disabled": 0, "rental_uris": {"ios": "https://dc.lft.to/lastmile_qr_scan", "android": "https://dc.lft.to/lastmile_qr_scan"}, "is_reserved": 0}, {"lon": -77.04828933333333, "bike_id": "cf6a2b5ec3b442b3a91d7411b5e07471", "lat": 38.897291833333334, "fusion_lon": 0.0, "fusion_lat": 0.0, "type": "electric_scooter", "name": "cf6a2b5ec3b442b3a91d7411b5e07471", "is_disabled": 0, "rental_uris": {"ios": "https://dc.lft.to/lastmile_qr_scan", "android": "https://dc.lft.to/lastmile_qr_scan"}, "is_reserved": 0}, {"lon": -77.00559216666667, "bike_id": "e0e2e29a9f2f7ceac79250c78927f953", "lat": 38.874703833333335, "fusion_lon": 0.0, "fusion_lat": 0.0, "type": "electric_scooter", "name": "e0e2e29a9f2f7ceac79250c78927f953", "is_disabled": 0, "rental_uris": {"ios": "https://dc.lft.to/lastmile_qr_scan", "android": "https://dc.lft.to/lastmile_qr_scan"}, "is_reserved": 0}, {"lon": -77.03820616666667, "bike_id": "1148544754ed9db2921df40c9c5cef23", "lat": 38.931104166666664, "fusion_lon": 0.0, "fusion_lat": 0.0, "type": "electric_scooter", "name": "1148544754ed9db2921df40c9c5cef23", "is_disabled": 0, "rental_uris": {"ios": "https://dc.lft.to/lastmile_qr_scan", "android": "https://dc.lft.to/lastmile_qr_scan"}, "is_reserved": 0}, {"lon": -77.03177416666666, "bike_id": "bd871faa7905f0a398a7fac98882e841", "lat": 38.918308333333336, "fusion_lon": 0.0, "fusion_lat": 0.0, "type": "electric_scooter", "name": "bd871faa7905f0a398a7fac98882e841", "is_disabled": 0, "rental_uris": {"ios": "https://dc.lft.to/lastmile_qr_scan", "android": "https://dc.lft.to/lastmile_qr_scan"}, "is_reserved": 0}, {"lon": -77.02022033333333, "bike_id": "970f808e3f2f9debbeba9e1df7346293", "lat": 38.90559733333333, "fusion_lon": 0.0, "fusion_lat": 0.0, "type": "electric_scooter", "name": "970f808e3f2f9debbeba9e1df7346293", "is_disabled": 0, "rental_uris": {"ios": "https://dc.lft.to/lastmile_qr_scan", "android": "https://dc.lft.to/lastmile_qr_scan"}, "is_reserved": 0}, {"lon": -77.02771483333333, "bike_id": "9a986823e9e6c79ea77d92cc1e7a7473", "lat": 38.95424666666667, "fusion_lon": 0.0, "fusion_lat": 0.0, "type": "electric_scooter", "name": "9a986823e9e6c79ea77d92cc1e7a7473", "is_disabled": 0, "rental_uris": {"ios": "https://dc.lft.to/lastmile_qr_scan", "android": "https://dc.lft.to/lastmile_qr_scan"}, "is_reserved": 0}, {"lon": -77.04812516666667, "bike_id": "6ef176d85807286dd7cd8cfe92e4bd90", "lat": 38.91108916666666, "fusion_lon": 0.0, "fusion_lat": 0.0, "type": "electric_scooter", "name": "6ef176d85807286dd7cd8cfe92e4bd90", "is_disabled": 0, "rental_uris": {"ios": "https://dc.lft.to/lastmile_qr_scan", "android": "https://dc.lft.to/lastmile_qr_scan"}, "is_reserved": 0}, {"lon": -77.0020385, "bike_id": "d23070cf6f2003bf8739a19a2af3f650", "lat": 38.914608, "fusion_lon": 0.0, "fusion_lat": 0.0, "type": "electric_scooter", "name": "d23070cf6f2003bf8739a19a2af3f650", "is_disabled": 0, "rental_uris": {"ios": "https://dc.lft.to/lastmile_qr_scan", "android": "https://dc.lft.to/lastmile_qr_scan"}, "is_reserved": 0}, {"lon": -76.94189583333333, "bike_id": "7b37fa9986f353bb586816d0e980b0f4", "lat": 38.89313033333333, "fusion_lon": 0.0, "fusion_lat": 0.0, "type": "electric_bike", "name": "7b37fa9986f353bb586816d0e980b0f4", "is_disabled": 0, "rental_uris": {"ios": "https://dc.lft.to/lastmile_qr_scan", "android": "https://dc.lft.to/lastmile_qr_scan"}, "is_reserved": 0}, {"lon": -77.04167616666666, "bike_id": "b30df926c5ac5c5c175a7a32b007eccd", "lat": 38.931512166666664, "fusion_lon": 0.0, "fusion_lat": 0.0, "type": "electric_scooter", "name": "b30df926c5ac5c5c175a7a32b007eccd", "is_disabled": 0, "rental_uris": {"ios": "https://dc.lft.to/lastmile_qr_scan", "android": "https://dc.lft.to/lastmile_qr_scan"}, "is_reserved": 0}, {"lon": -76.973313, "bike_id": "bae24d93ecf293ad816a9c4f6447053f", "lat": 38.90409916666667, "fusion_lon": 0.0, "fusion_lat": 0.0, "type": "electric_scooter", "name": "bae24d93ecf293ad816a9c4f6447053f", "is_disabled": 0, "rental_uris": {"ios": "https://dc.lft.to/lastmile_qr_scan", "android": "https://dc.lft.to/lastmile_qr_scan"}, "is_reserved": 0}, {"lon": -77.02972466666667, "bike_id": "df605cf280743fa976c6bc776e7b3067", "lat": 38.9166405, "fusion_lon": 0.0, "fusion_lat": 0.0, "type": "electric_scooter", "name": "df605cf280743fa976c6bc776e7b3067", "is_disabled": 0, "rental_uris": {"ios": "https://dc.lft.to/lastmile_qr_scan", "android": "https://dc.lft.to/lastmile_qr_scan"}, "is_reserved": 0}, {"lon": -77.04500266666666, "bike_id": "cc8029b6a71026af5d6f7dc563622d51", "lat": 38.913624, "fusion_lon": 0.0, "fusion_lat": 0.0, "type": "electric_scooter", "name": "cc8029b6a71026af5d6f7dc563622d51", "is_disabled": 0, "rental_uris": {"ios": "https://dc.lft.to/lastmile_qr_scan", "android": "https://dc.lft.to/lastmile_qr_scan"}, "is_reserved": 0}, {"lon": -77.034947, "bike_id": "b2fd4c29ae49c00ac5edc3f3c730da9c", "lat": 38.932699, "fusion_lon": 0.0, "fusion_lat": 0.0, "type": "electric_scooter", "name": "b2fd4c29ae49c00ac5edc3f3c730da9c", "is_disabled": 0, "rental_uris": {"ios": "https://dc.lft.to/lastmile_qr_scan", "android": "https://dc.lft.to/lastmile_qr_scan"}, "is_reserved": 0}, {"lon": -77.02456833333333, "bike_id": "8453bfdc33dca80922ea5662ba90c6ce", "lat": 38.914184, "fusion_lon": 0.0, "fusion_lat": 0.0, "type": "electric_scooter", "name": "8453bfdc33dca80922ea5662ba90c6ce", "is_disabled": 0, "rental_uris": {"ios": "https://dc.lft.to/lastmile_qr_scan", "android": "https://dc.lft.to/lastmile_qr_scan"}, "is_reserved": 0}, {"lon": -77.01623783333334, "bike_id": "cfa444e3f0f7e7eb7fd8339d4f528d88", "lat": 38.9087045, "fusion_lon": 0.0, "fusion_lat": 0.0, "type": "electric_scooter", "name": "cfa444e3f0f7e7eb7fd8339d4f528d88", "is_disabled": 0, "rental_uris": {"ios": "https://dc.lft.to/lastmile_qr_scan", "android": "https://dc.lft.to/lastmile_qr_scan"}, "is_reserved": 0}, {"lon": -77.04862933333334, "bike_id": "fd9f3bd5165f993b33d41d2a2947cfb5", "lat": 38.909576333333334, "fusion_lon": 0.0, "fusion_lat": 0.0, "type": "electric_scooter", "name": "fd9f3bd5165f993b33d41d2a2947cfb5", "is_disabled": 0, "rental_uris": {"ios": "https://dc.lft.to/lastmile_qr_scan", "android": "https://dc.lft.to/lastmile_qr_scan"}, "is_reserved": 0}, {"lon": -76.9907245, "bike_id": "93a2176bc166b5fba308653be51485b8", "lat": 38.8982215, "fusion_lon": 0.0, "fusion_lat": 0.0, "type": "electric_bike", "name": "93a2176bc166b5fba308653be51485b8", "is_disabled": 0, "rental_uris": {"ios": "https://dc.lft.to/lastmile_qr_scan", "android": "https://dc.lft.to/lastmile_qr_scan"}, "is_reserved": 0}, {"lon": -77.01988533333333, "bike_id": "3213b06ec885b38ded726aa2db225b95", "lat": 38.88581533333333, "fusion_lon": 0.0, "fusion_lat": 0.0, "type": "electric_scooter", "name": "3213b06ec885b38ded726aa2db225b95", "is_disabled": 0, "rental_uris": {"ios": "https://dc.lft.to/lastmile_qr_scan", "android": "https://dc.lft.to/lastmile_qr_scan"}, "is_reserved": 0}, {"lon": -76.98333816666667, "bike_id": "200df864b3798cf831e9fcc0e7567efb", "lat": 38.89545, "fusion_lon": 0.0, "fusion_lat": 0.0, "type": "electric_scooter", "name": "200df864b3798cf831e9fcc0e7567efb", "is_disabled": 0, "rental_uris": {"ios": "https://dc.lft.to/lastmile_qr_scan", "android": "https://dc.lft.to/lastmile_qr_scan"}, "is_reserved": 0}, {"lon": -76.99947516666667, "bike_id": "498ff7ae214fae713ac4d2644942f045", "lat": 38.90744733333333, "fusion_lon": 0.0, "fusion_lat": 0.0, "type": "electric_scooter", "name": "498ff7ae214fae713ac4d2644942f045", "is_disabled": 0, "rental_uris": {"ios": "https://dc.lft.to/lastmile_qr_scan", "android": "https://dc.lft.to/lastmile_qr_scan"}, "is_reserved": 0}, {"lon": -76.99712766666667, "bike_id": "71af407e500ed0510d56c73af921bdb0", "lat": 38.892568, "fusion_lon": 0.0, "fusion_lat": 0.0, "type": "electric_scooter", "name": "71af407e500ed0510d56c73af921bdb0", "is_disabled": 0, "rental_uris": {"ios": "https://dc.lft.to/lastmile_qr_scan", "android": "https://dc.lft.to/lastmile_qr_scan"}, "is_reserved": 0}, {"lon": -77.01513083333333, "bike_id": "ec8d718d2978ecea511247a40b9c6a5d", "lat": 38.91868866666667, "fusion_lon": 0.0, "fusion_lat": 0.0, "type": "electric_scooter", "name": "ec8d718d2978ecea511247a40b9c6a5d", "is_disabled": 0, "rental_uris": {"ios": "https://dc.lft.to/lastmile_qr_scan", "android": "https://dc.lft.to/lastmile_qr_scan"}, "is_reserved": 0}, {"lon": -76.97243883333333, "bike_id": "4a7e18a7e1b80eca9798e3a1c2138c6f", "lat": 38.90342166666667, "fusion_lon": 0.0, "fusion_lat": 0.0, "type": "electric_scooter", "name": "4a7e18a7e1b80eca9798e3a1c2138c6f", "is_disabled": 0, "rental_uris": {"ios": "https://dc.lft.to/lastmile_qr_scan", "android": "https://dc.lft.to/lastmile_qr_scan"}, "is_reserved": 0}, {"lon": -77.01838033333334, "bike_id": "66ebac55ff20246f8eb22ecfa107e1ba", "lat": 38.909586833333336, "fusion_lon": 0.0, "fusion_lat": 0.0, "type": "electric_scooter", "name": "66ebac55ff20246f8eb22ecfa107e1ba", "is_disabled": 0, "rental_uris": {"ios": "https://dc.lft.to/lastmile_qr_scan", "android": "https://dc.lft.to/lastmile_qr_scan"}, "is_reserved": 0}, {"lon": -77.01837633333334, "bike_id": "4be45bafe8b89517f663f0acdec2cad6", "lat": 38.90931633333334, "fusion_lon": 0.0, "fusion_lat": 0.0, "type": "electric_scooter", "name": "4be45bafe8b89517f663f0acdec2cad6", "is_disabled": 0, "rental_uris": {"ios": "https://dc.lft.to/lastmile_qr_scan", "android": "https://dc.lft.to/lastmile_qr_scan"}, "is_reserved": 0}, {"lon": -77.0171045, "bike_id": "b23fafc71444994be0f2b2291c9ec039", "lat": 38.904565, "fusion_lon": 0.0, "fusion_lat": 0.0, "type": "electric_scooter", "name": "b23fafc71444994be0f2b2291c9ec039", "is_disabled": 0, "rental_uris": {"ios": "https://dc.lft.to/lastmile_qr_scan", "android": "https://dc.lft.to/lastmile_qr_scan"}, "is_reserved": 0}, {"lon": -77.0377195, "bike_id": "5c4ea8d56a048a95431d9e9d3751910c", "lat": 38.925682, "fusion_lon": 0.0, "fusion_lat": 0.0, "type": "electric_scooter", "name": "5c4ea8d56a048a95431d9e9d3751910c", "is_disabled": 0, "rental_uris": {"ios": "https://dc.lft.to/lastmile_qr_scan", "android": "https://dc.lft.to/lastmile_qr_scan"}, "is_reserved": 0}, {"lon": -77.0572685, "bike_id": "b0fc077e972879deb9095e88052e0248", "lat": 38.9336575, "fusion_lon": 0.0, "fusion_lat": 0.0, "type": "electric_scooter", "name": "b0fc077e972879deb9095e88052e0248", "is_disabled": 0, "rental_uris": {"ios": "https://dc.lft.to/lastmile_qr_scan", "android": "https://dc.lft.to/lastmile_qr_scan"}, "is_reserved": 0}, {"lon": -77.03174383333334, "bike_id": "4097fe11e46681453a4891f153ca00f4", "lat": 38.89221533333333, "fusion_lon": 0.0, "fusion_lat": 0.0, "type": "electric_scooter", "name": "4097fe11e46681453a4891f153ca00f4", "is_disabled": 0, "rental_uris": {"ios": "https://dc.lft.to/lastmile_qr_scan", "android": "https://dc.lft.to/lastmile_qr_scan"}, "is_reserved": 0}, {"lon": -77.04496516666667, "bike_id": "c04a68cbd627ad3277655eeb6ec5ebdc", "lat": 38.9111545, "fusion_lon": 0.0, "fusion_lat": 0.0, "type": "electric_scooter", "name": "c04a68cbd627ad3277655eeb6ec5ebdc", "is_disabled": 0, "rental_uris": {"ios": "https://dc.lft.to/lastmile_qr_scan", "android": "https://dc.lft.to/lastmile_qr_scan"}, "is_reserved": 0}, {"lon": -77.0303435, "bike_id": "f5f34237dd5af409a673a9f939666e65", "lat": 38.931152166666664, "fusion_lon": 0.0, "fusion_lat": 0.0, "type": "electric_scooter", "name": "f5f34237dd5af409a673a9f939666e65", "is_disabled": 0, "rental_uris": {"ios": "https://dc.lft.to/lastmile_qr_scan", "android": "https://dc.lft.to/lastmile_qr_scan"}, "is_reserved": 0}, {"lon": -77.04553966666667, "bike_id": "657b3ac468cffcf54f9b3e3bc50efcd1", "lat": 38.917556, "fusion_lon": 0.0, "fusion_lat": 0.0, "type": "electric_scooter", "name": "657b3ac468cffcf54f9b3e3bc50efcd1", "is_disabled": 0, "rental_uris": {"ios": "https://dc.lft.to/lastmile_qr_scan", "android": "https://dc.lft.to/lastmile_qr_scan"}, "is_reserved": 0}, {"lon": -77.01762433333333, "bike_id": "6ddd417efeab2dd9e68c7f5277b2278d", "lat": 38.900945, "fusion_lon": 0.0, "fusion_lat": 0.0, "type": "electric_scooter", "name": "6ddd417efeab2dd9e68c7f5277b2278d", "is_disabled": 0, "rental_uris": {"ios": "https://dc.lft.to/lastmile_qr_scan", "android": "https://dc.lft.to/lastmile_qr_scan"}, "is_reserved": 0}, {"lon": -77.032909, "bike_id": "1026c3f79209e28373de926852821f42", "lat": 38.95651183333333, "fusion_lon": 0.0, "fusion_lat": 0.0, "type": "electric_scooter", "name": "1026c3f79209e28373de926852821f42", "is_disabled": 0, "rental_uris": {"ios": "https://dc.lft.to/lastmile_qr_scan", "android": "https://dc.lft.to/lastmile_qr_scan"}, "is_reserved": 0}, {"lon": -77.03172433333333, "bike_id": "860d27fd6ce80806b6609b74b7dca633", "lat": 38.91831766666667, "fusion_lon": 0.0, "fusion_lat": 0.0, "type": "electric_scooter", "name": "860d27fd6ce80806b6609b74b7dca633", "is_disabled": 0, "rental_uris": {"ios": "https://dc.lft.to/lastmile_qr_scan", "android": "https://dc.lft.to/lastmile_qr_scan"}, "is_reserved": 0}, {"lon": -76.99793483333333, "bike_id": "a7278df56bc624934951d990882edb72", "lat": 38.95641883333333, "fusion_lon": 0.0, "fusion_lat": 0.0, "type": "electric_bike", "name": "a7278df56bc624934951d990882edb72", "is_disabled": 0, "rental_uris": {"ios": "https://dc.lft.to/lastmile_qr_scan", "android": "https://dc.lft.to/lastmile_qr_scan"}, "is_reserved": 0}, {"lon": -77.03181133333334, "bike_id": "fd63a27e879d2394272ffa7b991064e2", "lat": 38.8923785, "fusion_lon": 0.0, "fusion_lat": 0.0, "type": "electric_scooter", "name": "fd63a27e879d2394272ffa7b991064e2", "is_disabled": 0, "rental_uris": {"ios": "https://dc.lft.to/lastmile_qr_scan", "android": "https://dc.lft.to/lastmile_qr_scan"}, "is_reserved": 0}, {"lon": -76.9733015, "bike_id": "63d3570c14d15e09cc7b47b89dc7d25d", "lat": 38.90479533333333, "fusion_lon": 0.0, "fusion_lat": 0.0, "type": "electric_bike", "name": "63d3570c14d15e09cc7b47b89dc7d25d", "is_disabled": 0, "rental_uris": {"ios": "https://dc.lft.to/lastmile_qr_scan", "android": "https://dc.lft.to/lastmile_qr_scan"}, "is_reserved": 0}, {"lon": -77.02394733333334, "bike_id": "8cf5ae064c0268361b9712159bd90aca", "lat": 38.881317833333334, "fusion_lon": 0.0, "fusion_lat": 0.0, "type": "electric_scooter", "name": "8cf5ae064c0268361b9712159bd90aca", "is_disabled": 0, "rental_uris": {"ios": "https://dc.lft.to/lastmile_qr_scan", "android": "https://dc.lft.to/lastmile_qr_scan"}, "is_reserved": 0}, {"lon": -77.0472235, "bike_id": "99ab4a666c249767d7e40a215ab279db", "lat": 38.8997155, "fusion_lon": 0.0, "fusion_lat": 0.0, "type": "electric_scooter", "name": "99ab4a666c249767d7e40a215ab279db", "is_disabled": 0, "rental_uris": {"ios": "https://dc.lft.to/lastmile_qr_scan", "android": "https://dc.lft.to/lastmile_qr_scan"}, "is_reserved": 0}, {"lon": -77.0460105, "bike_id": "8e17890d9e009f2fb34e4075dccef195", "lat": 38.91376833333333, "fusion_lon": 0.0, "fusion_lat": 0.0, "type": "electric_scooter", "name": "8e17890d9e009f2fb34e4075dccef195", "is_disabled": 0, "rental_uris": {"ios": "https://dc.lft.to/lastmile_qr_scan", "android": "https://dc.lft.to/lastmile_qr_scan"}, "is_reserved": 0}, {"lon": -76.99100766666666, "bike_id": "0f550813c08ff3b3392c2a8253e2104d", "lat": 38.90316383333333, "fusion_lon": 0.0, "fusion_lat": 0.0, "type": "electric_scooter", "name": "0f550813c08ff3b3392c2a8253e2104d", "is_disabled": 0, "rental_uris": {"ios": "https://dc.lft.to/lastmile_qr_scan", "android": "https://dc.lft.to/lastmile_qr_scan"}, "is_reserved": 0}, {"lon": -77.01865416666666, "bike_id": "d95516b18230ef993b3fceae304f0bc1", "lat": 38.951528333333336, "fusion_lon": 0.0, "fusion_lat": 0.0, "type": "electric_scooter", "name": "d95516b18230ef993b3fceae304f0bc1", "is_disabled": 0, "rental_uris": {"ios": "https://dc.lft.to/lastmile_qr_scan", "android": "https://dc.lft.to/lastmile_qr_scan"}, "is_reserved": 0}, {"lon": -77.00684533333333, "bike_id": "e9e5da64c24082f04ec33309b9ec482d", "lat": 38.9003015, "fusion_lon": 0.0, "fusion_lat": 0.0, "type": "electric_scooter", "name": "e9e5da64c24082f04ec33309b9ec482d", "is_disabled": 0, "rental_uris": {"ios": "https://dc.lft.to/lastmile_qr_scan", "android": "https://dc.lft.to/lastmile_qr_scan"}, "is_reserved": 0}, {"lon": -77.03922883333334, "bike_id": "73d2152afe83dc1e10853db9e72f404e", "lat": 38.928027166666666, "fusion_lon": 0.0, "fusion_lat": 0.0, "type": "electric_scooter", "name": "73d2152afe83dc1e10853db9e72f404e", "is_disabled": 0, "rental_uris": {"ios": "https://dc.lft.to/lastmile_qr_scan", "android": "https://dc.lft.to/lastmile_qr_scan"}, "is_reserved": 0}, {"lon": -77.03630416666667, "bike_id": "9ffb0f4ab7e19b394904bc068c00c2a2", "lat": 38.92456416666667, "fusion_lon": 0.0, "fusion_lat": 0.0, "type": "electric_scooter", "name": "9ffb0f4ab7e19b394904bc068c00c2a2", "is_disabled": 0, "rental_uris": {"ios": "https://dc.lft.to/lastmile_qr_scan", "android": "https://dc.lft.to/lastmile_qr_scan"}, "is_reserved": 0}, {"lon": -77.031849, "bike_id": "e6b7f9d46d2b0e6033567e181f481696", "lat": 38.90519533333333, "fusion_lon": 0.0, "fusion_lat": 0.0, "type": "electric_scooter", "name": "e6b7f9d46d2b0e6033567e181f481696", "is_disabled": 0, "rental_uris": {"ios": "https://dc.lft.to/lastmile_qr_scan", "android": "https://dc.lft.to/lastmile_qr_scan"}, "is_reserved": 0}, {"lon": -76.95238116666667, "bike_id": "1dc5a749d2104b143a8160f34d59dc77", "lat": 38.890971666666665, "fusion_lon": 0.0, "fusion_lat": 0.0, "type": "electric_scooter", "name": "1dc5a749d2104b143a8160f34d59dc77", "is_disabled": 0, "rental_uris": {"ios": "https://dc.lft.to/lastmile_qr_scan", "android": "https://dc.lft.to/lastmile_qr_scan"}, "is_reserved": 0}, {"lon": -76.976166, "bike_id": "38ccd116fb79ec428131e7b359a0462d", "lat": 38.926499166666666, "fusion_lon": 0.0, "fusion_lat": 0.0, "type": "electric_scooter", "name": "38ccd116fb79ec428131e7b359a0462d", "is_disabled": 0, "rental_uris": {"ios": "https://dc.lft.to/lastmile_qr_scan", "android": "https://dc.lft.to/lastmile_qr_scan"}, "is_reserved": 0}, {"lon": -77.08811666666666, "bike_id": "5fa272cab5fb0ba56050c066c52225de", "lat": 38.911747, "fusion_lon": 0.0, "fusion_lat": 0.0, "type": "electric_bike", "name": "5fa272cab5fb0ba56050c066c52225de", "is_disabled": 0, "rental_uris": {"ios": "https://dc.lft.to/lastmile_qr_scan", "android": "https://dc.lft.to/lastmile_qr_scan"}, "is_reserved": 0}, {"lon": -77.03401883333333, "bike_id": "31611f4d2a34a857bbd0254469cb975b", "lat": 38.93124266666667, "fusion_lon": 0.0, "fusion_lat": 0.0, "type": "electric_scooter", "name": "31611f4d2a34a857bbd0254469cb975b", "is_disabled": 0, "rental_uris": {"ios": "https://dc.lft.to/lastmile_qr_scan", "android": "https://dc.lft.to/lastmile_qr_scan"}, "is_reserved": 0}, {"lon": -77.02769183333334, "bike_id": "b6f5e07b26c6fef1db24bd086c216d10", "lat": 38.89221633333333, "fusion_lon": 0.0, "fusion_lat": 0.0, "type": "electric_scooter", "name": "b6f5e07b26c6fef1db24bd086c216d10", "is_disabled": 0, "rental_uris": {"ios": "https://dc.lft.to/lastmile_qr_scan", "android": "https://dc.lft.to/lastmile_qr_scan"}, "is_reserved": 0}, {"lon": -77.0317765, "bike_id": "3ff271e8b12461745c9e4a8b353f3078", "lat": 38.897675666666665, "fusion_lon": 0.0, "fusion_lat": 0.0, "type": "electric_scooter", "name": "3ff271e8b12461745c9e4a8b353f3078", "is_disabled": 0, "rental_uris": {"ios": "https://dc.lft.to/lastmile_qr_scan", "android": "https://dc.lft.to/lastmile_qr_scan"}, "is_reserved": 0}, {"lon": -77.01897166666667, "bike_id": "eed54106be48cd4e3d618902cb1bf467", "lat": 38.8774065, "fusion_lon": 0.0, "fusion_lat": 0.0, "type": "electric_scooter", "name": "eed54106be48cd4e3d618902cb1bf467", "is_disabled": 0, "rental_uris": {"ios": "https://dc.lft.to/lastmile_qr_scan", "android": "https://dc.lft.to/lastmile_qr_scan"}, "is_reserved": 0}, {"lon": -77.04007016666667, "bike_id": "02382cbd76790704359bd601b0a102cf", "lat": 38.90395083333333, "fusion_lon": 0.0, "fusion_lat": 0.0, "type": "electric_scooter", "name": "02382cbd76790704359bd601b0a102cf", "is_disabled": 0, "rental_uris": {"ios": "https://dc.lft.to/lastmile_qr_scan", "android": "https://dc.lft.to/lastmile_qr_scan"}, "is_reserved": 0}, {"lon": -77.03860316666666, "bike_id": "d52056bc88c2208583eb4221c786d73c", "lat": 38.915554666666665, "fusion_lon": 0.0, "fusion_lat": 0.0, "type": "electric_scooter", "name": "d52056bc88c2208583eb4221c786d73c", "is_disabled": 0, "rental_uris": {"ios": "https://dc.lft.to/lastmile_qr_scan", "android": "https://dc.lft.to/lastmile_qr_scan"}, "is_reserved": 0}, {"lon": -77.04805716666667, "bike_id": "80e1e96b292b971e4f82e03538637ac4", "lat": 38.91409733333333, "fusion_lon": 0.0, "fusion_lat": 0.0, "type": "electric_scooter", "name": "80e1e96b292b971e4f82e03538637ac4", "is_disabled": 0, "rental_uris": {"ios": "https://dc.lft.to/lastmile_qr_scan", "android": "https://dc.lft.to/lastmile_qr_scan"}, "is_reserved": 0}, {"lon": -77.021817, "bike_id": "7ac3e5eb5462707946a1af747654e1e5", "lat": 38.909505833333334, "fusion_lon": 0.0, "fusion_lat": 0.0, "type": "electric_scooter", "name": "7ac3e5eb5462707946a1af747654e1e5", "is_disabled": 0, "rental_uris": {"ios": "https://dc.lft.to/lastmile_qr_scan", "android": "https://dc.lft.to/lastmile_qr_scan"}, "is_reserved": 0}, {"lon": -76.98237483333334, "bike_id": "e45b7b4c42083418786496099a4c6ddf", "lat": 38.88866066666667, "fusion_lon": 0.0, "fusion_lat": 0.0, "type": "electric_scooter", "name": "e45b7b4c42083418786496099a4c6ddf", "is_disabled": 0, "rental_uris": {"ios": "https://dc.lft.to/lastmile_qr_scan", "android": "https://dc.lft.to/lastmile_qr_scan"}, "is_reserved": 0}, {"lon": -77.03358883333334, "bike_id": "b7579cb8a53a09701e3f582bcd4887f3", "lat": 38.92348466666667, "fusion_lon": 0.0, "fusion_lat": 0.0, "type": "electric_scooter", "name": "b7579cb8a53a09701e3f582bcd4887f3", "is_disabled": 0, "rental_uris": {"ios": "https://dc.lft.to/lastmile_qr_scan", "android": "https://dc.lft.to/lastmile_qr_scan"}, "is_reserved": 0}, {"lon": -77.02672166666666, "bike_id": "f4bf47e87f96092d892ddf241d16980d", "lat": 38.97193133333333, "fusion_lon": 0.0, "fusion_lat": 0.0, "type": "electric_scooter", "name": "f4bf47e87f96092d892ddf241d16980d", "is_disabled": 0, "rental_uris": {"ios": "https://dc.lft.to/lastmile_qr_scan", "android": "https://dc.lft.to/lastmile_qr_scan"}, "is_reserved": 0}, {"lon": -77.064944, "bike_id": "1839e3fbf1afc22d8d46d030584aebb9", "lat": 38.92905183333333, "fusion_lon": 0.0, "fusion_lat": 0.0, "type": "electric_scooter", "name": "1839e3fbf1afc22d8d46d030584aebb9", "is_disabled": 0, "rental_uris": {"ios": "https://dc.lft.to/lastmile_qr_scan", "android": "https://dc.lft.to/lastmile_qr_scan"}, "is_reserved": 0}, {"lon": -77.0252605, "bike_id": "8dca13571ee35b2f72fb40271d01c28a", "lat": 38.88369216666667, "fusion_lon": 0.0, "fusion_lat": 0.0, "type": "electric_scooter", "name": "8dca13571ee35b2f72fb40271d01c28a", "is_disabled": 0, "rental_uris": {"ios": "https://dc.lft.to/lastmile_qr_scan", "android": "https://dc.lft.to/lastmile_qr_scan"}, "is_reserved": 0}, {"lon": -76.9903565, "bike_id": "81594820b3ea756dfc12376793ea9e6d", "lat": 38.887565, "fusion_lon": 0.0, "fusion_lat": 0.0, "type": "electric_scooter", "name": "81594820b3ea756dfc12376793ea9e6d", "is_disabled": 0, "rental_uris": {"ios": "https://dc.lft.to/lastmile_qr_scan", "android": "https://dc.lft.to/lastmile_qr_scan"}, "is_reserved": 0}, {"lon": -77.035613, "bike_id": "ad2a9ffacb1c92eda4926e64d6f88913", "lat": 38.927414166666665, "fusion_lon": 0.0, "fusion_lat": 0.0, "type": "electric_scooter", "name": "ad2a9ffacb1c92eda4926e64d6f88913", "is_disabled": 0, "rental_uris": {"ios": "https://dc.lft.to/lastmile_qr_scan", "android": "https://dc.lft.to/lastmile_qr_scan"}, "is_reserved": 0}, {"lon": -77.00885933333333, "bike_id": "1be42aa657ba9d17b884d493e555932d", "lat": 38.917129333333335, "fusion_lon": 0.0, "fusion_lat": 0.0, "type": "electric_scooter", "name": "1be42aa657ba9d17b884d493e555932d", "is_disabled": 0, "rental_uris": {"ios": "https://dc.lft.to/lastmile_qr_scan", "android": "https://dc.lft.to/lastmile_qr_scan"}, "is_reserved": 0}, {"lon": -76.99037516666667, "bike_id": "66e443833e7540d9bed7a6162321bb99", "lat": 38.89854116666667, "fusion_lon": 0.0, "fusion_lat": 0.0, "type": "electric_scooter", "name": "66e443833e7540d9bed7a6162321bb99", "is_disabled": 0, "rental_uris": {"ios": "https://dc.lft.to/lastmile_qr_scan", "android": "https://dc.lft.to/lastmile_qr_scan"}, "is_reserved": 0}, {"lon": -77.0019555, "bike_id": "aea19a98dd195c00a454f092c5b1d663", "lat": 38.9002805, "fusion_lon": 0.0, "fusion_lat": 0.0, "type": "electric_scooter", "name": "aea19a98dd195c00a454f092c5b1d663", "is_disabled": 0, "rental_uris": {"ios": "https://dc.lft.to/lastmile_qr_scan", "android": "https://dc.lft.to/lastmile_qr_scan"}, "is_reserved": 0}, {"lon": -76.9463455, "bike_id": "e1f2a3806bc3df6a4c5c9470c8d70a93", "lat": 38.8983375, "fusion_lon": 0.0, "fusion_lat": 0.0, "type": "electric_scooter", "name": "e1f2a3806bc3df6a4c5c9470c8d70a93", "is_disabled": 0, "rental_uris": {"ios": "https://dc.lft.to/lastmile_qr_scan", "android": "https://dc.lft.to/lastmile_qr_scan"}, "is_reserved": 0}, {"lon": -77.04805766666666, "bike_id": "8a31d2ed58a02c349779c4fef8fa6a37", "lat": 38.909657833333334, "fusion_lon": 0.0, "fusion_lat": 0.0, "type": "electric_scooter", "name": "8a31d2ed58a02c349779c4fef8fa6a37", "is_disabled": 0, "rental_uris": {"ios": "https://dc.lft.to/lastmile_qr_scan", "android": "https://dc.lft.to/lastmile_qr_scan"}, "is_reserved": 0}, {"lon": -76.933602, "bike_id": "f8407fa4746b75ab6042ed289c40c121", "lat": 38.88798216666667, "fusion_lon": 0.0, "fusion_lat": 0.0, "type": "electric_scooter", "name": "f8407fa4746b75ab6042ed289c40c121", "is_disabled": 0, "rental_uris": {"ios": "https://dc.lft.to/lastmile_qr_scan", "android": "https://dc.lft.to/lastmile_qr_scan"}, "is_reserved": 0}, {"lon": -77.04253616666666, "bike_id": "fd429e34af7c0b187129a4d4c508b68a", "lat": 38.9071255, "fusion_lon": 0.0, "fusion_lat": 0.0, "type": "electric_scooter", "name": "fd429e34af7c0b187129a4d4c508b68a", "is_disabled": 0, "rental_uris": {"ios": "https://dc.lft.to/lastmile_qr_scan", "android": "https://dc.lft.to/lastmile_qr_scan"}, "is_reserved": 0}, {"lon": -77.0317385, "bike_id": "e06820d4d1e6cbc7dd2326ab18c7dd3c", "lat": 38.9141435, "fusion_lon": 0.0, "fusion_lat": 0.0, "type": "electric_scooter", "name": "e06820d4d1e6cbc7dd2326ab18c7dd3c", "is_disabled": 0, "rental_uris": {"ios": "https://dc.lft.to/lastmile_qr_scan", "android": "https://dc.lft.to/lastmile_qr_scan"}, "is_reserved": 0}, {"lon": -77.0294935, "bike_id": "1157e6cc1e62a728144dd1f8dd864e9b", "lat": 38.923718666666666, "fusion_lon": 0.0, "fusion_lat": 0.0, "type": "electric_scooter", "name": "1157e6cc1e62a728144dd1f8dd864e9b", "is_disabled": 0, "rental_uris": {"ios": "https://dc.lft.to/lastmile_qr_scan", "android": "https://dc.lft.to/lastmile_qr_scan"}, "is_reserved": 0}, {"lon": -77.01003183333333, "bike_id": "0fba73d0aa694887bc49d619427ee36e", "lat": 38.9192515, "fusion_lon": 0.0, "fusion_lat": 0.0, "type": "electric_scooter", "name": "0fba73d0aa694887bc49d619427ee36e", "is_disabled": 0, "rental_uris": {"ios": "https://dc.lft.to/lastmile_qr_scan", "android": "https://dc.lft.to/lastmile_qr_scan"}, "is_reserved": 0}, {"lon": -77.02513516666667, "bike_id": "079b433958d51793c156cba63e61dc5b", "lat": 38.93095016666667, "fusion_lon": 0.0, "fusion_lat": 0.0, "type": "electric_scooter", "name": "079b433958d51793c156cba63e61dc5b", "is_disabled": 0, "rental_uris": {"ios": "https://dc.lft.to/lastmile_qr_scan", "android": "https://dc.lft.to/lastmile_qr_scan"}, "is_reserved": 0}, {"lon": -77.02222966666666, "bike_id": "1d7dfcc36188ba440a5caeb266609a67", "lat": 38.89220233333333, "fusion_lon": 0.0, "fusion_lat": 0.0, "type": "electric_scooter", "name": "1d7dfcc36188ba440a5caeb266609a67", "is_disabled": 0, "rental_uris": {"ios": "https://dc.lft.to/lastmile_qr_scan", "android": "https://dc.lft.to/lastmile_qr_scan"}, "is_reserved": 0}, {"lon": -76.98404183333334, "bike_id": "2ef3d7e575b5f2bc0dc13bde81b323bb", "lat": 38.906274333333336, "fusion_lon": 0.0, "fusion_lat": 0.0, "type": "electric_scooter", "name": "2ef3d7e575b5f2bc0dc13bde81b323bb", "is_disabled": 0, "rental_uris": {"ios": "https://dc.lft.to/lastmile_qr_scan", "android": "https://dc.lft.to/lastmile_qr_scan"}, "is_reserved": 0}, {"lon": -76.98771983333333, "bike_id": "2a2ea8b7dd0d712e635ed3988a05acd1", "lat": 38.86608583333334, "fusion_lon": 0.0, "fusion_lat": 0.0, "type": "electric_bike", "name": "2a2ea8b7dd0d712e635ed3988a05acd1", "is_disabled": 0, "rental_uris": {"ios": "https://dc.lft.to/lastmile_qr_scan", "android": "https://dc.lft.to/lastmile_qr_scan"}, "is_reserved": 0}, {"lon": -77.03772516666666, "bike_id": "063bbecf8cd8b556c65a211f9ff1b063", "lat": 38.929677833333336, "fusion_lon": 0.0, "fusion_lat": 0.0, "type": "electric_scooter", "name": "063bbecf8cd8b556c65a211f9ff1b063", "is_disabled": 0, "rental_uris": {"ios": "https://dc.lft.to/lastmile_qr_scan", "android": "https://dc.lft.to/lastmile_qr_scan"}, "is_reserved": 0}, {"lon": -76.98938166666667, "bike_id": "2350ba5ae74a96db1bac9ced7f25fbf9", "lat": 38.918357666666665, "fusion_lon": 0.0, "fusion_lat": 0.0, "type": "electric_scooter", "name": "2350ba5ae74a96db1bac9ced7f25fbf9", "is_disabled": 0, "rental_uris": {"ios": "https://dc.lft.to/lastmile_qr_scan", "android": "https://dc.lft.to/lastmile_qr_scan"}, "is_reserved": 0}, {"lon": -77.02992, "bike_id": "e7082c2ff79630770bcb3451bfd11214", "lat": 38.912599666666665, "fusion_lon": 0.0, "fusion_lat": 0.0, "type": "electric_scooter", "name": "e7082c2ff79630770bcb3451bfd11214", "is_disabled": 0, "rental_uris": {"ios": "https://dc.lft.to/lastmile_qr_scan", "android": "https://dc.lft.to/lastmile_qr_scan"}, "is_reserved": 0}, {"lon": -77.0369445, "bike_id": "2a204d7830cdab397705d02e821571b2", "lat": 38.935234666666666, "fusion_lon": 0.0, "fusion_lat": 0.0, "type": "electric_scooter", "name": "2a204d7830cdab397705d02e821571b2", "is_disabled": 0, "rental_uris": {"ios": "https://dc.lft.to/lastmile_qr_scan", "android": "https://dc.lft.to/lastmile_qr_scan"}, "is_reserved": 0}, {"lon": -77.02573133333334, "bike_id": "a15fe317ab09a629d3fbe3c6b314f260", "lat": 38.9134165, "fusion_lon": 0.0, "fusion_lat": 0.0, "type": "electric_scooter", "name": "a15fe317ab09a629d3fbe3c6b314f260", "is_disabled": 0, "rental_uris": {"ios": "https://dc.lft.to/lastmile_qr_scan", "android": "https://dc.lft.to/lastmile_qr_scan"}, "is_reserved": 0}, {"lon": -77.025059, "bike_id": "eeacc7bb125d8dd3d6df46adb6a631d2", "lat": 38.92072566666667, "fusion_lon": 0.0, "fusion_lat": 0.0, "type": "electric_scooter", "name": "eeacc7bb125d8dd3d6df46adb6a631d2", "is_disabled": 0, "rental_uris": {"ios": "https://dc.lft.to/lastmile_qr_scan", "android": "https://dc.lft.to/lastmile_qr_scan"}, "is_reserved": 0}, {"lon": -77.03435666666667, "bike_id": "7581d0185c160763fad1c3ea35cf354b", "lat": 38.90979516666667, "fusion_lon": 0.0, "fusion_lat": 0.0, "type": "electric_scooter", "name": "7581d0185c160763fad1c3ea35cf354b", "is_disabled": 0, "rental_uris": {"ios": "https://dc.lft.to/lastmile_qr_scan", "android": "https://dc.lft.to/lastmile_qr_scan"}, "is_reserved": 0}, {"lon": -77.002622, "bike_id": "f349d24cfd8d860f4ecdd7d4ff2f7e5f", "lat": 38.918198333333336, "fusion_lon": 0.0, "fusion_lat": 0.0, "type": "electric_scooter", "name": "f349d24cfd8d860f4ecdd7d4ff2f7e5f", "is_disabled": 0, "rental_uris": {"ios": "https://dc.lft.to/lastmile_qr_scan", "android": "https://dc.lft.to/lastmile_qr_scan"}, "is_reserved": 0}, {"lon": -77.04043033333333, "bike_id": "57baa7a7be983cfbaeda7130e6989dbc", "lat": 38.9000365, "fusion_lon": 0.0, "fusion_lat": 0.0, "type": "electric_scooter", "name": "57baa7a7be983cfbaeda7130e6989dbc", "is_disabled": 0, "rental_uris": {"ios": "https://dc.lft.to/lastmile_qr_scan", "android": "https://dc.lft.to/lastmile_qr_scan"}, "is_reserved": 0}, {"lon": -77.00105016666667, "bike_id": "5b7109fc87f8a66dc1edcc596f91ab60", "lat": 38.91706816666667, "fusion_lon": 0.0, "fusion_lat": 0.0, "type": "electric_scooter", "name": "5b7109fc87f8a66dc1edcc596f91ab60", "is_disabled": 0, "rental_uris": {"ios": "https://dc.lft.to/lastmile_qr_scan", "android": "https://dc.lft.to/lastmile_qr_scan"}, "is_reserved": 0}, {"lon": -77.026962, "bike_id": "4a6fcd7651b7814868ceb80018cda1c1", "lat": 38.90674666666666, "fusion_lon": 0.0, "fusion_lat": 0.0, "type": "electric_scooter", "name": "4a6fcd7651b7814868ceb80018cda1c1", "is_disabled": 0, "rental_uris": {"ios": "https://dc.lft.to/lastmile_qr_scan", "android": "https://dc.lft.to/lastmile_qr_scan"}, "is_reserved": 0}, {"lon": -77.03261316666666, "bike_id": "76a877712503c614a330bc024b42f45b", "lat": 38.93261533333333, "fusion_lon": 0.0, "fusion_lat": 0.0, "type": "electric_scooter", "name": "76a877712503c614a330bc024b42f45b", "is_disabled": 0, "rental_uris": {"ios": "https://dc.lft.to/lastmile_qr_scan", "android": "https://dc.lft.to/lastmile_qr_scan"}, "is_reserved": 0}, {"lon": -77.01896533333333, "bike_id": "2cd19bfca60e763f7e0693cd8f38c26e", "lat": 38.87462583333333, "fusion_lon": 0.0, "fusion_lat": 0.0, "type": "electric_scooter", "name": "2cd19bfca60e763f7e0693cd8f38c26e", "is_disabled": 0, "rental_uris": {"ios": "https://dc.lft.to/lastmile_qr_scan", "android": "https://dc.lft.to/lastmile_qr_scan"}, "is_reserved": 0}, {"lon": -77.03717433333334, "bike_id": "15cb8a2e0cec7090e1a4137144a7e5a3", "lat": 38.91483783333334, "fusion_lon": 0.0, "fusion_lat": 0.0, "type": "electric_scooter", "name": "15cb8a2e0cec7090e1a4137144a7e5a3", "is_disabled": 0, "rental_uris": {"ios": "https://dc.lft.to/lastmile_qr_scan", "android": "https://dc.lft.to/lastmile_qr_scan"}, "is_reserved": 0}, {"lon": -77.0329235, "bike_id": "5efc5ce871b51ba79a25747c4c1f729e", "lat": 38.90073566666667, "fusion_lon": 0.0, "fusion_lat": 0.0, "type": "electric_scooter", "name": "5efc5ce871b51ba79a25747c4c1f729e", "is_disabled": 0, "rental_uris": {"ios": "https://dc.lft.to/lastmile_qr_scan", "android": "https://dc.lft.to/lastmile_qr_scan"}, "is_reserved": 0}, {"lon": -77.01055866666667, "bike_id": "01e374cc3c47e46fd1e0e92e3f173107", "lat": 38.878676166666665, "fusion_lon": 0.0, "fusion_lat": 0.0, "type": "electric_scooter", "name": "01e374cc3c47e46fd1e0e92e3f173107", "is_disabled": 0, "rental_uris": {"ios": "https://dc.lft.to/lastmile_qr_scan", "android": "https://dc.lft.to/lastmile_qr_scan"}, "is_reserved": 0}, {"lon": -77.05228516666666, "bike_id": "a6334dcfe90c5aee561a078cec262564", "lat": 38.9245415, "fusion_lon": 0.0, "fusion_lat": 0.0, "type": "electric_scooter", "name": "a6334dcfe90c5aee561a078cec262564", "is_disabled": 0, "rental_uris": {"ios": "https://dc.lft.to/lastmile_qr_scan", "android": "https://dc.lft.to/lastmile_qr_scan"}, "is_reserved": 0}, {"lon": -77.03110166666667, "bike_id": "55e4f0fb47fc4cc0bb7c7b54ed016d5b", "lat": 38.915628166666664, "fusion_lon": 0.0, "fusion_lat": 0.0, "type": "electric_scooter", "name": "55e4f0fb47fc4cc0bb7c7b54ed016d5b", "is_disabled": 0, "rental_uris": {"ios": "https://dc.lft.to/lastmile_qr_scan", "android": "https://dc.lft.to/lastmile_qr_scan"}, "is_reserved": 0}, {"lon": -76.97300533333333, "bike_id": "06dac379a6ccce4cffc25c7f20a5a80b", "lat": 38.9164695, "fusion_lon": 0.0, "fusion_lat": 0.0, "type": "electric_scooter", "name": "06dac379a6ccce4cffc25c7f20a5a80b", "is_disabled": 0, "rental_uris": {"ios": "https://dc.lft.to/lastmile_qr_scan", "android": "https://dc.lft.to/lastmile_qr_scan"}, "is_reserved": 0}, {"lon": -77.00575183333333, "bike_id": "780ae75e16dbe47fb9f943521d5b9be1", "lat": 38.905498, "fusion_lon": 0.0, "fusion_lat": 0.0, "type": "electric_scooter", "name": "780ae75e16dbe47fb9f943521d5b9be1", "is_disabled": 0, "rental_uris": {"ios": "https://dc.lft.to/lastmile_qr_scan", "android": "https://dc.lft.to/lastmile_qr_scan"}, "is_reserved": 0}, {"lon": -77.01533983333333, "bike_id": "6bbff95b3e07500c27646109cd168762", "lat": 38.88739433333333, "fusion_lon": 0.0, "fusion_lat": 0.0, "type": "electric_scooter", "name": "6bbff95b3e07500c27646109cd168762", "is_disabled": 0, "rental_uris": {"ios": "https://dc.lft.to/lastmile_qr_scan", "android": "https://dc.lft.to/lastmile_qr_scan"}, "is_reserved": 0}, {"lon": -76.9988365, "bike_id": "0e3465b1ef61bfa944702e8cdf6b269a", "lat": 38.92055583333333, "fusion_lon": 0.0, "fusion_lat": 0.0, "type": "electric_scooter", "name": "0e3465b1ef61bfa944702e8cdf6b269a", "is_disabled": 0, "rental_uris": {"ios": "https://dc.lft.to/lastmile_qr_scan", "android": "https://dc.lft.to/lastmile_qr_scan"}, "is_reserved": 0}, {"lon": -76.9935495, "bike_id": "59eaf9e47d29a659af619d9d63fa42ba", "lat": 38.84507683333333, "fusion_lon": 0.0, "fusion_lat": 0.0, "type": "electric_bike", "name": "59eaf9e47d29a659af619d9d63fa42ba", "is_disabled": 0, "rental_uris": {"ios": "https://dc.lft.to/lastmile_qr_scan", "android": "https://dc.lft.to/lastmile_qr_scan"}, "is_reserved": 0}, {"lon": -77.02282516666666, "bike_id": "f1b43a1c01f629c4c414771438b0b0ef", "lat": 38.912151, "fusion_lon": 0.0, "fusion_lat": 0.0, "type": "electric_scooter", "name": "f1b43a1c01f629c4c414771438b0b0ef", "is_disabled": 0, "rental_uris": {"ios": "https://dc.lft.to/lastmile_qr_scan", "android": "https://dc.lft.to/lastmile_qr_scan"}, "is_reserved": 0}, {"lon": -77.07455766666666, "bike_id": "aa576e2877ed779da2a98b3a71afefe2", "lat": 38.9450775, "fusion_lon": 0.0, "fusion_lat": 0.0, "type": "electric_scooter", "name": "aa576e2877ed779da2a98b3a71afefe2", "is_disabled": 0, "rental_uris": {"ios": "https://dc.lft.to/lastmile_qr_scan", "android": "https://dc.lft.to/lastmile_qr_scan"}, "is_reserved": 0}, {"lon": -77.0343525, "bike_id": "b30ecb95dc934eab900266f639e61561", "lat": 38.90972716666667, "fusion_lon": 0.0, "fusion_lat": 0.0, "type": "electric_scooter", "name": "b30ecb95dc934eab900266f639e61561", "is_disabled": 0, "rental_uris": {"ios": "https://dc.lft.to/lastmile_qr_scan", "android": "https://dc.lft.to/lastmile_qr_scan"}, "is_reserved": 0}, {"lon": -76.9993355, "bike_id": "4d72adf3139d4104eac9fbc07ac6feec", "lat": 38.843139, "fusion_lon": 0.0, "fusion_lat": 0.0, "type": "electric_scooter", "name": "4d72adf3139d4104eac9fbc07ac6feec", "is_disabled": 0, "rental_uris": {"ios": "https://dc.lft.to/lastmile_qr_scan", "android": "https://dc.lft.to/lastmile_qr_scan"}, "is_reserved": 0}, {"lon": -77.027033, "bike_id": "0d64a6aa2544148e965860ad487d950b", "lat": 38.90669, "fusion_lon": 0.0, "fusion_lat": 0.0, "type": "electric_scooter", "name": "0d64a6aa2544148e965860ad487d950b", "is_disabled": 0, "rental_uris": {"ios": "https://dc.lft.to/lastmile_qr_scan", "android": "https://dc.lft.to/lastmile_qr_scan"}, "is_reserved": 0}, {"lon": -77.01739966666666, "bike_id": "a147a66f304b5684a56bea92fb6923dc", "lat": 38.94206333333333, "fusion_lon": 0.0, "fusion_lat": 0.0, "type": "electric_scooter", "name": "a147a66f304b5684a56bea92fb6923dc", "is_disabled": 0, "rental_uris": {"ios": "https://dc.lft.to/lastmile_qr_scan", "android": "https://dc.lft.to/lastmile_qr_scan"}, "is_reserved": 0}, {"lon": -77.02853533333334, "bike_id": "d4dbcc59f563ff6e7297abb91fdfde66", "lat": 38.88750683333333, "fusion_lon": 0.0, "fusion_lat": 0.0, "type": "electric_scooter", "name": "d4dbcc59f563ff6e7297abb91fdfde66", "is_disabled": 0, "rental_uris": {"ios": "https://dc.lft.to/lastmile_qr_scan", "android": "https://dc.lft.to/lastmile_qr_scan"}, "is_reserved": 0}, {"lon": -77.026988, "bike_id": "87fa8c24b11c3b76f13ad2684a16cef3", "lat": 38.917764166666664, "fusion_lon": 0.0, "fusion_lat": 0.0, "type": "electric_scooter", "name": "87fa8c24b11c3b76f13ad2684a16cef3", "is_disabled": 0, "rental_uris": {"ios": "https://dc.lft.to/lastmile_qr_scan", "android": "https://dc.lft.to/lastmile_qr_scan"}, "is_reserved": 0}, {"lon": -77.05447483333333, "bike_id": "e45a0e3633442ccac2857104fac70381", "lat": 38.9285835, "fusion_lon": 0.0, "fusion_lat": 0.0, "type": "electric_scooter", "name": "e45a0e3633442ccac2857104fac70381", "is_disabled": 0, "rental_uris": {"ios": "https://dc.lft.to/lastmile_qr_scan", "android": "https://dc.lft.to/lastmile_qr_scan"}, "is_reserved": 0}, {"lon": -77.03519866666667, "bike_id": "6de43d029c4c218df3b16c5a621f2af7", "lat": 38.92200316666667, "fusion_lon": 0.0, "fusion_lat": 0.0, "type": "electric_scooter", "name": "6de43d029c4c218df3b16c5a621f2af7", "is_disabled": 0, "rental_uris": {"ios": "https://dc.lft.to/lastmile_qr_scan", "android": "https://dc.lft.to/lastmile_qr_scan"}, "is_reserved": 0}, {"lon": -76.94724333333333, "bike_id": "f30b9f9b6e40f4b0a7d104695eb795c8", "lat": 38.897371, "fusion_lon": 0.0, "fusion_lat": 0.0, "type": "electric_scooter", "name": "f30b9f9b6e40f4b0a7d104695eb795c8", "is_disabled": 0, "rental_uris": {"ios": "https://dc.lft.to/lastmile_qr_scan", "android": "https://dc.lft.to/lastmile_qr_scan"}, "is_reserved": 0}, {"lon": -77.02698966666667, "bike_id": "26e4a1fd7e0ab5218b17cec7ccd95383", "lat": 38.9067005, "fusion_lon": 0.0, "fusion_lat": 0.0, "type": "electric_scooter", "name": "26e4a1fd7e0ab5218b17cec7ccd95383", "is_disabled": 0, "rental_uris": {"ios": "https://dc.lft.to/lastmile_qr_scan", "android": "https://dc.lft.to/lastmile_qr_scan"}, "is_reserved": 0}, {"lon": -76.90466366666666, "bike_id": "d3b800f83195aee44551176f9a78f8bd", "lat": 39.0029185, "fusion_lon": 0.0, "fusion_lat": 0.0, "type": "electric_bike", "name": "d3b800f83195aee44551176f9a78f8bd", "is_disabled": 0, "rental_uris": {"ios": "https://dc.lft.to/lastmile_qr_scan", "android": "https://dc.lft.to/lastmile_qr_scan"}, "is_reserved": 0}, {"lon": -77.01622066666667, "bike_id": "50160c275dd5c45f8ce2ff1491accb7d", "lat": 38.965777, "fusion_lon": 0.0, "fusion_lat": 0.0, "type": "electric_scooter", "name": "50160c275dd5c45f8ce2ff1491accb7d", "is_disabled": 0, "rental_uris": {"ios": "https://dc.lft.to/lastmile_qr_scan", "android": "https://dc.lft.to/lastmile_qr_scan"}, "is_reserved": 0}, {"lon": -77.03279466666666, "bike_id": "e939392726c80a35dbc38d6ffabd7ecb", "lat": 38.93206433333334, "fusion_lon": 0.0, "fusion_lat": 0.0, "type": "electric_scooter", "name": "e939392726c80a35dbc38d6ffabd7ecb", "is_disabled": 0, "rental_uris": {"ios": "https://dc.lft.to/lastmile_qr_scan", "android": "https://dc.lft.to/lastmile_qr_scan"}, "is_reserved": 0}, {"lon": -77.0271535, "bike_id": "ca7784428b75435246ea0b75112c8ee4", "lat": 38.908736833333336, "fusion_lon": 0.0, "fusion_lat": 0.0, "type": "electric_scooter", "name": "ca7784428b75435246ea0b75112c8ee4", "is_disabled": 0, "rental_uris": {"ios": "https://dc.lft.to/lastmile_qr_scan", "android": "https://dc.lft.to/lastmile_qr_scan"}, "is_reserved": 0}, {"lon": -77.012056, "bike_id": "3cdacb6b862bc4487e17a3e96c7c1414", "lat": 38.8855465, "fusion_lon": 0.0, "fusion_lat": 0.0, "type": "electric_scooter", "name": "3cdacb6b862bc4487e17a3e96c7c1414", "is_disabled": 0, "rental_uris": {"ios": "https://dc.lft.to/lastmile_qr_scan", "android": "https://dc.lft.to/lastmile_qr_scan"}, "is_reserved": 0}, {"lon": -77.36095133333333, "bike_id": "af7d5f3a213838687905cab336e418d7", "lat": 38.939631166666665, "fusion_lon": 0.0, "fusion_lat": 0.0, "type": "electric_bike", "name": "af7d5f3a213838687905cab336e418d7", "is_disabled": 0, "rental_uris": {"ios": "https://dc.lft.to/lastmile_qr_scan", "android": "https://dc.lft.to/lastmile_qr_scan"}, "is_reserved": 0}, {"lon": -77.06521433333333, "bike_id": "4ae6ed50f2325253373512c69f447b15", "lat": 38.90547983333333, "fusion_lon": 0.0, "fusion_lat": 0.0, "type": "electric_bike", "name": "4ae6ed50f2325253373512c69f447b15", "is_disabled": 0, "rental_uris": {"ios": "https://dc.lft.to/lastmile_qr_scan", "android": "https://dc.lft.to/lastmile_qr_scan"}, "is_reserved": 0}, {"lon": -77.02012616666667, "bike_id": "72f16df1cea46fb0e5534dfef2508e2f", "lat": 38.92418683333333, "fusion_lon": 0.0, "fusion_lat": 0.0, "type": "electric_scooter", "name": "72f16df1cea46fb0e5534dfef2508e2f", "is_disabled": 0, "rental_uris": {"ios": "https://dc.lft.to/lastmile_qr_scan", "android": "https://dc.lft.to/lastmile_qr_scan"}, "is_reserved": 0}, {"lon": -77.0328605, "bike_id": "25c49258bdd2f59e129a434e1858614b", "lat": 38.93976333333333, "fusion_lon": 0.0, "fusion_lat": 0.0, "type": "electric_scooter", "name": "25c49258bdd2f59e129a434e1858614b", "is_disabled": 0, "rental_uris": {"ios": "https://dc.lft.to/lastmile_qr_scan", "android": "https://dc.lft.to/lastmile_qr_scan"}, "is_reserved": 0}, {"lon": -77.0249105, "bike_id": "d00550b43f82e523198f65d7138bca13", "lat": 38.919231833333335, "fusion_lon": 0.0, "fusion_lat": 0.0, "type": "electric_scooter", "name": "d00550b43f82e523198f65d7138bca13", "is_disabled": 0, "rental_uris": {"ios": "https://dc.lft.to/lastmile_qr_scan", "android": "https://dc.lft.to/lastmile_qr_scan"}, "is_reserved": 0}, {"lon": -77.05300916666667, "bike_id": "2cc2d6705ffe8f332d11c0e1ec81a29a", "lat": 38.898878333333336, "fusion_lon": 0.0, "fusion_lat": 0.0, "type": "electric_scooter", "name": "2cc2d6705ffe8f332d11c0e1ec81a29a", "is_disabled": 0, "rental_uris": {"ios": "https://dc.lft.to/lastmile_qr_scan", "android": "https://dc.lft.to/lastmile_qr_scan"}, "is_reserved": 0}, {"lon": -77.02375866666667, "bike_id": "b38bff1ed5ec8504ec880935cfcce843", "lat": 38.90211566666667, "fusion_lon": 0.0, "fusion_lat": 0.0, "type": "electric_scooter", "name": "b38bff1ed5ec8504ec880935cfcce843", "is_disabled": 0, "rental_uris": {"ios": "https://dc.lft.to/lastmile_qr_scan", "android": "https://dc.lft.to/lastmile_qr_scan"}, "is_reserved": 0}, {"lon": -77.02685416666667, "bike_id": "6e8bf86660dea13465336b438c053929", "lat": 38.89972133333333, "fusion_lon": 0.0, "fusion_lat": 0.0, "type": "electric_scooter", "name": "6e8bf86660dea13465336b438c053929", "is_disabled": 0, "rental_uris": {"ios": "https://dc.lft.to/lastmile_qr_scan", "android": "https://dc.lft.to/lastmile_qr_scan"}, "is_reserved": 0}, {"lon": -76.97698983333333, "bike_id": "10d57fba31eef0ec916e0d721915308e", "lat": 38.9491655, "fusion_lon": 0.0, "fusion_lat": 0.0, "type": "electric_bike", "name": "10d57fba31eef0ec916e0d721915308e", "is_disabled": 0, "rental_uris": {"ios": "https://dc.lft.to/lastmile_qr_scan", "android": "https://dc.lft.to/lastmile_qr_scan"}, "is_reserved": 0}, {"lon": -76.97730316666667, "bike_id": "cfb215c524a54cf5dabe9c2b5abc6b24", "lat": 38.864658666666664, "fusion_lon": 0.0, "fusion_lat": 0.0, "type": "electric_scooter", "name": "cfb215c524a54cf5dabe9c2b5abc6b24", "is_disabled": 0, "rental_uris": {"ios": "https://dc.lft.to/lastmile_qr_scan", "android": "https://dc.lft.to/lastmile_qr_scan"}, "is_reserved": 0}, {"lon": -77.03219316666667, "bike_id": "465ba44e72919785318b74353f746d09", "lat": 38.90971916666667, "fusion_lon": 0.0, "fusion_lat": 0.0, "type": "electric_scooter", "name": "465ba44e72919785318b74353f746d09", "is_disabled": 0, "rental_uris": {"ios": "https://dc.lft.to/lastmile_qr_scan", "android": "https://dc.lft.to/lastmile_qr_scan"}, "is_reserved": 0}, {"lon": -77.0406495, "bike_id": "0f414966f8f7bf4e5dadd54c139abebf", "lat": 38.91488283333333, "fusion_lon": 0.0, "fusion_lat": 0.0, "type": "electric_scooter", "name": "0f414966f8f7bf4e5dadd54c139abebf", "is_disabled": 0, "rental_uris": {"ios": "https://dc.lft.to/lastmile_qr_scan", "android": "https://dc.lft.to/lastmile_qr_scan"}, "is_reserved": 0}, {"lon": -77.04351733333333, "bike_id": "112d59a0eaeb32853d4e07e6512330f3", "lat": 38.92142116666667, "fusion_lon": 0.0, "fusion_lat": 0.0, "type": "electric_scooter", "name": "112d59a0eaeb32853d4e07e6512330f3", "is_disabled": 0, "rental_uris": {"ios": "https://dc.lft.to/lastmile_qr_scan", "android": "https://dc.lft.to/lastmile_qr_scan"}, "is_reserved": 0}, {"lon": -77.0145045, "bike_id": "002e1bb49c9d309c8c8715a2e4e9cfa1", "lat": 38.90518516666667, "fusion_lon": 0.0, "fusion_lat": 0.0, "type": "electric_scooter", "name": "002e1bb49c9d309c8c8715a2e4e9cfa1", "is_disabled": 0, "rental_uris": {"ios": "https://dc.lft.to/lastmile_qr_scan", "android": "https://dc.lft.to/lastmile_qr_scan"}, "is_reserved": 0}, {"lon": -77.01145566666666, "bike_id": "1164e881e9df63ce30e49b7629c691e9", "lat": 38.895729, "fusion_lon": 0.0, "fusion_lat": 0.0, "type": "electric_scooter", "name": "1164e881e9df63ce30e49b7629c691e9", "is_disabled": 0, "rental_uris": {"ios": "https://dc.lft.to/lastmile_qr_scan", "android": "https://dc.lft.to/lastmile_qr_scan"}, "is_reserved": 0}, {"lon": -77.03464633333333, "bike_id": "a1e0494981c7f96c2052cd0e2c9cec33", "lat": 38.902248166666666, "fusion_lon": 0.0, "fusion_lat": 0.0, "type": "electric_scooter", "name": "a1e0494981c7f96c2052cd0e2c9cec33", "is_disabled": 0, "rental_uris": {"ios": "https://dc.lft.to/lastmile_qr_scan", "android": "https://dc.lft.to/lastmile_qr_scan"}, "is_reserved": 0}, {"lon": -76.98847833333333, "bike_id": "a6987dcf2f8bb5e9a5d82c7579226718", "lat": 38.901301, "fusion_lon": 0.0, "fusion_lat": 0.0, "type": "electric_scooter", "name": "a6987dcf2f8bb5e9a5d82c7579226718", "is_disabled": 0, "rental_uris": {"ios": "https://dc.lft.to/lastmile_qr_scan", "android": "https://dc.lft.to/lastmile_qr_scan"}, "is_reserved": 0}, {"lon": -77.01537966666666, "bike_id": "066749d9684145b480349b7582399698", "lat": 38.909715, "fusion_lon": 0.0, "fusion_lat": 0.0, "type": "electric_bike", "name": "066749d9684145b480349b7582399698", "is_disabled": 0, "rental_uris": {"ios": "https://dc.lft.to/lastmile_qr_scan", "android": "https://dc.lft.to/lastmile_qr_scan"}, "is_reserved": 0}, {"lon": -77.03216983333333, "bike_id": "c1b164441906104937e2cb49eb71302c", "lat": 38.8921985, "fusion_lon": 0.0, "fusion_lat": 0.0, "type": "electric_scooter", "name": "c1b164441906104937e2cb49eb71302c", "is_disabled": 0, "rental_uris": {"ios": "https://dc.lft.to/lastmile_qr_scan", "android": "https://dc.lft.to/lastmile_qr_scan"}, "is_reserved": 0}, {"lon": -77.1222475, "bike_id": "5ab10ecd530b3fa502ff631a1699b680", "lat": 38.853025333333335, "fusion_lon": 0.0, "fusion_lat": 0.0, "type": "electric_bike", "name": "5ab10ecd530b3fa502ff631a1699b680", "is_disabled": 0, "rental_uris": {"ios": "https://dc.lft.to/lastmile_qr_scan", "android": "https://dc.lft.to/lastmile_qr_scan"}, "is_reserved": 0}, {"lon": -77.02195933333333, "bike_id": "a3a4409a97b6eda539a196d4d79a3037", "lat": 38.90202283333333, "fusion_lon": 0.0, "fusion_lat": 0.0, "type": "electric_scooter", "name": "a3a4409a97b6eda539a196d4d79a3037", "is_disabled": 0, "rental_uris": {"ios": "https://dc.lft.to/lastmile_qr_scan", "android": "https://dc.lft.to/lastmile_qr_scan"}, "is_reserved": 0}, {"lon": -77.03869016666667, "bike_id": "d44746e8889f98d7013696dd89024c6f", "lat": 38.912668333333336, "fusion_lon": 0.0, "fusion_lat": 0.0, "type": "electric_scooter", "name": "d44746e8889f98d7013696dd89024c6f", "is_disabled": 0, "rental_uris": {"ios": "https://dc.lft.to/lastmile_qr_scan", "android": "https://dc.lft.to/lastmile_qr_scan"}, "is_reserved": 0}, {"lon": -77.026959, "bike_id": "834567196359d290a00f2d9df1364c68", "lat": 38.899681333333334, "fusion_lon": 0.0, "fusion_lat": 0.0, "type": "electric_scooter", "name": "834567196359d290a00f2d9df1364c68", "is_disabled": 0, "rental_uris": {"ios": "https://dc.lft.to/lastmile_qr_scan", "android": "https://dc.lft.to/lastmile_qr_scan"}, "is_reserved": 0}, {"lon": -76.99931616666667, "bike_id": "b9f8bfeb8065baf5613a7c6904b95027", "lat": 38.8431335, "fusion_lon": 0.0, "fusion_lat": 0.0, "type": "electric_scooter", "name": "b9f8bfeb8065baf5613a7c6904b95027", "is_disabled": 0, "rental_uris": {"ios": "https://dc.lft.to/lastmile_qr_scan", "android": "https://dc.lft.to/lastmile_qr_scan"}, "is_reserved": 0}, {"lon": -76.99051733333333, "bike_id": "47d1edb8aa25e3a593089f390676a074", "lat": 38.8637595, "fusion_lon": 0.0, "fusion_lat": 0.0, "type": "electric_scooter", "name": "47d1edb8aa25e3a593089f390676a074", "is_disabled": 0, "rental_uris": {"ios": "https://dc.lft.to/lastmile_qr_scan", "android": "https://dc.lft.to/lastmile_qr_scan"}, "is_reserved": 0}, {"lon": -76.99068616666666, "bike_id": "c0fdf5bc02c15ebfb94d1b189f5d08c5", "lat": 38.9274705, "fusion_lon": 0.0, "fusion_lat": 0.0, "type": "electric_scooter", "name": "c0fdf5bc02c15ebfb94d1b189f5d08c5", "is_disabled": 0, "rental_uris": {"ios": "https://dc.lft.to/lastmile_qr_scan", "android": "https://dc.lft.to/lastmile_qr_scan"}, "is_reserved": 0}, {"lon": -77.012607, "bike_id": "f5891da967b570dae004f40004da413e", "lat": 38.914871, "fusion_lon": 0.0, "fusion_lat": 0.0, "type": "electric_scooter", "name": "f5891da967b570dae004f40004da413e", "is_disabled": 0, "rental_uris": {"ios": "https://dc.lft.to/lastmile_qr_scan", "android": "https://dc.lft.to/lastmile_qr_scan"}, "is_reserved": 0}, {"lon": -77.0318515, "bike_id": "4aaa0c3ad0931a43cd04c91885caf8f8", "lat": 38.913031, "fusion_lon": 0.0, "fusion_lat": 0.0, "type": "electric_scooter", "name": "4aaa0c3ad0931a43cd04c91885caf8f8", "is_disabled": 0, "rental_uris": {"ios": "https://dc.lft.to/lastmile_qr_scan", "android": "https://dc.lft.to/lastmile_qr_scan"}, "is_reserved": 0}, {"lon": -77.03263533333333, "bike_id": "b358585c3c2d78d9c40a83d146560698", "lat": 38.93200566666667, "fusion_lon": 0.0, "fusion_lat": 0.0, "type": "electric_scooter", "name": "b358585c3c2d78d9c40a83d146560698", "is_disabled": 0, "rental_uris": {"ios": "https://dc.lft.to/lastmile_qr_scan", "android": "https://dc.lft.to/lastmile_qr_scan"}, "is_reserved": 0}, {"lon": -77.036413, "bike_id": "afe56b7b6696f034296a44f07ff978b1", "lat": 38.90278683333333, "fusion_lon": 0.0, "fusion_lat": 0.0, "type": "electric_scooter", "name": "afe56b7b6696f034296a44f07ff978b1", "is_disabled": 0, "rental_uris": {"ios": "https://dc.lft.to/lastmile_qr_scan", "android": "https://dc.lft.to/lastmile_qr_scan"}, "is_reserved": 0}, {"lon": -77.02660966666667, "bike_id": "14a8e6c767597a71ddf8b6a82eb2e08c", "lat": 38.925803333333334, "fusion_lon": 0.0, "fusion_lat": 0.0, "type": "electric_scooter", "name": "14a8e6c767597a71ddf8b6a82eb2e08c", "is_disabled": 0, "rental_uris": {"ios": "https://dc.lft.to/lastmile_qr_scan", "android": "https://dc.lft.to/lastmile_qr_scan"}, "is_reserved": 0}, {"lon": -77.11591516666667, "bike_id": "d540ca80e888dec5c5a4fbeb2b5aea57", "lat": 39.074929833333336, "fusion_lon": 0.0, "fusion_lat": 0.0, "type": "electric_bike", "name": "d540ca80e888dec5c5a4fbeb2b5aea57", "is_disabled": 0, "rental_uris": {"ios": "https://dc.lft.to/lastmile_qr_scan", "android": "https://dc.lft.to/lastmile_qr_scan"}, "is_reserved": 0}, {"lon": -76.9690885, "bike_id": "82d56060d7251d9de38d0656c1971093", "lat": 38.846100666666665, "fusion_lon": 0.0, "fusion_lat": 0.0, "type": "electric_bike", "name": "82d56060d7251d9de38d0656c1971093", "is_disabled": 0, "rental_uris": {"ios": "https://dc.lft.to/lastmile_qr_scan", "android": "https://dc.lft.to/lastmile_qr_scan"}, "is_reserved": 0}, {"lon": -77.03852966666666, "bike_id": "75990612b4a1633e04c583d3c7560b9c", "lat": 38.903668833333334, "fusion_lon": 0.0, "fusion_lat": 0.0, "type": "electric_scooter", "name": "75990612b4a1633e04c583d3c7560b9c", "is_disabled": 0, "rental_uris": {"ios": "https://dc.lft.to/lastmile_qr_scan", "android": "https://dc.lft.to/lastmile_qr_scan"}, "is_reserved": 0}, {"lon": -77.02578716666666, "bike_id": "53f922419b9c3456fed39aab4bc961f4", "lat": 38.93089533333333, "fusion_lon": 0.0, "fusion_lat": 0.0, "type": "electric_scooter", "name": "53f922419b9c3456fed39aab4bc961f4", "is_disabled": 0, "rental_uris": {"ios": "https://dc.lft.to/lastmile_qr_scan", "android": "https://dc.lft.to/lastmile_qr_scan"}, "is_reserved": 0}, {"lon": -77.01214033333333, "bike_id": "864188327ecaf8f8a271e417c70f6eba", "lat": 38.92119733333333, "fusion_lon": 0.0, "fusion_lat": 0.0, "type": "electric_scooter", "name": "864188327ecaf8f8a271e417c70f6eba", "is_disabled": 0, "rental_uris": {"ios": "https://dc.lft.to/lastmile_qr_scan", "android": "https://dc.lft.to/lastmile_qr_scan"}, "is_reserved": 0}, {"lon": -77.01874433333333, "bike_id": "39f8ab0c6b7baf0416e9b331b2b4c49b", "lat": 38.918345333333335, "fusion_lon": 0.0, "fusion_lat": 0.0, "type": "electric_scooter", "name": "39f8ab0c6b7baf0416e9b331b2b4c49b", "is_disabled": 0, "rental_uris": {"ios": "https://dc.lft.to/lastmile_qr_scan", "android": "https://dc.lft.to/lastmile_qr_scan"}, "is_reserved": 0}, {"lon": -77.05696616666667, "bike_id": "4f5f412b5f9a17ed405098b7f10ebe5f", "lat": 38.9372235, "fusion_lon": 0.0, "fusion_lat": 0.0, "type": "electric_scooter", "name": "4f5f412b5f9a17ed405098b7f10ebe5f", "is_disabled": 0, "rental_uris": {"ios": "https://dc.lft.to/lastmile_qr_scan", "android": "https://dc.lft.to/lastmile_qr_scan"}, "is_reserved": 0}, {"lon": -77.00626416666667, "bike_id": "99a113ef84106f4ad5113d4d6aad68d2", "lat": 38.91257, "fusion_lon": 0.0, "fusion_lat": 0.0, "type": "electric_scooter", "name": "99a113ef84106f4ad5113d4d6aad68d2", "is_disabled": 0, "rental_uris": {"ios": "https://dc.lft.to/lastmile_qr_scan", "android": "https://dc.lft.to/lastmile_qr_scan"}, "is_reserved": 0}, {"lon": -77.05519466666667, "bike_id": "2da3c26c7742ae057a4094688e986631", "lat": 38.8997465, "fusion_lon": 0.0, "fusion_lat": 0.0, "type": "electric_scooter", "name": "2da3c26c7742ae057a4094688e986631", "is_disabled": 0, "rental_uris": {"ios": "https://dc.lft.to/lastmile_qr_scan", "android": "https://dc.lft.to/lastmile_qr_scan"}, "is_reserved": 0}, {"lon": -76.93013416666666, "bike_id": "c28bb4bf063bb22454d6147951617838", "lat": 38.8919265, "fusion_lon": 0.0, "fusion_lat": 0.0, "type": "electric_scooter", "name": "c28bb4bf063bb22454d6147951617838", "is_disabled": 0, "rental_uris": {"ios": "https://dc.lft.to/lastmile_qr_scan", "android": "https://dc.lft.to/lastmile_qr_scan"}, "is_reserved": 0}, {"lon": -77.111541, "bike_id": "c8badcb8b029e4635c567d8725bf69aa", "lat": 38.8551385, "fusion_lon": 0.0, "fusion_lat": 0.0, "type": "electric_bike", "name": "c8badcb8b029e4635c567d8725bf69aa", "is_disabled": 0, "rental_uris": {"ios": "https://dc.lft.to/lastmile_qr_scan", "android": "https://dc.lft.to/lastmile_qr_scan"}, "is_reserved": 0}, {"lon": -76.98227816666666, "bike_id": "e61fe9e2def010f71284c4915d37c310", "lat": 38.8864615, "fusion_lon": 0.0, "fusion_lat": 0.0, "type": "electric_scooter", "name": "e61fe9e2def010f71284c4915d37c310", "is_disabled": 0, "rental_uris": {"ios": "https://dc.lft.to/lastmile_qr_scan", "android": "https://dc.lft.to/lastmile_qr_scan"}, "is_reserved": 0}, {"lon": -77.057178, "bike_id": "aa74fae2e25b7295806f3f9766025097", "lat": 38.933724, "fusion_lon": 0.0, "fusion_lat": 0.0, "type": "electric_scooter", "name": "aa74fae2e25b7295806f3f9766025097", "is_disabled": 0, "rental_uris": {"ios": "https://dc.lft.to/lastmile_qr_scan", "android": "https://dc.lft.to/lastmile_qr_scan"}, "is_reserved": 0}, {"lon": -77.10493316666667, "bike_id": "abace874a44b3ed6b8de770cd237a3fd", "lat": 38.856087333333335, "fusion_lon": 0.0, "fusion_lat": 0.0, "type": "electric_bike", "name": "abace874a44b3ed6b8de770cd237a3fd", "is_disabled": 0, "rental_uris": {"ios": "https://dc.lft.to/lastmile_qr_scan", "android": "https://dc.lft.to/lastmile_qr_scan"}, "is_reserved": 0}, {"lon": -76.99531633333334, "bike_id": "061aafa5e76701d19bb0c17a0dbb65d0", "lat": 38.88372183333333, "fusion_lon": 0.0, "fusion_lat": 0.0, "type": "electric_scooter", "name": "061aafa5e76701d19bb0c17a0dbb65d0", "is_disabled": 0, "rental_uris": {"ios": "https://dc.lft.to/lastmile_qr_scan", "android": "https://dc.lft.to/lastmile_qr_scan"}, "is_reserved": 0}, {"lon": -77.000582, "bike_id": "ccbc70b87d17917aa37b4b93f0880044", "lat": 38.894958333333335, "fusion_lon": 0.0, "fusion_lat": 0.0, "type": "electric_scooter", "name": "ccbc70b87d17917aa37b4b93f0880044", "is_disabled": 0, "rental_uris": {"ios": "https://dc.lft.to/lastmile_qr_scan", "android": "https://dc.lft.to/lastmile_qr_scan"}, "is_reserved": 0}, {"lon": -77.04417416666666, "bike_id": "65fa935c2f9c7e28f4712924ead30ebf", "lat": 38.921132166666666, "fusion_lon": 0.0, "fusion_lat": 0.0, "type": "electric_scooter", "name": "65fa935c2f9c7e28f4712924ead30ebf", "is_disabled": 0, "rental_uris": {"ios": "https://dc.lft.to/lastmile_qr_scan", "android": "https://dc.lft.to/lastmile_qr_scan"}, "is_reserved": 0}, {"lon": -77.0376035, "bike_id": "ed8d6736d518bdd592a0edc930d6dd31", "lat": 38.907797333333335, "fusion_lon": 0.0, "fusion_lat": 0.0, "type": "electric_scooter", "name": "ed8d6736d518bdd592a0edc930d6dd31", "is_disabled": 0, "rental_uris": {"ios": "https://dc.lft.to/lastmile_qr_scan", "android": "https://dc.lft.to/lastmile_qr_scan"}, "is_reserved": 0}, {"lon": -77.04654566666666, "bike_id": "63eb2f140863e6f734129642a155fc72", "lat": 38.9055025, "fusion_lon": 0.0, "fusion_lat": 0.0, "type": "electric_scooter", "name": "63eb2f140863e6f734129642a155fc72", "is_disabled": 0, "rental_uris": {"ios": "https://dc.lft.to/lastmile_qr_scan", "android": "https://dc.lft.to/lastmile_qr_scan"}, "is_reserved": 0}, {"lon": -77.05161533333333, "bike_id": "7c1ae71f1e5b4560052821be33ab2e92", "lat": 39.04306483333333, "fusion_lon": 0.0, "fusion_lat": 0.0, "type": "electric_bike", "name": "7c1ae71f1e5b4560052821be33ab2e92", "is_disabled": 0, "rental_uris": {"ios": "https://dc.lft.to/lastmile_qr_scan", "android": "https://dc.lft.to/lastmile_qr_scan"}, "is_reserved": 0}, {"lon": -77.0318305, "bike_id": "6754da235c64b2a8e904937939014344", "lat": 38.93693366666667, "fusion_lon": 0.0, "fusion_lat": 0.0, "type": "electric_scooter", "name": "6754da235c64b2a8e904937939014344", "is_disabled": 0, "rental_uris": {"ios": "https://dc.lft.to/lastmile_qr_scan", "android": "https://dc.lft.to/lastmile_qr_scan"}, "is_reserved": 0}, {"lon": -77.0725385, "bike_id": "10c20a3a4ee2a689d582363cd5540257", "lat": 38.9347695, "fusion_lon": 0.0, "fusion_lat": 0.0, "type": "electric_scooter", "name": "10c20a3a4ee2a689d582363cd5540257", "is_disabled": 0, "rental_uris": {"ios": "https://dc.lft.to/lastmile_qr_scan", "android": "https://dc.lft.to/lastmile_qr_scan"}, "is_reserved": 0}, {"lon": -77.00056766666667, "bike_id": "bc3cbbd9245f354925f996955dfa34e1", "lat": 38.8753205, "fusion_lon": 0.0, "fusion_lat": 0.0, "type": "electric_scooter", "name": "bc3cbbd9245f354925f996955dfa34e1", "is_disabled": 0, "rental_uris": {"ios": "https://dc.lft.to/lastmile_qr_scan", "android": "https://dc.lft.to/lastmile_qr_scan"}, "is_reserved": 0}, {"lon": -77.002123, "bike_id": "7ae417e0a293f17b41913a796adbd158", "lat": 38.881285166666665, "fusion_lon": 0.0, "fusion_lat": 0.0, "type": "electric_scooter", "name": "7ae417e0a293f17b41913a796adbd158", "is_disabled": 0, "rental_uris": {"ios": "https://dc.lft.to/lastmile_qr_scan", "android": "https://dc.lft.to/lastmile_qr_scan"}, "is_reserved": 0}, {"lon": -77.04439216666667, "bike_id": "af6ad08b6b42d2c876c7cb9f65daac07", "lat": 38.91878283333333, "fusion_lon": 0.0, "fusion_lat": 0.0, "type": "electric_scooter", "name": "af6ad08b6b42d2c876c7cb9f65daac07", "is_disabled": 0, "rental_uris": {"ios": "https://dc.lft.to/lastmile_qr_scan", "android": "https://dc.lft.to/lastmile_qr_scan"}, "is_reserved": 0}, {"lon": -76.93327916666667, "bike_id": "21d3198656c206e32a1d983d7452e5f1", "lat": 38.91065366666667, "fusion_lon": 0.0, "fusion_lat": 0.0, "type": "electric_scooter", "name": "21d3198656c206e32a1d983d7452e5f1", "is_disabled": 0, "rental_uris": {"ios": "https://dc.lft.to/lastmile_qr_scan", "android": "https://dc.lft.to/lastmile_qr_scan"}, "is_reserved": 0}, {"lon": -77.03190016666667, "bike_id": "0163bc478a2f59c9c58d8be628769358", "lat": 38.9119625, "fusion_lon": 0.0, "fusion_lat": 0.0, "type": "electric_scooter", "name": "0163bc478a2f59c9c58d8be628769358", "is_disabled": 0, "rental_uris": {"ios": "https://dc.lft.to/lastmile_qr_scan", "android": "https://dc.lft.to/lastmile_qr_scan"}, "is_reserved": 0}, {"lon": -76.93352433333334, "bike_id": "503826de11a24a02dc6800c2e7cac180", "lat": 38.899092, "fusion_lon": 0.0, "fusion_lat": 0.0, "type": "electric_scooter", "name": "503826de11a24a02dc6800c2e7cac180", "is_disabled": 0, "rental_uris": {"ios": "https://dc.lft.to/lastmile_qr_scan", "android": "https://dc.lft.to/lastmile_qr_scan"}, "is_reserved": 0}, {"lon": -77.02360033333333, "bike_id": "7add617cc814478462e1ccb8ad76df82", "lat": 38.920482666666665, "fusion_lon": 0.0, "fusion_lat": 0.0, "type": "electric_scooter", "name": "7add617cc814478462e1ccb8ad76df82", "is_disabled": 0, "rental_uris": {"ios": "https://dc.lft.to/lastmile_qr_scan", "android": "https://dc.lft.to/lastmile_qr_scan"}, "is_reserved": 0}, {"lon": -77.02711866666667, "bike_id": "83c965a0afd252bfb69ef6e057aa2bfc", "lat": 38.92769233333333, "fusion_lon": 0.0, "fusion_lat": 0.0, "type": "electric_scooter", "name": "83c965a0afd252bfb69ef6e057aa2bfc", "is_disabled": 0, "rental_uris": {"ios": "https://dc.lft.to/lastmile_qr_scan", "android": "https://dc.lft.to/lastmile_qr_scan"}, "is_reserved": 0}, {"lon": -77.0479715, "bike_id": "05476dfdc928e54e6626fcb9ffafd68c", "lat": 38.90966783333333, "fusion_lon": 0.0, "fusion_lat": 0.0, "type": "electric_scooter", "name": "05476dfdc928e54e6626fcb9ffafd68c", "is_disabled": 0, "rental_uris": {"ios": "https://dc.lft.to/lastmile_qr_scan", "android": "https://dc.lft.to/lastmile_qr_scan"}, "is_reserved": 0}, {"lon": -76.92738483333333, "bike_id": "ab660a08f4cbb567eaddf715f6f0c104", "lat": 38.889656333333335, "fusion_lon": 0.0, "fusion_lat": 0.0, "type": "electric_scooter", "name": "ab660a08f4cbb567eaddf715f6f0c104", "is_disabled": 0, "rental_uris": {"ios": "https://dc.lft.to/lastmile_qr_scan", "android": "https://dc.lft.to/lastmile_qr_scan"}, "is_reserved": 0}, {"lon": -77.0233275, "bike_id": "ea4b5e3aa4c52f52d9a24ed675e7b0b9", "lat": 38.91843766666667, "fusion_lon": 0.0, "fusion_lat": 0.0, "type": "electric_bike", "name": "ea4b5e3aa4c52f52d9a24ed675e7b0b9", "is_disabled": 0, "rental_uris": {"ios": "https://dc.lft.to/lastmile_qr_scan", "android": "https://dc.lft.to/lastmile_qr_scan"}, "is_reserved": 0}, {"lon": -76.99106266666666, "bike_id": "f449832142b2b6fd44e5cc60689efc2d", "lat": 38.9031785, "fusion_lon": 0.0, "fusion_lat": 0.0, "type": "electric_scooter", "name": "f449832142b2b6fd44e5cc60689efc2d", "is_disabled": 0, "rental_uris": {"ios": "https://dc.lft.to/lastmile_qr_scan", "android": "https://dc.lft.to/lastmile_qr_scan"}, "is_reserved": 0}, {"lon": -76.98565416666666, "bike_id": "7d310b7e9fa3a5fec18ea89b75ca32c6", "lat": 38.899565, "fusion_lon": 0.0, "fusion_lat": 0.0, "type": "electric_scooter", "name": "7d310b7e9fa3a5fec18ea89b75ca32c6", "is_disabled": 0, "rental_uris": {"ios": "https://dc.lft.to/lastmile_qr_scan", "android": "https://dc.lft.to/lastmile_qr_scan"}, "is_reserved": 0}, {"lon": -76.9819175, "bike_id": "f36993183fe65bfc88c912878cd5df7d", "lat": 38.926118333333335, "fusion_lon": 0.0, "fusion_lat": 0.0, "type": "electric_scooter", "name": "f36993183fe65bfc88c912878cd5df7d", "is_disabled": 0, "rental_uris": {"ios": "https://dc.lft.to/lastmile_qr_scan", "android": "https://dc.lft.to/lastmile_qr_scan"},