{"data": {"bikes": [{"rental_uris": {"ios": "https://dc.lft.to/lastmile_qr_scan", "android": "https://dc.lft.to/lastmile_qr_scan"}, "lon": -76.98181483333333, "type": "electric_scooter", "fusion_lat": 0.0, "lat": 38.895776, "name": "7703689a1eab5551d196d093a1d4565d", "fusion_lon": 0.0, "bike_id": "7703689a1eab5551d196d093a1d4565d", "is_disabled": 0, "is_reserved": 0}, {"rental_uris": {"ios": "https://dc.lft.to/lastmile_qr_scan", "android": "https://dc.lft.to/lastmile_qr_scan"}, "lon": -77.00974616666667, "type": "electric_scooter", "fusion_lat": 0.0, "lat": 38.919175, "name": "ace940e0bff5f072c752a946e5383a33", "fusion_lon": 0.0, "bike_id": "ace940e0bff5f072c752a946e5383a33", "is_disabled": 0, "is_reserved": 0}, {"rental_uris": {"ios": "https://dc.lft.to/lastmile_qr_scan", "android": "https://dc.lft.to/lastmile_qr_scan"}, "lon": -77.023581, "type": "electric_scooter", "fusion_lat": 0.0, "lat": 38.9250155, "name": "07801c85cbc67da3ca201d02e38682b8", "fusion_lon": 0.0, "bike_id": "07801c85cbc67da3ca201d02e38682b8", "is_disabled": 0, "is_reserved": 0}, {"rental_uris": {"ios": "https://dc.lft.to/lastmile_qr_scan", "android": "https://dc.lft.to/lastmile_qr_scan"}, "lon": -76.90957633333333, "type": "electric_bike", "fusion_lat": 0.0, "lat": 38.85421766666666, "name": "590c57b4536e36d60c681d549fee7e42", "fusion_lon": 0.0, "bike_id": "590c57b4536e36d60c681d549fee7e42", "is_disabled": 0, "is_reserved": 0}, {"rental_uris": {"ios": "https://dc.lft.to/lastmile_qr_scan", "android": "https://dc.lft.to/lastmile_qr_scan"}, "lon": -77.0314175, "type": "electric_scooter", "fusion_lat": 0.0, "lat": 38.91267833333333, "name": "68fb65513988ba11d663fa516972001a", "fusion_lon": 0.0, "bike_id": "68fb65513988ba11d663fa516972001a", "is_disabled": 0, "is_reserved": 0}, {"rental_uris": {"ios": "https://dc.lft.to/lastmile_qr_scan", "android": "https://dc.lft.to/lastmile_qr_scan"}, "lon": -76.94888366666666, "type": "electric_scooter", "fusion_lat": 0.0, "lat": 38.895263666666665, "name": "53ff6f7cd8d2b5ea909bfc4e961d8ad9", "fusion_lon": 0.0, "bike_id": "53ff6f7cd8d2b5ea909bfc4e961d8ad9", "is_disabled": 0, "is_reserved": 0}, {"rental_uris": {"ios": "https://dc.lft.to/lastmile_qr_scan", "android": "https://dc.lft.to/lastmile_qr_scan"}, "lon": -77.03444383333333, "type": "electric_scooter", "fusion_lat": 0.0, "lat": 38.90975133333333, "name": "61dae4855233459f981d93c1882ee5db", "fusion_lon": 0.0, "bike_id": "61dae4855233459f981d93c1882ee5db", "is_disabled": 0, "is_reserved": 0}, {"rental_uris": {"ios": "https://dc.lft.to/lastmile_qr_scan", "android": "https://dc.lft.to/lastmile_qr_scan"}, "lon": -77.0330245, "type": "electric_scooter", "fusion_lat": 0.0, "lat": 38.918123, "name": "6a06020005ce5e3a25415c468ae99187", "fusion_lon": 0.0, "bike_id": "6a06020005ce5e3a25415c468ae99187", "is_disabled": 0, "is_reserved": 0}, {"rental_uris": {"ios": "https://dc.lft.to/lastmile_qr_scan", "android": "https://dc.lft.to/lastmile_qr_scan"}, "lon": -77.02402366666666, "type": "electric_scooter", "fusion_lat": 0.0, "lat": 38.9349175, "name": "8ed285728ba0a88035ac5ed44f1c7ebb", "fusion_lon": 0.0, "bike_id": "8ed285728ba0a88035ac5ed44f1c7ebb", "is_disabled": 0, "is_reserved": 0}, {"rental_uris": {"ios": "https://dc.lft.to/lastmile_qr_scan", "android": "https://dc.lft.to/lastmile_qr_scan"}, "lon": -77.03504533333333, "type": "electric_scooter", "fusion_lat": 0.0, "lat": 38.91881383333333, "name": "5bcee51bcf224155f20f174a96fe0768", "fusion_lon": 0.0, "bike_id": "5bcee51bcf224155f20f174a96fe0768", "is_disabled": 0, "is_reserved": 0}, {"rental_uris": {"ios": "https://dc.lft.to/lastmile_qr_scan", "android": "https://dc.lft.to/lastmile_qr_scan"}, "lon": -77.04492733333333, "type": "electric_scooter", "fusion_lat": 0.0, "lat": 38.91101283333333, "name": "d360a6b1bb04b90ae2c4ec9c7c4df17f", "fusion_lon": 0.0, "bike_id": "d360a6b1bb04b90ae2c4ec9c7c4df17f", "is_disabled": 0, "is_reserved": 0}, {"rental_uris": {"ios": "https://dc.lft.to/lastmile_qr_scan", "android": "https://dc.lft.to/lastmile_qr_scan"}, "lon": -77.0056505, "type": "electric_scooter", "fusion_lat": 0.0, "lat": 38.905629166666664, "name": "42d45abf9b4e649afbcd0d0ccc89e4a9", "fusion_lon": 0.0, "bike_id": "42d45abf9b4e649afbcd0d0ccc89e4a9", "is_disabled": 0, "is_reserved": 0}, {"rental_uris": {"ios": "https://dc.lft.to/lastmile_qr_scan", "android": "https://dc.lft.to/lastmile_qr_scan"}, "lon": -76.982484, "type": "electric_scooter", "fusion_lat": 0.0, "lat": 38.908640166666665, "name": "b63e98ee43b7df716cbd0328a2b05f6a", "fusion_lon": 0.0, "bike_id": "b63e98ee43b7df716cbd0328a2b05f6a", "is_disabled": 0, "is_reserved": 0}, {"rental_uris": {"ios": "https://dc.lft.to/lastmile_qr_scan", "android": "https://dc.lft.to/lastmile_qr_scan"}, "lon": -77.03332783333333, "type": "electric_scooter", "fusion_lat": 0.0, "lat": 38.901525, "name": "ecf03c41e2d1f82e663b7b2d30c8e0a8", "fusion_lon": 0.0, "bike_id": "ecf03c41e2d1f82e663b7b2d30c8e0a8", "is_disabled": 0, "is_reserved": 0}, {"rental_uris": {"ios": "https://dc.lft.to/lastmile_qr_scan", "android": "https://dc.lft.to/lastmile_qr_scan"}, "lon": -77.03705783333334, "type": "electric_bike", "fusion_lat": 0.0, "lat": 38.91700383333333, "name": "616468cfff6ea3e2b8217ade10353940", "fusion_lon": 0.0, "bike_id": "616468cfff6ea3e2b8217ade10353940", "is_disabled": 0, "is_reserved": 0}, {"rental_uris": {"ios": "https://dc.lft.to/lastmile_qr_scan", "android": "https://dc.lft.to/lastmile_qr_scan"}, "lon": -77.02405583333334, "type": "electric_scooter", "fusion_lat": 0.0, "lat": 38.91549883333333, "name": "143c8df4db0c7e07cea622295df0a8c1", "fusion_lon": 0.0, "bike_id": "143c8df4db0c7e07cea622295df0a8c1", "is_disabled": 0, "is_reserved": 0}, {"rental_uris": {"ios": "https://dc.lft.to/lastmile_qr_scan", "android": "https://dc.lft.to/lastmile_qr_scan"}, "lon": -76.949984, "type": "electric_scooter", "fusion_lat": 0.0, "lat": 38.8937075, "name": "2b26544a0cd386cc9bbb5c4d7bd85248", "fusion_lon": 0.0, "bike_id": "2b26544a0cd386cc9bbb5c4d7bd85248", "is_disabled": 0, "is_reserved": 0}, {"rental_uris": {"ios": "https://dc.lft.to/lastmile_qr_scan", "android": "https://dc.lft.to/lastmile_qr_scan"}, "lon": -77.03855483333334, "type": "electric_scooter", "fusion_lat": 0.0, "lat": 38.902779833333334, "name": "541d0b720cd47b6e627aab351fa23edb", "fusion_lon": 0.0, "bike_id": "541d0b720cd47b6e627aab351fa23edb", "is_disabled": 0, "is_reserved": 0}, {"rental_uris": {"ios": "https://dc.lft.to/lastmile_qr_scan", "android": "https://dc.lft.to/lastmile_qr_scan"}, "lon": -77.0826795, "type": "electric_scooter", "fusion_lat": 0.0, "lat": 38.93031366666666, "name": "189966be38e004527abff21bd73f7eec", "fusion_lon": 0.0, "bike_id": "189966be38e004527abff21bd73f7eec", "is_disabled": 0, "is_reserved": 0}, {"rental_uris": {"ios": "https://dc.lft.to/lastmile_qr_scan", "android": "https://dc.lft.to/lastmile_qr_scan"}, "lon": -77.07196366666666, "type": "electric_scooter", "fusion_lat": 0.0, "lat": 38.9319095, "name": "239a78b949ff99e4c6142cd1431dcf74", "fusion_lon": 0.0, "bike_id": "239a78b949ff99e4c6142cd1431dcf74", "is_disabled": 0, "is_reserved": 0}, {"rental_uris": {"ios": "https://dc.lft.to/lastmile_qr_scan", "android": "https://dc.lft.to/lastmile_qr_scan"}, "lon": -77.05063216666667, "type": "electric_scooter", "fusion_lat": 0.0, "lat": 38.900856166666664, "name": "3cd2809326c22939030c7e62fb94e432", "fusion_lon": 0.0, "bike_id": "3cd2809326c22939030c7e62fb94e432", "is_disabled": 0, "is_reserved": 0}, {"rental_uris": {"ios": "https://dc.lft.to/lastmile_qr_scan", "android": "https://dc.lft.to/lastmile_qr_scan"}, "lon": -77.02426933333334, "type": "electric_scooter", "fusion_lat": 0.0, "lat": 38.9156145, "name": "d703200b72c7c95c49b4eb65f25b8182", "fusion_lon": 0.0, "bike_id": "d703200b72c7c95c49b4eb65f25b8182", "is_disabled": 0, "is_reserved": 0}, {"rental_uris": {"ios": "https://dc.lft.to/lastmile_qr_scan", "android": "https://dc.lft.to/lastmile_qr_scan"}, "lon": -77.182924, "type": "electric_bike", "fusion_lat": 0.0, "lat": 38.8834255, "name": "8c51891d94772002aecfd8f3cbcb56ac", "fusion_lon": 0.0, "bike_id": "8c51891d94772002aecfd8f3cbcb56ac", "is_disabled": 0, "is_reserved": 0}, {"rental_uris": {"ios": "https://dc.lft.to/lastmile_qr_scan", "android": "https://dc.lft.to/lastmile_qr_scan"}, "lon": -77.017794, "type": "electric_scooter", "fusion_lat": 0.0, "lat": 38.90038583333333, "name": "37c868b1735bc1718ade1c5a61093efc", "fusion_lon": 0.0, "bike_id": "37c868b1735bc1718ade1c5a61093efc", "is_disabled": 0, "is_reserved": 0}, {"rental_uris": {"ios": "https://dc.lft.to/lastmile_qr_scan", "android": "https://dc.lft.to/lastmile_qr_scan"}, "lon": -76.97823866666667, "type": "electric_scooter", "fusion_lat": 0.0, "lat": 38.89521383333334, "name": "b4e3ec338e4167e7ea30d3da756f5388", "fusion_lon": 0.0, "bike_id": "b4e3ec338e4167e7ea30d3da756f5388", "is_disabled": 0, "is_reserved": 0}, {"rental_uris": {"ios": "https://dc.lft.to/lastmile_qr_scan", "android": "https://dc.lft.to/lastmile_qr_scan"}, "lon": -77.02479933333333, "type": "electric_scooter", "fusion_lat": 0.0, "lat": 38.9309595, "name": "52a718f51c7f06c34fa3aa7d9f40f878", "fusion_lon": 0.0, "bike_id": "52a718f51c7f06c34fa3aa7d9f40f878", "is_disabled": 0, "is_reserved": 0}, {"rental_uris": {"ios": "https://dc.lft.to/lastmile_qr_scan", "android": "https://dc.lft.to/lastmile_qr_scan"}, "lon": -77.03467983333333, "type": "electric_scooter", "fusion_lat": 0.0, "lat": 38.907810833333336, "name": "1f82bcf7573e2dc8b55d6c8b0600f71f", "fusion_lon": 0.0, "bike_id": "1f82bcf7573e2dc8b55d6c8b0600f71f", "is_disabled": 0, "is_reserved": 0}, {"rental_uris": {"ios": "https://dc.lft.to/lastmile_qr_scan", "android": "https://dc.lft.to/lastmile_qr_scan"}, "lon": -77.0611025, "type": "electric_scooter", "fusion_lat": 0.0, "lat": 38.91296666666667, "name": "5cb712a9525f5ec0b80981c053c4a124", "fusion_lon": 0.0, "bike_id": "5cb712a9525f5ec0b80981c053c4a124", "is_disabled": 0, "is_reserved": 0}, {"rental_uris": {"ios": "https://dc.lft.to/lastmile_qr_scan", "android": "https://dc.lft.to/lastmile_qr_scan"}, "lon": -77.034669, "type": "electric_scooter", "fusion_lat": 0.0, "lat": 38.90777383333333, "name": "9258c4e8324f3122406452276b9f9cad", "fusion_lon": 0.0, "bike_id": "9258c4e8324f3122406452276b9f9cad", "is_disabled": 0, "is_reserved": 0}, {"rental_uris": {"ios": "https://dc.lft.to/lastmile_qr_scan", "android": "https://dc.lft.to/lastmile_qr_scan"}, "lon": -77.04233716666667, "type": "electric_scooter", "fusion_lat": 0.0, "lat": 38.92152, "name": "ae3feb46f34df76a65eecb3a9f6fa76f", "fusion_lon": 0.0, "bike_id": "ae3feb46f34df76a65eecb3a9f6fa76f", "is_disabled": 0, "is_reserved": 0}, {"rental_uris": {"ios": "https://dc.lft.to/lastmile_qr_scan", "android": "https://dc.lft.to/lastmile_qr_scan"}, "lon": -77.00211616666667, "type": "electric_scooter", "fusion_lat": 0.0, "lat": 38.900619166666665, "name": "37d39acd62da31de0b665bea8b100f43", "fusion_lon": 0.0, "bike_id": "37d39acd62da31de0b665bea8b100f43", "is_disabled": 0, "is_reserved": 0}, {"rental_uris": {"ios": "https://dc.lft.to/lastmile_qr_scan", "android": "https://dc.lft.to/lastmile_qr_scan"}, "lon": -77.03231283333334, "type": "electric_scooter", "fusion_lat": 0.0, "lat": 38.9125545, "name": "35bfc6f9e4cf3f2ba614f5f0fcec78dc", "fusion_lon": 0.0, "bike_id": "35bfc6f9e4cf3f2ba614f5f0fcec78dc", "is_disabled": 0, "is_reserved": 0}, {"rental_uris": {"ios": "https://dc.lft.to/lastmile_qr_scan", "android": "https://dc.lft.to/lastmile_qr_scan"}, "lon": -77.03347816666667, "type": "electric_scooter", "fusion_lat": 0.0, "lat": 38.93512, "name": "a6f59696503df026a0d9d0ec5f2e8f3e", "fusion_lon": 0.0, "bike_id": "a6f59696503df026a0d9d0ec5f2e8f3e", "is_disabled": 0, "is_reserved": 0}, {"rental_uris": {"ios": "https://dc.lft.to/lastmile_qr_scan", "android": "https://dc.lft.to/lastmile_qr_scan"}, "lon": -76.99000666666667, "type": "electric_scooter", "fusion_lat": 0.0, "lat": 38.8650265, "name": "73050f16754a7e7e012310f33c1d9f65", "fusion_lon": 0.0, "bike_id": "73050f16754a7e7e012310f33c1d9f65", "is_disabled": 0, "is_reserved": 0}, {"rental_uris": {"ios": "https://dc.lft.to/lastmile_qr_scan", "android": "https://dc.lft.to/lastmile_qr_scan"}, "lon": -77.02191133333334, "type": "electric_scooter", "fusion_lat": 0.0, "lat": 38.90539783333333, "name": "ab4a1ef3a5053971a7d7b0bda24bf13f", "fusion_lon": 0.0, "bike_id": "ab4a1ef3a5053971a7d7b0bda24bf13f", "is_disabled": 0, "is_reserved": 0}, {"rental_uris": {"ios": "https://dc.lft.to/lastmile_qr_scan", "android": "https://dc.lft.to/lastmile_qr_scan"}, "lon": -77.03648416666667, "type": "electric_scooter", "fusion_lat": 0.0, "lat": 38.908015166666665, "name": "66fe52d427f6c53a088710c256c78a83", "fusion_lon": 0.0, "bike_id": "66fe52d427f6c53a088710c256c78a83", "is_disabled": 0, "is_reserved": 0}, {"rental_uris": {"ios": "https://dc.lft.to/lastmile_qr_scan", "android": "https://dc.lft.to/lastmile_qr_scan"}, "lon": -77.0638005, "type": "electric_scooter", "fusion_lat": 0.0, "lat": 38.90510916666667, "name": "85aea0599c8948518265d9874266b944", "fusion_lon": 0.0, "bike_id": "85aea0599c8948518265d9874266b944", "is_disabled": 0, "is_reserved": 0}, {"rental_uris": {"ios": "https://dc.lft.to/lastmile_qr_scan", "android": "https://dc.lft.to/lastmile_qr_scan"}, "lon": -77.00763766666667, "type": "electric_scooter", "fusion_lat": 0.0, "lat": 38.907586, "name": "ed72fac6fae89bb5281fde7d61ab5ca8", "fusion_lon": 0.0, "bike_id": "ed72fac6fae89bb5281fde7d61ab5ca8", "is_disabled": 0, "is_reserved": 0}, {"rental_uris": {"ios": "https://dc.lft.to/lastmile_qr_scan", "android": "https://dc.lft.to/lastmile_qr_scan"}, "lon": -76.95413183333334, "type": "electric_scooter", "fusion_lat": 0.0, "lat": 38.889957, "name": "f09fb7885b6595542de45dd9fc87d85e", "fusion_lon": 0.0, "bike_id": "f09fb7885b6595542de45dd9fc87d85e", "is_disabled": 0, "is_reserved": 0}, {"rental_uris": {"ios": "https://dc.lft.to/lastmile_qr_scan", "android": "https://dc.lft.to/lastmile_qr_scan"}, "lon": -77.02315616666667, "type": "electric_scooter", "fusion_lat": 0.0, "lat": 38.92721566666667, "name": "1799856be4b53d4925f07bcf9188808a", "fusion_lon": 0.0, "bike_id": "1799856be4b53d4925f07bcf9188808a", "is_disabled": 0, "is_reserved": 0}, {"rental_uris": {"ios": "https://dc.lft.to/lastmile_qr_scan", "android": "https://dc.lft.to/lastmile_qr_scan"}, "lon": -77.0250305, "type": "electric_scooter", "fusion_lat": 0.0, "lat": 38.917116, "name": "3bdb1dbcd99ca75c8c322ab0905f8f93", "fusion_lon": 0.0, "bike_id": "3bdb1dbcd99ca75c8c322ab0905f8f93", "is_disabled": 0, "is_reserved": 0}, {"rental_uris": {"ios": "https://dc.lft.to/lastmile_qr_scan", "android": "https://dc.lft.to/lastmile_qr_scan"}, "lon": -77.06576983333333, "type": "electric_bike", "fusion_lat": 0.0, "lat": 38.911381166666665, "name": "c4dc1020a7363cab62fb7dc24a03b431", "fusion_lon": 0.0, "bike_id": "c4dc1020a7363cab62fb7dc24a03b431", "is_disabled": 0, "is_reserved": 0}, {"rental_uris": {"ios": "https://dc.lft.to/lastmile_qr_scan", "android": "https://dc.lft.to/lastmile_qr_scan"}, "lon": -77.0240245, "type": "electric_scooter", "fusion_lat": 0.0, "lat": 38.91743566666667, "name": "90d392e9d31c881ed368e23f8f91edf8", "fusion_lon": 0.0, "bike_id": "90d392e9d31c881ed368e23f8f91edf8", "is_disabled": 0, "is_reserved": 0}, {"rental_uris": {"ios": "https://dc.lft.to/lastmile_qr_scan", "android": "https://dc.lft.to/lastmile_qr_scan"}, "lon": -77.10740016666666, "type": "electric_bike", "fusion_lat": 0.0, "lat": 38.855264, "name": "ca50f913f0f1ad4c8b52a6668d6cb8a7", "fusion_lon": 0.0, "bike_id": "ca50f913f0f1ad4c8b52a6668d6cb8a7", "is_disabled": 0, "is_reserved": 0}, {"rental_uris": {"ios": "https://dc.lft.to/lastmile_qr_scan", "android": "https://dc.lft.to/lastmile_qr_scan"}, "lon": -77.04189733333334, "type": "electric_scooter", "fusion_lat": 0.0, "lat": 38.905883333333335, "name": "c2ae03bb877d77e025158e20dbe2dc1a", "fusion_lon": 0.0, "bike_id": "c2ae03bb877d77e025158e20dbe2dc1a", "is_disabled": 0, "is_reserved": 0}, {"rental_uris": {"ios": "https://dc.lft.to/lastmile_qr_scan", "android": "https://dc.lft.to/lastmile_qr_scan"}, "lon": -77.02391966666667, "type": "electric_scooter", "fusion_lat": 0.0, "lat": 38.913358333333335, "name": "0e397327ebc7e18db8b8cd82927703a7", "fusion_lon": 0.0, "bike_id": "0e397327ebc7e18db8b8cd82927703a7", "is_disabled": 0, "is_reserved": 0}, {"rental_uris": {"ios": "https://dc.lft.to/lastmile_qr_scan", "android": "https://dc.lft.to/lastmile_qr_scan"}, "lon": -77.04880316666667, "type": "electric_scooter", "fusion_lat": 0.0, "lat": 38.900725666666666, "name": "8744f29773c1b87c1469c605513f665c", "fusion_lon": 0.0, "bike_id": "8744f29773c1b87c1469c605513f665c", "is_disabled": 0, "is_reserved": 0}, {"rental_uris": {"ios": "https://dc.lft.to/lastmile_qr_scan", "android": "https://dc.lft.to/lastmile_qr_scan"}, "lon": -77.03803566666667, "type": "electric_scooter", "fusion_lat": 0.0, "lat": 38.93611416666667, "name": "c43fd6b74775ac87ab2755978c806cb8", "fusion_lon": 0.0, "bike_id": "c43fd6b74775ac87ab2755978c806cb8", "is_disabled": 0, "is_reserved": 0}, {"rental_uris": {"ios": "https://dc.lft.to/lastmile_qr_scan", "android": "https://dc.lft.to/lastmile_qr_scan"}, "lon": -77.12900033333334, "type": "electric_bike", "fusion_lat": 0.0, "lat": 38.86375, "name": "7af926d58ad8f381dc93d59840048a87", "fusion_lon": 0.0, "bike_id": "7af926d58ad8f381dc93d59840048a87", "is_disabled": 0, "is_reserved": 0}, {"rental_uris": {"ios": "https://dc.lft.to/lastmile_qr_scan", "android": "https://dc.lft.to/lastmile_qr_scan"}, "lon": -77.02787566666667, "type": "electric_scooter", "fusion_lat": 0.0, "lat": 38.93576183333333, "name": "6d7cdfea9577481b5fe85146d9736d43", "fusion_lon": 0.0, "bike_id": "6d7cdfea9577481b5fe85146d9736d43", "is_disabled": 0, "is_reserved": 0}, {"rental_uris": {"ios": "https://dc.lft.to/lastmile_qr_scan", "android": "https://dc.lft.to/lastmile_qr_scan"}, "lon": -77.02169016666667, "type": "electric_scooter", "fusion_lat": 0.0, "lat": 38.916088, "name": "bcef07b51aa9a0e6ffbbcd88a3ae54e7", "fusion_lon": 0.0, "bike_id": "bcef07b51aa9a0e6ffbbcd88a3ae54e7", "is_disabled": 0, "is_reserved": 0}, {"rental_uris": {"ios": "https://dc.lft.to/lastmile_qr_scan", "android": "https://dc.lft.to/lastmile_qr_scan"}, "lon": -76.98955416666666, "type": "electric_scooter", "fusion_lat": 0.0, "lat": 38.900295666666665, "name": "9eeb3763b6a56c6775ae5cff73e20b84", "fusion_lon": 0.0, "bike_id": "9eeb3763b6a56c6775ae5cff73e20b84", "is_disabled": 0, "is_reserved": 0}, {"rental_uris": {"ios": "https://dc.lft.to/lastmile_qr_scan", "android": "https://dc.lft.to/lastmile_qr_scan"}, "lon": -77.0060815, "type": "electric_scooter", "fusion_lat": 0.0, "lat": 38.905774666666666, "name": "047287da2ca64aae2da9a13446018c91", "fusion_lon": 0.0, "bike_id": "047287da2ca64aae2da9a13446018c91", "is_disabled": 0, "is_reserved": 0}, {"rental_uris": {"ios": "https://dc.lft.to/lastmile_qr_scan", "android": "https://dc.lft.to/lastmile_qr_scan"}, "lon": -77.05291583333333, "type": "electric_scooter", "fusion_lat": 0.0, "lat": 38.92793233333333, "name": "e37a209af7c9a5b2e4fe1b16f1c4b8dd", "fusion_lon": 0.0, "bike_id": "e37a209af7c9a5b2e4fe1b16f1c4b8dd", "is_disabled": 0, "is_reserved": 0}, {"rental_uris": {"ios": "https://dc.lft.to/lastmile_qr_scan", "android": "https://dc.lft.to/lastmile_qr_scan"}, "lon": -77.036597, "type": "electric_bike", "fusion_lat": 0.0, "lat": 38.936326666666666, "name": "abbfc532a7d683976103281c5670fc82", "fusion_lon": 0.0, "bike_id": "abbfc532a7d683976103281c5670fc82", "is_disabled": 0, "is_reserved": 0}, {"rental_uris": {"ios": "https://dc.lft.to/lastmile_qr_scan", "android": "https://dc.lft.to/lastmile_qr_scan"}, "lon": -77.0378365, "type": "electric_scooter", "fusion_lat": 0.0, "lat": 38.90560966666666, "name": "f92887066fcc6daf694458376b3a19f4", "fusion_lon": 0.0, "bike_id": "f92887066fcc6daf694458376b3a19f4", "is_disabled": 0, "is_reserved": 0}, {"rental_uris": {"ios": "https://dc.lft.to/lastmile_qr_scan", "android": "https://dc.lft.to/lastmile_qr_scan"}, "lon": -77.09523116666666, "type": "electric_bike", "fusion_lat": 0.0, "lat": 38.838124, "name": "8064296a7adbfdf7769aab2aab054ef6", "fusion_lon": 0.0, "bike_id": "8064296a7adbfdf7769aab2aab054ef6", "is_disabled": 0, "is_reserved": 0}, {"rental_uris": {"ios": "https://dc.lft.to/lastmile_qr_scan", "android": "https://dc.lft.to/lastmile_qr_scan"}, "lon": -77.04495866666667, "type": "electric_scooter", "fusion_lat": 0.0, "lat": 38.912847, "name": "9b4d74115ecf539a243db2654c56af31", "fusion_lon": 0.0, "bike_id": "9b4d74115ecf539a243db2654c56af31", "is_disabled": 0, "is_reserved": 0}, {"rental_uris": {"ios": "https://dc.lft.to/lastmile_qr_scan", "android": "https://dc.lft.to/lastmile_qr_scan"}, "lon": -77.0426305, "type": "electric_scooter", "fusion_lat": 0.0, "lat": 38.90855616666666, "name": "7b09a32365b23c916bc366bc69452804", "fusion_lon": 0.0, "bike_id": "7b09a32365b23c916bc366bc69452804", "is_disabled": 0, "is_reserved": 0}, {"rental_uris": {"ios": "https://dc.lft.to/lastmile_qr_scan", "android": "https://dc.lft.to/lastmile_qr_scan"}, "lon": -76.986242, "type": "electric_scooter", "fusion_lat": 0.0, "lat": 38.868137, "name": "65d7163e2ebf121db47d8c2b4b4d4bb7", "fusion_lon": 0.0, "bike_id": "65d7163e2ebf121db47d8c2b4b4d4bb7", "is_disabled": 0, "is_reserved": 0}, {"rental_uris": {"ios": "https://dc.lft.to/lastmile_qr_scan", "android": "https://dc.lft.to/lastmile_qr_scan"}, "lon": -77.0326175, "type": "electric_scooter", "fusion_lat": 0.0, "lat": 38.9256025, "name": "ceee4d4d27a4d04b00595834e36ed253", "fusion_lon": 0.0, "bike_id": "ceee4d4d27a4d04b00595834e36ed253", "is_disabled": 0, "is_reserved": 0}, {"rental_uris": {"ios": "https://dc.lft.to/lastmile_qr_scan", "android": "https://dc.lft.to/lastmile_qr_scan"}, "lon": -77.02135216666667, "type": "electric_scooter", "fusion_lat": 0.0, "lat": 38.91549283333333, "name": "ca939e0a2d04224fcd68e6c97e1abeb9", "fusion_lon": 0.0, "bike_id": "ca939e0a2d04224fcd68e6c97e1abeb9", "is_disabled": 0, "is_reserved": 0}, {"rental_uris": {"ios": "https://dc.lft.to/lastmile_qr_scan", "android": "https://dc.lft.to/lastmile_qr_scan"}, "lon": -77.06380683333333, "type": "electric_bike", "fusion_lat": 0.0, "lat": 38.90507616666667, "name": "a67384dabcb05ac070c8355cf55c5831", "fusion_lon": 0.0, "bike_id": "a67384dabcb05ac070c8355cf55c5831", "is_disabled": 0, "is_reserved": 0}, {"rental_uris": {"ios": "https://dc.lft.to/lastmile_qr_scan", "android": "https://dc.lft.to/lastmile_qr_scan"}, "lon": -77.0559205, "type": "electric_scooter", "fusion_lat": 0.0, "lat": 38.92779183333333, "name": "a9f1464fae3c4fae3344f9b1c298c838", "fusion_lon": 0.0, "bike_id": "a9f1464fae3c4fae3344f9b1c298c838", "is_disabled": 0, "is_reserved": 0}, {"rental_uris": {"ios": "https://dc.lft.to/lastmile_qr_scan", "android": "https://dc.lft.to/lastmile_qr_scan"}, "lon": -77.03340616666667, "type": "electric_scooter", "fusion_lat": 0.0, "lat": 38.91911133333333, "name": "79155f01cf074d25790288249305451b", "fusion_lon": 0.0, "bike_id": "79155f01cf074d25790288249305451b", "is_disabled": 0, "is_reserved": 0}, {"rental_uris": {"ios": "https://dc.lft.to/lastmile_qr_scan", "android": "https://dc.lft.to/lastmile_qr_scan"}, "lon": -77.0582545, "type": "electric_scooter", "fusion_lat": 0.0, "lat": 38.9342095, "name": "cabd7db8fdbdf64eba08afde49f936e8", "fusion_lon": 0.0, "bike_id": "cabd7db8fdbdf64eba08afde49f936e8", "is_disabled": 0, "is_reserved": 0}, {"rental_uris": {"ios": "https://dc.lft.to/lastmile_qr_scan", "android": "https://dc.lft.to/lastmile_qr_scan"}, "lon": -77.03555966666667, "type": "electric_scooter", "fusion_lat": 0.0, "lat": 38.918111333333336, "name": "ebdf4a66d4671ee3d89958a6131bb2ae", "fusion_lon": 0.0, "bike_id": "ebdf4a66d4671ee3d89958a6131bb2ae", "is_disabled": 0, "is_reserved": 0}, {"rental_uris": {"ios": "https://dc.lft.to/lastmile_qr_scan", "android": "https://dc.lft.to/lastmile_qr_scan"}, "lon": -77.01721716666667, "type": "electric_scooter", "fusion_lat": 0.0, "lat": 38.90399033333333, "name": "ac4ba6b6a1ea26c9eebdbb6b137893ab", "fusion_lon": 0.0, "bike_id": "ac4ba6b6a1ea26c9eebdbb6b137893ab", "is_disabled": 0, "is_reserved": 0}, {"rental_uris": {"ios": "https://dc.lft.to/lastmile_qr_scan", "android": "https://dc.lft.to/lastmile_qr_scan"}, "lon": -76.958179, "type": "electric_scooter", "fusion_lat": 0.0, "lat": 38.890572166666665, "name": "67c0dd99d71d4dbcc34c6b3510b57623", "fusion_lon": 0.0, "bike_id": "67c0dd99d71d4dbcc34c6b3510b57623", "is_disabled": 0, "is_reserved": 0}, {"rental_uris": {"ios": "https://dc.lft.to/lastmile_qr_scan", "android": "https://dc.lft.to/lastmile_qr_scan"}, "lon": -77.04118216666667, "type": "electric_scooter", "fusion_lat": 0.0, "lat": 38.921539333333335, "name": "9684c672cf30bf05a425101583f1e875", "fusion_lon": 0.0, "bike_id": "9684c672cf30bf05a425101583f1e875", "is_disabled": 0, "is_reserved": 0}, {"rental_uris": {"ios": "https://dc.lft.to/lastmile_qr_scan", "android": "https://dc.lft.to/lastmile_qr_scan"}, "lon": -76.9462455, "type": "electric_bike", "fusion_lat": 0.0, "lat": 38.83230416666667, "name": "21bfe7fe9d4b71e1c29a125b673d7d97", "fusion_lon": 0.0, "bike_id": "21bfe7fe9d4b71e1c29a125b673d7d97", "is_disabled": 0, "is_reserved": 0}, {"rental_uris": {"ios": "https://dc.lft.to/lastmile_qr_scan", "android": "https://dc.lft.to/lastmile_qr_scan"}, "lon": -76.9489195, "type": "electric_scooter", "fusion_lat": 0.0, "lat": 38.895366, "name": "313ebd9963280509908f1655b68c86b5", "fusion_lon": 0.0, "bike_id": "313ebd9963280509908f1655b68c86b5", "is_disabled": 0, "is_reserved": 0}, {"rental_uris": {"ios": "https://dc.lft.to/lastmile_qr_scan", "android": "https://dc.lft.to/lastmile_qr_scan"}, "lon": -77.00711583333333, "type": "electric_scooter", "fusion_lat": 0.0, "lat": 38.8849245, "name": "8b1912b2739b35fb33b3f2a9db57280f", "fusion_lon": 0.0, "bike_id": "8b1912b2739b35fb33b3f2a9db57280f", "is_disabled": 0, "is_reserved": 0}, {"rental_uris": {"ios": "https://dc.lft.to/lastmile_qr_scan", "android": "https://dc.lft.to/lastmile_qr_scan"}, "lon": -77.03350916666666, "type": "electric_scooter", "fusion_lat": 0.0, "lat": 38.88759783333333, "name": "fb4d79c1fdea6c084d91c7bbbe617597", "fusion_lon": 0.0, "bike_id": "fb4d79c1fdea6c084d91c7bbbe617597", "is_disabled": 0, "is_reserved": 0}, {"rental_uris": {"ios": "https://dc.lft.to/lastmile_qr_scan", "android": "https://dc.lft.to/lastmile_qr_scan"}, "lon": -77.029538, "type": "electric_scooter", "fusion_lat": 0.0, "lat": 38.887483, "name": "7cae0de8214278f25f5fbce60cee1510", "fusion_lon": 0.0, "bike_id": "7cae0de8214278f25f5fbce60cee1510", "is_disabled": 0, "is_reserved": 0}, {"rental_uris": {"ios": "https://dc.lft.to/lastmile_qr_scan", "android": "https://dc.lft.to/lastmile_qr_scan"}, "lon": -77.04366266666666, "type": "electric_scooter", "fusion_lat": 0.0, "lat": 38.93334383333333, "name": "38e169e5be9f331822a66d383d576dd8", "fusion_lon": 0.0, "bike_id": "38e169e5be9f331822a66d383d576dd8", "is_disabled": 0, "is_reserved": 0}, {"rental_uris": {"ios": "https://dc.lft.to/lastmile_qr_scan", "android": "https://dc.lft.to/lastmile_qr_scan"}, "lon": -77.0546605, "type": "electric_scooter", "fusion_lat": 0.0, "lat": 38.89669083333333, "name": "cd5dbaf46456f083135db7b09c6fd905", "fusion_lon": 0.0, "bike_id": "cd5dbaf46456f083135db7b09c6fd905", "is_disabled": 0, "is_reserved": 0}, {"rental_uris": {"ios": "https://dc.lft.to/lastmile_qr_scan", "android": "https://dc.lft.to/lastmile_qr_scan"}, "lon": -77.01637783333334, "type": "electric_bike", "fusion_lat": 0.0, "lat": 38.881350166666664, "name": "cb4674ddf059802d7193535e979baf8e", "fusion_lon": 0.0, "bike_id": "cb4674ddf059802d7193535e979baf8e", "is_disabled": 0, "is_reserved": 0}, {"rental_uris": {"ios": "https://dc.lft.to/lastmile_qr_scan", "android": "https://dc.lft.to/lastmile_qr_scan"}, "lon": -76.97594333333333, "type": "electric_scooter", "fusion_lat": 0.0, "lat": 38.903326666666665, "name": "091dc3fc1cadd41d93795973ba16238f", "fusion_lon": 0.0, "bike_id": "091dc3fc1cadd41d93795973ba16238f", "is_disabled": 0, "is_reserved": 0}, {"rental_uris": {"ios": "https://dc.lft.to/lastmile_qr_scan", "android": "https://dc.lft.to/lastmile_qr_scan"}, "lon": -77.01433933333334, "type": "electric_scooter", "fusion_lat": 0.0, "lat": 38.90641183333334, "name": "b129e4d49ca4623e77f828916ecf6d71", "fusion_lon": 0.0, "bike_id": "b129e4d49ca4623e77f828916ecf6d71", "is_disabled": 0, "is_reserved": 0}, {"rental_uris": {"ios": "https://dc.lft.to/lastmile_qr_scan", "android": "https://dc.lft.to/lastmile_qr_scan"}, "lon": -76.9854485, "type": "electric_scooter", "fusion_lat": 0.0, "lat": 38.90419816666667, "name": "a743192e01d62f93383add4c443df991", "fusion_lon": 0.0, "bike_id": "a743192e01d62f93383add4c443df991", "is_disabled": 0, "is_reserved": 0}, {"rental_uris": {"ios": "https://dc.lft.to/lastmile_qr_scan", "android": "https://dc.lft.to/lastmile_qr_scan"}, "lon": -76.980824, "type": "electric_scooter", "fusion_lat": 0.0, "lat": 38.901697166666665, "name": "587ef5397b8ebd4238d6ba85475f939a", "fusion_lon": 0.0, "bike_id": "587ef5397b8ebd4238d6ba85475f939a", "is_disabled": 0, "is_reserved": 0}, {"rental_uris": {"ios": "https://dc.lft.to/lastmile_qr_scan", "android": "https://dc.lft.to/lastmile_qr_scan"}, "lon": -77.02949133333334, "type": "electric_scooter", "fusion_lat": 0.0, "lat": 38.905177, "name": "908c5d2673f710dfdc509dbcc0a1850c", "fusion_lon": 0.0, "bike_id": "908c5d2673f710dfdc509dbcc0a1850c", "is_disabled": 0, "is_reserved": 0}, {"rental_uris": {"ios": "https://dc.lft.to/lastmile_qr_scan", "android": "https://dc.lft.to/lastmile_qr_scan"}, "lon": -76.974938, "type": "electric_bike", "fusion_lat": 0.0, "lat": 38.92004133333333, "name": "6365c09deb001c287ad4174e187c6241", "fusion_lon": 0.0, "bike_id": "6365c09deb001c287ad4174e187c6241", "is_disabled": 0, "is_reserved": 0}, {"rental_uris": {"ios": "https://dc.lft.to/lastmile_qr_scan", "android": "https://dc.lft.to/lastmile_qr_scan"}, "lon": -76.984835, "type": "electric_scooter", "fusion_lat": 0.0, "lat": 38.9078435, "name": "63f7ec9073d6c0fa586bd863fec4fa6b", "fusion_lon": 0.0, "bike_id": "63f7ec9073d6c0fa586bd863fec4fa6b", "is_disabled": 0, "is_reserved": 0}, {"rental_uris": {"ios": "https://dc.lft.to/lastmile_qr_scan", "android": "https://dc.lft.to/lastmile_qr_scan"}, "lon": -77.04004816666666, "type": "electric_scooter", "fusion_lat": 0.0, "lat": 38.9100255, "name": "d83487163b658307312a0f3eeba17f0e", "fusion_lon": 0.0, "bike_id": "d83487163b658307312a0f3eeba17f0e", "is_disabled": 0, "is_reserved": 0}, {"rental_uris": {"ios": "https://dc.lft.to/lastmile_qr_scan", "android": "https://dc.lft.to/lastmile_qr_scan"}, "lon": -77.04111816666666, "type": "electric_scooter", "fusion_lat": 0.0, "lat": 38.92446666666667, "name": "e899360530533b68c31f524f60578833", "fusion_lon": 0.0, "bike_id": "e899360530533b68c31f524f60578833", "is_disabled": 0, "is_reserved": 0}, {"rental_uris": {"ios": "https://dc.lft.to/lastmile_qr_scan", "android": "https://dc.lft.to/lastmile_qr_scan"}, "lon": -76.97402466666666, "type": "electric_scooter", "fusion_lat": 0.0, "lat": 38.90159416666667, "name": "2c491554679b47f6bcdd63330cfb0ac9", "fusion_lon": 0.0, "bike_id": "2c491554679b47f6bcdd63330cfb0ac9", "is_disabled": 0, "is_reserved": 0}, {"rental_uris": {"ios": "https://dc.lft.to/lastmile_qr_scan", "android": "https://dc.lft.to/lastmile_qr_scan"}, "lon": -77.04772233333334, "type": "electric_scooter", "fusion_lat": 0.0, "lat": 38.908492833333334, "name": "df42bf8cd9cc60db1fc4b7b74e76ebef", "fusion_lon": 0.0, "bike_id": "df42bf8cd9cc60db1fc4b7b74e76ebef", "is_disabled": 0, "is_reserved": 0}, {"rental_uris": {"ios": "https://dc.lft.to/lastmile_qr_scan", "android": "https://dc.lft.to/lastmile_qr_scan"}, "lon": -77.01131666666667, "type": "electric_scooter", "fusion_lat": 0.0, "lat": 38.918048666666664, "name": "b040185bcf839455678638b6c5d05a8f", "fusion_lon": 0.0, "bike_id": "b040185bcf839455678638b6c5d05a8f", "is_disabled": 0, "is_reserved": 0}, {"rental_uris": {"ios": "https://dc.lft.to/lastmile_qr_scan", "android": "https://dc.lft.to/lastmile_qr_scan"}, "lon": -76.9371515, "type": "electric_scooter", "fusion_lat": 0.0, "lat": 38.89588916666666, "name": "3edd400cb7ef9ee72ff45f834ad1160b", "fusion_lon": 0.0, "bike_id": "3edd400cb7ef9ee72ff45f834ad1160b", "is_disabled": 0, "is_reserved": 0}, {"rental_uris": {"ios": "https://dc.lft.to/lastmile_qr_scan", "android": "https://dc.lft.to/lastmile_qr_scan"}, "lon": -77.0024575, "type": "electric_scooter", "fusion_lat": 0.0, "lat": 38.9117655, "name": "ca0a4ff7f5952e738ba6c7c5daf93442", "fusion_lon": 0.0, "bike_id": "ca0a4ff7f5952e738ba6c7c5daf93442", "is_disabled": 0, "is_reserved": 0}, {"rental_uris": {"ios": "https://dc.lft.to/lastmile_qr_scan", "android": "https://dc.lft.to/lastmile_qr_scan"}, "lon": -77.03424033333333, "type": "electric_scooter", "fusion_lat": 0.0, "lat": 38.93542083333333, "name": "e1e15b2b9194178e388eab41e48c990d", "fusion_lon": 0.0, "bike_id": "e1e15b2b9194178e388eab41e48c990d", "is_disabled": 0, "is_reserved": 0}, {"rental_uris": {"ios": "https://dc.lft.to/lastmile_qr_scan", "android": "https://dc.lft.to/lastmile_qr_scan"}, "lon": -77.0417155, "type": "electric_scooter", "fusion_lat": 0.0, "lat": 38.917679, "name": "eb6aba00cf07547357bcbf2d7e3bb9e8", "fusion_lon": 0.0, "bike_id": "eb6aba00cf07547357bcbf2d7e3bb9e8", "is_disabled": 0, "is_reserved": 0}, {"rental_uris": {"ios": "https://dc.lft.to/lastmile_qr_scan", "android": "https://dc.lft.to/lastmile_qr_scan"}, "lon": -76.972142, "type": "electric_bike", "fusion_lat": 0.0, "lat": 38.844839, "name": "b6310b97185eb45deda39dd5e4959152", "fusion_lon": 0.0, "bike_id": "b6310b97185eb45deda39dd5e4959152", "is_disabled": 0, "is_reserved": 0}, {"rental_uris": {"ios": "https://dc.lft.to/lastmile_qr_scan", "android": "https://dc.lft.to/lastmile_qr_scan"}, "lon": -77.03332533333334, "type": "electric_scooter", "fusion_lat": 0.0, "lat": 38.90135133333333, "name": "bc3ba7f9b7c2ad60de17b3e06d888dca", "fusion_lon": 0.0, "bike_id": "bc3ba7f9b7c2ad60de17b3e06d888dca", "is_disabled": 0, "is_reserved": 0}, {"rental_uris": {"ios": "https://dc.lft.to/lastmile_qr_scan", "android": "https://dc.lft.to/lastmile_qr_scan"}, "lon": -77.011239, "type": "electric_scooter", "fusion_lat": 0.0, "lat": 38.91277066666667, "name": "95635e9f510896a3893ef6ef587af680", "fusion_lon": 0.0, "bike_id": "95635e9f510896a3893ef6ef587af680", "is_disabled": 0, "is_reserved": 0}, {"rental_uris": {"ios": "https://dc.lft.to/lastmile_qr_scan", "android": "https://dc.lft.to/lastmile_qr_scan"}, "lon": -77.02227816666667, "type": "electric_scooter", "fusion_lat": 0.0, "lat": 38.89220616666667, "name": "0b0d01507dc0423643c721e8f2c5f4f1", "fusion_lon": 0.0, "bike_id": "0b0d01507dc0423643c721e8f2c5f4f1", "is_disabled": 0, "is_reserved": 0}, {"rental_uris": {"ios": "https://dc.lft.to/lastmile_qr_scan", "android": "https://dc.lft.to/lastmile_qr_scan"}, "lon": -77.017685, "type": "electric_scooter", "fusion_lat": 0.0, "lat": 38.918454833333335, "name": "2df013053a997ca010a588b31a67255f", "fusion_lon": 0.0, "bike_id": "2df013053a997ca010a588b31a67255f", "is_disabled": 0, "is_reserved": 0}, {"rental_uris": {"ios": "https://dc.lft.to/lastmile_qr_scan", "android": "https://dc.lft.to/lastmile_qr_scan"}, "lon": -76.94438, "type": "electric_bike", "fusion_lat": 0.0, "lat": 38.90297833333333, "name": "dabdfe9ab7e7420852df7bca90c368fe", "fusion_lon": 0.0, "bike_id": "dabdfe9ab7e7420852df7bca90c368fe", "is_disabled": 0, "is_reserved": 0}, {"rental_uris": {"ios": "https://dc.lft.to/lastmile_qr_scan", "android": "https://dc.lft.to/lastmile_qr_scan"}, "lon": -77.06388616666666, "type": "electric_bike", "fusion_lat": 0.0, "lat": 38.905114, "name": "34751e9f71bb5f8bb9e4e87baa835e8e", "fusion_lon": 0.0, "bike_id": "34751e9f71bb5f8bb9e4e87baa835e8e", "is_disabled": 0, "is_reserved": 0}, {"rental_uris": {"ios": "https://dc.lft.to/lastmile_qr_scan", "android": "https://dc.lft.to/lastmile_qr_scan"}, "lon": -77.016178, "type": "electric_scooter", "fusion_lat": 0.0, "lat": 38.9060495, "name": "1c744f740d26e2cebb3a222fa761684c", "fusion_lon": 0.0, "bike_id": "1c744f740d26e2cebb3a222fa761684c", "is_disabled": 0, "is_reserved": 0}, {"rental_uris": {"ios": "https://dc.lft.to/lastmile_qr_scan", "android": "https://dc.lft.to/lastmile_qr_scan"}, "lon": -77.04184516666666, "type": "electric_scooter", "fusion_lat": 0.0, "lat": 38.89925183333333, "name": "ba2758e0c4f7746790662ef21e4d31c3", "fusion_lon": 0.0, "bike_id": "ba2758e0c4f7746790662ef21e4d31c3", "is_disabled": 0, "is_reserved": 0}, {"rental_uris": {"ios": "https://dc.lft.to/lastmile_qr_scan", "android": "https://dc.lft.to/lastmile_qr_scan"}, "lon": -77.02317716666667, "type": "electric_scooter", "fusion_lat": 0.0, "lat": 38.88205716666667, "name": "8c6e0c81642911976551d270d022d320", "fusion_lon": 0.0, "bike_id": "8c6e0c81642911976551d270d022d320", "is_disabled": 0, "is_reserved": 0}, {"rental_uris": {"ios": "https://dc.lft.to/lastmile_qr_scan", "android": "https://dc.lft.to/lastmile_qr_scan"}, "lon": -76.98090066666667, "type": "electric_bike", "fusion_lat": 0.0, "lat": 38.88135916666667, "name": "3b1565f873ed5a16788cab78f99012dc", "fusion_lon": 0.0, "bike_id": "3b1565f873ed5a16788cab78f99012dc", "is_disabled": 0, "is_reserved": 0}, {"rental_uris": {"ios": "https://dc.lft.to/lastmile_qr_scan", "android": "https://dc.lft.to/lastmile_qr_scan"}, "lon": -77.0245675, "type": "electric_scooter", "fusion_lat": 0.0, "lat": 38.908463, "name": "b5e19f7fe6370fe25c69df2d56d1ec57", "fusion_lon": 0.0, "bike_id": "b5e19f7fe6370fe25c69df2d56d1ec57", "is_disabled": 0, "is_reserved": 0}, {"rental_uris": {"ios": "https://dc.lft.to/lastmile_qr_scan", "android": "https://dc.lft.to/lastmile_qr_scan"}, "lon": -77.07722066666666, "type": "electric_scooter", "fusion_lat": 0.0, "lat": 38.94709483333333, "name": "c9197567bac1ac0ccf8b2111a9835e9c", "fusion_lon": 0.0, "bike_id": "c9197567bac1ac0ccf8b2111a9835e9c", "is_disabled": 0, "is_reserved": 0}, {"rental_uris": {"ios": "https://dc.lft.to/lastmile_qr_scan", "android": "https://dc.lft.to/lastmile_qr_scan"}, "lon": -76.99373133333333, "type": "electric_scooter", "fusion_lat": 0.0, "lat": 38.879755833333334, "name": "c87c9373bddb1c068f113cd31372045b", "fusion_lon": 0.0, "bike_id": "c87c9373bddb1c068f113cd31372045b", "is_disabled": 0, "is_reserved": 0}, {"rental_uris": {"ios": "https://dc.lft.to/lastmile_qr_scan", "android": "https://dc.lft.to/lastmile_qr_scan"}, "lon": -77.05543683333333, "type": "electric_scooter", "fusion_lat": 0.0, "lat": 38.89872716666667, "name": "a05dcb7d7efb5936152709b231d92d4e", "fusion_lon": 0.0, "bike_id": "a05dcb7d7efb5936152709b231d92d4e", "is_disabled": 0, "is_reserved": 0}, {"rental_uris": {"ios": "https://dc.lft.to/lastmile_qr_scan", "android": "https://dc.lft.to/lastmile_qr_scan"}, "lon": -77.03324566666667, "type": "electric_scooter", "fusion_lat": 0.0, "lat": 38.91259316666667, "name": "3fd0826b1a9fab47a628a9a184e38c63", "fusion_lon": 0.0, "bike_id": "3fd0826b1a9fab47a628a9a184e38c63", "is_disabled": 0, "is_reserved": 0}, {"rental_uris": {"ios": "https://dc.lft.to/lastmile_qr_scan", "android": "https://dc.lft.to/lastmile_qr_scan"}, "lon": -77.02224866666667, "type": "electric_scooter", "fusion_lat": 0.0, "lat": 38.91269033333333, "name": "6a0071a43311014340ef192ed49232cf", "fusion_lon": 0.0, "bike_id": "6a0071a43311014340ef192ed49232cf", "is_disabled": 0, "is_reserved": 0}, {"rental_uris": {"ios": "https://dc.lft.to/lastmile_qr_scan", "android": "https://dc.lft.to/lastmile_qr_scan"}, "lon": -77.03145816666667, "type": "electric_scooter", "fusion_lat": 0.0, "lat": 38.937662, "name": "e4a057bf6f92de659a456d2e86983ec1", "fusion_lon": 0.0, "bike_id": "e4a057bf6f92de659a456d2e86983ec1", "is_disabled": 0, "is_reserved": 0}, {"rental_uris": {"ios": "https://dc.lft.to/lastmile_qr_scan", "android": "https://dc.lft.to/lastmile_qr_scan"}, "lon": -77.026408, "type": "electric_bike", "fusion_lat": 0.0, "lat": 38.90428683333333, "name": "96e0274921a25c6fcfc9513ec7def7ff", "fusion_lon": 0.0, "bike_id": "96e0274921a25c6fcfc9513ec7def7ff", "is_disabled": 0, "is_reserved": 0}, {"rental_uris": {"ios": "https://dc.lft.to/lastmile_qr_scan", "android": "https://dc.lft.to/lastmile_qr_scan"}, "lon": -77.04170516666667, "type": "electric_scooter", "fusion_lat": 0.0, "lat": 38.9139245, "name": "37273b09c88c7163b193fb9675ed81db", "fusion_lon": 0.0, "bike_id": "37273b09c88c7163b193fb9675ed81db", "is_disabled": 0, "is_reserved": 0}, {"rental_uris": {"ios": "https://dc.lft.to/lastmile_qr_scan", "android": "https://dc.lft.to/lastmile_qr_scan"}, "lon": -77.02200833333333, "type": "electric_scooter", "fusion_lat": 0.0, "lat": 38.91426716666667, "name": "ca4323d49c8628e0607cb974b7c18b5a", "fusion_lon": 0.0, "bike_id": "ca4323d49c8628e0607cb974b7c18b5a", "is_disabled": 0, "is_reserved": 0}, {"rental_uris": {"ios": "https://dc.lft.to/lastmile_qr_scan", "android": "https://dc.lft.to/lastmile_qr_scan"}, "lon": -76.980044, "type": "electric_bike", "fusion_lat": 0.0, "lat": 38.8628115, "name": "8978b2042117e48dcb7cc0d47f5e8dbf", "fusion_lon": 0.0, "bike_id": "8978b2042117e48dcb7cc0d47f5e8dbf", "is_disabled": 0, "is_reserved": 0}, {"rental_uris": {"ios": "https://dc.lft.to/lastmile_qr_scan", "android": "https://dc.lft.to/lastmile_qr_scan"}, "lon": -77.07228483333333, "type": "electric_scooter", "fusion_lat": 0.0, "lat": 38.933845, "name": "8de88bd063175af5840ee2789d9525cf", "fusion_lon": 0.0, "bike_id": "8de88bd063175af5840ee2789d9525cf", "is_disabled": 0, "is_reserved": 0}, {"rental_uris": {"ios": "https://dc.lft.to/lastmile_qr_scan", "android": "https://dc.lft.to/lastmile_qr_scan"}, "lon": -76.93098666666667, "type": "electric_scooter", "fusion_lat": 0.0, "lat": 38.901405, "name": "60f75b096e5191d88c1ca1f3ce361a54", "fusion_lon": 0.0, "bike_id": "60f75b096e5191d88c1ca1f3ce361a54", "is_disabled": 0, "is_reserved": 0}, {"rental_uris": {"ios": "https://dc.lft.to/lastmile_qr_scan", "android": "https://dc.lft.to/lastmile_qr_scan"}, "lon": -77.05346733333333, "type": "electric_scooter", "fusion_lat": 0.0, "lat": 38.90265733333333, "name": "f83c827d5e08b704cae7c48d1e003ba6", "fusion_lon": 0.0, "bike_id": "f83c827d5e08b704cae7c48d1e003ba6", "is_disabled": 0, "is_reserved": 0}, {"rental_uris": {"ios": "https://dc.lft.to/lastmile_qr_scan", "android": "https://dc.lft.to/lastmile_qr_scan"}, "lon": -76.98552883333333, "type": "electric_scooter", "fusion_lat": 0.0, "lat": 38.89771733333333, "name": "1606973af0b6645b2ccc10f504882c4a", "fusion_lon": 0.0, "bike_id": "1606973af0b6645b2ccc10f504882c4a", "is_disabled": 0, "is_reserved": 0}, {"rental_uris": {"ios": "https://dc.lft.to/lastmile_qr_scan", "android": "https://dc.lft.to/lastmile_qr_scan"}, "lon": -76.9870845, "type": "electric_scooter", "fusion_lat": 0.0, "lat": 38.86697183333333, "name": "5595852b01d08a629b040228ce637452", "fusion_lon": 0.0, "bike_id": "5595852b01d08a629b040228ce637452", "is_disabled": 0, "is_reserved": 0}, {"rental_uris": {"ios": "https://dc.lft.to/lastmile_qr_scan", "android": "https://dc.lft.to/lastmile_qr_scan"}, "lon": -77.04129133333333, "type": "electric_scooter", "fusion_lat": 0.0, "lat": 38.92348333333333, "name": "f4269a864e226b08cb68dc6cb6ec05bf", "fusion_lon": 0.0, "bike_id": "f4269a864e226b08cb68dc6cb6ec05bf", "is_disabled": 0, "is_reserved": 0}, {"rental_uris": {"ios": "https://dc.lft.to/lastmile_qr_scan", "android": "https://dc.lft.to/lastmile_qr_scan"}, "lon": -77.0012255, "type": "electric_scooter", "fusion_lat": 0.0, "lat": 38.877969, "name": "0ef52b1e32c750c9d04cc0b58aa67559", "fusion_lon": 0.0, "bike_id": "0ef52b1e32c750c9d04cc0b58aa67559", "is_disabled": 0, "is_reserved": 0}, {"rental_uris": {"ios": "https://dc.lft.to/lastmile_qr_scan", "android": "https://dc.lft.to/lastmile_qr_scan"}, "lon": -77.0430245, "type": "electric_bike", "fusion_lat": 0.0, "lat": 39.0544565, "name": "107a0a8730aa6f71b3780f975484ba26", "fusion_lon": 0.0, "bike_id": "107a0a8730aa6f71b3780f975484ba26", "is_disabled": 0, "is_reserved": 0}, {"rental_uris": {"ios": "https://dc.lft.to/lastmile_qr_scan", "android": "https://dc.lft.to/lastmile_qr_scan"}, "lon": -76.9890075, "type": "electric_scooter", "fusion_lat": 0.0, "lat": 38.86692566666667, "name": "038309da34b68cff546fee5c2a0d318e", "fusion_lon": 0.0, "bike_id": "038309da34b68cff546fee5c2a0d318e", "is_disabled": 0, "is_reserved": 0}, {"rental_uris": {"ios": "https://dc.lft.to/lastmile_qr_scan", "android": "https://dc.lft.to/lastmile_qr_scan"}, "lon": -77.03316266666667, "type": "electric_scooter", "fusion_lat": 0.0, "lat": 38.902876166666665, "name": "224d9ea6b2068ca2ce532947a9c5e097", "fusion_lon": 0.0, "bike_id": "224d9ea6b2068ca2ce532947a9c5e097", "is_disabled": 0, "is_reserved": 0}, {"rental_uris": {"ios": "https://dc.lft.to/lastmile_qr_scan", "android": "https://dc.lft.to/lastmile_qr_scan"}, "lon": -77.05700933333334, "type": "electric_scooter", "fusion_lat": 0.0, "lat": 38.905601833333336, "name": "4aa09305c6eb2be452aea839763c55c9", "fusion_lon": 0.0, "bike_id": "4aa09305c6eb2be452aea839763c55c9", "is_disabled": 0, "is_reserved": 0}, {"rental_uris": {"ios": "https://dc.lft.to/lastmile_qr_scan", "android": "https://dc.lft.to/lastmile_qr_scan"}, "lon": -76.95358766666666, "type": "electric_bike", "fusion_lat": 0.0, "lat": 38.939532666666665, "name": "775823ca01bf4a1db77ba51b26a2c4eb", "fusion_lon": 0.0, "bike_id": "775823ca01bf4a1db77ba51b26a2c4eb", "is_disabled": 0, "is_reserved": 0}, {"rental_uris": {"ios": "https://dc.lft.to/lastmile_qr_scan", "android": "https://dc.lft.to/lastmile_qr_scan"}, "lon": -77.1784245, "type": "electric_bike", "fusion_lat": 0.0, "lat": 39.08858166666667, "name": "35b4ccf4856f610ebe029d5a6d386fca", "fusion_lon": 0.0, "bike_id": "35b4ccf4856f610ebe029d5a6d386fca", "is_disabled": 0, "is_reserved": 0}, {"rental_uris": {"ios": "https://dc.lft.to/lastmile_qr_scan", "android": "https://dc.lft.to/lastmile_qr_scan"}, "lon": -76.98886783333333, "type": "electric_scooter", "fusion_lat": 0.0, "lat": 38.86656216666667, "name": "e7df15d84737ef77ed6603159b03b406", "fusion_lon": 0.0, "bike_id": "e7df15d84737ef77ed6603159b03b406", "is_disabled": 0, "is_reserved": 0}, {"rental_uris": {"ios": "https://dc.lft.to/lastmile_qr_scan", "android": "https://dc.lft.to/lastmile_qr_scan"}, "lon": -76.97701316666667, "type": "electric_scooter", "fusion_lat": 0.0, "lat": 38.90253833333333, "name": "ab9d37fb1f4bc179bbe8090ad16c1274", "fusion_lon": 0.0, "bike_id": "ab9d37fb1f4bc179bbe8090ad16c1274", "is_disabled": 0, "is_reserved": 0}, {"rental_uris": {"ios": "https://dc.lft.to/lastmile_qr_scan", "android": "https://dc.lft.to/lastmile_qr_scan"}, "lon": -76.93741133333333, "type": "electric_scooter", "fusion_lat": 0.0, "lat": 38.9129, "name": "7da62fd0e70d09443abb90c63786c58f", "fusion_lon": 0.0, "bike_id": "7da62fd0e70d09443abb90c63786c58f", "is_disabled": 0, "is_reserved": 0}, {"rental_uris": {"ios": "https://dc.lft.to/lastmile_qr_scan", "android": "https://dc.lft.to/lastmile_qr_scan"}, "lon": -76.98593366666667, "type": "electric_bike", "fusion_lat": 0.0, "lat": 38.90619683333333, "name": "f53dc2c232b46e386feea2626fa22de2", "fusion_lon": 0.0, "bike_id": "f53dc2c232b46e386feea2626fa22de2", "is_disabled": 0, "is_reserved": 0}, {"rental_uris": {"ios": "https://dc.lft.to/lastmile_qr_scan", "android": "https://dc.lft.to/lastmile_qr_scan"}, "lon": -77.04254616666667, "type": "electric_scooter", "fusion_lat": 0.0, "lat": 38.92055083333333, "name": "cce0850e7c9e24d58246337b48b37706", "fusion_lon": 0.0, "bike_id": "cce0850e7c9e24d58246337b48b37706", "is_disabled": 0, "is_reserved": 0}, {"rental_uris": {"ios": "https://dc.lft.to/lastmile_qr_scan", "android": "https://dc.lft.to/lastmile_qr_scan"}, "lon": -77.01366, "type": "electric_scooter", "fusion_lat": 0.0, "lat": 38.91946566666667, "name": "16461bec0f8ae854ec0e66a1cb1b9995", "fusion_lon": 0.0, "bike_id": "16461bec0f8ae854ec0e66a1cb1b9995", "is_disabled": 0, "is_reserved": 0}, {"rental_uris": {"ios": "https://dc.lft.to/lastmile_qr_scan", "android": "https://dc.lft.to/lastmile_qr_scan"}, "lon": -76.98569666666667, "type": "electric_scooter", "fusion_lat": 0.0, "lat": 38.899586666666664, "name": "682a396b72194cf5801aa4cd7524e64e", "fusion_lon": 0.0, "bike_id": "682a396b72194cf5801aa4cd7524e64e", "is_disabled": 0, "is_reserved": 0}, {"rental_uris": {"ios": "https://dc.lft.to/lastmile_qr_scan", "android": "https://dc.lft.to/lastmile_qr_scan"}, "lon": -77.09671, "type": "electric_scooter", "fusion_lat": 0.0, "lat": 38.917674166666664, "name": "c0a2f3e719b75eb6ff3263ce0ef70327", "fusion_lon": 0.0, "bike_id": "c0a2f3e719b75eb6ff3263ce0ef70327", "is_disabled": 0, "is_reserved": 0}, {"rental_uris": {"ios": "https://dc.lft.to/lastmile_qr_scan", "android": "https://dc.lft.to/lastmile_qr_scan"}, "lon": -77.04424816666666, "type": "electric_scooter", "fusion_lat": 0.0, "lat": 38.918956333333334, "name": "43767381d1aee6508540ac64e60e94e7", "fusion_lon": 0.0, "bike_id": "43767381d1aee6508540ac64e60e94e7", "is_disabled": 0, "is_reserved": 0}, {"rental_uris": {"ios": "https://dc.lft.to/lastmile_qr_scan", "android": "https://dc.lft.to/lastmile_qr_scan"}, "lon": -77.032202, "type": "electric_scooter", "fusion_lat": 0.0, "lat": 38.90863016666667, "name": "1b465776f019d60859f693065f07b343", "fusion_lon": 0.0, "bike_id": "1b465776f019d60859f693065f07b343", "is_disabled": 0, "is_reserved": 0}, {"rental_uris": {"ios": "https://dc.lft.to/lastmile_qr_scan", "android": "https://dc.lft.to/lastmile_qr_scan"}, "lon": -77.01770833333333, "type": "electric_scooter", "fusion_lat": 0.0, "lat": 38.905667666666666, "name": "d5ffcc479be5906bdc503f0d070c5b18", "fusion_lon": 0.0, "bike_id": "d5ffcc479be5906bdc503f0d070c5b18", "is_disabled": 0, "is_reserved": 0}, {"rental_uris": {"ios": "https://dc.lft.to/lastmile_qr_scan", "android": "https://dc.lft.to/lastmile_qr_scan"}, "lon": -76.99276, "type": "electric_scooter", "fusion_lat": 0.0, "lat": 38.92134033333333, "name": "e54a00bc85684f7a91662ca41c07ff9e", "fusion_lon": 0.0, "bike_id": "e54a00bc85684f7a91662ca41c07ff9e", "is_disabled": 0, "is_reserved": 0}, {"rental_uris": {"ios": "https://dc.lft.to/lastmile_qr_scan", "android": "https://dc.lft.to/lastmile_qr_scan"}, "lon": -77.05385816666667, "type": "electric_scooter", "fusion_lat": 0.0, "lat": 38.90248, "name": "d2943c4fe0c803a87918ec0e77681d68", "fusion_lon": 0.0, "bike_id": "d2943c4fe0c803a87918ec0e77681d68", "is_disabled": 0, "is_reserved": 0}, {"rental_uris": {"ios": "https://dc.lft.to/lastmile_qr_scan", "android": "https://dc.lft.to/lastmile_qr_scan"}, "lon": -77.0435515, "type": "electric_scooter", "fusion_lat": 0.0, "lat": 38.892207666666664, "name": "3dc0210da89b9960fd9199e36ec3f3b5", "fusion_lon": 0.0, "bike_id": "3dc0210da89b9960fd9199e36ec3f3b5", "is_disabled": 0, "is_reserved": 0}, {"rental_uris": {"ios": "https://dc.lft.to/lastmile_qr_scan", "android": "https://dc.lft.to/lastmile_qr_scan"}, "lon": -76.99776933333334, "type": "electric_scooter", "fusion_lat": 0.0, "lat": 38.844263, "name": "98136192e2352c1968c8aaa9a8b0313f", "fusion_lon": 0.0, "bike_id": "98136192e2352c1968c8aaa9a8b0313f", "is_disabled": 0, "is_reserved": 0}, {"rental_uris": {"ios": "https://dc.lft.to/lastmile_qr_scan", "android": "https://dc.lft.to/lastmile_qr_scan"}, "lon": -77.06403966666667, "type": "electric_bike", "fusion_lat": 0.0, "lat": 38.843484, "name": "9a97060b27f04ad8cd2e900b4ae5906b", "fusion_lon": 0.0, "bike_id": "9a97060b27f04ad8cd2e900b4ae5906b", "is_disabled": 0, "is_reserved": 0}, {"rental_uris": {"ios": "https://dc.lft.to/lastmile_qr_scan", "android": "https://dc.lft.to/lastmile_qr_scan"}, "lon": -77.05085816666667, "type": "electric_bike", "fusion_lat": 0.0, "lat": 38.8133125, "name": "fe0b5f1331a4566de114249d781781da", "fusion_lon": 0.0, "bike_id": "fe0b5f1331a4566de114249d781781da", "is_disabled": 0, "is_reserved": 0}, {"rental_uris": {"ios": "https://dc.lft.to/lastmile_qr_scan", "android": "https://dc.lft.to/lastmile_qr_scan"}, "lon": -77.04803283333334, "type": "electric_scooter", "fusion_lat": 0.0, "lat": 38.89729066666666, "name": "760d2ced229c5096ba9bb70091cb2540", "fusion_lon": 0.0, "bike_id": "760d2ced229c5096ba9bb70091cb2540", "is_disabled": 0, "is_reserved": 0}, {"rental_uris": {"ios": "https://dc.lft.to/lastmile_qr_scan", "android": "https://dc.lft.to/lastmile_qr_scan"}, "lon": -77.056806, "type": "electric_scooter", "fusion_lat": 0.0, "lat": 38.93706666666667, "name": "cf8d50b760fd1cebba100df9a9c5411f", "fusion_lon": 0.0, "bike_id": "cf8d50b760fd1cebba100df9a9c5411f", "is_disabled": 0, "is_reserved": 0}, {"rental_uris": {"ios": "https://dc.lft.to/lastmile_qr_scan", "android": "https://dc.lft.to/lastmile_qr_scan"}, "lon": -76.97326616666666, "type": "electric_scooter", "fusion_lat": 0.0, "lat": 38.90479766666667, "name": "1d5261029dbd6476b553e0c71854cc47", "fusion_lon": 0.0, "bike_id": "1d5261029dbd6476b553e0c71854cc47", "is_disabled": 0, "is_reserved": 0}, {"rental_uris": {"ios": "https://dc.lft.to/lastmile_qr_scan", "android": "https://dc.lft.to/lastmile_qr_scan"}, "lon": -77.05798666666666, "type": "electric_scooter", "fusion_lat": 0.0, "lat": 38.902965333333334, "name": "15ad2cdc1f090516dfe0b9533190bd52", "fusion_lon": 0.0, "bike_id": "15ad2cdc1f090516dfe0b9533190bd52", "is_disabled": 0, "is_reserved": 0}, {"rental_uris": {"ios": "https://dc.lft.to/lastmile_qr_scan", "android": "https://dc.lft.to/lastmile_qr_scan"}, "lon": -77.0356135, "type": "electric_scooter", "fusion_lat": 0.0, "lat": 38.918149, "name": "a75710c600c7cdd4d7338f7ff2abc60b", "fusion_lon": 0.0, "bike_id": "a75710c600c7cdd4d7338f7ff2abc60b", "is_disabled": 0, "is_reserved": 0}, {"rental_uris": {"ios": "https://dc.lft.to/lastmile_qr_scan", "android": "https://dc.lft.to/lastmile_qr_scan"}, "lon": -77.03081966666667, "type": "electric_scooter", "fusion_lat": 0.0, "lat": 38.92251916666667, "name": "ca3d889d41ce578d68ca24f94ca19701", "fusion_lon": 0.0, "bike_id": "ca3d889d41ce578d68ca24f94ca19701", "is_disabled": 0, "is_reserved": 0}, {"rental_uris": {"ios": "https://dc.lft.to/lastmile_qr_scan", "android": "https://dc.lft.to/lastmile_qr_scan"}, "lon": -77.03368933333333, "type": "electric_scooter", "fusion_lat": 0.0, "lat": 38.91417666666667, "name": "dd2f633868bd562b90a4169ed8dfaab3", "fusion_lon": 0.0, "bike_id": "dd2f633868bd562b90a4169ed8dfaab3", "is_disabled": 0, "is_reserved": 0}, {"rental_uris": {"ios": "https://dc.lft.to/lastmile_qr_scan", "android": "https://dc.lft.to/lastmile_qr_scan"}, "lon": -76.93543033333333, "type": "electric_bike", "fusion_lat": 0.0, "lat": 38.951863333333336, "name": "95253b3f2a02b53b1e2f665c9dac447a", "fusion_lon": 0.0, "bike_id": "95253b3f2a02b53b1e2f665c9dac447a", "is_disabled": 0, "is_reserved": 0}, {"rental_uris": {"ios": "https://dc.lft.to/lastmile_qr_scan", "android": "https://dc.lft.to/lastmile_qr_scan"}, "lon": -76.9955205, "type": "electric_scooter", "fusion_lat": 0.0, "lat": 38.923167666666664, "name": "4d6d2248e0e216f8b748dc112fffa6e9", "fusion_lon": 0.0, "bike_id": "4d6d2248e0e216f8b748dc112fffa6e9", "is_disabled": 0, "is_reserved": 0}, {"rental_uris": {"ios": "https://dc.lft.to/lastmile_qr_scan", "android": "https://dc.lft.to/lastmile_qr_scan"}, "lon": -77.00106666666667, "type": "electric_scooter", "fusion_lat": 0.0, "lat": 38.873279333333336, "name": "203cac121f8b2ff1c2af3002ba2e5302", "fusion_lon": 0.0, "bike_id": "203cac121f8b2ff1c2af3002ba2e5302", "is_disabled": 0, "is_reserved": 0}, {"rental_uris": {"ios": "https://dc.lft.to/lastmile_qr_scan", "android": "https://dc.lft.to/lastmile_qr_scan"}, "lon": -77.048114, "type": "electric_scooter", "fusion_lat": 0.0, "lat": 38.911014333333334, "name": "0fbbbe10cb46c45c77ccb766a3a8beeb", "fusion_lon": 0.0, "bike_id": "0fbbbe10cb46c45c77ccb766a3a8beeb", "is_disabled": 0, "is_reserved": 0}, {"rental_uris": {"ios": "https://dc.lft.to/lastmile_qr_scan", "android": "https://dc.lft.to/lastmile_qr_scan"}, "lon": -76.95748016666667, "type": "electric_scooter", "fusion_lat": 0.0, "lat": 38.88434733333333, "name": "d09b0bac3b88d45085c0ade4a1bf6451", "fusion_lon": 0.0, "bike_id": "d09b0bac3b88d45085c0ade4a1bf6451", "is_disabled": 0, "is_reserved": 0}, {"rental_uris": {"ios": "https://dc.lft.to/lastmile_qr_scan", "android": "https://dc.lft.to/lastmile_qr_scan"}, "lon": -77.0553705, "type": "electric_scooter", "fusion_lat": 0.0, "lat": 38.92528333333333, "name": "a5f3a42cf2fb288c3eae83a8a87740ca", "fusion_lon": 0.0, "bike_id": "a5f3a42cf2fb288c3eae83a8a87740ca", "is_disabled": 0, "is_reserved": 0}, {"rental_uris": {"ios": "https://dc.lft.to/lastmile_qr_scan", "android": "https://dc.lft.to/lastmile_qr_scan"}, "lon": -77.03539133333334, "type": "electric_scooter", "fusion_lat": 0.0, "lat": 38.92380633333333, "name": "a3fc1816607c27b865e7302e490340d9", "fusion_lon": 0.0, "bike_id": "a3fc1816607c27b865e7302e490340d9", "is_disabled": 0, "is_reserved": 0}, {"rental_uris": {"ios": "https://dc.lft.to/lastmile_qr_scan", "android": "https://dc.lft.to/lastmile_qr_scan"}, "lon": -77.03924383333333, "type": "electric_scooter", "fusion_lat": 0.0, "lat": 38.92103083333333, "name": "9a80a1257351c2f6cea16b73aa4abd52", "fusion_lon": 0.0, "bike_id": "9a80a1257351c2f6cea16b73aa4abd52", "is_disabled": 0, "is_reserved": 0}, {"rental_uris": {"ios": "https://dc.lft.to/lastmile_qr_scan", "android": "https://dc.lft.to/lastmile_qr_scan"}, "lon": -77.0357065, "type": "electric_scooter", "fusion_lat": 0.0, "lat": 38.939808166666666, "name": "3f2707899d13c49c007506bbf53d804c", "fusion_lon": 0.0, "bike_id": "3f2707899d13c49c007506bbf53d804c", "is_disabled": 0, "is_reserved": 0}, {"rental_uris": {"ios": "https://dc.lft.to/lastmile_qr_scan", "android": "https://dc.lft.to/lastmile_qr_scan"}, "lon": -77.0262125, "type": "electric_scooter", "fusion_lat": 0.0, "lat": 38.915259, "name": "cff73d401d303b5d6f3d4c6c149ad5b5", "fusion_lon": 0.0, "bike_id": "cff73d401d303b5d6f3d4c6c149ad5b5", "is_disabled": 0, "is_reserved": 0}, {"rental_uris": {"ios": "https://dc.lft.to/lastmile_qr_scan", "android": "https://dc.lft.to/lastmile_qr_scan"}, "lon": -77.03850616666666, "type": "electric_scooter", "fusion_lat": 0.0, "lat": 38.907694666666664, "name": "522cf06df5bdaf80a9eebaeed69773fa", "fusion_lon": 0.0, "bike_id": "522cf06df5bdaf80a9eebaeed69773fa", "is_disabled": 0, "is_reserved": 0}, {"rental_uris": {"ios": "https://dc.lft.to/lastmile_qr_scan", "android": "https://dc.lft.to/lastmile_qr_scan"}, "lon": -76.938739, "type": "electric_scooter", "fusion_lat": 0.0, "lat": 38.900803333333336, "name": "b7560a467fc63c5e02478ffefafbf807", "fusion_lon": 0.0, "bike_id": "b7560a467fc63c5e02478ffefafbf807", "is_disabled": 0, "is_reserved": 0}, {"rental_uris": {"ios": "https://dc.lft.to/lastmile_qr_scan", "android": "https://dc.lft.to/lastmile_qr_scan"}, "lon": -76.9874485, "type": "electric_scooter", "fusion_lat": 0.0, "lat": 38.910159166666666, "name": "d7eae1ca36139fb694fd4d6c22577c12", "fusion_lon": 0.0, "bike_id": "d7eae1ca36139fb694fd4d6c22577c12", "is_disabled": 0, "is_reserved": 0}, {"rental_uris": {"ios": "https://dc.lft.to/lastmile_qr_scan", "android": "https://dc.lft.to/lastmile_qr_scan"}, "lon": -76.981282, "type": "electric_scooter", "fusion_lat": 0.0, "lat": 38.85708116666667, "name": "f7d30057a9bed17cbb5de52495edb785", "fusion_lon": 0.0, "bike_id": "f7d30057a9bed17cbb5de52495edb785", "is_disabled": 0, "is_reserved": 0}, {"rental_uris": {"ios": "https://dc.lft.to/lastmile_qr_scan", "android": "https://dc.lft.to/lastmile_qr_scan"}, "lon": -77.05574066666667, "type": "electric_scooter", "fusion_lat": 0.0, "lat": 38.8999075, "name": "74829ca4a4fa393369594c6bc5d3c1d5", "fusion_lon": 0.0, "bike_id": "74829ca4a4fa393369594c6bc5d3c1d5", "is_disabled": 0, "is_reserved": 0}, {"rental_uris": {"ios": "https://dc.lft.to/lastmile_qr_scan", "android": "https://dc.lft.to/lastmile_qr_scan"}, "lon": -77.08048683333334, "type": "electric_bike", "fusion_lat": 0.0, "lat": 38.8484345, "name": "d29d73af1a7af63904c19c8cff08ba77", "fusion_lon": 0.0, "bike_id": "d29d73af1a7af63904c19c8cff08ba77", "is_disabled": 0, "is_reserved": 0}, {"rental_uris": {"ios": "https://dc.lft.to/lastmile_qr_scan", "android": "https://dc.lft.to/lastmile_qr_scan"}, "lon": -77.029549, "type": "electric_scooter", "fusion_lat": 0.0, "lat": 38.91713933333333, "name": "ef9b8e110b8b992c3498466e31f1cd9c", "fusion_lon": 0.0, "bike_id": "ef9b8e110b8b992c3498466e31f1cd9c", "is_disabled": 0, "is_reserved": 0}, {"rental_uris": {"ios": "https://dc.lft.to/lastmile_qr_scan", "android": "https://dc.lft.to/lastmile_qr_scan"}, "lon": -76.98604616666667, "type": "electric_scooter", "fusion_lat": 0.0, "lat": 38.87837566666666, "name": "c102638f5ac1192706576f9e1b06c876", "fusion_lon": 0.0, "bike_id": "c102638f5ac1192706576f9e1b06c876", "is_disabled": 0, "is_reserved": 0}, {"rental_uris": {"ios": "https://dc.lft.to/lastmile_qr_scan", "android": "https://dc.lft.to/lastmile_qr_scan"}, "lon": -76.9396205, "type": "electric_scooter", "fusion_lat": 0.0, "lat": 38.899672333333335, "name": "eebaa86859068923c0e89acc96304403", "fusion_lon": 0.0, "bike_id": "eebaa86859068923c0e89acc96304403", "is_disabled": 0, "is_reserved": 0}, {"rental_uris": {"ios": "https://dc.lft.to/lastmile_qr_scan", "android": "https://dc.lft.to/lastmile_qr_scan"}, "lon": -76.9945935, "type": "electric_scooter", "fusion_lat": 0.0, "lat": 38.85162616666667, "name": "83bff6da515e20a94fecd09322e5c92a", "fusion_lon": 0.0, "bike_id": "83bff6da515e20a94fecd09322e5c92a", "is_disabled": 0, "is_reserved": 0}, {"rental_uris": {"ios": "https://dc.lft.to/lastmile_qr_scan", "android": "https://dc.lft.to/lastmile_qr_scan"}, "lon": -76.95741683333334, "type": "electric_scooter", "fusion_lat": 0.0, "lat": 38.89215033333333, "name": "c82573202f60ce1fad441b58d0c26e56", "fusion_lon": 0.0, "bike_id": "c82573202f60ce1fad441b58d0c26e56", "is_disabled": 0, "is_reserved": 0}, {"rental_uris": {"ios": "https://dc.lft.to/lastmile_qr_scan", "android": "https://dc.lft.to/lastmile_qr_scan"}, "lon": -77.036254, "type": "electric_scooter", "fusion_lat": 0.0, "lat": 38.93686666666667, "name": "2b1a9039999b7b66948bb337a0f64835", "fusion_lon": 0.0, "bike_id": "2b1a9039999b7b66948bb337a0f64835", "is_disabled": 0, "is_reserved": 0}, {"rental_uris": {"ios": "https://dc.lft.to/lastmile_qr_scan", "android": "https://dc.lft.to/lastmile_qr_scan"}, "lon": -77.0320515, "type": "electric_scooter", "fusion_lat": 0.0, "lat": 38.92783383333333, "name": "432e23df1693254b97efaf2b86c15fff", "fusion_lon": 0.0, "bike_id": "432e23df1693254b97efaf2b86c15fff", "is_disabled": 0, "is_reserved": 0}, {"rental_uris": {"ios": "https://dc.lft.to/lastmile_qr_scan", "android": "https://dc.lft.to/lastmile_qr_scan"}, "lon": -77.0239225, "type": "electric_bike", "fusion_lat": 0.0, "lat": 38.93399816666667, "name": "224e32782d3e081d14028d51eead01bf", "fusion_lon": 0.0, "bike_id": "224e32782d3e081d14028d51eead01bf", "is_disabled": 0, "is_reserved": 0}, {"rental_uris": {"ios": "https://dc.lft.to/lastmile_qr_scan", "android": "https://dc.lft.to/lastmile_qr_scan"}, "lon": -77.05337, "type": "electric_scooter", "fusion_lat": 0.0, "lat": 38.902926666666666, "name": "bf4eba47085b8a44c6adbef71d709866", "fusion_lon": 0.0, "bike_id": "bf4eba47085b8a44c6adbef71d709866", "is_disabled": 0, "is_reserved": 0}, {"rental_uris": {"ios": "https://dc.lft.to/lastmile_qr_scan", "android": "https://dc.lft.to/lastmile_qr_scan"}, "lon": -77.0296665, "type": "electric_scooter", "fusion_lat": 0.0, "lat": 38.90038633333333, "name": "2fc1f5df10044429069a3f47327925a1", "fusion_lon": 0.0, "bike_id": "2fc1f5df10044429069a3f47327925a1", "is_disabled": 0, "is_reserved": 0}, {"rental_uris": {"ios": "https://dc.lft.to/lastmile_qr_scan", "android": "https://dc.lft.to/lastmile_qr_scan"}, "lon": -77.05073783333333, "type": "electric_scooter", "fusion_lat": 0.0, "lat": 38.90051966666667, "name": "b07a79085acfd8d497469756559a3c6e", "fusion_lon": 0.0, "bike_id": "b07a79085acfd8d497469756559a3c6e", "is_disabled": 0, "is_reserved": 0}, {"rental_uris": {"ios": "https://dc.lft.to/lastmile_qr_scan", "android": "https://dc.lft.to/lastmile_qr_scan"}, "lon": -76.9498425, "type": "electric_scooter", "fusion_lat": 0.0, "lat": 38.89364583333333, "name": "4a388345bdb5c8f4a730d7a5261f32d0", "fusion_lon": 0.0, "bike_id": "4a388345bdb5c8f4a730d7a5261f32d0", "is_disabled": 0, "is_reserved": 0}, {"rental_uris": {"ios": "https://dc.lft.to/lastmile_qr_scan", "android": "https://dc.lft.to/lastmile_qr_scan"}, "lon": -77.00953166666666, "type": "electric_bike", "fusion_lat": 0.0, "lat": 38.921184, "name": "e20d51ae3ecf58740b64bb4f27ee97d8", "fusion_lon": 0.0, "bike_id": "e20d51ae3ecf58740b64bb4f27ee97d8", "is_disabled": 0, "is_reserved": 0}, {"rental_uris": {"ios": "https://dc.lft.to/lastmile_qr_scan", "android": "https://dc.lft.to/lastmile_qr_scan"}, "lon": -76.97733816666667, "type": "electric_scooter", "fusion_lat": 0.0, "lat": 38.87288233333334, "name": "60ba54c52b1bc504d7db79c70e7684bf", "fusion_lon": 0.0, "bike_id": "60ba54c52b1bc504d7db79c70e7684bf", "is_disabled": 0, "is_reserved": 0}, {"rental_uris": {"ios": "https://dc.lft.to/lastmile_qr_scan", "android": "https://dc.lft.to/lastmile_qr_scan"}, "lon": -76.997746, "type": "electric_scooter", "fusion_lat": 0.0, "lat": 38.84426033333333, "name": "3d0e384f84d757713b21f7215ff18978", "fusion_lon": 0.0, "bike_id": "3d0e384f84d757713b21f7215ff18978", "is_disabled": 0, "is_reserved": 0}, {"rental_uris": {"ios": "https://dc.lft.to/lastmile_qr_scan", "android": "https://dc.lft.to/lastmile_qr_scan"}, "lon": -77.0153655, "type": "electric_scooter", "fusion_lat": 0.0, "lat": 38.89797633333333, "name": "65902569f6dad45e911d483cbe977f41", "fusion_lon": 0.0, "bike_id": "65902569f6dad45e911d483cbe977f41", "is_disabled": 0, "is_reserved": 0}, {"rental_uris": {"ios": "https://dc.lft.to/lastmile_qr_scan", "android": "https://dc.lft.to/lastmile_qr_scan"}, "lon": -77.00001133333333, "type": "electric_bike", "fusion_lat": 0.0, "lat": 38.9239295, "name": "e99f9dc2b7c450416ae509d2ac8bc09e", "fusion_lon": 0.0, "bike_id": "e99f9dc2b7c450416ae509d2ac8bc09e", "is_disabled": 0, "is_reserved": 0}, {"rental_uris": {"ios": "https://dc.lft.to/lastmile_qr_scan", "android": "https://dc.lft.to/lastmile_qr_scan"}, "lon": -77.03766383333334, "type": "electric_bike", "fusion_lat": 0.0, "lat": 38.996726333333335, "name": "8e7c951ef4f522f25598f369b3d032cc", "fusion_lon": 0.0, "bike_id": "8e7c951ef4f522f25598f369b3d032cc", "is_disabled": 0, "is_reserved": 0}, {"rental_uris": {"ios": "https://dc.lft.to/lastmile_qr_scan", "android": "https://dc.lft.to/lastmile_qr_scan"}, "lon": -77.01863533333334, "type": "electric_scooter", "fusion_lat": 0.0, "lat": 38.915728, "name": "9b2c619740439dbaa88e822906e19885", "fusion_lon": 0.0, "bike_id": "9b2c619740439dbaa88e822906e19885", "is_disabled": 0, "is_reserved": 0}, {"rental_uris": {"ios": "https://dc.lft.to/lastmile_qr_scan", "android": "https://dc.lft.to/lastmile_qr_scan"}, "lon": -77.03591466666667, "type": "electric_scooter", "fusion_lat": 0.0, "lat": 38.90691133333333, "name": "52c912eb2d84017edb7a644c846c1705", "fusion_lon": 0.0, "bike_id": "52c912eb2d84017edb7a644c846c1705", "is_disabled": 0, "is_reserved": 0}, {"rental_uris": {"ios": "https://dc.lft.to/lastmile_qr_scan", "android": "https://dc.lft.to/lastmile_qr_scan"}, "lon": -77.13178166666667, "type": "electric_bike", "fusion_lat": 0.0, "lat": 38.869066333333336, "name": "781fb792f6fa323a9bc30a76361ce38a", "fusion_lon": 0.0, "bike_id": "781fb792f6fa323a9bc30a76361ce38a", "is_disabled": 0, "is_reserved": 0}, {"rental_uris": {"ios": "https://dc.lft.to/lastmile_qr_scan", "android": "https://dc.lft.to/lastmile_qr_scan"}, "lon": -76.97441283333333, "type": "electric_bike", "fusion_lat": 0.0, "lat": 38.86401016666667, "name": "f32c18dc8cc31037fca0456133b70e0b", "fusion_lon": 0.0, "bike_id": "f32c18dc8cc31037fca0456133b70e0b", "is_disabled": 0, "is_reserved": 0}, {"rental_uris": {"ios": "https://dc.lft.to/lastmile_qr_scan", "android": "https://dc.lft.to/lastmile_qr_scan"}, "lon": -77.00214516666666, "type": "electric_scooter", "fusion_lat": 0.0, "lat": 38.90844883333333, "name": "102ef6122eb816b33d3826b51fc83f22", "fusion_lon": 0.0, "bike_id": "102ef6122eb816b33d3826b51fc83f22", "is_disabled": 0, "is_reserved": 0}, {"rental_uris": {"ios": "https://dc.lft.to/lastmile_qr_scan", "android": "https://dc.lft.to/lastmile_qr_scan"}, "lon": -77.02149133333333, "type": "electric_scooter", "fusion_lat": 0.0, "lat": 38.9329745, "name": "788ca67d7040588d502bc28c0bb5a673", "fusion_lon": 0.0, "bike_id": "788ca67d7040588d502bc28c0bb5a673", "is_disabled": 0, "is_reserved": 0}, {"rental_uris": {"ios": "https://dc.lft.to/lastmile_qr_scan", "android": "https://dc.lft.to/lastmile_qr_scan"}, "lon": -77.02473166666667, "type": "electric_scooter", "fusion_lat": 0.0, "lat": 38.93099133333333, "name": "ea4316318990e81cd4009dde56ce0c58", "fusion_lon": 0.0, "bike_id": "ea4316318990e81cd4009dde56ce0c58", "is_disabled": 0, "is_reserved": 0}, {"rental_uris": {"ios": "https://dc.lft.to/lastmile_qr_scan", "android": "https://dc.lft.to/lastmile_qr_scan"}, "lon": -76.99177666666667, "type": "electric_scooter", "fusion_lat": 0.0, "lat": 38.905022333333335, "name": "42c258327fb5c53dcc8102b7582b705a", "fusion_lon": 0.0, "bike_id": "42c258327fb5c53dcc8102b7582b705a", "is_disabled": 0, "is_reserved": 0}, {"rental_uris": {"ios": "https://dc.lft.to/lastmile_qr_scan", "android": "https://dc.lft.to/lastmile_qr_scan"}, "lon": -77.01537783333333, "type": "electric_scooter", "fusion_lat": 0.0, "lat": 38.891997, "name": "e66122c8c099865df71bc8e35e5f9f87", "fusion_lon": 0.0, "bike_id": "e66122c8c099865df71bc8e35e5f9f87", "is_disabled": 0, "is_reserved": 0}, {"rental_uris": {"ios": "https://dc.lft.to/lastmile_qr_scan", "android": "https://dc.lft.to/lastmile_qr_scan"}, "lon": -77.00589116666667, "type": "electric_scooter", "fusion_lat": 0.0, "lat": 38.915615333333335, "name": "fa767c125d1daf8bc554e76effb94dcb", "fusion_lon": 0.0, "bike_id": "fa767c125d1daf8bc554e76effb94dcb", "is_disabled": 0, "is_reserved": 0}, {"rental_uris": {"ios": "https://dc.lft.to/lastmile_qr_scan", "android": "https://dc.lft.to/lastmile_qr_scan"}, "lon": -77.024035, "type": "electric_scooter", "fusion_lat": 0.0, "lat": 38.93114933333333, "name": "d3f5e9055a54d47f4045fba9985b10e0", "fusion_lon": 0.0, "bike_id": "d3f5e9055a54d47f4045fba9985b10e0", "is_disabled": 0, "is_reserved": 0}, {"rental_uris": {"ios": "https://dc.lft.to/lastmile_qr_scan", "android": "https://dc.lft.to/lastmile_qr_scan"}, "lon": -77.12503183333334, "type": "electric_bike", "fusion_lat": 0.0, "lat": 39.024177333333334, "name": "861ce7683e9eea0223c86106a47c3967", "fusion_lon": 0.0, "bike_id": "861ce7683e9eea0223c86106a47c3967", "is_disabled": 0, "is_reserved": 0}, {"rental_uris": {"ios": "https://dc.lft.to/lastmile_qr_scan", "android": "https://dc.lft.to/lastmile_qr_scan"}, "lon": -77.02308616666667, "type": "electric_bike", "fusion_lat": 0.0, "lat": 38.92992116666667, "name": "dd443193c11897f9f89adbcec3641af3", "fusion_lon": 0.0, "bike_id": "dd443193c11897f9f89adbcec3641af3", "is_disabled": 0, "is_reserved": 0}, {"rental_uris": {"ios": "https://dc.lft.to/lastmile_qr_scan", "android": "https://dc.lft.to/lastmile_qr_scan"}, "lon": -77.04351833333334, "type": "electric_scooter", "fusion_lat": 0.0, "lat": 38.9122475, "name": "fab23ba9c3833879b771a4b7989e63ec", "fusion_lon": 0.0, "bike_id": "fab23ba9c3833879b771a4b7989e63ec", "is_disabled": 0, "is_reserved": 0}, {"rental_uris": {"ios": "https://dc.lft.to/lastmile_qr_scan", "android": "https://dc.lft.to/lastmile_qr_scan"}, "lon": -77.03408233333333, "type": "electric_scooter", "fusion_lat": 0.0, "lat": 38.9226475, "name": "b652596ae38b3359b617ad39efafb99a", "fusion_lon": 0.0, "bike_id": "b652596ae38b3359b617ad39efafb99a", "is_disabled": 0, "is_reserved": 0}, {"rental_uris": {"ios": "https://dc.lft.to/lastmile_qr_scan", "android": "https://dc.lft.to/lastmile_qr_scan"}, "lon": -77.05497916666667, "type": "electric_scooter", "fusion_lat": 0.0, "lat": 38.929739, "name": "44e898a7c30c0b698d48034ee450769d", "fusion_lon": 0.0, "bike_id": "44e898a7c30c0b698d48034ee450769d", "is_disabled": 0, "is_reserved": 0}, {"rental_uris": {"ios": "https://dc.lft.to/lastmile_qr_scan", "android": "https://dc.lft.to/lastmile_qr_scan"}, "lon": -77.125026, "type": "electric_bike", "fusion_lat": 0.0, "lat": 39.024186666666665, "name": "48e371ecfb5c7cc0ccd3061b425935f8", "fusion_lon": 0.0, "bike_id": "48e371ecfb5c7cc0ccd3061b425935f8", "is_disabled": 0, "is_reserved": 0}, {"rental_uris": {"ios": "https://dc.lft.to/lastmile_qr_scan", "android": "https://dc.lft.to/lastmile_qr_scan"}, "lon": -77.043399, "type": "electric_scooter", "fusion_lat": 0.0, "lat": 38.89659833333333, "name": "31a77c7624059329dfb97503d101131d", "fusion_lon": 0.0, "bike_id": "31a77c7624059329dfb97503d101131d", "is_disabled": 0, "is_reserved": 0}, {"rental_uris": {"ios": "https://dc.lft.to/lastmile_qr_scan", "android": "https://dc.lft.to/lastmile_qr_scan"}, "lon": -76.95748016666667, "type": "electric_scooter", "fusion_lat": 0.0, "lat": 38.88439, "name": "257091c6eb605118e0a5f45333885c47", "fusion_lon": 0.0, "bike_id": "257091c6eb605118e0a5f45333885c47", "is_disabled": 0, "is_reserved": 0}, {"rental_uris": {"ios": "https://dc.lft.to/lastmile_qr_scan", "android": "https://dc.lft.to/lastmile_qr_scan"}, "lon": -77.04816416666667, "type": "electric_scooter", "fusion_lat": 0.0, "lat": 38.920368833333335, "name": "1c743ac4176d10e5794367199c4d8356", "fusion_lon": 0.0, "bike_id": "1c743ac4176d10e5794367199c4d8356", "is_disabled": 0, "is_reserved": 0}, {"rental_uris": {"ios": "https://dc.lft.to/lastmile_qr_scan", "android": "https://dc.lft.to/lastmile_qr_scan"}, "lon": -77.03185216666667, "type": "electric_scooter", "fusion_lat": 0.0, "lat": 38.915329666666665, "name": "c6635c66ee947031232671648158077e", "fusion_lon": 0.0, "bike_id": "c6635c66ee947031232671648158077e", "is_disabled": 0, "is_reserved": 0}, {"rental_uris": {"ios": "https://dc.lft.to/lastmile_qr_scan", "android": "https://dc.lft.to/lastmile_qr_scan"}, "lon": -76.99677666666666, "type": "electric_scooter", "fusion_lat": 0.0, "lat": 38.9003915, "name": "4731eab8e0bf3ed042e7e1b73f0dde1f", "fusion_lon": 0.0, "bike_id": "4731eab8e0bf3ed042e7e1b73f0dde1f", "is_disabled": 0, "is_reserved": 0}, {"rental_uris": {"ios": "https://dc.lft.to/lastmile_qr_scan", "android": "https://dc.lft.to/lastmile_qr_scan"}, "lon": -76.998189, "type": "electric_bike", "fusion_lat": 0.0, "lat": 38.84431633333333, "name": "0e0c58bdd79b6f596cc34f321a124a23", "fusion_lon": 0.0, "bike_id": "0e0c58bdd79b6f596cc34f321a124a23", "is_disabled": 0, "is_reserved": 0}, {"rental_uris": {"ios": "https://dc.lft.to/lastmile_qr_scan", "android": "https://dc.lft.to/lastmile_qr_scan"}, "lon": -76.98587183333333, "type": "electric_scooter", "fusion_lat": 0.0, "lat": 38.899268166666666, "name": "1af16db7ab78ee7cff83173a40de973b", "fusion_lon": 0.0, "bike_id": "1af16db7ab78ee7cff83173a40de973b", "is_disabled": 0, "is_reserved": 0}, {"rental_uris": {"ios": "https://dc.lft.to/lastmile_qr_scan", "android": "https://dc.lft.to/lastmile_qr_scan"}, "lon": -77.02966683333334, "type": "electric_scooter", "fusion_lat": 0.0, "lat": 38.9072535, "name": "0cdafea84acc56eed12d3232e881bb68", "fusion_lon": 0.0, "bike_id": "0cdafea84acc56eed12d3232e881bb68", "is_disabled": 0, "is_reserved": 0}, {"rental_uris": {"ios": "https://dc.lft.to/lastmile_qr_scan", "android": "https://dc.lft.to/lastmile_qr_scan"}, "lon": -77.00070366666667, "type": "electric_scooter", "fusion_lat": 0.0, "lat": 38.9255195, "name": "fcc789ea2459e99113cdffe596ee7e56", "fusion_lon": 0.0, "bike_id": "fcc789ea2459e99113cdffe596ee7e56", "is_disabled": 0, "is_reserved": 0}, {"rental_uris": {"ios": "https://dc.lft.to/lastmile_qr_scan", "android": "https://dc.lft.to/lastmile_qr_scan"}, "lon": -77.0401265, "type": "electric_scooter", "fusion_lat": 0.0, "lat": 38.932512, "name": "60ca377cd5b77b289b983b2ac8b143ad", "fusion_lon": 0.0, "bike_id": "60ca377cd5b77b289b983b2ac8b143ad", "is_disabled": 0, "is_reserved": 0}, {"rental_uris": {"ios": "https://dc.lft.to/lastmile_qr_scan", "android": "https://dc.lft.to/lastmile_qr_scan"}, "lon": -77.00567583333333, "type": "electric_scooter", "fusion_lat": 0.0, "lat": 38.905533, "name": "c7e39f03370e5cd3717c0794a1578e28", "fusion_lon": 0.0, "bike_id": "c7e39f03370e5cd3717c0794a1578e28", "is_disabled": 0, "is_reserved": 0}, {"rental_uris": {"ios": "https://dc.lft.to/lastmile_qr_scan", "android": "https://dc.lft.to/lastmile_qr_scan"}, "lon": -77.02252283333333, "type": "electric_scooter", "fusion_lat": 0.0, "lat": 38.916536, "name": "7abc2d7f21b7dc75c70f90f13599caba", "fusion_lon": 0.0, "bike_id": "7abc2d7f21b7dc75c70f90f13599caba", "is_disabled": 0, "is_reserved": 0}, {"rental_uris": {"ios": "https://dc.lft.to/lastmile_qr_scan", "android": "https://dc.lft.to/lastmile_qr_scan"}, "lon": -77.042059, "type": "electric_scooter", "fusion_lat": 0.0, "lat": 38.921280833333334, "name": "af4029fadd1c7ec5d00cf3cf71b3a3e8", "fusion_lon": 0.0, "bike_id": "af4029fadd1c7ec5d00cf3cf71b3a3e8", "is_disabled": 0, "is_reserved": 0}, {"rental_uris": {"ios": "https://dc.lft.to/lastmile_qr_scan", "android": "https://dc.lft.to/lastmile_qr_scan"}, "lon": -77.036408, "type": "electric_scooter", "fusion_lat": 0.0, "lat": 38.918142833333334, "name": "f505a352e619fa6d96c883c1a39c78d8", "fusion_lon": 0.0, "bike_id": "f505a352e619fa6d96c883c1a39c78d8", "is_disabled": 0, "is_reserved": 0}, {"rental_uris": {"ios": "https://dc.lft.to/lastmile_qr_scan", "android": "https://dc.lft.to/lastmile_qr_scan"}, "lon": -77.00227466666666, "type": "electric_scooter", "fusion_lat": 0.0, "lat": 38.905396333333336, "name": "40e8aaecd8c9c5bc8234878d3dd2d56c", "fusion_lon": 0.0, "bike_id": "40e8aaecd8c9c5bc8234878d3dd2d56c", "is_disabled": 0, "is_reserved": 0}, {"rental_uris": {"ios": "https://dc.lft.to/lastmile_qr_scan", "android": "https://dc.lft.to/lastmile_qr_scan"}, "lon": -76.9841795, "type": "electric_scooter", "fusion_lat": 0.0, "lat": 38.913834666666666, "name": "981c3787ea8b495a2443b011a21ac5c8", "fusion_lon": 0.0, "bike_id": "981c3787ea8b495a2443b011a21ac5c8", "is_disabled": 0, "is_reserved": 0}, {"rental_uris": {"ios": "https://dc.lft.to/lastmile_qr_scan", "android": "https://dc.lft.to/lastmile_qr_scan"}, "lon": -77.03187983333333, "type": "electric_scooter", "fusion_lat": 0.0, "lat": 38.899459666666665, "name": "08053de03213445f7432503dcab0d8d6", "fusion_lon": 0.0, "bike_id": "08053de03213445f7432503dcab0d8d6", "is_disabled": 0, "is_reserved": 0}, {"rental_uris": {"ios": "https://dc.lft.to/lastmile_qr_scan", "android": "https://dc.lft.to/lastmile_qr_scan"}, "lon": -77.02692766666667, "type": "electric_scooter", "fusion_lat": 0.0, "lat": 38.9084455, "name": "dcadc96e27bab3185efd03046dfe01f9", "fusion_lon": 0.0, "bike_id": "dcadc96e27bab3185efd03046dfe01f9", "is_disabled": 0, "is_reserved": 0}, {"rental_uris": {"ios": "https://dc.lft.to/lastmile_qr_scan", "android": "https://dc.lft.to/lastmile_qr_scan"}, "lon": -77.00311966666666, "type": "electric_scooter", "fusion_lat": 0.0, "lat": 38.90886233333333, "name": "400e87ab765d4010d74cfe95cf4c1ecf", "fusion_lon": 0.0, "bike_id": "400e87ab765d4010d74cfe95cf4c1ecf", "is_disabled": 0, "is_reserved": 0}, {"rental_uris": {"ios": "https://dc.lft.to/lastmile_qr_scan", "android": "https://dc.lft.to/lastmile_qr_scan"}, "lon": -76.96758716666666, "type": "electric_scooter", "fusion_lat": 0.0, "lat": 38.86141116666667, "name": "7373b74a722326ed23e36e3f336d7b9a", "fusion_lon": 0.0, "bike_id": "7373b74a722326ed23e36e3f336d7b9a", "is_disabled": 0, "is_reserved": 0}, {"rental_uris": {"ios": "https://dc.lft.to/lastmile_qr_scan", "android": "https://dc.lft.to/lastmile_qr_scan"}, "lon": -76.99381916666667, "type": "electric_scooter", "fusion_lat": 0.0, "lat": 38.887205333333334, "name": "20be83700e8d43800405b7205f759d97", "fusion_lon": 0.0, "bike_id": "20be83700e8d43800405b7205f759d97", "is_disabled": 0, "is_reserved": 0}, {"rental_uris": {"ios": "https://dc.lft.to/lastmile_qr_scan", "android": "https://dc.lft.to/lastmile_qr_scan"}, "lon": -77.033483, "type": "electric_scooter", "fusion_lat": 0.0, "lat": 38.90267566666667, "name": "54b3b55b55d509653ecdf45669a79c41", "fusion_lon": 0.0, "bike_id": "54b3b55b55d509653ecdf45669a79c41", "is_disabled": 0, "is_reserved": 0}, {"rental_uris": {"ios": "https://dc.lft.to/lastmile_qr_scan", "android": "https://dc.lft.to/lastmile_qr_scan"}, "lon": -77.033223, "type": "electric_scooter", "fusion_lat": 0.0, "lat": 38.921574, "name": "4bf1224e797fa2230eff0d4aab022b74", "fusion_lon": 0.0, "bike_id": "4bf1224e797fa2230eff0d4aab022b74", "is_disabled": 0, "is_reserved": 0}, {"rental_uris": {"ios": "https://dc.lft.to/lastmile_qr_scan", "android": "https://dc.lft.to/lastmile_qr_scan"}, "lon": -77.050223, "type": "electric_scooter", "fusion_lat": 0.0, "lat": 38.896575, "name": "2816975e936846ac3f2a9d3c50dc387f", "fusion_lon": 0.0, "bike_id": "2816975e936846ac3f2a9d3c50dc387f", "is_disabled": 0, "is_reserved": 0}, {"rental_uris": {"ios": "https://dc.lft.to/lastmile_qr_scan", "android": "https://dc.lft.to/lastmile_qr_scan"}, "lon": -77.11426516666667, "type": "electric_bike", "fusion_lat": 0.0, "lat": 38.852487833333335, "name": "b2b24c912aa3f140e0b40a13a366a547", "fusion_lon": 0.0, "bike_id": "b2b24c912aa3f140e0b40a13a366a547", "is_disabled": 0, "is_reserved": 0}, {"rental_uris": {"ios": "https://dc.lft.to/lastmile_qr_scan", "android": "https://dc.lft.to/lastmile_qr_scan"}, "lon": -77.04159733333333, "type": "electric_scooter", "fusion_lat": 0.0, "lat": 38.914669833333335, "name": "cc7618a65a0fcdec11b837a6b7a48b20", "fusion_lon": 0.0, "bike_id": "cc7618a65a0fcdec11b837a6b7a48b20", "is_disabled": 0, "is_reserved": 0}, {"rental_uris": {"ios": "https://dc.lft.to/lastmile_qr_scan", "android": "https://dc.lft.to/lastmile_qr_scan"}, "lon": -77.034675, "type": "electric_scooter", "fusion_lat": 0.0, "lat": 38.921525, "name": "43459dc483d8d59f695f51e0691668d9", "fusion_lon": 0.0, "bike_id": "43459dc483d8d59f695f51e0691668d9", "is_disabled": 0, "is_reserved": 0}, {"rental_uris": {"ios": "https://dc.lft.to/lastmile_qr_scan", "android": "https://dc.lft.to/lastmile_qr_scan"}, "lon": -77.01343483333333, "type": "electric_bike", "fusion_lat": 0.0, "lat": 38.9999515, "name": "5e0812a0f4ee71ede8a03046c844ae09", "fusion_lon": 0.0, "bike_id": "5e0812a0f4ee71ede8a03046c844ae09", "is_disabled": 0, "is_reserved": 0}, {"rental_uris": {"ios": "https://dc.lft.to/lastmile_qr_scan", "android": "https://dc.lft.to/lastmile_qr_scan"}, "lon": -77.01900133333334, "type": "electric_scooter", "fusion_lat": 0.0, "lat": 38.876629, "name": "5ddf96aeb313ed0272dcb565fc218411", "fusion_lon": 0.0, "bike_id": "5ddf96aeb313ed0272dcb565fc218411", "is_disabled": 0, "is_reserved": 0}, {"rental_uris": {"ios": "https://dc.lft.to/lastmile_qr_scan", "android": "https://dc.lft.to/lastmile_qr_scan"}, "lon": -77.02876683333334, "type": "electric_scooter", "fusion_lat": 0.0, "lat": 38.90430766666667, "name": "d4327824d6bacc7d02ec691b0ce14943", "fusion_lon": 0.0, "bike_id": "d4327824d6bacc7d02ec691b0ce14943", "is_disabled": 0, "is_reserved": 0}, {"rental_uris": {"ios": "https://dc.lft.to/lastmile_qr_scan", "android": "https://dc.lft.to/lastmile_qr_scan"}, "lon": -77.01100616666666, "type": "electric_scooter", "fusion_lat": 0.0, "lat": 38.9035895, "name": "eeda72c0209e1eaef4d390404de1780c", "fusion_lon": 0.0, "bike_id": "eeda72c0209e1eaef4d390404de1780c", "is_disabled": 0, "is_reserved": 0}, {"rental_uris": {"ios": "https://dc.lft.to/lastmile_qr_scan", "android": "https://dc.lft.to/lastmile_qr_scan"}, "lon": -77.03883466666667, "type": "electric_scooter", "fusion_lat": 0.0, "lat": 38.921846, "name": "1d52a3bd4c59f1c934473c0c34fb9e9c", "fusion_lon": 0.0, "bike_id": "1d52a3bd4c59f1c934473c0c34fb9e9c", "is_disabled": 0, "is_reserved": 0}, {"rental_uris": {"ios": "https://dc.lft.to/lastmile_qr_scan", "android": "https://dc.lft.to/lastmile_qr_scan"}, "lon": -77.01152016666667, "type": "electric_scooter", "fusion_lat": 0.0, "lat": 38.900095, "name": "b77028a751b2c664e2637087aea5aa75", "fusion_lon": 0.0, "bike_id": "b77028a751b2c664e2637087aea5aa75", "is_disabled": 0, "is_reserved": 0}, {"rental_uris": {"ios": "https://dc.lft.to/lastmile_qr_scan", "android": "https://dc.lft.to/lastmile_qr_scan"}, "lon": -77.02228133333334, "type": "electric_scooter", "fusion_lat": 0.0, "lat": 38.892218166666666, "name": "de91f5583c66fc90559aeebe1b71eb3a", "fusion_lon": 0.0, "bike_id": "de91f5583c66fc90559aeebe1b71eb3a", "is_disabled": 0, "is_reserved": 0}, {"rental_uris": {"ios": "https://dc.lft.to/lastmile_qr_scan", "android": "https://dc.lft.to/lastmile_qr_scan"}, "lon": -77.085378, "type": "electric_bike", "fusion_lat": 0.0, "lat": 38.85618633333333, "name": "19535f85f7d9a5f82aade4915530439a", "fusion_lon": 0.0, "bike_id": "19535f85f7d9a5f82aade4915530439a", "is_disabled": 0, "is_reserved": 0}, {"rental_uris": {"ios": "https://dc.lft.to/lastmile_qr_scan", "android": "https://dc.lft.to/lastmile_qr_scan"}, "lon": -77.029787, "type": "electric_scooter", "fusion_lat": 0.0, "lat": 38.962304333333336, "name": "713fc6f2755ee0997846b4874ddb6c01", "fusion_lon": 0.0, "bike_id": "713fc6f2755ee0997846b4874ddb6c01", "is_disabled": 0, "is_reserved": 0}, {"rental_uris": {"ios": "https://dc.lft.to/lastmile_qr_scan", "android": "https://dc.lft.to/lastmile_qr_scan"}, "lon": -76.988875, "type": "electric_scooter", "fusion_lat": 0.0, "lat": 38.866587333333335, "name": "cad22b21c303013dd2712cbcee0aff03", "fusion_lon": 0.0, "bike_id": "cad22b21c303013dd2712cbcee0aff03", "is_disabled": 0, "is_reserved": 0}, {"rental_uris": {"ios": "https://dc.lft.to/lastmile_qr_scan", "android": "https://dc.lft.to/lastmile_qr_scan"}, "lon": -77.04159183333333, "type": "electric_scooter", "fusion_lat": 0.0, "lat": 38.914178166666666, "name": "63f8a03aed8cd36e51d4a4029044a926", "fusion_lon": 0.0, "bike_id": "63f8a03aed8cd36e51d4a4029044a926", "is_disabled": 0, "is_reserved": 0}, {"rental_uris": {"ios": "https://dc.lft.to/lastmile_qr_scan", "android": "https://dc.lft.to/lastmile_qr_scan"}, "lon": -76.936165, "type": "electric_bike", "fusion_lat": 0.0, "lat": 38.97064116666667, "name": "e2da36b67759c8666c8f5b576c208bb0", "fusion_lon": 0.0, "bike_id": "e2da36b67759c8666c8f5b576c208bb0", "is_disabled": 0, "is_reserved": 0}, {"rental_uris": {"ios": "https://dc.lft.to/lastmile_qr_scan", "android": "https://dc.lft.to/lastmile_qr_scan"}, "lon": -77.02033483333334, "type": "electric_scooter", "fusion_lat": 0.0, "lat": 38.9156695, "name": "ced37e72ed1b541bf5ad0f2383434851", "fusion_lon": 0.0, "bike_id": "ced37e72ed1b541bf5ad0f2383434851", "is_disabled": 0, "is_reserved": 0}, {"rental_uris": {"ios": "https://dc.lft.to/lastmile_qr_scan", "android": "https://dc.lft.to/lastmile_qr_scan"}, "lon": -77.00340566666667, "type": "electric_scooter", "fusion_lat": 0.0, "lat": 38.91339883333333, "name": "51dbfcfd4ea91a108b570b621b1f0d45", "fusion_lon": 0.0, "bike_id": "51dbfcfd4ea91a108b570b621b1f0d45", "is_disabled": 0, "is_reserved": 0}, {"rental_uris": {"ios": "https://dc.lft.to/lastmile_qr_scan", "android": "https://dc.lft.to/lastmile_qr_scan"}, "lon": -77.00538966666667, "type": "electric_scooter", "fusion_lat": 0.0, "lat": 38.87456916666667, "name": "c2666da371ac84131e0ed9e24431af8e", "fusion_lon": 0.0, "bike_id": "c2666da371ac84131e0ed9e24431af8e", "is_disabled": 0, "is_reserved": 0}, {"rental_uris": {"ios": "https://dc.lft.to/lastmile_qr_scan", "android": "https://dc.lft.to/lastmile_qr_scan"}, "lon": -77.02348733333334, "type": "electric_scooter", "fusion_lat": 0.0, "lat": 38.9338605, "name": "4d846983efcbed4d5d7e5ebc89aa89e2", "fusion_lon": 0.0, "bike_id": "4d846983efcbed4d5d7e5ebc89aa89e2", "is_disabled": 0, "is_reserved": 0}, {"rental_uris": {"ios": "https://dc.lft.to/lastmile_qr_scan", "android": "https://dc.lft.to/lastmile_qr_scan"}, "lon": -76.9808765, "type": "electric_bike", "fusion_lat": 0.0, "lat": 38.902883333333335, "name": "1808e714b0573d4f09019bba91405064", "fusion_lon": 0.0, "bike_id": "1808e714b0573d4f09019bba91405064", "is_disabled": 0, "is_reserved": 0}, {"rental_uris": {"ios": "https://dc.lft.to/lastmile_qr_scan", "android": "https://dc.lft.to/lastmile_qr_scan"}, "lon": -77.07901983333333, "type": "electric_bike", "fusion_lat": 0.0, "lat": 38.83934766666667, "name": "ea8577a0937291f9c226230cfeebad68", "fusion_lon": 0.0, "bike_id": "ea8577a0937291f9c226230cfeebad68", "is_disabled": 0, "is_reserved": 0}, {"rental_uris": {"ios": "https://dc.lft.to/lastmile_qr_scan", "android": "https://dc.lft.to/lastmile_qr_scan"}, "lon": -77.11522966666666, "type": "electric_bike", "fusion_lat": 0.0, "lat": 38.85492516666667, "name": "f5177f9fa786f871288f9669f2353334", "fusion_lon": 0.0, "bike_id": "f5177f9fa786f871288f9669f2353334", "is_disabled": 0, "is_reserved": 0}, {"rental_uris": {"ios": "https://dc.lft.to/lastmile_qr_scan", "android": "https://dc.lft.to/lastmile_qr_scan"}, "lon": -77.01108533333333, "type": "electric_scooter", "fusion_lat": 0.0, "lat": 38.91165316666667, "name": "1738f07007bfbbee88898dd8aed6c6c3", "fusion_lon": 0.0, "bike_id": "1738f07007bfbbee88898dd8aed6c6c3", "is_disabled": 0, "is_reserved": 0}, {"rental_uris": {"ios": "https://dc.lft.to/lastmile_qr_scan", "android": "https://dc.lft.to/lastmile_qr_scan"}, "lon": -77.0179425, "type": "electric_scooter", "fusion_lat": 0.0, "lat": 38.90408683333333, "name": "1c33323e2c9809de89786168136b8871", "fusion_lon": 0.0, "bike_id": "1c33323e2c9809de89786168136b8871", "is_disabled": 0, "is_reserved": 0}, {"rental_uris": {"ios": "https://dc.lft.to/lastmile_qr_scan", "android": "https://dc.lft.to/lastmile_qr_scan"}, "lon": -76.99254316666666, "type": "electric_scooter", "fusion_lat": 0.0, "lat": 38.91968266666667, "name": "ade6046bf6fea820c9ca7e750575102f", "fusion_lon": 0.0, "bike_id": "ade6046bf6fea820c9ca7e750575102f", "is_disabled": 0, "is_reserved": 0}, {"rental_uris": {"ios": "https://dc.lft.to/lastmile_qr_scan", "android": "https://dc.lft.to/lastmile_qr_scan"}, "lon": -77.0237585, "type": "electric_scooter", "fusion_lat": 0.0, "lat": 38.937635666666665, "name": "2c5d2995ac834ce2adf8b5b1de2114e5", "fusion_lon": 0.0, "bike_id": "2c5d2995ac834ce2adf8b5b1de2114e5", "is_disabled": 0, "is_reserved": 0}, {"rental_uris": {"ios": "https://dc.lft.to/lastmile_qr_scan", "android": "https://dc.lft.to/lastmile_qr_scan"}, "lon": -77.057457, "type": "electric_scooter", "fusion_lat": 0.0, "lat": 38.933968666666665, "name": "c45e393ec4fe9d1465ae88b94e6042be", "fusion_lon": 0.0, "bike_id": "c45e393ec4fe9d1465ae88b94e6042be", "is_disabled": 0, "is_reserved": 0}, {"rental_uris": {"ios": "https://dc.lft.to/lastmile_qr_scan", "android": "https://dc.lft.to/lastmile_qr_scan"}, "lon": -77.01211833333333, "type": "electric_scooter", "fusion_lat": 0.0, "lat": 38.92121, "name": "fc1f582eaba2752efc9bfab0750fa68d", "fusion_lon": 0.0, "bike_id": "fc1f582eaba2752efc9bfab0750fa68d", "is_disabled": 0, "is_reserved": 0}, {"rental_uris": {"ios": "https://dc.lft.to/lastmile_qr_scan", "android": "https://dc.lft.to/lastmile_qr_scan"}, "lon": -77.0318, "type": "electric_scooter", "fusion_lat": 0.0, "lat": 38.914890666666665, "name": "9482b229f1cfb944696561e485ea5185", "fusion_lon": 0.0, "bike_id": "9482b229f1cfb944696561e485ea5185", "is_disabled": 0, "is_reserved": 0}, {"rental_uris": {"ios": "https://dc.lft.to/lastmile_qr_scan", "android": "https://dc.lft.to/lastmile_qr_scan"}, "lon": -77.0416245, "type": "electric_scooter", "fusion_lat": 0.0, "lat": 38.91980616666667, "name": "ffd26753bff4e4c85b1920f14b69474f", "fusion_lon": 0.0, "bike_id": "ffd26753bff4e4c85b1920f14b69474f", "is_disabled": 0, "is_reserved": 0}, {"rental_uris": {"ios": "https://dc.lft.to/lastmile_qr_scan", "android": "https://dc.lft.to/lastmile_qr_scan"}, "lon": -77.03204083333334, "type": "electric_scooter", "fusion_lat": 0.0, "lat": 38.88567616666667, "name": "53aecbb1d31f913fa81935987fe613f3", "fusion_lon": 0.0, "bike_id": "53aecbb1d31f913fa81935987fe613f3", "is_disabled": 0, "is_reserved": 0}, {"rental_uris": {"ios": "https://dc.lft.to/lastmile_qr_scan", "android": "https://dc.lft.to/lastmile_qr_scan"}, "lon": -77.04799416666667, "type": "electric_scooter", "fusion_lat": 0.0, "lat": 38.916507833333334, "name": "6989af6293e8644b7c479c9db2e80fc5", "fusion_lon": 0.0, "bike_id": "6989af6293e8644b7c479c9db2e80fc5", "is_disabled": 0, "is_reserved": 0}, {"rental_uris": {"ios": "https://dc.lft.to/lastmile_qr_scan", "android": "https://dc.lft.to/lastmile_qr_scan"}, "lon": -76.93795766666666, "type": "electric_scooter", "fusion_lat": 0.0, "lat": 38.91287783333333, "name": "3c1b72b1f7535c8acca8d99e2c194218", "fusion_lon": 0.0, "bike_id": "3c1b72b1f7535c8acca8d99e2c194218", "is_disabled": 0, "is_reserved": 0}, {"rental_uris": {"ios": "https://dc.lft.to/lastmile_qr_scan", "android": "https://dc.lft.to/lastmile_qr_scan"}, "lon": -77.00853566666666, "type": "electric_scooter", "fusion_lat": 0.0, "lat": 38.92593566666667, "name": "bbdfca00e5ca67f82882aef68365d7c3", "fusion_lon": 0.0, "bike_id": "bbdfca00e5ca67f82882aef68365d7c3", "is_disabled": 0, "is_reserved": 0}, {"rental_uris": {"ios": "https://dc.lft.to/lastmile_qr_scan", "android": "https://dc.lft.to/lastmile_qr_scan"}, "lon": -77.04967566666667, "type": "electric_scooter", "fusion_lat": 0.0, "lat": 38.896590333333336, "name": "dc08c6925c6cb324987b9a8bb8430683", "fusion_lon": 0.0, "bike_id": "dc08c6925c6cb324987b9a8bb8430683", "is_disabled": 0, "is_reserved": 0}, {"rental_uris": {"ios": "https://dc.lft.to/lastmile_qr_scan", "android": "https://dc.lft.to/lastmile_qr_scan"}, "lon": -77.03264216666666, "type": "electric_scooter", "fusion_lat": 0.0, "lat": 38.93735133333333, "name": "432890ef15fecaab4d676e61c2595b4f", "fusion_lon": 0.0, "bike_id": "432890ef15fecaab4d676e61c2595b4f", "is_disabled": 0, "is_reserved": 0}, {"rental_uris": {"ios": "https://dc.lft.to/lastmile_qr_scan", "android": "https://dc.lft.to/lastmile_qr_scan"}, "lon": -77.08365216666667, "type": "electric_scooter", "fusion_lat": 0.0, "lat": 38.93033466666667, "name": "4af009d12e26b8e88cc8e1fa7c22b9a8", "fusion_lon": 0.0, "bike_id": "4af009d12e26b8e88cc8e1fa7c22b9a8", "is_disabled": 0, "is_reserved": 0}, {"rental_uris": {"ios": "https://dc.lft.to/lastmile_qr_scan", "android": "https://dc.lft.to/lastmile_qr_scan"}, "lon": -76.99541183333334, "type": "electric_scooter", "fusion_lat": 0.0, "lat": 38.9266245, "name": "ea6985002b3db4634424a456827d285f", "fusion_lon": 0.0, "bike_id": "ea6985002b3db4634424a456827d285f", "is_disabled": 0, "is_reserved": 0}, {"rental_uris": {"ios": "https://dc.lft.to/lastmile_qr_scan", "android": "https://dc.lft.to/lastmile_qr_scan"}, "lon": -77.03081033333333, "type": "electric_scooter", "fusion_lat": 0.0, "lat": 38.93473383333333, "name": "6c7dc4df266bc15cde9199a0387a68f3", "fusion_lon": 0.0, "bike_id": "6c7dc4df266bc15cde9199a0387a68f3", "is_disabled": 0, "is_reserved": 0}, {"rental_uris": {"ios": "https://dc.lft.to/lastmile_qr_scan", "android": "https://dc.lft.to/lastmile_qr_scan"}, "lon": -76.987707, "type": "electric_scooter", "fusion_lat": 0.0, "lat": 38.91173216666667, "name": "fea64713585c1ebe78b9f676b28348fd", "fusion_lon": 0.0, "bike_id": "fea64713585c1ebe78b9f676b28348fd", "is_disabled": 0, "is_reserved": 0}, {"rental_uris": {"ios": "https://dc.lft.to/lastmile_qr_scan", "android": "https://dc.lft.to/lastmile_qr_scan"}, "lon": -77.12738266666666, "type": "electric_bike", "fusion_lat": 0.0, "lat": 38.888198833333334, "name": "80722cedca9bc2e11345ec7d98b6c65d", "fusion_lon": 0.0, "bike_id": "80722cedca9bc2e11345ec7d98b6c65d", "is_disabled": 0, "is_reserved": 0}, {"rental_uris": {"ios": "https://dc.lft.to/lastmile_qr_scan", "android": "https://dc.lft.to/lastmile_qr_scan"}, "lon": -77.048111, "type": "electric_scooter", "fusion_lat": 0.0, "lat": 38.896339, "name": "2a1e6cf37b75544b98d8fa6acff900f5", "fusion_lon": 0.0, "bike_id": "2a1e6cf37b75544b98d8fa6acff900f5", "is_disabled": 0, "is_reserved": 0}, {"rental_uris": {"ios": "https://dc.lft.to/lastmile_qr_scan", "android": "https://dc.lft.to/lastmile_qr_scan"}, "lon": -77.02883266666667, "type": "electric_scooter", "fusion_lat": 0.0, "lat": 38.90359383333333, "name": "4817cade27cf281428751f40b6319285", "fusion_lon": 0.0, "bike_id": "4817cade27cf281428751f40b6319285", "is_disabled": 0, "is_reserved": 0}, {"rental_uris": {"ios": "https://dc.lft.to/lastmile_qr_scan", "android": "https://dc.lft.to/lastmile_qr_scan"}, "lon": -77.01757283333333, "type": "electric_scooter", "fusion_lat": 0.0, "lat": 38.9389535, "name": "78a312dcc6a961a7920af89c4ac1d75b", "fusion_lon": 0.0, "bike_id": "78a312dcc6a961a7920af89c4ac1d75b", "is_disabled": 0, "is_reserved": 0}, {"rental_uris": {"ios": "https://dc.lft.to/lastmile_qr_scan", "android": "https://dc.lft.to/lastmile_qr_scan"}, "lon": -76.978881, "type": "electric_scooter", "fusion_lat": 0.0, "lat": 38.91674733333333, "name": "0a7e6556aa7093486629daaedc96cee3", "fusion_lon": 0.0, "bike_id": "0a7e6556aa7093486629daaedc96cee3", "is_disabled": 0, "is_reserved": 0}, {"rental_uris": {"ios": "https://dc.lft.to/lastmile_qr_scan", "android": "https://dc.lft.to/lastmile_qr_scan"}, "lon": -77.04240716666666, "type": "electric_scooter", "fusion_lat": 0.0, "lat": 38.90808633333333, "name": "8fc0147a11e30b71538869869c1c9051", "fusion_lon": 0.0, "bike_id": "8fc0147a11e30b71538869869c1c9051", "is_disabled": 0, "is_reserved": 0}, {"rental_uris": {"ios": "https://dc.lft.to/lastmile_qr_scan", "android": "https://dc.lft.to/lastmile_qr_scan"}, "lon": -77.0319055, "type": "electric_scooter", "fusion_lat": 0.0, "lat": 38.9146045, "name": "c24e97fddcdaa031edbaf61d5805018a", "fusion_lon": 0.0, "bike_id": "c24e97fddcdaa031edbaf61d5805018a", "is_disabled": 0, "is_reserved": 0}, {"rental_uris": {"ios": "https://dc.lft.to/lastmile_qr_scan", "android": "https://dc.lft.to/lastmile_qr_scan"}, "lon": -77.0470705, "type": "electric_scooter", "fusion_lat": 0.0, "lat": 38.90593116666667, "name": "4eedfcb5ca3745b08614b00ee60376ee", "fusion_lon": 0.0, "bike_id": "4eedfcb5ca3745b08614b00ee60376ee", "is_disabled": 0, "is_reserved": 0}, {"rental_uris": {"ios": "https://dc.lft.to/lastmile_qr_scan", "android": "https://dc.lft.to/lastmile_qr_scan"}, "lon": -77.032176, "type": "electric_scooter", "fusion_lat": 0.0, "lat": 38.9074015, "name": "2039fc7ccd2065e62ff14ea48f2c1ff6", "fusion_lon": 0.0, "bike_id": "2039fc7ccd2065e62ff14ea48f2c1ff6", "is_disabled": 0, "is_reserved": 0}, {"rental_uris": {"ios": "https://dc.lft.to/lastmile_qr_scan", "android": "https://dc.lft.to/lastmile_qr_scan"}, "lon": -77.01276566666667, "type": "electric_bike", "fusion_lat": 0.0, "lat": 38.88121733333333, "name": "1abc200c31200f432e1aaf7b3c954e5e", "fusion_lon": 0.0, "bike_id": "1abc200c31200f432e1aaf7b3c954e5e", "is_disabled": 0, "is_reserved": 0}, {"rental_uris": {"ios": "https://dc.lft.to/lastmile_qr_scan", "android": "https://dc.lft.to/lastmile_qr_scan"}, "lon": -77.10522883333333, "type": "electric_bike", "fusion_lat": 0.0, "lat": 38.87372283333333, "name": "383ecda609bba5fdd614c0cdfc97ed1a", "fusion_lon": 0.0, "bike_id": "383ecda609bba5fdd614c0cdfc97ed1a", "is_disabled": 0, "is_reserved": 0}, {"rental_uris": {"ios": "https://dc.lft.to/lastmile_qr_scan", "android": "https://dc.lft.to/lastmile_qr_scan"}, "lon": -77.027274, "type": "electric_scooter", "fusion_lat": 0.0, "lat": 38.88168816666666, "name": "9926fb3095ba40aa220a2c6d14b5342c", "fusion_lon": 0.0, "bike_id": "9926fb3095ba40aa220a2c6d14b5342c", "is_disabled": 0, "is_reserved": 0}, {"rental_uris": {"ios": "https://dc.lft.to/lastmile_qr_scan", "android": "https://dc.lft.to/lastmile_qr_scan"}, "lon": -77.10338916666667, "type": "electric_bike", "fusion_lat": 0.0, "lat": 38.85230083333333, "name": "fedbf216e93d3d58e51c91aaec38227b", "fusion_lon": 0.0, "bike_id": "fedbf216e93d3d58e51c91aaec38227b", "is_disabled": 0, "is_reserved": 0}, {"rental_uris": {"ios": "https://dc.lft.to/lastmile_qr_scan", "android": "https://dc.lft.to/lastmile_qr_scan"}, "lon": -77.029762, "type": "electric_scooter", "fusion_lat": 0.0, "lat": 38.962280166666666, "name": "3c51b4df728cd91e701aea1be43a50dd", "fusion_lon": 0.0, "bike_id": "3c51b4df728cd91e701aea1be43a50dd", "is_disabled": 0, "is_reserved": 0}, {"rental_uris": {"ios": "https://dc.lft.to/lastmile_qr_scan", "android": "https://dc.lft.to/lastmile_qr_scan"},