{"data": {"bikes": [{"rental_uris": {"android": "https://dc.lft.to/lastmile_qr_scan", "ios": "https://dc.lft.to/lastmile_qr_scan"}, "type": "electric_scooter", "lon": -77.03749633333334, "name": "60c32ceb87408b3be3074148c860cb3c", "bike_id": "60c32ceb87408b3be3074148c860cb3c", "fusion_lat": 0.0, "is_reserved": 0, "lat": 38.92938916666667, "fusion_lon": 0.0, "is_disabled": 0}, {"rental_uris": {"android": "https://dc.lft.to/lastmile_qr_scan", "ios": "https://dc.lft.to/lastmile_qr_scan"}, "type": "electric_scooter", "lon": -77.027944, "name": "56770cbbb8d2af1ecde4b2d15a6bebdb", "bike_id": "56770cbbb8d2af1ecde4b2d15a6bebdb", "fusion_lat": 0.0, "is_reserved": 0, "lat": 38.93083166666667, "fusion_lon": 0.0, "is_disabled": 0}, {"rental_uris": {"android": "https://dc.lft.to/lastmile_qr_scan", "ios": "https://dc.lft.to/lastmile_qr_scan"}, "type": "electric_scooter", "lon": -77.0325915, "name": "1d6a2174aed4719187e7ba45aaae1764", "bike_id": "1d6a2174aed4719187e7ba45aaae1764", "fusion_lat": 0.0, "is_reserved": 0, "lat": 38.89716883333333, "fusion_lon": 0.0, "is_disabled": 0}, {"rental_uris": {"android": "https://dc.lft.to/lastmile_qr_scan", "ios": "https://dc.lft.to/lastmile_qr_scan"}, "type": "electric_bike", "lon": -77.10186683333333, "name": "ca83567d52b7a36ce0ebddc5f0635194", "bike_id": "ca83567d52b7a36ce0ebddc5f0635194", "fusion_lat": 0.0, "is_reserved": 0, "lat": 38.918118166666666, "fusion_lon": 0.0, "is_disabled": 0}, {"rental_uris": {"android": "https://dc.lft.to/lastmile_qr_scan", "ios": "https://dc.lft.to/lastmile_qr_scan"}, "type": "electric_scooter", "lon": -77.02200966666666, "name": "bec26ef7ba66c6badbcaae5ab376ccd0", "bike_id": "bec26ef7ba66c6badbcaae5ab376ccd0", "fusion_lat": 0.0, "is_reserved": 0, "lat": 38.887249833333335, "fusion_lon": 0.0, "is_disabled": 0}, {"rental_uris": {"android": "https://dc.lft.to/lastmile_qr_scan", "ios": "https://dc.lft.to/lastmile_qr_scan"}, "type": "electric_scooter", "lon": -77.0416195, "name": "09cac35d512e657f9d190abaaa4fbd61", "bike_id": "09cac35d512e657f9d190abaaa4fbd61", "fusion_lat": 0.0, "is_reserved": 0, "lat": 38.910858833333336, "fusion_lon": 0.0, "is_disabled": 0}, {"rental_uris": {"android": "https://dc.lft.to/lastmile_qr_scan", "ios": "https://dc.lft.to/lastmile_qr_scan"}, "type": "electric_bike", "lon": -76.98330116666666, "name": "59cbb90547f7e9b25dfe79cee5d63b6c", "bike_id": "59cbb90547f7e9b25dfe79cee5d63b6c", "fusion_lat": 0.0, "is_reserved": 0, "lat": 38.96606083333333, "fusion_lon": 0.0, "is_disabled": 0}, {"rental_uris": {"android": "https://dc.lft.to/lastmile_qr_scan", "ios": "https://dc.lft.to/lastmile_qr_scan"}, "type": "electric_scooter", "lon": -77.00618783333333, "name": "5faa3b8b6cb24ba47670f5f9765168ff", "bike_id": "5faa3b8b6cb24ba47670f5f9765168ff", "fusion_lat": 0.0, "is_reserved": 0, "lat": 38.885041333333334, "fusion_lon": 0.0, "is_disabled": 0}, {"rental_uris": {"android": "https://dc.lft.to/lastmile_qr_scan", "ios": "https://dc.lft.to/lastmile_qr_scan"}, "type": "electric_scooter", "lon": -77.03279033333334, "name": "d4c62b53eaebdbb657ed67c639e029c5", "bike_id": "d4c62b53eaebdbb657ed67c639e029c5", "fusion_lat": 0.0, "is_reserved": 0, "lat": 38.936912, "fusion_lon": 0.0, "is_disabled": 0}, {"rental_uris": {"android": "https://dc.lft.to/lastmile_qr_scan", "ios": "https://dc.lft.to/lastmile_qr_scan"}, "type": "electric_bike", "lon": -76.98120816666666, "name": "46fe3146bbf1667bb50be62863fbc30e", "bike_id": "46fe3146bbf1667bb50be62863fbc30e", "fusion_lat": 0.0, "is_reserved": 0, "lat": 38.89671466666667, "fusion_lon": 0.0, "is_disabled": 0}, {"rental_uris": {"android": "https://dc.lft.to/lastmile_qr_scan", "ios": "https://dc.lft.to/lastmile_qr_scan"}, "type": "electric_bike", "lon": -77.11231916666667, "name": "f57e08656c592f13d29c2d34e951e3a3", "bike_id": "f57e08656c592f13d29c2d34e951e3a3", "fusion_lat": 0.0, "is_reserved": 0, "lat": 38.812301833333336, "fusion_lon": 0.0, "is_disabled": 0}, {"rental_uris": {"android": "https://dc.lft.to/lastmile_qr_scan", "ios": "https://dc.lft.to/lastmile_qr_scan"}, "type": "electric_scooter", "lon": -77.021578, "name": "22500b1ae22c2ff40a599f0318fa7fa1", "bike_id": "22500b1ae22c2ff40a599f0318fa7fa1", "fusion_lat": 0.0, "is_reserved": 0, "lat": 38.926076333333334, "fusion_lon": 0.0, "is_disabled": 0}, {"rental_uris": {"android": "https://dc.lft.to/lastmile_qr_scan", "ios": "https://dc.lft.to/lastmile_qr_scan"}, "type": "electric_scooter", "lon": -77.00907366666667, "name": "cff0ff61e4e12a2a002367e53f37ffb3", "bike_id": "cff0ff61e4e12a2a002367e53f37ffb3", "fusion_lat": 0.0, "is_reserved": 0, "lat": 38.89553433333333, "fusion_lon": 0.0, "is_disabled": 0}, {"rental_uris": {"android": "https://dc.lft.to/lastmile_qr_scan", "ios": "https://dc.lft.to/lastmile_qr_scan"}, "type": "electric_scooter", "lon": -77.03988666666666, "name": "a42b0c1198b36a07c9cd44a747956264", "bike_id": "a42b0c1198b36a07c9cd44a747956264", "fusion_lat": 0.0, "is_reserved": 0, "lat": 38.92590666666667, "fusion_lon": 0.0, "is_disabled": 0}, {"rental_uris": {"android": "https://dc.lft.to/lastmile_qr_scan", "ios": "https://dc.lft.to/lastmile_qr_scan"}, "type": "electric_scooter", "lon": -77.03204716666667, "name": "52669e809d5b81be46b79262adb133cd", "bike_id": "52669e809d5b81be46b79262adb133cd", "fusion_lat": 0.0, "is_reserved": 0, "lat": 38.9091925, "fusion_lon": 0.0, "is_disabled": 0}, {"rental_uris": {"android": "https://dc.lft.to/lastmile_qr_scan", "ios": "https://dc.lft.to/lastmile_qr_scan"}, "type": "electric_scooter", "lon": -77.027328, "name": "81b75202d13bdfc208ba6baf57260695", "bike_id": "81b75202d13bdfc208ba6baf57260695", "fusion_lat": 0.0, "is_reserved": 0, "lat": 38.93400183333333, "fusion_lon": 0.0, "is_disabled": 0}, {"rental_uris": {"android": "https://dc.lft.to/lastmile_qr_scan", "ios": "https://dc.lft.to/lastmile_qr_scan"}, "type": "electric_scooter", "lon": -77.0562535, "name": "e646e976c98acd3093713bff68c78048", "bike_id": "e646e976c98acd3093713bff68c78048", "fusion_lat": 0.0, "is_reserved": 0, "lat": 38.924064, "fusion_lon": 0.0, "is_disabled": 0}, {"rental_uris": {"android": "https://dc.lft.to/lastmile_qr_scan", "ios": "https://dc.lft.to/lastmile_qr_scan"}, "type": "electric_scooter", "lon": -77.09211016666667, "name": "6123268f5b1f2d0374a38dd6401c4c16", "bike_id": "6123268f5b1f2d0374a38dd6401c4c16", "fusion_lat": 0.0, "is_reserved": 0, "lat": 38.91718983333333, "fusion_lon": 0.0, "is_disabled": 0}, {"rental_uris": {"android": "https://dc.lft.to/lastmile_qr_scan", "ios": "https://dc.lft.to/lastmile_qr_scan"}, "type": "electric_scooter", "lon": -77.02752316666667, "name": "1f7fa7ee623ef517f5c54693cd315e04", "bike_id": "1f7fa7ee623ef517f5c54693cd315e04", "fusion_lat": 0.0, "is_reserved": 0, "lat": 38.923780666666666, "fusion_lon": 0.0, "is_disabled": 0}, {"rental_uris": {"android": "https://dc.lft.to/lastmile_qr_scan", "ios": "https://dc.lft.to/lastmile_qr_scan"}, "type": "electric_scooter", "lon": -77.03283366666666, "name": "fea8c43d6510bffc5ffe838865f165db", "bike_id": "fea8c43d6510bffc5ffe838865f165db", "fusion_lat": 0.0, "is_reserved": 0, "lat": 38.93990066666667, "fusion_lon": 0.0, "is_disabled": 0}, {"rental_uris": {"android": "https://dc.lft.to/lastmile_qr_scan", "ios": "https://dc.lft.to/lastmile_qr_scan"}, "type": "electric_scooter", "lon": -77.00455733333334, "name": "e62d1628309aee8b71c409f0df5de98c", "bike_id": "e62d1628309aee8b71c409f0df5de98c", "fusion_lat": 0.0, "is_reserved": 0, "lat": 38.9289785, "fusion_lon": 0.0, "is_disabled": 0}, {"rental_uris": {"android": "https://dc.lft.to/lastmile_qr_scan", "ios": "https://dc.lft.to/lastmile_qr_scan"}, "type": "electric_scooter", "lon": -77.04709833333334, "name": "e3159db1f65faf1f810026d64b9dae7b", "bike_id": "e3159db1f65faf1f810026d64b9dae7b", "fusion_lat": 0.0, "is_reserved": 0, "lat": 38.912596, "fusion_lon": 0.0, "is_disabled": 0}, {"rental_uris": {"android": "https://dc.lft.to/lastmile_qr_scan", "ios": "https://dc.lft.to/lastmile_qr_scan"}, "type": "electric_scooter", "lon": -77.03954083333333, "name": "13cc8b8c4628dd23c697a54b8fa2c34f", "bike_id": "13cc8b8c4628dd23c697a54b8fa2c34f", "fusion_lat": 0.0, "is_reserved": 0, "lat": 38.904266, "fusion_lon": 0.0, "is_disabled": 0}, {"rental_uris": {"android": "https://dc.lft.to/lastmile_qr_scan", "ios": "https://dc.lft.to/lastmile_qr_scan"}, "type": "electric_scooter", "lon": -77.02806683333333, "name": "0fbe1b0ae7801ab8521908058a2857f5", "bike_id": "0fbe1b0ae7801ab8521908058a2857f5", "fusion_lat": 0.0, "is_reserved": 0, "lat": 38.961317333333334, "fusion_lon": 0.0, "is_disabled": 0}, {"rental_uris": {"android": "https://dc.lft.to/lastmile_qr_scan", "ios": "https://dc.lft.to/lastmile_qr_scan"}, "type": "electric_scooter", "lon": -77.03435016666667, "name": "1a0749b95a1225a5f59ad58c81ab6e28", "bike_id": "1a0749b95a1225a5f59ad58c81ab6e28", "fusion_lat": 0.0, "is_reserved": 0, "lat": 38.903221, "fusion_lon": 0.0, "is_disabled": 0}, {"rental_uris": {"android": "https://dc.lft.to/lastmile_qr_scan", "ios": "https://dc.lft.to/lastmile_qr_scan"}, "type": "electric_scooter", "lon": -77.04656883333334, "name": "e80d2e467fb5593d291712a4c5c74b47", "bike_id": "e80d2e467fb5593d291712a4c5c74b47", "fusion_lat": 0.0, "is_reserved": 0, "lat": 38.90493633333333, "fusion_lon": 0.0, "is_disabled": 0}, {"rental_uris": {"android": "https://dc.lft.to/lastmile_qr_scan", "ios": "https://dc.lft.to/lastmile_qr_scan"}, "type": "electric_scooter", "lon": -77.02231833333333, "name": "8610505a61d1665b4a3c3ab86d330645", "bike_id": "8610505a61d1665b4a3c3ab86d330645", "fusion_lat": 0.0, "is_reserved": 0, "lat": 38.91358733333333, "fusion_lon": 0.0, "is_disabled": 0}, {"rental_uris": {"android": "https://dc.lft.to/lastmile_qr_scan", "ios": "https://dc.lft.to/lastmile_qr_scan"}, "type": "electric_scooter", "lon": -77.032146, "name": "68de00ed30f7c5d673706adfd58b095e", "bike_id": "68de00ed30f7c5d673706adfd58b095e", "fusion_lat": 0.0, "is_reserved": 0, "lat": 38.92259816666667, "fusion_lon": 0.0, "is_disabled": 0}, {"rental_uris": {"android": "https://dc.lft.to/lastmile_qr_scan", "ios": "https://dc.lft.to/lastmile_qr_scan"}, "type": "electric_scooter", "lon": -77.05004566666666, "name": "ecd62f3e2f277b521ac1d74e23a35d9c", "bike_id": "ecd62f3e2f277b521ac1d74e23a35d9c", "fusion_lat": 0.0, "is_reserved": 0, "lat": 38.900754666666664, "fusion_lon": 0.0, "is_disabled": 0}, {"rental_uris": {"android": "https://dc.lft.to/lastmile_qr_scan", "ios": "https://dc.lft.to/lastmile_qr_scan"}, "type": "electric_scooter", "lon": -77.00600283333333, "name": "5936307a48b6b3e92bbb30cfe494a2ed", "bike_id": "5936307a48b6b3e92bbb30cfe494a2ed", "fusion_lat": 0.0, "is_reserved": 0, "lat": 38.90549, "fusion_lon": 0.0, "is_disabled": 0}, {"rental_uris": {"android": "https://dc.lft.to/lastmile_qr_scan", "ios": "https://dc.lft.to/lastmile_qr_scan"}, "type": "electric_scooter", "lon": -77.02647183333333, "name": "569419e812d1a81e293cf2190b55f2e1", "bike_id": "569419e812d1a81e293cf2190b55f2e1", "fusion_lat": 0.0, "is_reserved": 0, "lat": 38.881035, "fusion_lon": 0.0, "is_disabled": 0}, {"rental_uris": {"android": "https://dc.lft.to/lastmile_qr_scan", "ios": "https://dc.lft.to/lastmile_qr_scan"}, "type": "electric_scooter", "lon": -76.97457333333334, "name": "9e7cb25f8773dd25d4c8359a384d49cc", "bike_id": "9e7cb25f8773dd25d4c8359a384d49cc", "fusion_lat": 0.0, "is_reserved": 0, "lat": 38.86372, "fusion_lon": 0.0, "is_disabled": 0}, {"rental_uris": {"android": "https://dc.lft.to/lastmile_qr_scan", "ios": "https://dc.lft.to/lastmile_qr_scan"}, "type": "electric_scooter", "lon": -77.03474333333334, "name": "ab2f2275df32b689770876868c20f232", "bike_id": "ab2f2275df32b689770876868c20f232", "fusion_lat": 0.0, "is_reserved": 0, "lat": 38.902822, "fusion_lon": 0.0, "is_disabled": 0}, {"rental_uris": {"android": "https://dc.lft.to/lastmile_qr_scan", "ios": "https://dc.lft.to/lastmile_qr_scan"}, "type": "electric_scooter", "lon": -77.04227366666667, "name": "0d32f4e13267a624bdeff2ad480cfe5a", "bike_id": "0d32f4e13267a624bdeff2ad480cfe5a", "fusion_lat": 0.0, "is_reserved": 0, "lat": 38.91105233333333, "fusion_lon": 0.0, "is_disabled": 0}, {"rental_uris": {"android": "https://dc.lft.to/lastmile_qr_scan", "ios": "https://dc.lft.to/lastmile_qr_scan"}, "type": "electric_scooter", "lon": -76.990135, "name": "08c33f095ec25ee46536440846b08326", "bike_id": "08c33f095ec25ee46536440846b08326", "fusion_lat": 0.0, "is_reserved": 0, "lat": 38.88253016666667, "fusion_lon": 0.0, "is_disabled": 0}, {"rental_uris": {"android": "https://dc.lft.to/lastmile_qr_scan", "ios": "https://dc.lft.to/lastmile_qr_scan"}, "type": "electric_scooter", "lon": -77.03652533333333, "name": "ec2e8f6e7b60417ad28c14cdb6d64b94", "bike_id": "ec2e8f6e7b60417ad28c14cdb6d64b94", "fusion_lat": 0.0, "is_reserved": 0, "lat": 38.91849833333333, "fusion_lon": 0.0, "is_disabled": 0}, {"rental_uris": {"android": "https://dc.lft.to/lastmile_qr_scan", "ios": "https://dc.lft.to/lastmile_qr_scan"}, "type": "electric_scooter", "lon": -77.04189766666667, "name": "28e83d1e773211784d25ac4be6f0ba2b", "bike_id": "28e83d1e773211784d25ac4be6f0ba2b", "fusion_lat": 0.0, "is_reserved": 0, "lat": 38.92053033333333, "fusion_lon": 0.0, "is_disabled": 0}, {"rental_uris": {"android": "https://dc.lft.to/lastmile_qr_scan", "ios": "https://dc.lft.to/lastmile_qr_scan"}, "type": "electric_scooter", "lon": -77.04881033333334, "name": "97f1f06cc78b55877f8f664c48ef4c53", "bike_id": "97f1f06cc78b55877f8f664c48ef4c53", "fusion_lat": 0.0, "is_reserved": 0, "lat": 38.912383, "fusion_lon": 0.0, "is_disabled": 0}, {"rental_uris": {"android": "https://dc.lft.to/lastmile_qr_scan", "ios": "https://dc.lft.to/lastmile_qr_scan"}, "type": "electric_scooter", "lon": -77.02213116666667, "name": "938e8378f2437be337c3d308c3155490", "bike_id": "938e8378f2437be337c3d308c3155490", "fusion_lat": 0.0, "is_reserved": 0, "lat": 38.897606, "fusion_lon": 0.0, "is_disabled": 0}, {"rental_uris": {"android": "https://dc.lft.to/lastmile_qr_scan", "ios": "https://dc.lft.to/lastmile_qr_scan"}, "type": "electric_scooter", "lon": -77.042001, "name": "bae4036f620766f1920f18db1837a224", "bike_id": "bae4036f620766f1920f18db1837a224", "fusion_lat": 0.0, "is_reserved": 0, "lat": 38.892224166666665, "fusion_lon": 0.0, "is_disabled": 0}, {"rental_uris": {"android": "https://dc.lft.to/lastmile_qr_scan", "ios": "https://dc.lft.to/lastmile_qr_scan"}, "type": "electric_scooter", "lon": -77.06888383333333, "name": "bc908b216a0b0a8beee3e5ca39c76276", "bike_id": "bc908b216a0b0a8beee3e5ca39c76276", "fusion_lat": 0.0, "is_reserved": 0, "lat": 38.905132, "fusion_lon": 0.0, "is_disabled": 0}, {"rental_uris": {"android": "https://dc.lft.to/lastmile_qr_scan", "ios": "https://dc.lft.to/lastmile_qr_scan"}, "type": "electric_scooter", "lon": -77.023838, "name": "1fa8b5f3d7b125615fd28f467fc9517b", "bike_id": "1fa8b5f3d7b125615fd28f467fc9517b", "fusion_lat": 0.0, "is_reserved": 0, "lat": 38.9071145, "fusion_lon": 0.0, "is_disabled": 0}, {"rental_uris": {"android": "https://dc.lft.to/lastmile_qr_scan", "ios": "https://dc.lft.to/lastmile_qr_scan"}, "type": "electric_scooter", "lon": -77.043216, "name": "c4a786dcaed46b2bd7aedb760522adac", "bike_id": "c4a786dcaed46b2bd7aedb760522adac", "fusion_lat": 0.0, "is_reserved": 0, "lat": 38.89224516666667, "fusion_lon": 0.0, "is_disabled": 0}, {"rental_uris": {"android": "https://dc.lft.to/lastmile_qr_scan", "ios": "https://dc.lft.to/lastmile_qr_scan"}, "type": "electric_bike", "lon": -77.00507233333333, "name": "550a2b60738b5c45851953e8948dfb67", "bike_id": "550a2b60738b5c45851953e8948dfb67", "fusion_lat": 0.0, "is_reserved": 0, "lat": 38.87534633333333, "fusion_lon": 0.0, "is_disabled": 0}, {"rental_uris": {"android": "https://dc.lft.to/lastmile_qr_scan", "ios": "https://dc.lft.to/lastmile_qr_scan"}, "type": "electric_scooter", "lon": -77.0376505, "name": "fa465b77532b278d000d46d3b321d0af", "bike_id": "fa465b77532b278d000d46d3b321d0af", "fusion_lat": 0.0, "is_reserved": 0, "lat": 38.906524166666664, "fusion_lon": 0.0, "is_disabled": 0}, {"rental_uris": {"android": "https://dc.lft.to/lastmile_qr_scan", "ios": "https://dc.lft.to/lastmile_qr_scan"}, "type": "electric_scooter", "lon": -77.01844116666666, "name": "0af1f938be7a254e26550d575190132a", "bike_id": "0af1f938be7a254e26550d575190132a", "fusion_lat": 0.0, "is_reserved": 0, "lat": 38.909683666666666, "fusion_lon": 0.0, "is_disabled": 0}, {"rental_uris": {"android": "https://dc.lft.to/lastmile_qr_scan", "ios": "https://dc.lft.to/lastmile_qr_scan"}, "type": "electric_scooter", "lon": -76.99614033333333, "name": "fc9db11b7254d2157f4ffef34d268835", "bike_id": "fc9db11b7254d2157f4ffef34d268835", "fusion_lat": 0.0, "is_reserved": 0, "lat": 38.89764683333333, "fusion_lon": 0.0, "is_disabled": 0}, {"rental_uris": {"android": "https://dc.lft.to/lastmile_qr_scan", "ios": "https://dc.lft.to/lastmile_qr_scan"}, "type": "electric_scooter", "lon": -77.03860166666666, "name": "b65da499beed446514bad20cd50a5e7b", "bike_id": "b65da499beed446514bad20cd50a5e7b", "fusion_lat": 0.0, "is_reserved": 0, "lat": 38.9154555, "fusion_lon": 0.0, "is_disabled": 0}, {"rental_uris": {"android": "https://dc.lft.to/lastmile_qr_scan", "ios": "https://dc.lft.to/lastmile_qr_scan"}, "type": "electric_scooter", "lon": -77.0220475, "name": "6f03ed6fad045b31216df97f7f3ad0e3", "bike_id": "6f03ed6fad045b31216df97f7f3ad0e3", "fusion_lat": 0.0, "is_reserved": 0, "lat": 38.89634566666667, "fusion_lon": 0.0, "is_disabled": 0}, {"rental_uris": {"android": "https://dc.lft.to/lastmile_qr_scan", "ios": "https://dc.lft.to/lastmile_qr_scan"}, "type": "electric_scooter", "lon": -77.02167333333334, "name": "aca93f70362d857a0f6e070955ffd8e0", "bike_id": "aca93f70362d857a0f6e070955ffd8e0", "fusion_lat": 0.0, "is_reserved": 0, "lat": 38.887439, "fusion_lon": 0.0, "is_disabled": 0}, {"rental_uris": {"android": "https://dc.lft.to/lastmile_qr_scan", "ios": "https://dc.lft.to/lastmile_qr_scan"}, "type": "electric_scooter", "lon": -77.03081383333334, "name": "ac0beea3c136f1a7f2f75a9b8154e7d9", "bike_id": "ac0beea3c136f1a7f2f75a9b8154e7d9", "fusion_lat": 0.0, "is_reserved": 0, "lat": 38.927204833333334, "fusion_lon": 0.0, "is_disabled": 0}, {"rental_uris": {"android": "https://dc.lft.to/lastmile_qr_scan", "ios": "https://dc.lft.to/lastmile_qr_scan"}, "type": "electric_scooter", "lon": -76.99681966666667, "name": "6993df402843c159a6cfab4a9869e394", "bike_id": "6993df402843c159a6cfab4a9869e394", "fusion_lat": 0.0, "is_reserved": 0, "lat": 38.8870075, "fusion_lon": 0.0, "is_disabled": 0}, {"rental_uris": {"android": "https://dc.lft.to/lastmile_qr_scan", "ios": "https://dc.lft.to/lastmile_qr_scan"}, "type": "electric_bike", "lon": -77.07902566666667, "name": "98652848a16f5cb66e4f246d375a46d9", "bike_id": "98652848a16f5cb66e4f246d375a46d9", "fusion_lat": 0.0, "is_reserved": 0, "lat": 38.83934683333333, "fusion_lon": 0.0, "is_disabled": 0}, {"rental_uris": {"android": "https://dc.lft.to/lastmile_qr_scan", "ios": "https://dc.lft.to/lastmile_qr_scan"}, "type": "electric_scooter", "lon": -76.983606, "name": "a3bab08dc297d47daec42d1e8b86e564", "bike_id": "a3bab08dc297d47daec42d1e8b86e564", "fusion_lat": 0.0, "is_reserved": 0, "lat": 38.86103416666667, "fusion_lon": 0.0, "is_disabled": 0}, {"rental_uris": {"android": "https://dc.lft.to/lastmile_qr_scan", "ios": "https://dc.lft.to/lastmile_qr_scan"}, "type": "electric_bike", "lon": -76.94470683333333, "name": "abc475b6b998d7eed5dcd20ae775b49b", "bike_id": "abc475b6b998d7eed5dcd20ae775b49b", "fusion_lat": 0.0, "is_reserved": 0, "lat": 38.945579, "fusion_lon": 0.0, "is_disabled": 0}, {"rental_uris": {"android": "https://dc.lft.to/lastmile_qr_scan", "ios": "https://dc.lft.to/lastmile_qr_scan"}, "type": "electric_scooter", "lon": -77.0282435, "name": "cb96f2a27a9f5e42c86630d335006460", "bike_id": "cb96f2a27a9f5e42c86630d335006460", "fusion_lat": 0.0, "is_reserved": 0, "lat": 38.91555683333333, "fusion_lon": 0.0, "is_disabled": 0}, {"rental_uris": {"android": "https://dc.lft.to/lastmile_qr_scan", "ios": "https://dc.lft.to/lastmile_qr_scan"}, "type": "electric_scooter", "lon": -77.02353283333333, "name": "3188949505b8de356268520919f09adf", "bike_id": "3188949505b8de356268520919f09adf", "fusion_lat": 0.0, "is_reserved": 0, "lat": 38.89220383333333, "fusion_lon": 0.0, "is_disabled": 0}, {"rental_uris": {"android": "https://dc.lft.to/lastmile_qr_scan", "ios": "https://dc.lft.to/lastmile_qr_scan"}, "type": "electric_bike", "lon": -77.0509215, "name": "9e59e075e0dd77bcc284abd82883df95", "bike_id": "9e59e075e0dd77bcc284abd82883df95", "fusion_lat": 0.0, "is_reserved": 0, "lat": 38.813280166666665, "fusion_lon": 0.0, "is_disabled": 0}, {"rental_uris": {"android": "https://dc.lft.to/lastmile_qr_scan", "ios": "https://dc.lft.to/lastmile_qr_scan"}, "type": "electric_scooter", "lon": -77.04480333333333, "name": "8189788f273804fc333da59c3eb897f6", "bike_id": "8189788f273804fc333da59c3eb897f6", "fusion_lat": 0.0, "is_reserved": 0, "lat": 38.90111916666667, "fusion_lon": 0.0, "is_disabled": 0}, {"rental_uris": {"android": "https://dc.lft.to/lastmile_qr_scan", "ios": "https://dc.lft.to/lastmile_qr_scan"}, "type": "electric_scooter", "lon": -77.04212433333333, "name": "a5ba523f37d15a54a8465a8383a246d2", "bike_id": "a5ba523f37d15a54a8465a8383a246d2", "fusion_lat": 0.0, "is_reserved": 0, "lat": 38.92129116666667, "fusion_lon": 0.0, "is_disabled": 0}, {"rental_uris": {"android": "https://dc.lft.to/lastmile_qr_scan", "ios": "https://dc.lft.to/lastmile_qr_scan"}, "type": "electric_scooter", "lon": -76.98852166666667, "name": "608e699481eff8eb9c89bdc6dc966641", "bike_id": "608e699481eff8eb9c89bdc6dc966641", "fusion_lat": 0.0, "is_reserved": 0, "lat": 38.900275, "fusion_lon": 0.0, "is_disabled": 0}, {"rental_uris": {"android": "https://dc.lft.to/lastmile_qr_scan", "ios": "https://dc.lft.to/lastmile_qr_scan"}, "type": "electric_bike", "lon": -77.04351016666666, "name": "b78e30f9f7716218910b2f2d3f1c73be", "bike_id": "b78e30f9f7716218910b2f2d3f1c73be", "fusion_lat": 0.0, "is_reserved": 0, "lat": 38.906279, "fusion_lon": 0.0, "is_disabled": 0}, {"rental_uris": {"android": "https://dc.lft.to/lastmile_qr_scan", "ios": "https://dc.lft.to/lastmile_qr_scan"}, "type": "electric_scooter", "lon": -76.93384116666667, "name": "7b01da16ca56978c77d8556e7fbae50e", "bike_id": "7b01da16ca56978c77d8556e7fbae50e", "fusion_lat": 0.0, "is_reserved": 0, "lat": 38.89919, "fusion_lon": 0.0, "is_disabled": 0}, {"rental_uris": {"android": "https://dc.lft.to/lastmile_qr_scan", "ios": "https://dc.lft.to/lastmile_qr_scan"}, "type": "electric_scooter", "lon": -77.04578583333333, "name": "9b8a62816ce05a3f8bf994c36d6f9991", "bike_id": "9b8a62816ce05a3f8bf994c36d6f9991", "fusion_lat": 0.0, "is_reserved": 0, "lat": 38.9213275, "fusion_lon": 0.0, "is_disabled": 0}, {"rental_uris": {"android": "https://dc.lft.to/lastmile_qr_scan", "ios": "https://dc.lft.to/lastmile_qr_scan"}, "type": "electric_scooter", "lon": -77.05435183333333, "name": "fc6c65615d6b8beb61240446756117e7", "bike_id": "fc6c65615d6b8beb61240446756117e7", "fusion_lat": 0.0, "is_reserved": 0, "lat": 38.928589833333334, "fusion_lon": 0.0, "is_disabled": 0}, {"rental_uris": {"android": "https://dc.lft.to/lastmile_qr_scan", "ios": "https://dc.lft.to/lastmile_qr_scan"}, "type": "electric_scooter", "lon": -77.0543705, "name": "d53ac2925d6e7d9dc8b97c7942b2d4b2", "bike_id": "d53ac2925d6e7d9dc8b97c7942b2d4b2", "fusion_lat": 0.0, "is_reserved": 0, "lat": 38.928577, "fusion_lon": 0.0, "is_disabled": 0}, {"rental_uris": {"android": "https://dc.lft.to/lastmile_qr_scan", "ios": "https://dc.lft.to/lastmile_qr_scan"}, "type": "electric_scooter", "lon": -77.05711566666666, "name": "5652e2652d159d4eddeb17a3401293f0", "bike_id": "5652e2652d159d4eddeb17a3401293f0", "fusion_lat": 0.0, "is_reserved": 0, "lat": 38.91104283333333, "fusion_lon": 0.0, "is_disabled": 0}, {"rental_uris": {"android": "https://dc.lft.to/lastmile_qr_scan", "ios": "https://dc.lft.to/lastmile_qr_scan"}, "type": "electric_scooter", "lon": -77.021748, "name": "2584162bd5ab897a60639b23f6a63501", "bike_id": "2584162bd5ab897a60639b23f6a63501", "fusion_lat": 0.0, "is_reserved": 0, "lat": 38.94308133333333, "fusion_lon": 0.0, "is_disabled": 0}, {"rental_uris": {"android": "https://dc.lft.to/lastmile_qr_scan", "ios": "https://dc.lft.to/lastmile_qr_scan"}, "type": "electric_scooter", "lon": -76.995505, "name": "8b3435e36f372a344ef403885eaa8b57", "bike_id": "8b3435e36f372a344ef403885eaa8b57", "fusion_lat": 0.0, "is_reserved": 0, "lat": 38.88421833333334, "fusion_lon": 0.0, "is_disabled": 0}, {"rental_uris": {"android": "https://dc.lft.to/lastmile_qr_scan", "ios": "https://dc.lft.to/lastmile_qr_scan"}, "type": "electric_bike", "lon": -77.09520966666666, "name": "407f7be48c3550647b8741d1c9e40904", "bike_id": "407f7be48c3550647b8741d1c9e40904", "fusion_lat": 0.0, "is_reserved": 0, "lat": 38.83810666666667, "fusion_lon": 0.0, "is_disabled": 0}, {"rental_uris": {"android": "https://dc.lft.to/lastmile_qr_scan", "ios": "https://dc.lft.to/lastmile_qr_scan"}, "type": "electric_scooter", "lon": -77.03314483333334, "name": "b328fb81a70a6360bd5ade4cfa211543", "bike_id": "b328fb81a70a6360bd5ade4cfa211543", "fusion_lat": 0.0, "is_reserved": 0, "lat": 38.91994033333334, "fusion_lon": 0.0, "is_disabled": 0}, {"rental_uris": {"android": "https://dc.lft.to/lastmile_qr_scan", "ios": "https://dc.lft.to/lastmile_qr_scan"}, "type": "electric_scooter", "lon": -77.03047583333333, "name": "a3ba534f013f7e68508d16216b7c22e1", "bike_id": "a3ba534f013f7e68508d16216b7c22e1", "fusion_lat": 0.0, "is_reserved": 0, "lat": 38.88410733333333, "fusion_lon": 0.0, "is_disabled": 0}, {"rental_uris": {"android": "https://dc.lft.to/lastmile_qr_scan", "ios": "https://dc.lft.to/lastmile_qr_scan"}, "type": "electric_scooter", "lon": -77.05463083333333, "name": "8a8a2d01d8633c5ab4eb1be50faca914", "bike_id": "8a8a2d01d8633c5ab4eb1be50faca914", "fusion_lat": 0.0, "is_reserved": 0, "lat": 38.92903033333333, "fusion_lon": 0.0, "is_disabled": 0}, {"rental_uris": {"android": "https://dc.lft.to/lastmile_qr_scan", "ios": "https://dc.lft.to/lastmile_qr_scan"}, "type": "electric_scooter", "lon": -77.01212016666666, "name": "5ee9d92ea47d24740a038a36f2051009", "bike_id": "5ee9d92ea47d24740a038a36f2051009", "fusion_lat": 0.0, "is_reserved": 0, "lat": 38.908388333333335, "fusion_lon": 0.0, "is_disabled": 0}, {"rental_uris": {"android": "https://dc.lft.to/lastmile_qr_scan", "ios": "https://dc.lft.to/lastmile_qr_scan"}, "type": "electric_scooter", "lon": -77.0435625, "name": "6685abeded9412f4988fbbaadae3f3b1", "bike_id": "6685abeded9412f4988fbbaadae3f3b1", "fusion_lat": 0.0, "is_reserved": 0, "lat": 38.911135333333334, "fusion_lon": 0.0, "is_disabled": 0}, {"rental_uris": {"android": "https://dc.lft.to/lastmile_qr_scan", "ios": "https://dc.lft.to/lastmile_qr_scan"}, "type": "electric_scooter", "lon": -77.00283, "name": "96896be9c0818c3a4f6e7fcd93c4aeef", "bike_id": "96896be9c0818c3a4f6e7fcd93c4aeef", "fusion_lat": 0.0, "is_reserved": 0, "lat": 38.8876725, "fusion_lon": 0.0, "is_disabled": 0}, {"rental_uris": {"android": "https://dc.lft.to/lastmile_qr_scan", "ios": "https://dc.lft.to/lastmile_qr_scan"}, "type": "electric_scooter", "lon": -77.00563933333333, "name": "ebd802e07e04683c61d16e60652727d6", "bike_id": "ebd802e07e04683c61d16e60652727d6", "fusion_lat": 0.0, "is_reserved": 0, "lat": 38.903932833333336, "fusion_lon": 0.0, "is_disabled": 0}, {"rental_uris": {"android": "https://dc.lft.to/lastmile_qr_scan", "ios": "https://dc.lft.to/lastmile_qr_scan"}, "type": "electric_scooter", "lon": -77.02603133333334, "name": "85a1936cc441056fb9ada63a526c805c", "bike_id": "85a1936cc441056fb9ada63a526c805c", "fusion_lat": 0.0, "is_reserved": 0, "lat": 38.9170465, "fusion_lon": 0.0, "is_disabled": 0}, {"rental_uris": {"android": "https://dc.lft.to/lastmile_qr_scan", "ios": "https://dc.lft.to/lastmile_qr_scan"}, "type": "electric_scooter", "lon": -77.026917, "name": "0e07dc7219ffd80da4b6822e67e9caed", "bike_id": "0e07dc7219ffd80da4b6822e67e9caed", "fusion_lat": 0.0, "is_reserved": 0, "lat": 38.902434666666664, "fusion_lon": 0.0, "is_disabled": 0}, {"rental_uris": {"android": "https://dc.lft.to/lastmile_qr_scan", "ios": "https://dc.lft.to/lastmile_qr_scan"}, "type": "electric_scooter", "lon": -77.07833466666666, "name": "61f0cb5de732319bdce1278092354d10", "bike_id": "61f0cb5de732319bdce1278092354d10", "fusion_lat": 0.0, "is_reserved": 0, "lat": 38.926796833333334, "fusion_lon": 0.0, "is_disabled": 0}, {"rental_uris": {"android": "https://dc.lft.to/lastmile_qr_scan", "ios": "https://dc.lft.to/lastmile_qr_scan"}, "type": "electric_bike", "lon": -76.96177116666667, "name": "8225b9a0e791d7b8c83570544d25f4d9", "bike_id": "8225b9a0e791d7b8c83570544d25f4d9", "fusion_lat": 0.0, "is_reserved": 0, "lat": 38.9186035, "fusion_lon": 0.0, "is_disabled": 0}, {"rental_uris": {"android": "https://dc.lft.to/lastmile_qr_scan", "ios": "https://dc.lft.to/lastmile_qr_scan"}, "type": "electric_scooter", "lon": -77.024267, "name": "7fcb4dc6b94458ccabbf9aaee9a47370", "bike_id": "7fcb4dc6b94458ccabbf9aaee9a47370", "fusion_lat": 0.0, "is_reserved": 0, "lat": 38.9214575, "fusion_lon": 0.0, "is_disabled": 0}, {"rental_uris": {"android": "https://dc.lft.to/lastmile_qr_scan", "ios": "https://dc.lft.to/lastmile_qr_scan"}, "type": "electric_scooter", "lon": -77.0069555, "name": "d15d48c529914558c8c50fd61def2eb6", "bike_id": "d15d48c529914558c8c50fd61def2eb6", "fusion_lat": 0.0, "is_reserved": 0, "lat": 38.899816333333334, "fusion_lon": 0.0, "is_disabled": 0}, {"rental_uris": {"android": "https://dc.lft.to/lastmile_qr_scan", "ios": "https://dc.lft.to/lastmile_qr_scan"}, "type": "electric_scooter", "lon": -77.02648816666667, "name": "05b7ceeed18d7dadeba5678279268192", "bike_id": "05b7ceeed18d7dadeba5678279268192", "fusion_lat": 0.0, "is_reserved": 0, "lat": 38.93861, "fusion_lon": 0.0, "is_disabled": 0}, {"rental_uris": {"android": "https://dc.lft.to/lastmile_qr_scan", "ios": "https://dc.lft.to/lastmile_qr_scan"}, "type": "electric_scooter", "lon": -77.02799883333333, "name": "31296d48f9b3937e82ec2d697f927bd8", "bike_id": "31296d48f9b3937e82ec2d697f927bd8", "fusion_lat": 0.0, "is_reserved": 0, "lat": 38.898205, "fusion_lon": 0.0, "is_disabled": 0}, {"rental_uris": {"android": "https://dc.lft.to/lastmile_qr_scan", "ios": "https://dc.lft.to/lastmile_qr_scan"}, "type": "electric_scooter", "lon": -77.09962883333333, "name": "85b57f131b5f91c58a949485f59497e7", "bike_id": "85b57f131b5f91c58a949485f59497e7", "fusion_lat": 0.0, "is_reserved": 0, "lat": 38.92246016666667, "fusion_lon": 0.0, "is_disabled": 0}, {"rental_uris": {"android": "https://dc.lft.to/lastmile_qr_scan", "ios": "https://dc.lft.to/lastmile_qr_scan"}, "type": "electric_scooter", "lon": -77.04341233333334, "name": "fa58fa4cbd671daa683b3c2cd5aadc4c", "bike_id": "fa58fa4cbd671daa683b3c2cd5aadc4c", "fusion_lat": 0.0, "is_reserved": 0, "lat": 38.904969666666666, "fusion_lon": 0.0, "is_disabled": 0}, {"rental_uris": {"android": "https://dc.lft.to/lastmile_qr_scan", "ios": "https://dc.lft.to/lastmile_qr_scan"}, "type": "electric_scooter", "lon": -77.01763533333333, "name": "18e942c1b22356d12af9ee0f8c01a730", "bike_id": "18e942c1b22356d12af9ee0f8c01a730", "fusion_lat": 0.0, "is_reserved": 0, "lat": 38.873556, "fusion_lon": 0.0, "is_disabled": 0}, {"rental_uris": {"android": "https://dc.lft.to/lastmile_qr_scan", "ios": "https://dc.lft.to/lastmile_qr_scan"}, "type": "electric_scooter", "lon": -76.93186183333333, "name": "88cea6bec789c8c8ffd0c67232dff64c", "bike_id": "88cea6bec789c8c8ffd0c67232dff64c", "fusion_lat": 0.0, "is_reserved": 0, "lat": 38.8987765, "fusion_lon": 0.0, "is_disabled": 0}, {"rental_uris": {"android": "https://dc.lft.to/lastmile_qr_scan", "ios": "https://dc.lft.to/lastmile_qr_scan"}, "type": "electric_scooter", "lon": -77.03634316666667, "name": "cb959c2dbf88e2124d7c45644cf7acfc", "bike_id": "cb959c2dbf88e2124d7c45644cf7acfc", "fusion_lat": 0.0, "is_reserved": 0, "lat": 38.916942166666665, "fusion_lon": 0.0, "is_disabled": 0}, {"rental_uris": {"android": "https://dc.lft.to/lastmile_qr_scan", "ios": "https://dc.lft.to/lastmile_qr_scan"}, "type": "electric_scooter", "lon": -77.02272433333333, "name": "7f8a6cb4ceb7d68d0179fb160f049c5a", "bike_id": "7f8a6cb4ceb7d68d0179fb160f049c5a", "fusion_lat": 0.0, "is_reserved": 0, "lat": 38.887375166666665, "fusion_lon": 0.0, "is_disabled": 0}, {"rental_uris": {"android": "https://dc.lft.to/lastmile_qr_scan", "ios": "https://dc.lft.to/lastmile_qr_scan"}, "type": "electric_scooter", "lon": -77.00598, "name": "db5b632ef75dbcf09d8bec81eb54a99f", "bike_id": "db5b632ef75dbcf09d8bec81eb54a99f", "fusion_lat": 0.0, "is_reserved": 0, "lat": 38.885192833333335, "fusion_lon": 0.0, "is_disabled": 0}, {"rental_uris": {"android": "https://dc.lft.to/lastmile_qr_scan", "ios": "https://dc.lft.to/lastmile_qr_scan"}, "type": "electric_scooter", "lon": -77.01616283333334, "name": "b3428133a5d284736c454832e1781683", "bike_id": "b3428133a5d284736c454832e1781683", "fusion_lat": 0.0, "is_reserved": 0, "lat": 38.89974133333333, "fusion_lon": 0.0, "is_disabled": 0}, {"rental_uris": {"android": "https://dc.lft.to/lastmile_qr_scan", "ios": "https://dc.lft.to/lastmile_qr_scan"}, "type": "electric_scooter", "lon": -77.02486833333333, "name": "18537f6a7e9b77491dd8c83f7c7bd0f0", "bike_id": "18537f6a7e9b77491dd8c83f7c7bd0f0", "fusion_lat": 0.0, "is_reserved": 0, "lat": 38.880204666666664, "fusion_lon": 0.0, "is_disabled": 0}, {"rental_uris": {"android": "https://dc.lft.to/lastmile_qr_scan", "ios": "https://dc.lft.to/lastmile_qr_scan"}, "type": "electric_scooter", "lon": -76.9648955, "name": "a6e17fcd03f9ac5f57442a66e08fe8b9", "bike_id": "a6e17fcd03f9ac5f57442a66e08fe8b9", "fusion_lat": 0.0, "is_reserved": 0, "lat": 38.87552516666667, "fusion_lon": 0.0, "is_disabled": 0}, {"rental_uris": {"android": "https://dc.lft.to/lastmile_qr_scan", "ios": "https://dc.lft.to/lastmile_qr_scan"}, "type": "electric_bike", "lon": -77.00862416666666, "name": "d3e3f01d4a7af478cefb02be5c76a688", "bike_id": "d3e3f01d4a7af478cefb02be5c76a688", "fusion_lat": 0.0, "is_reserved": 0, "lat": 38.82732683333333, "fusion_lon": 0.0, "is_disabled": 0}, {"rental_uris": {"android": "https://dc.lft.to/lastmile_qr_scan", "ios": "https://dc.lft.to/lastmile_qr_scan"}, "type": "electric_scooter", "lon": -77.032751, "name": "771e9526f3aac15ec9f2f711102bc8ef", "bike_id": "771e9526f3aac15ec9f2f711102bc8ef", "fusion_lat": 0.0, "is_reserved": 0, "lat": 38.92846, "fusion_lon": 0.0, "is_disabled": 0}, {"rental_uris": {"android": "https://dc.lft.to/lastmile_qr_scan", "ios": "https://dc.lft.to/lastmile_qr_scan"}, "type": "electric_scooter", "lon": -77.03841633333333, "name": "5a63b3f9bcd2e71ff1facf747f0144d3", "bike_id": "5a63b3f9bcd2e71ff1facf747f0144d3", "fusion_lat": 0.0, "is_reserved": 0, "lat": 38.93106383333333, "fusion_lon": 0.0, "is_disabled": 0}, {"rental_uris": {"android": "https://dc.lft.to/lastmile_qr_scan", "ios": "https://dc.lft.to/lastmile_qr_scan"}, "type": "electric_scooter", "lon": -77.01718533333333, "name": "d53ff8e4e54bdebb016894024f6fea3e", "bike_id": "d53ff8e4e54bdebb016894024f6fea3e", "fusion_lat": 0.0, "is_reserved": 0, "lat": 38.879377833333336, "fusion_lon": 0.0, "is_disabled": 0}, {"rental_uris": {"android": "https://dc.lft.to/lastmile_qr_scan", "ios": "https://dc.lft.to/lastmile_qr_scan"}, "type": "electric_scooter", "lon": -76.9856165, "name": "85ee9756195a4dcf6bc2092e72eb868d", "bike_id": "85ee9756195a4dcf6bc2092e72eb868d", "fusion_lat": 0.0, "is_reserved": 0, "lat": 38.85587116666667, "fusion_lon": 0.0, "is_disabled": 0}, {"rental_uris": {"android": "https://dc.lft.to/lastmile_qr_scan", "ios": "https://dc.lft.to/lastmile_qr_scan"}, "type": "electric_scooter", "lon": -77.034665, "name": "bd9aae21575665fea58fee8c1dccf3ff", "bike_id": "bd9aae21575665fea58fee8c1dccf3ff", "fusion_lat": 0.0, "is_reserved": 0, "lat": 38.90891633333333, "fusion_lon": 0.0, "is_disabled": 0}, {"rental_uris": {"android": "https://dc.lft.to/lastmile_qr_scan", "ios": "https://dc.lft.to/lastmile_qr_scan"}, "type": "electric_scooter", "lon": -77.03423083333334, "name": "e70eb98283e1a466cfaed5a386e55017", "bike_id": "e70eb98283e1a466cfaed5a386e55017", "fusion_lat": 0.0, "is_reserved": 0, "lat": 38.919284166666664, "fusion_lon": 0.0, "is_disabled": 0}, {"rental_uris": {"android": "https://dc.lft.to/lastmile_qr_scan", "ios": "https://dc.lft.to/lastmile_qr_scan"}, "type": "electric_scooter", "lon": -77.02483016666666, "name": "031643176fee21ccffe075fa8860ab0c", "bike_id": "031643176fee21ccffe075fa8860ab0c", "fusion_lat": 0.0, "is_reserved": 0, "lat": 38.93883433333333, "fusion_lon": 0.0, "is_disabled": 0}, {"rental_uris": {"android": "https://dc.lft.to/lastmile_qr_scan", "ios": "https://dc.lft.to/lastmile_qr_scan"}, "type": "electric_scooter", "lon": -77.07364216666667, "name": "c6ec67c31d4b742a11b84d3c523e082f", "bike_id": "c6ec67c31d4b742a11b84d3c523e082f", "fusion_lat": 0.0, "is_reserved": 0, "lat": 38.943234333333336, "fusion_lon": 0.0, "is_disabled": 0}, {"rental_uris": {"android": "https://dc.lft.to/lastmile_qr_scan", "ios": "https://dc.lft.to/lastmile_qr_scan"}, "type": "electric_scooter", "lon": -77.07268183333333, "name": "97944662f4315b57776d4e3dc799c1c9", "bike_id": "97944662f4315b57776d4e3dc799c1c9", "fusion_lat": 0.0, "is_reserved": 0, "lat": 38.934766, "fusion_lon": 0.0, "is_disabled": 0}, {"rental_uris": {"android": "https://dc.lft.to/lastmile_qr_scan", "ios": "https://dc.lft.to/lastmile_qr_scan"}, "type": "electric_scooter", "lon": -77.04033166666666, "name": "d3c32ea0d33a0faef4ae3956be89cf89", "bike_id": "d3c32ea0d33a0faef4ae3956be89cf89", "fusion_lat": 0.0, "is_reserved": 0, "lat": 38.9001675, "fusion_lon": 0.0, "is_disabled": 0}, {"rental_uris": {"android": "https://dc.lft.to/lastmile_qr_scan", "ios": "https://dc.lft.to/lastmile_qr_scan"}, "type": "electric_scooter", "lon": -76.99372933333333, "name": "e7eb188ea4393971ea2667ecff0ed0b4", "bike_id": "e7eb188ea4393971ea2667ecff0ed0b4", "fusion_lat": 0.0, "is_reserved": 0, "lat": 38.924026833333336, "fusion_lon": 0.0, "is_disabled": 0}, {"rental_uris": {"android": "https://dc.lft.to/lastmile_qr_scan", "ios": "https://dc.lft.to/lastmile_qr_scan"}, "type": "electric_scooter", "lon": -77.01759433333334, "name": "c757bcd12c3ad1218d66b0dd7c3842de", "bike_id": "c757bcd12c3ad1218d66b0dd7c3842de", "fusion_lat": 0.0, "is_reserved": 0, "lat": 38.90215216666667, "fusion_lon": 0.0, "is_disabled": 0}, {"rental_uris": {"android": "https://dc.lft.to/lastmile_qr_scan", "ios": "https://dc.lft.to/lastmile_qr_scan"}, "type": "electric_scooter", "lon": -77.02004816666667, "name": "d93d3ca38c569fea09c64754c2e205e1", "bike_id": "d93d3ca38c569fea09c64754c2e205e1", "fusion_lat": 0.0, "is_reserved": 0, "lat": 38.87933683333333, "fusion_lon": 0.0, "is_disabled": 0}, {"rental_uris": {"android": "https://dc.lft.to/lastmile_qr_scan", "ios": "https://dc.lft.to/lastmile_qr_scan"}, "type": "electric_scooter", "lon": -77.00761666666666, "name": "abd5392a0f03d149f5a369485100bcc8", "bike_id": "abd5392a0f03d149f5a369485100bcc8", "fusion_lat": 0.0, "is_reserved": 0, "lat": 38.910293, "fusion_lon": 0.0, "is_disabled": 0}, {"rental_uris": {"android": "https://dc.lft.to/lastmile_qr_scan", "ios": "https://dc.lft.to/lastmile_qr_scan"}, "type": "electric_scooter", "lon": -77.038513, "name": "c9be3797978a19764861201f37273d57", "bike_id": "c9be3797978a19764861201f37273d57", "fusion_lat": 0.0, "is_reserved": 0, "lat": 38.911758166666665, "fusion_lon": 0.0, "is_disabled": 0}, {"rental_uris": {"android": "https://dc.lft.to/lastmile_qr_scan", "ios": "https://dc.lft.to/lastmile_qr_scan"}, "type": "electric_scooter", "lon": -77.044124, "name": "d6bf3918b1d3ee4af445bec03ca0a533", "bike_id": "d6bf3918b1d3ee4af445bec03ca0a533", "fusion_lat": 0.0, "is_reserved": 0, "lat": 38.905676, "fusion_lon": 0.0, "is_disabled": 0}, {"rental_uris": {"android": "https://dc.lft.to/lastmile_qr_scan", "ios": "https://dc.lft.to/lastmile_qr_scan"}, "type": "electric_bike", "lon": -77.12402266666666, "name": "2d653cddbc2a96dc8504f41b35beea8e", "bike_id": "2d653cddbc2a96dc8504f41b35beea8e", "fusion_lat": 0.0, "is_reserved": 0, "lat": 38.89334516666667, "fusion_lon": 0.0, "is_disabled": 0}, {"rental_uris": {"android": "https://dc.lft.to/lastmile_qr_scan", "ios": "https://dc.lft.to/lastmile_qr_scan"}, "type": "electric_scooter", "lon": -77.02114633333333, "name": "6e9a7d9db0117af4b2202883a6558d80", "bike_id": "6e9a7d9db0117af4b2202883a6558d80", "fusion_lat": 0.0, "is_reserved": 0, "lat": 38.91735083333333, "fusion_lon": 0.0, "is_disabled": 0}, {"rental_uris": {"android": "https://dc.lft.to/lastmile_qr_scan", "ios": "https://dc.lft.to/lastmile_qr_scan"}, "type": "electric_scooter", "lon": -77.00052733333334, "name": "2adb74fd01ff5b31b35059e430bc1b67", "bike_id": "2adb74fd01ff5b31b35059e430bc1b67", "fusion_lat": 0.0, "is_reserved": 0, "lat": 38.89742583333334, "fusion_lon": 0.0, "is_disabled": 0}, {"rental_uris": {"android": "https://dc.lft.to/lastmile_qr_scan", "ios": "https://dc.lft.to/lastmile_qr_scan"}, "type": "electric_scooter", "lon": -77.05883833333333, "name": "60a5053a6b2509a7a482f79eb95d6ea8", "bike_id": "60a5053a6b2509a7a482f79eb95d6ea8", "fusion_lat": 0.0, "is_reserved": 0, "lat": 38.936407, "fusion_lon": 0.0, "is_disabled": 0}, {"rental_uris": {"android": "https://dc.lft.to/lastmile_qr_scan", "ios": "https://dc.lft.to/lastmile_qr_scan"}, "type": "electric_scooter", "lon": -77.03422133333333, "name": "7e26d4c4fa3646550aabd02dbdce226f", "bike_id": "7e26d4c4fa3646550aabd02dbdce226f", "fusion_lat": 0.0, "is_reserved": 0, "lat": 38.91925766666667, "fusion_lon": 0.0, "is_disabled": 0}, {"rental_uris": {"android": "https://dc.lft.to/lastmile_qr_scan", "ios": "https://dc.lft.to/lastmile_qr_scan"}, "type": "electric_scooter", "lon": -76.93674483333334, "name": "17db7bb7927670e9dc1d5703a93ab2e4", "bike_id": "17db7bb7927670e9dc1d5703a93ab2e4", "fusion_lat": 0.0, "is_reserved": 0, "lat": 38.88753716666667, "fusion_lon": 0.0, "is_disabled": 0}, {"rental_uris": {"android": "https://dc.lft.to/lastmile_qr_scan", "ios": "https://dc.lft.to/lastmile_qr_scan"}, "type": "electric_bike", "lon": -77.03190283333333, "name": "20807db915780579226297bbefd435c8", "bike_id": "20807db915780579226297bbefd435c8", "fusion_lat": 0.0, "is_reserved": 0, "lat": 38.904612, "fusion_lon": 0.0, "is_disabled": 0}, {"rental_uris": {"android": "https://dc.lft.to/lastmile_qr_scan", "ios": "https://dc.lft.to/lastmile_qr_scan"}, "type": "electric_scooter", "lon": -77.04986333333333, "name": "5d6015281dbae949d6fdba38d60c48d9", "bike_id": "5d6015281dbae949d6fdba38d60c48d9", "fusion_lat": 0.0, "is_reserved": 0, "lat": 38.90518433333333, "fusion_lon": 0.0, "is_disabled": 0}, {"rental_uris": {"android": "https://dc.lft.to/lastmile_qr_scan", "ios": "https://dc.lft.to/lastmile_qr_scan"}, "type": "electric_scooter", "lon": -77.049647, "name": "e44573210da88f870fae7963022a1247", "bike_id": "e44573210da88f870fae7963022a1247", "fusion_lat": 0.0, "is_reserved": 0, "lat": 38.900887, "fusion_lon": 0.0, "is_disabled": 0}, {"rental_uris": {"android": "https://dc.lft.to/lastmile_qr_scan", "ios": "https://dc.lft.to/lastmile_qr_scan"}, "type": "electric_scooter", "lon": -76.96506766666667, "name": "5d217bb1cfc5fdc22e70e9bd8d06f000", "bike_id": "5d217bb1cfc5fdc22e70e9bd8d06f000", "fusion_lat": 0.0, "is_reserved": 0, "lat": 38.876515, "fusion_lon": 0.0, "is_disabled": 0}, {"rental_uris": {"android": "https://dc.lft.to/lastmile_qr_scan", "ios": "https://dc.lft.to/lastmile_qr_scan"}, "type": "electric_scooter", "lon": -77.0320975, "name": "a1a2ae24572437b8e55eae8d2e82541e", "bike_id": "a1a2ae24572437b8e55eae8d2e82541e", "fusion_lat": 0.0, "is_reserved": 0, "lat": 38.90764683333333, "fusion_lon": 0.0, "is_disabled": 0}, {"rental_uris": {"android": "https://dc.lft.to/lastmile_qr_scan", "ios": "https://dc.lft.to/lastmile_qr_scan"}, "type": "electric_scooter", "lon": -76.99632883333334, "name": "d86159f78f139f16855c6dd346cb49c7", "bike_id": "d86159f78f139f16855c6dd346cb49c7", "fusion_lat": 0.0, "is_reserved": 0, "lat": 38.8462725, "fusion_lon": 0.0, "is_disabled": 0}, {"rental_uris": {"android": "https://dc.lft.to/lastmile_qr_scan", "ios": "https://dc.lft.to/lastmile_qr_scan"}, "type": "electric_bike", "lon": -77.01078, "name": "36f99301e1bd76e412e2235e57d06b91", "bike_id": "36f99301e1bd76e412e2235e57d06b91", "fusion_lat": 0.0, "is_reserved": 0, "lat": 38.9626395, "fusion_lon": 0.0, "is_disabled": 0}, {"rental_uris": {"android": "https://dc.lft.to/lastmile_qr_scan", "ios": "https://dc.lft.to/lastmile_qr_scan"}, "type": "electric_scooter", "lon": -77.00198883333333, "name": "cc90827f4830282698e4cbbf666c0847", "bike_id": "cc90827f4830282698e4cbbf666c0847", "fusion_lat": 0.0, "is_reserved": 0, "lat": 38.902425666666666, "fusion_lon": 0.0, "is_disabled": 0}, {"rental_uris": {"android": "https://dc.lft.to/lastmile_qr_scan", "ios": "https://dc.lft.to/lastmile_qr_scan"}, "type": "electric_scooter", "lon": -77.02316, "name": "70d06efe0f4584cea75155b12927cdfb", "bike_id": "70d06efe0f4584cea75155b12927cdfb", "fusion_lat": 0.0, "is_reserved": 0, "lat": 38.91774816666667, "fusion_lon": 0.0, "is_disabled": 0}, {"rental_uris": {"android": "https://dc.lft.to/lastmile_qr_scan", "ios": "https://dc.lft.to/lastmile_qr_scan"}, "type": "electric_scooter", "lon": -77.03482316666667, "name": "0f5c2b8f95ebe5a7117359e02cade79f", "bike_id": "0f5c2b8f95ebe5a7117359e02cade79f", "fusion_lat": 0.0, "is_reserved": 0, "lat": 38.902379, "fusion_lon": 0.0, "is_disabled": 0}, {"rental_uris": {"android": "https://dc.lft.to/lastmile_qr_scan", "ios": "https://dc.lft.to/lastmile_qr_scan"}, "type": "electric_bike", "lon": -77.07637383333334, "name": "26b6b6b1ecb90d64637451fd889fdd99", "bike_id": "26b6b6b1ecb90d64637451fd889fdd99", "fusion_lat": 0.0, "is_reserved": 0, "lat": 38.906150333333336, "fusion_lon": 0.0, "is_disabled": 0}, {"rental_uris": {"android": "https://dc.lft.to/lastmile_qr_scan", "ios": "https://dc.lft.to/lastmile_qr_scan"}, "type": "electric_scooter", "lon": -77.0125695, "name": "c3b2c35cf048132d534a660003ea589c", "bike_id": "c3b2c35cf048132d534a660003ea589c", "fusion_lat": 0.0, "is_reserved": 0, "lat": 38.90851983333334, "fusion_lon": 0.0, "is_disabled": 0}, {"rental_uris": {"android": "https://dc.lft.to/lastmile_qr_scan", "ios": "https://dc.lft.to/lastmile_qr_scan"}, "type": "electric_scooter", "lon": -77.00559333333334, "name": "370bf43d261b576b6a704c9fa8f8aa9f", "bike_id": "370bf43d261b576b6a704c9fa8f8aa9f", "fusion_lat": 0.0, "is_reserved": 0, "lat": 38.905604333333336, "fusion_lon": 0.0, "is_disabled": 0}, {"rental_uris": {"android": "https://dc.lft.to/lastmile_qr_scan", "ios": "https://dc.lft.to/lastmile_qr_scan"}, "type": "electric_scooter", "lon": -77.0090765, "name": "e7ce17fd22e42a8cb904c40534b47538", "bike_id": "e7ce17fd22e42a8cb904c40534b47538", "fusion_lat": 0.0, "is_reserved": 0, "lat": 38.90041433333333, "fusion_lon": 0.0, "is_disabled": 0}, {"rental_uris": {"android": "https://dc.lft.to/lastmile_qr_scan", "ios": "https://dc.lft.to/lastmile_qr_scan"}, "type": "electric_scooter", "lon": -77.01889383333334, "name": "908753db9cb651c9f4255275c0b57e41", "bike_id": "908753db9cb651c9f4255275c0b57e41", "fusion_lat": 0.0, "is_reserved": 0, "lat": 38.92939616666666, "fusion_lon": 0.0, "is_disabled": 0}, {"rental_uris": {"android": "https://dc.lft.to/lastmile_qr_scan", "ios": "https://dc.lft.to/lastmile_qr_scan"}, "type": "electric_bike", "lon": -76.99839416666667, "name": "4ac63c221aa2bfdb2d3e945e3acec18f", "bike_id": "4ac63c221aa2bfdb2d3e945e3acec18f", "fusion_lat": 0.0, "is_reserved": 0, "lat": 38.83918333333333, "fusion_lon": 0.0, "is_disabled": 0}, {"rental_uris": {"android": "https://dc.lft.to/lastmile_qr_scan", "ios": "https://dc.lft.to/lastmile_qr_scan"}, "type": "electric_scooter", "lon": -76.99504400000001, "name": "e20102ced254c7753062a910d08d434a", "bike_id": "e20102ced254c7753062a910d08d434a", "fusion_lat": 0.0, "is_reserved": 0, "lat": 38.86249433333333, "fusion_lon": 0.0, "is_disabled": 0}, {"rental_uris": {"android": "https://dc.lft.to/lastmile_qr_scan", "ios": "https://dc.lft.to/lastmile_qr_scan"}, "type": "electric_scooter", "lon": -76.99530166666666, "name": "5715c6af6ddbe150c5c6351481b9fe9e", "bike_id": "5715c6af6ddbe150c5c6351481b9fe9e", "fusion_lat": 0.0, "is_reserved": 0, "lat": 38.88411216666667, "fusion_lon": 0.0, "is_disabled": 0}, {"rental_uris": {"android": "https://dc.lft.to/lastmile_qr_scan", "ios": "https://dc.lft.to/lastmile_qr_scan"}, "type": "electric_scooter", "lon": -77.03313083333333, "name": "24c20e38cf09ed841945da3eb05e46e5", "bike_id": "24c20e38cf09ed841945da3eb05e46e5", "fusion_lat": 0.0, "is_reserved": 0, "lat": 38.919926333333336, "fusion_lon": 0.0, "is_disabled": 0}, {"rental_uris": {"android": "https://dc.lft.to/lastmile_qr_scan", "ios": "https://dc.lft.to/lastmile_qr_scan"}, "type": "electric_scooter", "lon": -77.02707066666666, "name": "4c1a4e657911673994e9c48cce73c438", "bike_id": "4c1a4e657911673994e9c48cce73c438", "fusion_lat": 0.0, "is_reserved": 0, "lat": 38.95003716666667, "fusion_lon": 0.0, "is_disabled": 0}, {"rental_uris": {"android": "https://dc.lft.to/lastmile_qr_scan", "ios": "https://dc.lft.to/lastmile_qr_scan"}, "type": "electric_bike", "lon": -76.932002, "name": "f71114689e6b510ac5162af4dac18cbf", "bike_id": "f71114689e6b510ac5162af4dac18cbf", "fusion_lat": 0.0, "is_reserved": 0, "lat": 38.872323, "fusion_lon": 0.0, "is_disabled": 0}, {"rental_uris": {"android": "https://dc.lft.to/lastmile_qr_scan", "ios": "https://dc.lft.to/lastmile_qr_scan"}, "type": "electric_scooter", "lon": -77.0298975, "name": "96133a4e5a1cc757ca2ce3a2753fe5cf", "bike_id": "96133a4e5a1cc757ca2ce3a2753fe5cf", "fusion_lat": 0.0, "is_reserved": 0, "lat": 38.9563215, "fusion_lon": 0.0, "is_disabled": 0}, {"rental_uris": {"android": "https://dc.lft.to/lastmile_qr_scan", "ios": "https://dc.lft.to/lastmile_qr_scan"}, "type": "electric_bike", "lon": -77.09962833333333, "name": "8cd9f660a007569515df11d56d660806", "bike_id": "8cd9f660a007569515df11d56d660806", "fusion_lat": 0.0, "is_reserved": 0, "lat": 38.857899, "fusion_lon": 0.0, "is_disabled": 0}, {"rental_uris": {"android": "https://dc.lft.to/lastmile_qr_scan", "ios": "https://dc.lft.to/lastmile_qr_scan"}, "type": "electric_scooter", "lon": -76.9521595, "name": "d4fad0a8625967999c7201ab1a681523", "bike_id": "d4fad0a8625967999c7201ab1a681523", "fusion_lat": 0.0, "is_reserved": 0, "lat": 38.886818, "fusion_lon": 0.0, "is_disabled": 0}, {"rental_uris": {"android": "https://dc.lft.to/lastmile_qr_scan", "ios": "https://dc.lft.to/lastmile_qr_scan"}, "type": "electric_scooter", "lon": -77.02214166666667, "name": "4af2756e185ff8ca7ed0ca5db1986df7", "bike_id": "4af2756e185ff8ca7ed0ca5db1986df7", "fusion_lat": 0.0, "is_reserved": 0, "lat": 38.921148, "fusion_lon": 0.0, "is_disabled": 0}, {"rental_uris": {"android": "https://dc.lft.to/lastmile_qr_scan", "ios": "https://dc.lft.to/lastmile_qr_scan"}, "type": "electric_scooter", "lon": -77.02387266666666, "name": "a7e02556f9a9ecf1a6d45e549b295cbb", "bike_id": "a7e02556f9a9ecf1a6d45e549b295cbb", "fusion_lat": 0.0, "is_reserved": 0, "lat": 38.916819333333336, "fusion_lon": 0.0, "is_disabled": 0}, {"rental_uris": {"android": "https://dc.lft.to/lastmile_qr_scan", "ios": "https://dc.lft.to/lastmile_qr_scan"}, "type": "electric_scooter", "lon": -77.04101183333333, "name": "6102c7cef95b430d0ccb01826e60eedf", "bike_id": "6102c7cef95b430d0ccb01826e60eedf", "fusion_lat": 0.0, "is_reserved": 0, "lat": 38.925361, "fusion_lon": 0.0, "is_disabled": 0}, {"rental_uris": {"android": "https://dc.lft.to/lastmile_qr_scan", "ios": "https://dc.lft.to/lastmile_qr_scan"}, "type": "electric_scooter", "lon": -77.04597733333334, "name": "f1271846ebc2cf0045d8aead2fbf8cc5", "bike_id": "f1271846ebc2cf0045d8aead2fbf8cc5", "fusion_lat": 0.0, "is_reserved": 0, "lat": 38.915176, "fusion_lon": 0.0, "is_disabled": 0}, {"rental_uris": {"android": "https://dc.lft.to/lastmile_qr_scan", "ios": "https://dc.lft.to/lastmile_qr_scan"}, "type": "electric_scooter", "lon": -77.03290816666667, "name": "d585442f20599f756f15aa6b9f5a235e", "bike_id": "d585442f20599f756f15aa6b9f5a235e", "fusion_lat": 0.0, "is_reserved": 0, "lat": 38.95650166666667, "fusion_lon": 0.0, "is_disabled": 0}, {"rental_uris": {"android": "https://dc.lft.to/lastmile_qr_scan", "ios": "https://dc.lft.to/lastmile_qr_scan"}, "type": "electric_bike", "lon": -77.04072933333333, "name": "19a1a358e9a69de19cbb5db82b820635", "bike_id": "19a1a358e9a69de19cbb5db82b820635", "fusion_lat": 0.0, "is_reserved": 0, "lat": 38.8124075, "fusion_lon": 0.0, "is_disabled": 0}, {"rental_uris": {"android": "https://dc.lft.to/lastmile_qr_scan", "ios": "https://dc.lft.to/lastmile_qr_scan"}, "type": "electric_scooter", "lon": -77.03282733333333, "name": "633e84b6c75ba28c43d51aaca2ae2993", "bike_id": "633e84b6c75ba28c43d51aaca2ae2993", "fusion_lat": 0.0, "is_reserved": 0, "lat": 38.936903, "fusion_lon": 0.0, "is_disabled": 0}, {"rental_uris": {"android": "https://dc.lft.to/lastmile_qr_scan", "ios": "https://dc.lft.to/lastmile_qr_scan"}, "type": "electric_scooter", "lon": -76.99857833333333, "name": "7224ca465628605c0d2bc5a9037b6532", "bike_id": "7224ca465628605c0d2bc5a9037b6532", "fusion_lat": 0.0, "is_reserved": 0, "lat": 38.900346166666665, "fusion_lon": 0.0, "is_disabled": 0}, {"rental_uris": {"android": "https://dc.lft.to/lastmile_qr_scan", "ios": "https://dc.lft.to/lastmile_qr_scan"}, "type": "electric_scooter", "lon": -77.04344316666666, "name": "c29c4492da7df91751c64a7fbfcff4ba", "bike_id": "c29c4492da7df91751c64a7fbfcff4ba", "fusion_lat": 0.0, "is_reserved": 0, "lat": 38.90524633333333, "fusion_lon": 0.0, "is_disabled": 0}, {"rental_uris": {"android": "https://dc.lft.to/lastmile_qr_scan", "ios": "https://dc.lft.to/lastmile_qr_scan"}, "type": "electric_scooter", "lon": -77.03503483333333, "name": "ecdb1456df995caa2381a2e325ec13bb", "bike_id": "ecdb1456df995caa2381a2e325ec13bb", "fusion_lat": 0.0, "is_reserved": 0, "lat": 38.918714, "fusion_lon": 0.0, "is_disabled": 0}, {"rental_uris": {"android": "https://dc.lft.to/lastmile_qr_scan", "ios": "https://dc.lft.to/lastmile_qr_scan"}, "type": "electric_scooter", "lon": -77.02200766666667, "name": "945864e0586709938868d8a0af8d2db7", "bike_id": "945864e0586709938868d8a0af8d2db7", "fusion_lat": 0.0, "is_reserved": 0, "lat": 38.8950305, "fusion_lon": 0.0, "is_disabled": 0}, {"rental_uris": {"android": "https://dc.lft.to/lastmile_qr_scan", "ios": "https://dc.lft.to/lastmile_qr_scan"}, "type": "electric_scooter", "lon": -77.02625333333333, "name": "080058d246de6d7f87721cbbb20e07d5", "bike_id": "080058d246de6d7f87721cbbb20e07d5", "fusion_lat": 0.0, "is_reserved": 0, "lat": 38.88739916666667, "fusion_lon": 0.0, "is_disabled": 0}, {"rental_uris": {"android": "https://dc.lft.to/lastmile_qr_scan", "ios": "https://dc.lft.to/lastmile_qr_scan"}, "type": "electric_scooter", "lon": -77.02705733333333, "name": "61519c490992220f2ea3399def43a6f7", "bike_id": "61519c490992220f2ea3399def43a6f7", "fusion_lat": 0.0, "is_reserved": 0, "lat": 38.898256833333335, "fusion_lon": 0.0, "is_disabled": 0}, {"rental_uris": {"android": "https://dc.lft.to/lastmile_qr_scan", "ios": "https://dc.lft.to/lastmile_qr_scan"}, "type": "electric_scooter", "lon": -77.02603266666667, "name": "a52a2c4fa7757bf523bb027adb2ed041", "bike_id": "a52a2c4fa7757bf523bb027adb2ed041", "fusion_lat": 0.0, "is_reserved": 0, "lat": 38.9162125, "fusion_lon": 0.0, "is_disabled": 0}, {"rental_uris": {"android": "https://dc.lft.to/lastmile_qr_scan", "ios": "https://dc.lft.to/lastmile_qr_scan"}, "type": "electric_bike", "lon": -77.12813316666667, "name": "1c116e797e33d00805bd2ba5d1320ed7", "bike_id": "1c116e797e33d00805bd2ba5d1320ed7", "fusion_lat": 0.0, "is_reserved": 0, "lat": 38.86522, "fusion_lon": 0.0, "is_disabled": 0}, {"rental_uris": {"android": "https://dc.lft.to/lastmile_qr_scan", "ios": "https://dc.lft.to/lastmile_qr_scan"}, "type": "electric_scooter", "lon": -77.06391066666667, "name": "520ef5868ce7bc0d8f17f68952fb5052", "bike_id": "520ef5868ce7bc0d8f17f68952fb5052", "fusion_lat": 0.0, "is_reserved": 0, "lat": 38.929097666666664, "fusion_lon": 0.0, "is_disabled": 0}, {"rental_uris": {"android": "https://dc.lft.to/lastmile_qr_scan", "ios": "https://dc.lft.to/lastmile_qr_scan"}, "type": "electric_scooter", "lon": -77.03995483333334, "name": "76dc6e8f53eaa42964098b6ff5a69e60", "bike_id": "76dc6e8f53eaa42964098b6ff5a69e60", "fusion_lat": 0.0, "is_reserved": 0, "lat": 38.905562333333336, "fusion_lon": 0.0, "is_disabled": 0}, {"rental_uris": {"android": "https://dc.lft.to/lastmile_qr_scan", "ios": "https://dc.lft.to/lastmile_qr_scan"}, "type": "electric_scooter", "lon": -76.94712083333333, "name": "439814c92fcee730e31b837e734f5cac", "bike_id": "439814c92fcee730e31b837e734f5cac", "fusion_lat": 0.0, "is_reserved": 0, "lat": 38.896653, "fusion_lon": 0.0, "is_disabled": 0}, {"rental_uris": {"android": "https://dc.lft.to/lastmile_qr_scan", "ios": "https://dc.lft.to/lastmile_qr_scan"}, "type": "electric_scooter", "lon": -76.98707583333334, "name": "e06855c3f12a6356be81e1bee0c0c4b0", "bike_id": "e06855c3f12a6356be81e1bee0c0c4b0", "fusion_lat": 0.0, "is_reserved": 0, "lat": 38.86543366666667, "fusion_lon": 0.0, "is_disabled": 0}, {"rental_uris": {"android": "https://dc.lft.to/lastmile_qr_scan", "ios": "https://dc.lft.to/lastmile_qr_scan"}, "type": "electric_scooter", "lon": -77.0328535, "name": "a306eaeeee24b0809fe4773ee5a940c5", "bike_id": "a306eaeeee24b0809fe4773ee5a940c5", "fusion_lat": 0.0, "is_reserved": 0, "lat": 38.92841216666667, "fusion_lon": 0.0, "is_disabled": 0}, {"rental_uris": {"android": "https://dc.lft.to/lastmile_qr_scan", "ios": "https://dc.lft.to/lastmile_qr_scan"}, "type": "electric_scooter", "lon": -77.0334645, "name": "72d7a2fec4ece301468e1c016ae0c667", "bike_id": "72d7a2fec4ece301468e1c016ae0c667", "fusion_lat": 0.0, "is_reserved": 0, "lat": 38.9024135, "fusion_lon": 0.0, "is_disabled": 0}, {"rental_uris": {"android": "https://dc.lft.to/lastmile_qr_scan", "ios": "https://dc.lft.to/lastmile_qr_scan"}, "type": "electric_scooter", "lon": -77.0505005, "name": "6476875333b2b60a2addc6641cd42a62", "bike_id": "6476875333b2b60a2addc6641cd42a62", "fusion_lat": 0.0, "is_reserved": 0, "lat": 38.92362283333333, "fusion_lon": 0.0, "is_disabled": 0}, {"rental_uris": {"android": "https://dc.lft.to/lastmile_qr_scan", "ios": "https://dc.lft.to/lastmile_qr_scan"}, "type": "electric_scooter", "lon": -77.022617, "name": "87e08fcd4777c400c972425e55696501", "bike_id": "87e08fcd4777c400c972425e55696501", "fusion_lat": 0.0, "is_reserved": 0, "lat": 38.928292, "fusion_lon": 0.0, "is_disabled": 0}, {"rental_uris": {"android": "https://dc.lft.to/lastmile_qr_scan", "ios": "https://dc.lft.to/lastmile_qr_scan"}, "type": "electric_scooter", "lon": -76.97627333333334, "name": "7ce7d401eac43bdf10a19b15a700e146", "bike_id": "7ce7d401eac43bdf10a19b15a700e146", "fusion_lat": 0.0, "is_reserved": 0, "lat": 38.905704666666665, "fusion_lon": 0.0, "is_disabled": 0}, {"rental_uris": {"android": "https://dc.lft.to/lastmile_qr_scan", "ios": "https://dc.lft.to/lastmile_qr_scan"}, "type": "electric_bike", "lon": -77.12981583333334, "name": "3401573fffe299b89233bd1cf8cabc14", "bike_id": "3401573fffe299b89233bd1cf8cabc14", "fusion_lat": 0.0, "is_reserved": 0, "lat": 38.799916333333336, "fusion_lon": 0.0, "is_disabled": 0}, {"rental_uris": {"android": "https://dc.lft.to/lastmile_qr_scan", "ios": "https://dc.lft.to/lastmile_qr_scan"}, "type": "electric_bike", "lon": -77.07044383333333, "name": "17fdeb8431a8d473a5d8472361831438", "bike_id": "17fdeb8431a8d473a5d8472361831438", "fusion_lat": 0.0, "is_reserved": 0, "lat": 38.824435, "fusion_lon": 0.0, "is_disabled": 0}, {"rental_uris": {"android": "https://dc.lft.to/lastmile_qr_scan", "ios": "https://dc.lft.to/lastmile_qr_scan"}, "type": "electric_scooter", "lon": -76.994477, "name": "96c1a03b319a9dcefde650b2a383f628", "bike_id": "96c1a03b319a9dcefde650b2a383f628", "fusion_lat": 0.0, "is_reserved": 0, "lat": 38.905081, "fusion_lon": 0.0, "is_disabled": 0}, {"rental_uris": {"android": "https://dc.lft.to/lastmile_qr_scan", "ios": "https://dc.lft.to/lastmile_qr_scan"}, "type": "electric_scooter", "lon": -76.98094566666667, "name": "a5ca3ec72ebd742fbaa5952dbc773bc5", "bike_id": "a5ca3ec72ebd742fbaa5952dbc773bc5", "fusion_lat": 0.0, "is_reserved": 0, "lat": 38.85069983333333, "fusion_lon": 0.0, "is_disabled": 0}, {"rental_uris": {"android": "https://dc.lft.to/lastmile_qr_scan", "ios": "https://dc.lft.to/lastmile_qr_scan"}, "type": "electric_scooter", "lon": -77.00570733333333, "name": "3c13043523b77901d24a616f61edb281", "bike_id": "3c13043523b77901d24a616f61edb281", "fusion_lat": 0.0, "is_reserved": 0, "lat": 38.88507516666667, "fusion_lon": 0.0, "is_disabled": 0}, {"rental_uris": {"android": "https://dc.lft.to/lastmile_qr_scan", "ios": "https://dc.lft.to/lastmile_qr_scan"}, "type": "electric_scooter", "lon": -77.02640916666667, "name": "b5e188f76fceb5e76e639939c1616542", "bike_id": "b5e188f76fceb5e76e639939c1616542", "fusion_lat": 0.0, "is_reserved": 0, "lat": 38.89806, "fusion_lon": 0.0, "is_disabled": 0}, {"rental_uris": {"android": "https://dc.lft.to/lastmile_qr_scan", "ios": "https://dc.lft.to/lastmile_qr_scan"}, "type": "electric_scooter", "lon": -77.025957, "name": "281785b566a13ef318219d93a8214459", "bike_id": "281785b566a13ef318219d93a8214459", "fusion_lat": 0.0, "is_reserved": 0, "lat": 38.9001625, "fusion_lon": 0.0, "is_disabled": 0}, {"rental_uris": {"android": "https://dc.lft.to/lastmile_qr_scan", "ios": "https://dc.lft.to/lastmile_qr_scan"}, "type": "electric_scooter", "lon": -77.028117, "name": "dc0f6284ec2faec5124cd5221fb061f7", "bike_id": "dc0f6284ec2faec5124cd5221fb061f7", "fusion_lat": 0.0, "is_reserved": 0, "lat": 38.89227066666667, "fusion_lon": 0.0, "is_disabled": 0}, {"rental_uris": {"android": "https://dc.lft.to/lastmile_qr_scan", "ios": "https://dc.lft.to/lastmile_qr_scan"}, "type": "electric_scooter", "lon": -77.028232, "name": "01e467925cf083b077d83efc5d258ab8", "bike_id": "01e467925cf083b077d83efc5d258ab8", "fusion_lat": 0.0, "is_reserved": 0, "lat": 38.95083833333333, "fusion_lon": 0.0, "is_disabled": 0}, {"rental_uris": {"android": "https://dc.lft.to/lastmile_qr_scan", "ios": "https://dc.lft.to/lastmile_qr_scan"}, "type": "electric_scooter", "lon": -77.0026985, "name": "1ec188da0b94cc17d1093dafb3085bfc", "bike_id": "1ec188da0b94cc17d1093dafb3085bfc", "fusion_lat": 0.0, "is_reserved": 0, "lat": 38.90382616666667, "fusion_lon": 0.0, "is_disabled": 0}, {"rental_uris": {"android": "https://dc.lft.to/lastmile_qr_scan", "ios": "https://dc.lft.to/lastmile_qr_scan"}, "type": "electric_scooter", "lon": -77.02183683333334, "name": "1c1423f12cbc23eabc9dbeb8ebcb9214", "bike_id": "1c1423f12cbc23eabc9dbeb8ebcb9214", "fusion_lat": 0.0, "is_reserved": 0, "lat": 38.920186, "fusion_lon": 0.0, "is_disabled": 0}, {"rental_uris": {"android": "https://dc.lft.to/lastmile_qr_scan", "ios": "https://dc.lft.to/lastmile_qr_scan"}, "type": "electric_scooter", "lon": -77.03654266666666, "name": "f7c1bb030ad64c09ebe8dc43e264087a", "bike_id": "f7c1bb030ad64c09ebe8dc43e264087a", "fusion_lat": 0.0, "is_reserved": 0, "lat": 38.90280333333333, "fusion_lon": 0.0, "is_disabled": 0}, {"rental_uris": {"android": "https://dc.lft.to/lastmile_qr_scan", "ios": "https://dc.lft.to/lastmile_qr_scan"}, "type": "electric_scooter", "lon": -77.043623, "name": "65d36b327bf5f7f24ed7e830ff6b9c8c", "bike_id": "65d36b327bf5f7f24ed7e830ff6b9c8c", "fusion_lat": 0.0, "is_reserved": 0, "lat": 38.892389333333334, "fusion_lon": 0.0, "is_disabled": 0}, {"rental_uris": {"android": "https://dc.lft.to/lastmile_qr_scan", "ios": "https://dc.lft.to/lastmile_qr_scan"}, "type": "electric_scooter", "lon": -77.005988, "name": "7a8549d8f135632ba487baa2335c3134", "bike_id": "7a8549d8f135632ba487baa2335c3134", "fusion_lat": 0.0, "is_reserved": 0, "lat": 38.8851715, "fusion_lon": 0.0, "is_disabled": 0}, {"rental_uris": {"android": "https://dc.lft.to/lastmile_qr_scan", "ios": "https://dc.lft.to/lastmile_qr_scan"}, "type": "electric_scooter", "lon": -77.02298183333333, "name": "d713fbe0ed23db34d4848e057bb9bbce", "bike_id": "d713fbe0ed23db34d4848e057bb9bbce", "fusion_lat": 0.0, "is_reserved": 0, "lat": 38.91613916666667, "fusion_lon": 0.0, "is_disabled": 0}, {"rental_uris": {"android": "https://dc.lft.to/lastmile_qr_scan", "ios": "https://dc.lft.to/lastmile_qr_scan"}, "type": "electric_bike", "lon": -77.04651283333334, "name": "36f99a875bf795024070d44a0025d07f", "bike_id": "36f99a875bf795024070d44a0025d07f", "fusion_lat": 0.0, "is_reserved": 0, "lat": 38.900693833333335, "fusion_lon": 0.0, "is_disabled": 0}, {"rental_uris": {"android": "https://dc.lft.to/lastmile_qr_scan", "ios": "https://dc.lft.to/lastmile_qr_scan"}, "type": "electric_scooter", "lon": -77.03256466666667, "name": "1bfea17d4a9ddc9dfb4d0390005d157b", "bike_id": "1bfea17d4a9ddc9dfb4d0390005d157b", "fusion_lat": 0.0, "is_reserved": 0, "lat": 38.92644883333333, "fusion_lon": 0.0, "is_disabled": 0}, {"rental_uris": {"android": "https://dc.lft.to/lastmile_qr_scan", "ios": "https://dc.lft.to/lastmile_qr_scan"}, "type": "electric_scooter", "lon": -77.057841, "name": "f00ae6e1ba66ef31078b3578bfd25d6d", "bike_id": "f00ae6e1ba66ef31078b3578bfd25d6d", "fusion_lat": 0.0, "is_reserved": 0, "lat": 38.90367783333333, "fusion_lon": 0.0, "is_disabled": 0}, {"rental_uris": {"android": "https://dc.lft.to/lastmile_qr_scan", "ios": "https://dc.lft.to/lastmile_qr_scan"}, "type": "electric_scooter", "lon": -77.07031383333333, "name": "4e0f379f5fe5a91013cb1f03b3ae4d7e", "bike_id": "4e0f379f5fe5a91013cb1f03b3ae4d7e", "fusion_lat": 0.0, "is_reserved": 0, "lat": 38.9190915, "fusion_lon": 0.0, "is_disabled": 0}, {"rental_uris": {"android": "https://dc.lft.to/lastmile_qr_scan", "ios": "https://dc.lft.to/lastmile_qr_scan"}, "type": "electric_scooter", "lon": -77.021012, "name": "eb0aca9168d361d38919b520b98a3fe3", "bike_id": "eb0aca9168d361d38919b520b98a3fe3", "fusion_lat": 0.0, "is_reserved": 0, "lat": 38.91108533333333, "fusion_lon": 0.0, "is_disabled": 0}, {"rental_uris": {"android": "https://dc.lft.to/lastmile_qr_scan", "ios": "https://dc.lft.to/lastmile_qr_scan"}, "type": "electric_bike", "lon": -77.1323105, "name": "7846a258d83290b5c38a24d8e7dd3189", "bike_id": "7846a258d83290b5c38a24d8e7dd3189", "fusion_lat": 0.0, "is_reserved": 0, "lat": 38.869741166666664, "fusion_lon": 0.0, "is_disabled": 0}, {"rental_uris": {"android": "https://dc.lft.to/lastmile_qr_scan", "ios": "https://dc.lft.to/lastmile_qr_scan"}, "type": "electric_scooter", "lon": -76.9949135, "name": "59500073809ee185eec52641bd815dd0", "bike_id": "59500073809ee185eec52641bd815dd0", "fusion_lat": 0.0, "is_reserved": 0, "lat": 38.900985, "fusion_lon": 0.0, "is_disabled": 0}, {"rental_uris": {"android": "https://dc.lft.to/lastmile_qr_scan", "ios": "https://dc.lft.to/lastmile_qr_scan"}, "type": "electric_scooter", "lon": -77.04001816666667, "name": "1b2c1a6f9bd7ad77a9fdc578e899c2dc", "bike_id": "1b2c1a6f9bd7ad77a9fdc578e899c2dc", "fusion_lat": 0.0, "is_reserved": 0, "lat": 38.90243733333333, "fusion_lon": 0.0, "is_disabled": 0}, {"rental_uris": {"android": "https://dc.lft.to/lastmile_qr_scan", "ios": "https://dc.lft.to/lastmile_qr_scan"}, "type": "electric_bike", "lon": -77.00345566666667, "name": "3d8d91fe8c39c5c73ab785030dec223f", "bike_id": "3d8d91fe8c39c5c73ab785030dec223f", "fusion_lat": 0.0, "is_reserved": 0, "lat": 38.94366383333333, "fusion_lon": 0.0, "is_disabled": 0}, {"rental_uris": {"android": "https://dc.lft.to/lastmile_qr_scan", "ios": "https://dc.lft.to/lastmile_qr_scan"}, "type": "electric_scooter", "lon": -77.04560066666667, "name": "83e796bf76fe17127525f03e5705525a", "bike_id": "83e796bf76fe17127525f03e5705525a", "fusion_lat": 0.0, "is_reserved": 0, "lat": 38.9179135, "fusion_lon": 0.0, "is_disabled": 0}, {"rental_uris": {"android": "https://dc.lft.to/lastmile_qr_scan", "ios": "https://dc.lft.to/lastmile_qr_scan"}, "type": "electric_scooter", "lon": -77.025745, "name": "02059fa3f7ef44392a4b45acfe2647c3", "bike_id": "02059fa3f7ef44392a4b45acfe2647c3", "fusion_lat": 0.0, "is_reserved": 0, "lat": 38.89044116666667, "fusion_lon": 0.0, "is_disabled": 0}, {"rental_uris": {"android": "https://dc.lft.to/lastmile_qr_scan", "ios": "https://dc.lft.to/lastmile_qr_scan"}, "type": "electric_scooter", "lon": -76.99381883333334, "name": "92ddd23221c4a3902ec9ba1b3fca7f04", "bike_id": "92ddd23221c4a3902ec9ba1b3fca7f04", "fusion_lat": 0.0, "is_reserved": 0, "lat": 38.886971, "fusion_lon": 0.0, "is_disabled": 0}, {"rental_uris": {"android": "https://dc.lft.to/lastmile_qr_scan", "ios": "https://dc.lft.to/lastmile_qr_scan"}, "type": "electric_scooter", "lon": -77.02822616666667, "name": "b77338490654f3327a3391630a2a1142", "bike_id": "b77338490654f3327a3391630a2a1142", "fusion_lat": 0.0, "is_reserved": 0, "lat": 38.898072166666665, "fusion_lon": 0.0, "is_disabled": 0}, {"rental_uris": {"android": "https://dc.lft.to/lastmile_qr_scan", "ios": "https://dc.lft.to/lastmile_qr_scan"}, "type": "electric_bike", "lon": -77.00460583333333, "name": "0ac0672d10e763aac5346e41e02f6c64", "bike_id": "0ac0672d10e763aac5346e41e02f6c64", "fusion_lat": 0.0, "is_reserved": 0, "lat": 38.91441283333333, "fusion_lon": 0.0, "is_disabled": 0}, {"rental_uris": {"android": "https://dc.lft.to/lastmile_qr_scan", "ios": "https://dc.lft.to/lastmile_qr_scan"}, "type": "electric_scooter", "lon": -77.02366583333334, "name": "707c00398cb643e494f5747db577e63c", "bike_id": "707c00398cb643e494f5747db577e63c", "fusion_lat": 0.0, "is_reserved": 0, "lat": 38.931414833333335, "fusion_lon": 0.0, "is_disabled": 0}, {"rental_uris": {"android": "https://dc.lft.to/lastmile_qr_scan", "ios": "https://dc.lft.to/lastmile_qr_scan"}, "type": "electric_scooter", "lon": -77.04226683333333, "name": "cfd734756d61875413127486aab53289", "bike_id": "cfd734756d61875413127486aab53289", "fusion_lat": 0.0, "is_reserved": 0, "lat": 38.92621466666667, "fusion_lon": 0.0, "is_disabled": 0}, {"rental_uris": {"android": "https://dc.lft.to/lastmile_qr_scan", "ios": "https://dc.lft.to/lastmile_qr_scan"}, "type": "electric_scooter", "lon": -77.07265966666667, "name": "f3b2174e44c2f02bb04902e413fa009f", "bike_id": "f3b2174e44c2f02bb04902e413fa009f", "fusion_lat": 0.0, "is_reserved": 0, "lat": 38.934761333333334, "fusion_lon": 0.0, "is_disabled": 0}, {"rental_uris": {"android": "https://dc.lft.to/lastmile_qr_scan", "ios": "https://dc.lft.to/lastmile_qr_scan"}, "type": "electric_scooter", "lon": -77.04966066666667, "name": "d88ce998f2ac4bddeef343789357d6d5", "bike_id": "d88ce998f2ac4bddeef343789357d6d5", "fusion_lat": 0.0, "is_reserved": 0, "lat": 38.91261016666667, "fusion_lon": 0.0, "is_disabled": 0}, {"rental_uris": {"android": "https://dc.lft.to/lastmile_qr_scan", "ios": "https://dc.lft.to/lastmile_qr_scan"}, "type": "electric_scooter", "lon": -76.99027616666666, "name": "248e38d085e422942f22555acc7d592f", "bike_id": "248e38d085e422942f22555acc7d592f", "fusion_lat": 0.0, "is_reserved": 0, "lat": 38.8641045, "fusion_lon": 0.0, "is_disabled": 0}, {"rental_uris": {"android": "https://dc.lft.to/lastmile_qr_scan", "ios": "https://dc.lft.to/lastmile_qr_scan"}, "type": "electric_bike", "lon": -76.92338066666667, "name": "5079a6bf898555f486decc3e0efbb979", "bike_id": "5079a6bf898555f486decc3e0efbb979", "fusion_lat": 0.0, "is_reserved": 0, "lat": 38.8879395, "fusion_lon": 0.0, "is_disabled": 0}, {"rental_uris": {"android": "https://dc.lft.to/lastmile_qr_scan", "ios": "https://dc.lft.to/lastmile_qr_scan"}, "type": "electric_scooter", "lon": -76.98778083333333, "name": "c60c4f1ad6aae4bf68368f1cb0108c9c", "bike_id": "c60c4f1ad6aae4bf68368f1cb0108c9c", "fusion_lat": 0.0, "is_reserved": 0, "lat": 38.90027533333333, "fusion_lon": 0.0, "is_disabled": 0}, {"rental_uris": {"android": "https://dc.lft.to/lastmile_qr_scan", "ios": "https://dc.lft.to/lastmile_qr_scan"}, "type": "electric_scooter", "lon": -77.04199683333333, "name": "02469cc21a7a7300a97506bdbf3b0ed8", "bike_id": "02469cc21a7a7300a97506bdbf3b0ed8", "fusion_lat": 0.0, "is_reserved": 0, "lat": 38.907033, "fusion_lon": 0.0, "is_disabled": 0}, {"rental_uris": {"android": "https://dc.lft.to/lastmile_qr_scan", "ios": "https://dc.lft.to/lastmile_qr_scan"}, "type": "electric_scooter", "lon": -76.94212566666667, "name": "5a2ef40736e68d8a95ad7dd893007784", "bike_id": "5a2ef40736e68d8a95ad7dd893007784", "fusion_lat": 0.0, "is_reserved": 0, "lat": 38.896868, "fusion_lon": 0.0, "is_disabled": 0}, {"rental_uris": {"android": "https://dc.lft.to/lastmile_qr_scan", "ios": "https://dc.lft.to/lastmile_qr_scan"}, "type": "electric_scooter", "lon": -77.00959666666667, "name": "aafc0d0ad4bcf7691dec67e0938b6c92", "bike_id": "aafc0d0ad4bcf7691dec67e0938b6c92", "fusion_lat": 0.0, "is_reserved": 0, "lat": 38.92140166666667, "fusion_lon": 0.0, "is_disabled": 0}, {"rental_uris": {"android": "https://dc.lft.to/lastmile_qr_scan", "ios": "https://dc.lft.to/lastmile_qr_scan"}, "type": "electric_scooter", "lon": -77.00070416666667, "name": "ccf0498ea1331d3a7fcd37ac6364b3b8", "bike_id": "ccf0498ea1331d3a7fcd37ac6364b3b8", "fusion_lat": 0.0, "is_reserved": 0, "lat": 38.89749616666667, "fusion_lon": 0.0, "is_disabled": 0}, {"rental_uris": {"android": "https://dc.lft.to/lastmile_qr_scan", "ios": "https://dc.lft.to/lastmile_qr_scan"}, "type": "electric_bike", "lon": -76.87498083333334, "name": "779e62a5a8b0c0080102353d6a7422cf", "bike_id": "779e62a5a8b0c0080102353d6a7422cf", "fusion_lat": 0.0, "is_reserved": 0, "lat": 38.990906, "fusion_lon": 0.0, "is_disabled": 0}, {"rental_uris": {"android": "https://dc.lft.to/lastmile_qr_scan", "ios": "https://dc.lft.to/lastmile_qr_scan"}, "type": "electric_scooter", "lon": -77.068052, "name": "879427a963d9cb7ca305f6a6ac0cc176", "bike_id": "879427a963d9cb7ca305f6a6ac0cc176", "fusion_lat": 0.0, "is_reserved": 0, "lat": 38.905064333333335, "fusion_lon": 0.0, "is_disabled": 0}, {"rental_uris": {"android": "https://dc.lft.to/lastmile_qr_scan", "ios": "https://dc.lft.to/lastmile_qr_scan"}, "type": "electric_bike", "lon": -77.1121775, "name": "ea83c147ed1a99a29467126409cd223a", "bike_id": "ea83c147ed1a99a29467126409cd223a", "fusion_lat": 0.0, "is_reserved": 0, "lat": 38.828795666666664, "fusion_lon": 0.0, "is_disabled": 0}, {"rental_uris": {"android": "https://dc.lft.to/lastmile_qr_scan", "ios": "https://dc.lft.to/lastmile_qr_scan"}, "type": "electric_scooter", "lon": -76.93158066666666, "name": "1122fa36d16007146d5d9c4d3efff526", "bike_id": "1122fa36d16007146d5d9c4d3efff526", "fusion_lat": 0.0, "is_reserved": 0, "lat": 38.898819833333334, "fusion_lon": 0.0, "is_disabled": 0}, {"rental_uris": {"android": "https://dc.lft.to/lastmile_qr_scan", "ios": "https://dc.lft.to/lastmile_qr_scan"}, "type": "electric_scooter", "lon": -77.01582283333333, "name": "f66b5cf4ae1fe42202db7dddb100e7ef", "bike_id": "f66b5cf4ae1fe42202db7dddb100e7ef", "fusion_lat": 0.0, "is_reserved": 0, "lat": 38.8765645, "fusion_lon": 0.0, "is_disabled": 0}, {"rental_uris": {"android": "https://dc.lft.to/lastmile_qr_scan", "ios": "https://dc.lft.to/lastmile_qr_scan"}, "type": "electric_scooter", "lon": -77.019578, "name": "6253e58db86b1f68cd0a1470dd50bb35", "bike_id": "6253e58db86b1f68cd0a1470dd50bb35", "fusion_lat": 0.0, "is_reserved": 0, "lat": 38.90199916666667, "fusion_lon": 0.0, "is_disabled": 0}, {"rental_uris": {"android": "https://dc.lft.to/lastmile_qr_scan", "ios": "https://dc.lft.to/lastmile_qr_scan"}, "type": "electric_scooter", "lon": -77.038448, "name": "3394e34a0e0f9e551440ab07663f2334", "bike_id": "3394e34a0e0f9e551440ab07663f2334", "fusion_lat": 0.0, "is_reserved": 0, "lat": 38.91212, "fusion_lon": 0.0, "is_disabled": 0}, {"rental_uris": {"android": "https://dc.lft.to/lastmile_qr_scan", "ios": "https://dc.lft.to/lastmile_qr_scan"}, "type": "electric_scooter", "lon": -76.9477105, "name": "41e00b14bf673d328eea972f7a232de7", "bike_id": "41e00b14bf673d328eea972f7a232de7", "fusion_lat": 0.0, "is_reserved": 0, "lat": 38.89626583333333, "fusion_lon": 0.0, "is_disabled": 0}, {"rental_uris": {"android": "https://dc.lft.to/lastmile_qr_scan", "ios": "https://dc.lft.to/lastmile_qr_scan"}, "type": "electric_scooter", "lon": -77.005864, "name": "65d014778b17d63585bc89cc3149f599", "bike_id": "65d014778b17d63585bc89cc3149f599", "fusion_lat": 0.0, "is_reserved": 0, "lat": 38.906384333333335, "fusion_lon": 0.0, "is_disabled": 0}, {"rental_uris": {"android": "https://dc.lft.to/lastmile_qr_scan", "ios": "https://dc.lft.to/lastmile_qr_scan"}, "type": "electric_bike", "lon": -77.00368066666667, "name": "33d60fcc7bba92eb1cb9160f9b9850f7", "bike_id": "33d60fcc7bba92eb1cb9160f9b9850f7", "fusion_lat": 0.0, "is_reserved": 0, "lat": 38.836100333333334, "fusion_lon": 0.0, "is_disabled": 0}, {"rental_uris": {"android": "https://dc.lft.to/lastmile_qr_scan", "ios": "https://dc.lft.to/lastmile_qr_scan"}, "type": "electric_bike", "lon": -76.9833075, "name": "cd9b15e7fbb037b830f5fb627b05e53d", "bike_id": "cd9b15e7fbb037b830f5fb627b05e53d", "fusion_lat": 0.0, "is_reserved": 0, "lat": 38.966007833333336, "fusion_lon": 0.0, "is_disabled": 0}, {"rental_uris": {"android": "https://dc.lft.to/lastmile_qr_scan", "ios": "https://dc.lft.to/lastmile_qr_scan"}, "type": "electric_bike", "lon": -77.08939366666667, "name": "9dd914462ccf720199ce01bf386c8c56", "bike_id": "9dd914462ccf720199ce01bf386c8c56", "fusion_lat": 0.0, "is_reserved": 0, "lat": 38.84101366666667, "fusion_lon": 0.0, "is_disabled": 0}, {"rental_uris": {"android": "https://dc.lft.to/lastmile_qr_scan", "ios": "https://dc.lft.to/lastmile_qr_scan"}, "type": "electric_scooter", "lon": -76.94940566666666, "name": "a9c83376bbb84acee6e0737b0f0c5549", "bike_id": "a9c83376bbb84acee6e0737b0f0c5549", "fusion_lat": 0.0, "is_reserved": 0, "lat": 38.88318483333333, "fusion_lon": 0.0, "is_disabled": 0}, {"rental_uris": {"android": "https://dc.lft.to/lastmile_qr_scan", "ios": "https://dc.lft.to/lastmile_qr_scan"}, "type": "electric_scooter", "lon": -77.041778, "name": "8f46197e1f7c619d440de080cd03376c", "bike_id": "8f46197e1f7c619d440de080cd03376c", "fusion_lat": 0.0, "is_reserved": 0, "lat": 38.91593183333333, "fusion_lon": 0.0, "is_disabled": 0}, {"rental_uris": {"android": "https://dc.lft.to/lastmile_qr_scan", "ios": "https://dc.lft.to/lastmile_qr_scan"}, "type": "electric_bike", "lon": -77.03623833333333, "name": "b628fa9591d8cf6f3c10b5b196e10f05", "bike_id": "b628fa9591d8cf6f3c10b5b196e10f05", "fusion_lat": 0.0, "is_reserved": 0, "lat": 38.972941166666665, "fusion_lon": 0.0, "is_disabled": 0}, {"rental_uris": {"android": "https://dc.lft.to/lastmile_qr_scan", "ios": "https://dc.lft.to/lastmile_qr_scan"}, "type": "electric_scooter", "lon": -76.99786783333333, "name": "38e6bb2a778820ffa16cd4c0fc3dbf00", "bike_id": "38e6bb2a778820ffa16cd4c0fc3dbf00", "fusion_lat": 0.0, "is_reserved": 0, "lat": 38.84434566666667, "fusion_lon": 0.0, "is_disabled": 0}, {"rental_uris": {"android": "https://dc.lft.to/lastmile_qr_scan", "ios": "https://dc.lft.to/lastmile_qr_scan"}, "type": "electric_scooter", "lon": -77.03179316666667, "name": "8ff3610e8861e904148fc5eec286e90c", "bike_id": "8ff3610e8861e904148fc5eec286e90c", "fusion_lat": 0.0, "is_reserved": 0, "lat": 38.920103166666664, "fusion_lon": 0.0, "is_disabled": 0}, {"rental_uris": {"android": "https://dc.lft.to/lastmile_qr_scan", "ios": "https://dc.lft.to/lastmile_qr_scan"}, "type": "electric_scooter", "lon": -77.03293183333334, "name": "0adc6bb93c4c3e45c569582b2826fedd", "bike_id": "0adc6bb93c4c3e45c569582b2826fedd", "fusion_lat": 0.0, "is_reserved": 0, "lat": 38.9565735, "fusion_lon": 0.0, "is_disabled": 0}, {"rental_uris": {"android": "https://dc.lft.to/lastmile_qr_scan", "ios": "https://dc.lft.to/lastmile_qr_scan"}, "type": "electric_scooter", "lon": -76.99659566666666, "name": "3ed63577f957d15340c60544acad4a4b", "bike_id": "3ed63577f957d15340c60544acad4a4b", "fusion_lat": 0.0, "is_reserved": 0, "lat": 38.85890916666666, "fusion_lon": 0.0, "is_disabled": 0}, {"rental_uris": {"android": "https://dc.lft.to/lastmile_qr_scan", "ios": "https://dc.lft.to/lastmile_qr_scan"}, "type": "electric_scooter", "lon": -77.0002575, "name": "55cc12fb016d3790b5d6048572c9742a", "bike_id": "55cc12fb016d3790b5d6048572c9742a", "fusion_lat": 0.0, "is_reserved": 0, "lat": 38.90014383333333, "fusion_lon": 0.0, "is_disabled": 0}, {"rental_uris": {"android": "https://dc.lft.to/lastmile_qr_scan", "ios": "https://dc.lft.to/lastmile_qr_scan"}, "type": "electric_scooter", "lon": -77.0476805, "name": "b7c27ba40042c9a044ea15770cd8ddbc", "bike_id": "b7c27ba40042c9a044ea15770cd8ddbc", "fusion_lat": 0.0, "is_reserved": 0, "lat": 38.91770433333333, "fusion_lon": 0.0, "is_disabled": 0}, {"rental_uris": {"android": "https://dc.lft.to/lastmile_qr_scan", "ios": "https://dc.lft.to/lastmile_qr_scan"}, "type": "electric_scooter", "lon": -77.03902, "name": "5d7bf9e524e03ce731b2ec3362b5c6f3", "bike_id": "5d7bf9e524e03ce731b2ec3362b5c6f3", "fusion_lat": 0.0, "is_reserved": 0, "lat": 38.92173116666667, "fusion_lon": 0.0, "is_disabled": 0}, {"rental_uris": {"android": "https://dc.lft.to/lastmile_qr_scan", "ios": "https://dc.lft.to/lastmile_qr_scan"}, "type": "electric_scooter", "lon": -77.0169905, "name": "28b0290c4bf5248c1068ed48b30d79aa", "bike_id": "28b0290c4bf5248c1068ed48b30d79aa", "fusion_lat": 0.0, "is_reserved": 0, "lat": 38.92038, "fusion_lon": 0.0, "is_disabled": 0}, {"rental_uris": {"android": "https://dc.lft.to/lastmile_qr_scan", "ios": "https://dc.lft.to/lastmile_qr_scan"}, "type": "electric_scooter", "lon": -77.05003633333334, "name": "0f9229d4bb92681a5844de1708637dc8", "bike_id": "0f9229d4bb92681a5844de1708637dc8", "fusion_lat": 0.0, "is_reserved": 0, "lat": 38.892335833333334, "fusion_lon": 0.0, "is_disabled": 0}, {"rental_uris": {"android": "https://dc.lft.to/lastmile_qr_scan", "ios": "https://dc.lft.to/lastmile_qr_scan"}, "type": "electric_scooter", "lon": -77.03410216666667, "name": "a13c6317c05b89e93c2c636bbe99ecee", "bike_id": "a13c6317c05b89e93c2c636bbe99ecee", "fusion_lat": 0.0, "is_reserved": 0, "lat": 38.931780333333336, "fusion_lon": 0.0, "is_disabled": 0}, {"rental_uris": {"android": "https://dc.lft.to/lastmile_qr_scan", "ios": "https://dc.lft.to/lastmile_qr_scan"}, "type": "electric_scooter", "lon": -77.03328083333334, "name": "11e76cc77e97e406b1438fa037cf93e6", "bike_id": "11e76cc77e97e406b1438fa037cf93e6", "fusion_lat": 0.0, "is_reserved": 0, "lat": 38.9159595, "fusion_lon": 0.0, "is_disabled": 0}, {"rental_uris": {"android": "https://dc.lft.to/lastmile_qr_scan", "ios": "https://dc.lft.to/lastmile_qr_scan"}, "type": "electric_scooter", "lon": -77.08449133333333, "name": "e1efc3642413a054e769ee6ddba93575", "bike_id": "e1efc3642413a054e769ee6ddba93575", "fusion_lat": 0.0, "is_reserved": 0, "lat": 38.91179133333333, "fusion_lon": 0.0, "is_disabled": 0}, {"rental_uris": {"android": "https://dc.lft.to/lastmile_qr_scan", "ios": "https://dc.lft.to/lastmile_qr_scan"}, "type": "electric_scooter", "lon": -77.012946, "name": "3e20e75846dd2ab260af8ffc951ee34e", "bike_id": "3e20e75846dd2ab260af8ffc951ee34e", "fusion_lat": 0.0, "is_reserved": 0, "lat": 38.930285833333336, "fusion_lon": 0.0, "is_disabled": 0}, {"rental_uris": {"android": "https://dc.lft.to/lastmile_qr_scan", "ios": "https://dc.lft.to/lastmile_qr_scan"}, "type": "electric_scooter", "lon": -77.04175983333333, "name": "795980805e75dfff9ffcf043e91ae61c", "bike_id": "795980805e75dfff9ffcf043e91ae61c", "fusion_lat": 0.0, "is_reserved": 0, "lat": 38.9088865, "fusion_lon": 0.0, "is_disabled": 0}, {"rental_uris": {"android": "https://dc.lft.to/lastmile_qr_scan", "ios": "https://dc.lft.to/lastmile_qr_scan"}, "type": "electric_scooter", "lon": -76.93832133333333, "name": "41ac06c207d4493ce4bdc10ed4fad753", "bike_id": "41ac06c207d4493ce4bdc10ed4fad753", "fusion_lat": 0.0, "is_reserved": 0, "lat": 38.89759766666667, "fusion_lon": 0.0, "is_disabled": 0}, {"rental_uris": {"android": "https://dc.lft.to/lastmile_qr_scan", "ios": "https://dc.lft.to/lastmile_qr_scan"}, "type": "electric_scooter", "lon": -77.02811, "name": "9dac81705acac3430931cf38048e1e25", "bike_id": "9dac81705acac3430931cf38048e1e25", "fusion_lat": 0.0, "is_reserved": 0, "lat": 38.9445965, "fusion_lon": 0.0, "is_disabled": 0}, {"rental_uris": {"android": "https://dc.lft.to/lastmile_qr_scan", "ios": "https://dc.lft.to/lastmile_qr_scan"}, "type": "electric_scooter", "lon": -76.99219516666666, "name": "5ef19ed12d42f516a85f336b08be43ce", "bike_id": "5ef19ed12d42f516a85f336b08be43ce", "fusion_lat": 0.0, "is_reserved": 0, "lat": 38.904699, "fusion_lon": 0.0, "is_disabled": 0}, {"rental_uris": {"android": "https://dc.lft.to/lastmile_qr_scan", "ios": "https://dc.lft.to/lastmile_qr_scan"}, "type": "electric_scooter", "lon": -76.948417, "name": "338e1b677ca10c4efcd2cc9417560694", "bike_id": "338e1b677ca10c4efcd2cc9417560694", "fusion_lat": 0.0, "is_reserved": 0, "lat": 38.89484383333333, "fusion_lon": 0.0, "is_disabled": 0}, {"rental_uris": {"android": "https://dc.lft.to/lastmile_qr_scan", "ios": "https://dc.lft.to/lastmile_qr_scan"}, "type": "electric_scooter", "lon": -77.08212333333333, "name": "7bbecc4f2f58fab6bcf891fdef51bc94", "bike_id": "7bbecc4f2f58fab6bcf891fdef51bc94", "fusion_lat": 0.0, "is_reserved": 0, "lat": 38.935484333333335, "fusion_lon": 0.0, "is_disabled": 0}, {"rental_uris": {"android": "https://dc.lft.to/lastmile_qr_scan", "ios": "https://dc.lft.to/lastmile_qr_scan"}, "type": "electric_scooter", "lon": -77.003447, "name": "dd7f610386cf073b3fddaa6689c3c8b7", "bike_id": "dd7f610386cf073b3fddaa6689c3c8b7", "fusion_lat": 0.0, "is_reserved": 0, "lat": 38.9135185, "fusion_lon": 0.0, "is_disabled": 0}, {"rental_uris": {"android": "https://dc.lft.to/lastmile_qr_scan", "ios": "https://dc.lft.to/lastmile_qr_scan"}, "type": "electric_scooter", "lon": -76.984124, "name": "1a1d750611379203e6bae2a7a191a9d3", "bike_id": "1a1d750611379203e6bae2a7a191a9d3", "fusion_lat": 0.0, "is_reserved": 0, "lat": 38.913932333333335, "fusion_lon": 0.0, "is_disabled": 0}, {"rental_uris": {"android": "https://dc.lft.to/lastmile_qr_scan", "ios": "https://dc.lft.to/lastmile_qr_scan"}, "type": "electric_scooter", "lon": -77.00291583333333, "name": "562b51ea7efd2b7168a02fb85b6d5646", "bike_id": "562b51ea7efd2b7168a02fb85b6d5646", "fusion_lat": 0.0, "is_reserved": 0, "lat": 38.88990033333333, "fusion_lon": 0.0, "is_disabled": 0}, {"rental_uris": {"android": "https://dc.lft.to/lastmile_qr_scan", "ios": "https://dc.lft.to/lastmile_qr_scan"}, "type": "electric_scooter", "lon": -77.009201, "name": "3e8d91250997dcf5806832aed5f4d04f", "bike_id": "3e8d91250997dcf5806832aed5f4d04f", "fusion_lat": 0.0, "is_reserved": 0, "lat": 38.910523, "fusion_lon": 0.0, "is_disabled": 0}, {"rental_uris": {"android": "https://dc.lft.to/lastmile_qr_scan", "ios": "https://dc.lft.to/lastmile_qr_scan"}, "type": "electric_scooter", "lon": -77.04337916666667, "name": "680577475754de7117f9a4a8af830e65", "bike_id": "680577475754de7117f9a4a8af830e65", "fusion_lat": 0.0, "is_reserved": 0, "lat": 38.90046533333334, "fusion_lon": 0.0, "is_disabled": 0}, {"rental_uris": {"android": "https://dc.lft.to/lastmile_qr_scan", "ios": "https://dc.lft.to/lastmile_qr_scan"}, "type": "electric_scooter", "lon": -77.0306525, "name": "f3b5244043dccabe086491096c84cd43", "bike_id": "f3b5244043dccabe086491096c84cd43", "fusion_lat": 0.0, "is_reserved": 0, "lat": 38.91928133333333, "fusion_lon": 0.0, "is_disabled": 0}, {"rental_uris": {"android": "https://dc.lft.to/lastmile_qr_scan", "ios": "https://dc.lft.to/lastmile_qr_scan"}, "type": "electric_scooter", "lon": -76.93185166666666, "name": "e4a9017aaa16710b6610e907635eaa4b", "bike_id": "e4a9017aaa16710b6610e907635eaa4b", "fusion_lat": 0.0, "is_reserved": 0, "lat": 38.89878933333333, "fusion_lon": 0.0, "is_disabled": 0}, {"rental_uris": {"android": "https://dc.lft.to/lastmile_qr_scan", "ios": "https://dc.lft.to/lastmile_qr_scan"}, "type": "electric_scooter", "lon": -77.04354216666667, "name": "29078f07f664fa3371301840efeaf123", "bike_id": "29078f07f664fa3371301840efeaf123", "fusion_lat": 0.0, "is_reserved": 0, "lat": 38.90421516666667, "fusion_lon": 0.0, "is_disabled": 0}, {"rental_uris": {"android": "https://dc.lft.to/lastmile_qr_scan", "ios": "https://dc.lft.to/lastmile_qr_scan"}, "type": "electric_bike", "lon": -77.12736983333333, "name": "96eb0d3d465b1f6fe889f1c8b115706e", "bike_id": "96eb0d3d465b1f6fe889f1c8b115706e", "fusion_lat": 0.0, "is_reserved": 0, "lat": 38.888125, "fusion_lon": 0.0, "is_disabled": 0}, {"rental_uris": {"android": "https://dc.lft.to/lastmile_qr_scan", "ios": "https://dc.lft.to/lastmile_qr_scan"}, "type": "electric_scooter", "lon": -77.02394183333334, "name": "8d4743e9ea50bd152d7378688dc85c9a", "bike_id": "8d4743e9ea50bd152d7378688dc85c9a", "fusion_lat": 0.0, "is_reserved": 0, "lat": 38.887365, "fusion_lon": 0.0, "is_disabled": 0}, {"rental_uris": {"android": "https://dc.lft.to/lastmile_qr_scan", "ios": "https://dc.lft.to/lastmile_qr_scan"}, "type": "electric_scooter", "lon": -76.94117083333333, "name": "e3295d4e1d745442196d463854c7b8d7", "bike_id": "e3295d4e1d745442196d463854c7b8d7", "fusion_lat": 0.0, "is_reserved": 0, "lat": 38.907915333333335, "fusion_lon": 0.0, "is_disabled": 0}, {"rental_uris": {"android": "https://dc.lft.to/lastmile_qr_scan", "ios": "https://dc.lft.to/lastmile_qr_scan"}, "type": "electric_scooter", "lon": -77.02389016666666, "name": "f13d4eeafd5fab54b3c350599f64c47b", "bike_id": "f13d4eeafd5fab54b3c350599f64c47b", "fusion_lat": 0.0, "is_reserved": 0, "lat": 38.916866, "fusion_lon": 0.0, "is_disabled": 0}, {"rental_uris": {"android": "https://dc.lft.to/lastmile_qr_scan", "ios": "https://dc.lft.to/lastmile_qr_scan"}, "type": "electric_scooter", "lon": -77.0199815, "name": "2de0c5a73757e723e601b3b69c4a5ff5", "bike_id": "2de0c5a73757e723e601b3b69c4a5ff5", "fusion_lat": 0.0, "is_reserved": 0, "lat": 38.900485333333336, "fusion_lon": 0.0, "is_disabled": 0}, {"rental_uris": {"android": "https://dc.lft.to/lastmile_qr_scan", "ios": "https://dc.lft.to/lastmile_qr_scan"}, "type": "electric_scooter", "lon": -77.061583, "name": "f9ce826c4dff410df7b18de15abfcc3d", "bike_id": "f9ce826c4dff410df7b18de15abfcc3d", "fusion_lat": 0.0, "is_reserved": 0, "lat": 38.94226, "fusion_lon": 0.0, "is_disabled": 0}, {"rental_uris": {"android": "https://dc.lft.to/lastmile_qr_scan", "ios": "https://dc.lft.to/lastmile_qr_scan"}, "type": "electric_scooter", "lon": -76.98684466666667, "name": "48a28ce4e1860dbbcaf63bc45bbd55a0", "bike_id": "48a28ce4e1860dbbcaf63bc45bbd55a0", "fusion_lat": 0.0, "is_reserved": 0, "lat": 38.85583533333333, "fusion_lon": 0.0, "is_disabled": 0}, {"rental_uris": {"android": "https://dc.lft.to/lastmile_qr_scan", "ios": "https://dc.lft.to/lastmile_qr_scan"}, "type": "electric_scooter", "lon": -77.03433633333333, "name": "ee554bfc906e604c2d48fee1c9ff706d", "bike_id": "ee554bfc906e604c2d48fee1c9ff706d", "fusion_lat": 0.0, "is_reserved": 0, "lat": 38.90253166666667, "fusion_lon": 0.0, "is_disabled": 0}, {"rental_uris": {"android": "https://dc.lft.to/lastmile_qr_scan", "ios": "https://dc.lft.to/lastmile_qr_scan"}, "type": "electric_scooter", "lon": -76.98769316666667, "name": "27a4cec9b38809c7030ab8cb6b44734f", "bike_id": "27a4cec9b38809c7030ab8cb6b44734f", "fusion_lat": 0.0, "is_reserved": 0, "lat": 38.911738666666665, "fusion_lon": 0.0, "is_disabled": 0}, {"rental_uris": {"android": "https://dc.lft.to/lastmile_qr_scan", "ios": "https://dc.lft.to/lastmile_qr_scan"}, "type": "electric_scooter", "lon": -77.039999, "name": "4fd092d3c0b95c331b67d7951c4f6a94", "bike_id": "4fd092d3c0b95c331b67d7951c4f6a94", "fusion_lat": 0.0, "is_reserved": 0, "lat": 38.914159, "fusion_lon": 0.0, "is_disabled": 0}, {"rental_uris": {"android": "https://dc.lft.to/lastmile_qr_scan", "ios": "https://dc.lft.to/lastmile_qr_scan"}, "type": "electric_scooter", "lon": -77.04341133333334, "name": "c8fb9e7eb08b23e5f44433ac05d5f508", "bike_id": "c8fb9e7eb08b23e5f44433ac05d5f508", "fusion_lat": 0.0, "is_reserved": 0, "lat": 38.921502, "fusion_lon": 0.0, "is_disabled": 0}, {"rental_uris": {"android": "https://dc.lft.to/lastmile_qr_scan", "ios": "https://dc.lft.to/lastmile_qr_scan"}, "type": "electric_scooter", "lon": -77.05006966666667, "name": "d474a3d77b033cfb47ec06de6166fd59", "bike_id": "d474a3d77b033cfb47ec06de6166fd59", "fusion_lat": 0.0, "is_reserved": 0, "lat": 38.90537283333333, "fusion_lon": 0.0, "is_disabled": 0}, {"rental_uris": {"android": "https://dc.lft.to/lastmile_qr_scan", "ios": "https://dc.lft.to/lastmile_qr_scan"}, "type": "electric_scooter", "lon": -76.93161266666667, "name": "5125e2c2f3b53846052e39dda7380d0a", "bike_id": "5125e2c2f3b53846052e39dda7380d0a", "fusion_lat": 0.0, "is_reserved": 0, "lat": 38.89884466666667, "fusion_lon": 0.0, "is_disabled": 0}, {"rental_uris": {"android": "https://dc.lft.to/lastmile_qr_scan", "ios": "https://dc.lft.to/lastmile_qr_scan"}, "type": "electric_scooter", "lon": -77.06588566666667, "name": "87bfd600f386ca09f53367799c44e7a6", "bike_id": "87bfd600f386ca09f53367799c44e7a6", "fusion_lat": 0.0, "is_reserved": 0, "lat": 38.9136655, "fusion_lon": 0.0, "is_disabled": 0}, {"rental_uris": {"android": "https://dc.lft.to/lastmile_qr_scan", "ios": "https://dc.lft.to/lastmile_qr_scan"}, "type": "electric_scooter", "lon": -77.02117866666667, "name": "013f1ac49820df63a0dc56b9c955445d", "bike_id": "013f1ac49820df63a0dc56b9c955445d", "fusion_lat": 0.0, "is_reserved": 0, "lat": 38.93016983333333, "fusion_lon": 0.0, "is_disabled": 0}, {"rental_uris": {"android": "https://dc.lft.to/lastmile_qr_scan", "ios": "https://dc.lft.to/lastmile_qr_scan"}, "type": "electric_scooter", "lon": -77.0433605, "name": "42bc79ffa722b68093ffb9bc39a81ad5", "bike_id": "42bc79ffa722b68093ffb9bc39a81ad5", "fusion_lat": 0.0, "is_reserved": 0, "lat": 38.9037285, "fusion_lon": 0.0, "is_disabled": 0}, {"rental_uris": {"android": "https://dc.lft.to/lastmile_qr_scan", "ios": "https://dc.lft.to/lastmile_qr_scan"}, "type": "electric_scooter", "lon": -77.05012933333333, "name": "750e794b12bcbc73bcc5cd8803e041d7", "bike_id": "750e794b12bcbc73bcc5cd8803e041d7", "fusion_lat": 0.0, "is_reserved": 0, "lat": 38.90773266666667, "fusion_lon": 0.0, "is_disabled": 0}, {"rental_uris": {"android": "https://dc.lft.to/lastmile_qr_scan", "ios": "https://dc.lft.to/lastmile_qr_scan"}, "type": "electric_scooter", "lon": -77.0387705, "name": "cef5caa6d0f0a19a8486513d282a6349", "bike_id": "cef5caa6d0f0a19a8486513d282a6349", "fusion_lat": 0.0, "is_reserved": 0, "lat": 38.93428383333333, "fusion_lon": 0.0, "is_disabled": 0}, {"rental_uris": {"android": "https://dc.lft.to/lastmile_qr_scan", "ios": "https://dc.lft.to/lastmile_qr_scan"}, "type": "electric_scooter", "lon": -77.00599916666667, "name": "df7e60b6054e7e43908b57f076fa84a5", "bike_id": "df7e60b6054e7e43908b57f076fa84a5", "fusion_lat": 0.0, "is_reserved": 0, "lat": 38.8851895, "fusion_lon": 0.0, "is_disabled": 0}, {"rental_uris": {"android": "https://dc.lft.to/lastmile_qr_scan", "ios": "https://dc.lft.to/lastmile_qr_scan"}, "type": "electric_bike", "lon": -77.05107683333334, "name": "92ecbc783ffcf13f7e8166965debe84a", "bike_id": "92ecbc783ffcf13f7e8166965debe84a", "fusion_lat": 0.0, "is_reserved": 0, "lat": 38.945544166666664, "fusion_lon": 0.0, "is_disabled": 0}, {"rental_uris": {"android": "https://dc.lft.to/lastmile_qr_scan", "ios": "https://dc.lft.to/lastmile_qr_scan"}, "type": "electric_scooter", "lon": -76.98600483333334, "name": "4cd9f0c258fc28134ba29ce65d130bd3", "bike_id": "4cd9f0c258fc28134ba29ce65d130bd3", "fusion_lat": 0.0, "is_reserved": 0, "lat": 38.90016933333333, "fusion_lon": 0.0, "is_disabled": 0}, {"rental_uris": {"android": "https://dc.lft.to/lastmile_qr_scan", "ios": "https://dc.lft.to/lastmile_qr_scan"}, "type": "electric_scooter", "lon": -77.00414566666667, "name": "6bb49b32c66ebedb0571e517d777e10b", "bike_id": "6bb49b32c66ebedb0571e517d777e10b", "fusion_lat": 0.0, "is_reserved": 0, "lat": 38.876563833333336, "fusion_lon": 0.0, "is_disabled": 0}, {"rental_uris": {"android": "https://dc.lft.to/lastmile_qr_scan", "ios": "https://dc.lft.to/lastmile_qr_scan"}, "type": "electric_scooter", "lon": -77.03203466666666, "name": "ce87f979c0c1da4c7d0223dfd6caeffd", "bike_id": "ce87f979c0c1da4c7d0223dfd6caeffd", "fusion_lat": 0.0, "is_reserved": 0, "lat": 38.91469983333333, "fusion_lon": 0.0, "is_disabled": 0}, {"rental_uris": {"android": "https://dc.lft.to/lastmile_qr_scan", "ios": "https://dc.lft.to/lastmile_qr_scan"}, "type": "electric_scooter", "lon": -77.02189616666666, "name": "21896ef9b6bcecb663154ab75b196b2b", "bike_id": "21896ef9b6bcecb663154ab75b196b2b", "fusion_lat": 0.0, "is_reserved": 0, "lat": 38.89482483333333, "fusion_lon": 0.0, "is_disabled": 0}, {"rental_uris": {"android": "https://dc.lft.to/lastmile_qr_scan", "ios": "https://dc.lft.to/lastmile_qr_scan"}, "type": "electric_scooter", "lon": -77.05062183333334, "name": "a141c2e50dffc114eb4ae4257c7d4188", "bike_id": "a141c2e50dffc114eb4ae4257c7d4188", "fusion_lat": 0.0, "is_reserved": 0, "lat": 38.90067783333333, "fusion_lon": 0.0, "is_disabled": 0}, {"rental_uris": {"android": "https://dc.lft.to/lastmile_qr_scan", "ios": "https://dc.lft.to/lastmile_qr_scan"}, "type": "electric_scooter", "lon": -77.04370783333333, "name": "a1b0f5bec3c109309e18a61321c419bb", "bike_id": "a1b0f5bec3c109309e18a61321c419bb", "fusion_lat": 0.0, "is_reserved": 0, "lat": 38.911067833333334, "fusion_lon": 0.0, "is_disabled": 0}, {"rental_uris": {"android": "https://dc.lft.to/lastmile_qr_scan", "ios": "https://dc.lft.to/lastmile_qr_scan"}, "type": "electric_scooter", "lon": -76.95181216666667, "name": "7a6391fc5d91d4e02695690274bae3ee", "bike_id": "7a6391fc5d91d4e02695690274bae3ee", "fusion_lat": 0.0, "is_reserved": 0, "lat": 38.891345, "fusion_lon": 0.0, "is_disabled": 0}, {"rental_uris": {"android": "https://dc.lft.to/lastmile_qr_scan", "ios": "https://dc.lft.to/lastmile_qr_scan"}, "type": "electric_scooter", "lon": -77.046141, "name": "8992d222f3621e0469e298dfe55bef69", "bike_id": "8992d222f3621e0469e298dfe55bef69", "fusion_lat": 0.0, "is_reserved": 0, "lat": 38.90670883333333, "fusion_lon": 0.0, "is_disabled": 0}, {"rental_uris": {"android": "https://dc.lft.to/lastmile_qr_scan", "ios": "https://dc.lft.to/lastmile_qr_scan"}, "type": "electric_scooter", "lon": -77.0159935, "name": "c832f0079a85ce7639faf900c0e32ca0", "bike_id": "c832f0079a85ce7639faf900c0e32ca0", "fusion_lat": 0.0, "is_reserved": 0, "lat": 38.96595283333333, "fusion_lon": 0.0, "is_disabled": 0}, {"rental_uris": {"android": "https://dc.lft.to/lastmile_qr_scan", "ios": "https://dc.lft.to/lastmile_qr_scan"}, "type": "electric_scooter", "lon": -77.02465616666667, "name": "918ceaf581ac9bc957b62116e2fcf14f", "bike_id": "918ceaf581ac9bc957b62116e2fcf14f", "fusion_lat": 0.0, "is_reserved": 0, "lat": 38.938664, "fusion_lon": 0.0, "is_disabled": 0}, {"rental_uris": {"android": "https://dc.lft.to/lastmile_qr_scan", "ios": "https://dc.lft.to/lastmile_qr_scan"}, "type": "electric_scooter", "lon": -77.01944983333334, "name": "d498b90f3c804e4097dce218b4d027df", "bike_id": "d498b90f3c804e4097dce218b4d027df", "fusion_lat": 0.0, "is_reserved": 0, "lat": 38.922597, "fusion_lon": 0.0, "is_disabled": 0}, {"rental_uris": {"android": "https://dc.lft.to/lastmile_qr_scan", "ios": "https://dc.lft.to/lastmile_qr_scan"}, "type": "electric_scooter", "lon": -77.04522983333334, "name": "d0aebebfb9c3763d6ba645e76162d695", "bike_id": "d0aebebfb9c3763d6ba645e76162d695", "fusion_lat": 0.0, "is_reserved": 0, "lat": 38.90236083333333, "fusion_lon": 0.0, "is_disabled": 0}, {"rental_uris": {"android": "https://dc.lft.to/lastmile_qr_scan", "ios": "https://dc.lft.to/lastmile_qr_scan"}, "type": "electric_bike", "lon": -77.0028675, "name": "7ceac4f0ba22451f51b31fca97356b64", "bike_id": "7ceac4f0ba22451f51b31fca97356b64", "fusion_lat": 0.0, "is_reserved": 0, "lat": 38.90596766666667, "fusion_lon": 0.0, "is_disabled": 0}, {"rental_uris": {"android": "https://dc.lft.to/lastmile_qr_scan", "ios": "https://dc.lft.to/lastmile_qr_scan"}, "type": "electric_bike", "lon": -77.02875266666666, "name": "833ee5ae3ba8814c6035dd092fd7186c", "bike_id": "833ee5ae3ba8814c6035dd092fd7186c", "fusion_lat": 0.0, "is_reserved": 0, "lat": 38.97943, "fusion_lon": 0.0, "is_disabled": 0}, {"rental_uris": {"android": "https://dc.lft.to/lastmile_qr_scan", "ios": "https://dc.lft.to/lastmile_qr_scan"},