{"data": {"bikes": [{"rental_uris": {"ios": "https://dc.lft.to/lastmile_qr_scan", "android": "https://dc.lft.to/lastmile_qr_scan"}, "lon": -77.023808, "type": "electric_scooter", "fusion_lat": 0.0, "lat": 38.9322955, "name": "32f60b222e0ff7c69451a2f7ef942088", "fusion_lon": 0.0, "bike_id": "32f60b222e0ff7c69451a2f7ef942088", "is_disabled": 0, "is_reserved": 0}, {"rental_uris": {"ios": "https://dc.lft.to/lastmile_qr_scan", "android": "https://dc.lft.to/lastmile_qr_scan"}, "lon": -76.98904366666666, "type": "electric_scooter", "fusion_lat": 0.0, "lat": 38.90011633333334, "name": "08c88ab937fdd893ee670b4bbc0b427a", "fusion_lon": 0.0, "bike_id": "08c88ab937fdd893ee670b4bbc0b427a", "is_disabled": 0, "is_reserved": 0}, {"rental_uris": {"ios": "https://dc.lft.to/lastmile_qr_scan", "android": "https://dc.lft.to/lastmile_qr_scan"}, "lon": -77.01379066666667, "type": "electric_scooter", "fusion_lat": 0.0, "lat": 38.8991405, "name": "c1613bcd4974cb7076af3749f1abdc62", "fusion_lon": 0.0, "bike_id": "c1613bcd4974cb7076af3749f1abdc62", "is_disabled": 0, "is_reserved": 0}, {"rental_uris": {"ios": "https://dc.lft.to/lastmile_qr_scan", "android": "https://dc.lft.to/lastmile_qr_scan"}, "lon": -77.02710266666666, "type": "electric_scooter", "fusion_lat": 0.0, "lat": 38.94999816666667, "name": "b64bf707ff817f920cdfc4ddff241f3f", "fusion_lon": 0.0, "bike_id": "b64bf707ff817f920cdfc4ddff241f3f", "is_disabled": 0, "is_reserved": 0}, {"rental_uris": {"ios": "https://dc.lft.to/lastmile_qr_scan", "android": "https://dc.lft.to/lastmile_qr_scan"}, "lon": -76.94632666666666, "type": "electric_scooter", "fusion_lat": 0.0, "lat": 38.898323, "name": "05a22755604eb78eeba879c9c4883733", "fusion_lon": 0.0, "bike_id": "05a22755604eb78eeba879c9c4883733", "is_disabled": 0, "is_reserved": 0}, {"rental_uris": {"ios": "https://dc.lft.to/lastmile_qr_scan", "android": "https://dc.lft.to/lastmile_qr_scan"}, "lon": -77.02018733333334, "type": "electric_scooter", "fusion_lat": 0.0, "lat": 38.913078166666665, "name": "955592262991a109c52c563a3960fd55", "fusion_lon": 0.0, "bike_id": "955592262991a109c52c563a3960fd55", "is_disabled": 0, "is_reserved": 0}, {"rental_uris": {"ios": "https://dc.lft.to/lastmile_qr_scan", "android": "https://dc.lft.to/lastmile_qr_scan"}, "lon": -77.10456016666667, "type": "electric_bike", "fusion_lat": 0.0, "lat": 38.89636866666667, "name": "32d802b9654a63dcba1e88973c76774f", "fusion_lon": 0.0, "bike_id": "32d802b9654a63dcba1e88973c76774f", "is_disabled": 0, "is_reserved": 0}, {"rental_uris": {"ios": "https://dc.lft.to/lastmile_qr_scan", "android": "https://dc.lft.to/lastmile_qr_scan"}, "lon": -76.97932283333333, "type": "electric_scooter", "fusion_lat": 0.0, "lat": 38.90671066666667, "name": "98b2d37d51a583593e011acf349b0704", "fusion_lon": 0.0, "bike_id": "98b2d37d51a583593e011acf349b0704", "is_disabled": 0, "is_reserved": 0}, {"rental_uris": {"ios": "https://dc.lft.to/lastmile_qr_scan", "android": "https://dc.lft.to/lastmile_qr_scan"}, "lon": -77.03465316666667, "type": "electric_scooter", "fusion_lat": 0.0, "lat": 38.918847166666666, "name": "7a30446e76021322a21e7c74f25f645e", "fusion_lon": 0.0, "bike_id": "7a30446e76021322a21e7c74f25f645e", "is_disabled": 0, "is_reserved": 0}, {"rental_uris": {"ios": "https://dc.lft.to/lastmile_qr_scan", "android": "https://dc.lft.to/lastmile_qr_scan"}, "lon": -77.0454595, "type": "electric_scooter", "fusion_lat": 0.0, "lat": 38.934071333333335, "name": "f0812f7cb6dfc62fce7b49375b05ecad", "fusion_lon": 0.0, "bike_id": "f0812f7cb6dfc62fce7b49375b05ecad", "is_disabled": 0, "is_reserved": 0}, {"rental_uris": {"ios": "https://dc.lft.to/lastmile_qr_scan", "android": "https://dc.lft.to/lastmile_qr_scan"}, "lon": -77.02586633333334, "type": "electric_scooter", "fusion_lat": 0.0, "lat": 38.92987766666667, "name": "5fbc78a1f7327e9eeb4198d083aa9e05", "fusion_lon": 0.0, "bike_id": "5fbc78a1f7327e9eeb4198d083aa9e05", "is_disabled": 0, "is_reserved": 0}, {"rental_uris": {"ios": "https://dc.lft.to/lastmile_qr_scan", "android": "https://dc.lft.to/lastmile_qr_scan"}, "lon": -77.031847, "type": "electric_scooter", "fusion_lat": 0.0, "lat": 38.91487983333333, "name": "b18c330c933d9861ad62aba076d02486", "fusion_lon": 0.0, "bike_id": "b18c330c933d9861ad62aba076d02486", "is_disabled": 0, "is_reserved": 0}, {"rental_uris": {"ios": "https://dc.lft.to/lastmile_qr_scan", "android": "https://dc.lft.to/lastmile_qr_scan"}, "lon": -77.01200966666667, "type": "electric_scooter", "fusion_lat": 0.0, "lat": 38.91563566666667, "name": "666569e52b71df8ac9d4a1f4381c1f4c", "fusion_lon": 0.0, "bike_id": "666569e52b71df8ac9d4a1f4381c1f4c", "is_disabled": 0, "is_reserved": 0}, {"rental_uris": {"ios": "https://dc.lft.to/lastmile_qr_scan", "android": "https://dc.lft.to/lastmile_qr_scan"}, "lon": -77.05739133333333, "type": "electric_scooter", "fusion_lat": 0.0, "lat": 38.933958833333335, "name": "1580aa57f2de59220cae56af45112152", "fusion_lon": 0.0, "bike_id": "1580aa57f2de59220cae56af45112152", "is_disabled": 0, "is_reserved": 0}, {"rental_uris": {"ios": "https://dc.lft.to/lastmile_qr_scan", "android": "https://dc.lft.to/lastmile_qr_scan"}, "lon": -77.02606066666667, "type": "electric_scooter", "fusion_lat": 0.0, "lat": 38.9170935, "name": "2e1aae34075c3a9d4a9f0b3cd5884675", "fusion_lon": 0.0, "bike_id": "2e1aae34075c3a9d4a9f0b3cd5884675", "is_disabled": 0, "is_reserved": 0}, {"rental_uris": {"ios": "https://dc.lft.to/lastmile_qr_scan", "android": "https://dc.lft.to/lastmile_qr_scan"}, "lon": -77.11519066666666, "type": "electric_bike", "fusion_lat": 0.0, "lat": 38.85491116666667, "name": "736d52cf1401bb0a7dcfa862e2849707", "fusion_lon": 0.0, "bike_id": "736d52cf1401bb0a7dcfa862e2849707", "is_disabled": 0, "is_reserved": 0}, {"rental_uris": {"ios": "https://dc.lft.to/lastmile_qr_scan", "android": "https://dc.lft.to/lastmile_qr_scan"}, "lon": -77.03266283333333, "type": "electric_scooter", "fusion_lat": 0.0, "lat": 38.930893166666664, "name": "085129defa815481af2f6a844a45ffb9", "fusion_lon": 0.0, "bike_id": "085129defa815481af2f6a844a45ffb9", "is_disabled": 0, "is_reserved": 0}, {"rental_uris": {"ios": "https://dc.lft.to/lastmile_qr_scan", "android": "https://dc.lft.to/lastmile_qr_scan"}, "lon": -77.03213866666667, "type": "electric_scooter", "fusion_lat": 0.0, "lat": 38.885602166666665, "name": "a0e866d24cac57ef39c9554ea6c6c078", "fusion_lon": 0.0, "bike_id": "a0e866d24cac57ef39c9554ea6c6c078", "is_disabled": 0, "is_reserved": 0}, {"rental_uris": {"ios": "https://dc.lft.to/lastmile_qr_scan", "android": "https://dc.lft.to/lastmile_qr_scan"}, "lon": -77.04797883333333, "type": "electric_scooter", "fusion_lat": 0.0, "lat": 38.9163455, "name": "2410fa9100f4c738ad5e230e24bff3ae", "fusion_lon": 0.0, "bike_id": "2410fa9100f4c738ad5e230e24bff3ae", "is_disabled": 0, "is_reserved": 0}, {"rental_uris": {"ios": "https://dc.lft.to/lastmile_qr_scan", "android": "https://dc.lft.to/lastmile_qr_scan"}, "lon": -77.002132, "type": "electric_scooter", "fusion_lat": 0.0, "lat": 38.911053, "name": "dee7cf044f7635855632f504d664311b", "fusion_lon": 0.0, "bike_id": "dee7cf044f7635855632f504d664311b", "is_disabled": 0, "is_reserved": 0}, {"rental_uris": {"ios": "https://dc.lft.to/lastmile_qr_scan", "android": "https://dc.lft.to/lastmile_qr_scan"}, "lon": -77.03176216666667, "type": "electric_scooter", "fusion_lat": 0.0, "lat": 38.913243333333334, "name": "2064a8d882b7c39ed7a316cb4ec88b24", "fusion_lon": 0.0, "bike_id": "2064a8d882b7c39ed7a316cb4ec88b24", "is_disabled": 0, "is_reserved": 0}, {"rental_uris": {"ios": "https://dc.lft.to/lastmile_qr_scan", "android": "https://dc.lft.to/lastmile_qr_scan"}, "lon": -76.99767066666666, "type": "electric_scooter", "fusion_lat": 0.0, "lat": 38.922, "name": "39bb5b67ea05080722ac4b1f25f8ca00", "fusion_lon": 0.0, "bike_id": "39bb5b67ea05080722ac4b1f25f8ca00", "is_disabled": 0, "is_reserved": 0}, {"rental_uris": {"ios": "https://dc.lft.to/lastmile_qr_scan", "android": "https://dc.lft.to/lastmile_qr_scan"}, "lon": -77.01788383333333, "type": "electric_scooter", "fusion_lat": 0.0, "lat": 38.904039166666664, "name": "cde4f2f2ffa70987c75deffd9fbcec38", "fusion_lon": 0.0, "bike_id": "cde4f2f2ffa70987c75deffd9fbcec38", "is_disabled": 0, "is_reserved": 0}, {"rental_uris": {"ios": "https://dc.lft.to/lastmile_qr_scan", "android": "https://dc.lft.to/lastmile_qr_scan"}, "lon": -77.02374433333334, "type": "electric_scooter", "fusion_lat": 0.0, "lat": 38.9030435, "name": "84702f8b9397b740a52d29e54b7b6d75", "fusion_lon": 0.0, "bike_id": "84702f8b9397b740a52d29e54b7b6d75", "is_disabled": 0, "is_reserved": 0}, {"rental_uris": {"ios": "https://dc.lft.to/lastmile_qr_scan", "android": "https://dc.lft.to/lastmile_qr_scan"}, "lon": -77.05682483333334, "type": "electric_scooter", "fusion_lat": 0.0, "lat": 38.9233315, "name": "1d117634ef6adc10fde3cd32c1bbf6ea", "fusion_lon": 0.0, "bike_id": "1d117634ef6adc10fde3cd32c1bbf6ea", "is_disabled": 0, "is_reserved": 0}, {"rental_uris": {"ios": "https://dc.lft.to/lastmile_qr_scan", "android": "https://dc.lft.to/lastmile_qr_scan"}, "lon": -77.019273, "type": "electric_scooter", "fusion_lat": 0.0, "lat": 38.956876666666666, "name": "8752dd23ae39b9b655ab33365c8a68c0", "fusion_lon": 0.0, "bike_id": "8752dd23ae39b9b655ab33365c8a68c0", "is_disabled": 0, "is_reserved": 0}, {"rental_uris": {"ios": "https://dc.lft.to/lastmile_qr_scan", "android": "https://dc.lft.to/lastmile_qr_scan"}, "lon": -77.03631133333333, "type": "electric_scooter", "fusion_lat": 0.0, "lat": 38.9285395, "name": "763e088beee3afd2964346e4e897a0ae", "fusion_lon": 0.0, "bike_id": "763e088beee3afd2964346e4e897a0ae", "is_disabled": 0, "is_reserved": 0}, {"rental_uris": {"ios": "https://dc.lft.to/lastmile_qr_scan", "android": "https://dc.lft.to/lastmile_qr_scan"}, "lon": -77.01136833333334, "type": "electric_scooter", "fusion_lat": 0.0, "lat": 38.907311, "name": "977023e541fb1fbbc6f401768b4009fb", "fusion_lon": 0.0, "bike_id": "977023e541fb1fbbc6f401768b4009fb", "is_disabled": 0, "is_reserved": 0}, {"rental_uris": {"ios": "https://dc.lft.to/lastmile_qr_scan", "android": "https://dc.lft.to/lastmile_qr_scan"}, "lon": -77.02975916666666, "type": "electric_scooter", "fusion_lat": 0.0, "lat": 38.92461, "name": "35d8dcfbe44f4f4652108d0ee8cc124b", "fusion_lon": 0.0, "bike_id": "35d8dcfbe44f4f4652108d0ee8cc124b", "is_disabled": 0, "is_reserved": 0}, {"rental_uris": {"ios": "https://dc.lft.to/lastmile_qr_scan", "android": "https://dc.lft.to/lastmile_qr_scan"}, "lon": -77.00629683333334, "type": "electric_scooter", "fusion_lat": 0.0, "lat": 38.829271166666665, "name": "65014a4b87ae99f945bab6c8cba65836", "fusion_lon": 0.0, "bike_id": "65014a4b87ae99f945bab6c8cba65836", "is_disabled": 0, "is_reserved": 0}, {"rental_uris": {"ios": "https://dc.lft.to/lastmile_qr_scan", "android": "https://dc.lft.to/lastmile_qr_scan"}, "lon": -77.04283616666666, "type": "electric_scooter", "fusion_lat": 0.0, "lat": 38.906535166666664, "name": "171f7fd5d12368cb5508ecb92e4c2f15", "fusion_lon": 0.0, "bike_id": "171f7fd5d12368cb5508ecb92e4c2f15", "is_disabled": 0, "is_reserved": 0}, {"rental_uris": {"ios": "https://dc.lft.to/lastmile_qr_scan", "android": "https://dc.lft.to/lastmile_qr_scan"}, "lon": -76.9955005, "type": "electric_scooter", "fusion_lat": 0.0, "lat": 38.8623385, "name": "ff5f12ea540412a2607f73f633c2494d", "fusion_lon": 0.0, "bike_id": "ff5f12ea540412a2607f73f633c2494d", "is_disabled": 0, "is_reserved": 0}, {"rental_uris": {"ios": "https://dc.lft.to/lastmile_qr_scan", "android": "https://dc.lft.to/lastmile_qr_scan"}, "lon": -77.032045, "type": "electric_scooter", "fusion_lat": 0.0, "lat": 38.91458133333333, "name": "e81238579f6c063a5cf28d796832a823", "fusion_lon": 0.0, "bike_id": "e81238579f6c063a5cf28d796832a823", "is_disabled": 0, "is_reserved": 0}, {"rental_uris": {"ios": "https://dc.lft.to/lastmile_qr_scan", "android": "https://dc.lft.to/lastmile_qr_scan"}, "lon": -77.0198895, "type": "electric_scooter", "fusion_lat": 0.0, "lat": 38.9378175, "name": "c8fb72bc24a2d19c515c5f6f288232fb", "fusion_lon": 0.0, "bike_id": "c8fb72bc24a2d19c515c5f6f288232fb", "is_disabled": 0, "is_reserved": 0}, {"rental_uris": {"ios": "https://dc.lft.to/lastmile_qr_scan", "android": "https://dc.lft.to/lastmile_qr_scan"}, "lon": -76.98309816666666, "type": "electric_scooter", "fusion_lat": 0.0, "lat": 38.89968983333333, "name": "dcde0098a10c9b7741fc8ec3870f1408", "fusion_lon": 0.0, "bike_id": "dcde0098a10c9b7741fc8ec3870f1408", "is_disabled": 0, "is_reserved": 0}, {"rental_uris": {"ios": "https://dc.lft.to/lastmile_qr_scan", "android": "https://dc.lft.to/lastmile_qr_scan"}, "lon": -77.0314255, "type": "electric_scooter", "fusion_lat": 0.0, "lat": 38.91269833333333, "name": "afc4e5c705e82f71327b9987de57fc4c", "fusion_lon": 0.0, "bike_id": "afc4e5c705e82f71327b9987de57fc4c", "is_disabled": 0, "is_reserved": 0}, {"rental_uris": {"ios": "https://dc.lft.to/lastmile_qr_scan", "android": "https://dc.lft.to/lastmile_qr_scan"}, "lon": -77.06466616666667, "type": "electric_scooter", "fusion_lat": 0.0, "lat": 38.905121666666666, "name": "1223711081a3bde54db5166ca6961c4e", "fusion_lon": 0.0, "bike_id": "1223711081a3bde54db5166ca6961c4e", "is_disabled": 0, "is_reserved": 0}, {"rental_uris": {"ios": "https://dc.lft.to/lastmile_qr_scan", "android": "https://dc.lft.to/lastmile_qr_scan"}, "lon": -77.01014783333333, "type": "electric_scooter", "fusion_lat": 0.0, "lat": 38.918070166666666, "name": "ef5007941f1f8852b81ba38607bd4a40", "fusion_lon": 0.0, "bike_id": "ef5007941f1f8852b81ba38607bd4a40", "is_disabled": 0, "is_reserved": 0}, {"rental_uris": {"ios": "https://dc.lft.to/lastmile_qr_scan", "android": "https://dc.lft.to/lastmile_qr_scan"}, "lon": -76.99, "type": "electric_scooter", "fusion_lat": 0.0, "lat": 38.903916333333335, "name": "95a78e4416950d6a2424ff85a89ed2f0", "fusion_lon": 0.0, "bike_id": "95a78e4416950d6a2424ff85a89ed2f0", "is_disabled": 0, "is_reserved": 0}, {"rental_uris": {"ios": "https://dc.lft.to/lastmile_qr_scan", "android": "https://dc.lft.to/lastmile_qr_scan"}, "lon": -77.02985316666667, "type": "electric_scooter", "fusion_lat": 0.0, "lat": 38.956280666666665, "name": "ee0fc56b7ba4bf55f9f154dbf52d5859", "fusion_lon": 0.0, "bike_id": "ee0fc56b7ba4bf55f9f154dbf52d5859", "is_disabled": 0, "is_reserved": 0}, {"rental_uris": {"ios": "https://dc.lft.to/lastmile_qr_scan", "android": "https://dc.lft.to/lastmile_qr_scan"}, "lon": -77.02649616666666, "type": "electric_scooter", "fusion_lat": 0.0, "lat": 38.97547983333333, "name": "9261c0579a99c508a08c4dc43911eff1", "fusion_lon": 0.0, "bike_id": "9261c0579a99c508a08c4dc43911eff1", "is_disabled": 0, "is_reserved": 0}, {"rental_uris": {"ios": "https://dc.lft.to/lastmile_qr_scan", "android": "https://dc.lft.to/lastmile_qr_scan"}, "lon": -77.07094816666667, "type": "electric_scooter", "fusion_lat": 0.0, "lat": 38.93363633333333, "name": "a6fc04cc3775bc606ef1da1f239d8397", "fusion_lon": 0.0, "bike_id": "a6fc04cc3775bc606ef1da1f239d8397", "is_disabled": 0, "is_reserved": 0}, {"rental_uris": {"ios": "https://dc.lft.to/lastmile_qr_scan", "android": "https://dc.lft.to/lastmile_qr_scan"}, "lon": -77.0325455, "type": "electric_scooter", "fusion_lat": 0.0, "lat": 38.928744, "name": "6e00c129c68f424566dbb19b6247ba33", "fusion_lon": 0.0, "bike_id": "6e00c129c68f424566dbb19b6247ba33", "is_disabled": 0, "is_reserved": 0}, {"rental_uris": {"ios": "https://dc.lft.to/lastmile_qr_scan", "android": "https://dc.lft.to/lastmile_qr_scan"}, "lon": -76.98203433333333, "type": "electric_scooter", "fusion_lat": 0.0, "lat": 38.8908675, "name": "d98fc69444704b86f40efdf78aa050ce", "fusion_lon": 0.0, "bike_id": "d98fc69444704b86f40efdf78aa050ce", "is_disabled": 0, "is_reserved": 0}, {"rental_uris": {"ios": "https://dc.lft.to/lastmile_qr_scan", "android": "https://dc.lft.to/lastmile_qr_scan"}, "lon": -77.0302265, "type": "electric_scooter", "fusion_lat": 0.0, "lat": 38.9224325, "name": "f9edb5451399b450caf72ab0ecd496bd", "fusion_lon": 0.0, "bike_id": "f9edb5451399b450caf72ab0ecd496bd", "is_disabled": 0, "is_reserved": 0}, {"rental_uris": {"ios": "https://dc.lft.to/lastmile_qr_scan", "android": "https://dc.lft.to/lastmile_qr_scan"}, "lon": -77.0241965, "type": "electric_scooter", "fusion_lat": 0.0, "lat": 38.917711833333335, "name": "1ee04d620e550aedab3199d452e2d07b", "fusion_lon": 0.0, "bike_id": "1ee04d620e550aedab3199d452e2d07b", "is_disabled": 0, "is_reserved": 0}, {"rental_uris": {"ios": "https://dc.lft.to/lastmile_qr_scan", "android": "https://dc.lft.to/lastmile_qr_scan"}, "lon": -77.0271485, "type": "electric_scooter", "fusion_lat": 0.0, "lat": 38.9122435, "name": "aee3c6bd56bb3818088c007e329d156e", "fusion_lon": 0.0, "bike_id": "aee3c6bd56bb3818088c007e329d156e", "is_disabled": 0, "is_reserved": 0}, {"rental_uris": {"ios": "https://dc.lft.to/lastmile_qr_scan", "android": "https://dc.lft.to/lastmile_qr_scan"}, "lon": -77.05515216666667, "type": "electric_scooter", "fusion_lat": 0.0, "lat": 38.929673333333334, "name": "12f33bd5c37d8a25947207e942a983a6", "fusion_lon": 0.0, "bike_id": "12f33bd5c37d8a25947207e942a983a6", "is_disabled": 0, "is_reserved": 0}, {"rental_uris": {"ios": "https://dc.lft.to/lastmile_qr_scan", "android": "https://dc.lft.to/lastmile_qr_scan"}, "lon": -77.026133, "type": "electric_scooter", "fusion_lat": 0.0, "lat": 38.95177316666667, "name": "a344041fd5d9796c37bd2f4a608d725e", "fusion_lon": 0.0, "bike_id": "a344041fd5d9796c37bd2f4a608d725e", "is_disabled": 0, "is_reserved": 0}, {"rental_uris": {"ios": "https://dc.lft.to/lastmile_qr_scan", "android": "https://dc.lft.to/lastmile_qr_scan"}, "lon": -77.03962083333333, "type": "electric_bike", "fusion_lat": 0.0, "lat": 38.80522166666667, "name": "51e4a75fa3e4e3ba7e3496642308d6a9", "fusion_lon": 0.0, "bike_id": "51e4a75fa3e4e3ba7e3496642308d6a9", "is_disabled": 0, "is_reserved": 0}, {"rental_uris": {"ios": "https://dc.lft.to/lastmile_qr_scan", "android": "https://dc.lft.to/lastmile_qr_scan"}, "lon": -77.02978133333333, "type": "electric_scooter", "fusion_lat": 0.0, "lat": 38.958330333333336, "name": "e06d4ca47cce8ff7bee2ec97446c6e7d", "fusion_lon": 0.0, "bike_id": "e06d4ca47cce8ff7bee2ec97446c6e7d", "is_disabled": 0, "is_reserved": 0}, {"rental_uris": {"ios": "https://dc.lft.to/lastmile_qr_scan", "android": "https://dc.lft.to/lastmile_qr_scan"}, "lon": -77.0893145, "type": "electric_bike", "fusion_lat": 0.0, "lat": 38.84091133333333, "name": "ddd96fc79aae7614b4e756a3903b47d6", "fusion_lon": 0.0, "bike_id": "ddd96fc79aae7614b4e756a3903b47d6", "is_disabled": 0, "is_reserved": 0}, {"rental_uris": {"ios": "https://dc.lft.to/lastmile_qr_scan", "android": "https://dc.lft.to/lastmile_qr_scan"}, "lon": -77.03954716666667, "type": "electric_scooter", "fusion_lat": 0.0, "lat": 38.926105166666666, "name": "376928b58e65e96d45b030d956ac0c68", "fusion_lon": 0.0, "bike_id": "376928b58e65e96d45b030d956ac0c68", "is_disabled": 0, "is_reserved": 0}, {"rental_uris": {"ios": "https://dc.lft.to/lastmile_qr_scan", "android": "https://dc.lft.to/lastmile_qr_scan"}, "lon": -77.04186133333333, "type": "electric_scooter", "fusion_lat": 0.0, "lat": 38.922076833333335, "name": "8ec10ca9a0747ce4ced1092dfabe909f", "fusion_lon": 0.0, "bike_id": "8ec10ca9a0747ce4ced1092dfabe909f", "is_disabled": 0, "is_reserved": 0}, {"rental_uris": {"ios": "https://dc.lft.to/lastmile_qr_scan", "android": "https://dc.lft.to/lastmile_qr_scan"}, "lon": -77.023549, "type": "electric_scooter", "fusion_lat": 0.0, "lat": 38.931964666666666, "name": "bde51c5194a0414a596df5b6abfd5a73", "fusion_lon": 0.0, "bike_id": "bde51c5194a0414a596df5b6abfd5a73", "is_disabled": 0, "is_reserved": 0}, {"rental_uris": {"ios": "https://dc.lft.to/lastmile_qr_scan", "android": "https://dc.lft.to/lastmile_qr_scan"}, "lon": -77.0364875, "type": "electric_scooter", "fusion_lat": 0.0, "lat": 38.90343266666667, "name": "027907df00c36183dd5de736a80bdeb0", "fusion_lon": 0.0, "bike_id": "027907df00c36183dd5de736a80bdeb0", "is_disabled": 0, "is_reserved": 0}, {"rental_uris": {"ios": "https://dc.lft.to/lastmile_qr_scan", "android": "https://dc.lft.to/lastmile_qr_scan"}, "lon": -77.00653033333333, "type": "electric_scooter", "fusion_lat": 0.0, "lat": 38.874857166666665, "name": "d8518cf637a72de05e93ed4a869714d4", "fusion_lon": 0.0, "bike_id": "d8518cf637a72de05e93ed4a869714d4", "is_disabled": 0, "is_reserved": 0}, {"rental_uris": {"ios": "https://dc.lft.to/lastmile_qr_scan", "android": "https://dc.lft.to/lastmile_qr_scan"}, "lon": -77.063415, "type": "electric_scooter", "fusion_lat": 0.0, "lat": 38.90281216666666, "name": "190cc98e03257a1e905bc950a7e01a3d", "fusion_lon": 0.0, "bike_id": "190cc98e03257a1e905bc950a7e01a3d", "is_disabled": 0, "is_reserved": 0}, {"rental_uris": {"ios": "https://dc.lft.to/lastmile_qr_scan", "android": "https://dc.lft.to/lastmile_qr_scan"}, "lon": -77.02978966666667, "type": "electric_scooter", "fusion_lat": 0.0, "lat": 38.96228, "name": "e17476230c52bbcbfd081fbd47b004c5", "fusion_lon": 0.0, "bike_id": "e17476230c52bbcbfd081fbd47b004c5", "is_disabled": 0, "is_reserved": 0}, {"rental_uris": {"ios": "https://dc.lft.to/lastmile_qr_scan", "android": "https://dc.lft.to/lastmile_qr_scan"}, "lon": -77.04101716666666, "type": "electric_scooter", "fusion_lat": 0.0, "lat": 38.918539833333334, "name": "d01afdfa7b3cfbec346957d6c0fffaa2", "fusion_lon": 0.0, "bike_id": "d01afdfa7b3cfbec346957d6c0fffaa2", "is_disabled": 0, "is_reserved": 0}, {"rental_uris": {"ios": "https://dc.lft.to/lastmile_qr_scan", "android": "https://dc.lft.to/lastmile_qr_scan"}, "lon": -76.99549166666667, "type": "electric_scooter", "fusion_lat": 0.0, "lat": 38.90025383333333, "name": "bca0274cc1c72020a4d581694d5f4777", "fusion_lon": 0.0, "bike_id": "bca0274cc1c72020a4d581694d5f4777", "is_disabled": 0, "is_reserved": 0}, {"rental_uris": {"ios": "https://dc.lft.to/lastmile_qr_scan", "android": "https://dc.lft.to/lastmile_qr_scan"}, "lon": -77.085382, "type": "electric_bike", "fusion_lat": 0.0, "lat": 38.85619666666667, "name": "d00e295812479d053602d38db651bcab", "fusion_lon": 0.0, "bike_id": "d00e295812479d053602d38db651bcab", "is_disabled": 0, "is_reserved": 0}, {"rental_uris": {"ios": "https://dc.lft.to/lastmile_qr_scan", "android": "https://dc.lft.to/lastmile_qr_scan"}, "lon": -76.96525166666666, "type": "electric_scooter", "fusion_lat": 0.0, "lat": 38.8762965, "name": "262bf146324ea69390d9866a6188d23d", "fusion_lon": 0.0, "bike_id": "262bf146324ea69390d9866a6188d23d", "is_disabled": 0, "is_reserved": 0}, {"rental_uris": {"ios": "https://dc.lft.to/lastmile_qr_scan", "android": "https://dc.lft.to/lastmile_qr_scan"}, "lon": -77.02963383333334, "type": "electric_bike", "fusion_lat": 0.0, "lat": 38.909372166666664, "name": "c078f44cbb29a2233b25d0829474fdc7", "fusion_lon": 0.0, "bike_id": "c078f44cbb29a2233b25d0829474fdc7", "is_disabled": 0, "is_reserved": 0}, {"rental_uris": {"ios": "https://dc.lft.to/lastmile_qr_scan", "android": "https://dc.lft.to/lastmile_qr_scan"}, "lon": -77.04371183333333, "type": "electric_bike", "fusion_lat": 0.0, "lat": 38.928052666666666, "name": "745c4f0865bba5e85961dd26eb8057fe", "fusion_lon": 0.0, "bike_id": "745c4f0865bba5e85961dd26eb8057fe", "is_disabled": 0, "is_reserved": 0}, {"rental_uris": {"ios": "https://dc.lft.to/lastmile_qr_scan", "android": "https://dc.lft.to/lastmile_qr_scan"}, "lon": -77.03293633333334, "type": "electric_scooter", "fusion_lat": 0.0, "lat": 38.91120433333333, "name": "85b0d34c7656058dba368d6d1c224944", "fusion_lon": 0.0, "bike_id": "85b0d34c7656058dba368d6d1c224944", "is_disabled": 0, "is_reserved": 0}, {"rental_uris": {"ios": "https://dc.lft.to/lastmile_qr_scan", "android": "https://dc.lft.to/lastmile_qr_scan"}, "lon": -77.04353983333333, "type": "electric_scooter", "fusion_lat": 0.0, "lat": 38.906629, "name": "a11cfa4740ca1dd024acbf4faae60273", "fusion_lon": 0.0, "bike_id": "a11cfa4740ca1dd024acbf4faae60273", "is_disabled": 0, "is_reserved": 0}, {"rental_uris": {"ios": "https://dc.lft.to/lastmile_qr_scan", "android": "https://dc.lft.to/lastmile_qr_scan"}, "lon": -76.99968516666667, "type": "electric_scooter", "fusion_lat": 0.0, "lat": 38.906957, "name": "6fdd15cba9bfd40af217dbefef6b76de", "fusion_lon": 0.0, "bike_id": "6fdd15cba9bfd40af217dbefef6b76de", "is_disabled": 0, "is_reserved": 0}, {"rental_uris": {"ios": "https://dc.lft.to/lastmile_qr_scan", "android": "https://dc.lft.to/lastmile_qr_scan"}, "lon": -77.01108716666667, "type": "electric_scooter", "fusion_lat": 0.0, "lat": 38.90366, "name": "95509ece285225f8968d299d31dbc738", "fusion_lon": 0.0, "bike_id": "95509ece285225f8968d299d31dbc738", "is_disabled": 0, "is_reserved": 0}, {"rental_uris": {"ios": "https://dc.lft.to/lastmile_qr_scan", "android": "https://dc.lft.to/lastmile_qr_scan"}, "lon": -76.95356416666667, "type": "electric_bike", "fusion_lat": 0.0, "lat": 38.93951533333333, "name": "bcbbe46ecc179189ee46e28888f2c841", "fusion_lon": 0.0, "bike_id": "bcbbe46ecc179189ee46e28888f2c841", "is_disabled": 0, "is_reserved": 0}, {"rental_uris": {"ios": "https://dc.lft.to/lastmile_qr_scan", "android": "https://dc.lft.to/lastmile_qr_scan"}, "lon": -77.1784105, "type": "electric_bike", "fusion_lat": 0.0, "lat": 39.08855883333333, "name": "86bfe98dc5711dd29351e904a3f71fe4", "fusion_lon": 0.0, "bike_id": "86bfe98dc5711dd29351e904a3f71fe4", "is_disabled": 0, "is_reserved": 0}, {"rental_uris": {"ios": "https://dc.lft.to/lastmile_qr_scan", "android": "https://dc.lft.to/lastmile_qr_scan"}, "lon": -77.05146533333334, "type": "electric_scooter", "fusion_lat": 0.0, "lat": 38.92370666666667, "name": "64d2f53cd90c6946ca8b21d956e2bcf9", "fusion_lon": 0.0, "bike_id": "64d2f53cd90c6946ca8b21d956e2bcf9", "is_disabled": 0, "is_reserved": 0}, {"rental_uris": {"ios": "https://dc.lft.to/lastmile_qr_scan", "android": "https://dc.lft.to/lastmile_qr_scan"}, "lon": -77.0426915, "type": "electric_scooter", "fusion_lat": 0.0, "lat": 38.91782966666667, "name": "c7f410de4037c9720683195a923cc0ba", "fusion_lon": 0.0, "bike_id": "c7f410de4037c9720683195a923cc0ba", "is_disabled": 0, "is_reserved": 0}, {"rental_uris": {"ios": "https://dc.lft.to/lastmile_qr_scan", "android": "https://dc.lft.to/lastmile_qr_scan"}, "lon": -77.01997983333334, "type": "electric_scooter", "fusion_lat": 0.0, "lat": 38.877491666666664, "name": "4f1edcfa0455cbd1cf244c898228a30f", "fusion_lon": 0.0, "bike_id": "4f1edcfa0455cbd1cf244c898228a30f", "is_disabled": 0, "is_reserved": 0}, {"rental_uris": {"ios": "https://dc.lft.to/lastmile_qr_scan", "android": "https://dc.lft.to/lastmile_qr_scan"}, "lon": -76.98902366666667, "type": "electric_scooter", "fusion_lat": 0.0, "lat": 38.866921, "name": "7ac733ec22f9ef249e69c85a694acaf3", "fusion_lon": 0.0, "bike_id": "7ac733ec22f9ef249e69c85a694acaf3", "is_disabled": 0, "is_reserved": 0}, {"rental_uris": {"ios": "https://dc.lft.to/lastmile_qr_scan", "android": "https://dc.lft.to/lastmile_qr_scan"}, "lon": -77.026083, "type": "electric_scooter", "fusion_lat": 0.0, "lat": 38.897534, "name": "a1f63e6e86f7733a93d951c039287d19", "fusion_lon": 0.0, "bike_id": "a1f63e6e86f7733a93d951c039287d19", "is_disabled": 0, "is_reserved": 0}, {"rental_uris": {"ios": "https://dc.lft.to/lastmile_qr_scan", "android": "https://dc.lft.to/lastmile_qr_scan"}, "lon": -77.04303416666667, "type": "electric_bike", "fusion_lat": 0.0, "lat": 39.05445533333334, "name": "a8995e02fa5fe3c24e9f495272b15f3d", "fusion_lon": 0.0, "bike_id": "a8995e02fa5fe3c24e9f495272b15f3d", "is_disabled": 0, "is_reserved": 0}, {"rental_uris": {"ios": "https://dc.lft.to/lastmile_qr_scan", "android": "https://dc.lft.to/lastmile_qr_scan"}, "lon": -77.05138966666667, "type": "electric_scooter", "fusion_lat": 0.0, "lat": 38.905272833333335, "name": "d6f76de9a719de96d365f959c0c88f60", "fusion_lon": 0.0, "bike_id": "d6f76de9a719de96d365f959c0c88f60", "is_disabled": 0, "is_reserved": 0}, {"rental_uris": {"ios": "https://dc.lft.to/lastmile_qr_scan", "android": "https://dc.lft.to/lastmile_qr_scan"}, "lon": -76.99044533333333, "type": "electric_bike", "fusion_lat": 0.0, "lat": 38.9248325, "name": "ab6acf9b087015cecdcd820c0050f892", "fusion_lon": 0.0, "bike_id": "ab6acf9b087015cecdcd820c0050f892", "is_disabled": 0, "is_reserved": 0}, {"rental_uris": {"ios": "https://dc.lft.to/lastmile_qr_scan", "android": "https://dc.lft.to/lastmile_qr_scan"}, "lon": -77.07085366666666, "type": "electric_bike", "fusion_lat": 0.0, "lat": 38.9556045, "name": "ae3f8caad79e323cb352fe9c3b5ba017", "fusion_lon": 0.0, "bike_id": "ae3f8caad79e323cb352fe9c3b5ba017", "is_disabled": 0, "is_reserved": 0}, {"rental_uris": {"ios": "https://dc.lft.to/lastmile_qr_scan", "android": "https://dc.lft.to/lastmile_qr_scan"}, "lon": -77.03471683333333, "type": "electric_scooter", "fusion_lat": 0.0, "lat": 38.90274816666667, "name": "219b1afefe441322bdc39b52fb71422a", "fusion_lon": 0.0, "bike_id": "219b1afefe441322bdc39b52fb71422a", "is_disabled": 0, "is_reserved": 0}, {"rental_uris": {"ios": "https://dc.lft.to/lastmile_qr_scan", "android": "https://dc.lft.to/lastmile_qr_scan"}, "lon": -77.0238705, "type": "electric_scooter", "fusion_lat": 0.0, "lat": 38.91670933333333, "name": "71d299267c5e5957a71869bc85a5ae96", "fusion_lon": 0.0, "bike_id": "71d299267c5e5957a71869bc85a5ae96", "is_disabled": 0, "is_reserved": 0}, {"rental_uris": {"ios": "https://dc.lft.to/lastmile_qr_scan", "android": "https://dc.lft.to/lastmile_qr_scan"}, "lon": -77.0235065, "type": "electric_scooter", "fusion_lat": 0.0, "lat": 38.93179666666666, "name": "055044b12263d15a5aad6ed2efe8ed4e", "fusion_lon": 0.0, "bike_id": "055044b12263d15a5aad6ed2efe8ed4e", "is_disabled": 0, "is_reserved": 0}, {"rental_uris": {"ios": "https://dc.lft.to/lastmile_qr_scan", "android": "https://dc.lft.to/lastmile_qr_scan"}, "lon": -76.92369616666667, "type": "electric_bike", "fusion_lat": 0.0, "lat": 38.883749, "name": "9524189ae05f53d4f94791a65c045f9f", "fusion_lon": 0.0, "bike_id": "9524189ae05f53d4f94791a65c045f9f", "is_disabled": 0, "is_reserved": 0}, {"rental_uris": {"ios": "https://dc.lft.to/lastmile_qr_scan", "android": "https://dc.lft.to/lastmile_qr_scan"}, "lon": -77.03226333333333, "type": "electric_scooter", "fusion_lat": 0.0, "lat": 38.904848333333334, "name": "643c7c201c08656404fde313ff5b061c", "fusion_lon": 0.0, "bike_id": "643c7c201c08656404fde313ff5b061c", "is_disabled": 0, "is_reserved": 0}, {"rental_uris": {"ios": "https://dc.lft.to/lastmile_qr_scan", "android": "https://dc.lft.to/lastmile_qr_scan"}, "lon": -77.02258116666667, "type": "electric_scooter", "fusion_lat": 0.0, "lat": 38.898571833333335, "name": "ad03a063be354cc811ec8c69c106354c", "fusion_lon": 0.0, "bike_id": "ad03a063be354cc811ec8c69c106354c", "is_disabled": 0, "is_reserved": 0}, {"rental_uris": {"ios": "https://dc.lft.to/lastmile_qr_scan", "android": "https://dc.lft.to/lastmile_qr_scan"}, "lon": -77.02199616666667, "type": "electric_scooter", "fusion_lat": 0.0, "lat": 38.921605, "name": "df6b5a9b24eea70f82cc0cd23eec178b", "fusion_lon": 0.0, "bike_id": "df6b5a9b24eea70f82cc0cd23eec178b", "is_disabled": 0, "is_reserved": 0}, {"rental_uris": {"ios": "https://dc.lft.to/lastmile_qr_scan", "android": "https://dc.lft.to/lastmile_qr_scan"}, "lon": -77.00335066666666, "type": "electric_scooter", "fusion_lat": 0.0, "lat": 38.874963666666666, "name": "a1004567f961becee1f8c7ff699ec191", "fusion_lon": 0.0, "bike_id": "a1004567f961becee1f8c7ff699ec191", "is_disabled": 0, "is_reserved": 0}, {"rental_uris": {"ios": "https://dc.lft.to/lastmile_qr_scan", "android": "https://dc.lft.to/lastmile_qr_scan"}, "lon": -76.93174466666666, "type": "electric_scooter", "fusion_lat": 0.0, "lat": 38.898847833333335, "name": "54a5cd9af6c80ea30c13de120a2a737b", "fusion_lon": 0.0, "bike_id": "54a5cd9af6c80ea30c13de120a2a737b", "is_disabled": 0, "is_reserved": 0}, {"rental_uris": {"ios": "https://dc.lft.to/lastmile_qr_scan", "android": "https://dc.lft.to/lastmile_qr_scan"}, "lon": -77.03328883333333, "type": "electric_scooter", "fusion_lat": 0.0, "lat": 38.9013765, "name": "77b8c4735f9ae4baad7cd632c1779601", "fusion_lon": 0.0, "bike_id": "77b8c4735f9ae4baad7cd632c1779601", "is_disabled": 0, "is_reserved": 0}, {"rental_uris": {"ios": "https://dc.lft.to/lastmile_qr_scan", "android": "https://dc.lft.to/lastmile_qr_scan"}, "lon": -77.0154775, "type": "electric_scooter", "fusion_lat": 0.0, "lat": 38.9026445, "name": "66d42766f5b82e3139c101818513cae8", "fusion_lon": 0.0, "bike_id": "66d42766f5b82e3139c101818513cae8", "is_disabled": 0, "is_reserved": 0}, {"rental_uris": {"ios": "https://dc.lft.to/lastmile_qr_scan", "android": "https://dc.lft.to/lastmile_qr_scan"}, "lon": -77.019969, "type": "electric_scooter", "fusion_lat": 0.0, "lat": 38.914228666666666, "name": "a94946bc29d89bb8aff2e1cf6510dca6", "fusion_lon": 0.0, "bike_id": "a94946bc29d89bb8aff2e1cf6510dca6", "is_disabled": 0, "is_reserved": 0}, {"rental_uris": {"ios": "https://dc.lft.to/lastmile_qr_scan", "android": "https://dc.lft.to/lastmile_qr_scan"}, "lon": -77.02233833333334, "type": "electric_scooter", "fusion_lat": 0.0, "lat": 38.902262666666665, "name": "ccbc61563c2f7df028258b0b6fc5aaaf", "fusion_lon": 0.0, "bike_id": "ccbc61563c2f7df028258b0b6fc5aaaf", "is_disabled": 0, "is_reserved": 0}, {"rental_uris": {"ios": "https://dc.lft.to/lastmile_qr_scan", "android": "https://dc.lft.to/lastmile_qr_scan"}, "lon": -77.098744, "type": "electric_bike", "fusion_lat": 0.0, "lat": 38.947867333333335, "name": "d1ebe41a241840b7c3c4232d4d8e1d5d", "fusion_lon": 0.0, "bike_id": "d1ebe41a241840b7c3c4232d4d8e1d5d", "is_disabled": 0, "is_reserved": 0}, {"rental_uris": {"ios": "https://dc.lft.to/lastmile_qr_scan", "android": "https://dc.lft.to/lastmile_qr_scan"}, "lon": -77.04801566666667, "type": "electric_scooter", "fusion_lat": 0.0, "lat": 38.89617833333333, "name": "f2e2fbbc52dcaaf92ee14e635f87d481", "fusion_lon": 0.0, "bike_id": "f2e2fbbc52dcaaf92ee14e635f87d481", "is_disabled": 0, "is_reserved": 0}, {"rental_uris": {"ios": "https://dc.lft.to/lastmile_qr_scan", "android": "https://dc.lft.to/lastmile_qr_scan"}, "lon": -77.112121, "type": "electric_bike", "fusion_lat": 0.0, "lat": 38.813053333333336, "name": "4c34f934f0817096a561aec46a9bd48b", "fusion_lon": 0.0, "bike_id": "4c34f934f0817096a561aec46a9bd48b", "is_disabled": 0, "is_reserved": 0}, {"rental_uris": {"ios": "https://dc.lft.to/lastmile_qr_scan", "android": "https://dc.lft.to/lastmile_qr_scan"}, "lon": -77.03319016666667, "type": "electric_scooter", "fusion_lat": 0.0, "lat": 38.89882983333333, "name": "32a16c9d17ef7983cb1ddddd7e24c6e5", "fusion_lon": 0.0, "bike_id": "32a16c9d17ef7983cb1ddddd7e24c6e5", "is_disabled": 0, "is_reserved": 0}, {"rental_uris": {"ios": "https://dc.lft.to/lastmile_qr_scan", "android": "https://dc.lft.to/lastmile_qr_scan"}, "lon": -76.93521816666667, "type": "electric_bike", "fusion_lat": 0.0, "lat": 38.95534933333333, "name": "99ceb1fc11b1932114ba93a7244f0183", "fusion_lon": 0.0, "bike_id": "99ceb1fc11b1932114ba93a7244f0183", "is_disabled": 0, "is_reserved": 0}, {"rental_uris": {"ios": "https://dc.lft.to/lastmile_qr_scan", "android": "https://dc.lft.to/lastmile_qr_scan"}, "lon": -77.12260016666667, "type": "electric_bike", "fusion_lat": 0.0, "lat": 38.891902, "name": "766be402e5ff1c2d59d6a6741621df48", "fusion_lon": 0.0, "bike_id": "766be402e5ff1c2d59d6a6741621df48", "is_disabled": 0, "is_reserved": 0}, {"rental_uris": {"ios": "https://dc.lft.to/lastmile_qr_scan", "android": "https://dc.lft.to/lastmile_qr_scan"}, "lon": -77.0326465, "type": "electric_scooter", "fusion_lat": 0.0, "lat": 38.929129833333334, "name": "17e6372051a1109553882e62950d9161", "fusion_lon": 0.0, "bike_id": "17e6372051a1109553882e62950d9161", "is_disabled": 0, "is_reserved": 0}, {"rental_uris": {"ios": "https://dc.lft.to/lastmile_qr_scan", "android": "https://dc.lft.to/lastmile_qr_scan"}, "lon": -77.02390233333334, "type": "electric_scooter", "fusion_lat": 0.0, "lat": 38.9159755, "name": "a26d3c19d7ddb383aea3228d13a13d4f", "fusion_lon": 0.0, "bike_id": "a26d3c19d7ddb383aea3228d13a13d4f", "is_disabled": 0, "is_reserved": 0}, {"rental_uris": {"ios": "https://dc.lft.to/lastmile_qr_scan", "android": "https://dc.lft.to/lastmile_qr_scan"}, "lon": -77.07682583333333, "type": "electric_bike", "fusion_lat": 0.0, "lat": 38.83194866666667, "name": "38c960b37f7fee17a1b3c240d4f66d54", "fusion_lon": 0.0, "bike_id": "38c960b37f7fee17a1b3c240d4f66d54", "is_disabled": 0, "is_reserved": 0}, {"rental_uris": {"ios": "https://dc.lft.to/lastmile_qr_scan", "android": "https://dc.lft.to/lastmile_qr_scan"}, "lon": -76.9574935, "type": "electric_scooter", "fusion_lat": 0.0, "lat": 38.88435966666667, "name": "057e7c8879cecfaf69ef6bd6ae81763d", "fusion_lon": 0.0, "bike_id": "057e7c8879cecfaf69ef6bd6ae81763d", "is_disabled": 0, "is_reserved": 0}, {"rental_uris": {"ios": "https://dc.lft.to/lastmile_qr_scan", "android": "https://dc.lft.to/lastmile_qr_scan"}, "lon": -77.02917133333334, "type": "electric_scooter", "fusion_lat": 0.0, "lat": 38.8984845, "name": "2d6ba6321ef0b1952202aed521e12076", "fusion_lon": 0.0, "bike_id": "2d6ba6321ef0b1952202aed521e12076", "is_disabled": 0, "is_reserved": 0}, {"rental_uris": {"ios": "https://dc.lft.to/lastmile_qr_scan", "android": "https://dc.lft.to/lastmile_qr_scan"}, "lon": -77.11224783333333, "type": "electric_bike", "fusion_lat": 0.0, "lat": 38.82869983333333, "name": "7c9412595ebf7ebf7bce79686666a0d0", "fusion_lon": 0.0, "bike_id": "7c9412595ebf7ebf7bce79686666a0d0", "is_disabled": 0, "is_reserved": 0}, {"rental_uris": {"ios": "https://dc.lft.to/lastmile_qr_scan", "android": "https://dc.lft.to/lastmile_qr_scan"}, "lon": -77.04737083333333, "type": "electric_scooter", "fusion_lat": 0.0, "lat": 38.90228616666667, "name": "4606087ba6dd5f5fcf560942b69ab2f5", "fusion_lon": 0.0, "bike_id": "4606087ba6dd5f5fcf560942b69ab2f5", "is_disabled": 0, "is_reserved": 0}, {"rental_uris": {"ios": "https://dc.lft.to/lastmile_qr_scan", "android": "https://dc.lft.to/lastmile_qr_scan"}, "lon": -77.036757, "type": "electric_scooter", "fusion_lat": 0.0, "lat": 38.93654333333333, "name": "97babb32a266355f6e8603f101edbdbb", "fusion_lon": 0.0, "bike_id": "97babb32a266355f6e8603f101edbdbb", "is_disabled": 0, "is_reserved": 0}, {"rental_uris": {"ios": "https://dc.lft.to/lastmile_qr_scan", "android": "https://dc.lft.to/lastmile_qr_scan"}, "lon": -77.04323516666666, "type": "electric_scooter", "fusion_lat": 0.0, "lat": 38.91486616666667, "name": "3b54721c9dae647ee40d78d0502c0336", "fusion_lon": 0.0, "bike_id": "3b54721c9dae647ee40d78d0502c0336", "is_disabled": 0, "is_reserved": 0}, {"rental_uris": {"ios": "https://dc.lft.to/lastmile_qr_scan", "android": "https://dc.lft.to/lastmile_qr_scan"}, "lon": -77.05193, "type": "electric_scooter", "fusion_lat": 0.0, "lat": 38.9240965, "name": "2f2bf36a73fe22ef342b57a44085caef", "fusion_lon": 0.0, "bike_id": "2f2bf36a73fe22ef342b57a44085caef", "is_disabled": 0, "is_reserved": 0}, {"rental_uris": {"ios": "https://dc.lft.to/lastmile_qr_scan", "android": "https://dc.lft.to/lastmile_qr_scan"}, "lon": -76.94631833333334, "type": "electric_scooter", "fusion_lat": 0.0, "lat": 38.898314166666665, "name": "9f65386f65c119042fd9332ae1d5065c", "fusion_lon": 0.0, "bike_id": "9f65386f65c119042fd9332ae1d5065c", "is_disabled": 0, "is_reserved": 0}, {"rental_uris": {"ios": "https://dc.lft.to/lastmile_qr_scan", "android": "https://dc.lft.to/lastmile_qr_scan"}, "lon": -77.02207783333333, "type": "electric_scooter", "fusion_lat": 0.0, "lat": 38.9097065, "name": "7dd0590379fd34aeda15000e41c238cb", "fusion_lon": 0.0, "bike_id": "7dd0590379fd34aeda15000e41c238cb", "is_disabled": 0, "is_reserved": 0}, {"rental_uris": {"ios": "https://dc.lft.to/lastmile_qr_scan", "android": "https://dc.lft.to/lastmile_qr_scan"}, "lon": -77.09548716666667, "type": "electric_bike", "fusion_lat": 0.0, "lat": 38.83731483333333, "name": "ac91653fbaf1a17843a88587050a62aa", "fusion_lon": 0.0, "bike_id": "ac91653fbaf1a17843a88587050a62aa", "is_disabled": 0, "is_reserved": 0}, {"rental_uris": {"ios": "https://dc.lft.to/lastmile_qr_scan", "android": "https://dc.lft.to/lastmile_qr_scan"}, "lon": -77.00375183333334, "type": "electric_bike", "fusion_lat": 0.0, "lat": 38.836071833333335, "name": "07e30d49d30aea603c3c5587d461dd11", "fusion_lon": 0.0, "bike_id": "07e30d49d30aea603c3c5587d461dd11", "is_disabled": 0, "is_reserved": 0}, {"rental_uris": {"ios": "https://dc.lft.to/lastmile_qr_scan", "android": "https://dc.lft.to/lastmile_qr_scan"}, "lon": -76.9906705, "type": "electric_scooter", "fusion_lat": 0.0, "lat": 38.86353283333333, "name": "9478c160cc2ad40f85e3511ad19107ad", "fusion_lon": 0.0, "bike_id": "9478c160cc2ad40f85e3511ad19107ad", "is_disabled": 0, "is_reserved": 0}, {"rental_uris": {"ios": "https://dc.lft.to/lastmile_qr_scan", "android": "https://dc.lft.to/lastmile_qr_scan"}, "lon": -77.018477, "type": "electric_bike", "fusion_lat": 0.0, "lat": 38.904088, "name": "7942a0258152071b4a4cfdfc3bc50b1e", "fusion_lon": 0.0, "bike_id": "7942a0258152071b4a4cfdfc3bc50b1e", "is_disabled": 0, "is_reserved": 0}, {"rental_uris": {"ios": "https://dc.lft.to/lastmile_qr_scan", "android": "https://dc.lft.to/lastmile_qr_scan"}, "lon": -77.0275575, "type": "electric_scooter", "fusion_lat": 0.0, "lat": 38.9561845, "name": "af98e3f065b2008a8f64cda37bf3489f", "fusion_lon": 0.0, "bike_id": "af98e3f065b2008a8f64cda37bf3489f", "is_disabled": 0, "is_reserved": 0}, {"rental_uris": {"ios": "https://dc.lft.to/lastmile_qr_scan", "android": "https://dc.lft.to/lastmile_qr_scan"}, "lon": -77.00368966666667, "type": "electric_scooter", "fusion_lat": 0.0, "lat": 38.838065666666665, "name": "a58b4cd1c93e9896de0c5eb7d8a1f270", "fusion_lon": 0.0, "bike_id": "a58b4cd1c93e9896de0c5eb7d8a1f270", "is_disabled": 0, "is_reserved": 0}, {"rental_uris": {"ios": "https://dc.lft.to/lastmile_qr_scan", "android": "https://dc.lft.to/lastmile_qr_scan"}, "lon": -77.050764, "type": "electric_scooter", "fusion_lat": 0.0, "lat": 38.9003265, "name": "194afe15c8c0819a25de7464ca214cfc", "fusion_lon": 0.0, "bike_id": "194afe15c8c0819a25de7464ca214cfc", "is_disabled": 0, "is_reserved": 0}, {"rental_uris": {"ios": "https://dc.lft.to/lastmile_qr_scan", "android": "https://dc.lft.to/lastmile_qr_scan"}, "lon": -77.06438533333333, "type": "electric_scooter", "fusion_lat": 0.0, "lat": 38.90948516666667, "name": "52a963f1078d54cd8040f38311fba6da", "fusion_lon": 0.0, "bike_id": "52a963f1078d54cd8040f38311fba6da", "is_disabled": 0, "is_reserved": 0}, {"rental_uris": {"ios": "https://dc.lft.to/lastmile_qr_scan", "android": "https://dc.lft.to/lastmile_qr_scan"}, "lon": -77.131806, "type": "electric_bike", "fusion_lat": 0.0, "lat": 38.86910066666667, "name": "70faec7a32676099288c56f91b4bc59e", "fusion_lon": 0.0, "bike_id": "70faec7a32676099288c56f91b4bc59e", "is_disabled": 0, "is_reserved": 0}, {"rental_uris": {"ios": "https://dc.lft.to/lastmile_qr_scan", "android": "https://dc.lft.to/lastmile_qr_scan"}, "lon": -77.02222133333333, "type": "electric_scooter", "fusion_lat": 0.0, "lat": 38.916326166666664, "name": "a28761b311c432ef8fbf1cf1a7e8258f", "fusion_lon": 0.0, "bike_id": "a28761b311c432ef8fbf1cf1a7e8258f", "is_disabled": 0, "is_reserved": 0}, {"rental_uris": {"ios": "https://dc.lft.to/lastmile_qr_scan", "android": "https://dc.lft.to/lastmile_qr_scan"}, "lon": -77.039233, "type": "electric_scooter", "fusion_lat": 0.0, "lat": 38.92101616666667, "name": "5c717f83ded6c2f9c51a170516321222", "fusion_lon": 0.0, "bike_id": "5c717f83ded6c2f9c51a170516321222", "is_disabled": 0, "is_reserved": 0}, {"rental_uris": {"ios": "https://dc.lft.to/lastmile_qr_scan", "android": "https://dc.lft.to/lastmile_qr_scan"}, "lon": -77.03148416666667, "type": "electric_scooter", "fusion_lat": 0.0, "lat": 38.91271416666667, "name": "d36d49dc93ef623d541433d4a4980b3b", "fusion_lon": 0.0, "bike_id": "d36d49dc93ef623d541433d4a4980b3b", "is_disabled": 0, "is_reserved": 0}, {"rental_uris": {"ios": "https://dc.lft.to/lastmile_qr_scan", "android": "https://dc.lft.to/lastmile_qr_scan"}, "lon": -77.036272, "type": "electric_scooter", "fusion_lat": 0.0, "lat": 38.9371175, "name": "e84c8c2a71d90e0c1bd62adf8408759b", "fusion_lon": 0.0, "bike_id": "e84c8c2a71d90e0c1bd62adf8408759b", "is_disabled": 0, "is_reserved": 0}, {"rental_uris": {"ios": "https://dc.lft.to/lastmile_qr_scan", "android": "https://dc.lft.to/lastmile_qr_scan"}, "lon": -76.97425316666667, "type": "electric_bike", "fusion_lat": 0.0, "lat": 38.86412283333333, "name": "6972d1048e1065c6cf596a91ab9402f7", "fusion_lon": 0.0, "bike_id": "6972d1048e1065c6cf596a91ab9402f7", "is_disabled": 0, "is_reserved": 0}, {"rental_uris": {"ios": "https://dc.lft.to/lastmile_qr_scan", "android": "https://dc.lft.to/lastmile_qr_scan"}, "lon": -77.01981816666667, "type": "electric_bike", "fusion_lat": 0.0, "lat": 38.96478, "name": "4039538d532d77ed034ec94ddf68ac4e", "fusion_lon": 0.0, "bike_id": "4039538d532d77ed034ec94ddf68ac4e", "is_disabled": 0, "is_reserved": 0}, {"rental_uris": {"ios": "https://dc.lft.to/lastmile_qr_scan", "android": "https://dc.lft.to/lastmile_qr_scan"}, "lon": -77.02504683333333, "type": "electric_scooter", "fusion_lat": 0.0, "lat": 38.88029266666667, "name": "61303d0d000961a8575c9c47ca4d2109", "fusion_lon": 0.0, "bike_id": "61303d0d000961a8575c9c47ca4d2109", "is_disabled": 0, "is_reserved": 0}, {"rental_uris": {"ios": "https://dc.lft.to/lastmile_qr_scan", "android": "https://dc.lft.to/lastmile_qr_scan"}, "lon": -76.949431, "type": "electric_scooter", "fusion_lat": 0.0, "lat": 38.88378983333333, "name": "d44c19a00f4d43bb1c22c1ffe2920b44", "fusion_lon": 0.0, "bike_id": "d44c19a00f4d43bb1c22c1ffe2920b44", "is_disabled": 0, "is_reserved": 0}, {"rental_uris": {"ios": "https://dc.lft.to/lastmile_qr_scan", "android": "https://dc.lft.to/lastmile_qr_scan"}, "lon": -77.03310433333333, "type": "electric_scooter", "fusion_lat": 0.0, "lat": 38.90145583333333, "name": "16180d02ac74d26c04e79591c435377d", "fusion_lon": 0.0, "bike_id": "16180d02ac74d26c04e79591c435377d", "is_disabled": 0, "is_reserved": 0}, {"rental_uris": {"ios": "https://dc.lft.to/lastmile_qr_scan", "android": "https://dc.lft.to/lastmile_qr_scan"}, "lon": -77.01534066666666, "type": "electric_scooter", "fusion_lat": 0.0, "lat": 38.8982165, "name": "53eb6cafa00a3718bd1d31e7a821bd8f", "fusion_lon": 0.0, "bike_id": "53eb6cafa00a3718bd1d31e7a821bd8f", "is_disabled": 0, "is_reserved": 0}, {"rental_uris": {"ios": "https://dc.lft.to/lastmile_qr_scan", "android": "https://dc.lft.to/lastmile_qr_scan"}, "lon": -76.9574405, "type": "electric_scooter", "fusion_lat": 0.0, "lat": 38.892176666666664, "name": "833b7443fe240c755c06034930a7045f", "fusion_lon": 0.0, "bike_id": "833b7443fe240c755c06034930a7045f", "is_disabled": 0, "is_reserved": 0}, {"rental_uris": {"ios": "https://dc.lft.to/lastmile_qr_scan", "android": "https://dc.lft.to/lastmile_qr_scan"}, "lon": -76.97728466666666, "type": "electric_scooter", "fusion_lat": 0.0, "lat": 38.87291416666667, "name": "f305c2bcb296474c033ba3cb5c81823f", "fusion_lon": 0.0, "bike_id": "f305c2bcb296474c033ba3cb5c81823f", "is_disabled": 0, "is_reserved": 0}, {"rental_uris": {"ios": "https://dc.lft.to/lastmile_qr_scan", "android": "https://dc.lft.to/lastmile_qr_scan"}, "lon": -76.99775416666667, "type": "electric_scooter", "fusion_lat": 0.0, "lat": 38.844249833333336, "name": "78404855ac3a88acc1f7ec57498ade30", "fusion_lon": 0.0, "bike_id": "78404855ac3a88acc1f7ec57498ade30", "is_disabled": 0, "is_reserved": 0}, {"rental_uris": {"ios": "https://dc.lft.to/lastmile_qr_scan", "android": "https://dc.lft.to/lastmile_qr_scan"}, "lon": -77.029645, "type": "electric_scooter", "fusion_lat": 0.0, "lat": 38.90058766666667, "name": "bfc523166c198a9a85c06dea2a58752a", "fusion_lon": 0.0, "bike_id": "bfc523166c198a9a85c06dea2a58752a", "is_disabled": 0, "is_reserved": 0}, {"rental_uris": {"ios": "https://dc.lft.to/lastmile_qr_scan", "android": "https://dc.lft.to/lastmile_qr_scan"}, "lon": -77.04284333333334, "type": "electric_scooter", "fusion_lat": 0.0, "lat": 38.907255666666664, "name": "4eae2551ad39703781e33244779333ff", "fusion_lon": 0.0, "bike_id": "4eae2551ad39703781e33244779333ff", "is_disabled": 0, "is_reserved": 0}, {"rental_uris": {"ios": "https://dc.lft.to/lastmile_qr_scan", "android": "https://dc.lft.to/lastmile_qr_scan"}, "lon": -77.03781116666667, "type": "electric_bike", "fusion_lat": 0.0, "lat": 38.996832166666664, "name": "50c29babfb7c08415a635142e61fe51f", "fusion_lon": 0.0, "bike_id": "50c29babfb7c08415a635142e61fe51f", "is_disabled": 0, "is_reserved": 0}, {"rental_uris": {"ios": "https://dc.lft.to/lastmile_qr_scan", "android": "https://dc.lft.to/lastmile_qr_scan"}, "lon": -77.03263916666667, "type": "electric_scooter", "fusion_lat": 0.0, "lat": 38.93446316666667, "name": "e46eff5d8697f9efced624886284466c", "fusion_lon": 0.0, "bike_id": "e46eff5d8697f9efced624886284466c", "is_disabled": 0, "is_reserved": 0}, {"rental_uris": {"ios": "https://dc.lft.to/lastmile_qr_scan", "android": "https://dc.lft.to/lastmile_qr_scan"}, "lon": -77.04442483333334, "type": "electric_scooter", "fusion_lat": 0.0, "lat": 38.90583783333334, "name": "e69bb862a6e60c36c78cdc56c150362a", "fusion_lon": 0.0, "bike_id": "e69bb862a6e60c36c78cdc56c150362a", "is_disabled": 0, "is_reserved": 0}, {"rental_uris": {"ios": "https://dc.lft.to/lastmile_qr_scan", "android": "https://dc.lft.to/lastmile_qr_scan"}, "lon": -77.02335483333333, "type": "electric_scooter", "fusion_lat": 0.0, "lat": 38.8847835, "name": "08e10816c74660d430885ae1a8fdbc62", "fusion_lon": 0.0, "bike_id": "08e10816c74660d430885ae1a8fdbc62", "is_disabled": 0, "is_reserved": 0}, {"rental_uris": {"ios": "https://dc.lft.to/lastmile_qr_scan", "android": "https://dc.lft.to/lastmile_qr_scan"}, "lon": -77.03070966666667, "type": "electric_scooter", "fusion_lat": 0.0, "lat": 38.89972233333334, "name": "64e29904f349c7f920cef2455d392121", "fusion_lon": 0.0, "bike_id": "64e29904f349c7f920cef2455d392121", "is_disabled": 0, "is_reserved": 0}, {"rental_uris": {"ios": "https://dc.lft.to/lastmile_qr_scan", "android": "https://dc.lft.to/lastmile_qr_scan"}, "lon": -77.00490616666667, "type": "electric_scooter", "fusion_lat": 0.0, "lat": 38.905581, "name": "5b62954b7f08aa65788af8b8df05402e", "fusion_lon": 0.0, "bike_id": "5b62954b7f08aa65788af8b8df05402e", "is_disabled": 0, "is_reserved": 0}, {"rental_uris": {"ios": "https://dc.lft.to/lastmile_qr_scan", "android": "https://dc.lft.to/lastmile_qr_scan"}, "lon": -77.02978366666666, "type": "electric_bike", "fusion_lat": 0.0, "lat": 38.924413, "name": "dfdd42a1815b9d858ff6f28d15decd6b", "fusion_lon": 0.0, "bike_id": "dfdd42a1815b9d858ff6f28d15decd6b", "is_disabled": 0, "is_reserved": 0}, {"rental_uris": {"ios": "https://dc.lft.to/lastmile_qr_scan", "android": "https://dc.lft.to/lastmile_qr_scan"}, "lon": -77.0590055, "type": "electric_scooter", "fusion_lat": 0.0, "lat": 38.90081033333333, "name": "7191060d958172b1ba0b6d0bfedc8366", "fusion_lon": 0.0, "bike_id": "7191060d958172b1ba0b6d0bfedc8366", "is_disabled": 0, "is_reserved": 0}, {"rental_uris": {"ios": "https://dc.lft.to/lastmile_qr_scan", "android": "https://dc.lft.to/lastmile_qr_scan"}, "lon": -77.03659566666667, "type": "electric_scooter", "fusion_lat": 0.0, "lat": 38.91714, "name": "0ccc65b1414ed27ac658802db0f77cf3", "fusion_lon": 0.0, "bike_id": "0ccc65b1414ed27ac658802db0f77cf3", "is_disabled": 0, "is_reserved": 0}, {"rental_uris": {"ios": "https://dc.lft.to/lastmile_qr_scan", "android": "https://dc.lft.to/lastmile_qr_scan"}, "lon": -77.0268715, "type": "electric_bike", "fusion_lat": 0.0, "lat": 38.9113815, "name": "78213f9de0167a44729550868b433f63", "fusion_lon": 0.0, "bike_id": "78213f9de0167a44729550868b433f63", "is_disabled": 0, "is_reserved": 0}, {"rental_uris": {"ios": "https://dc.lft.to/lastmile_qr_scan", "android": "https://dc.lft.to/lastmile_qr_scan"}, "lon": -77.05512766666666, "type": "electric_scooter", "fusion_lat": 0.0, "lat": 38.9283515, "name": "91d5fa57fabfdd7688e3d6235b1e5a96", "fusion_lon": 0.0, "bike_id": "91d5fa57fabfdd7688e3d6235b1e5a96", "is_disabled": 0, "is_reserved": 0}, {"rental_uris": {"ios": "https://dc.lft.to/lastmile_qr_scan", "android": "https://dc.lft.to/lastmile_qr_scan"}, "lon": -77.06989216666666, "type": "electric_bike", "fusion_lat": 0.0, "lat": 38.95267616666667, "name": "6561072c5e839e3369ca72b5c9f758f0", "fusion_lon": 0.0, "bike_id": "6561072c5e839e3369ca72b5c9f758f0", "is_disabled": 0, "is_reserved": 0}, {"rental_uris": {"ios": "https://dc.lft.to/lastmile_qr_scan", "android": "https://dc.lft.to/lastmile_qr_scan"}, "lon": -77.01618766666667, "type": "electric_scooter", "fusion_lat": 0.0, "lat": 38.90658083333334, "name": "fd1e5ac3a5c5aad538e1b7dc668aab3b", "fusion_lon": 0.0, "bike_id": "fd1e5ac3a5c5aad538e1b7dc668aab3b", "is_disabled": 0, "is_reserved": 0}, {"rental_uris": {"ios": "https://dc.lft.to/lastmile_qr_scan", "android": "https://dc.lft.to/lastmile_qr_scan"}, "lon": -77.02401016666667, "type": "electric_scooter", "fusion_lat": 0.0, "lat": 38.90598633333333, "name": "685d89d429321c718d6d6be5c5a9b142", "fusion_lon": 0.0, "bike_id": "685d89d429321c718d6d6be5c5a9b142", "is_disabled": 0, "is_reserved": 0}, {"rental_uris": {"ios": "https://dc.lft.to/lastmile_qr_scan", "android": "https://dc.lft.to/lastmile_qr_scan"}, "lon": -77.06917133333333, "type": "electric_bike", "fusion_lat": 0.0, "lat": 38.90977983333333, "name": "8bc6b96b82572c445b07a6383294ab93", "fusion_lon": 0.0, "bike_id": "8bc6b96b82572c445b07a6383294ab93", "is_disabled": 0, "is_reserved": 0}, {"rental_uris": {"ios": "https://dc.lft.to/lastmile_qr_scan", "android": "https://dc.lft.to/lastmile_qr_scan"}, "lon": -77.0753795, "type": "electric_bike", "fusion_lat": 0.0, "lat": 38.90685083333334, "name": "34ec0def819b6d0e3ab263bae266ce5a", "fusion_lon": 0.0, "bike_id": "34ec0def819b6d0e3ab263bae266ce5a", "is_disabled": 0, "is_reserved": 0}, {"rental_uris": {"ios": "https://dc.lft.to/lastmile_qr_scan", "android": "https://dc.lft.to/lastmile_qr_scan"}, "lon": -77.03207033333334, "type": "electric_scooter", "fusion_lat": 0.0, "lat": 38.91156333333333, "name": "9e3c96e88e2b4de654161cd9f36387f8", "fusion_lon": 0.0, "bike_id": "9e3c96e88e2b4de654161cd9f36387f8", "is_disabled": 0, "is_reserved": 0}, {"rental_uris": {"ios": "https://dc.lft.to/lastmile_qr_scan", "android": "https://dc.lft.to/lastmile_qr_scan"}, "lon": -77.03657283333334, "type": "electric_scooter", "fusion_lat": 0.0, "lat": 38.907963333333335, "name": "2868f49d4b6f27278908953702b272ca", "fusion_lon": 0.0, "bike_id": "2868f49d4b6f27278908953702b272ca", "is_disabled": 0, "is_reserved": 0}, {"rental_uris": {"ios": "https://dc.lft.to/lastmile_qr_scan", "android": "https://dc.lft.to/lastmile_qr_scan"}, "lon": -76.98841350000001, "type": "electric_scooter", "fusion_lat": 0.0, "lat": 38.892927, "name": "8c8a7ae673f5fe0442649a2680b7e40f", "fusion_lon": 0.0, "bike_id": "8c8a7ae673f5fe0442649a2680b7e40f", "is_disabled": 0, "is_reserved": 0}, {"rental_uris": {"ios": "https://dc.lft.to/lastmile_qr_scan", "android": "https://dc.lft.to/lastmile_qr_scan"}, "lon": -76.9973745, "type": "electric_scooter", "fusion_lat": 0.0, "lat": 38.9001675, "name": "275fb43e51973b7c401800ad986edbe5", "fusion_lon": 0.0, "bike_id": "275fb43e51973b7c401800ad986edbe5", "is_disabled": 0, "is_reserved": 0}, {"rental_uris": {"ios": "https://dc.lft.to/lastmile_qr_scan", "android": "https://dc.lft.to/lastmile_qr_scan"}, "lon": -77.10704416666667, "type": "electric_bike", "fusion_lat": 0.0, "lat": 38.855581, "name": "d373c4adb1b4d224e75dfe08485b5e36", "fusion_lon": 0.0, "bike_id": "d373c4adb1b4d224e75dfe08485b5e36", "is_disabled": 0, "is_reserved": 0}, {"rental_uris": {"ios": "https://dc.lft.to/lastmile_qr_scan", "android": "https://dc.lft.to/lastmile_qr_scan"}, "lon": -77.02897783333333, "type": "electric_scooter", "fusion_lat": 0.0, "lat": 38.9045555, "name": "b387b0e7297a49b87bb8502523ac4542", "fusion_lon": 0.0, "bike_id": "b387b0e7297a49b87bb8502523ac4542", "is_disabled": 0, "is_reserved": 0}, {"rental_uris": {"ios": "https://dc.lft.to/lastmile_qr_scan", "android": "https://dc.lft.to/lastmile_qr_scan"}, "lon": -77.0637535, "type": "electric_scooter", "fusion_lat": 0.0, "lat": 38.90521483333333, "name": "caa0da87927222868192ea7aec80aa1c", "fusion_lon": 0.0, "bike_id": "caa0da87927222868192ea7aec80aa1c", "is_disabled": 0, "is_reserved": 0}, {"rental_uris": {"ios": "https://dc.lft.to/lastmile_qr_scan", "android": "https://dc.lft.to/lastmile_qr_scan"}, "lon": -77.01172566666666, "type": "electric_scooter", "fusion_lat": 0.0, "lat": 38.90024983333333, "name": "5cdc074f1563d82ee8215cac410c64fb", "fusion_lon": 0.0, "bike_id": "5cdc074f1563d82ee8215cac410c64fb", "is_disabled": 0, "is_reserved": 0}, {"rental_uris": {"ios": "https://dc.lft.to/lastmile_qr_scan", "android": "https://dc.lft.to/lastmile_qr_scan"}, "lon": -77.02353133333334, "type": "electric_scooter", "fusion_lat": 0.0, "lat": 38.931609333333334, "name": "2dbd2266ae94de07457aa6b2f407e68e", "fusion_lon": 0.0, "bike_id": "2dbd2266ae94de07457aa6b2f407e68e", "is_disabled": 0, "is_reserved": 0}, {"rental_uris": {"ios": "https://dc.lft.to/lastmile_qr_scan", "android": "https://dc.lft.to/lastmile_qr_scan"}, "lon": -76.96848783333333, "type": "electric_scooter", "fusion_lat": 0.0, "lat": 38.874667, "name": "d97f6f00dc5a48940b739a95341694b2", "fusion_lon": 0.0, "bike_id": "d97f6f00dc5a48940b739a95341694b2", "is_disabled": 0, "is_reserved": 0}, {"rental_uris": {"ios": "https://dc.lft.to/lastmile_qr_scan", "android": "https://dc.lft.to/lastmile_qr_scan"}, "lon": -77.00305916666667, "type": "electric_scooter", "fusion_lat": 0.0, "lat": 38.8876405, "name": "5ce106d38bca497f4e088ec986946800", "fusion_lon": 0.0, "bike_id": "5ce106d38bca497f4e088ec986946800", "is_disabled": 0, "is_reserved": 0}, {"rental_uris": {"ios": "https://dc.lft.to/lastmile_qr_scan", "android": "https://dc.lft.to/lastmile_qr_scan"}, "lon": -77.00735683333333, "type": "electric_scooter", "fusion_lat": 0.0, "lat": 38.955206833333335, "name": "f4d15513d318004992b93cee6f5b5695", "fusion_lon": 0.0, "bike_id": "f4d15513d318004992b93cee6f5b5695", "is_disabled": 0, "is_reserved": 0}, {"rental_uris": {"ios": "https://dc.lft.to/lastmile_qr_scan", "android": "https://dc.lft.to/lastmile_qr_scan"}, "lon": -77.061145, "type": "electric_scooter", "fusion_lat": 0.0, "lat": 38.912927333333336, "name": "b03af03e6dee0858fe4be24d3a465266", "fusion_lon": 0.0, "bike_id": "b03af03e6dee0858fe4be24d3a465266", "is_disabled": 0, "is_reserved": 0}, {"rental_uris": {"ios": "https://dc.lft.to/lastmile_qr_scan", "android": "https://dc.lft.to/lastmile_qr_scan"}, "lon": -77.04233416666666, "type": "electric_scooter", "fusion_lat": 0.0, "lat": 38.921528333333335, "name": "cd8ec277a7e20490084705fcd0629c5e", "fusion_lon": 0.0, "bike_id": "cd8ec277a7e20490084705fcd0629c5e", "is_disabled": 0, "is_reserved": 0}, {"rental_uris": {"ios": "https://dc.lft.to/lastmile_qr_scan", "android": "https://dc.lft.to/lastmile_qr_scan"}, "lon": -77.0400175, "type": "electric_scooter", "fusion_lat": 0.0, "lat": 38.900360166666665, "name": "af57bff2ebbcc3639355822d90930a27", "fusion_lon": 0.0, "bike_id": "af57bff2ebbcc3639355822d90930a27", "is_disabled": 0, "is_reserved": 0}, {"rental_uris": {"ios": "https://dc.lft.to/lastmile_qr_scan", "android": "https://dc.lft.to/lastmile_qr_scan"}, "lon": -77.032398, "type": "electric_scooter", "fusion_lat": 0.0, "lat": 38.9125415, "name": "3a7f0de634d7c01f3930015b1c4d389c", "fusion_lon": 0.0, "bike_id": "3a7f0de634d7c01f3930015b1c4d389c", "is_disabled": 0, "is_reserved": 0}, {"rental_uris": {"ios": "https://dc.lft.to/lastmile_qr_scan", "android": "https://dc.lft.to/lastmile_qr_scan"}, "lon": -76.99000433333333, "type": "electric_scooter", "fusion_lat": 0.0, "lat": 38.86506416666667, "name": "fe2787fdb4c74cc1900aa7038e78f766", "fusion_lon": 0.0, "bike_id": "fe2787fdb4c74cc1900aa7038e78f766", "is_disabled": 0, "is_reserved": 0}, {"rental_uris": {"ios": "https://dc.lft.to/lastmile_qr_scan", "android": "https://dc.lft.to/lastmile_qr_scan"}, "lon": -77.0412795, "type": "electric_scooter", "fusion_lat": 0.0, "lat": 38.924334333333334, "name": "59df16154fe86d4561ba44eeb52a0556", "fusion_lon": 0.0, "bike_id": "59df16154fe86d4561ba44eeb52a0556", "is_disabled": 0, "is_reserved": 0}, {"rental_uris": {"ios": "https://dc.lft.to/lastmile_qr_scan", "android": "https://dc.lft.to/lastmile_qr_scan"}, "lon": -77.00673166666667, "type": "electric_scooter", "fusion_lat": 0.0, "lat": 38.90008483333333, "name": "ded7320f9fad70f7c6ffd6ef9469cb95", "fusion_lon": 0.0, "bike_id": "ded7320f9fad70f7c6ffd6ef9469cb95", "is_disabled": 0, "is_reserved": 0}, {"rental_uris": {"ios": "https://dc.lft.to/lastmile_qr_scan", "android": "https://dc.lft.to/lastmile_qr_scan"}, "lon": -77.05367233333334, "type": "electric_scooter", "fusion_lat": 0.0, "lat": 38.927156833333335, "name": "b2495ed56e9516fb48ea8ff491f9e46c", "fusion_lon": 0.0, "bike_id": "b2495ed56e9516fb48ea8ff491f9e46c", "is_disabled": 0, "is_reserved": 0}, {"rental_uris": {"ios": "https://dc.lft.to/lastmile_qr_scan", "android": "https://dc.lft.to/lastmile_qr_scan"}, "lon": -77.089419, "type": "electric_bike", "fusion_lat": 0.0, "lat": 38.841038, "name": "997cb889e13f845567e5731c2868ff6d", "fusion_lon": 0.0, "bike_id": "997cb889e13f845567e5731c2868ff6d", "is_disabled": 0, "is_reserved": 0}, {"rental_uris": {"ios": "https://dc.lft.to/lastmile_qr_scan", "android": "https://dc.lft.to/lastmile_qr_scan"}, "lon": -77.00281516666666, "type": "electric_scooter", "fusion_lat": 0.0, "lat": 38.89744366666667, "name": "8813e087a69c077e949c327644fd5ff6", "fusion_lon": 0.0, "bike_id": "8813e087a69c077e949c327644fd5ff6", "is_disabled": 0, "is_reserved": 0}, {"rental_uris": {"ios": "https://dc.lft.to/lastmile_qr_scan", "android": "https://dc.lft.to/lastmile_qr_scan"}, "lon": -77.029548, "type": "electric_scooter", "fusion_lat": 0.0, "lat": 38.91586233333334, "name": "d2be075f94feca465914f4c268152902", "fusion_lon": 0.0, "bike_id": "d2be075f94feca465914f4c268152902", "is_disabled": 0, "is_reserved": 0}, {"rental_uris": {"ios": "https://dc.lft.to/lastmile_qr_scan", "android": "https://dc.lft.to/lastmile_qr_scan"}, "lon": -77.0472425, "type": "electric_scooter", "fusion_lat": 0.0, "lat": 38.9021005, "name": "bb50273efeb35d77f1841710742e4dd3", "fusion_lon": 0.0, "bike_id": "bb50273efeb35d77f1841710742e4dd3", "is_disabled": 0, "is_reserved": 0}, {"rental_uris": {"ios": "https://dc.lft.to/lastmile_qr_scan", "android": "https://dc.lft.to/lastmile_qr_scan"}, "lon": -77.0317935, "type": "electric_scooter", "fusion_lat": 0.0, "lat": 38.91326333333333, "name": "33d7b2611d2370315bfbd48e2d060213", "fusion_lon": 0.0, "bike_id": "33d7b2611d2370315bfbd48e2d060213", "is_disabled": 0, "is_reserved": 0}, {"rental_uris": {"ios": "https://dc.lft.to/lastmile_qr_scan", "android": "https://dc.lft.to/lastmile_qr_scan"}, "lon": -77.04857533333333, "type": "electric_scooter", "fusion_lat": 0.0, "lat": 38.90376083333334, "name": "cfadaec46342960d085c15c66d5aae70", "fusion_lon": 0.0, "bike_id": "cfadaec46342960d085c15c66d5aae70", "is_disabled": 0, "is_reserved": 0}, {"rental_uris": {"ios": "https://dc.lft.to/lastmile_qr_scan", "android": "https://dc.lft.to/lastmile_qr_scan"}, "lon": -77.05688483333333, "type": "electric_scooter", "fusion_lat": 0.0, "lat": 38.90535533333333, "name": "f79b4924b199e4357316cf1c978ba83b", "fusion_lon": 0.0, "bike_id": "f79b4924b199e4357316cf1c978ba83b", "is_disabled": 0, "is_reserved": 0}, {"rental_uris": {"ios": "https://dc.lft.to/lastmile_qr_scan", "android": "https://dc.lft.to/lastmile_qr_scan"}, "lon": -77.1050785, "type": "electric_bike", "fusion_lat": 0.0, "lat": 38.92848883333333, "name": "e6404eff33e8e7cc563bd0b811390153", "fusion_lon": 0.0, "bike_id": "e6404eff33e8e7cc563bd0b811390153", "is_disabled": 0, "is_reserved": 0}, {"rental_uris": {"ios": "https://dc.lft.to/lastmile_qr_scan", "android": "https://dc.lft.to/lastmile_qr_scan"}, "lon": -76.96864583333333, "type": "electric_scooter", "fusion_lat": 0.0, "lat": 38.86065216666667, "name": "1f0278831f94b7b6101d67ff7c318ef5", "fusion_lon": 0.0, "bike_id": "1f0278831f94b7b6101d67ff7c318ef5", "is_disabled": 0, "is_reserved": 0}, {"rental_uris": {"ios": "https://dc.lft.to/lastmile_qr_scan", "android": "https://dc.lft.to/lastmile_qr_scan"}, "lon": -77.01529883333333, "type": "electric_scooter", "fusion_lat": 0.0, "lat": 38.88741316666667, "name": "b86507f9ea50433db32c927d17b49b19", "fusion_lon": 0.0, "bike_id": "b86507f9ea50433db32c927d17b49b19", "is_disabled": 0, "is_reserved": 0}, {"rental_uris": {"ios": "https://dc.lft.to/lastmile_qr_scan", "android": "https://dc.lft.to/lastmile_qr_scan"}, "lon": -77.03412233333333, "type": "electric_scooter", "fusion_lat": 0.0, "lat": 38.924292666666666, "name": "1616255c18f1d78c066c1e3c6c9dc9f3", "fusion_lon": 0.0, "bike_id": "1616255c18f1d78c066c1e3c6c9dc9f3", "is_disabled": 0, "is_reserved": 0}, {"rental_uris": {"ios": "https://dc.lft.to/lastmile_qr_scan", "android": "https://dc.lft.to/lastmile_qr_scan"}, "lon": -76.95677166666667, "type": "electric_bike", "fusion_lat": 0.0, "lat": 38.94728666666666, "name": "77867650015757879192454aaf26e695", "fusion_lon": 0.0, "bike_id": "77867650015757879192454aaf26e695", "is_disabled": 0, "is_reserved": 0}, {"rental_uris": {"ios": "https://dc.lft.to/lastmile_qr_scan", "android": "https://dc.lft.to/lastmile_qr_scan"}, "lon": -77.03952616666666, "type": "electric_scooter", "fusion_lat": 0.0, "lat": 38.90128433333334, "name": "2f36150419d7d25b4357f40fc52cbf25", "fusion_lon": 0.0, "bike_id": "2f36150419d7d25b4357f40fc52cbf25", "is_disabled": 0, "is_reserved": 0}, {"rental_uris": {"ios": "https://dc.lft.to/lastmile_qr_scan", "android": "https://dc.lft.to/lastmile_qr_scan"}, "lon": -76.93960616666666, "type": "electric_scooter", "fusion_lat": 0.0, "lat": 38.89971216666667, "name": "24b7dbe59f79f7a6f98ef0fdc325535e", "fusion_lon": 0.0, "bike_id": "24b7dbe59f79f7a6f98ef0fdc325535e", "is_disabled": 0, "is_reserved": 0}, {"rental_uris": {"ios": "https://dc.lft.to/lastmile_qr_scan", "android": "https://dc.lft.to/lastmile_qr_scan"}, "lon": -77.05992133333334, "type": "electric_scooter", "fusion_lat": 0.0, "lat": 38.905147, "name": "0768de84d9361b546bd8394350a356d9", "fusion_lon": 0.0, "bike_id": "0768de84d9361b546bd8394350a356d9", "is_disabled": 0, "is_reserved": 0}, {"rental_uris": {"ios": "https://dc.lft.to/lastmile_qr_scan", "android": "https://dc.lft.to/lastmile_qr_scan"}, "lon": -77.05561816666666, "type": "electric_scooter", "fusion_lat": 0.0, "lat": 38.92533983333333, "name": "62f7ac758a58edb5c97a39d73412fbcc", "fusion_lon": 0.0, "bike_id": "62f7ac758a58edb5c97a39d73412fbcc", "is_disabled": 0, "is_reserved": 0}, {"rental_uris": {"ios": "https://dc.lft.to/lastmile_qr_scan", "android": "https://dc.lft.to/lastmile_qr_scan"}, "lon": -76.99516816666667, "type": "electric_scooter", "fusion_lat": 0.0, "lat": 38.86262216666667, "name": "2fd67b52142b0e34a5e2023c003cd850", "fusion_lon": 0.0, "bike_id": "2fd67b52142b0e34a5e2023c003cd850", "is_disabled": 0, "is_reserved": 0}, {"rental_uris": {"ios": "https://dc.lft.to/lastmile_qr_scan", "android": "https://dc.lft.to/lastmile_qr_scan"}, "lon": -76.92877516666667, "type": "electric_scooter", "fusion_lat": 0.0, "lat": 38.88445016666667, "name": "87f38ab42f5ee6d41cc0a9c4d947c5fe", "fusion_lon": 0.0, "bike_id": "87f38ab42f5ee6d41cc0a9c4d947c5fe", "is_disabled": 0, "is_reserved": 0}, {"rental_uris": {"ios": "https://dc.lft.to/lastmile_qr_scan", "android": "https://dc.lft.to/lastmile_qr_scan"}, "lon": -76.93884516666667, "type": "electric_scooter", "fusion_lat": 0.0, "lat": 38.89105166666667, "name": "45a47b8fe102a0ccda063a392ef5d8a0", "fusion_lon": 0.0, "bike_id": "45a47b8fe102a0ccda063a392ef5d8a0", "is_disabled": 0, "is_reserved": 0}, {"rental_uris": {"ios": "https://dc.lft.to/lastmile_qr_scan", "android": "https://dc.lft.to/lastmile_qr_scan"}, "lon": -77.048621, "type": "electric_scooter", "fusion_lat": 0.0, "lat": 38.89224633333333, "name": "f3079ab7f7931476da18542bdd1c4108", "fusion_lon": 0.0, "bike_id": "f3079ab7f7931476da18542bdd1c4108", "is_disabled": 0, "is_reserved": 0}, {"rental_uris": {"ios": "https://dc.lft.to/lastmile_qr_scan", "android": "https://dc.lft.to/lastmile_qr_scan"}, "lon": -77.02299683333334, "type": "electric_scooter", "fusion_lat": 0.0, "lat": 38.915482833333336, "name": "435524b4269aca53e29cd738da4c89a1", "fusion_lon": 0.0, "bike_id": "435524b4269aca53e29cd738da4c89a1", "is_disabled": 0, "is_reserved": 0}, {"rental_uris": {"ios": "https://dc.lft.to/lastmile_qr_scan", "android": "https://dc.lft.to/lastmile_qr_scan"}, "lon": -76.95756216666666, "type": "electric_scooter", "fusion_lat": 0.0, "lat": 38.8842715, "name": "d007e716ae3930e7f06528040f91e20b", "fusion_lon": 0.0, "bike_id": "d007e716ae3930e7f06528040f91e20b", "is_disabled": 0, "is_reserved": 0}, {"rental_uris": {"ios": "https://dc.lft.to/lastmile_qr_scan", "android": "https://dc.lft.to/lastmile_qr_scan"}, "lon": -76.99460133333334, "type": "electric_scooter", "fusion_lat": 0.0, "lat": 38.851632, "name": "9d3afb6da3f458eb28294f18b49da354", "fusion_lon": 0.0, "bike_id": "9d3afb6da3f458eb28294f18b49da354", "is_disabled": 0, "is_reserved": 0}, {"rental_uris": {"ios": "https://dc.lft.to/lastmile_qr_scan", "android": "https://dc.lft.to/lastmile_qr_scan"}, "lon": -77.03564683333333, "type": "electric_scooter", "fusion_lat": 0.0, "lat": 38.93978583333333, "name": "a22989329ddec87994cd065e865648fb", "fusion_lon": 0.0, "bike_id": "a22989329ddec87994cd065e865648fb", "is_disabled": 0, "is_reserved": 0}, {"rental_uris": {"ios": "https://dc.lft.to/lastmile_qr_scan", "android": "https://dc.lft.to/lastmile_qr_scan"}, "lon": -77.02960583333333, "type": "electric_scooter", "fusion_lat": 0.0, "lat": 38.91719533333333, "name": "e8988c87475997e3ff2e98bd5da3074a", "fusion_lon": 0.0, "bike_id": "e8988c87475997e3ff2e98bd5da3074a", "is_disabled": 0, "is_reserved": 0}, {"rental_uris": {"ios": "https://dc.lft.to/lastmile_qr_scan", "android": "https://dc.lft.to/lastmile_qr_scan"}, "lon": -76.98746383333334, "type": "electric_scooter", "fusion_lat": 0.0, "lat": 38.910189333333335, "name": "3ff4c7b5e8537999a2df1232efccc8ab", "fusion_lon": 0.0, "bike_id": "3ff4c7b5e8537999a2df1232efccc8ab", "is_disabled": 0, "is_reserved": 0}, {"rental_uris": {"ios": "https://dc.lft.to/lastmile_qr_scan", "android": "https://dc.lft.to/lastmile_qr_scan"}, "lon": -77.08047433333333, "type": "electric_bike", "fusion_lat": 0.0, "lat": 38.848482833333335, "name": "35383b0c184100aca90785c796f0199f", "fusion_lon": 0.0, "bike_id": "35383b0c184100aca90785c796f0199f", "is_disabled": 0, "is_reserved": 0}, {"rental_uris": {"ios": "https://dc.lft.to/lastmile_qr_scan", "android": "https://dc.lft.to/lastmile_qr_scan"}, "lon": -76.97409933333333, "type": "electric_scooter", "fusion_lat": 0.0, "lat": 38.902386, "name": "240ab8db5b4a7dc8437e46bff5269d85", "fusion_lon": 0.0, "bike_id": "240ab8db5b4a7dc8437e46bff5269d85", "is_disabled": 0, "is_reserved": 0}, {"rental_uris": {"ios": "https://dc.lft.to/lastmile_qr_scan", "android": "https://dc.lft.to/lastmile_qr_scan"}, "lon": -77.1096555, "type": "electric_bike", "fusion_lat": 0.0, "lat": 38.8130225, "name": "d0fc3f75e81534f70d738efb51f88e38", "fusion_lon": 0.0, "bike_id": "d0fc3f75e81534f70d738efb51f88e38", "is_disabled": 0, "is_reserved": 0}, {"rental_uris": {"ios": "https://dc.lft.to/lastmile_qr_scan", "android": "https://dc.lft.to/lastmile_qr_scan"}, "lon": -76.97329083333334, "type": "electric_scooter", "fusion_lat": 0.0, "lat": 38.90480866666667, "name": "71bd9ff3ae0013293eef134646243abd", "fusion_lon": 0.0, "bike_id": "71bd9ff3ae0013293eef134646243abd", "is_disabled": 0, "is_reserved": 0}, {"rental_uris": {"ios": "https://dc.lft.to/lastmile_qr_scan", "android": "https://dc.lft.to/lastmile_qr_scan"}, "lon": -77.05802366666667, "type": "electric_scooter", "fusion_lat": 0.0, "lat": 38.9029455, "name": "e947116b0e7bc718a71c27a8970f39a5", "fusion_lon": 0.0, "bike_id": "e947116b0e7bc718a71c27a8970f39a5", "is_disabled": 0, "is_reserved": 0}, {"rental_uris": {"ios": "https://dc.lft.to/lastmile_qr_scan", "android": "https://dc.lft.to/lastmile_qr_scan"}, "lon": -76.99150733333333, "type": "electric_scooter", "fusion_lat": 0.0, "lat": 38.893434166666665, "name": "b3e8ec0b715dda0cfd233505486904cb", "fusion_lon": 0.0, "bike_id": "b3e8ec0b715dda0cfd233505486904cb", "is_disabled": 0, "is_reserved": 0}, {"rental_uris": {"ios": "https://dc.lft.to/lastmile_qr_scan", "android": "https://dc.lft.to/lastmile_qr_scan"}, "lon": -77.02229416666667, "type": "electric_scooter", "fusion_lat": 0.0, "lat": 38.914264, "name": "eea613dad747c887fe41970800bf5d83", "fusion_lon": 0.0, "bike_id": "eea613dad747c887fe41970800bf5d83", "is_disabled": 0, "is_reserved": 0}, {"rental_uris": {"ios": "https://dc.lft.to/lastmile_qr_scan", "android": "https://dc.lft.to/lastmile_qr_scan"}, "lon": -77.04164866666666, "type": "electric_scooter", "fusion_lat": 0.0, "lat": 38.915139333333336, "name": "6b3e39537def15afd3d706e9e70ff277", "fusion_lon": 0.0, "bike_id": "6b3e39537def15afd3d706e9e70ff277", "is_disabled": 0, "is_reserved": 0}, {"rental_uris": {"ios": "https://dc.lft.to/lastmile_qr_scan", "android": "https://dc.lft.to/lastmile_qr_scan"}, "lon": -77.00556066666667, "type": "electric_scooter", "fusion_lat": 0.0, "lat": 38.87171516666667, "name": "6065a2b8fd232fb5b569da3251e57c81", "fusion_lon": 0.0, "bike_id": "6065a2b8fd232fb5b569da3251e57c81", "is_disabled": 0, "is_reserved": 0}, {"rental_uris": {"ios": "https://dc.lft.to/lastmile_qr_scan", "android": "https://dc.lft.to/lastmile_qr_scan"}, "lon": -77.0444805, "type": "electric_scooter", "fusion_lat": 0.0, "lat": 38.91868366666667, "name": "55798983ebc705ae08de287544106d7b", "fusion_lon": 0.0, "bike_id": "55798983ebc705ae08de287544106d7b", "is_disabled": 0, "is_reserved": 0}, {"rental_uris": {"ios": "https://dc.lft.to/lastmile_qr_scan", "android": "https://dc.lft.to/lastmile_qr_scan"}, "lon": -77.04000683333334, "type": "electric_scooter", "fusion_lat": 0.0, "lat": 38.91820283333333, "name": "775a953a06f9e3e32f92a4ccb0a75389", "fusion_lon": 0.0, "bike_id": "775a953a06f9e3e32f92a4ccb0a75389", "is_disabled": 0, "is_reserved": 0}, {"rental_uris": {"ios": "https://dc.lft.to/lastmile_qr_scan", "android": "https://dc.lft.to/lastmile_qr_scan"}, "lon": -77.043711, "type": "electric_scooter", "fusion_lat": 0.0, "lat": 38.920911333333336, "name": "6ceadbf7874e1eab5faba7cad8e72e74", "fusion_lon": 0.0, "bike_id": "6ceadbf7874e1eab5faba7cad8e72e74", "is_disabled": 0, "is_reserved": 0}, {"rental_uris": {"ios": "https://dc.lft.to/lastmile_qr_scan", "android": "https://dc.lft.to/lastmile_qr_scan"}, "lon": -77.02497483333333, "type": "electric_scooter", "fusion_lat": 0.0, "lat": 38.89731116666667, "name": "83e3cdba85e1cb016e5d7eafbd4e6b01", "fusion_lon": 0.0, "bike_id": "83e3cdba85e1cb016e5d7eafbd4e6b01", "is_disabled": 0, "is_reserved": 0}, {"rental_uris": {"ios": "https://dc.lft.to/lastmile_qr_scan", "android": "https://dc.lft.to/lastmile_qr_scan"}, "lon": -77.10683333333333, "type": "electric_bike", "fusion_lat": 0.0, "lat": 38.9358525, "name": "aa64eef13d85f5980123973afffcac63", "fusion_lon": 0.0, "bike_id": "aa64eef13d85f5980123973afffcac63", "is_disabled": 0, "is_reserved": 0}, {"rental_uris": {"ios": "https://dc.lft.to/lastmile_qr_scan", "android": "https://dc.lft.to/lastmile_qr_scan"}, "lon": -77.0322655, "type": "electric_scooter", "fusion_lat": 0.0, "lat": 38.91810733333333, "name": "c8fbfd939042defc9e7c45d7b1a22206", "fusion_lon": 0.0, "bike_id": "c8fbfd939042defc9e7c45d7b1a22206", "is_disabled": 0, "is_reserved": 0}, {"rental_uris": {"ios": "https://dc.lft.to/lastmile_qr_scan", "android": "https://dc.lft.to/lastmile_qr_scan"}, "lon": -77.04661816666666, "type": "electric_scooter", "fusion_lat": 0.0, "lat": 38.893367, "name": "623ed09a10ed6720a3ee37e1dbb7995b", "fusion_lon": 0.0, "bike_id": "623ed09a10ed6720a3ee37e1dbb7995b", "is_disabled": 0, "is_reserved": 0}, {"rental_uris": {"ios": "https://dc.lft.to/lastmile_qr_scan", "android": "https://dc.lft.to/lastmile_qr_scan"}, "lon": -77.06591116666667, "type": "electric_scooter", "fusion_lat": 0.0, "lat": 38.90523666666667, "name": "99f068481d0731cb46af77e8d5ae24ee", "fusion_lon": 0.0, "bike_id": "99f068481d0731cb46af77e8d5ae24ee", "is_disabled": 0, "is_reserved": 0}, {"rental_uris": {"ios": "https://dc.lft.to/lastmile_qr_scan", "android": "https://dc.lft.to/lastmile_qr_scan"}, "lon": -77.042669, "type": "electric_scooter", "fusion_lat": 0.0, "lat": 38.90284466666667, "name": "e12d67b26dae3b58e625e7ff1cabbcd1", "fusion_lon": 0.0, "bike_id": "e12d67b26dae3b58e625e7ff1cabbcd1", "is_disabled": 0, "is_reserved": 0}, {"rental_uris": {"ios": "https://dc.lft.to/lastmile_qr_scan", "android": "https://dc.lft.to/lastmile_qr_scan"}, "lon": -77.03698, "type": "electric_bike", "fusion_lat": 0.0, "lat": 38.935622, "name": "924ff0ba979ce04746edc036d3b5c64d", "fusion_lon": 0.0, "bike_id": "924ff0ba979ce04746edc036d3b5c64d", "is_disabled": 0, "is_reserved": 0}, {"rental_uris": {"ios": "https://dc.lft.to/lastmile_qr_scan", "android": "https://dc.lft.to/lastmile_qr_scan"}, "lon": -76.94876333333333, "type": "electric_scooter", "fusion_lat": 0.0, "lat": 38.895036, "name": "454ee47665a4eafa0102958d36f45937", "fusion_lon": 0.0, "bike_id": "454ee47665a4eafa0102958d36f45937", "is_disabled": 0, "is_reserved": 0}, {"rental_uris": {"ios": "https://dc.lft.to/lastmile_qr_scan", "android": "https://dc.lft.to/lastmile_qr_scan"}, "lon": -77.05172833333333, "type": "electric_scooter", "fusion_lat": 0.0, "lat": 38.923399333333336, "name": "cbc874c4e88bcb07a37fb1e9e65cbc6a", "fusion_lon": 0.0, "bike_id": "cbc874c4e88bcb07a37fb1e9e65cbc6a", "is_disabled": 0, "is_reserved": 0}, {"rental_uris": {"ios": "https://dc.lft.to/lastmile_qr_scan", "android": "https://dc.lft.to/lastmile_qr_scan"}, "lon": -77.00758616666667, "type": "electric_scooter", "fusion_lat": 0.0, "lat": 38.89736333333333, "name": "2e89e4a2b19653fec67e0fcba5d6a5e3", "fusion_lon": 0.0, "bike_id": "2e89e4a2b19653fec67e0fcba5d6a5e3", "is_disabled": 0, "is_reserved": 0}, {"rental_uris": {"ios": "https://dc.lft.to/lastmile_qr_scan", "android": "https://dc.lft.to/lastmile_qr_scan"}, "lon": -77.03261, "type": "electric_scooter", "fusion_lat": 0.0, "lat": 38.93524716666667, "name": "385ec19d1f0a5e8c065d589bf3c4df59", "fusion_lon": 0.0, "bike_id": "385ec19d1f0a5e8c065d589bf3c4df59", "is_disabled": 0, "is_reserved": 0}, {"rental_uris": {"ios": "https://dc.lft.to/lastmile_qr_scan", "android": "https://dc.lft.to/lastmile_qr_scan"}, "lon": -77.06637433333333, "type": "electric_bike", "fusion_lat": 0.0, "lat": 38.820515, "name": "d8e76133763df4f0fe1c93b516253786", "fusion_lon": 0.0, "bike_id": "d8e76133763df4f0fe1c93b516253786", "is_disabled": 0, "is_reserved": 0}, {"rental_uris": {"ios": "https://dc.lft.to/lastmile_qr_scan", "android": "https://dc.lft.to/lastmile_qr_scan"}, "lon": -77.0331535, "type": "electric_scooter", "fusion_lat": 0.0, "lat": 38.9287805, "name": "c1430aedd1e144ceb7b30493ed22f5fa", "fusion_lon": 0.0, "bike_id": "c1430aedd1e144ceb7b30493ed22f5fa", "is_disabled": 0, "is_reserved": 0}, {"rental_uris": {"ios": "https://dc.lft.to/lastmile_qr_scan", "android": "https://dc.lft.to/lastmile_qr_scan"}, "lon": -77.02406133333334, "type": "electric_scooter", "fusion_lat": 0.0, "lat": 38.90591116666667, "name": "24da381c5e407490a22ff4c45e4e23de", "fusion_lon": 0.0, "bike_id": "24da381c5e407490a22ff4c45e4e23de", "is_disabled": 0, "is_reserved": 0}, {"rental_uris": {"ios": "https://dc.lft.to/lastmile_qr_scan", "android": "https://dc.lft.to/lastmile_qr_scan"}, "lon": -76.997762, "type": "electric_scooter", "fusion_lat": 0.0, "lat": 38.84425266666667, "name": "4b0eb1335c1d17b89c6a37f7416b4248", "fusion_lon": 0.0, "bike_id": "4b0eb1335c1d17b89c6a37f7416b4248", "is_disabled": 0, "is_reserved": 0}, {"rental_uris": {"ios": "https://dc.lft.to/lastmile_qr_scan", "android": "https://dc.lft.to/lastmile_qr_scan"}, "lon": -76.99948816666667, "type": "electric_bike", "fusion_lat": 0.0, "lat": 38.923384, "name": "62524282c01346a74815cc1ecd438fd9", "fusion_lon": 0.0, "bike_id": "62524282c01346a74815cc1ecd438fd9", "is_disabled": 0, "is_reserved": 0}, {"rental_uris": {"ios": "https://dc.lft.to/lastmile_qr_scan", "android": "https://dc.lft.to/lastmile_qr_scan"}, "lon": -77.06612366666667, "type": "electric_scooter", "fusion_lat": 0.0, "lat": 38.905274, "name": "d06bcc8c033e02fb26d1da73268b4aa9", "fusion_lon": 0.0, "bike_id": "d06bcc8c033e02fb26d1da73268b4aa9", "is_disabled": 0, "is_reserved": 0}, {"rental_uris": {"ios": "https://dc.lft.to/lastmile_qr_scan", "android": "https://dc.lft.to/lastmile_qr_scan"}, "lon": -76.99759733333333, "type": "electric_scooter", "fusion_lat": 0.0, "lat": 38.9219245, "name": "ef7e742da0c6353d78a4551ba39233f2", "fusion_lon": 0.0, "bike_id": "ef7e742da0c6353d78a4551ba39233f2", "is_disabled": 0, "is_reserved": 0}, {"rental_uris": {"ios": "https://dc.lft.to/lastmile_qr_scan", "android": "https://dc.lft.to/lastmile_qr_scan"}, "lon": -77.06674983333333, "type": "electric_scooter", "fusion_lat": 0.0, "lat": 38.91402716666666, "name": "086f19d214cd9dbc8645bad1978d1202", "fusion_lon": 0.0, "bike_id": "086f19d214cd9dbc8645bad1978d1202", "is_disabled": 0, "is_reserved": 0}, {"rental_uris": {"ios": "https://dc.lft.to/lastmile_qr_scan", "android": "https://dc.lft.to/lastmile_qr_scan"}, "lon": -77.04986933333333, "type": "electric_scooter", "fusion_lat": 0.0, "lat": 38.89605233333333, "name": "83011ff121e6eee5b9159d0573f433c6", "fusion_lon": 0.0, "bike_id": "83011ff121e6eee5b9159d0573f433c6", "is_disabled": 0, "is_reserved": 0}, {"rental_uris": {"ios": "https://dc.lft.to/lastmile_qr_scan", "android": "https://dc.lft.to/lastmile_qr_scan"}, "lon": -77.0369925, "type": "electric_scooter", "fusion_lat": 0.0, "lat": 38.92756833333333, "name": "1c12c171a00db7b0a369d5e2e7c08f83", "fusion_lon": 0.0, "bike_id": "1c12c171a00db7b0a369d5e2e7c08f83", "is_disabled": 0, "is_reserved": 0}, {"rental_uris": {"ios": "https://dc.lft.to/lastmile_qr_scan", "android": "https://dc.lft.to/lastmile_qr_scan"}, "lon": -77.01492733333333, "type": "electric_scooter", "fusion_lat": 0.0, "lat": 38.872701, "name": "2a91aceb6b5a696f9497222b7578fb94", "fusion_lon": 0.0, "bike_id": "2a91aceb6b5a696f9497222b7578fb94", "is_disabled": 0, "is_reserved": 0}, {"rental_uris": {"ios": "https://dc.lft.to/lastmile_qr_scan", "android": "https://dc.lft.to/lastmile_qr_scan"}, "lon": -77.05149516666667, "type": "electric_scooter", "fusion_lat": 0.0, "lat": 38.923867666666666, "name": "66c0c01a63578685f39b0f0e1b132b8e", "fusion_lon": 0.0, "bike_id": "66c0c01a63578685f39b0f0e1b132b8e", "is_disabled": 0, "is_reserved": 0}, {"rental_uris": {"ios": "https://dc.lft.to/lastmile_qr_scan", "android": "https://dc.lft.to/lastmile_qr_scan"}, "lon": -77.0631865, "type": "electric_scooter", "fusion_lat": 0.0, "lat": 38.905179333333336, "name": "1fe0d016bd1625955f58f630fd5b930e", "fusion_lon": 0.0, "bike_id": "1fe0d016bd1625955f58f630fd5b930e", "is_disabled": 0, "is_reserved": 0}, {"rental_uris": {"ios": "https://dc.lft.to/lastmile_qr_scan", "android": "https://dc.lft.to/lastmile_qr_scan"}, "lon": -77.02201116666667, "type": "electric_scooter", "fusion_lat": 0.0, "lat": 38.914218166666664, "name": "40484943696bb2e4e1c360940f69c7d8", "fusion_lon": 0.0, "bike_id": "40484943696bb2e4e1c360940f69c7d8", "is_disabled": 0, "is_reserved": 0}, {"rental_uris": {"ios": "https://dc.lft.to/lastmile_qr_scan", "android": "https://dc.lft.to/lastmile_qr_scan"}, "lon": -77.00852066666667, "type": "electric_scooter", "fusion_lat": 0.0, "lat": 38.90543366666667, "name": "1d770e63780b90ac3295538e4296e3ac", "fusion_lon": 0.0, "bike_id": "1d770e63780b90ac3295538e4296e3ac", "is_disabled": 0, "is_reserved": 0}, {"rental_uris": {"ios": "https://dc.lft.to/lastmile_qr_scan", "android": "https://dc.lft.to/lastmile_qr_scan"}, "lon": -76.95184666666667, "type": "electric_scooter", "fusion_lat": 0.0, "lat": 38.891357166666666, "name": "c44560d414d0704ae22d2e6656a56087", "fusion_lon": 0.0, "bike_id": "c44560d414d0704ae22d2e6656a56087", "is_disabled": 0, "is_reserved": 0}, {"rental_uris": {"ios": "https://dc.lft.to/lastmile_qr_scan", "android": "https://dc.lft.to/lastmile_qr_scan"}, "lon": -77.02503266666666, "type": "electric_scooter", "fusion_lat": 0.0, "lat": 38.90190333333334, "name": "fb200ee0850b87988d7c1147b773e076", "fusion_lon": 0.0, "bike_id": "fb200ee0850b87988d7c1147b773e076", "is_disabled": 0, "is_reserved": 0}, {"rental_uris": {"ios": "https://dc.lft.to/lastmile_qr_scan", "android": "https://dc.lft.to/lastmile_qr_scan"}, "lon": -77.0163985, "type": "electric_scooter", "fusion_lat": 0.0, "lat": 38.92939666666667, "name": "5bf739cd29a581dd95afe3d129dfe264", "fusion_lon": 0.0, "bike_id": "5bf739cd29a581dd95afe3d129dfe264", "is_disabled": 0, "is_reserved": 0}, {"rental_uris": {"ios": "https://dc.lft.to/lastmile_qr_scan", "android": "https://dc.lft.to/lastmile_qr_scan"}, "lon": -77.0351425, "type": "electric_scooter", "fusion_lat": 0.0, "lat": 38.906612, "name": "6ae84ff67c3ff5405d08ecb552d146f1", "fusion_lon": 0.0, "bike_id": "6ae84ff67c3ff5405d08ecb552d146f1", "is_disabled": 0, "is_reserved": 0}, {"rental_uris": {"ios": "https://dc.lft.to/lastmile_qr_scan", "android": "https://dc.lft.to/lastmile_qr_scan"}, "lon": -77.02776583333333, "type": "electric_scooter", "fusion_lat": 0.0, "lat": 38.896990833333334, "name": "81532bdf11d4e963f39f2b54b54117d8", "fusion_lon": 0.0, "bike_id": "81532bdf11d4e963f39f2b54b54117d8", "is_disabled": 0, "is_reserved": 0}, {"rental_uris": {"ios": "https://dc.lft.to/lastmile_qr_scan", "android": "https://dc.lft.to/lastmile_qr_scan"}, "lon": -77.05995016666667, "type": "electric_scooter", "fusion_lat": 0.0, "lat": 38.90522766666667, "name": "e7a91aa5c07f34b16366d7229a9b8a05", "fusion_lon": 0.0, "bike_id": "e7a91aa5c07f34b16366d7229a9b8a05", "is_disabled": 0, "is_reserved": 0}, {"rental_uris": {"ios": "https://dc.lft.to/lastmile_qr_scan", "android": "https://dc.lft.to/lastmile_qr_scan"}, "lon": -77.02243066666666, "type": "electric_scooter", "fusion_lat": 0.0, "lat": 38.91632116666667, "name": "c04b61a54aaf57f27e936d60650d5c0a", "fusion_lon": 0.0, "bike_id": "c04b61a54aaf57f27e936d60650d5c0a", "is_disabled": 0, "is_reserved": 0}, {"rental_uris": {"ios": "https://dc.lft.to/lastmile_qr_scan", "android": "https://dc.lft.to/lastmile_qr_scan"}, "lon": -77.0427205, "type": "electric_scooter", "fusion_lat": 0.0, "lat": 38.90796183333333, "name": "831466df48163d84334a8ec56ce32dd9", "fusion_lon": 0.0, "bike_id": "831466df48163d84334a8ec56ce32dd9", "is_disabled": 0, "is_reserved": 0}, {"rental_uris": {"ios": "https://dc.lft.to/lastmile_qr_scan", "android": "https://dc.lft.to/lastmile_qr_scan"}, "lon": -77.041528, "type": "electric_scooter", "fusion_lat": 0.0, "lat": 38.919199, "name": "adc2d20fee0e1e25dab9eab0c0911735", "fusion_lon": 0.0, "bike_id": "adc2d20fee0e1e25dab9eab0c0911735", "is_disabled": 0, "is_reserved": 0}, {"rental_uris": {"ios": "https://dc.lft.to/lastmile_qr_scan", "android": "https://dc.lft.to/lastmile_qr_scan"}, "lon": -77.04174116666667, "type": "electric_scooter", "fusion_lat": 0.0, "lat": 38.91534733333334, "name": "0a5ccf57c5caaf78b1b228e61ee3493f", "fusion_lon": 0.0, "bike_id": "0a5ccf57c5caaf78b1b228e61ee3493f", "is_disabled": 0, "is_reserved": 0}, {"rental_uris": {"ios": "https://dc.lft.to/lastmile_qr_scan", "android": "https://dc.lft.to/lastmile_qr_scan"}, "lon": -77.12497516666667, "type": "electric_bike", "fusion_lat": 0.0, "lat": 39.024189, "name": "0515be389a7a41599d2d8cce558fcb0b", "fusion_lon": 0.0, "bike_id": "0515be389a7a41599d2d8cce558fcb0b", "is_disabled": 0, "is_reserved": 0}, {"rental_uris": {"ios": "https://dc.lft.to/lastmile_qr_scan", "android": "https://dc.lft.to/lastmile_qr_scan"}, "lon": -77.0347025, "type": "electric_scooter", "fusion_lat": 0.0, "lat": 38.91699583333333, "name": "077089dd237c271471d10db1f9753212", "fusion_lon": 0.0, "bike_id": "077089dd237c271471d10db1f9753212", "is_disabled": 0, "is_reserved": 0}, {"rental_uris": {"ios": "https://dc.lft.to/lastmile_qr_scan", "android": "https://dc.lft.to/lastmile_qr_scan"}, "lon": -77.03636383333334, "type": "electric_scooter", "fusion_lat": 0.0, "lat": 38.93276816666667, "name": "cb6bfa4b802f51afbcb23bfec2e4cebb", "fusion_lon": 0.0, "bike_id": "cb6bfa4b802f51afbcb23bfec2e4cebb", "is_disabled": 0, "is_reserved": 0}, {"rental_uris": {"ios": "https://dc.lft.to/lastmile_qr_scan", "android": "https://dc.lft.to/lastmile_qr_scan"}, "lon": -77.0297285, "type": "electric_scooter", "fusion_lat": 0.0, "lat": 38.92338566666667, "name": "120935d054de5e3d3e523421ac6f3ec8", "fusion_lon": 0.0, "bike_id": "120935d054de5e3d3e523421ac6f3ec8", "is_disabled": 0, "is_reserved": 0}, {"rental_uris": {"ios": "https://dc.lft.to/lastmile_qr_scan", "android": "https://dc.lft.to/lastmile_qr_scan"}, "lon": -77.04685016666667, "type": "electric_scooter", "fusion_lat": 0.0, "lat": 38.920565333333336, "name": "c542c8af2e57874456ff6cd11ad82870", "fusion_lon": 0.0, "bike_id": "c542c8af2e57874456ff6cd11ad82870", "is_disabled": 0, "is_reserved": 0}, {"rental_uris": {"ios": "https://dc.lft.to/lastmile_qr_scan", "android": "https://dc.lft.to/lastmile_qr_scan"}, "lon": -77.00589283333333, "type": "electric_scooter", "fusion_lat": 0.0, "lat": 38.915626833333334, "name": "ce7d631b200cc4852203bdf93261eb99", "fusion_lon": 0.0, "bike_id": "ce7d631b200cc4852203bdf93261eb99", "is_disabled": 0, "is_reserved": 0}, {"rental_uris": {"ios": "https://dc.lft.to/lastmile_qr_scan", "android": "https://dc.lft.to/lastmile_qr_scan"}, "lon": -77.0234335, "type": "electric_scooter", "fusion_lat": 0.0, "lat": 38.962072, "name": "5c0fc295483be7daa5026591fb2173d8", "fusion_lon": 0.0, "bike_id": "5c0fc295483be7daa5026591fb2173d8", "is_disabled": 0, "is_reserved": 0}, {"rental_uris": {"ios": "https://dc.lft.to/lastmile_qr_scan", "android": "https://dc.lft.to/lastmile_qr_scan"}, "lon": -77.058578, "type": "electric_scooter", "fusion_lat": 0.0, "lat": 38.93611766666667, "name": "51737e6e2e4b05838a38c8a1803dac26", "fusion_lon": 0.0, "bike_id": "51737e6e2e4b05838a38c8a1803dac26", "is_disabled": 0, "is_reserved": 0}, {"rental_uris": {"ios": "https://dc.lft.to/lastmile_qr_scan", "android": "https://dc.lft.to/lastmile_qr_scan"}, "lon": -77.03074933333333, "type": "electric_scooter", "fusion_lat": 0.0, "lat": 38.89968666666667, "name": "1d98d41f13a8537f1b13286aba967cba", "fusion_lon": 0.0, "bike_id": "1d98d41f13a8537f1b13286aba967cba", "is_disabled": 0, "is_reserved": 0}, {"rental_uris": {"ios": "https://dc.lft.to/lastmile_qr_scan", "android": "https://dc.lft.to/lastmile_qr_scan"}, "lon": -76.99062966666666, "type": "electric_scooter", "fusion_lat": 0.0, "lat": 38.863551, "name": "ee410311539e681868d623db60003b84", "fusion_lon": 0.0, "bike_id": "ee410311539e681868d623db60003b84", "is_disabled": 0, "is_reserved": 0}, {"rental_uris": {"ios": "https://dc.lft.to/lastmile_qr_scan", "android": "https://dc.lft.to/lastmile_qr_scan"}, "lon": -77.024416, "type": "electric_scooter", "fusion_lat": 0.0, "lat": 38.91844916666667, "name": "c0a5d5c4b6f15f7222759df69f7ef556", "fusion_lon": 0.0, "bike_id": "c0a5d5c4b6f15f7222759df69f7ef556", "is_disabled": 0, "is_reserved": 0}, {"rental_uris": {"ios": "https://dc.lft.to/lastmile_qr_scan", "android": "https://dc.lft.to/lastmile_qr_scan"}, "lon": -77.0467585, "type": "electric_scooter", "fusion_lat": 0.0, "lat": 38.905250333333335, "name": "90a18158abe46b106d3b258bb78972bb", "fusion_lon": 0.0, "bike_id": "90a18158abe46b106d3b258bb78972bb", "is_disabled": 0, "is_reserved": 0}, {"rental_uris": {"ios": "https://dc.lft.to/lastmile_qr_scan", "android": "https://dc.lft.to/lastmile_qr_scan"}, "lon": -77.0127885, "type": "electric_bike", "fusion_lat": 0.0, "lat": 39.0038045, "name": "615b0dd62177878bd6274a2e4d4a53c7", "fusion_lon": 0.0, "bike_id": "615b0dd62177878bd6274a2e4d4a53c7", "is_disabled": 0, "is_reserved": 0}, {"rental_uris": {"ios": "https://dc.lft.to/lastmile_qr_scan", "android": "https://dc.lft.to/lastmile_qr_scan"}, "lon": -76.99843283333334, "type": "electric_scooter", "fusion_lat": 0.0, "lat": 38.90005416666666, "name": "44747ab1def67fcd3fdb7ab79c1f16cc", "fusion_lon": 0.0, "bike_id": "44747ab1def67fcd3fdb7ab79c1f16cc", "is_disabled": 0, "is_reserved": 0}, {"rental_uris": {"ios": "https://dc.lft.to/lastmile_qr_scan", "android": "https://dc.lft.to/lastmile_qr_scan"}, "lon": -76.93243566666666, "type": "electric_scooter", "fusion_lat": 0.0, "lat": 38.894071, "name": "24601d0083f0e9eb371b9e2ad90bb08e", "fusion_lon": 0.0, "bike_id": "24601d0083f0e9eb371b9e2ad90bb08e", "is_disabled": 0, "is_reserved": 0}, {"rental_uris": {"ios": "https://dc.lft.to/lastmile_qr_scan", "android": "https://dc.lft.to/lastmile_qr_scan"}, "lon": -77.03178266666667, "type": "electric_scooter", "fusion_lat": 0.0, "lat": 38.89752333333333, "name": "c37800e1f350f0a1582055bba52b1dc7", "fusion_lon": 0.0, "bike_id": "c37800e1f350f0a1582055bba52b1dc7", "is_disabled": 0, "is_reserved": 0}, {"rental_uris": {"ios": "https://dc.lft.to/lastmile_qr_scan", "android": "https://dc.lft.to/lastmile_qr_scan"}, "lon": -77.05520683333333, "type": "electric_scooter", "fusion_lat": 0.0, "lat": 38.897291, "name": "5fb6990c96a84ac5db984cc704149f1e", "fusion_lon": 0.0, "bike_id": "5fb6990c96a84ac5db984cc704149f1e", "is_disabled": 0, "is_reserved": 0}, {"rental_uris": {"ios": "https://dc.lft.to/lastmile_qr_scan", "android": "https://dc.lft.to/lastmile_qr_scan"}, "lon": -77.04828783333333, "type": "electric_scooter", "fusion_lat": 0.0, "lat": 38.90795266666667, "name": "c31714b7119e8c1ef88803e51c868219", "fusion_lon": 0.0, "bike_id": "c31714b7119e8c1ef88803e51c868219", "is_disabled": 0, "is_reserved": 0}, {"rental_uris": {"ios": "https://dc.lft.to/lastmile_qr_scan", "android": "https://dc.lft.to/lastmile_qr_scan"}, "lon": -77.05519483333333, "type": "electric_scooter", "fusion_lat": 0.0, "lat": 38.89730616666667, "name": "fec35f6d982faf5d8c4b28fdb3fbbd0c", "fusion_lon": 0.0, "bike_id": "fec35f6d982faf5d8c4b28fdb3fbbd0c", "is_disabled": 0, "is_reserved": 0}, {"rental_uris": {"ios": "https://dc.lft.to/lastmile_qr_scan", "android": "https://dc.lft.to/lastmile_qr_scan"}, "lon": -77.0464025, "type": "electric_scooter", "fusion_lat": 0.0, "lat": 38.906673166666664, "name": "9ca1b51b5ff20de785f63e1892aaaf6b", "fusion_lon": 0.0, "bike_id": "9ca1b51b5ff20de785f63e1892aaaf6b", "is_disabled": 0, "is_reserved": 0}, {"rental_uris": {"ios": "https://dc.lft.to/lastmile_qr_scan", "android": "https://dc.lft.to/lastmile_qr_scan"}, "lon": -77.04645016666667, "type": "electric_bike", "fusion_lat": 0.0, "lat": 38.852114, "name": "da13f57797079158f48e265a3a0048a7", "fusion_lon": 0.0, "bike_id": "da13f57797079158f48e265a3a0048a7", "is_disabled": 0, "is_reserved": 0}, {"rental_uris": {"ios": "https://dc.lft.to/lastmile_qr_scan", "android": "https://dc.lft.to/lastmile_qr_scan"}, "lon": -76.9808615, "type": "electric_bike", "fusion_lat": 0.0, "lat": 38.902879166666665, "name": "76127095d96ac9a441ee081af0b2986c", "fusion_lon": 0.0, "bike_id": "76127095d96ac9a441ee081af0b2986c", "is_disabled": 0, "is_reserved": 0}, {"rental_uris": {"ios": "https://dc.lft.to/lastmile_qr_scan", "android": "https://dc.lft.to/lastmile_qr_scan"}, "lon": -77.0249405, "type": "electric_scooter", "fusion_lat": 0.0, "lat": 38.9180505, "name": "105f9c014bc07f293e2606184a106f2c", "fusion_lon": 0.0, "bike_id": "105f9c014bc07f293e2606184a106f2c", "is_disabled": 0, "is_reserved": 0}, {"rental_uris": {"ios": "https://dc.lft.to/lastmile_qr_scan", "android": "https://dc.lft.to/lastmile_qr_scan"}, "lon": -77.11914366666667, "type": "electric_bike", "fusion_lat": 0.0, "lat": 38.84097216666667, "name": "1027db49ce12cc5b42b633436da82fca", "fusion_lon": 0.0, "bike_id": "1027db49ce12cc5b42b633436da82fca", "is_disabled": 0, "is_reserved": 0}, {"rental_uris": {"ios": "https://dc.lft.to/lastmile_qr_scan", "android": "https://dc.lft.to/lastmile_qr_scan"}, "lon": -77.01437283333334, "type": "electric_scooter", "fusion_lat": 0.0, "lat": 38.919594333333336, "name": "8409c023a1eeb8ecb8d1521e19f6c13e", "fusion_lon": 0.0, "bike_id": "8409c023a1eeb8ecb8d1521e19f6c13e", "is_disabled": 0, "is_reserved": 0}, {"rental_uris": {"ios": "https://dc.lft.to/lastmile_qr_scan", "android": "https://dc.lft.to/lastmile_qr_scan"}, "lon": -76.936156, "type": "electric_bike", "fusion_lat": 0.0, "lat": 38.9705805, "name": "4c96f0f7ef25df0b2bf4d90012609376", "fusion_lon": 0.0, "bike_id": "4c96f0f7ef25df0b2bf4d90012609376", "is_disabled": 0, "is_reserved": 0}, {"rental_uris": {"ios": "https://dc.lft.to/lastmile_qr_scan", "android": "https://dc.lft.to/lastmile_qr_scan"}, "lon": -77.0234665, "type": "electric_scooter", "fusion_lat": 0.0, "lat": 38.933853, "name": "02d88fa185bba168c461968bea7cdeef", "fusion_lon": 0.0, "bike_id": "02d88fa185bba168c461968bea7cdeef", "is_disabled": 0, "is_reserved": 0}, {"rental_uris": {"ios": "https://dc.lft.to/lastmile_qr_scan", "android": "https://dc.lft.to/lastmile_qr_scan"}, "lon": -77.0297945, "type": "electric_scooter", "fusion_lat": 0.0, "lat": 38.895687, "name": "1aba750bd56d9f377f2509c6c11eb267", "fusion_lon": 0.0, "bike_id": "1aba750bd56d9f377f2509c6c11eb267", "is_disabled": 0, "is_reserved": 0}, {"rental_uris": {"ios": "https://dc.lft.to/lastmile_qr_scan", "android": "https://dc.lft.to/lastmile_qr_scan"}, "lon": -77.00757483333334, "type": "electric_scooter", "fusion_lat": 0.0, "lat": 38.8714375, "name": "00d1442897924c0601abe7f1bdc68677", "fusion_lon": 0.0, "bike_id": "00d1442897924c0601abe7f1bdc68677", "is_disabled": 0, "is_reserved": 0}, {"rental_uris": {"ios": "https://dc.lft.to/lastmile_qr_scan", "android": "https://dc.lft.to/lastmile_qr_scan"}, "lon": -77.07900283333333, "type": "electric_bike", "fusion_lat": 0.0, "lat": 38.839339333333335, "name": "cc9ec18d6fd50802c540f310804765c0", "fusion_lon": 0.0, "bike_id": "cc9ec18d6fd50802c540f310804765c0", "is_disabled": 0, "is_reserved": 0}, {"rental_uris": {"ios": "https://dc.lft.to/lastmile_qr_scan", "android": "https://dc.lft.to/lastmile_qr_scan"}, "lon": -76.94625766666667, "type": "electric_bike", "fusion_lat": 0.0, "lat": 38.946242833333336, "name": "a91dd4025fbfd5da4380eef7acfc1168", "fusion_lon": 0.0, "bike_id": "a91dd4025fbfd5da4380eef7acfc1168", "is_disabled": 0, "is_reserved": 0}, {"rental_uris": {"ios": "https://dc.lft.to/lastmile_qr_scan", "android": "https://dc.lft.to/lastmile_qr_scan"}, "lon": -77.04498666666667, "type": "electric_scooter", "fusion_lat": 0.0, "lat": 38.9143785, "name": "8158c8e67cdeb13766115d0942314872", "fusion_lon": 0.0, "bike_id": "8158c8e67cdeb13766115d0942314872", "is_disabled": 0, "is_reserved": 0}, {"rental_uris": {"ios": "https://dc.lft.to/lastmile_qr_scan", "android": "https://dc.lft.to/lastmile_qr_scan"}, "lon": -77.06294566666666, "type": "electric_scooter", "fusion_lat": 0.0, "lat": 38.9039635, "name": "0cbf96b8ba1572cafb3d24a15b492416", "fusion_lon": 0.0, "bike_id": "0cbf96b8ba1572cafb3d24a15b492416", "is_disabled": 0, "is_reserved": 0}, {"rental_uris": {"ios": "https://dc.lft.to/lastmile_qr_scan", "android": "https://dc.lft.to/lastmile_qr_scan"}, "lon": -76.99877, "type": "electric_scooter", "fusion_lat": 0.0, "lat": 38.9075405, "name": "450aa8d5d5a2cf04a1b179f017d9a80c", "fusion_lon": 0.0, "bike_id": "450aa8d5d5a2cf04a1b179f017d9a80c", "is_disabled": 0, "is_reserved": 0}, {"rental_uris": {"ios": "https://dc.lft.to/lastmile_qr_scan", "android": "https://dc.lft.to/lastmile_qr_scan"}, "lon": -77.01532883333333, "type": "electric_scooter", "fusion_lat": 0.0, "lat": 38.943201333333334, "name": "b5dac32700f6a438d2e44a994354ab44", "fusion_lon": 0.0, "bike_id": "b5dac32700f6a438d2e44a994354ab44", "is_disabled": 0, "is_reserved": 0}, {"rental_uris": {"ios": "https://dc.lft.to/lastmile_qr_scan", "android": "https://dc.lft.to/lastmile_qr_scan"}, "lon": -76.97207516666667, "type": "electric_scooter", "fusion_lat": 0.0, "lat": 38.854963833333336, "name": "08aa159e2cc7a024ff70490c68c1226b", "fusion_lon": 0.0, "bike_id": "08aa159e2cc7a024ff70490c68c1226b", "is_disabled": 0, "is_reserved": 0}, {"rental_uris": {"ios": "https://dc.lft.to/lastmile_qr_scan", "android": "https://dc.lft.to/lastmile_qr_scan"}, "lon": -77.03844433333333, "type": "electric_scooter", "fusion_lat": 0.0, "lat": 38.90470466666667, "name": "858145870d06e81b03757d2f88f61b2f", "fusion_lon": 0.0, "bike_id": "858145870d06e81b03757d2f88f61b2f", "is_disabled": 0, "is_reserved": 0}, {"rental_uris": {"ios": "https://dc.lft.to/lastmile_qr_scan", "android": "https://dc.lft.to/lastmile_qr_scan"},