{"data": {"bikes": [{"fusion_lat": 0.0, "name": "1829f801bd7d78c9c16e41a13da955e8", "is_disabled": 0, "rental_uris": {"android": "https://dc.lft.to/lastmile_qr_scan", "ios": "https://dc.lft.to/lastmile_qr_scan"}, "fusion_lon": 0.0, "lat": 38.91664516666667, "bike_id": "1829f801bd7d78c9c16e41a13da955e8", "type": "electric_scooter", "is_reserved": 0, "lon": -77.03855983333334}, {"fusion_lat": 0.0, "name": "b1453de8ad68843ca9b92fa191d2c6db", "is_disabled": 0, "rental_uris": {"android": "https://dc.lft.to/lastmile_qr_scan", "ios": "https://dc.lft.to/lastmile_qr_scan"}, "fusion_lon": 0.0, "lat": 38.90529516666667, "bike_id": "b1453de8ad68843ca9b92fa191d2c6db", "type": "electric_scooter", "is_reserved": 0, "lon": -77.06245033333333}, {"fusion_lat": 0.0, "name": "a7c2fa6a679522068181759f4cc405cf", "is_disabled": 0, "rental_uris": {"android": "https://dc.lft.to/lastmile_qr_scan", "ios": "https://dc.lft.to/lastmile_qr_scan"}, "fusion_lon": 0.0, "lat": 38.9259985, "bike_id": "a7c2fa6a679522068181759f4cc405cf", "type": "electric_scooter", "is_reserved": 0, "lon": -77.0215415}, {"fusion_lat": 0.0, "name": "f8a949a4adf477ae69722ac33459b211", "is_disabled": 0, "rental_uris": {"android": "https://dc.lft.to/lastmile_qr_scan", "ios": "https://dc.lft.to/lastmile_qr_scan"}, "fusion_lon": 0.0, "lat": 38.90734116666667, "bike_id": "f8a949a4adf477ae69722ac33459b211", "type": "electric_scooter", "is_reserved": 0, "lon": -77.038589}, {"fusion_lat": 0.0, "name": "544c11b7f5d1080f93d3f76f1012c4fc", "is_disabled": 0, "rental_uris": {"android": "https://dc.lft.to/lastmile_qr_scan", "ios": "https://dc.lft.to/lastmile_qr_scan"}, "fusion_lon": 0.0, "lat": 38.8925135, "bike_id": "544c11b7f5d1080f93d3f76f1012c4fc", "type": "electric_scooter", "is_reserved": 0, "lon": -77.02594166666667}, {"fusion_lat": 0.0, "name": "0902162515e1efd69cabeebd49c9c1fc", "is_disabled": 0, "rental_uris": {"android": "https://dc.lft.to/lastmile_qr_scan", "ios": "https://dc.lft.to/lastmile_qr_scan"}, "fusion_lon": 0.0, "lat": 38.878959333333334, "bike_id": "0902162515e1efd69cabeebd49c9c1fc", "type": "electric_scooter", "is_reserved": 0, "lon": -77.01364566666666}, {"fusion_lat": 0.0, "name": "705e6e78e7026cce8557c8fa874399f8", "is_disabled": 0, "rental_uris": {"android": "https://dc.lft.to/lastmile_qr_scan", "ios": "https://dc.lft.to/lastmile_qr_scan"}, "fusion_lon": 0.0, "lat": 38.913374166666664, "bike_id": "705e6e78e7026cce8557c8fa874399f8", "type": "electric_scooter", "is_reserved": 0, "lon": -77.05038683333333}, {"fusion_lat": 0.0, "name": "92e699d29d991f228a8ee5a303705356", "is_disabled": 0, "rental_uris": {"android": "https://dc.lft.to/lastmile_qr_scan", "ios": "https://dc.lft.to/lastmile_qr_scan"}, "fusion_lon": 0.0, "lat": 38.89828466666667, "bike_id": "92e699d29d991f228a8ee5a303705356", "type": "electric_scooter", "is_reserved": 0, "lon": -76.9465225}, {"fusion_lat": 0.0, "name": "951d02c6ac431da77f9302b3c2751b2a", "is_disabled": 0, "rental_uris": {"android": "https://dc.lft.to/lastmile_qr_scan", "ios": "https://dc.lft.to/lastmile_qr_scan"}, "fusion_lon": 0.0, "lat": 38.94409366666667, "bike_id": "951d02c6ac431da77f9302b3c2751b2a", "type": "electric_scooter", "is_reserved": 0, "lon": -77.03208783333334}, {"fusion_lat": 0.0, "name": "1002b0f492cf144fe2ba4c95f341978f", "is_disabled": 0, "rental_uris": {"android": "https://dc.lft.to/lastmile_qr_scan", "ios": "https://dc.lft.to/lastmile_qr_scan"}, "fusion_lon": 0.0, "lat": 38.927654833333335, "bike_id": "1002b0f492cf144fe2ba4c95f341978f", "type": "electric_scooter", "is_reserved": 0, "lon": -77.01619933333333}, {"fusion_lat": 0.0, "name": "6ed0622009649e4eb197ba076c97abdd", "is_disabled": 0, "rental_uris": {"android": "https://dc.lft.to/lastmile_qr_scan", "ios": "https://dc.lft.to/lastmile_qr_scan"}, "fusion_lon": 0.0, "lat": 38.915124, "bike_id": "6ed0622009649e4eb197ba076c97abdd", "type": "electric_scooter", "is_reserved": 0, "lon": -77.019841}, {"fusion_lat": 0.0, "name": "7a6dfbc88e0f0c5100fdc13ebdf6e0f4", "is_disabled": 0, "rental_uris": {"android": "https://dc.lft.to/lastmile_qr_scan", "ios": "https://dc.lft.to/lastmile_qr_scan"}, "fusion_lon": 0.0, "lat": 38.967307166666664, "bike_id": "7a6dfbc88e0f0c5100fdc13ebdf6e0f4", "type": "electric_scooter", "is_reserved": 0, "lon": -77.00918483333334}, {"fusion_lat": 0.0, "name": "425d3c91c18978aaace885c9d821052f", "is_disabled": 0, "rental_uris": {"android": "https://dc.lft.to/lastmile_qr_scan", "ios": "https://dc.lft.to/lastmile_qr_scan"}, "fusion_lon": 0.0, "lat": 38.9524075, "bike_id": "425d3c91c18978aaace885c9d821052f", "type": "electric_scooter", "is_reserved": 0, "lon": -77.023789}, {"fusion_lat": 0.0, "name": "60930d16318127af7f64ff5c31721fb2", "is_disabled": 0, "rental_uris": {"android": "https://dc.lft.to/lastmile_qr_scan", "ios": "https://dc.lft.to/lastmile_qr_scan"}, "fusion_lon": 0.0, "lat": 38.919116833333334, "bike_id": "60930d16318127af7f64ff5c31721fb2", "type": "electric_scooter", "is_reserved": 0, "lon": -77.0262195}, {"fusion_lat": 0.0, "name": "9d6c4856df48e8876e81a6d620df9c79", "is_disabled": 0, "rental_uris": {"android": "https://dc.lft.to/lastmile_qr_scan", "ios": "https://dc.lft.to/lastmile_qr_scan"}, "fusion_lon": 0.0, "lat": 38.897305833333334, "bike_id": "9d6c4856df48e8876e81a6d620df9c79", "type": "electric_scooter", "is_reserved": 0, "lon": -77.049955}, {"fusion_lat": 0.0, "name": "96bff95cbf44550259d3f6515ebc86b0", "is_disabled": 0, "rental_uris": {"android": "https://dc.lft.to/lastmile_qr_scan", "ios": "https://dc.lft.to/lastmile_qr_scan"}, "fusion_lon": 0.0, "lat": 38.893513666666664, "bike_id": "96bff95cbf44550259d3f6515ebc86b0", "type": "electric_scooter", "is_reserved": 0, "lon": -77.00069233333333}, {"fusion_lat": 0.0, "name": "58d99884ff5ad10b6f00933fa6f094a5", "is_disabled": 0, "rental_uris": {"android": "https://dc.lft.to/lastmile_qr_scan", "ios": "https://dc.lft.to/lastmile_qr_scan"}, "fusion_lon": 0.0, "lat": 38.8988255, "bike_id": "58d99884ff5ad10b6f00933fa6f094a5", "type": "electric_scooter", "is_reserved": 0, "lon": -77.0466305}, {"fusion_lat": 0.0, "name": "3611cbcaa8977dafd653560a673b15d5", "is_disabled": 0, "rental_uris": {"android": "https://dc.lft.to/lastmile_qr_scan", "ios": "https://dc.lft.to/lastmile_qr_scan"}, "fusion_lon": 0.0, "lat": 38.89258683333333, "bike_id": "3611cbcaa8977dafd653560a673b15d5", "type": "electric_bike", "is_reserved": 0, "lon": -76.95117966666666}, {"fusion_lat": 0.0, "name": "9ed1dc906bd4173d871d68ea32fce2ad", "is_disabled": 0, "rental_uris": {"android": "https://dc.lft.to/lastmile_qr_scan", "ios": "https://dc.lft.to/lastmile_qr_scan"}, "fusion_lon": 0.0, "lat": 38.924609833333335, "bike_id": "9ed1dc906bd4173d871d68ea32fce2ad", "type": "electric_scooter", "is_reserved": 0, "lon": -77.080297}, {"fusion_lat": 0.0, "name": "1add57854abf4cacc9d014537670d204", "is_disabled": 0, "rental_uris": {"android": "https://dc.lft.to/lastmile_qr_scan", "ios": "https://dc.lft.to/lastmile_qr_scan"}, "fusion_lon": 0.0, "lat": 38.89617616666666, "bike_id": "1add57854abf4cacc9d014537670d204", "type": "electric_scooter", "is_reserved": 0, "lon": -77.02669266666666}, {"fusion_lat": 0.0, "name": "17eca031e82e6ce71ae59fd6fb98756e", "is_disabled": 0, "rental_uris": {"android": "https://dc.lft.to/lastmile_qr_scan", "ios": "https://dc.lft.to/lastmile_qr_scan"}, "fusion_lon": 0.0, "lat": 38.913259, "bike_id": "17eca031e82e6ce71ae59fd6fb98756e", "type": "electric_scooter", "is_reserved": 0, "lon": -77.03186933333333}, {"fusion_lat": 0.0, "name": "cc07e3f9d13a5af3dd313830b013c10e", "is_disabled": 0, "rental_uris": {"android": "https://dc.lft.to/lastmile_qr_scan", "ios": "https://dc.lft.to/lastmile_qr_scan"}, "fusion_lon": 0.0, "lat": 38.883189, "bike_id": "cc07e3f9d13a5af3dd313830b013c10e", "type": "electric_scooter", "is_reserved": 0, "lon": -77.01835633333333}, {"fusion_lat": 0.0, "name": "a64d2912a84d95f8e246e5495b652021", "is_disabled": 0, "rental_uris": {"android": "https://dc.lft.to/lastmile_qr_scan", "ios": "https://dc.lft.to/lastmile_qr_scan"}, "fusion_lon": 0.0, "lat": 38.900247666666665, "bike_id": "a64d2912a84d95f8e246e5495b652021", "type": "electric_scooter", "is_reserved": 0, "lon": -77.0003135}, {"fusion_lat": 0.0, "name": "6508251ea677e573d650789f15d8fc87", "is_disabled": 0, "rental_uris": {"android": "https://dc.lft.to/lastmile_qr_scan", "ios": "https://dc.lft.to/lastmile_qr_scan"}, "fusion_lon": 0.0, "lat": 38.910620333333334, "bike_id": "6508251ea677e573d650789f15d8fc87", "type": "electric_scooter", "is_reserved": 0, "lon": -77.052718}, {"fusion_lat": 0.0, "name": "7796b81b32eff220805b1b14a15982a9", "is_disabled": 0, "rental_uris": {"android": "https://dc.lft.to/lastmile_qr_scan", "ios": "https://dc.lft.to/lastmile_qr_scan"}, "fusion_lon": 0.0, "lat": 38.93314866666667, "bike_id": "7796b81b32eff220805b1b14a15982a9", "type": "electric_scooter", "is_reserved": 0, "lon": -77.02755716666667}, {"fusion_lat": 0.0, "name": "78e646dfcdcd49a89e0ce87e6547c3c2", "is_disabled": 0, "rental_uris": {"android": "https://dc.lft.to/lastmile_qr_scan", "ios": "https://dc.lft.to/lastmile_qr_scan"}, "fusion_lon": 0.0, "lat": 38.91702433333333, "bike_id": "78e646dfcdcd49a89e0ce87e6547c3c2", "type": "electric_scooter", "is_reserved": 0, "lon": -77.001137}, {"fusion_lat": 0.0, "name": "e56986743e5ca5315eae4c9278af8d29", "is_disabled": 0, "rental_uris": {"android": "https://dc.lft.to/lastmile_qr_scan", "ios": "https://dc.lft.to/lastmile_qr_scan"}, "fusion_lon": 0.0, "lat": 38.920835833333335, "bike_id": "e56986743e5ca5315eae4c9278af8d29", "type": "electric_scooter", "is_reserved": 0, "lon": -76.99788966666667}, {"fusion_lat": 0.0, "name": "f96c1191306fd4754e5c9def8755baa3", "is_disabled": 0, "rental_uris": {"android": "https://dc.lft.to/lastmile_qr_scan", "ios": "https://dc.lft.to/lastmile_qr_scan"}, "fusion_lon": 0.0, "lat": 38.9006145, "bike_id": "f96c1191306fd4754e5c9def8755baa3", "type": "electric_scooter", "is_reserved": 0, "lon": -76.9856085}, {"fusion_lat": 0.0, "name": "eabf7c4bdd036afc1a9fe5a469f6aa4d", "is_disabled": 0, "rental_uris": {"android": "https://dc.lft.to/lastmile_qr_scan", "ios": "https://dc.lft.to/lastmile_qr_scan"}, "fusion_lon": 0.0, "lat": 38.89850533333333, "bike_id": "eabf7c4bdd036afc1a9fe5a469f6aa4d", "type": "electric_scooter", "is_reserved": 0, "lon": -76.99034033333334}, {"fusion_lat": 0.0, "name": "8b7be172ec54eddff87c88e72e3ba66c", "is_disabled": 0, "rental_uris": {"android": "https://dc.lft.to/lastmile_qr_scan", "ios": "https://dc.lft.to/lastmile_qr_scan"}, "fusion_lon": 0.0, "lat": 38.92874533333333, "bike_id": "8b7be172ec54eddff87c88e72e3ba66c", "type": "electric_scooter", "is_reserved": 0, "lon": -77.03795066666666}, {"fusion_lat": 0.0, "name": "fdc75b29ca6f5041e3c27b6818afebeb", "is_disabled": 0, "rental_uris": {"android": "https://dc.lft.to/lastmile_qr_scan", "ios": "https://dc.lft.to/lastmile_qr_scan"}, "fusion_lon": 0.0, "lat": 38.912679, "bike_id": "fdc75b29ca6f5041e3c27b6818afebeb", "type": "electric_scooter", "is_reserved": 0, "lon": -77.03143683333333}, {"fusion_lat": 0.0, "name": "c5c88c68de9dd4ae2a20f46608bc6e04", "is_disabled": 0, "rental_uris": {"android": "https://dc.lft.to/lastmile_qr_scan", "ios": "https://dc.lft.to/lastmile_qr_scan"}, "fusion_lon": 0.0, "lat": 38.94403533333333, "bike_id": "c5c88c68de9dd4ae2a20f46608bc6e04", "type": "electric_scooter", "is_reserved": 0, "lon": -77.0362375}, {"fusion_lat": 0.0, "name": "0dfad66e5012a5c58e0d4bc664c75f39", "is_disabled": 0, "rental_uris": {"android": "https://dc.lft.to/lastmile_qr_scan", "ios": "https://dc.lft.to/lastmile_qr_scan"}, "fusion_lon": 0.0, "lat": 38.928711, "bike_id": "0dfad66e5012a5c58e0d4bc664c75f39", "type": "electric_scooter", "is_reserved": 0, "lon": -77.032819}, {"fusion_lat": 0.0, "name": "241303fcb9f22afbf956db851e130e01", "is_disabled": 0, "rental_uris": {"android": "https://dc.lft.to/lastmile_qr_scan", "ios": "https://dc.lft.to/lastmile_qr_scan"}, "fusion_lon": 0.0, "lat": 38.933941, "bike_id": "241303fcb9f22afbf956db851e130e01", "type": "electric_scooter", "is_reserved": 0, "lon": -77.05772916666666}, {"fusion_lat": 0.0, "name": "b9f3eee704327bbaf34332b7dec028d2", "is_disabled": 0, "rental_uris": {"android": "https://dc.lft.to/lastmile_qr_scan", "ios": "https://dc.lft.to/lastmile_qr_scan"}, "fusion_lon": 0.0, "lat": 38.907754, "bike_id": "b9f3eee704327bbaf34332b7dec028d2", "type": "electric_scooter", "is_reserved": 0, "lon": -77.03862833333334}, {"fusion_lat": 0.0, "name": "01d4ecddbaecbabf62efc30be3914165", "is_disabled": 0, "rental_uris": {"android": "https://dc.lft.to/lastmile_qr_scan", "ios": "https://dc.lft.to/lastmile_qr_scan"}, "fusion_lon": 0.0, "lat": 38.92863416666667, "bike_id": "01d4ecddbaecbabf62efc30be3914165", "type": "electric_scooter", "is_reserved": 0, "lon": -77.03225}, {"fusion_lat": 0.0, "name": "d85d8ec82da46824adc8444732f444d7", "is_disabled": 0, "rental_uris": {"android": "https://dc.lft.to/lastmile_qr_scan", "ios": "https://dc.lft.to/lastmile_qr_scan"}, "fusion_lon": 0.0, "lat": 38.865153166666666, "bike_id": "d85d8ec82da46824adc8444732f444d7", "type": "electric_bike", "is_reserved": 0, "lon": -77.129371}, {"fusion_lat": 0.0, "name": "9fc5a05383b255261b945c2598fa5b39", "is_disabled": 0, "rental_uris": {"android": "https://dc.lft.to/lastmile_qr_scan", "ios": "https://dc.lft.to/lastmile_qr_scan"}, "fusion_lon": 0.0, "lat": 38.9021725, "bike_id": "9fc5a05383b255261b945c2598fa5b39", "type": "electric_scooter", "is_reserved": 0, "lon": -76.99507966666667}, {"fusion_lat": 0.0, "name": "c141035c9370662d377b369dbc371234", "is_disabled": 0, "rental_uris": {"android": "https://dc.lft.to/lastmile_qr_scan", "ios": "https://dc.lft.to/lastmile_qr_scan"}, "fusion_lon": 0.0, "lat": 38.91838166666667, "bike_id": "c141035c9370662d377b369dbc371234", "type": "electric_scooter", "is_reserved": 0, "lon": -77.03212466666666}, {"fusion_lat": 0.0, "name": "5b437a15ffaf2500a3403f5547387c00", "is_disabled": 0, "rental_uris": {"android": "https://dc.lft.to/lastmile_qr_scan", "ios": "https://dc.lft.to/lastmile_qr_scan"}, "fusion_lon": 0.0, "lat": 38.9249485, "bike_id": "5b437a15ffaf2500a3403f5547387c00", "type": "electric_scooter", "is_reserved": 0, "lon": -77.051164}, {"fusion_lat": 0.0, "name": "a5197ba671f71477d12aef846b3126f8", "is_disabled": 0, "rental_uris": {"android": "https://dc.lft.to/lastmile_qr_scan", "ios": "https://dc.lft.to/lastmile_qr_scan"}, "fusion_lon": 0.0, "lat": 38.919214833333335, "bike_id": "a5197ba671f71477d12aef846b3126f8", "type": "electric_scooter", "is_reserved": 0, "lon": -77.02512433333334}, {"fusion_lat": 0.0, "name": "1a674e2b6e0c1a0388bc645373760ba7", "is_disabled": 0, "rental_uris": {"android": "https://dc.lft.to/lastmile_qr_scan", "ios": "https://dc.lft.to/lastmile_qr_scan"}, "fusion_lon": 0.0, "lat": 38.93813016666667, "bike_id": "1a674e2b6e0c1a0388bc645373760ba7", "type": "electric_scooter", "is_reserved": 0, "lon": -77.060224}, {"fusion_lat": 0.0, "name": "93cff2ce6d4160ac6807cc80493b26c8", "is_disabled": 0, "rental_uris": {"android": "https://dc.lft.to/lastmile_qr_scan", "ios": "https://dc.lft.to/lastmile_qr_scan"}, "fusion_lon": 0.0, "lat": 38.903774166666665, "bike_id": "93cff2ce6d4160ac6807cc80493b26c8", "type": "electric_scooter", "is_reserved": 0, "lon": -76.99565433333333}, {"fusion_lat": 0.0, "name": "c7509ad445d5d4d6852b6d4e78c61d11", "is_disabled": 0, "rental_uris": {"android": "https://dc.lft.to/lastmile_qr_scan", "ios": "https://dc.lft.to/lastmile_qr_scan"}, "fusion_lon": 0.0, "lat": 38.92480483333333, "bike_id": "c7509ad445d5d4d6852b6d4e78c61d11", "type": "electric_scooter", "is_reserved": 0, "lon": -77.02633516666667}, {"fusion_lat": 0.0, "name": "faf50840a864c5afd851cc9c8338d337", "is_disabled": 0, "rental_uris": {"android": "https://dc.lft.to/lastmile_qr_scan", "ios": "https://dc.lft.to/lastmile_qr_scan"}, "fusion_lon": 0.0, "lat": 38.931951833333336, "bike_id": "faf50840a864c5afd851cc9c8338d337", "type": "electric_bike", "is_reserved": 0, "lon": -77.22927883333334}, {"fusion_lat": 0.0, "name": "1ce7ecf1892bc4c420fe5fe59c719e20", "is_disabled": 0, "rental_uris": {"android": "https://dc.lft.to/lastmile_qr_scan", "ios": "https://dc.lft.to/lastmile_qr_scan"}, "fusion_lon": 0.0, "lat": 38.900458, "bike_id": "1ce7ecf1892bc4c420fe5fe59c719e20", "type": "electric_scooter", "is_reserved": 0, "lon": -77.00200683333334}, {"fusion_lat": 0.0, "name": "b22f6bca6b0c8cfe7c23e4d5e59ed217", "is_disabled": 0, "rental_uris": {"android": "https://dc.lft.to/lastmile_qr_scan", "ios": "https://dc.lft.to/lastmile_qr_scan"}, "fusion_lon": 0.0, "lat": 38.8926085, "bike_id": "b22f6bca6b0c8cfe7c23e4d5e59ed217", "type": "electric_scooter", "is_reserved": 0, "lon": -77.0259295}, {"fusion_lat": 0.0, "name": "8aa54defb0965b6e9b02acc516f907d7", "is_disabled": 0, "rental_uris": {"android": "https://dc.lft.to/lastmile_qr_scan", "ios": "https://dc.lft.to/lastmile_qr_scan"}, "fusion_lon": 0.0, "lat": 38.935117166666664, "bike_id": "8aa54defb0965b6e9b02acc516f907d7", "type": "electric_scooter", "is_reserved": 0, "lon": -77.03266533333333}, {"fusion_lat": 0.0, "name": "4e7ece1865b60b1f04cb43a06866d70e", "is_disabled": 0, "rental_uris": {"android": "https://dc.lft.to/lastmile_qr_scan", "ios": "https://dc.lft.to/lastmile_qr_scan"}, "fusion_lon": 0.0, "lat": 38.922431333333336, "bike_id": "4e7ece1865b60b1f04cb43a06866d70e", "type": "electric_scooter", "is_reserved": 0, "lon": -77.074788}, {"fusion_lat": 0.0, "name": "9906dfaf596bdaeb3a8fc211d999bf7a", "is_disabled": 0, "rental_uris": {"android": "https://dc.lft.to/lastmile_qr_scan", "ios": "https://dc.lft.to/lastmile_qr_scan"}, "fusion_lon": 0.0, "lat": 38.9205795, "bike_id": "9906dfaf596bdaeb3a8fc211d999bf7a", "type": "electric_scooter", "is_reserved": 0, "lon": -77.04250933333333}, {"fusion_lat": 0.0, "name": "ba1de34599183a7b1f6c0b3769c2f118", "is_disabled": 0, "rental_uris": {"android": "https://dc.lft.to/lastmile_qr_scan", "ios": "https://dc.lft.to/lastmile_qr_scan"}, "fusion_lon": 0.0, "lat": 38.90765416666667, "bike_id": "ba1de34599183a7b1f6c0b3769c2f118", "type": "electric_scooter", "is_reserved": 0, "lon": -77.056959}, {"fusion_lat": 0.0, "name": "f9a07e36598cf85774b11f7985d60c76", "is_disabled": 0, "rental_uris": {"android": "https://dc.lft.to/lastmile_qr_scan", "ios": "https://dc.lft.to/lastmile_qr_scan"}, "fusion_lon": 0.0, "lat": 38.92016183333333, "bike_id": "f9a07e36598cf85774b11f7985d60c76", "type": "electric_scooter", "is_reserved": 0, "lon": -77.031487}, {"fusion_lat": 0.0, "name": "6a47585180e094e12e930dec94f7699f", "is_disabled": 0, "rental_uris": {"android": "https://dc.lft.to/lastmile_qr_scan", "ios": "https://dc.lft.to/lastmile_qr_scan"}, "fusion_lon": 0.0, "lat": 38.899688833333336, "bike_id": "6a47585180e094e12e930dec94f7699f", "type": "electric_scooter", "is_reserved": 0, "lon": -77.01881666666667}, {"fusion_lat": 0.0, "name": "5e6fa5cce862d11231138afd5ac23bdb", "is_disabled": 0, "rental_uris": {"android": "https://dc.lft.to/lastmile_qr_scan", "ios": "https://dc.lft.to/lastmile_qr_scan"}, "fusion_lon": 0.0, "lat": 38.909491333333335, "bike_id": "5e6fa5cce862d11231138afd5ac23bdb", "type": "electric_bike", "is_reserved": 0, "lon": -76.9845275}, {"fusion_lat": 0.0, "name": "664619894a38e09d2a52ab56bf088203", "is_disabled": 0, "rental_uris": {"android": "https://dc.lft.to/lastmile_qr_scan", "ios": "https://dc.lft.to/lastmile_qr_scan"}, "fusion_lon": 0.0, "lat": 38.89722533333333, "bike_id": "664619894a38e09d2a52ab56bf088203", "type": "electric_scooter", "is_reserved": 0, "lon": -77.0233455}, {"fusion_lat": 0.0, "name": "518099215ea9f1c802d4f7f2824233ff", "is_disabled": 0, "rental_uris": {"android": "https://dc.lft.to/lastmile_qr_scan", "ios": "https://dc.lft.to/lastmile_qr_scan"}, "fusion_lon": 0.0, "lat": 38.92593016666667, "bike_id": "518099215ea9f1c802d4f7f2824233ff", "type": "electric_scooter", "is_reserved": 0, "lon": -77.04404433333333}, {"fusion_lat": 0.0, "name": "34b3134221553114dfe633e5420d366b", "is_disabled": 0, "rental_uris": {"android": "https://dc.lft.to/lastmile_qr_scan", "ios": "https://dc.lft.to/lastmile_qr_scan"}, "fusion_lon": 0.0, "lat": 38.89725466666667, "bike_id": "34b3134221553114dfe633e5420d366b", "type": "electric_scooter", "is_reserved": 0, "lon": -77.0234755}, {"fusion_lat": 0.0, "name": "5f953bb3232fdbf079ac4b16cb31d3cd", "is_disabled": 0, "rental_uris": {"android": "https://dc.lft.to/lastmile_qr_scan", "ios": "https://dc.lft.to/lastmile_qr_scan"}, "fusion_lon": 0.0, "lat": 38.92515083333333, "bike_id": "5f953bb3232fdbf079ac4b16cb31d3cd", "type": "electric_scooter", "is_reserved": 0, "lon": -77.02359216666666}, {"fusion_lat": 0.0, "name": "ccc9c128c9a2190b0d88ecaa17777572", "is_disabled": 0, "rental_uris": {"android": "https://dc.lft.to/lastmile_qr_scan", "ios": "https://dc.lft.to/lastmile_qr_scan"}, "fusion_lon": 0.0, "lat": 38.9111235, "bike_id": "ccc9c128c9a2190b0d88ecaa17777572", "type": "electric_scooter", "is_reserved": 0, "lon": -77.081306}, {"fusion_lat": 0.0, "name": "9e8e5350aea0bb09d0941c25badded95", "is_disabled": 0, "rental_uris": {"android": "https://dc.lft.to/lastmile_qr_scan", "ios": "https://dc.lft.to/lastmile_qr_scan"}, "fusion_lon": 0.0, "lat": 38.936950833333334, "bike_id": "9e8e5350aea0bb09d0941c25badded95", "type": "electric_scooter", "is_reserved": 0, "lon": -77.0560175}, {"fusion_lat": 0.0, "name": "4a8864f8b23f8fa6c1aea2a03a89b8bf", "is_disabled": 0, "rental_uris": {"android": "https://dc.lft.to/lastmile_qr_scan", "ios": "https://dc.lft.to/lastmile_qr_scan"}, "fusion_lon": 0.0, "lat": 38.93460783333333, "bike_id": "4a8864f8b23f8fa6c1aea2a03a89b8bf", "type": "electric_scooter", "is_reserved": 0, "lon": -77.02783883333333}, {"fusion_lat": 0.0, "name": "41e9f91342f65aa59ef3b3f77e3c7bf2", "is_disabled": 0, "rental_uris": {"android": "https://dc.lft.to/lastmile_qr_scan", "ios": "https://dc.lft.to/lastmile_qr_scan"}, "fusion_lon": 0.0, "lat": 38.885373, "bike_id": "41e9f91342f65aa59ef3b3f77e3c7bf2", "type": "electric_scooter", "is_reserved": 0, "lon": -77.00055983333333}, {"fusion_lat": 0.0, "name": "a0540b6c88296665cccdf8584045dd00", "is_disabled": 0, "rental_uris": {"android": "https://dc.lft.to/lastmile_qr_scan", "ios": "https://dc.lft.to/lastmile_qr_scan"}, "fusion_lon": 0.0, "lat": 38.919852, "bike_id": "a0540b6c88296665cccdf8584045dd00", "type": "electric_scooter", "is_reserved": 0, "lon": -77.02394066666666}, {"fusion_lat": 0.0, "name": "cddc4774f58f959d3dcd0d32180192f8", "is_disabled": 0, "rental_uris": {"android": "https://dc.lft.to/lastmile_qr_scan", "ios": "https://dc.lft.to/lastmile_qr_scan"}, "fusion_lon": 0.0, "lat": 38.892566333333335, "bike_id": "cddc4774f58f959d3dcd0d32180192f8", "type": "electric_scooter", "is_reserved": 0, "lon": -77.04660183333333}, {"fusion_lat": 0.0, "name": "4a55efc5590ca8cb604c275e229e8d61", "is_disabled": 0, "rental_uris": {"android": "https://dc.lft.to/lastmile_qr_scan", "ios": "https://dc.lft.to/lastmile_qr_scan"}, "fusion_lon": 0.0, "lat": 38.91582983333333, "bike_id": "4a55efc5590ca8cb604c275e229e8d61", "type": "electric_scooter", "is_reserved": 0, "lon": -77.02296683333333}, {"fusion_lat": 0.0, "name": "b73c7611abd308791220877278dbc13a", "is_disabled": 0, "rental_uris": {"android": "https://dc.lft.to/lastmile_qr_scan", "ios": "https://dc.lft.to/lastmile_qr_scan"}, "fusion_lon": 0.0, "lat": 38.91760133333333, "bike_id": "b73c7611abd308791220877278dbc13a", "type": "electric_scooter", "is_reserved": 0, "lon": -77.03077033333334}, {"fusion_lat": 0.0, "name": "a8dd0bdacdebe5e90db6317ded3f11ea", "is_disabled": 0, "rental_uris": {"android": "https://dc.lft.to/lastmile_qr_scan", "ios": "https://dc.lft.to/lastmile_qr_scan"}, "fusion_lon": 0.0, "lat": 38.8924095, "bike_id": "a8dd0bdacdebe5e90db6317ded3f11ea", "type": "electric_scooter", "is_reserved": 0, "lon": -77.033486}, {"fusion_lat": 0.0, "name": "f6e916a97e6f07e8768225e92e276091", "is_disabled": 0, "rental_uris": {"android": "https://dc.lft.to/lastmile_qr_scan", "ios": "https://dc.lft.to/lastmile_qr_scan"}, "fusion_lon": 0.0, "lat": 38.92143183333334, "bike_id": "f6e916a97e6f07e8768225e92e276091", "type": "electric_scooter", "is_reserved": 0, "lon": -77.01802533333333}, {"fusion_lat": 0.0, "name": "4c174bb23e821d6f3efff3eca203ed8e", "is_disabled": 0, "rental_uris": {"android": "https://dc.lft.to/lastmile_qr_scan", "ios": "https://dc.lft.to/lastmile_qr_scan"}, "fusion_lon": 0.0, "lat": 38.90970016666667, "bike_id": "4c174bb23e821d6f3efff3eca203ed8e", "type": "electric_scooter", "is_reserved": 0, "lon": -77.02179166666667}, {"fusion_lat": 0.0, "name": "3a11b17cfbfafe07b11a8142bf397ac3", "is_disabled": 0, "rental_uris": {"android": "https://dc.lft.to/lastmile_qr_scan", "ios": "https://dc.lft.to/lastmile_qr_scan"}, "fusion_lon": 0.0, "lat": 38.86622283333333, "bike_id": "3a11b17cfbfafe07b11a8142bf397ac3", "type": "electric_scooter", "is_reserved": 0, "lon": -76.98714466666667}, {"fusion_lat": 0.0, "name": "37a8f0ea16536c5fd7f2f4e141a04210", "is_disabled": 0, "rental_uris": {"android": "https://dc.lft.to/lastmile_qr_scan", "ios": "https://dc.lft.to/lastmile_qr_scan"}, "fusion_lon": 0.0, "lat": 38.887269333333336, "bike_id": "37a8f0ea16536c5fd7f2f4e141a04210", "type": "electric_scooter", "is_reserved": 0, "lon": -76.98356516666666}, {"fusion_lat": 0.0, "name": "95c9a914a3632b0c5041ee7f06282456", "is_disabled": 0, "rental_uris": {"android": "https://dc.lft.to/lastmile_qr_scan", "ios": "https://dc.lft.to/lastmile_qr_scan"}, "fusion_lon": 0.0, "lat": 38.924171333333334, "bike_id": "95c9a914a3632b0c5041ee7f06282456", "type": "electric_scooter", "is_reserved": 0, "lon": -77.02009183333334}, {"fusion_lat": 0.0, "name": "187db32cc5eb2f9082e1e0f42153b0d9", "is_disabled": 0, "rental_uris": {"android": "https://dc.lft.to/lastmile_qr_scan", "ios": "https://dc.lft.to/lastmile_qr_scan"}, "fusion_lon": 0.0, "lat": 38.944471166666666, "bike_id": "187db32cc5eb2f9082e1e0f42153b0d9", "type": "electric_scooter", "is_reserved": 0, "lon": -77.02342716666666}, {"fusion_lat": 0.0, "name": "adedf8cf2da3b1de51f4b4579e688e8e", "is_disabled": 0, "rental_uris": {"android": "https://dc.lft.to/lastmile_qr_scan", "ios": "https://dc.lft.to/lastmile_qr_scan"}, "fusion_lon": 0.0, "lat": 38.90257233333333, "bike_id": "adedf8cf2da3b1de51f4b4579e688e8e", "type": "electric_scooter", "is_reserved": 0, "lon": -77.04375033333334}, {"fusion_lat": 0.0, "name": "f9f4c5d7d20f92f0b81b6a454e0512dc", "is_disabled": 0, "rental_uris": {"android": "https://dc.lft.to/lastmile_qr_scan", "ios": "https://dc.lft.to/lastmile_qr_scan"}, "fusion_lon": 0.0, "lat": 38.93149833333333, "bike_id": "f9f4c5d7d20f92f0b81b6a454e0512dc", "type": "electric_scooter", "is_reserved": 0, "lon": -77.07854483333334}, {"fusion_lat": 0.0, "name": "41a76dbbf4d695202cc0c7222fb73683", "is_disabled": 0, "rental_uris": {"android": "https://dc.lft.to/lastmile_qr_scan", "ios": "https://dc.lft.to/lastmile_qr_scan"}, "fusion_lon": 0.0, "lat": 38.90089416666667, "bike_id": "41a76dbbf4d695202cc0c7222fb73683", "type": "electric_scooter", "is_reserved": 0, "lon": -77.05835316666666}, {"fusion_lat": 0.0, "name": "4f3f31d1e8958401a9e77b99bf6e05e4", "is_disabled": 0, "rental_uris": {"android": "https://dc.lft.to/lastmile_qr_scan", "ios": "https://dc.lft.to/lastmile_qr_scan"}, "fusion_lon": 0.0, "lat": 38.91920116666667, "bike_id": "4f3f31d1e8958401a9e77b99bf6e05e4", "type": "electric_scooter", "is_reserved": 0, "lon": -77.02515383333333}, {"fusion_lat": 0.0, "name": "144f87958109c659401a73d5205e45bc", "is_disabled": 0, "rental_uris": {"android": "https://dc.lft.to/lastmile_qr_scan", "ios": "https://dc.lft.to/lastmile_qr_scan"}, "fusion_lon": 0.0, "lat": 38.90314816666667, "bike_id": "144f87958109c659401a73d5205e45bc", "type": "electric_scooter", "is_reserved": 0, "lon": -76.97803516666667}, {"fusion_lat": 0.0, "name": "1ff17025aae9d004dea82bec08ca1be2", "is_disabled": 0, "rental_uris": {"android": "https://dc.lft.to/lastmile_qr_scan", "ios": "https://dc.lft.to/lastmile_qr_scan"}, "fusion_lon": 0.0, "lat": 38.905644333333335, "bike_id": "1ff17025aae9d004dea82bec08ca1be2", "type": "electric_scooter", "is_reserved": 0, "lon": -77.03060416666666}, {"fusion_lat": 0.0, "name": "b2c30a4b7de6fc005990af912a1174a9", "is_disabled": 0, "rental_uris": {"android": "https://dc.lft.to/lastmile_qr_scan", "ios": "https://dc.lft.to/lastmile_qr_scan"}, "fusion_lon": 0.0, "lat": 38.946242166666664, "bike_id": "b2c30a4b7de6fc005990af912a1174a9", "type": "electric_scooter", "is_reserved": 0, "lon": -77.03283683333333}, {"fusion_lat": 0.0, "name": "1127051eed2fdd0bbd3e53e3c1c9e644", "is_disabled": 0, "rental_uris": {"android": "https://dc.lft.to/lastmile_qr_scan", "ios": "https://dc.lft.to/lastmile_qr_scan"}, "fusion_lon": 0.0, "lat": 38.8835555, "bike_id": "1127051eed2fdd0bbd3e53e3c1c9e644", "type": "electric_scooter", "is_reserved": 0, "lon": -76.9951315}, {"fusion_lat": 0.0, "name": "a7bde273f499f7dc1d19a8cdc9253618", "is_disabled": 0, "rental_uris": {"android": "https://dc.lft.to/lastmile_qr_scan", "ios": "https://dc.lft.to/lastmile_qr_scan"}, "fusion_lon": 0.0, "lat": 38.89815466666667, "bike_id": "a7bde273f499f7dc1d19a8cdc9253618", "type": "electric_scooter", "is_reserved": 0, "lon": -77.02808133333333}, {"fusion_lat": 0.0, "name": "0b0609f378fac342fd35d6c9f6f21b28", "is_disabled": 0, "rental_uris": {"android": "https://dc.lft.to/lastmile_qr_scan", "ios": "https://dc.lft.to/lastmile_qr_scan"}, "fusion_lon": 0.0, "lat": 38.888706666666664, "bike_id": "0b0609f378fac342fd35d6c9f6f21b28", "type": "electric_scooter", "is_reserved": 0, "lon": -76.98456}, {"fusion_lat": 0.0, "name": "d40a1aa1616e219a95fbe896c299b6c9", "is_disabled": 0, "rental_uris": {"android": "https://dc.lft.to/lastmile_qr_scan", "ios": "https://dc.lft.to/lastmile_qr_scan"}, "fusion_lon": 0.0, "lat": 38.85510516666667, "bike_id": "d40a1aa1616e219a95fbe896c299b6c9", "type": "electric_bike", "is_reserved": 0, "lon": -77.10539933333334}, {"fusion_lat": 0.0, "name": "54ec78fb1f8dfd67b2260da4f1521107", "is_disabled": 0, "rental_uris": {"android": "https://dc.lft.to/lastmile_qr_scan", "ios": "https://dc.lft.to/lastmile_qr_scan"}, "fusion_lon": 0.0, "lat": 38.919642833333334, "bike_id": "54ec78fb1f8dfd67b2260da4f1521107", "type": "electric_scooter", "is_reserved": 0, "lon": -77.0010605}, {"fusion_lat": 0.0, "name": "9fa25c31079f402caac9a72fc7e38601", "is_disabled": 0, "rental_uris": {"android": "https://dc.lft.to/lastmile_qr_scan", "ios": "https://dc.lft.to/lastmile_qr_scan"}, "fusion_lon": 0.0, "lat": 38.901799, "bike_id": "9fa25c31079f402caac9a72fc7e38601", "type": "electric_scooter", "is_reserved": 0, "lon": -76.92901566666667}, {"fusion_lat": 0.0, "name": "1f524fb28d01490ccf1c882f29c35a9a", "is_disabled": 0, "rental_uris": {"android": "https://dc.lft.to/lastmile_qr_scan", "ios": "https://dc.lft.to/lastmile_qr_scan"}, "fusion_lon": 0.0, "lat": 38.88648516666667, "bike_id": "1f524fb28d01490ccf1c882f29c35a9a", "type": "electric_scooter", "is_reserved": 0, "lon": -76.92590183333333}, {"fusion_lat": 0.0, "name": "ad02b9394f4b33e3930ef59229684774", "is_disabled": 0, "rental_uris": {"android": "https://dc.lft.to/lastmile_qr_scan", "ios": "https://dc.lft.to/lastmile_qr_scan"}, "fusion_lon": 0.0, "lat": 38.907180333333336, "bike_id": "ad02b9394f4b33e3930ef59229684774", "type": "electric_scooter", "is_reserved": 0, "lon": -77.0254275}, {"fusion_lat": 0.0, "name": "62ffa66d67a4620cad23df7b19e38c60", "is_disabled": 0, "rental_uris": {"android": "https://dc.lft.to/lastmile_qr_scan", "ios": "https://dc.lft.to/lastmile_qr_scan"}, "fusion_lon": 0.0, "lat": 38.92045183333333, "bike_id": "62ffa66d67a4620cad23df7b19e38c60", "type": "electric_scooter", "is_reserved": 0, "lon": -77.002097}, {"fusion_lat": 0.0, "name": "d6c3e4abab3ee9df33cc07e5220a08a7", "is_disabled": 0, "rental_uris": {"android": "https://dc.lft.to/lastmile_qr_scan", "ios": "https://dc.lft.to/lastmile_qr_scan"}, "fusion_lon": 0.0, "lat": 38.928281166666665, "bike_id": "d6c3e4abab3ee9df33cc07e5220a08a7", "type": "electric_scooter", "is_reserved": 0, "lon": -77.0544065}, {"fusion_lat": 0.0, "name": "4ef21f670b02638fec06b19483c469f6", "is_disabled": 0, "rental_uris": {"android": "https://dc.lft.to/lastmile_qr_scan", "ios": "https://dc.lft.to/lastmile_qr_scan"}, "fusion_lon": 0.0, "lat": 38.88305883333334, "bike_id": "4ef21f670b02638fec06b19483c469f6", "type": "electric_scooter", "is_reserved": 0, "lon": -77.01388816666666}, {"fusion_lat": 0.0, "name": "f8e608fa0b7e92b55cb4b7fca6743161", "is_disabled": 0, "rental_uris": {"android": "https://dc.lft.to/lastmile_qr_scan", "ios": "https://dc.lft.to/lastmile_qr_scan"}, "fusion_lon": 0.0, "lat": 38.92333283333333, "bike_id": "f8e608fa0b7e92b55cb4b7fca6743161", "type": "electric_scooter", "is_reserved": 0, "lon": -77.041342}, {"fusion_lat": 0.0, "name": "93950b8bedfeb5d4a6532611211ae389", "is_disabled": 0, "rental_uris": {"android": "https://dc.lft.to/lastmile_qr_scan", "ios": "https://dc.lft.to/lastmile_qr_scan"}, "fusion_lon": 0.0, "lat": 38.90247183333334, "bike_id": "93950b8bedfeb5d4a6532611211ae389", "type": "electric_scooter", "is_reserved": 0, "lon": -77.04385766666667}, {"fusion_lat": 0.0, "name": "4a16d632c11c3b0722564d4acb5ace63", "is_disabled": 0, "rental_uris": {"android": "https://dc.lft.to/lastmile_qr_scan", "ios": "https://dc.lft.to/lastmile_qr_scan"}, "fusion_lon": 0.0, "lat": 39.03896066666667, "bike_id": "4a16d632c11c3b0722564d4acb5ace63", "type": "electric_bike", "is_reserved": 0, "lon": -77.0502935}, {"fusion_lat": 0.0, "name": "02518e92aa5697c3bb9e63f863e3e302", "is_disabled": 0, "rental_uris": {"android": "https://dc.lft.to/lastmile_qr_scan", "ios": "https://dc.lft.to/lastmile_qr_scan"}, "fusion_lon": 0.0, "lat": 38.92325133333333, "bike_id": "02518e92aa5697c3bb9e63f863e3e302", "type": "electric_scooter", "is_reserved": 0, "lon": -77.0296755}, {"fusion_lat": 0.0, "name": "b7f0476d9a9e34f38241153ff84d5a3a", "is_disabled": 0, "rental_uris": {"android": "https://dc.lft.to/lastmile_qr_scan", "ios": "https://dc.lft.to/lastmile_qr_scan"}, "fusion_lon": 0.0, "lat": 38.97255116666667, "bike_id": "b7f0476d9a9e34f38241153ff84d5a3a", "type": "electric_bike", "is_reserved": 0, "lon": -76.99275766666666}, {"fusion_lat": 0.0, "name": "fc10b4bd6f063899089805f81e925e18", "is_disabled": 0, "rental_uris": {"android": "https://dc.lft.to/lastmile_qr_scan", "ios": "https://dc.lft.to/lastmile_qr_scan"}, "fusion_lon": 0.0, "lat": 38.899571, "bike_id": "fc10b4bd6f063899089805f81e925e18", "type": "electric_scooter", "is_reserved": 0, "lon": -76.9973155}, {"fusion_lat": 0.0, "name": "57798480c0dbe3f7e8e1a539ccd9e810", "is_disabled": 0, "rental_uris": {"android": "https://dc.lft.to/lastmile_qr_scan", "ios": "https://dc.lft.to/lastmile_qr_scan"}, "fusion_lon": 0.0, "lat": 38.896815833333335, "bike_id": "57798480c0dbe3f7e8e1a539ccd9e810", "type": "electric_scooter", "is_reserved": 0, "lon": -77.05093566666666}, {"fusion_lat": 0.0, "name": "832396b0d21a3da3a99c7b42f8e09f31", "is_disabled": 0, "rental_uris": {"android": "https://dc.lft.to/lastmile_qr_scan", "ios": "https://dc.lft.to/lastmile_qr_scan"}, "fusion_lon": 0.0, "lat": 38.92448066666667, "bike_id": "832396b0d21a3da3a99c7b42f8e09f31", "type": "electric_scooter", "is_reserved": 0, "lon": -77.008784}, {"fusion_lat": 0.0, "name": "e99a02ea75c554d4afd863e86e03ac7f", "is_disabled": 0, "rental_uris": {"android": "https://dc.lft.to/lastmile_qr_scan", "ios": "https://dc.lft.to/lastmile_qr_scan"}, "fusion_lon": 0.0, "lat": 38.90700983333333, "bike_id": "e99a02ea75c554d4afd863e86e03ac7f", "type": "electric_scooter", "is_reserved": 0, "lon": -77.06527833333334}, {"fusion_lat": 0.0, "name": "877df95c87687c705b5b8f7d332e92d5", "is_disabled": 0, "rental_uris": {"android": "https://dc.lft.to/lastmile_qr_scan", "ios": "https://dc.lft.to/lastmile_qr_scan"}, "fusion_lon": 0.0, "lat": 38.93352133333333, "bike_id": "877df95c87687c705b5b8f7d332e92d5", "type": "electric_scooter", "is_reserved": 0, "lon": -77.02382233333333}, {"fusion_lat": 0.0, "name": "0ceea9d3e4e8a3a9dcc414b964ac7b6c", "is_disabled": 0, "rental_uris": {"android": "https://dc.lft.to/lastmile_qr_scan", "ios": "https://dc.lft.to/lastmile_qr_scan"}, "fusion_lon": 0.0, "lat": 38.8876655, "bike_id": "0ceea9d3e4e8a3a9dcc414b964ac7b6c", "type": "electric_scooter", "is_reserved": 0, "lon": -76.983532}, {"fusion_lat": 0.0, "name": "b8650005ab3b64cb125445019f356c3e", "is_disabled": 0, "rental_uris": {"android": "https://dc.lft.to/lastmile_qr_scan", "ios": "https://dc.lft.to/lastmile_qr_scan"}, "fusion_lon": 0.0, "lat": 38.908818833333335, "bike_id": "b8650005ab3b64cb125445019f356c3e", "type": "electric_scooter", "is_reserved": 0, "lon": -77.034607}, {"fusion_lat": 0.0, "name": "d86c794799f859884e86e1e18b8e8a40", "is_disabled": 0, "rental_uris": {"android": "https://dc.lft.to/lastmile_qr_scan", "ios": "https://dc.lft.to/lastmile_qr_scan"}, "fusion_lon": 0.0, "lat": 38.898384166666666, "bike_id": "d86c794799f859884e86e1e18b8e8a40", "type": "electric_scooter", "is_reserved": 0, "lon": -77.03322383333334}, {"fusion_lat": 0.0, "name": "3dada52c98eec931c1fce409a969e590", "is_disabled": 0, "rental_uris": {"android": "https://dc.lft.to/lastmile_qr_scan", "ios": "https://dc.lft.to/lastmile_qr_scan"}, "fusion_lon": 0.0, "lat": 38.919388, "bike_id": "3dada52c98eec931c1fce409a969e590", "type": "electric_scooter", "is_reserved": 0, "lon": -77.025068}, {"fusion_lat": 0.0, "name": "b6e419b85d4a45d41bab5c292edb5a8f", "is_disabled": 0, "rental_uris": {"android": "https://dc.lft.to/lastmile_qr_scan", "ios": "https://dc.lft.to/lastmile_qr_scan"}, "fusion_lon": 0.0, "lat": 38.9073525, "bike_id": "b6e419b85d4a45d41bab5c292edb5a8f", "type": "electric_scooter", "is_reserved": 0, "lon": -77.03857166666667}, {"fusion_lat": 0.0, "name": "b880d1d6df9089c1d742299633038735", "is_disabled": 0, "rental_uris": {"android": "https://dc.lft.to/lastmile_qr_scan", "ios": "https://dc.lft.to/lastmile_qr_scan"}, "fusion_lon": 0.0, "lat": 38.925540833333336, "bike_id": "b880d1d6df9089c1d742299633038735", "type": "electric_scooter", "is_reserved": 0, "lon": -77.02288516666667}, {"fusion_lat": 0.0, "name": "2632cb390c379c7fbc70fb4a1de4d68d", "is_disabled": 0, "rental_uris": {"android": "https://dc.lft.to/lastmile_qr_scan", "ios": "https://dc.lft.to/lastmile_qr_scan"}, "fusion_lon": 0.0, "lat": 38.88059716666667, "bike_id": "2632cb390c379c7fbc70fb4a1de4d68d", "type": "electric_scooter", "is_reserved": 0, "lon": -76.932192}, {"fusion_lat": 0.0, "name": "a67dfd66fc25125b829351b93ace8a66", "is_disabled": 0, "rental_uris": {"android": "https://dc.lft.to/lastmile_qr_scan", "ios": "https://dc.lft.to/lastmile_qr_scan"}, "fusion_lon": 0.0, "lat": 38.9095675, "bike_id": "a67dfd66fc25125b829351b93ace8a66", "type": "electric_bike", "is_reserved": 0, "lon": -77.2288845}, {"fusion_lat": 0.0, "name": "ef74defeef5b9af067f0714b33ed71c4", "is_disabled": 0, "rental_uris": {"android": "https://dc.lft.to/lastmile_qr_scan", "ios": "https://dc.lft.to/lastmile_qr_scan"}, "fusion_lon": 0.0, "lat": 38.879722666666666, "bike_id": "ef74defeef5b9af067f0714b33ed71c4", "type": "electric_scooter", "is_reserved": 0, "lon": -77.006061}, {"fusion_lat": 0.0, "name": "1b8a9b493e15de05ec2fd299c00bf606", "is_disabled": 0, "rental_uris": {"android": "https://dc.lft.to/lastmile_qr_scan", "ios": "https://dc.lft.to/lastmile_qr_scan"}, "fusion_lon": 0.0, "lat": 38.9349045, "bike_id": "1b8a9b493e15de05ec2fd299c00bf606", "type": "electric_scooter", "is_reserved": 0, "lon": -77.0308325}, {"fusion_lat": 0.0, "name": "f868245e49cc891325e54ded8ff268f9", "is_disabled": 0, "rental_uris": {"android": "https://dc.lft.to/lastmile_qr_scan", "ios": "https://dc.lft.to/lastmile_qr_scan"}, "fusion_lon": 0.0, "lat": 38.93239233333333, "bike_id": "f868245e49cc891325e54ded8ff268f9", "type": "electric_scooter", "is_reserved": 0, "lon": -77.040663}, {"fusion_lat": 0.0, "name": "3cca4d5daff1e49be607644e6a69a2b1", "is_disabled": 0, "rental_uris": {"android": "https://dc.lft.to/lastmile_qr_scan", "ios": "https://dc.lft.to/lastmile_qr_scan"}, "fusion_lon": 0.0, "lat": 38.925073833333336, "bike_id": "3cca4d5daff1e49be607644e6a69a2b1", "type": "electric_scooter", "is_reserved": 0, "lon": -77.03820466666667}, {"fusion_lat": 0.0, "name": "893caa3c14cb4eafc7b076d23fe55903", "is_disabled": 0, "rental_uris": {"android": "https://dc.lft.to/lastmile_qr_scan", "ios": "https://dc.lft.to/lastmile_qr_scan"}, "fusion_lon": 0.0, "lat": 38.89219683333334, "bike_id": "893caa3c14cb4eafc7b076d23fe55903", "type": "electric_scooter", "is_reserved": 0, "lon": -77.043996}, {"fusion_lat": 0.0, "name": "74d896905de718d516d3fb160da8d589", "is_disabled": 0, "rental_uris": {"android": "https://dc.lft.to/lastmile_qr_scan", "ios": "https://dc.lft.to/lastmile_qr_scan"}, "fusion_lon": 0.0, "lat": 38.897693, "bike_id": "74d896905de718d516d3fb160da8d589", "type": "electric_scooter", "is_reserved": 0, "lon": -77.00903283333334}, {"fusion_lat": 0.0, "name": "c6646c3dec73877bca77212515d0fcf8", "is_disabled": 0, "rental_uris": {"android": "https://dc.lft.to/lastmile_qr_scan", "ios": "https://dc.lft.to/lastmile_qr_scan"}, "fusion_lon": 0.0, "lat": 38.884849833333334, "bike_id": "c6646c3dec73877bca77212515d0fcf8", "type": "electric_scooter", "is_reserved": 0, "lon": -77.005988}, {"fusion_lat": 0.0, "name": "b87b5b56d7db44ae9bfa0a1ae2cbc5e4", "is_disabled": 0, "rental_uris": {"android": "https://dc.lft.to/lastmile_qr_scan", "ios": "https://dc.lft.to/lastmile_qr_scan"}, "fusion_lon": 0.0, "lat": 38.90958633333334, "bike_id": "b87b5b56d7db44ae9bfa0a1ae2cbc5e4", "type": "electric_scooter", "is_reserved": 0, "lon": -77.035449}, {"fusion_lat": 0.0, "name": "792573111243ea2dbe3c7b5b5fd7a4f6", "is_disabled": 0, "rental_uris": {"android": "https://dc.lft.to/lastmile_qr_scan", "ios": "https://dc.lft.to/lastmile_qr_scan"}, "fusion_lon": 0.0, "lat": 38.91734016666667, "bike_id": "792573111243ea2dbe3c7b5b5fd7a4f6", "type": "electric_scooter", "is_reserved": 0, "lon": -77.03211483333334}, {"fusion_lat": 0.0, "name": "6d06032362691bef5d04dd3d46a66d13", "is_disabled": 0, "rental_uris": {"android": "https://dc.lft.to/lastmile_qr_scan", "ios": "https://dc.lft.to/lastmile_qr_scan"}, "fusion_lon": 0.0, "lat": 38.8873285, "bike_id": "6d06032362691bef5d04dd3d46a66d13", "type": "electric_scooter", "is_reserved": 0, "lon": -77.03170333333334}, {"fusion_lat": 0.0, "name": "4935b459d450cddaa4b4f02d97b03d76", "is_disabled": 0, "rental_uris": {"android": "https://dc.lft.to/lastmile_qr_scan", "ios": "https://dc.lft.to/lastmile_qr_scan"}, "fusion_lon": 0.0, "lat": 38.922968166666664, "bike_id": "4935b459d450cddaa4b4f02d97b03d76", "type": "electric_scooter", "is_reserved": 0, "lon": -77.04269866666667}, {"fusion_lat": 0.0, "name": "94684b62d35ca84434dcee64f8b566c7", "is_disabled": 0, "rental_uris": {"android": "https://dc.lft.to/lastmile_qr_scan", "ios": "https://dc.lft.to/lastmile_qr_scan"}, "fusion_lon": 0.0, "lat": 38.94196016666667, "bike_id": "94684b62d35ca84434dcee64f8b566c7", "type": "electric_scooter", "is_reserved": 0, "lon": -77.02588033333333}, {"fusion_lat": 0.0, "name": "fef6d3f1c814e77f152b85bd5bbc6360", "is_disabled": 0, "rental_uris": {"android": "https://dc.lft.to/lastmile_qr_scan", "ios": "https://dc.lft.to/lastmile_qr_scan"}, "fusion_lon": 0.0, "lat": 38.900103666666666, "bike_id": "fef6d3f1c814e77f152b85bd5bbc6360", "type": "electric_scooter", "is_reserved": 0, "lon": -77.0017965}, {"fusion_lat": 0.0, "name": "ff9f6037745cc066f82b9fb5146a2cd5", "is_disabled": 0, "rental_uris": {"android": "https://dc.lft.to/lastmile_qr_scan", "ios": "https://dc.lft.to/lastmile_qr_scan"}, "fusion_lon": 0.0, "lat": 38.96407683333334, "bike_id": "ff9f6037745cc066f82b9fb5146a2cd5", "type": "electric_scooter", "is_reserved": 0, "lon": -77.0753415}, {"fusion_lat": 0.0, "name": "9371b167ed014235d8c1a4ad3dc9d668", "is_disabled": 0, "rental_uris": {"android": "https://dc.lft.to/lastmile_qr_scan", "ios": "https://dc.lft.to/lastmile_qr_scan"}, "fusion_lon": 0.0, "lat": 38.90221533333333, "bike_id": "9371b167ed014235d8c1a4ad3dc9d668", "type": "electric_scooter", "is_reserved": 0, "lon": -77.06063133333333}, {"fusion_lat": 0.0, "name": "bb7f5c4656539cb05c1f26aec263b716", "is_disabled": 0, "rental_uris": {"android": "https://dc.lft.to/lastmile_qr_scan", "ios": "https://dc.lft.to/lastmile_qr_scan"}, "fusion_lon": 0.0, "lat": 38.922196, "bike_id": "bb7f5c4656539cb05c1f26aec263b716", "type": "electric_bike", "is_reserved": 0, "lon": -77.20140533333333}, {"fusion_lat": 0.0, "name": "228c1c3f4f2d938ad3ec1d4e7f1f7f76", "is_disabled": 0, "rental_uris": {"android": "https://dc.lft.to/lastmile_qr_scan", "ios": "https://dc.lft.to/lastmile_qr_scan"}, "fusion_lon": 0.0, "lat": 38.88132566666667, "bike_id": "228c1c3f4f2d938ad3ec1d4e7f1f7f76", "type": "electric_bike", "is_reserved": 0, "lon": -76.9954855}, {"fusion_lat": 0.0, "name": "4680396a4c513e4d2fe899d68903720d", "is_disabled": 0, "rental_uris": {"android": "https://dc.lft.to/lastmile_qr_scan", "ios": "https://dc.lft.to/lastmile_qr_scan"}, "fusion_lon": 0.0, "lat": 38.91125816666667, "bike_id": "4680396a4c513e4d2fe899d68903720d", "type": "electric_scooter", "is_reserved": 0, "lon": -77.02001433333334}, {"fusion_lat": 0.0, "name": "58bc07ee0b8efae9f8b5b6ed4fde76e5", "is_disabled": 0, "rental_uris": {"android": "https://dc.lft.to/lastmile_qr_scan", "ios": "https://dc.lft.to/lastmile_qr_scan"}, "fusion_lon": 0.0, "lat": 38.921495666666665, "bike_id": "58bc07ee0b8efae9f8b5b6ed4fde76e5", "type": "electric_scooter", "is_reserved": 0, "lon": -77.0436815}, {"fusion_lat": 0.0, "name": "0624920a68c3168b2deea9c2304fb28a", "is_disabled": 0, "rental_uris": {"android": "https://dc.lft.to/lastmile_qr_scan", "ios": "https://dc.lft.to/lastmile_qr_scan"}, "fusion_lon": 0.0, "lat": 38.91776, "bike_id": "0624920a68c3168b2deea9c2304fb28a", "type": "electric_scooter", "is_reserved": 0, "lon": -77.01224516666667}, {"fusion_lat": 0.0, "name": "d3ff533655d08e44cff0698ff6ac7497", "is_disabled": 0, "rental_uris": {"android": "https://dc.lft.to/lastmile_qr_scan", "ios": "https://dc.lft.to/lastmile_qr_scan"}, "fusion_lon": 0.0, "lat": 38.9156545, "bike_id": "d3ff533655d08e44cff0698ff6ac7497", "type": "electric_scooter", "is_reserved": 0, "lon": -77.01857366666667}, {"fusion_lat": 0.0, "name": "7be09af2013146c20c0a573407ed7d73", "is_disabled": 0, "rental_uris": {"android": "https://dc.lft.to/lastmile_qr_scan", "ios": "https://dc.lft.to/lastmile_qr_scan"}, "fusion_lon": 0.0, "lat": 38.920979, "bike_id": "7be09af2013146c20c0a573407ed7d73", "type": "electric_scooter", "is_reserved": 0, "lon": -76.99464266666666}, {"fusion_lat": 0.0, "name": "daf3fa9e026b203ffe532530e444643b", "is_disabled": 0, "rental_uris": {"android": "https://dc.lft.to/lastmile_qr_scan", "ios": "https://dc.lft.to/lastmile_qr_scan"}, "fusion_lon": 0.0, "lat": 38.89739316666667, "bike_id": "daf3fa9e026b203ffe532530e444643b", "type": "electric_scooter", "is_reserved": 0, "lon": -77.0271365}, {"fusion_lat": 0.0, "name": "b7afb84c8c5abafc06cc043fa9947a72", "is_disabled": 0, "rental_uris": {"android": "https://dc.lft.to/lastmile_qr_scan", "ios": "https://dc.lft.to/lastmile_qr_scan"}, "fusion_lon": 0.0, "lat": 38.92114483333334, "bike_id": "b7afb84c8c5abafc06cc043fa9947a72", "type": "electric_scooter", "is_reserved": 0, "lon": -77.01212883333334}, {"fusion_lat": 0.0, "name": "b6f24c7e88110e398124403d6686478f", "is_disabled": 0, "rental_uris": {"android": "https://dc.lft.to/lastmile_qr_scan", "ios": "https://dc.lft.to/lastmile_qr_scan"}, "fusion_lon": 0.0, "lat": 38.927417, "bike_id": "b6f24c7e88110e398124403d6686478f", "type": "electric_scooter", "is_reserved": 0, "lon": -77.02164616666667}, {"fusion_lat": 0.0, "name": "222c01ce64732d8c4f37f384d2b1b9fd", "is_disabled": 0, "rental_uris": {"android": "https://dc.lft.to/lastmile_qr_scan", "ios": "https://dc.lft.to/lastmile_qr_scan"}, "fusion_lon": 0.0, "lat": 38.980554, "bike_id": "222c01ce64732d8c4f37f384d2b1b9fd", "type": "electric_bike", "is_reserved": 0, "lon": -77.0958435}, {"fusion_lat": 0.0, "name": "b611c3c5502a40656879edb310e9cd7a", "is_disabled": 0, "rental_uris": {"android": "https://dc.lft.to/lastmile_qr_scan", "ios": "https://dc.lft.to/lastmile_qr_scan"}, "fusion_lon": 0.0, "lat": 38.9037935, "bike_id": "b611c3c5502a40656879edb310e9cd7a", "type": "electric_scooter", "is_reserved": 0, "lon": -77.04509883333333}, {"fusion_lat": 0.0, "name": "3275f072b255fa36107e35216af85afe", "is_disabled": 0, "rental_uris": {"android": "https://dc.lft.to/lastmile_qr_scan", "ios": "https://dc.lft.to/lastmile_qr_scan"}, "fusion_lon": 0.0, "lat": 38.79854183333333, "bike_id": "3275f072b255fa36107e35216af85afe", "type": "electric_bike", "is_reserved": 0, "lon": -77.06307216666667}, {"fusion_lat": 0.0, "name": "5e300ba78eb47afdbb5428bbc6c47716", "is_disabled": 0, "rental_uris": {"android": "https://dc.lft.to/lastmile_qr_scan", "ios": "https://dc.lft.to/lastmile_qr_scan"}, "fusion_lon": 0.0, "lat": 38.926124333333334, "bike_id": "5e300ba78eb47afdbb5428bbc6c47716", "type": "electric_scooter", "is_reserved": 0, "lon": -77.02163683333333}, {"fusion_lat": 0.0, "name": "13d4fb45432d5b01ca89a0a6b3205820", "is_disabled": 0, "rental_uris": {"android": "https://dc.lft.to/lastmile_qr_scan", "ios": "https://dc.lft.to/lastmile_qr_scan"}, "fusion_lon": 0.0, "lat": 38.905026, "bike_id": "13d4fb45432d5b01ca89a0a6b3205820", "type": "electric_scooter", "is_reserved": 0, "lon": -77.0569325}, {"fusion_lat": 0.0, "name": "07597d8d6e2c92c2e9b8e98997e53646", "is_disabled": 0, "rental_uris": {"android": "https://dc.lft.to/lastmile_qr_scan", "ios": "https://dc.lft.to/lastmile_qr_scan"}, "fusion_lon": 0.0, "lat": 38.93233516666667, "bike_id": "07597d8d6e2c92c2e9b8e98997e53646", "type": "electric_scooter", "is_reserved": 0, "lon": -77.03423033333333}, {"fusion_lat": 0.0, "name": "bce49b53c4240bbb5d9fc76880aecfac", "is_disabled": 0, "rental_uris": {"android": "https://dc.lft.to/lastmile_qr_scan", "ios": "https://dc.lft.to/lastmile_qr_scan"}, "fusion_lon": 0.0, "lat": 38.893408666666666, "bike_id": "bce49b53c4240bbb5d9fc76880aecfac", "type": "electric_scooter", "is_reserved": 0, "lon": -77.04679416666667}, {"fusion_lat": 0.0, "name": "e13f0064d933244590dd3bb38c058c61", "is_disabled": 0, "rental_uris": {"android": "https://dc.lft.to/lastmile_qr_scan", "ios": "https://dc.lft.to/lastmile_qr_scan"}, "fusion_lon": 0.0, "lat": 38.94430583333333, "bike_id": "e13f0064d933244590dd3bb38c058c61", "type": "electric_bike", "is_reserved": 0, "lon": -77.02605466666667}, {"fusion_lat": 0.0, "name": "1c9ed0c5f781bc7eff6da4dd2ad87040", "is_disabled": 0, "rental_uris": {"android": "https://dc.lft.to/lastmile_qr_scan", "ios": "https://dc.lft.to/lastmile_qr_scan"}, "fusion_lon": 0.0, "lat": 38.898570166666666, "bike_id": "1c9ed0c5f781bc7eff6da4dd2ad87040", "type": "electric_scooter", "is_reserved": 0, "lon": -76.97663183333333}, {"fusion_lat": 0.0, "name": "ca08ec35e71f80804c29eb15f7745ac7", "is_disabled": 0, "rental_uris": {"android": "https://dc.lft.to/lastmile_qr_scan", "ios": "https://dc.lft.to/lastmile_qr_scan"}, "fusion_lon": 0.0, "lat": 38.882079833333336, "bike_id": "ca08ec35e71f80804c29eb15f7745ac7", "type": "electric_scooter", "is_reserved": 0, "lon": -77.028624}, {"fusion_lat": 0.0, "name": "2b102e2c91662c4f66a675897de3ddc8", "is_disabled": 0, "rental_uris": {"android": "https://dc.lft.to/lastmile_qr_scan", "ios": "https://dc.lft.to/lastmile_qr_scan"}, "fusion_lon": 0.0, "lat": 38.90572216666666, "bike_id": "2b102e2c91662c4f66a675897de3ddc8", "type": "electric_scooter", "is_reserved": 0, "lon": -77.04357683333333}, {"fusion_lat": 0.0, "name": "bff4cbfda4e764c1b1aa5322b72e2b43", "is_disabled": 0, "rental_uris": {"android": "https://dc.lft.to/lastmile_qr_scan", "ios": "https://dc.lft.to/lastmile_qr_scan"}, "fusion_lon": 0.0, "lat": 38.9023155, "bike_id": "bff4cbfda4e764c1b1aa5322b72e2b43", "type": "electric_scooter", "is_reserved": 0, "lon": -77.0347755}, {"fusion_lat": 0.0, "name": "10c03a75a949c5c54d242099103510ef", "is_disabled": 0, "rental_uris": {"android": "https://dc.lft.to/lastmile_qr_scan", "ios": "https://dc.lft.to/lastmile_qr_scan"}, "fusion_lon": 0.0, "lat": 38.89087216666667, "bike_id": "10c03a75a949c5c54d242099103510ef", "type": "electric_scooter", "is_reserved": 0, "lon": -76.91931516666666}, {"fusion_lat": 0.0, "name": "a99614e0206d438dfea4ba2acbd207a1", "is_disabled": 0, "rental_uris": {"android": "https://dc.lft.to/lastmile_qr_scan", "ios": "https://dc.lft.to/lastmile_qr_scan"}, "fusion_lon": 0.0, "lat": 38.92468233333334, "bike_id": "a99614e0206d438dfea4ba2acbd207a1", "type": "electric_scooter", "is_reserved": 0, "lon": -77.03861016666667}, {"fusion_lat": 0.0, "name": "a73fe92531c28a725a301e9df7bf5a24", "is_disabled": 0, "rental_uris": {"android": "https://dc.lft.to/lastmile_qr_scan", "ios": "https://dc.lft.to/lastmile_qr_scan"}, "fusion_lon": 0.0, "lat": 38.93808816666667, "bike_id": "a73fe92531c28a725a301e9df7bf5a24", "type": "electric_scooter", "is_reserved": 0, "lon": -76.99692966666667}, {"fusion_lat": 0.0, "name": "1a63eb6a2d6ab15a52b2385f27f9a35a", "is_disabled": 0, "rental_uris": {"android": "https://dc.lft.to/lastmile_qr_scan", "ios": "https://dc.lft.to/lastmile_qr_scan"}, "fusion_lon": 0.0, "lat": 38.89968416666667, "bike_id": "1a63eb6a2d6ab15a52b2385f27f9a35a", "type": "electric_scooter", "is_reserved": 0, "lon": -77.02404633333333}, {"fusion_lat": 0.0, "name": "bd809d841949b9526319ec28be414b64", "is_disabled": 0, "rental_uris": {"android": "https://dc.lft.to/lastmile_qr_scan", "ios": "https://dc.lft.to/lastmile_qr_scan"}, "fusion_lon": 0.0, "lat": 38.927916333333336, "bike_id": "bd809d841949b9526319ec28be414b64", "type": "electric_scooter", "is_reserved": 0, "lon": -77.0321535}, {"fusion_lat": 0.0, "name": "439793905d0abbd9d93768b5e5c37c32", "is_disabled": 0, "rental_uris": {"android": "https://dc.lft.to/lastmile_qr_scan", "ios": "https://dc.lft.to/lastmile_qr_scan"}, "fusion_lon": 0.0, "lat": 38.8049475, "bike_id": "439793905d0abbd9d93768b5e5c37c32", "type": "electric_bike", "is_reserved": 0, "lon": -77.1015745}, {"fusion_lat": 0.0, "name": "c769df1500497fdb39dca0fa0f957eab", "is_disabled": 0, "rental_uris": {"android": "https://dc.lft.to/lastmile_qr_scan", "ios": "https://dc.lft.to/lastmile_qr_scan"}, "fusion_lon": 0.0, "lat": 38.918373833333334, "bike_id": "c769df1500497fdb39dca0fa0f957eab", "type": "electric_scooter", "is_reserved": 0, "lon": -77.03528466666667}, {"fusion_lat": 0.0, "name": "5ceb5ee11bc40799116ddb83a5ca1b01", "is_disabled": 0, "rental_uris": {"android": "https://dc.lft.to/lastmile_qr_scan", "ios": "https://dc.lft.to/lastmile_qr_scan"}, "fusion_lon": 0.0, "lat": 38.920453, "bike_id": "5ceb5ee11bc40799116ddb83a5ca1b01", "type": "electric_scooter", "is_reserved": 0, "lon": -77.00212616666667}, {"fusion_lat": 0.0, "name": "b4d6904070070f87f2ee57b9ef49dacb", "is_disabled": 0, "rental_uris": {"android": "https://dc.lft.to/lastmile_qr_scan", "ios": "https://dc.lft.to/lastmile_qr_scan"}, "fusion_lon": 0.0, "lat": 38.9130685, "bike_id": "b4d6904070070f87f2ee57b9ef49dacb", "type": "electric_scooter", "is_reserved": 0, "lon": -77.0487825}, {"fusion_lat": 0.0, "name": "8f11be4694226c7e61c5cef842ee081c", "is_disabled": 0, "rental_uris": {"android": "https://dc.lft.to/lastmile_qr_scan", "ios": "https://dc.lft.to/lastmile_qr_scan"}, "fusion_lon": 0.0, "lat": 38.92502416666667, "bike_id": "8f11be4694226c7e61c5cef842ee081c", "type": "electric_scooter", "is_reserved": 0, "lon": -77.02141333333333}, {"fusion_lat": 0.0, "name": "998da796b7fa86ac5fe39167941527e6", "is_disabled": 0, "rental_uris": {"android": "https://dc.lft.to/lastmile_qr_scan", "ios": "https://dc.lft.to/lastmile_qr_scan"}, "fusion_lon": 0.0, "lat": 38.917684, "bike_id": "998da796b7fa86ac5fe39167941527e6", "type": "electric_scooter", "is_reserved": 0, "lon": -77.03640483333334}, {"fusion_lat": 0.0, "name": "cc95395193f3047fda192d1c38f865dc", "is_disabled": 0, "rental_uris": {"android": "https://dc.lft.to/lastmile_qr_scan", "ios": "https://dc.lft.to/lastmile_qr_scan"}, "fusion_lon": 0.0, "lat": 38.861679, "bike_id": "cc95395193f3047fda192d1c38f865dc", "type": "electric_scooter", "is_reserved": 0, "lon": -76.98373483333333}, {"fusion_lat": 0.0, "name": "4f65d286d637bb0481adb5c393e34622", "is_disabled": 0, "rental_uris": {"android": "https://dc.lft.to/lastmile_qr_scan", "ios": "https://dc.lft.to/lastmile_qr_scan"}, "fusion_lon": 0.0, "lat": 38.914131166666664, "bike_id": "4f65d286d637bb0481adb5c393e34622", "type": "electric_scooter", "is_reserved": 0, "lon": -77.02215516666666}, {"fusion_lat": 0.0, "name": "e7a7d12f2c76af750cc438dafd48313d", "is_disabled": 0, "rental_uris": {"android": "https://dc.lft.to/lastmile_qr_scan", "ios": "https://dc.lft.to/lastmile_qr_scan"}, "fusion_lon": 0.0, "lat": 38.9196695, "bike_id": "e7a7d12f2c76af750cc438dafd48313d", "type": "electric_scooter", "is_reserved": 0, "lon": -77.07086633333333}, {"fusion_lat": 0.0, "name": "c7f25c357d8da9319758fcf765d7b52a", "is_disabled": 0, "rental_uris": {"android": "https://dc.lft.to/lastmile_qr_scan", "ios": "https://dc.lft.to/lastmile_qr_scan"}, "fusion_lon": 0.0, "lat": 38.89285316666667, "bike_id": "c7f25c357d8da9319758fcf765d7b52a", "type": "electric_scooter", "is_reserved": 0, "lon": -76.98308183333333}, {"fusion_lat": 0.0, "name": "d6be19b08402dce32bcf4835f487bcf2", "is_disabled": 0, "rental_uris": {"android": "https://dc.lft.to/lastmile_qr_scan", "ios": "https://dc.lft.to/lastmile_qr_scan"}, "fusion_lon": 0.0, "lat": 38.93596683333333, "bike_id": "d6be19b08402dce32bcf4835f487bcf2", "type": "electric_scooter", "is_reserved": 0, "lon": -77.022852}, {"fusion_lat": 0.0, "name": "c1bbafa4afbbfc51825d25ddeea1c966", "is_disabled": 0, "rental_uris": {"android": "https://dc.lft.to/lastmile_qr_scan", "ios": "https://dc.lft.to/lastmile_qr_scan"}, "fusion_lon": 0.0, "lat": 38.920126333333336, "bike_id": "c1bbafa4afbbfc51825d25ddeea1c966", "type": "electric_scooter", "is_reserved": 0, "lon": -77.031374}, {"fusion_lat": 0.0, "name": "9b124cd861d0f40229a60341fba0c0b1", "is_disabled": 0, "rental_uris": {"android": "https://dc.lft.to/lastmile_qr_scan", "ios": "https://dc.lft.to/lastmile_qr_scan"}, "fusion_lon": 0.0, "lat": 38.91887583333333, "bike_id": "9b124cd861d0f40229a60341fba0c0b1", "type": "electric_scooter", "is_reserved": 0, "lon": -77.03487216666667}, {"fusion_lat": 0.0, "name": "6affdf3009c99caf6bf2de17361b0661", "is_disabled": 0, "rental_uris": {"android": "https://dc.lft.to/lastmile_qr_scan", "ios": "https://dc.lft.to/lastmile_qr_scan"}, "fusion_lon": 0.0, "lat": 38.9096315, "bike_id": "6affdf3009c99caf6bf2de17361b0661", "type": "electric_scooter", "is_reserved": 0, "lon": -77.03544283333333}, {"fusion_lat": 0.0, "name": "6e8216765f54ee042c6699ea175fc6e6", "is_disabled": 0, "rental_uris": {"android": "https://dc.lft.to/lastmile_qr_scan", "ios": "https://dc.lft.to/lastmile_qr_scan"}, "fusion_lon": 0.0, "lat": 38.890149, "bike_id": "6e8216765f54ee042c6699ea175fc6e6", "type": "electric_scooter", "is_reserved": 0, "lon": -76.9373975}, {"fusion_lat": 0.0, "name": "e0cb51598acc15cbd59e8823a6848402", "is_disabled": 0, "rental_uris": {"android": "https://dc.lft.to/lastmile_qr_scan", "ios": "https://dc.lft.to/lastmile_qr_scan"}, "fusion_lon": 0.0, "lat": 38.929041, "bike_id": "e0cb51598acc15cbd59e8823a6848402", "type": "electric_scooter", "is_reserved": 0, "lon": -77.03277416666667}, {"fusion_lat": 0.0, "name": "449a0db743f5d3c8cefdd074251297ca", "is_disabled": 0, "rental_uris": {"android": "https://dc.lft.to/lastmile_qr_scan", "ios": "https://dc.lft.to/lastmile_qr_scan"}, "fusion_lon": 0.0, "lat": 38.91502283333333, "bike_id": "449a0db743f5d3c8cefdd074251297ca", "type": "electric_scooter", "is_reserved": 0, "lon": -76.98375766666666}, {"fusion_lat": 0.0, "name": "27582eaabcb39b5819e7bfe0e5ca09c3", "is_disabled": 0, "rental_uris": {"android": "https://dc.lft.to/lastmile_qr_scan", "ios": "https://dc.lft.to/lastmile_qr_scan"}, "fusion_lon": 0.0, "lat": 38.990964, "bike_id": "27582eaabcb39b5819e7bfe0e5ca09c3", "type": "electric_bike", "is_reserved": 0, "lon": -76.99380933333333}, {"fusion_lat": 0.0, "name": "cf2790b09f0da569ab5bcb82d527ec58", "is_disabled": 0, "rental_uris": {"android": "https://dc.lft.to/lastmile_qr_scan", "ios": "https://dc.lft.to/lastmile_qr_scan"}, "fusion_lon": 0.0, "lat": 38.8970975, "bike_id": "cf2790b09f0da569ab5bcb82d527ec58", "type": "electric_scooter", "is_reserved": 0, "lon": -77.00723316666667}, {"fusion_lat": 0.0, "name": "c7331ef9a87add2bcbb38bec09bf6df4", "is_disabled": 0, "rental_uris": {"android": "https://dc.lft.to/lastmile_qr_scan", "ios": "https://dc.lft.to/lastmile_qr_scan"}, "fusion_lon": 0.0, "lat": 38.920868666666664, "bike_id": "c7331ef9a87add2bcbb38bec09bf6df4", "type": "electric_scooter", "is_reserved": 0, "lon": -76.9948725}, {"fusion_lat": 0.0, "name": "336d97165031f59514471d66b409868c", "is_disabled": 0, "rental_uris": {"android": "https://dc.lft.to/lastmile_qr_scan", "ios": "https://dc.lft.to/lastmile_qr_scan"}, "fusion_lon": 0.0, "lat": 38.90922416666667, "bike_id": "336d97165031f59514471d66b409868c", "type": "electric_scooter", "is_reserved": 0, "lon": -77.03471233333333}, {"fusion_lat": 0.0, "name": "4788e70559c994fa82caff28535c5aae", "is_disabled": 0, "rental_uris": {"android": "https://dc.lft.to/lastmile_qr_scan", "ios": "https://dc.lft.to/lastmile_qr_scan"}, "fusion_lon": 0.0, "lat": 38.8670785, "bike_id": "4788e70559c994fa82caff28535c5aae", "type": "electric_scooter", "is_reserved": 0, "lon": -76.98643433333334}, {"fusion_lat": 0.0, "name": "ea5d60e9c702ccea4db8aec46f75c049", "is_disabled": 0, "rental_uris": {"android": "https://dc.lft.to/lastmile_qr_scan", "ios": "https://dc.lft.to/lastmile_qr_scan"}, "fusion_lon": 0.0, "lat": 38.92874483333333, "bike_id": "ea5d60e9c702ccea4db8aec46f75c049", "type": "electric_scooter", "is_reserved": 0, "lon": -77.03347816666667}, {"fusion_lat": 0.0, "name": "1c129c6907e66421698d9c2482647c9a", "is_disabled": 0, "rental_uris": {"android": "https://dc.lft.to/lastmile_qr_scan", "ios": "https://dc.lft.to/lastmile_qr_scan"}, "fusion_lon": 0.0, "lat": 38.905098333333335, "bike_id": "1c129c6907e66421698d9c2482647c9a", "type": "electric_scooter", "is_reserved": 0, "lon": -77.063917}, {"fusion_lat": 0.0, "name": "5bf62b8f7ddfe022c54767adac84534e", "is_disabled": 0, "rental_uris": {"android": "https://dc.lft.to/lastmile_qr_scan", "ios": "https://dc.lft.to/lastmile_qr_scan"}, "fusion_lon": 0.0, "lat": 38.95732916666667, "bike_id": "5bf62b8f7ddfe022c54767adac84534e", "type": "electric_scooter", "is_reserved": 0, "lon": -77.02405616666667}, {"fusion_lat": 0.0, "name": "d1e52c738b3353891d8f548513511080", "is_disabled": 0, "rental_uris": {"android": "https://dc.lft.to/lastmile_qr_scan", "ios": "https://dc.lft.to/lastmile_qr_scan"}, "fusion_lon": 0.0, "lat": 38.909805166666665, "bike_id": "d1e52c738b3353891d8f548513511080", "type": "electric_scooter", "is_reserved": 0, "lon": -77.00898866666667}, {"fusion_lat": 0.0, "name": "0837ba4a573b2cb445e92c6f875815ae", "is_disabled": 0, "rental_uris": {"android": "https://dc.lft.to/lastmile_qr_scan", "ios": "https://dc.lft.to/lastmile_qr_scan"}, "fusion_lon": 0.0, "lat": 38.902389, "bike_id": "0837ba4a573b2cb445e92c6f875815ae", "type": "electric_scooter", "is_reserved": 0, "lon": -77.045436}, {"fusion_lat": 0.0, "name": "fe0fbf10ec7469bae6609957e68b8d0f", "is_disabled": 0, "rental_uris": {"android": "https://dc.lft.to/lastmile_qr_scan", "ios": "https://dc.lft.to/lastmile_qr_scan"}, "fusion_lon": 0.0, "lat": 38.90580833333333, "bike_id": "fe0fbf10ec7469bae6609957e68b8d0f", "type": "electric_scooter", "is_reserved": 0, "lon": -77.008892}, {"fusion_lat": 0.0, "name": "1a4fae3b450d3217239b020a8cde456b", "is_disabled": 0, "rental_uris": {"android": "https://dc.lft.to/lastmile_qr_scan", "ios": "https://dc.lft.to/lastmile_qr_scan"}, "fusion_lon": 0.0, "lat": 38.915506, "bike_id": "1a4fae3b450d3217239b020a8cde456b", "type": "electric_scooter", "is_reserved": 0, "lon": -77.01201783333333}, {"fusion_lat": 0.0, "name": "626a57100c16f92b17a6215b8d7eb224", "is_disabled": 0, "rental_uris": {"android": "https://dc.lft.to/lastmile_qr_scan", "ios": "https://dc.lft.to/lastmile_qr_scan"}, "fusion_lon": 0.0, "lat": 38.916165166666666, "bike_id": "626a57100c16f92b17a6215b8d7eb224", "type": "electric_scooter", "is_reserved": 0, "lon": -77.04567933333334}, {"fusion_lat": 0.0, "name": "8848e1c38912aa74dbbc7d0c52f199ac", "is_disabled": 0, "rental_uris": {"android": "https://dc.lft.to/lastmile_qr_scan", "ios": "https://dc.lft.to/lastmile_qr_scan"}, "fusion_lon": 0.0, "lat": 38.912158166666664, "bike_id": "8848e1c38912aa74dbbc7d0c52f199ac", "type": "electric_scooter", "is_reserved": 0, "lon": -77.03799283333333}, {"fusion_lat": 0.0, "name": "d4debda0f007bd89f419d98d1308916b", "is_disabled": 0, "rental_uris": {"android": "https://dc.lft.to/lastmile_qr_scan", "ios": "https://dc.lft.to/lastmile_qr_scan"}, "fusion_lon": 0.0, "lat": 38.892473833333334, "bike_id": "d4debda0f007bd89f419d98d1308916b", "type": "electric_scooter", "is_reserved": 0, "lon": -77.01956383333334}, {"fusion_lat": 0.0, "name": "165a2b81168d8f731cfa1de7882c3507", "is_disabled": 0, "rental_uris": {"android": "https://dc.lft.to/lastmile_qr_scan", "ios": "https://dc.lft.to/lastmile_qr_scan"}, "fusion_lon": 0.0, "lat": 38.86622466666667, "bike_id": "165a2b81168d8f731cfa1de7882c3507", "type": "electric_bike", "is_reserved": 0, "lon": -76.94574083333333}, {"fusion_lat": 0.0, "name": "22a898f377241900a3e6cb4fd62ede67", "is_disabled": 0, "rental_uris": {"android": "https://dc.lft.to/lastmile_qr_scan", "ios": "https://dc.lft.to/lastmile_qr_scan"}, "fusion_lon": 0.0, "lat": 38.864660666666666, "bike_id": "22a898f377241900a3e6cb4fd62ede67", "type": "electric_bike", "is_reserved": 0, "lon": -76.945451}, {"fusion_lat": 0.0, "name": "cfb189879ee62ebd4bcaacad4365df0d", "is_disabled": 0, "rental_uris": {"android": "https://dc.lft.to/lastmile_qr_scan", "ios": "https://dc.lft.to/lastmile_qr_scan"}, "fusion_lon": 0.0, "lat": 38.92855266666667, "bike_id": "cfb189879ee62ebd4bcaacad4365df0d", "type": "electric_scooter", "is_reserved": 0, "lon": -77.0141005}, {"fusion_lat": 0.0, "name": "96a6b65d9e5ac7e5f8bf222e80dbe34a", "is_disabled": 0, "rental_uris": {"android": "https://dc.lft.to/lastmile_qr_scan", "ios": "https://dc.lft.to/lastmile_qr_scan"}, "fusion_lon": 0.0, "lat": 38.919321, "bike_id": "96a6b65d9e5ac7e5f8bf222e80dbe34a", "type": "electric_scooter", "is_reserved": 0, "lon": -77.0449665}, {"fusion_lat": 0.0, "name": "7c02c896e1efccf47f20da00ba9e5d43", "is_disabled": 0, "rental_uris": {"android": "https://dc.lft.to/lastmile_qr_scan", "ios": "https://dc.lft.to/lastmile_qr_scan"}, "fusion_lon": 0.0, "lat": 38.91557566666667, "bike_id": "7c02c896e1efccf47f20da00ba9e5d43", "type": "electric_scooter", "is_reserved": 0, "lon": -77.04042133333333}, {"fusion_lat": 0.0, "name": "55bf2ae5b1078b8ccd5027f51c46ffc3", "is_disabled": 0, "rental_uris": {"android": "https://dc.lft.to/lastmile_qr_scan", "ios": "https://dc.lft.to/lastmile_qr_scan"}, "fusion_lon": 0.0, "lat": 38.909873166666664, "bike_id": "55bf2ae5b1078b8ccd5027f51c46ffc3", "type": "electric_scooter", "is_reserved": 0, "lon": -77.0321205}, {"fusion_lat": 0.0, "name": "370a9a55ee68dedbd321170039fbe094", "is_disabled": 0, "rental_uris": {"android": "https://dc.lft.to/lastmile_qr_scan", "ios": "https://dc.lft.to/lastmile_qr_scan"}, "fusion_lon": 0.0, "lat": 38.92447966666667, "bike_id": "370a9a55ee68dedbd321170039fbe094", "type": "electric_scooter", "is_reserved": 0, "lon": -77.00214183333334}, {"fusion_lat": 0.0, "name": "8f2c0bc007756b7c752be76d568b0619", "is_disabled": 0, "rental_uris": {"android": "https://dc.lft.to/lastmile_qr_scan", "ios": "https://dc.lft.to/lastmile_qr_scan"}, "fusion_lon": 0.0, "lat": 38.98393383333333, "bike_id": "8f2c0bc007756b7c752be76d568b0619", "type": "electric_scooter", "is_reserved": 0, "lon": -77.02631733333334}, {"fusion_lat": 0.0, "name": "e09ea0b31e1970598122a6b3cc8f06f8", "is_disabled": 0, "rental_uris": {"android": "https://dc.lft.to/lastmile_qr_scan", "ios": "https://dc.lft.to/lastmile_qr_scan"}, "fusion_lon": 0.0, "lat": 38.927955, "bike_id": "e09ea0b31e1970598122a6b3cc8f06f8", "type": "electric_scooter", "is_reserved": 0, "lon": -77.03270633333334}, {"fusion_lat": 0.0, "name": "041b306657fd8899195bd254a1866681", "is_disabled": 0, "rental_uris": {"android": "https://dc.lft.to/lastmile_qr_scan", "ios": "https://dc.lft.to/lastmile_qr_scan"}, "fusion_lon": 0.0, "lat": 38.926192666666665, "bike_id": "041b306657fd8899195bd254a1866681", "type": "electric_scooter", "is_reserved": 0, "lon": -77.0393365}, {"fusion_lat": 0.0, "name": "255c290230f5f3b3a0c5aa06ed433a85", "is_disabled": 0, "rental_uris": {"android": "https://dc.lft.to/lastmile_qr_scan", "ios": "https://dc.lft.to/lastmile_qr_scan"}, "fusion_lon": 0.0, "lat": 38.911097166666664, "bike_id": "255c290230f5f3b3a0c5aa06ed433a85", "type": "electric_scooter", "is_reserved": 0, "lon": -77.03833233333333}, {"fusion_lat": 0.0, "name": "ffc5a202b4826c9a0f21b0f91e37bc2e", "is_disabled": 0, "rental_uris": {"android": "https://dc.lft.to/lastmile_qr_scan", "ios": "https://dc.lft.to/lastmile_qr_scan"}, "fusion_lon": 0.0, "lat": 38.90728283333333, "bike_id": "ffc5a202b4826c9a0f21b0f91e37bc2e", "type": "electric_scooter", "is_reserved": 0, "lon": -77.0071605}, {"fusion_lat": 0.0, "name": "c1f17ed60a9fa3af7aadc9923c0fdef0", "is_disabled": 0, "rental_uris": {"android": "https://dc.lft.to/lastmile_qr_scan", "ios": "https://dc.lft.to/lastmile_qr_scan"}, "fusion_lon": 0.0, "lat": 38.945235, "bike_id": "c1f17ed60a9fa3af7aadc9923c0fdef0", "type": "electric_scooter", "is_reserved": 0, "lon": -77.02272783333333}, {"fusion_lat": 0.0, "name": "b8676955f280112c5195762bd1059f12", "is_disabled": 0, "rental_uris": {"android": "https://dc.lft.to/lastmile_qr_scan", "ios": "https://dc.lft.to/lastmile_qr_scan"}, "fusion_lon": 0.0, "lat": 38.91904483333333, "bike_id": "b8676955f280112c5195762bd1059f12", "type": "electric_scooter", "is_reserved": 0, "lon": -77.0122235}, {"fusion_lat": 0.0, "name": "9ca1e8f80cab0e4eeee04fd8800b0fab", "is_disabled": 0, "rental_uris": {"android": "https://dc.lft.to/lastmile_qr_scan", "ios": "https://dc.lft.to/lastmile_qr_scan"}, "fusion_lon": 0.0, "lat": 38.8716155, "bike_id": "9ca1e8f80cab0e4eeee04fd8800b0fab", "type": "electric_scooter", "is_reserved": 0, "lon": -76.9773445}, {"fusion_lat": 0.0, "name": "523fc49ec9659d2c755446b3c01dc90c", "is_disabled": 0, "rental_uris": {"android": "https://dc.lft.to/lastmile_qr_scan", "ios": "https://dc.lft.to/lastmile_qr_scan"}, "fusion_lon": 0.0, "lat": 38.9361585, "bike_id": "523fc49ec9659d2c755446b3c01dc90c", "type": "electric_scooter", "is_reserved": 0, "lon": -77.08175566666667}, {"fusion_lat": 0.0, "name": "8eada6515c759a9f27d486468f82bca7", "is_disabled": 0, "rental_uris": {"android": "https://dc.lft.to/lastmile_qr_scan", "ios": "https://dc.lft.to/lastmile_qr_scan"}, "fusion_lon": 0.0, "lat": 38.90268583333334, "bike_id": "8eada6515c759a9f27d486468f82bca7", "type": "electric_scooter", "is_reserved": 0, "lon": -77.02768783333333}, {"fusion_lat": 0.0, "name": "eda318488d5e981e08d137f297e65c7f", "is_disabled": 0, "rental_uris": {"android": "https://dc.lft.to/lastmile_qr_scan", "ios": "https://dc.lft.to/lastmile_qr_scan"}, "fusion_lon": 0.0, "lat": 38.904864, "bike_id": "eda318488d5e981e08d137f297e65c7f", "type": "electric_scooter", "is_reserved": 0, "lon": -76.94961183333334}, {"fusion_lat": 0.0, "name": "e18cd39945751fdcdc2f48a10858a9a0", "is_disabled": 0, "rental_uris": {"android": "https://dc.lft.to/lastmile_qr_scan", "ios": "https://dc.lft.to/lastmile_qr_scan"}, "fusion_lon": 0.0, "lat": 38.9194595, "bike_id": "e18cd39945751fdcdc2f48a10858a9a0", "type": "electric_scooter", "is_reserved": 0, "lon": -77.0319665}, {"fusion_lat": 0.0, "name": "5cf76bffdb6cadc93b2cab2a10e2f0fc", "is_disabled": 0, "rental_uris": {"android": "https://dc.lft.to/lastmile_qr_scan", "ios": "https://dc.lft.to/lastmile_qr_scan"}, "fusion_lon": 0.0, "lat": 38.927988166666665, "bike_id": "5cf76bffdb6cadc93b2cab2a10e2f0fc", "type": "electric_scooter", "is_reserved": 0, "lon": -76.95549983333333}, {"fusion_lat": 0.0, "name": "f049b65d63fe61d09c3f34621b62837f", "is_disabled": 0, "rental_uris": {"android": "https://dc.lft.to/lastmile_qr_scan", "ios": "https://dc.lft.to/lastmile_qr_scan"}, "fusion_lon": 0.0, "lat": 38.897218, "bike_id": "f049b65d63fe61d09c3f34621b62837f", "type": "electric_scooter", "is_reserved": 0, "lon": -77.02233116666666}, {"fusion_lat": 0.0, "name": "7cec9c4b125590271bac2da5fa5cd6b1", "is_disabled": 0, "rental_uris": {"android": "https://dc.lft.to/lastmile_qr_scan", "ios": "https://dc.lft.to/lastmile_qr_scan"}, "fusion_lon": 0.0, "lat": 38.949153333333335, "bike_id": "7cec9c4b125590271bac2da5fa5cd6b1", "type": "electric_scooter", "is_reserved": 0, "lon": -77.01855533333334}, {"fusion_lat": 0.0, "name": "1e2fe465eb9468a0ac9218ddeb92610f", "is_disabled": 0, "rental_uris": {"android": "https://dc.lft.to/lastmile_qr_scan", "ios": "https://dc.lft.to/lastmile_qr_scan"}, "fusion_lon": 0.0, "lat": 38.88243166666667, "bike_id": "1e2fe465eb9468a0ac9218ddeb92610f", "type": "electric_bike", "is_reserved": 0, "lon": -76.96262683333333}, {"fusion_lat": 0.0, "name": "2fa33562a31eb7d4c95350e20ef55ad6", "is_disabled": 0, "rental_uris": {"android": "https://dc.lft.to/lastmile_qr_scan", "ios": "https://dc.lft.to/lastmile_qr_scan"}, "fusion_lon": 0.0, "lat": 38.92446183333333, "bike_id": "2fa33562a31eb7d4c95350e20ef55ad6", "type": "electric_scooter", "is_reserved": 0, "lon": -77.05254233333334}, {"fusion_lat": 0.0, "name": "f74830909dfa4a2443d57fd39b332ddd", "is_disabled": 0, "rental_uris": {"android": "https://dc.lft.to/lastmile_qr_scan", "ios": "https://dc.lft.to/lastmile_qr_scan"}, "fusion_lon": 0.0, "lat": 38.89752466666667, "bike_id": "f74830909dfa4a2443d57fd39b332ddd", "type": "electric_scooter", "is_reserved": 0, "lon": -77.03207983333333}, {"fusion_lat": 0.0, "name": "5a37b70655ed8610bc41e0031e8fa66d", "is_disabled": 0, "rental_uris": {"android": "https://dc.lft.to/lastmile_qr_scan", "ios": "https://dc.lft.to/lastmile_qr_scan"}, "fusion_lon": 0.0, "lat": 38.920351, "bike_id": "5a37b70655ed8610bc41e0031e8fa66d", "type": "electric_scooter", "is_reserved": 0, "lon": -77.034085}, {"fusion_lat": 0.0, "name": "c07596619d79fda45b53c4b5e575a29b", "is_disabled": 0, "rental_uris": {"android": "https://dc.lft.to/lastmile_qr_scan", "ios": "https://dc.lft.to/lastmile_qr_scan"}, "fusion_lon": 0.0, "lat": 38.90540933333333, "bike_id": "c07596619d79fda45b53c4b5e575a29b", "type": "electric_scooter", "is_reserved": 0, "lon": -77.00559766666667}, {"fusion_lat": 0.0, "name": "350d58b2e8c226d19aaa403429aee832", "is_disabled": 0, "rental_uris": {"android": "https://dc.lft.to/lastmile_qr_scan", "ios": "https://dc.lft.to/lastmile_qr_scan"}, "fusion_lon": 0.0, "lat": 38.9249395, "bike_id": "350d58b2e8c226d19aaa403429aee832", "type": "electric_scooter", "is_reserved": 0, "lon": -77.05230333333333}, {"fusion_lat": 0.0, "name": "ef7bcf4aa9b13e93ab47c1d86f8fcd4c", "is_disabled": 0, "rental_uris": {"android": "https://dc.lft.to/lastmile_qr_scan", "ios": "https://dc.lft.to/lastmile_qr_scan"}, "fusion_lon": 0.0, "lat": 38.909714, "bike_id": "ef7bcf4aa9b13e93ab47c1d86f8fcd4c", "type": "electric_scooter", "is_reserved": 0, "lon": -77.04645333333333}, {"fusion_lat": 0.0, "name": "709e8d32b4f2b0c37655da8344a41990", "is_disabled": 0, "rental_uris": {"android": "https://dc.lft.to/lastmile_qr_scan", "ios": "https://dc.lft.to/lastmile_qr_scan"}, "fusion_lon": 0.0, "lat": 38.988185333333334, "bike_id": "709e8d32b4f2b0c37655da8344a41990", "type": "electric_bike", "is_reserved": 0, "lon": -77.02659066666666}, {"fusion_lat": 0.0, "name": "82e2d5ae0a5bc3e3149043371b25d058", "is_disabled": 0, "rental_uris": {"android": "https://dc.lft.to/lastmile_qr_scan", "ios": "https://dc.lft.to/lastmile_qr_scan"}, "fusion_lon": 0.0, "lat": 38.820946666666664, "bike_id": "82e2d5ae0a5bc3e3149043371b25d058", "type": "electric_bike", "is_reserved": 0, "lon": -77.05304916666667}, {"fusion_lat": 0.0, "name": "d75a610b0b19ee13a9cc93ba9f9a4e04", "is_disabled": 0, "rental_uris": {"android": "https://dc.lft.to/lastmile_qr_scan", "ios": "https://dc.lft.to/lastmile_qr_scan"}, "fusion_lon": 0.0, "lat": 38.875663, "bike_id": "d75a610b0b19ee13a9cc93ba9f9a4e04", "type": "electric_scooter", "is_reserved": 0, "lon": -77.00931283333334}, {"fusion_lat": 0.0, "name": "4b149ef23ebc3819c45760d32845ba79", "is_disabled": 0, "rental_uris": {"android": "https://dc.lft.to/lastmile_qr_scan", "ios": "https://dc.lft.to/lastmile_qr_scan"}, "fusion_lon": 0.0, "lat": 38.92480283333333, "bike_id": "4b149ef23ebc3819c45760d32845ba79", "type": "electric_bike", "is_reserved": 0, "lon": -77.02228333333333}, {"fusion_lat": 0.0, "name": "331d842d07271abc6eea29b396aa4f19", "is_disabled": 0, "rental_uris": {"android": "https://dc.lft.to/lastmile_qr_scan", "ios": "https://dc.lft.to/lastmile_qr_scan"}, "fusion_lon": 0.0, "lat": 38.91182766666667, "bike_id": "331d842d07271abc6eea29b396aa4f19", "type": "electric_scooter", "is_reserved": 0, "lon": -77.04239}, {"fusion_lat": 0.0, "name": "df5efbbf4134177bb217f996bba75e0b", "is_disabled": 0, "rental_uris": {"android": "https://dc.lft.to/lastmile_qr_scan", "ios": "https://dc.lft.to/lastmile_qr_scan"}, "fusion_lon": 0.0, "lat": 38.9027055, "bike_id": "df5efbbf4134177bb217f996bba75e0b", "type": "electric_scooter", "is_reserved": 0, "lon": -77.0397635}, {"fusion_lat": 0.0, "name": "38054ad1c5ea9d8855a22cf3be1a27ef", "is_disabled": 0, "rental_uris": {"android": "https://dc.lft.to/lastmile_qr_scan", "ios": "https://dc.lft.to/lastmile_qr_scan"}, "fusion_lon": 0.0, "lat": 38.92387133333333, "bike_id": "38054ad1c5ea9d8855a22cf3be1a27ef", "type": "electric_scooter", "is_reserved": 0, "lon": -77.0366315}, {"fusion_lat": 0.0, "name": "c0d5e7b7823b9cb1ca028651ffa087aa", "is_disabled": 0, "rental_uris": {"android": "https://dc.lft.to/lastmile_qr_scan", "ios": "https://dc.lft.to/lastmile_qr_scan"}, "fusion_lon": 0.0, "lat": 38.90862, "bike_id": "c0d5e7b7823b9cb1ca028651ffa087aa", "type": "electric_scooter", "is_reserved": 0, "lon": -77.085935}, {"fusion_lat": 0.0, "name": "f34fd319b0e008c62e5fb1bc27468413", "is_disabled": 0, "rental_uris": {"android": "https://dc.lft.to/lastmile_qr_scan", "ios": "https://dc.lft.to/lastmile_qr_scan"}, "fusion_lon": 0.0, "lat": 38.9136335, "bike_id": "f34fd319b0e008c62e5fb1bc27468413", "type": "electric_scooter", "is_reserved": 0, "lon": -77.04557483333333}, {"fusion_lat": 0.0, "name": "dfba60d0a9cdfd4db50f8f6a7a66dd6a", "is_disabled": 0, "rental_uris": {"android": "https://dc.lft.to/lastmile_qr_scan", "ios": "https://dc.lft.to/lastmile_qr_scan"}, "fusion_lon": 0.0, "lat": 38.87683233333333, "bike_id": "dfba60d0a9cdfd4db50f8f6a7a66dd6a", "type": "electric_scooter", "is_reserved": 0, "lon": -77.00732083333334}, {"fusion_lat": 0.0, "name": "64f8c68d7ca1b8de31028109d8ad1e92", "is_disabled": 0, "rental_uris": {"android": "https://dc.lft.to/lastmile_qr_scan", "ios": "https://dc.lft.to/lastmile_qr_scan"}, "fusion_lon": 0.0, "lat": 38.878786833333336, "bike_id": "64f8c68d7ca1b8de31028109d8ad1e92", "type": "electric_scooter", "is_reserved": 0, "lon": -77.022351}, {"fusion_lat": 0.0, "name": "51d65e1b292d536a0a1fd8f3241d6579", "is_disabled": 0, "rental_uris": {"android": "https://dc.lft.to/lastmile_qr_scan", "ios": "https://dc.lft.to/lastmile_qr_scan"}, "fusion_lon": 0.0, "lat": 38.961658166666666, "bike_id": "51d65e1b292d536a0a1fd8f3241d6579", "type": "electric_scooter", "is_reserved": 0, "lon": -77.07358566666667}, {"fusion_lat": 0.0, "name": "19bed0946d067cda1267cb36639addc1", "is_disabled": 0, "rental_uris": {"android": "https://dc.lft.to/lastmile_qr_scan", "ios": "https://dc.lft.to/lastmile_qr_scan"}, "fusion_lon": 0.0, "lat": 38.9169575, "bike_id": "19bed0946d067cda1267cb36639addc1", "type": "electric_scooter", "is_reserved": 0, "lon": -77.04214166666667}, {"fusion_lat": 0.0, "name": "d6b6b0a97b8e919ae2fa7952580028bc", "is_disabled": 0, "rental_uris": {"android": "https://dc.lft.to/lastmile_qr_scan", "ios": "https://dc.lft.to/lastmile_qr_scan"}, "fusion_lon": 0.0, "lat": 38.896128833333336, "bike_id": "d6b6b0a97b8e919ae2fa7952580028bc", "type": "electric_scooter", "is_reserved": 0, "lon": -76.9481565}, {"fusion_lat": 0.0, "name": "25e3e1dacf9a6d7d22abdfc63233f6af", "is_disabled": 0, "rental_uris": {"android": "https://dc.lft.to/lastmile_qr_scan", "ios": "https://dc.lft.to/lastmile_qr_scan"}, "fusion_lon": 0.0, "lat": 38.898849166666665, "bike_id": "25e3e1dacf9a6d7d22abdfc63233f6af", "type": "electric_scooter", "is_reserved": 0, "lon": -77.03320566666666}, {"fusion_lat": 0.0, "name": "ae7f42f0c90dbc7ecd59e1fe39f67c40", "is_disabled": 0, "rental_uris": {"android": "https://dc.lft.to/lastmile_qr_scan", "ios": "https://dc.lft.to/lastmile_qr_scan"}, "fusion_lon": 0.0, "lat": 38.82459766666667, "bike_id": "ae7f42f0c90dbc7ecd59e1fe39f67c40", "type": "electric_bike", "is_reserved": 0, "lon": -77.00798166666667}, {"fusion_lat": 0.0, "name": "0db43cc530c0ec287971e575e767fa38", "is_disabled": 0, "rental_uris": {"android": "https://dc.lft.to/lastmile_qr_scan", "ios": "https://dc.lft.to/lastmile_qr_scan"}, "fusion_lon": 0.0, "lat": 38.90028, "bike_id": "0db43cc530c0ec287971e575e767fa38", "type": "electric_scooter", "is_reserved": 0, "lon": -77.00702516666666}, {"fusion_lat": 0.0, "name": "bf6b32778dfff1b765957a3f5575b6bd", "is_disabled": 0, "rental_uris": {"android": "https://dc.lft.to/lastmile_qr_scan", "ios": "https://dc.lft.to/lastmile_qr_scan"}, "fusion_lon": 0.0, "lat": 38.924959666666666, "bike_id": "bf6b32778dfff1b765957a3f5575b6bd", "type": "electric_scooter", "is_reserved": 0, "lon": -77.05228}, {"fusion_lat": 0.0, "name": "e2e98f2cd16dccea90a0f4de30c80145", "is_disabled": 0, "rental_uris": {"android": "https://dc.lft.to/lastmile_qr_scan", "ios": "https://dc.lft.to/lastmile_qr_scan"}, "fusion_lon": 0.0, "lat": 38.917781833333336, "bike_id": "e2e98f2cd16dccea90a0f4de30c80145", "type": "electric_scooter", "is_reserved": 0, "lon": -77.0231195}, {"fusion_lat": 0.0, "name": "20330e39aba882965a2ee2de8749db27", "is_disabled": 0, "rental_uris": {"android": "https://dc.lft.to/lastmile_qr_scan", "ios": "https://dc.lft.to/lastmile_qr_scan"}, "fusion_lon": 0.0, "lat": 38.88761083333333, "bike_id": "20330e39aba882965a2ee2de8749db27", "type": "electric_scooter", "is_reserved": 0, "lon": -76.97757616666667}, {"fusion_lat": 0.0, "name": "0b783f9f8a68b172e4fe108e52cf25c3", "is_disabled": 0, "rental_uris": {"android": "https://dc.lft.to/lastmile_qr_scan", "ios": "https://dc.lft.to/lastmile_qr_scan"}, "fusion_lon": 0.0, "lat": 38.909563, "bike_id": "0b783f9f8a68b172e4fe108e52cf25c3", "type": "electric_scooter", "is_reserved": 0, "lon": -76.98546466666667}, {"fusion_lat": 0.0, "name": "4ba6e19df621f65e049db57c2a75fcb6", "is_disabled": 0, "rental_uris": {"android": "https://dc.lft.to/lastmile_qr_scan", "ios": "https://dc.lft.to/lastmile_qr_scan"}, "fusion_lon": 0.0, "lat": 38.90575116666667, "bike_id": "4ba6e19df621f65e049db57c2a75fcb6", "type": "electric_scooter", "is_reserved": 0, "lon": -77.0220505}, {"fusion_lat": 0.0, "name": "54d0fac5fc29543c8bf2b48d33a89f08", "is_disabled": 0, "rental_uris": {"android": "https://dc.lft.to/lastmile_qr_scan", "ios": "https://dc.lft.to/lastmile_qr_scan"}, "fusion_lon": 0.0, "lat": 38.8962415, "bike_id": "54d0fac5fc29543c8bf2b48d33a89f08", "type": "electric_scooter", "is_reserved": 0, "lon": -77.032252}, {"fusion_lat": 0.0, "name": "b3ef891a85a3ae849c07196a47119b9d", "is_disabled": 0, "rental_uris": {"android": "https://dc.lft.to/lastmile_qr_scan", "ios": "https://dc.lft.to/lastmile_qr_scan"}, "fusion_lon": 0.0, "lat": 38.90565383333333, "bike_id": "b3ef891a85a3ae849c07196a47119b9d", "type": "electric_scooter", "is_reserved": 0, "lon": -77.04645383333333}, {"fusion_lat": 0.0, "name": "1ade60080a3b019bea7bae60c0ea7f5e", "is_disabled": 0, "rental_uris": {"android": "https://dc.lft.to/lastmile_qr_scan", "ios": "https://dc.lft.to/lastmile_qr_scan"}, "fusion_lon": 0.0, "lat": 38.923724, "bike_id": "1ade60080a3b019bea7bae60c0ea7f5e", "type": "electric_scooter", "is_reserved": 0, "lon": -77.0213635}, {"fusion_lat": 0.0, "name": "135bfc18e2acca8766a85e33bb06e0c1", "is_disabled": 0, "rental_uris": {"android": "https://dc.lft.to/lastmile_qr_scan", "ios": "https://dc.lft.to/lastmile_qr_scan"}, "fusion_lon": 0.0, "lat": 38.91324766666666, "bike_id": "135bfc18e2acca8766a85e33bb06e0c1", "type": "electric_scooter", "is_reserved": 0, "lon": -77.021576}, {"fusion_lat": 0.0, "name": "da1a34a052a3eb1f191ec91b9d8d6a69", "is_disabled": 0, "rental_uris": {"android": "https://dc.lft.to/lastmile_qr_scan", "ios": "https://dc.lft.to/lastmile_qr_scan"}, "fusion_lon": 0.0, "lat": 38.88324683333333, "bike_id": "da1a34a052a3eb1f191ec91b9d8d6a69", "type": "electric_scooter", "is_reserved": 0, "lon": -77.01682316666667}, {"fusion_lat": 0.0, "name": "23de2408cdbbd5761c32392eb0d2fdda", "is_disabled": 0, "rental_uris": {"android": "https://dc.lft.to/lastmile_qr_scan", "ios": "https://dc.lft.to/lastmile_qr_scan"}, "fusion_lon": 0.0, "lat": 38.929620666666665, "bike_id": "23de2408cdbbd5761c32392eb0d2fdda", "type": "electric_scooter", "is_reserved": 0, "lon": -77.05524183333333}, {"fusion_lat": 0.0, "name": "b5a2bf4264df65c24ebbada011d224d5", "is_disabled": 0, "rental_uris": {"android": "https://dc.lft.to/lastmile_qr_scan", "ios": "https://dc.lft.to/lastmile_qr_scan"}, "fusion_lon": 0.0, "lat": 38.88490516666667, "bike_id": "b5a2bf4264df65c24ebbada011d224d5", "type": "electric_scooter", "is_reserved": 0, "lon": -77.01085816666667}, {"fusion_lat": 0.0, "name": "25f3f3c6923a7b7352d51901378d2945", "is_disabled": 0, "rental_uris": {"android": "https://dc.lft.to/lastmile_qr_scan", "ios": "https://dc.lft.to/lastmile_qr_scan"}, "fusion_lon": 0.0, "lat": 38.923435833333336, "bike_id": "25f3f3c6923a7b7352d51901378d2945", "type": "electric_scooter", "is_reserved": 0, "lon": -77.03650116666667}, {"fusion_lat": 0.0, "name": "735ca0c8b917aff344fde73478a20bbc", "is_disabled": 0, "rental_uris": {"android": "https://dc.lft.to/lastmile_qr_scan", "ios": "https://dc.lft.to/lastmile_qr_scan"}, "fusion_lon": 0.0, "lat": 38.884749666666664, "bike_id": "735ca0c8b917aff344fde73478a20bbc", "type": "electric_scooter", "is_reserved": 0, "lon": -77.0152565}, {"fusion_lat": 0.0, "name": "85dd89461976833f55dce1d82588771e", "is_disabled": 0, "rental_uris": {"android": "https://dc.lft.to/lastmile_qr_scan", "ios": "https://dc.lft.to/lastmile_qr_scan"}, "fusion_lon": 0.0, "lat": 38.896057166666665, "bike_id": "85dd89461976833f55dce1d82588771e", "type": "electric_scooter", "is_reserved": 0, "lon": -77.009295}, {"fusion_lat": 0.0, "name": "2a14982c5b34614114199dcf25cdc2d0", "is_disabled": 0, "rental_uris": {"android": "https://dc.lft.to/lastmile_qr_scan", "ios": "https://dc.lft.to/lastmile_qr_scan"}, "fusion_lon": 0.0, "lat": 38.973433166666666, "bike_id": "2a14982c5b34614114199dcf25cdc2d0", "type": "electric_bike", "is_reserved": 0, "lon": -77.01793183333334}, {"fusion_lat": 0.0, "name": "49aa37b3bb206f40493c5b5b185a80fc", "is_disabled": 0, "rental_uris": {"android": "https://dc.lft.to/lastmile_qr_scan", "ios": "https://dc.lft.to/lastmile_qr_scan"}, "fusion_lon": 0.0, "lat": 38.919104833333336, "bike_id": "49aa37b3bb206f40493c5b5b185a80fc", "type": "electric_scooter", "is_reserved": 0, "lon": -77.02445766666666}, {"fusion_lat": 0.0, "name": "2f6882b8be8975b8aa1fad001b09824a", "is_disabled": 0, "rental_uris": {"android": "https://dc.lft.to/lastmile_qr_scan", "ios": "https://dc.lft.to/lastmile_qr_scan"}, "fusion_lon": 0.0, "lat": 38.913939666666664, "bike_id": "2f6882b8be8975b8aa1fad001b09824a", "type": "electric_scooter", "is_reserved": 0, "lon": -77.03328733333333}, {"fusion_lat": 0.0, "name": "5d188465b26147e02bee6fa0e2b29ccf", "is_disabled": 0, "rental_uris": {"android": "https://dc.lft.to/lastmile_qr_scan", "ios": "https://dc.lft.to/lastmile_qr_scan"}, "fusion_lon": 0.0, "lat": 38.911212, "bike_id": "5d188465b26147e02bee6fa0e2b29ccf", "type": "electric_scooter", "is_reserved": 0, "lon": -77.03834483333333}, {"fusion_lat": 0.0, "name": "9c196d3a26a69ff5e7d94303772bcca9", "is_disabled": 0, "rental_uris": {"android": "https://dc.lft.to/lastmile_qr_scan", "ios": "https://dc.lft.to/lastmile_qr_scan"}, "fusion_lon": 0.0, "lat": 38.89900883333333, "bike_id": "9c196d3a26a69ff5e7d94303772bcca9", "type": "electric_scooter", "is_reserved": 0, "lon": -77.05670433333333}, {"fusion_lat": 0.0, "name": "ccb22924c6ec253aa65b4d972573b0ab", "is_disabled": 0, "rental_uris": {"android": "https://dc.lft.to/lastmile_qr_scan", "ios": "https://dc.lft.to/lastmile_qr_scan"}, "fusion_lon": 0.0, "lat": 38.92472016666667, "bike_id": "ccb22924c6ec253aa65b4d972573b0ab", "type": "electric_scooter", "is_reserved": 0, "lon": -77.02646233333333}, {"fusion_lat": 0.0, "name": "e2f9368efa32b0f400ef66666b570f3d", "is_disabled": 0, "rental_uris": {"android": "https://dc.lft.to/lastmile_qr_scan", "ios": "https://dc.lft.to/lastmile_qr_scan"}, "fusion_lon": 0.0, "lat": 38.890661333333334, "bike_id": "e2f9368efa32b0f400ef66666b570f3d", "type": "electric_scooter", "is_reserved": 0, "lon": -76.944492}, {"fusion_lat": 0.0, "name": "0c0ac218ddef46eae3c8bf309cce437e", "is_disabled": 0, "rental_uris": {"android": "https://dc.lft.to/lastmile_qr_scan", "ios": "https://dc.lft.to/lastmile_qr_scan"}, "fusion_lon": 0.0, "lat": 38.8916745, "bike_id": "0c0ac218ddef46eae3c8bf309cce437e", "type": "electric_scooter", "is_reserved": 0, "lon": -76.99465666666667}, {"fusion_lat": 0.0, "name": "6edb0c77b37b475b3f5d3044851a3b56", "is_disabled": 0, "rental_uris": {"android": "https://dc.lft.to/lastmile_qr_scan", "ios": "https://dc.lft.to/lastmile_qr_scan"}, "fusion_lon": 0.0, "lat": 38.90310816666667, "bike_id": "6edb0c77b37b475b3f5d3044851a3b56", "type": "electric_scooter", "is_reserved": 0, "lon": -77.02227716666667}, {"fusion_lat": 0.0, "name": "f5c187c932bd8473fca70859808d67cd", "is_disabled": 0, "rental_uris": {"android": "https://dc.lft.to/lastmile_qr_scan", "ios": "https://dc.lft.to/lastmile_qr_scan"}, "fusion_lon": 0.0, "lat": 38.93198816666666, "bike_id": "f5c187c932bd8473fca70859808d67cd", "type": "electric_scooter", "is_reserved": 0, "lon": -77.02806566666666}, {"fusion_lat": 0.0, "name": "c2615a9a4ad0e3551dff42396c1ef269", "is_disabled": 0, "rental_uris": {"android": "https://dc.lft.to/lastmile_qr_scan", "ios": "https://dc.lft.to/lastmile_qr_scan"}, "fusion_lon": 0.0, "lat": 38.89912483333333, "bike_id": "c2615a9a4ad0e3551dff42396c1ef269", "type": "electric_scooter", "is_reserved": 0, "lon": -77.00343183333334}, {"fusion_lat": 0.0, "name": "3681865fbb35483a24e2d9a33def008c", "is_disabled": 0, "rental_uris": {"android": "https://dc.lft.to/lastmile_qr_scan", "ios": "https://dc.lft.to/lastmile_qr_scan"}, "fusion_lon": 0.0, "lat": 38.92518316666666, "bike_id": "3681865fbb35483a24e2d9a33def008c", "type": "electric_scooter", "is_reserved": 0, "lon": -76.9956625}, {"fusion_lat": 0.0, "name": "ed18c36c43a2f4d40f1f3a75d7d9a0d6", "is_disabled": 0, "rental_uris": {"android": "https://dc.lft.to/lastmile_qr_scan", "ios": "https://dc.lft.to/lastmile_qr_scan"}, "fusion_lon": 0.0, "lat": 38.89532416666667, "bike_id": "ed18c36c43a2f4d40f1f3a75d7d9a0d6", "type": "electric_scooter", "is_reserved": 0, "lon": -77.01201983333333}, {"fusion_lat": 0.0, "name": "684e79e9ddcb197224204dec7c7bf025", "is_disabled": 0, "rental_uris": {"android": "https://dc.lft.to/lastmile_qr_scan", "ios": "https://dc.lft.to/lastmile_qr_scan"}, "fusion_lon": 0.0, "lat": 38.95639666666667, "bike_id": "684e79e9ddcb197224204dec7c7bf025", "type": "electric_scooter", "is_reserved": 0, "lon": -77.02410733333333}, {"fusion_lat": 0.0, "name": "cd4356f18b43ceecedb56cb02b7a87dd", "is_disabled": 0, "rental_uris": {"android": "https://dc.lft.to/lastmile_qr_scan", "ios": "https://dc.lft.to/lastmile_qr_scan"}, "fusion_lon": 0.0, "lat": 38.875497333333335, "bike_id": "cd4356f18b43ceecedb56cb02b7a87dd", "type": "electric_scooter", "is_reserved": 0, "lon": -77.00562383333333}, {"fusion_lat": 0.0, "name": "f9002417a26eb2b1bebaa3f8b1189677", "is_disabled": 0, "rental_uris": {"android": "https://dc.lft.to/lastmile_qr_scan", "ios": "https://dc.lft.to/lastmile_qr_scan"}, "fusion_lon": 0.0, "lat": 38.89014983333333, "bike_id": "f9002417a26eb2b1bebaa3f8b1189677", "type": "electric_scooter", "is_reserved": 0, "lon": -76.93738983333333}, {"fusion_lat": 0.0, "name": "98c886acb0a3f3bcf07b30bc6e2efc88", "is_disabled": 0, "rental_uris": {"android": "https://dc.lft.to/lastmile_qr_scan", "ios": "https://dc.lft.to/lastmile_qr_scan"}, "fusion_lon": 0.0, "lat": 38.85599166666667, "bike_id": "98c886acb0a3f3bcf07b30bc6e2efc88", "type": "electric_scooter", "is_reserved": 0, "lon": -76.97272266666667}, {"fusion_lat": 0.0, "name": "2e75912f94570a9e2c29cd7ed0e6ffc0", "is_disabled": 0, "rental_uris": {"android": "https://dc.lft.to/lastmile_qr_scan", "ios": "https://dc.lft.to/lastmile_qr_scan"}, "fusion_lon": 0.0, "lat": 38.89825733333333, "bike_id": "2e75912f94570a9e2c29cd7ed0e6ffc0", "type": "electric_scooter", "is_reserved": 0, "lon": -77.04649016666667}, {"fusion_lat": 0.0, "name": "62c94de8c5443bbce61d51b613c4939f", "is_disabled": 0, "rental_uris": {"android": "https://dc.lft.to/lastmile_qr_scan", "ios": "https://dc.lft.to/lastmile_qr_scan"}, "fusion_lon": 0.0, "lat": 38.920696666666664, "bike_id": "62c94de8c5443bbce61d51b613c4939f", "type": "electric_scooter", "is_reserved": 0, "lon": -77.023238}, {"fusion_lat": 0.0, "name": "bca1fb16ad1ab301177328d64ccc5ce4", "is_disabled": 0, "rental_uris": {"android": "https://dc.lft.to/lastmile_qr_scan", "ios": "https://dc.lft.to/lastmile_qr_scan"}, "fusion_lon": 0.0, "lat": 38.892458166666664, "bike_id": "bca1fb16ad1ab301177328d64ccc5ce4", "type": "electric_scooter", "is_reserved": 0, "lon": -77.03195366666667}, {"fusion_lat": 0.0, "name": "dbc536ef766607d3d7e715625fe003d9", "is_disabled": 0, "rental_uris": {"android": "https://dc.lft.to/lastmile_qr_scan", "ios": "https://dc.lft.to/lastmile_qr_scan"}, "fusion_lon": 0.0, "lat": 38.93763083333333, "bike_id": "dbc536ef766607d3d7e715625fe003d9", "type": "electric_scooter", "is_reserved": 0, "lon": -77.02079016666667}, {"fusion_lat": 0.0, "name": "6e345dac6cf15033ca92a0a48fff2f02", "is_disabled": 0, "rental_uris": {"android": "https://dc.lft.to/lastmile_qr_scan", "ios": "https://dc.lft.to/lastmile_qr_scan"}, "fusion_lon": 0.0, "lat": 38.89252, "bike_id": "6e345dac6cf15033ca92a0a48fff2f02", "type": "electric_scooter", "is_reserved": 0, "lon": -77.04658733333333}, {"fusion_lat": 0.0, "name": "dbe538ac8c076928776055528dd35e37", "is_disabled": 0, "rental_uris": {"android": "https://dc.lft.to/lastmile_qr_scan", "ios": "https://dc.lft.to/lastmile_qr_scan"}, "fusion_lon": 0.0, "lat": 38.90233, "bike_id": "dbe538ac8c076928776055528dd35e37", "type": "electric_scooter", "is_reserved": 0, "lon": -77.03360683333334}, {"fusion_lat": 0.0, "name": "f09c9760342d697437c3a086ce263be1", "is_disabled": 0, "rental_uris": {"android": "https://dc.lft.to/lastmile_qr_scan", "ios": "https://dc.lft.to/lastmile_qr_scan"}, "fusion_lon": 0.0, "lat": 38.8075165, "bike_id": "f09c9760342d697437c3a086ce263be1", "type": "electric_bike", "is_reserved": 0, "lon": -77.0945445}, {"fusion_lat": 0.0, "name": "06291b2f6fa296003afcfde29d82017c", "is_disabled": 0, "rental_uris": {"android": "https://dc.lft.to/lastmile_qr_scan", "ios": "https://dc.lft.to/lastmile_qr_scan"}, "fusion_lon": 0.0, "lat": 38.92610166666667, "bike_id": "06291b2f6fa296003afcfde29d82017c", "type": "electric_scooter", "is_reserved": 0, "lon": -77.03970466666667}, {"fusion_lat": 0.0, "name": "d2602793d9aaca6dbf2e72c9eaa06107", "is_disabled": 0, "rental_uris": {"android": "https://dc.lft.to/lastmile_qr_scan", "ios": "https://dc.lft.to/lastmile_qr_scan"}, "fusion_lon": 0.0, "lat": 38.91815733333333, "bike_id": "d2602793d9aaca6dbf2e72c9eaa06107", "type": "electric_scooter", "is_reserved": 0, "lon": -77.02535433333334}, {"fusion_lat": 0.0, "name": "bd6ade1aa087fc926674f2cf7d083968", "is_disabled": 0, "rental_uris": {"android": "https://dc.lft.to/lastmile_qr_scan", "ios": "https://dc.lft.to/lastmile_qr_scan"}, "fusion_lon": 0.0, "lat": 38.90975133333333, "bike_id": "bd6ade1aa087fc926674f2cf7d083968", "type": "electric_scooter", "is_reserved": 0, "lon": -77.02184216666667}, {"fusion_lat": 0.0, "name": "02ac0d5af6b52446163ed0fe4df9dad1", "is_disabled": 0, "rental_uris": {"android": "https://dc.lft.to/lastmile_qr_scan", "ios": "https://dc.lft.to/lastmile_qr_scan"}, "fusion_lon": 0.0, "lat": 38.88059416666667, "bike_id": "02ac0d5af6b52446163ed0fe4df9dad1", "type": "electric_scooter", "is_reserved": 0, "lon": -77.0255725}, {"fusion_lat": 0.0, "name": "fef23322137d1142ba4183003674bf69", "is_disabled": 0, "rental_uris": {"android": "https://dc.lft.to/lastmile_qr_scan", "ios": "https://dc.lft.to/lastmile_qr_scan"}, "fusion_lon": 0.0, "lat": 38.9307755, "bike_id": "fef23322137d1142ba4183003674bf69", "type": "electric_scooter", "is_reserved": 0, "lon": -77.07760666666667}, {"fusion_lat": 0.0, "name": "643a4ae0e673c9c889292f7021774804", "is_disabled": 0, "rental_uris": {"android": "https://dc.lft.to/lastmile_qr_scan", "ios": "https://dc.lft.to/lastmile_qr_scan"}, "fusion_lon": 0.0, "lat": 38.860150833333336, "bike_id": "643a4ae0e673c9c889292f7021774804", "type": "electric_bike", "is_reserved": 0, "lon": -77.12810833333333}, {"fusion_lat": 0.0, "name": "9ca6cf1e5315c829e8aee9124cdf3b4d", "is_disabled": 0, "rental_uris": {"android": "https://dc.lft.to/lastmile_qr_scan", "ios": "https://dc.lft.to/lastmile_qr_scan"}, "fusion_lon": 0.0, "lat": 38.90408933333333, "bike_id": "9ca6cf1e5315c829e8aee9124cdf3b4d", "type": "electric_scooter", "is_reserved": 0, "lon": -76.97330616666666}, {"fusion_lat": 0.0, "name": "1d5050a7f0ea9ed0217c6aea4253c95e", "is_disabled": 0, "rental_uris": {"android": "https://dc.lft.to/lastmile_qr_scan", "ios": "https://dc.lft.to/lastmile_qr_scan"}, "fusion_lon": 0.0, "lat": 38.901537833333336, "bike_id": "1d5050a7f0ea9ed0217c6aea4253c95e", "type": "electric_scooter", "is_reserved": 0, "lon": -77.03335}, {"fusion_lat": 0.0, "name": "8d690a9b042eae71f37f4c668e396029", "is_disabled": 0, "rental_uris": {"android": "https://dc.lft.to/lastmile_qr_scan", "ios": "https://dc.lft.to/lastmile_qr_scan"}, "fusion_lon": 0.0, "lat": 38.902545333333336, "bike_id": "8d690a9b042eae71f37f4c668e396029", "type": "electric_scooter", "is_reserved": 0, "lon": -76.97456716666667}, {"fusion_lat": 0.0, "name": "1e02e31b1d7d2a1ca559d7e69f659091", "is_disabled": 0, "rental_uris": {"android": "https://dc.lft.to/lastmile_qr_scan", "ios": "https://dc.lft.to/lastmile_qr_scan"}, "fusion_lon": 0.0, "lat": 38.892315333333336, "bike_id": "1e02e31b1d7d2a1ca559d7e69f659091", "type": "electric_scooter", "is_reserved": 0, "lon": -77.03176516666667}, {"fusion_lat": 0.0, "name": "feaeebdd03656cd2acd14af0d1bd8bea", "is_disabled": 0, "rental_uris": {"android": "https://dc.lft.to/lastmile_qr_scan", "ios": "https://dc.lft.to/lastmile_qr_scan"}, "fusion_lon": 0.0, "lat": 38.9563065, "bike_id": "feaeebdd03656cd2acd14af0d1bd8bea", "type": "electric_scooter", "is_reserved": 0, "lon": -77.02316266666666}, {"fusion_lat": 0.0, "name": "076ab9d62919a015036e2c97594e5507", "is_disabled": 0, "rental_uris": {"android": "https://dc.lft.to/lastmile_qr_scan", "ios": "https://dc.lft.to/lastmile_qr_scan"}, "fusion_lon": 0.0, "lat": 38.95233833333333, "bike_id": "076ab9d62919a015036e2c97594e5507", "type": "electric_scooter", "is_reserved": 0, "lon": -76.99008583333334}, {"fusion_lat": 0.0, "name": "a9af50423ac05b5ef3220a08cbd3d569", "is_disabled": 0, "rental_uris": {"android": "https://dc.lft.to/lastmile_qr_scan", "ios": "https://dc.lft.to/lastmile_qr_scan"}, "fusion_lon": 0.0, "lat": 38.8876925, "bike_id": "a9af50423ac05b5ef3220a08cbd3d569", "type": "electric_scooter", "is_reserved": 0, "lon": -76.99641233333334}, {"fusion_lat": 0.0, "name": "21bf5b98157dd9c75d63cd2eb9768a74", "is_disabled": 0, "rental_uris": {"android": "https://dc.lft.to/lastmile_qr_scan", "ios": "https://dc.lft.to/lastmile_qr_scan"}, "fusion_lon": 0.0, "lat": 38.90673483333333, "bike_id": "21bf5b98157dd9c75d63cd2eb9768a74", "type": "electric_scooter", "is_reserved": 0, "lon": -77.02716583333333},