{"data": {"bikes": [{"fusion_lon": 0.0, "bike_id": "f645e1013954ad39715cc17fc48d6266", "name": "f645e1013954ad39715cc17fc48d6266", "type": "electric_scooter", "lon": -77.0710755, "rental_uris": {"android": "https://dc.lft.to/lastmile_qr_scan", "ios": "https://dc.lft.to/lastmile_qr_scan"}, "lat": 38.919728166666665, "is_reserved": 0, "is_disabled": 0, "fusion_lat": 0.0}, {"fusion_lon": 0.0, "bike_id": "a27b84aefc35b9eb8a994022e19dcee7", "name": "a27b84aefc35b9eb8a994022e19dcee7", "type": "electric_scooter", "lon": -77.03851283333333, "rental_uris": {"android": "https://dc.lft.to/lastmile_qr_scan", "ios": "https://dc.lft.to/lastmile_qr_scan"}, "lat": 38.92164433333333, "is_reserved": 0, "is_disabled": 0, "fusion_lat": 0.0}, {"fusion_lon": 0.0, "bike_id": "d2db1d6c4bf7dbec1c1952212dab4856", "name": "d2db1d6c4bf7dbec1c1952212dab4856", "type": "electric_scooter", "lon": -76.965726, "rental_uris": {"android": "https://dc.lft.to/lastmile_qr_scan", "ios": "https://dc.lft.to/lastmile_qr_scan"}, "lat": 38.8713365, "is_reserved": 0, "is_disabled": 0, "fusion_lat": 0.0}, {"fusion_lon": 0.0, "bike_id": "7ba432139388b56cd1efbf8c54948a9d", "name": "7ba432139388b56cd1efbf8c54948a9d", "type": "electric_bike", "lon": -77.024867, "rental_uris": {"android": "https://dc.lft.to/lastmile_qr_scan", "ios": "https://dc.lft.to/lastmile_qr_scan"}, "lat": 38.97365033333333, "is_reserved": 0, "is_disabled": 0, "fusion_lat": 0.0}, {"fusion_lon": 0.0, "bike_id": "091cba0cf27c9b40ed684a624aa5b780", "name": "091cba0cf27c9b40ed684a624aa5b780", "type": "electric_scooter", "lon": -76.99628183333333, "rental_uris": {"android": "https://dc.lft.to/lastmile_qr_scan", "ios": "https://dc.lft.to/lastmile_qr_scan"}, "lat": 38.84624083333333, "is_reserved": 0, "is_disabled": 0, "fusion_lat": 0.0}, {"fusion_lon": 0.0, "bike_id": "04fccac5644ec505a47320227cf48a24", "name": "04fccac5644ec505a47320227cf48a24", "type": "electric_scooter", "lon": -77.01126066666667, "rental_uris": {"android": "https://dc.lft.to/lastmile_qr_scan", "ios": "https://dc.lft.to/lastmile_qr_scan"}, "lat": 38.89604216666667, "is_reserved": 0, "is_disabled": 0, "fusion_lat": 0.0}, {"fusion_lon": 0.0, "bike_id": "2f518d438f92df27c64a7d134b1c3d23", "name": "2f518d438f92df27c64a7d134b1c3d23", "type": "electric_scooter", "lon": -77.02380766666667, "rental_uris": {"android": "https://dc.lft.to/lastmile_qr_scan", "ios": "https://dc.lft.to/lastmile_qr_scan"}, "lat": 38.919546, "is_reserved": 0, "is_disabled": 0, "fusion_lat": 0.0}, {"fusion_lon": 0.0, "bike_id": "b50301a76fb760998db185689722565e", "name": "b50301a76fb760998db185689722565e", "type": "electric_scooter", "lon": -76.95752866666666, "rental_uris": {"android": "https://dc.lft.to/lastmile_qr_scan", "ios": "https://dc.lft.to/lastmile_qr_scan"}, "lat": 38.884364166666664, "is_reserved": 0, "is_disabled": 0, "fusion_lat": 0.0}, {"fusion_lon": 0.0, "bike_id": "12980a88a61c0044da9cf1cecdcd412d", "name": "12980a88a61c0044da9cf1cecdcd412d", "type": "electric_scooter", "lon": -77.04225633333333, "rental_uris": {"android": "https://dc.lft.to/lastmile_qr_scan", "ios": "https://dc.lft.to/lastmile_qr_scan"}, "lat": 38.92062383333333, "is_reserved": 0, "is_disabled": 0, "fusion_lat": 0.0}, {"fusion_lon": 0.0, "bike_id": "232f6b78f1e58dc856f2bc1407e7deb7", "name": "232f6b78f1e58dc856f2bc1407e7deb7", "type": "electric_scooter", "lon": -77.0249085, "rental_uris": {"android": "https://dc.lft.to/lastmile_qr_scan", "ios": "https://dc.lft.to/lastmile_qr_scan"}, "lat": 38.94188283333333, "is_reserved": 0, "is_disabled": 0, "fusion_lat": 0.0}, {"fusion_lon": 0.0, "bike_id": "14e67439d02d9e24a2d7becbac93ccb0", "name": "14e67439d02d9e24a2d7becbac93ccb0", "type": "electric_scooter", "lon": -77.04510716666667, "rental_uris": {"android": "https://dc.lft.to/lastmile_qr_scan", "ios": "https://dc.lft.to/lastmile_qr_scan"}, "lat": 38.9077985, "is_reserved": 0, "is_disabled": 0, "fusion_lat": 0.0}, {"fusion_lon": 0.0, "bike_id": "826810915667dadc801ace10d129ddec", "name": "826810915667dadc801ace10d129ddec", "type": "electric_scooter", "lon": -76.99008866666667, "rental_uris": {"android": "https://dc.lft.to/lastmile_qr_scan", "ios": "https://dc.lft.to/lastmile_qr_scan"}, "lat": 38.861064666666664, "is_reserved": 0, "is_disabled": 0, "fusion_lat": 0.0}, {"fusion_lon": 0.0, "bike_id": "817e6d803e055c449a4c1a0f1c975880", "name": "817e6d803e055c449a4c1a0f1c975880", "type": "electric_scooter", "lon": -76.99388683333333, "rental_uris": {"android": "https://dc.lft.to/lastmile_qr_scan", "ios": "https://dc.lft.to/lastmile_qr_scan"}, "lat": 38.88452066666667, "is_reserved": 0, "is_disabled": 0, "fusion_lat": 0.0}, {"fusion_lon": 0.0, "bike_id": "c7b53ce2e0301768a5f5ed0e584db764", "name": "c7b53ce2e0301768a5f5ed0e584db764", "type": "electric_scooter", "lon": -77.02398633333334, "rental_uris": {"android": "https://dc.lft.to/lastmile_qr_scan", "ios": "https://dc.lft.to/lastmile_qr_scan"}, "lat": 38.915066, "is_reserved": 0, "is_disabled": 0, "fusion_lat": 0.0}, {"fusion_lon": 0.0, "bike_id": "2a2a757c04550040c4d21f3c655d540b", "name": "2a2a757c04550040c4d21f3c655d540b", "type": "electric_scooter", "lon": -76.94246633333333, "rental_uris": {"android": "https://dc.lft.to/lastmile_qr_scan", "ios": "https://dc.lft.to/lastmile_qr_scan"}, "lat": 38.896809833333336, "is_reserved": 0, "is_disabled": 0, "fusion_lat": 0.0}, {"fusion_lon": 0.0, "bike_id": "848327e34310de48f94d5b02fefa7a5a", "name": "848327e34310de48f94d5b02fefa7a5a", "type": "electric_scooter", "lon": -77.002124, "rental_uris": {"android": "https://dc.lft.to/lastmile_qr_scan", "ios": "https://dc.lft.to/lastmile_qr_scan"}, "lat": 38.8908885, "is_reserved": 0, "is_disabled": 0, "fusion_lat": 0.0}, {"fusion_lon": 0.0, "bike_id": "70af283f6058a98e53521bdb451d3c6c", "name": "70af283f6058a98e53521bdb451d3c6c", "type": "electric_scooter", "lon": -77.03989766666666, "rental_uris": {"android": "https://dc.lft.to/lastmile_qr_scan", "ios": "https://dc.lft.to/lastmile_qr_scan"}, "lat": 38.91336016666666, "is_reserved": 0, "is_disabled": 0, "fusion_lat": 0.0}, {"fusion_lon": 0.0, "bike_id": "6b08f87f2068e92a46beb9f4c5a402a3", "name": "6b08f87f2068e92a46beb9f4c5a402a3", "type": "electric_scooter", "lon": -77.04187516666667, "rental_uris": {"android": "https://dc.lft.to/lastmile_qr_scan", "ios": "https://dc.lft.to/lastmile_qr_scan"}, "lat": 38.92333566666667, "is_reserved": 0, "is_disabled": 0, "fusion_lat": 0.0}, {"fusion_lon": 0.0, "bike_id": "a9d6f5813b0b60b769dcdbecca7f671a", "name": "a9d6f5813b0b60b769dcdbecca7f671a", "type": "electric_scooter", "lon": -77.0257115, "rental_uris": {"android": "https://dc.lft.to/lastmile_qr_scan", "ios": "https://dc.lft.to/lastmile_qr_scan"}, "lat": 38.895081833333336, "is_reserved": 0, "is_disabled": 0, "fusion_lat": 0.0}, {"fusion_lon": 0.0, "bike_id": "6a44f26fc1684fc00f708406f7745694", "name": "6a44f26fc1684fc00f708406f7745694", "type": "electric_bike", "lon": -77.02298733333333, "rental_uris": {"android": "https://dc.lft.to/lastmile_qr_scan", "ios": "https://dc.lft.to/lastmile_qr_scan"}, "lat": 38.965588, "is_reserved": 0, "is_disabled": 0, "fusion_lat": 0.0}, {"fusion_lon": 0.0, "bike_id": "a2d6012563d0bfdd81b5b03f34a626de", "name": "a2d6012563d0bfdd81b5b03f34a626de", "type": "electric_scooter", "lon": -77.0488005, "rental_uris": {"android": "https://dc.lft.to/lastmile_qr_scan", "ios": "https://dc.lft.to/lastmile_qr_scan"}, "lat": 38.9035415, "is_reserved": 0, "is_disabled": 0, "fusion_lat": 0.0}, {"fusion_lon": 0.0, "bike_id": "77e2116978ffbd6b5cd3eb6f3e374051", "name": "77e2116978ffbd6b5cd3eb6f3e374051", "type": "electric_scooter", "lon": -77.0709695, "rental_uris": {"android": "https://dc.lft.to/lastmile_qr_scan", "ios": "https://dc.lft.to/lastmile_qr_scan"}, "lat": 38.91971433333333, "is_reserved": 0, "is_disabled": 0, "fusion_lat": 0.0}, {"fusion_lon": 0.0, "bike_id": "2e70dbf57f0162b55e73ef888d9a6e0b", "name": "2e70dbf57f0162b55e73ef888d9a6e0b", "type": "electric_scooter", "lon": -77.0382525, "rental_uris": {"android": "https://dc.lft.to/lastmile_qr_scan", "ios": "https://dc.lft.to/lastmile_qr_scan"}, "lat": 38.931316, "is_reserved": 0, "is_disabled": 0, "fusion_lat": 0.0}, {"fusion_lon": 0.0, "bike_id": "7d2c5ce9fef0dba3e934c77c9408084f", "name": "7d2c5ce9fef0dba3e934c77c9408084f", "type": "electric_bike", "lon": -77.12265283333333, "rental_uris": {"android": "https://dc.lft.to/lastmile_qr_scan", "ios": "https://dc.lft.to/lastmile_qr_scan"}, "lat": 38.89736033333333, "is_reserved": 0, "is_disabled": 0, "fusion_lat": 0.0}, {"fusion_lon": 0.0, "bike_id": "6c362f3884768e62e0d06d0efc77fa34", "name": "6c362f3884768e62e0d06d0efc77fa34", "type": "electric_bike", "lon": -76.91655466666667, "rental_uris": {"android": "https://dc.lft.to/lastmile_qr_scan", "ios": "https://dc.lft.to/lastmile_qr_scan"}, "lat": 38.86861533333333, "is_reserved": 0, "is_disabled": 0, "fusion_lat": 0.0}, {"fusion_lon": 0.0, "bike_id": "f8147fe24a1bfdf7ec72a398cbd16736", "name": "f8147fe24a1bfdf7ec72a398cbd16736", "type": "electric_bike", "lon": -77.06950866666666, "rental_uris": {"android": "https://dc.lft.to/lastmile_qr_scan", "ios": "https://dc.lft.to/lastmile_qr_scan"}, "lat": 38.99047216666666, "is_reserved": 0, "is_disabled": 0, "fusion_lat": 0.0}, {"fusion_lon": 0.0, "bike_id": "11ec497f624cf8c77fcf85cbc62726c2", "name": "11ec497f624cf8c77fcf85cbc62726c2", "type": "electric_scooter", "lon": -77.01696483333333, "rental_uris": {"android": "https://dc.lft.to/lastmile_qr_scan", "ios": "https://dc.lft.to/lastmile_qr_scan"}, "lat": 38.88316, "is_reserved": 0, "is_disabled": 0, "fusion_lat": 0.0}, {"fusion_lon": 0.0, "bike_id": "f80a561c4dffa46aee1d4e35fd3b37ec", "name": "f80a561c4dffa46aee1d4e35fd3b37ec", "type": "electric_scooter", "lon": -77.0238705, "rental_uris": {"android": "https://dc.lft.to/lastmile_qr_scan", "ios": "https://dc.lft.to/lastmile_qr_scan"}, "lat": 38.9058305, "is_reserved": 0, "is_disabled": 0, "fusion_lat": 0.0}, {"fusion_lon": 0.0, "bike_id": "69ea7a096e7f61c7d67a492106657693", "name": "69ea7a096e7f61c7d67a492106657693", "type": "electric_scooter", "lon": -77.03447766666666, "rental_uris": {"android": "https://dc.lft.to/lastmile_qr_scan", "ios": "https://dc.lft.to/lastmile_qr_scan"}, "lat": 38.90569716666667, "is_reserved": 0, "is_disabled": 0, "fusion_lat": 0.0}, {"fusion_lon": 0.0, "bike_id": "db3985e5b71755bacfe5c283711777cd", "name": "db3985e5b71755bacfe5c283711777cd", "type": "electric_scooter", "lon": -77.050244, "rental_uris": {"android": "https://dc.lft.to/lastmile_qr_scan", "ios": "https://dc.lft.to/lastmile_qr_scan"}, "lat": 38.89827366666667, "is_reserved": 0, "is_disabled": 0, "fusion_lat": 0.0}, {"fusion_lon": 0.0, "bike_id": "9635e7dd8ff43b90e1e9dc53771e2b92", "name": "9635e7dd8ff43b90e1e9dc53771e2b92", "type": "electric_scooter", "lon": -76.9961035, "rental_uris": {"android": "https://dc.lft.to/lastmile_qr_scan", "ios": "https://dc.lft.to/lastmile_qr_scan"}, "lat": 38.864637, "is_reserved": 0, "is_disabled": 0, "fusion_lat": 0.0}, {"fusion_lon": 0.0, "bike_id": "84e5a8678ea49c7c33ceb2492c2a1cba", "name": "84e5a8678ea49c7c33ceb2492c2a1cba", "type": "electric_scooter", "lon": -77.00822983333333, "rental_uris": {"android": "https://dc.lft.to/lastmile_qr_scan", "ios": "https://dc.lft.to/lastmile_qr_scan"}, "lat": 38.8763305, "is_reserved": 0, "is_disabled": 0, "fusion_lat": 0.0}, {"fusion_lon": 0.0, "bike_id": "273e6d027f512696c58f02161fbbbea8", "name": "273e6d027f512696c58f02161fbbbea8", "type": "electric_scooter", "lon": -76.99503116666666, "rental_uris": {"android": "https://dc.lft.to/lastmile_qr_scan", "ios": "https://dc.lft.to/lastmile_qr_scan"}, "lat": 38.88581633333333, "is_reserved": 0, "is_disabled": 0, "fusion_lat": 0.0}, {"fusion_lon": 0.0, "bike_id": "1c1449273022396384f9c44aedf89325", "name": "1c1449273022396384f9c44aedf89325", "type": "electric_scooter", "lon": -77.0162, "rental_uris": {"android": "https://dc.lft.to/lastmile_qr_scan", "ios": "https://dc.lft.to/lastmile_qr_scan"}, "lat": 38.90601016666667, "is_reserved": 0, "is_disabled": 0, "fusion_lat": 0.0}, {"fusion_lon": 0.0, "bike_id": "7ea91050965e7f3148469b8d277c5271", "name": "7ea91050965e7f3148469b8d277c5271", "type": "electric_scooter", "lon": -77.00585066666666, "rental_uris": {"android": "https://dc.lft.to/lastmile_qr_scan", "ios": "https://dc.lft.to/lastmile_qr_scan"}, "lat": 38.905564, "is_reserved": 0, "is_disabled": 0, "fusion_lat": 0.0}, {"fusion_lon": 0.0, "bike_id": "ff02c03478c777cbf60daab05108197a", "name": "ff02c03478c777cbf60daab05108197a", "type": "electric_scooter", "lon": -77.0138725, "rental_uris": {"android": "https://dc.lft.to/lastmile_qr_scan", "ios": "https://dc.lft.to/lastmile_qr_scan"}, "lat": 38.880270833333334, "is_reserved": 0, "is_disabled": 0, "fusion_lat": 0.0}, {"fusion_lon": 0.0, "bike_id": "76b9d44d8bc0cc480a8c0adcb8c143b2", "name": "76b9d44d8bc0cc480a8c0adcb8c143b2", "type": "electric_scooter", "lon": -77.0020895, "rental_uris": {"android": "https://dc.lft.to/lastmile_qr_scan", "ios": "https://dc.lft.to/lastmile_qr_scan"}, "lat": 38.90003183333334, "is_reserved": 0, "is_disabled": 0, "fusion_lat": 0.0}, {"fusion_lon": 0.0, "bike_id": "91a427b85f010043f52ec3f11e891cfb", "name": "91a427b85f010043f52ec3f11e891cfb", "type": "electric_scooter", "lon": -77.0707505, "rental_uris": {"android": "https://dc.lft.to/lastmile_qr_scan", "ios": "https://dc.lft.to/lastmile_qr_scan"}, "lat": 38.93902416666667, "is_reserved": 0, "is_disabled": 0, "fusion_lat": 0.0}, {"fusion_lon": 0.0, "bike_id": "4a97ab708bd2307c90ff8cb1c048085d", "name": "4a97ab708bd2307c90ff8cb1c048085d", "type": "electric_scooter", "lon": -77.06888033333334, "rental_uris": {"android": "https://dc.lft.to/lastmile_qr_scan", "ios": "https://dc.lft.to/lastmile_qr_scan"}, "lat": 38.90515716666667, "is_reserved": 0, "is_disabled": 0, "fusion_lat": 0.0}, {"fusion_lon": 0.0, "bike_id": "598160087be9008d531b3c01153efc49", "name": "598160087be9008d531b3c01153efc49", "type": "electric_scooter", "lon": -77.038266, "rental_uris": {"android": "https://dc.lft.to/lastmile_qr_scan", "ios": "https://dc.lft.to/lastmile_qr_scan"}, "lat": 38.915645833333336, "is_reserved": 0, "is_disabled": 0, "fusion_lat": 0.0}, {"fusion_lon": 0.0, "bike_id": "bc0300e3960de4a47d3107e7b6e2089d", "name": "bc0300e3960de4a47d3107e7b6e2089d", "type": "electric_scooter", "lon": -77.01769883333333, "rental_uris": {"android": "https://dc.lft.to/lastmile_qr_scan", "ios": "https://dc.lft.to/lastmile_qr_scan"}, "lat": 38.87720233333334, "is_reserved": 0, "is_disabled": 0, "fusion_lat": 0.0}, {"fusion_lon": 0.0, "bike_id": "05ae3c02795e569b297581c0c8be2abd", "name": "05ae3c02795e569b297581c0c8be2abd", "type": "electric_scooter", "lon": -77.0621325, "rental_uris": {"android": "https://dc.lft.to/lastmile_qr_scan", "ios": "https://dc.lft.to/lastmile_qr_scan"}, "lat": 38.90526833333333, "is_reserved": 0, "is_disabled": 0, "fusion_lat": 0.0}, {"fusion_lon": 0.0, "bike_id": "2f00d85e0dfead145f461e8196589a29", "name": "2f00d85e0dfead145f461e8196589a29", "type": "electric_scooter", "lon": -76.99680783333334, "rental_uris": {"android": "https://dc.lft.to/lastmile_qr_scan", "ios": "https://dc.lft.to/lastmile_qr_scan"}, "lat": 38.887007833333335, "is_reserved": 0, "is_disabled": 0, "fusion_lat": 0.0}, {"fusion_lon": 0.0, "bike_id": "b02c02a1602cad96742420ef3f5cc833", "name": "b02c02a1602cad96742420ef3f5cc833", "type": "electric_scooter", "lon": -77.026074, "rental_uris": {"android": "https://dc.lft.to/lastmile_qr_scan", "ios": "https://dc.lft.to/lastmile_qr_scan"}, "lat": 38.92440283333333, "is_reserved": 0, "is_disabled": 0, "fusion_lat": 0.0}, {"fusion_lon": 0.0, "bike_id": "bad4d182f7698492ebed543c21e2e773", "name": "bad4d182f7698492ebed543c21e2e773", "type": "electric_scooter", "lon": -77.03101266666667, "rental_uris": {"android": "https://dc.lft.to/lastmile_qr_scan", "ios": "https://dc.lft.to/lastmile_qr_scan"}, "lat": 38.929698, "is_reserved": 0, "is_disabled": 0, "fusion_lat": 0.0}, {"fusion_lon": 0.0, "bike_id": "6a5cbf99455ab9900814ee7e19d8bfcc", "name": "6a5cbf99455ab9900814ee7e19d8bfcc", "type": "electric_scooter", "lon": -77.00053166666666, "rental_uris": {"android": "https://dc.lft.to/lastmile_qr_scan", "ios": "https://dc.lft.to/lastmile_qr_scan"}, "lat": 38.88899933333333, "is_reserved": 0, "is_disabled": 0, "fusion_lat": 0.0}, {"fusion_lon": 0.0, "bike_id": "062719255ece855b4ff90ec247434314", "name": "062719255ece855b4ff90ec247434314", "type": "electric_scooter", "lon": -77.03101633333333, "rental_uris": {"android": "https://dc.lft.to/lastmile_qr_scan", "ios": "https://dc.lft.to/lastmile_qr_scan"}, "lat": 38.918652333333334, "is_reserved": 0, "is_disabled": 0, "fusion_lat": 0.0}, {"fusion_lon": 0.0, "bike_id": "c416c73798ab7768a101ea26d34a707a", "name": "c416c73798ab7768a101ea26d34a707a", "type": "electric_scooter", "lon": -76.96523183333333, "rental_uris": {"android": "https://dc.lft.to/lastmile_qr_scan", "ios": "https://dc.lft.to/lastmile_qr_scan"}, "lat": 38.87629716666667, "is_reserved": 0, "is_disabled": 0, "fusion_lat": 0.0}, {"fusion_lon": 0.0, "bike_id": "d9b485ffe5757cf74828f1d17951e155", "name": "d9b485ffe5757cf74828f1d17951e155", "type": "electric_bike", "lon": -76.94570983333334, "rental_uris": {"android": "https://dc.lft.to/lastmile_qr_scan", "ios": "https://dc.lft.to/lastmile_qr_scan"}, "lat": 38.86621316666667, "is_reserved": 0, "is_disabled": 0, "fusion_lat": 0.0}, {"fusion_lon": 0.0, "bike_id": "43167e90bd9be7e1f0cb33ebe4dc5ae0", "name": "43167e90bd9be7e1f0cb33ebe4dc5ae0", "type": "electric_scooter", "lon": -77.02632016666666, "rental_uris": {"android": "https://dc.lft.to/lastmile_qr_scan", "ios": "https://dc.lft.to/lastmile_qr_scan"}, "lat": 38.980554166666664, "is_reserved": 0, "is_disabled": 0, "fusion_lat": 0.0}, {"fusion_lon": 0.0, "bike_id": "43acaf003d83f67ba601a14564390a86", "name": "43acaf003d83f67ba601a14564390a86", "type": "electric_scooter", "lon": -77.059204, "rental_uris": {"android": "https://dc.lft.to/lastmile_qr_scan", "ios": "https://dc.lft.to/lastmile_qr_scan"}, "lat": 38.93651533333333, "is_reserved": 0, "is_disabled": 0, "fusion_lat": 0.0}, {"fusion_lon": 0.0, "bike_id": "f86a00143d21c5e67122ecf33f903f41", "name": "f86a00143d21c5e67122ecf33f903f41", "type": "electric_scooter", "lon": -77.04163883333334, "rental_uris": {"android": "https://dc.lft.to/lastmile_qr_scan", "ios": "https://dc.lft.to/lastmile_qr_scan"}, "lat": 38.91617516666667, "is_reserved": 0, "is_disabled": 0, "fusion_lat": 0.0}, {"fusion_lon": 0.0, "bike_id": "339b86215802c402b800f712108dc233", "name": "339b86215802c402b800f712108dc233", "type": "electric_scooter", "lon": -77.05760233333334, "rental_uris": {"android": "https://dc.lft.to/lastmile_qr_scan", "ios": "https://dc.lft.to/lastmile_qr_scan"}, "lat": 38.92425633333333, "is_reserved": 0, "is_disabled": 0, "fusion_lat": 0.0}, {"fusion_lon": 0.0, "bike_id": "2cb136ff59d5f0846c35f9171d688dee", "name": "2cb136ff59d5f0846c35f9171d688dee", "type": "electric_scooter", "lon": -76.93835366666667, "rental_uris": {"android": "https://dc.lft.to/lastmile_qr_scan", "ios": "https://dc.lft.to/lastmile_qr_scan"}, "lat": 38.89009883333333, "is_reserved": 0, "is_disabled": 0, "fusion_lat": 0.0}, {"fusion_lon": 0.0, "bike_id": "35408570b4999f4983a7977b7f3a9344", "name": "35408570b4999f4983a7977b7f3a9344", "type": "electric_scooter", "lon": -77.03942933333333, "rental_uris": {"android": "https://dc.lft.to/lastmile_qr_scan", "ios": "https://dc.lft.to/lastmile_qr_scan"}, "lat": 38.91822333333333, "is_reserved": 0, "is_disabled": 0, "fusion_lat": 0.0}, {"fusion_lon": 0.0, "bike_id": "6623f203414d7fc332d36a06395dd555", "name": "6623f203414d7fc332d36a06395dd555", "type": "electric_bike", "lon": -77.12504866666667, "rental_uris": {"android": "https://dc.lft.to/lastmile_qr_scan", "ios": "https://dc.lft.to/lastmile_qr_scan"}, "lat": 39.024280833333336, "is_reserved": 0, "is_disabled": 0, "fusion_lat": 0.0}, {"fusion_lon": 0.0, "bike_id": "7dd5e1c907bac38116a852e38decbc19", "name": "7dd5e1c907bac38116a852e38decbc19", "type": "electric_scooter", "lon": -77.03537233333333, "rental_uris": {"android": "https://dc.lft.to/lastmile_qr_scan", "ios": "https://dc.lft.to/lastmile_qr_scan"}, "lat": 38.924091, "is_reserved": 0, "is_disabled": 0, "fusion_lat": 0.0}, {"fusion_lon": 0.0, "bike_id": "707f31178288aca2ac7cfe76ff8bf302", "name": "707f31178288aca2ac7cfe76ff8bf302", "type": "electric_scooter", "lon": -77.04657783333333, "rental_uris": {"android": "https://dc.lft.to/lastmile_qr_scan", "ios": "https://dc.lft.to/lastmile_qr_scan"}, "lat": 38.903025166666666, "is_reserved": 0, "is_disabled": 0, "fusion_lat": 0.0}, {"fusion_lon": 0.0, "bike_id": "af5a047451e4b1b38ae5f51a7c003764", "name": "af5a047451e4b1b38ae5f51a7c003764", "type": "electric_scooter", "lon": -77.03372566666667, "rental_uris": {"android": "https://dc.lft.to/lastmile_qr_scan", "ios": "https://dc.lft.to/lastmile_qr_scan"}, "lat": 38.932230833333335, "is_reserved": 0, "is_disabled": 0, "fusion_lat": 0.0}, {"fusion_lon": 0.0, "bike_id": "7318383b46c43e400fc8814de32a51b7", "name": "7318383b46c43e400fc8814de32a51b7", "type": "electric_scooter", "lon": -77.02508816666666, "rental_uris": {"android": "https://dc.lft.to/lastmile_qr_scan", "ios": "https://dc.lft.to/lastmile_qr_scan"}, "lat": 38.920956, "is_reserved": 0, "is_disabled": 0, "fusion_lat": 0.0}, {"fusion_lon": 0.0, "bike_id": "37011fcb95c48037586457ecfa7142a2", "name": "37011fcb95c48037586457ecfa7142a2", "type": "electric_scooter", "lon": -77.04653666666667, "rental_uris": {"android": "https://dc.lft.to/lastmile_qr_scan", "ios": "https://dc.lft.to/lastmile_qr_scan"}, "lat": 38.90367466666667, "is_reserved": 0, "is_disabled": 0, "fusion_lat": 0.0}, {"fusion_lon": 0.0, "bike_id": "7ca115d5226a99f625b65835a7dc9e5b", "name": "7ca115d5226a99f625b65835a7dc9e5b", "type": "electric_scooter", "lon": -77.03858266666667, "rental_uris": {"android": "https://dc.lft.to/lastmile_qr_scan", "ios": "https://dc.lft.to/lastmile_qr_scan"}, "lat": 38.918309, "is_reserved": 0, "is_disabled": 0, "fusion_lat": 0.0}, {"fusion_lon": 0.0, "bike_id": "f410d17ed48d2e3ff146ad8811f2e215", "name": "f410d17ed48d2e3ff146ad8811f2e215", "type": "electric_scooter", "lon": -77.02755583333334, "rental_uris": {"android": "https://dc.lft.to/lastmile_qr_scan", "ios": "https://dc.lft.to/lastmile_qr_scan"}, "lat": 38.954140333333335, "is_reserved": 0, "is_disabled": 0, "fusion_lat": 0.0}, {"fusion_lon": 0.0, "bike_id": "acd2787afb1f4335b50712acc85ca046", "name": "acd2787afb1f4335b50712acc85ca046", "type": "electric_scooter", "lon": -77.03186883333333, "rental_uris": {"android": "https://dc.lft.to/lastmile_qr_scan", "ios": "https://dc.lft.to/lastmile_qr_scan"}, "lat": 38.89222316666667, "is_reserved": 0, "is_disabled": 0, "fusion_lat": 0.0}, {"fusion_lon": 0.0, "bike_id": "abb0a83385b3b88429e91eed3d7e699b", "name": "abb0a83385b3b88429e91eed3d7e699b", "type": "electric_scooter", "lon": -77.0282555, "rental_uris": {"android": "https://dc.lft.to/lastmile_qr_scan", "ios": "https://dc.lft.to/lastmile_qr_scan"}, "lat": 38.9483015, "is_reserved": 0, "is_disabled": 0, "fusion_lat": 0.0}, {"fusion_lon": 0.0, "bike_id": "f94d5b6c22794e1177a5b6c5ad3e0069", "name": "f94d5b6c22794e1177a5b6c5ad3e0069", "type": "electric_scooter", "lon": -77.00208416666666, "rental_uris": {"android": "https://dc.lft.to/lastmile_qr_scan", "ios": "https://dc.lft.to/lastmile_qr_scan"}, "lat": 38.900022666666665, "is_reserved": 0, "is_disabled": 0, "fusion_lat": 0.0}, {"fusion_lon": 0.0, "bike_id": "b1ee7c32451a3100c6052a755d7ab9f5", "name": "b1ee7c32451a3100c6052a755d7ab9f5", "type": "electric_scooter", "lon": -76.99462783333334, "rental_uris": {"android": "https://dc.lft.to/lastmile_qr_scan", "ios": "https://dc.lft.to/lastmile_qr_scan"}, "lat": 38.84032066666666, "is_reserved": 0, "is_disabled": 0, "fusion_lat": 0.0}, {"fusion_lon": 0.0, "bike_id": "3cc0bea3ae60e07b2908a7117da961a5", "name": "3cc0bea3ae60e07b2908a7117da961a5", "type": "electric_scooter", "lon": -77.0415615, "rental_uris": {"android": "https://dc.lft.to/lastmile_qr_scan", "ios": "https://dc.lft.to/lastmile_qr_scan"}, "lat": 38.91594216666667, "is_reserved": 0, "is_disabled": 0, "fusion_lat": 0.0}, {"fusion_lon": 0.0, "bike_id": "bce57ea6ff776b90f44f4a9556400893", "name": "bce57ea6ff776b90f44f4a9556400893", "type": "electric_scooter", "lon": -77.02387133333333, "rental_uris": {"android": "https://dc.lft.to/lastmile_qr_scan", "ios": "https://dc.lft.to/lastmile_qr_scan"}, "lat": 38.9573605, "is_reserved": 0, "is_disabled": 0, "fusion_lat": 0.0}, {"fusion_lon": 0.0, "bike_id": "e8637ce5f7a73320e5055c91256be259", "name": "e8637ce5f7a73320e5055c91256be259", "type": "electric_scooter", "lon": -77.01626266666666, "rental_uris": {"android": "https://dc.lft.to/lastmile_qr_scan", "ios": "https://dc.lft.to/lastmile_qr_scan"}, "lat": 38.9037765, "is_reserved": 0, "is_disabled": 0, "fusion_lat": 0.0}, {"fusion_lon": 0.0, "bike_id": "fef1e4d9d05b1a19e8ef31f27143035c", "name": "fef1e4d9d05b1a19e8ef31f27143035c", "type": "electric_scooter", "lon": -77.02445166666666, "rental_uris": {"android": "https://dc.lft.to/lastmile_qr_scan", "ios": "https://dc.lft.to/lastmile_qr_scan"}, "lat": 38.92794683333334, "is_reserved": 0, "is_disabled": 0, "fusion_lat": 0.0}, {"fusion_lon": 0.0, "bike_id": "f2fe8a904ce44353e190b78b8a9355c3", "name": "f2fe8a904ce44353e190b78b8a9355c3", "type": "electric_scooter", "lon": -77.04189816666667, "rental_uris": {"android": "https://dc.lft.to/lastmile_qr_scan", "ios": "https://dc.lft.to/lastmile_qr_scan"}, "lat": 38.92467033333333, "is_reserved": 0, "is_disabled": 0, "fusion_lat": 0.0}, {"fusion_lon": 0.0, "bike_id": "ea1e96061c71bc8532d73754474599af", "name": "ea1e96061c71bc8532d73754474599af", "type": "electric_scooter", "lon": -77.04778766666666, "rental_uris": {"android": "https://dc.lft.to/lastmile_qr_scan", "ios": "https://dc.lft.to/lastmile_qr_scan"}, "lat": 38.90795116666666, "is_reserved": 0, "is_disabled": 0, "fusion_lat": 0.0}, {"fusion_lon": 0.0, "bike_id": "63167e586445024e6bf6a05aabc6278b", "name": "63167e586445024e6bf6a05aabc6278b", "type": "electric_bike", "lon": -76.98827633333333, "rental_uris": {"android": "https://dc.lft.to/lastmile_qr_scan", "ios": "https://dc.lft.to/lastmile_qr_scan"}, "lat": 38.9856145, "is_reserved": 0, "is_disabled": 0, "fusion_lat": 0.0}, {"fusion_lon": 0.0, "bike_id": "f123a4fe7b6c1a62b452ff739e367e63", "name": "f123a4fe7b6c1a62b452ff739e367e63", "type": "electric_scooter", "lon": -77.0402905, "rental_uris": {"android": "https://dc.lft.to/lastmile_qr_scan", "ios": "https://dc.lft.to/lastmile_qr_scan"}, "lat": 38.9179955, "is_reserved": 0, "is_disabled": 0, "fusion_lat": 0.0}, {"fusion_lon": 0.0, "bike_id": "34a04c42283c0d2454996e31d74ae580", "name": "34a04c42283c0d2454996e31d74ae580", "type": "electric_scooter", "lon": -77.03259933333334, "rental_uris": {"android": "https://dc.lft.to/lastmile_qr_scan", "ios": "https://dc.lft.to/lastmile_qr_scan"}, "lat": 38.932084833333334, "is_reserved": 0, "is_disabled": 0, "fusion_lat": 0.0}, {"fusion_lon": 0.0, "bike_id": "8a3abefb383fb6c4e3dda26da04ef2cc", "name": "8a3abefb383fb6c4e3dda26da04ef2cc", "type": "electric_scooter", "lon": -77.02661016666667, "rental_uris": {"android": "https://dc.lft.to/lastmile_qr_scan", "ios": "https://dc.lft.to/lastmile_qr_scan"}, "lat": 38.9793905, "is_reserved": 0, "is_disabled": 0, "fusion_lat": 0.0}, {"fusion_lon": 0.0, "bike_id": "654b787725d01a3eb48b5c95a70b9ebc", "name": "654b787725d01a3eb48b5c95a70b9ebc", "type": "electric_scooter", "lon": -77.0272025, "rental_uris": {"android": "https://dc.lft.to/lastmile_qr_scan", "ios": "https://dc.lft.to/lastmile_qr_scan"}, "lat": 38.934271333333335, "is_reserved": 0, "is_disabled": 0, "fusion_lat": 0.0}, {"fusion_lon": 0.0, "bike_id": "f1ae51e1c0f84d7c7fc0c55831b70416", "name": "f1ae51e1c0f84d7c7fc0c55831b70416", "type": "electric_scooter", "lon": -77.04691833333334, "rental_uris": {"android": "https://dc.lft.to/lastmile_qr_scan", "ios": "https://dc.lft.to/lastmile_qr_scan"}, "lat": 38.89735816666666, "is_reserved": 0, "is_disabled": 0, "fusion_lat": 0.0}, {"fusion_lon": 0.0, "bike_id": "19130e96bb7ada8332f5f0ae9117d6fc", "name": "19130e96bb7ada8332f5f0ae9117d6fc", "type": "electric_scooter", "lon": -77.0235155, "rental_uris": {"android": "https://dc.lft.to/lastmile_qr_scan", "ios": "https://dc.lft.to/lastmile_qr_scan"}, "lat": 38.92499333333333, "is_reserved": 0, "is_disabled": 0, "fusion_lat": 0.0}, {"fusion_lon": 0.0, "bike_id": "6e399cb85609cf2ed27ef63eeb0cf482", "name": "6e399cb85609cf2ed27ef63eeb0cf482", "type": "electric_scooter", "lon": -77.00646566666667, "rental_uris": {"android": "https://dc.lft.to/lastmile_qr_scan", "ios": "https://dc.lft.to/lastmile_qr_scan"}, "lat": 38.91185016666667, "is_reserved": 0, "is_disabled": 0, "fusion_lat": 0.0}, {"fusion_lon": 0.0, "bike_id": "79a602f2d9537ea6a1bec5e62ec66c3f", "name": "79a602f2d9537ea6a1bec5e62ec66c3f", "type": "electric_bike", "lon": -76.98202366666666, "rental_uris": {"android": "https://dc.lft.to/lastmile_qr_scan", "ios": "https://dc.lft.to/lastmile_qr_scan"}, "lat": 38.98499616666667, "is_reserved": 0, "is_disabled": 0, "fusion_lat": 0.0}, {"fusion_lon": 0.0, "bike_id": "fb91386d41873182d4d2b7fd24dd2a32", "name": "fb91386d41873182d4d2b7fd24dd2a32", "type": "electric_scooter", "lon": -77.0258495, "rental_uris": {"android": "https://dc.lft.to/lastmile_qr_scan", "ios": "https://dc.lft.to/lastmile_qr_scan"}, "lat": 38.942123, "is_reserved": 0, "is_disabled": 0, "fusion_lat": 0.0}, {"fusion_lon": 0.0, "bike_id": "d9e9ae11291c94cebd1e7c6aa669bc2c", "name": "d9e9ae11291c94cebd1e7c6aa669bc2c", "type": "electric_scooter", "lon": -77.03160316666667, "rental_uris": {"android": "https://dc.lft.to/lastmile_qr_scan", "ios": "https://dc.lft.to/lastmile_qr_scan"}, "lat": 38.927235333333336, "is_reserved": 0, "is_disabled": 0, "fusion_lat": 0.0}, {"fusion_lon": 0.0, "bike_id": "c8ff5b0a23210455a655d40dd4dbc774", "name": "c8ff5b0a23210455a655d40dd4dbc774", "type": "electric_scooter", "lon": -77.038585, "rental_uris": {"android": "https://dc.lft.to/lastmile_qr_scan", "ios": "https://dc.lft.to/lastmile_qr_scan"}, "lat": 38.91806183333333, "is_reserved": 0, "is_disabled": 0, "fusion_lat": 0.0}, {"fusion_lon": 0.0, "bike_id": "6e78da9a367587167b31f3f518992e41", "name": "6e78da9a367587167b31f3f518992e41", "type": "electric_scooter", "lon": -77.00749166666667, "rental_uris": {"android": "https://dc.lft.to/lastmile_qr_scan", "ios": "https://dc.lft.to/lastmile_qr_scan"}, "lat": 38.87638416666667, "is_reserved": 0, "is_disabled": 0, "fusion_lat": 0.0}, {"fusion_lon": 0.0, "bike_id": "26bad855dc1faec0bfd4087e9d817ff0", "name": "26bad855dc1faec0bfd4087e9d817ff0", "type": "electric_scooter", "lon": -77.02688733333333, "rental_uris": {"android": "https://dc.lft.to/lastmile_qr_scan", "ios": "https://dc.lft.to/lastmile_qr_scan"}, "lat": 38.90736883333334, "is_reserved": 0, "is_disabled": 0, "fusion_lat": 0.0}, {"fusion_lon": 0.0, "bike_id": "9133e818c523877f375baba10847f9e0", "name": "9133e818c523877f375baba10847f9e0", "type": "electric_scooter", "lon": -77.032655, "rental_uris": {"android": "https://dc.lft.to/lastmile_qr_scan", "ios": "https://dc.lft.to/lastmile_qr_scan"}, "lat": 38.932112000000004, "is_reserved": 0, "is_disabled": 0, "fusion_lat": 0.0}, {"fusion_lon": 0.0, "bike_id": "6f569530ecbf5d7295bdff8ccc7a586c", "name": "6f569530ecbf5d7295bdff8ccc7a586c", "type": "electric_scooter", "lon": -77.044701, "rental_uris": {"android": "https://dc.lft.to/lastmile_qr_scan", "ios": "https://dc.lft.to/lastmile_qr_scan"}, "lat": 38.911566666666666, "is_reserved": 0, "is_disabled": 0, "fusion_lat": 0.0}, {"fusion_lon": 0.0, "bike_id": "0954b41cbaaf3bf2f7e567de4cf93dea", "name": "0954b41cbaaf3bf2f7e567de4cf93dea", "type": "electric_scooter", "lon": -77.05414283333333, "rental_uris": {"android": "https://dc.lft.to/lastmile_qr_scan", "ios": "https://dc.lft.to/lastmile_qr_scan"}, "lat": 38.92799333333333, "is_reserved": 0, "is_disabled": 0, "fusion_lat": 0.0}, {"fusion_lon": 0.0, "bike_id": "82781ff8fd792e59ef30c3fa0008e137", "name": "82781ff8fd792e59ef30c3fa0008e137", "type": "electric_scooter", "lon": -77.079158, "rental_uris": {"android": "https://dc.lft.to/lastmile_qr_scan", "ios": "https://dc.lft.to/lastmile_qr_scan"}, "lat": 38.919244166666665, "is_reserved": 0, "is_disabled": 0, "fusion_lat": 0.0}, {"fusion_lon": 0.0, "bike_id": "83582abb4470e757b06da963d829b2d6", "name": "83582abb4470e757b06da963d829b2d6", "type": "electric_scooter", "lon": -77.0375225, "rental_uris": {"android": "https://dc.lft.to/lastmile_qr_scan", "ios": "https://dc.lft.to/lastmile_qr_scan"}, "lat": 38.91270033333333, "is_reserved": 0, "is_disabled": 0, "fusion_lat": 0.0}, {"fusion_lon": 0.0, "bike_id": "24a5b622d7a4aa169a233648f969d1fd", "name": "24a5b622d7a4aa169a233648f969d1fd", "type": "electric_scooter", "lon": -77.0111005, "rental_uris": {"android": "https://dc.lft.to/lastmile_qr_scan", "ios": "https://dc.lft.to/lastmile_qr_scan"}, "lat": 38.903545333333334, "is_reserved": 0, "is_disabled": 0, "fusion_lat": 0.0}, {"fusion_lon": 0.0, "bike_id": "bdaf0dd626eb556b3145603695068a4a", "name": "bdaf0dd626eb556b3145603695068a4a", "type": "electric_scooter", "lon": -77.0302655, "rental_uris": {"android": "https://dc.lft.to/lastmile_qr_scan", "ios": "https://dc.lft.to/lastmile_qr_scan"}, "lat": 38.931187666666666, "is_reserved": 0, "is_disabled": 0, "fusion_lat": 0.0}, {"fusion_lon": 0.0, "bike_id": "230244522d32e1e9d411c3669d7f4e7b", "name": "230244522d32e1e9d411c3669d7f4e7b", "type": "electric_bike", "lon": -76.94955016666667, "rental_uris": {"android": "https://dc.lft.to/lastmile_qr_scan", "ios": "https://dc.lft.to/lastmile_qr_scan"}, "lat": 38.9350625, "is_reserved": 0, "is_disabled": 0, "fusion_lat": 0.0}, {"fusion_lon": 0.0, "bike_id": "e7806023e58768f7efe0a927cc5d1423", "name": "e7806023e58768f7efe0a927cc5d1423", "type": "electric_scooter", "lon": -77.015005, "rental_uris": {"android": "https://dc.lft.to/lastmile_qr_scan", "ios": "https://dc.lft.to/lastmile_qr_scan"}, "lat": 38.89916633333333, "is_reserved": 0, "is_disabled": 0, "fusion_lat": 0.0}, {"fusion_lon": 0.0, "bike_id": "2e2b21a8b63bbf7d2aa5daca086084f5", "name": "2e2b21a8b63bbf7d2aa5daca086084f5", "type": "electric_scooter", "lon": -76.989636, "rental_uris": {"android": "https://dc.lft.to/lastmile_qr_scan", "ios": "https://dc.lft.to/lastmile_qr_scan"}, "lat": 38.90244666666667, "is_reserved": 0, "is_disabled": 0, "fusion_lat": 0.0}, {"fusion_lon": 0.0, "bike_id": "f9a942df1273345ce539e809f718aabb", "name": "f9a942df1273345ce539e809f718aabb", "type": "electric_scooter", "lon": -76.99958216666667, "rental_uris": {"android": "https://dc.lft.to/lastmile_qr_scan", "ios": "https://dc.lft.to/lastmile_qr_scan"}, "lat": 38.8428445, "is_reserved": 0, "is_disabled": 0, "fusion_lat": 0.0}, {"fusion_lon": 0.0, "bike_id": "975ab811c41fad8a8a1cdf84c980d69d", "name": "975ab811c41fad8a8a1cdf84c980d69d", "type": "electric_scooter", "lon": -77.00882083333333, "rental_uris": {"android": "https://dc.lft.to/lastmile_qr_scan", "ios": "https://dc.lft.to/lastmile_qr_scan"}, "lat": 38.88267583333333, "is_reserved": 0, "is_disabled": 0, "fusion_lat": 0.0}, {"fusion_lon": 0.0, "bike_id": "cdf7c2e5ef18c3702e2ae565adfb29d9", "name": "cdf7c2e5ef18c3702e2ae565adfb29d9", "type": "electric_scooter", "lon": -77.00753733333333, "rental_uris": {"android": "https://dc.lft.to/lastmile_qr_scan", "ios": "https://dc.lft.to/lastmile_qr_scan"}, "lat": 38.876343, "is_reserved": 0, "is_disabled": 0, "fusion_lat": 0.0}, {"fusion_lon": 0.0, "bike_id": "26d004560568dc892e6bd73803d63b3f", "name": "26d004560568dc892e6bd73803d63b3f", "type": "electric_scooter", "lon": -77.0379625, "rental_uris": {"android": "https://dc.lft.to/lastmile_qr_scan", "ios": "https://dc.lft.to/lastmile_qr_scan"}, "lat": 38.910368166666665, "is_reserved": 0, "is_disabled": 0, "fusion_lat": 0.0}, {"fusion_lon": 0.0, "bike_id": "3ede3533b6accbd4922c3409c989a32d", "name": "3ede3533b6accbd4922c3409c989a32d", "type": "electric_bike", "lon": -77.10129533333334, "rental_uris": {"android": "https://dc.lft.to/lastmile_qr_scan", "ios": "https://dc.lft.to/lastmile_qr_scan"}, "lat": 38.852105, "is_reserved": 0, "is_disabled": 0, "fusion_lat": 0.0}, {"fusion_lon": 0.0, "bike_id": "29ad2421bf904ed36f4e0ad0b1bdfa83", "name": "29ad2421bf904ed36f4e0ad0b1bdfa83", "type": "electric_scooter", "lon": -77.02312466666666, "rental_uris": {"android": "https://dc.lft.to/lastmile_qr_scan", "ios": "https://dc.lft.to/lastmile_qr_scan"}, "lat": 38.917703, "is_reserved": 0, "is_disabled": 0, "fusion_lat": 0.0}, {"fusion_lon": 0.0, "bike_id": "e8208a93b4986ae529d7adc326c559a8", "name": "e8208a93b4986ae529d7adc326c559a8", "type": "electric_scooter", "lon": -77.0423455, "rental_uris": {"android": "https://dc.lft.to/lastmile_qr_scan", "ios": "https://dc.lft.to/lastmile_qr_scan"}, "lat": 38.921564833333335, "is_reserved": 0, "is_disabled": 0, "fusion_lat": 0.0}, {"fusion_lon": 0.0, "bike_id": "072af8e9a504de85de8206e86a59c321", "name": "072af8e9a504de85de8206e86a59c321", "type": "electric_scooter", "lon": -77.01837316666666, "rental_uris": {"android": "https://dc.lft.to/lastmile_qr_scan", "ios": "https://dc.lft.to/lastmile_qr_scan"}, "lat": 38.902604333333336, "is_reserved": 0, "is_disabled": 0, "fusion_lat": 0.0}, {"fusion_lon": 0.0, "bike_id": "8c2346cc7ee5c12be3927157a9debf18", "name": "8c2346cc7ee5c12be3927157a9debf18", "type": "electric_scooter", "lon": -77.0352175, "rental_uris": {"android": "https://dc.lft.to/lastmile_qr_scan", "ios": "https://dc.lft.to/lastmile_qr_scan"}, "lat": 38.93279666666667, "is_reserved": 0, "is_disabled": 0, "fusion_lat": 0.0}, {"fusion_lon": 0.0, "bike_id": "f8b4df2f40a4d2080ecb761c7737efcc", "name": "f8b4df2f40a4d2080ecb761c7737efcc", "type": "electric_scooter", "lon": -77.04510966666666, "rental_uris": {"android": "https://dc.lft.to/lastmile_qr_scan", "ios": "https://dc.lft.to/lastmile_qr_scan"}, "lat": 38.886037333333334, "is_reserved": 0, "is_disabled": 0, "fusion_lat": 0.0}, {"fusion_lon": 0.0, "bike_id": "a0c6225d667d8ee45e5d147709707084", "name": "a0c6225d667d8ee45e5d147709707084", "type": "electric_scooter", "lon": -77.0386305, "rental_uris": {"android": "https://dc.lft.to/lastmile_qr_scan", "ios": "https://dc.lft.to/lastmile_qr_scan"}, "lat": 38.91551583333333, "is_reserved": 0, "is_disabled": 0, "fusion_lat": 0.0}, {"fusion_lon": 0.0, "bike_id": "8717f170b514f6b0e08004c5f506c3c9", "name": "8717f170b514f6b0e08004c5f506c3c9", "type": "electric_scooter", "lon": -77.05259016666666, "rental_uris": {"android": "https://dc.lft.to/lastmile_qr_scan", "ios": "https://dc.lft.to/lastmile_qr_scan"}, "lat": 38.92757683333333, "is_reserved": 0, "is_disabled": 0, "fusion_lat": 0.0}, {"fusion_lon": 0.0, "bike_id": "7061f5986291ee1f4744adfa3128c927", "name": "7061f5986291ee1f4744adfa3128c927", "type": "electric_bike", "lon": -76.8749385, "rental_uris": {"android": "https://dc.lft.to/lastmile_qr_scan", "ios": "https://dc.lft.to/lastmile_qr_scan"}, "lat": 38.990884666666666, "is_reserved": 0, "is_disabled": 0, "fusion_lat": 0.0}, {"fusion_lon": 0.0, "bike_id": "c8f984833c2a51c6566acca7bc6293f1", "name": "c8f984833c2a51c6566acca7bc6293f1", "type": "electric_scooter", "lon": -76.9859375, "rental_uris": {"android": "https://dc.lft.to/lastmile_qr_scan", "ios": "https://dc.lft.to/lastmile_qr_scan"}, "lat": 38.88968033333333, "is_reserved": 0, "is_disabled": 0, "fusion_lat": 0.0}, {"fusion_lon": 0.0, "bike_id": "57c3143f6fe69e48a6c5b41c633801ef", "name": "57c3143f6fe69e48a6c5b41c633801ef", "type": "electric_scooter", "lon": -76.95753983333333, "rental_uris": {"android": "https://dc.lft.to/lastmile_qr_scan", "ios": "https://dc.lft.to/lastmile_qr_scan"}, "lat": 38.884375, "is_reserved": 0, "is_disabled": 0, "fusion_lat": 0.0}, {"fusion_lon": 0.0, "bike_id": "5baf60f2a21263a68844827ec8511ce9", "name": "5baf60f2a21263a68844827ec8511ce9", "type": "electric_scooter", "lon": -77.043456, "rental_uris": {"android": "https://dc.lft.to/lastmile_qr_scan", "ios": "https://dc.lft.to/lastmile_qr_scan"}, "lat": 38.91359283333333, "is_reserved": 0, "is_disabled": 0, "fusion_lat": 0.0}, {"fusion_lon": 0.0, "bike_id": "5d8532d66ac9d5e9e23517c15181bc50", "name": "5d8532d66ac9d5e9e23517c15181bc50", "type": "electric_scooter", "lon": -77.0233225, "rental_uris": {"android": "https://dc.lft.to/lastmile_qr_scan", "ios": "https://dc.lft.to/lastmile_qr_scan"}, "lat": 38.915542, "is_reserved": 0, "is_disabled": 0, "fusion_lat": 0.0}, {"fusion_lon": 0.0, "bike_id": "9feb2288a59b0fdf6ab020025326790b", "name": "9feb2288a59b0fdf6ab020025326790b", "type": "electric_scooter", "lon": -77.018858, "rental_uris": {"android": "https://dc.lft.to/lastmile_qr_scan", "ios": "https://dc.lft.to/lastmile_qr_scan"}, "lat": 38.900012, "is_reserved": 0, "is_disabled": 0, "fusion_lat": 0.0}, {"fusion_lon": 0.0, "bike_id": "4ea9fab90a3505742a82ca3313655d57", "name": "4ea9fab90a3505742a82ca3313655d57", "type": "electric_scooter", "lon": -77.02274616666666, "rental_uris": {"android": "https://dc.lft.to/lastmile_qr_scan", "ios": "https://dc.lft.to/lastmile_qr_scan"}, "lat": 38.9250365, "is_reserved": 0, "is_disabled": 0, "fusion_lat": 0.0}, {"fusion_lon": 0.0, "bike_id": "046fe474bce274969e997e2aafb422ae", "name": "046fe474bce274969e997e2aafb422ae", "type": "electric_scooter", "lon": -77.0103605, "rental_uris": {"android": "https://dc.lft.to/lastmile_qr_scan", "ios": "https://dc.lft.to/lastmile_qr_scan"}, "lat": 38.884464, "is_reserved": 0, "is_disabled": 0, "fusion_lat": 0.0}, {"fusion_lon": 0.0, "bike_id": "0497b7c98d297243469208f1089bb377", "name": "0497b7c98d297243469208f1089bb377", "type": "electric_scooter", "lon": -77.038473, "rental_uris": {"android": "https://dc.lft.to/lastmile_qr_scan", "ios": "https://dc.lft.to/lastmile_qr_scan"}, "lat": 38.91663633333334, "is_reserved": 0, "is_disabled": 0, "fusion_lat": 0.0}, {"fusion_lon": 0.0, "bike_id": "14c0e5f7b527b89e7fcfd0d17cc42391", "name": "14c0e5f7b527b89e7fcfd0d17cc42391", "type": "electric_scooter", "lon": -77.01354533333334, "rental_uris": {"android": "https://dc.lft.to/lastmile_qr_scan", "ios": "https://dc.lft.to/lastmile_qr_scan"}, "lat": 38.9038705, "is_reserved": 0, "is_disabled": 0, "fusion_lat": 0.0}, {"fusion_lon": 0.0, "bike_id": "60d77660f78a8ccf1296ea817b73d627", "name": "60d77660f78a8ccf1296ea817b73d627", "type": "electric_scooter", "lon": -77.03170183333333, "rental_uris": {"android": "https://dc.lft.to/lastmile_qr_scan", "ios": "https://dc.lft.to/lastmile_qr_scan"}, "lat": 38.919277, "is_reserved": 0, "is_disabled": 0, "fusion_lat": 0.0}, {"fusion_lon": 0.0, "bike_id": "728559d6a26ba3f97f0c6d8fa101adb3", "name": "728559d6a26ba3f97f0c6d8fa101adb3", "type": "electric_scooter", "lon": -77.03217916666667, "rental_uris": {"android": "https://dc.lft.to/lastmile_qr_scan", "ios": "https://dc.lft.to/lastmile_qr_scan"}, "lat": 38.907585, "is_reserved": 0, "is_disabled": 0, "fusion_lat": 0.0}, {"fusion_lon": 0.0, "bike_id": "0559c16f88a7a499b060bf9cb4ecaf59", "name": "0559c16f88a7a499b060bf9cb4ecaf59", "type": "electric_scooter", "lon": -77.01388866666667, "rental_uris": {"android": "https://dc.lft.to/lastmile_qr_scan", "ios": "https://dc.lft.to/lastmile_qr_scan"}, "lat": 38.880319666666665, "is_reserved": 0, "is_disabled": 0, "fusion_lat": 0.0}, {"fusion_lon": 0.0, "bike_id": "ec2a909c16133e95dcfd06f4db0b2c01", "name": "ec2a909c16133e95dcfd06f4db0b2c01", "type": "electric_scooter", "lon": -77.04168716666666, "rental_uris": {"android": "https://dc.lft.to/lastmile_qr_scan", "ios": "https://dc.lft.to/lastmile_qr_scan"}, "lat": 38.9134575, "is_reserved": 0, "is_disabled": 0, "fusion_lat": 0.0}, {"fusion_lon": 0.0, "bike_id": "80609a29901d6ae7e8fbfb3b50a59a57", "name": "80609a29901d6ae7e8fbfb3b50a59a57", "type": "electric_scooter", "lon": -77.02179716666667, "rental_uris": {"android": "https://dc.lft.to/lastmile_qr_scan", "ios": "https://dc.lft.to/lastmile_qr_scan"}, "lat": 38.89999483333333, "is_reserved": 0, "is_disabled": 0, "fusion_lat": 0.0}, {"fusion_lon": 0.0, "bike_id": "f13453c4b5cef6aa6104ea1f35208c0b", "name": "f13453c4b5cef6aa6104ea1f35208c0b", "type": "electric_scooter", "lon": -77.01468683333333, "rental_uris": {"android": "https://dc.lft.to/lastmile_qr_scan", "ios": "https://dc.lft.to/lastmile_qr_scan"}, "lat": 38.91767683333333, "is_reserved": 0, "is_disabled": 0, "fusion_lat": 0.0}, {"fusion_lon": 0.0, "bike_id": "5306fa36ad9dca899666fb4fc70d30f4", "name": "5306fa36ad9dca899666fb4fc70d30f4", "type": "electric_scooter", "lon": -77.03101116666667, "rental_uris": {"android": "https://dc.lft.to/lastmile_qr_scan", "ios": "https://dc.lft.to/lastmile_qr_scan"}, "lat": 38.92569566666667, "is_reserved": 0, "is_disabled": 0, "fusion_lat": 0.0}, {"fusion_lon": 0.0, "bike_id": "2340f4b9aa20e42cb3a345b85ca268f5", "name": "2340f4b9aa20e42cb3a345b85ca268f5", "type": "electric_scooter", "lon": -77.02099683333333, "rental_uris": {"android": "https://dc.lft.to/lastmile_qr_scan", "ios": "https://dc.lft.to/lastmile_qr_scan"}, "lat": 38.911085666666665, "is_reserved": 0, "is_disabled": 0, "fusion_lat": 0.0}, {"fusion_lon": 0.0, "bike_id": "2bfa3f679ac78a97cf22fc909a9b7a78", "name": "2bfa3f679ac78a97cf22fc909a9b7a78", "type": "electric_scooter", "lon": -77.05063316666667, "rental_uris": {"android": "https://dc.lft.to/lastmile_qr_scan", "ios": "https://dc.lft.to/lastmile_qr_scan"}, "lat": 38.90084616666667, "is_reserved": 0, "is_disabled": 0, "fusion_lat": 0.0}, {"fusion_lon": 0.0, "bike_id": "c134d8572742d014ba2038399968f07a", "name": "c134d8572742d014ba2038399968f07a", "type": "electric_scooter", "lon": -77.00966266666667, "rental_uris": {"android": "https://dc.lft.to/lastmile_qr_scan", "ios": "https://dc.lft.to/lastmile_qr_scan"}, "lat": 38.907836333333336, "is_reserved": 0, "is_disabled": 0, "fusion_lat": 0.0}, {"fusion_lon": 0.0, "bike_id": "ea0d9bb66ca2981670f3e38be0a85097", "name": "ea0d9bb66ca2981670f3e38be0a85097", "type": "electric_scooter", "lon": -77.00068983333334, "rental_uris": {"android": "https://dc.lft.to/lastmile_qr_scan", "ios": "https://dc.lft.to/lastmile_qr_scan"}, "lat": 38.90138683333333, "is_reserved": 0, "is_disabled": 0, "fusion_lat": 0.0}, {"fusion_lon": 0.0, "bike_id": "d542b9419bf18400d019bc884eb302f6", "name": "d542b9419bf18400d019bc884eb302f6", "type": "electric_bike", "lon": -76.98752766666667, "rental_uris": {"android": "https://dc.lft.to/lastmile_qr_scan", "ios": "https://dc.lft.to/lastmile_qr_scan"}, "lat": 38.857832, "is_reserved": 0, "is_disabled": 0, "fusion_lat": 0.0}, {"fusion_lon": 0.0, "bike_id": "31c6fda597ad84950aeda61b66318066", "name": "31c6fda597ad84950aeda61b66318066", "type": "electric_bike", "lon": -77.10682866666667, "rental_uris": {"android": "https://dc.lft.to/lastmile_qr_scan", "ios": "https://dc.lft.to/lastmile_qr_scan"}, "lat": 38.9357975, "is_reserved": 0, "is_disabled": 0, "fusion_lat": 0.0}, {"fusion_lon": 0.0, "bike_id": "f14d7bd40161307ed6d55e7971028b2e", "name": "f14d7bd40161307ed6d55e7971028b2e", "type": "electric_scooter", "lon": -76.97910533333334, "rental_uris": {"android": "https://dc.lft.to/lastmile_qr_scan", "ios": "https://dc.lft.to/lastmile_qr_scan"}, "lat": 38.89432383333333, "is_reserved": 0, "is_disabled": 0, "fusion_lat": 0.0}, {"fusion_lon": 0.0, "bike_id": "f22688bc1cf8b852888f001fb94b59d0", "name": "f22688bc1cf8b852888f001fb94b59d0", "type": "electric_scooter", "lon": -77.03460466666667, "rental_uris": {"android": "https://dc.lft.to/lastmile_qr_scan", "ios": "https://dc.lft.to/lastmile_qr_scan"}, "lat": 38.91808866666667, "is_reserved": 0, "is_disabled": 0, "fusion_lat": 0.0}, {"fusion_lon": 0.0, "bike_id": "eb20f7821f57eb8f854556be52368379", "name": "eb20f7821f57eb8f854556be52368379", "type": "electric_scooter", "lon": -77.02220833333334, "rental_uris": {"android": "https://dc.lft.to/lastmile_qr_scan", "ios": "https://dc.lft.to/lastmile_qr_scan"}, "lat": 38.91268933333333, "is_reserved": 0, "is_disabled": 0, "fusion_lat": 0.0}, {"fusion_lon": 0.0, "bike_id": "399849aba3ece26d65846bd33c3f1543", "name": "399849aba3ece26d65846bd33c3f1543", "type": "electric_bike", "lon": -76.94865516666667, "rental_uris": {"android": "https://dc.lft.to/lastmile_qr_scan", "ios": "https://dc.lft.to/lastmile_qr_scan"}, "lat": 38.889643166666666, "is_reserved": 0, "is_disabled": 0, "fusion_lat": 0.0}, {"fusion_lon": 0.0, "bike_id": "a9912fe2b0eeda2d55d76544ef904bbf", "name": "a9912fe2b0eeda2d55d76544ef904bbf", "type": "electric_bike", "lon": -76.87770483333334, "rental_uris": {"android": "https://dc.lft.to/lastmile_qr_scan", "ios": "https://dc.lft.to/lastmile_qr_scan"}, "lat": 38.992192, "is_reserved": 0, "is_disabled": 0, "fusion_lat": 0.0}, {"fusion_lon": 0.0, "bike_id": "06a948360c10ff4cfcd8e6c798e1dcf3", "name": "06a948360c10ff4cfcd8e6c798e1dcf3", "type": "electric_scooter", "lon": -77.02417916666667, "rental_uris": {"android": "https://dc.lft.to/lastmile_qr_scan", "ios": "https://dc.lft.to/lastmile_qr_scan"}, "lat": 38.91824916666667, "is_reserved": 0, "is_disabled": 0, "fusion_lat": 0.0}, {"fusion_lon": 0.0, "bike_id": "06faee2ad4cd9238b33e2cfa56ffb357", "name": "06faee2ad4cd9238b33e2cfa56ffb357", "type": "electric_bike", "lon": -76.96383733333333, "rental_uris": {"android": "https://dc.lft.to/lastmile_qr_scan", "ios": "https://dc.lft.to/lastmile_qr_scan"}, "lat": 38.975760666666666, "is_reserved": 0, "is_disabled": 0, "fusion_lat": 0.0}, {"fusion_lon": 0.0, "bike_id": "e0719683e24d1ff456d50049a2562356", "name": "e0719683e24d1ff456d50049a2562356", "type": "electric_scooter", "lon": -77.03642616666667, "rental_uris": {"android": "https://dc.lft.to/lastmile_qr_scan", "ios": "https://dc.lft.to/lastmile_qr_scan"}, "lat": 38.91217683333333, "is_reserved": 0, "is_disabled": 0, "fusion_lat": 0.0}, {"fusion_lon": 0.0, "bike_id": "e7e61647553e4cbeaece5ba22fc7f1a6", "name": "e7e61647553e4cbeaece5ba22fc7f1a6", "type": "electric_scooter", "lon": -77.01435466666666, "rental_uris": {"android": "https://dc.lft.to/lastmile_qr_scan", "ios": "https://dc.lft.to/lastmile_qr_scan"}, "lat": 38.91962783333334, "is_reserved": 0, "is_disabled": 0, "fusion_lat": 0.0}, {"fusion_lon": 0.0, "bike_id": "a36b01f6bed63be781023d6979c1ee31", "name": "a36b01f6bed63be781023d6979c1ee31", "type": "electric_scooter", "lon": -76.97817883333333, "rental_uris": {"android": "https://dc.lft.to/lastmile_qr_scan", "ios": "https://dc.lft.to/lastmile_qr_scan"}, "lat": 38.846095166666665, "is_reserved": 0, "is_disabled": 0, "fusion_lat": 0.0}, {"fusion_lon": 0.0, "bike_id": "b21a010272046bffa7600939a0ccffab", "name": "b21a010272046bffa7600939a0ccffab", "type": "electric_scooter", "lon": -77.00323533333334, "rental_uris": {"android": "https://dc.lft.to/lastmile_qr_scan", "ios": "https://dc.lft.to/lastmile_qr_scan"}, "lat": 38.902676, "is_reserved": 0, "is_disabled": 0, "fusion_lat": 0.0}, {"fusion_lon": 0.0, "bike_id": "875702cbde72de828c58812a80ccea63", "name": "875702cbde72de828c58812a80ccea63", "type": "electric_bike", "lon": -76.98520566666667, "rental_uris": {"android": "https://dc.lft.to/lastmile_qr_scan", "ios": "https://dc.lft.to/lastmile_qr_scan"}, "lat": 38.9199325, "is_reserved": 0, "is_disabled": 0, "fusion_lat": 0.0}, {"fusion_lon": 0.0, "bike_id": "6ff872f2397923ddb6c9b1f38e2e13d7", "name": "6ff872f2397923ddb6c9b1f38e2e13d7", "type": "electric_scooter", "lon": -76.9952875, "rental_uris": {"android": "https://dc.lft.to/lastmile_qr_scan", "ios": "https://dc.lft.to/lastmile_qr_scan"}, "lat": 38.90029716666667, "is_reserved": 0, "is_disabled": 0, "fusion_lat": 0.0}, {"fusion_lon": 0.0, "bike_id": "85255e039799bd9fda4821950997a21c", "name": "85255e039799bd9fda4821950997a21c", "type": "electric_bike", "lon": -76.9847405, "rental_uris": {"android": "https://dc.lft.to/lastmile_qr_scan", "ios": "https://dc.lft.to/lastmile_qr_scan"}, "lat": 38.89141383333333, "is_reserved": 0, "is_disabled": 0, "fusion_lat": 0.0}, {"fusion_lon": 0.0, "bike_id": "c1cd0bb2afa64e74212ceee2fb6f762a", "name": "c1cd0bb2afa64e74212ceee2fb6f762a", "type": "electric_scooter", "lon": -77.04101766666666, "rental_uris": {"android": "https://dc.lft.to/lastmile_qr_scan", "ios": "https://dc.lft.to/lastmile_qr_scan"}, "lat": 38.90152483333333, "is_reserved": 0, "is_disabled": 0, "fusion_lat": 0.0}, {"fusion_lon": 0.0, "bike_id": "914ce735cf41c063922234e881ba09dc", "name": "914ce735cf41c063922234e881ba09dc", "type": "electric_scooter", "lon": -77.0175975, "rental_uris": {"android": "https://dc.lft.to/lastmile_qr_scan", "ios": "https://dc.lft.to/lastmile_qr_scan"}, "lat": 38.8772525, "is_reserved": 0, "is_disabled": 0, "fusion_lat": 0.0}, {"fusion_lon": 0.0, "bike_id": "717601b5fd01632b57a322418230e4b8", "name": "717601b5fd01632b57a322418230e4b8", "type": "electric_bike", "lon": -77.00320783333333, "rental_uris": {"android": "https://dc.lft.to/lastmile_qr_scan", "ios": "https://dc.lft.to/lastmile_qr_scan"}, "lat": 38.911831666666664, "is_reserved": 0, "is_disabled": 0, "fusion_lat": 0.0}, {"fusion_lon": 0.0, "bike_id": "8f146d5dc7e5cf726bdf46f62e0d29e1", "name": "8f146d5dc7e5cf726bdf46f62e0d29e1", "type": "electric_scooter", "lon": -77.04682366666667, "rental_uris": {"android": "https://dc.lft.to/lastmile_qr_scan", "ios": "https://dc.lft.to/lastmile_qr_scan"}, "lat": 38.915798333333335, "is_reserved": 0, "is_disabled": 0, "fusion_lat": 0.0}, {"fusion_lon": 0.0, "bike_id": "51a6bc0ddadb8efed8c0d10c33c9c9f5", "name": "51a6bc0ddadb8efed8c0d10c33c9c9f5", "type": "electric_scooter", "lon": -77.01760466666667, "rental_uris": {"android": "https://dc.lft.to/lastmile_qr_scan", "ios": "https://dc.lft.to/lastmile_qr_scan"}, "lat": 38.885819166666664, "is_reserved": 0, "is_disabled": 0, "fusion_lat": 0.0}, {"fusion_lon": 0.0, "bike_id": "240fb22bd0572297d5a58c63e59878d6", "name": "240fb22bd0572297d5a58c63e59878d6", "type": "electric_bike", "lon": -77.04978583333333, "rental_uris": {"android": "https://dc.lft.to/lastmile_qr_scan", "ios": "https://dc.lft.to/lastmile_qr_scan"}, "lat": 38.992441, "is_reserved": 0, "is_disabled": 0, "fusion_lat": 0.0}, {"fusion_lon": 0.0, "bike_id": "9de06e51bacaabed6454c3f7a9cbcea2", "name": "9de06e51bacaabed6454c3f7a9cbcea2", "type": "electric_scooter", "lon": -77.05597616666667, "rental_uris": {"android": "https://dc.lft.to/lastmile_qr_scan", "ios": "https://dc.lft.to/lastmile_qr_scan"}, "lat": 38.937006833333335, "is_reserved": 0, "is_disabled": 0, "fusion_lat": 0.0}, {"fusion_lon": 0.0, "bike_id": "611ad9510bc1c5c83837033a6c37e2c4", "name": "611ad9510bc1c5c83837033a6c37e2c4", "type": "electric_scooter", "lon": -77.00214783333334, "rental_uris": {"android": "https://dc.lft.to/lastmile_qr_scan", "ios": "https://dc.lft.to/lastmile_qr_scan"}, "lat": 38.900224333333334, "is_reserved": 0, "is_disabled": 0, "fusion_lat": 0.0}, {"fusion_lon": 0.0, "bike_id": "26d7d0a81cffb1014d267d5f544f9830", "name": "26d7d0a81cffb1014d267d5f544f9830", "type": "electric_bike", "lon": -77.19546016666666, "rental_uris": {"android": "https://dc.lft.to/lastmile_qr_scan", "ios": "https://dc.lft.to/lastmile_qr_scan"}, "lat": 39.11505233333333, "is_reserved": 0, "is_disabled": 0, "fusion_lat": 0.0}, {"fusion_lon": 0.0, "bike_id": "f2249397a26b2bc8efe25f04ffb4ee4c", "name": "f2249397a26b2bc8efe25f04ffb4ee4c", "type": "electric_bike", "lon": -76.96697333333333, "rental_uris": {"android": "https://dc.lft.to/lastmile_qr_scan", "ios": "https://dc.lft.to/lastmile_qr_scan"}, "lat": 38.8685045, "is_reserved": 0, "is_disabled": 0, "fusion_lat": 0.0}, {"fusion_lon": 0.0, "bike_id": "2029d74f3b68b4c76fca8308842a2b5a", "name": "2029d74f3b68b4c76fca8308842a2b5a", "type": "electric_scooter", "lon": -77.01107816666666, "rental_uris": {"android": "https://dc.lft.to/lastmile_qr_scan", "ios": "https://dc.lft.to/lastmile_qr_scan"}, "lat": 38.903571166666666, "is_reserved": 0, "is_disabled": 0, "fusion_lat": 0.0}, {"fusion_lon": 0.0, "bike_id": "49e95f3d841a2a2d9eccca7fcaef4032", "name": "49e95f3d841a2a2d9eccca7fcaef4032", "type": "electric_scooter", "lon": -77.03387116666667, "rental_uris": {"android": "https://dc.lft.to/lastmile_qr_scan", "ios": "https://dc.lft.to/lastmile_qr_scan"}, "lat": 38.9215145, "is_reserved": 0, "is_disabled": 0, "fusion_lat": 0.0}, {"fusion_lon": 0.0, "bike_id": "8fdf1e762ccba726b8f742b45c0ed040", "name": "8fdf1e762ccba726b8f742b45c0ed040", "type": "electric_bike", "lon": -77.02621833333333, "rental_uris": {"android": "https://dc.lft.to/lastmile_qr_scan", "ios": "https://dc.lft.to/lastmile_qr_scan"}, "lat": 38.9622675, "is_reserved": 0, "is_disabled": 0, "fusion_lat": 0.0}, {"fusion_lon": 0.0, "bike_id": "44d2bb7c38be6ed327ccc67b3566f601", "name": "44d2bb7c38be6ed327ccc67b3566f601", "type": "electric_bike", "lon": -77.0852895, "rental_uris": {"android": "https://dc.lft.to/lastmile_qr_scan", "ios": "https://dc.lft.to/lastmile_qr_scan"}, "lat": 38.856488, "is_reserved": 0, "is_disabled": 0, "fusion_lat": 0.0}, {"fusion_lon": 0.0, "bike_id": "62db610665f4158a70c6eabd2c98113e", "name": "62db610665f4158a70c6eabd2c98113e", "type": "electric_scooter", "lon": -77.00066083333333, "rental_uris": {"android": "https://dc.lft.to/lastmile_qr_scan", "ios": "https://dc.lft.to/lastmile_qr_scan"}, "lat": 38.901366333333335, "is_reserved": 0, "is_disabled": 0, "fusion_lat": 0.0}, {"fusion_lon": 0.0, "bike_id": "917c8f64e32f05754da3b1a9ad2ab9ba", "name": "917c8f64e32f05754da3b1a9ad2ab9ba", "type": "electric_scooter", "lon": -77.03275016666667, "rental_uris": {"android": "https://dc.lft.to/lastmile_qr_scan", "ios": "https://dc.lft.to/lastmile_qr_scan"}, "lat": 38.90458116666667, "is_reserved": 0, "is_disabled": 0, "fusion_lat": 0.0}, {"fusion_lon": 0.0, "bike_id": "99d917e9981a09f28a7fde8a83d175fb", "name": "99d917e9981a09f28a7fde8a83d175fb", "type": "electric_scooter", "lon": -77.0318475, "rental_uris": {"android": "https://dc.lft.to/lastmile_qr_scan", "ios": "https://dc.lft.to/lastmile_qr_scan"}, "lat": 38.91194433333333, "is_reserved": 0, "is_disabled": 0, "fusion_lat": 0.0}, {"fusion_lon": 0.0, "bike_id": "4c0c17675c1b6d4bf3f10de4dbab9dde", "name": "4c0c17675c1b6d4bf3f10de4dbab9dde", "type": "electric_scooter", "lon": -77.0162375, "rental_uris": {"android": "https://dc.lft.to/lastmile_qr_scan", "ios": "https://dc.lft.to/lastmile_qr_scan"}, "lat": 38.8764405, "is_reserved": 0, "is_disabled": 0, "fusion_lat": 0.0}, {"fusion_lon": 0.0, "bike_id": "1db0627bd98110106fc1431669db6fd2", "name": "1db0627bd98110106fc1431669db6fd2", "type": "electric_scooter", "lon": -77.03169533333333, "rental_uris": {"android": "https://dc.lft.to/lastmile_qr_scan", "ios": "https://dc.lft.to/lastmile_qr_scan"}, "lat": 38.88736133333333, "is_reserved": 0, "is_disabled": 0, "fusion_lat": 0.0}, {"fusion_lon": 0.0, "bike_id": "b052ef7b9886ceeca976b2a5dd3e53ac", "name": "b052ef7b9886ceeca976b2a5dd3e53ac", "type": "electric_scooter", "lon": -77.02472816666666, "rental_uris": {"android": "https://dc.lft.to/lastmile_qr_scan", "ios": "https://dc.lft.to/lastmile_qr_scan"}, "lat": 38.8801645, "is_reserved": 0, "is_disabled": 0, "fusion_lat": 0.0}, {"fusion_lon": 0.0, "bike_id": "5deb38dd066be84f12e5bff15c88950b", "name": "5deb38dd066be84f12e5bff15c88950b", "type": "electric_scooter", "lon": -77.00724566666666, "rental_uris": {"android": "https://dc.lft.to/lastmile_qr_scan", "ios": "https://dc.lft.to/lastmile_qr_scan"}, "lat": 38.8767205, "is_reserved": 0, "is_disabled": 0, "fusion_lat": 0.0}, {"fusion_lon": 0.0, "bike_id": "bbede2b42646f54acbf7328411d84f8f", "name": "bbede2b42646f54acbf7328411d84f8f", "type": "electric_scooter", "lon": -77.029749, "rental_uris": {"android": "https://dc.lft.to/lastmile_qr_scan", "ios": "https://dc.lft.to/lastmile_qr_scan"}, "lat": 38.90736, "is_reserved": 0, "is_disabled": 0, "fusion_lat": 0.0}, {"fusion_lon": 0.0, "bike_id": "e23fb7f6203b404d9f2841c915f96f5a", "name": "e23fb7f6203b404d9f2841c915f96f5a", "type": "electric_scooter", "lon": -77.03458983333333, "rental_uris": {"android": "https://dc.lft.to/lastmile_qr_scan", "ios": "https://dc.lft.to/lastmile_qr_scan"}, "lat": 38.914917, "is_reserved": 0, "is_disabled": 0, "fusion_lat": 0.0}, {"fusion_lon": 0.0, "bike_id": "8b77c0a29ab743e544a6f459b5f4a5e4", "name": "8b77c0a29ab743e544a6f459b5f4a5e4", "type": "electric_scooter", "lon": -77.027731, "rental_uris": {"android": "https://dc.lft.to/lastmile_qr_scan", "ios": "https://dc.lft.to/lastmile_qr_scan"}, "lat": 38.902590000000004, "is_reserved": 0, "is_disabled": 0, "fusion_lat": 0.0}, {"fusion_lon": 0.0, "bike_id": "933b54bb4271dec049eb564ed66b2cc6", "name": "933b54bb4271dec049eb564ed66b2cc6", "type": "electric_scooter", "lon": -77.05422333333334, "rental_uris": {"android": "https://dc.lft.to/lastmile_qr_scan", "ios": "https://dc.lft.to/lastmile_qr_scan"}, "lat": 38.92826216666667, "is_reserved": 0, "is_disabled": 0, "fusion_lat": 0.0}, {"fusion_lon": 0.0, "bike_id": "e031e58984776f1c9a9595fd7fda4463", "name": "e031e58984776f1c9a9595fd7fda4463", "type": "electric_bike", "lon": -77.02978083333333, "rental_uris": {"android": "https://dc.lft.to/lastmile_qr_scan", "ios": "https://dc.lft.to/lastmile_qr_scan"}, "lat": 38.93699, "is_reserved": 0, "is_disabled": 0, "fusion_lat": 0.0}, {"fusion_lon": 0.0, "bike_id": "76d62a86dcdff5ba61cf1a8a55ec86cd", "name": "76d62a86dcdff5ba61cf1a8a55ec86cd", "type": "electric_scooter", "lon": -77.04177583333333, "rental_uris": {"android": "https://dc.lft.to/lastmile_qr_scan", "ios": "https://dc.lft.to/lastmile_qr_scan"}, "lat": 38.89874416666667, "is_reserved": 0, "is_disabled": 0, "fusion_lat": 0.0}, {"fusion_lon": 0.0, "bike_id": "4c8feb3125f7180a5d6b77a98b023458", "name": "4c8feb3125f7180a5d6b77a98b023458", "type": "electric_scooter", "lon": -77.03637783333333, "rental_uris": {"android": "https://dc.lft.to/lastmile_qr_scan", "ios": "https://dc.lft.to/lastmile_qr_scan"}, "lat": 38.92416583333333, "is_reserved": 0, "is_disabled": 0, "fusion_lat": 0.0}, {"fusion_lon": 0.0, "bike_id": "0a3f5aafa79d5547ac7b5faa4a82ebf0", "name": "0a3f5aafa79d5547ac7b5faa4a82ebf0", "type": "electric_bike", "lon": -77.0008695, "rental_uris": {"android": "https://dc.lft.to/lastmile_qr_scan", "ios": "https://dc.lft.to/lastmile_qr_scan"}, "lat": 38.876101166666665, "is_reserved": 0, "is_disabled": 0, "fusion_lat": 0.0}, {"fusion_lon": 0.0, "bike_id": "e527d6ffb3f3fd48fd73d70130692d62", "name": "e527d6ffb3f3fd48fd73d70130692d62", "type": "electric_bike", "lon": -77.00603033333333, "rental_uris": {"android": "https://dc.lft.to/lastmile_qr_scan", "ios": "https://dc.lft.to/lastmile_qr_scan"}, "lat": 38.8980945, "is_reserved": 0, "is_disabled": 0, "fusion_lat": 0.0}, {"fusion_lon": 0.0, "bike_id": "ebbf9e3f67f8df6c09486cb3a8d212ad", "name": "ebbf9e3f67f8df6c09486cb3a8d212ad", "type": "electric_scooter", "lon": -77.0232485, "rental_uris": {"android": "https://dc.lft.to/lastmile_qr_scan", "ios": "https://dc.lft.to/lastmile_qr_scan"}, "lat": 38.92404783333333, "is_reserved": 0, "is_disabled": 0, "fusion_lat": 0.0}, {"fusion_lon": 0.0, "bike_id": "fb403713ecfef49f27d1b5d93b0ea935", "name": "fb403713ecfef49f27d1b5d93b0ea935", "type": "electric_scooter", "lon": -76.98729516666667, "rental_uris": {"android": "https://dc.lft.to/lastmile_qr_scan", "ios": "https://dc.lft.to/lastmile_qr_scan"}, "lat": 38.8670215, "is_reserved": 0, "is_disabled": 0, "fusion_lat": 0.0}, {"fusion_lon": 0.0, "bike_id": "ed14d61e6a621978b21d777075effa31", "name": "ed14d61e6a621978b21d777075effa31", "type": "electric_scooter", "lon": -77.02415516666667, "rental_uris": {"android": "https://dc.lft.to/lastmile_qr_scan", "ios": "https://dc.lft.to/lastmile_qr_scan"}, "lat": 38.95748016666667, "is_reserved": 0, "is_disabled": 0, "fusion_lat": 0.0}, {"fusion_lon": 0.0, "bike_id": "783d7f0b97f6f8758e18983653ab5de5", "name": "783d7f0b97f6f8758e18983653ab5de5", "type": "electric_scooter", "lon": -76.97280566666667, "rental_uris": {"android": "https://dc.lft.to/lastmile_qr_scan", "ios": "https://dc.lft.to/lastmile_qr_scan"}, "lat": 38.9308455, "is_reserved": 0, "is_disabled": 0, "fusion_lat": 0.0}, {"fusion_lon": 0.0, "bike_id": "5497712c7c45bf0d17d78bdc549fba77", "name": "5497712c7c45bf0d17d78bdc549fba77", "type": "electric_scooter", "lon": -76.9415415, "rental_uris": {"android": "https://dc.lft.to/lastmile_qr_scan", "ios": "https://dc.lft.to/lastmile_qr_scan"}, "lat": 38.8836355, "is_reserved": 0, "is_disabled": 0, "fusion_lat": 0.0}, {"fusion_lon": 0.0, "bike_id": "4c04d31687adf78984fcbf2cb00022c0", "name": "4c04d31687adf78984fcbf2cb00022c0", "type": "electric_scooter", "lon": -77.03133216666667, "rental_uris": {"android": "https://dc.lft.to/lastmile_qr_scan", "ios": "https://dc.lft.to/lastmile_qr_scan"}, "lat": 38.92018683333333, "is_reserved": 0, "is_disabled": 0, "fusion_lat": 0.0}, {"fusion_lon": 0.0, "bike_id": "7358d71177d7b07cd012e008b7d2f643", "name": "7358d71177d7b07cd012e008b7d2f643", "type": "electric_scooter", "lon": -77.02905016666666, "rental_uris": {"android": "https://dc.lft.to/lastmile_qr_scan", "ios": "https://dc.lft.to/lastmile_qr_scan"}, "lat": 38.904419, "is_reserved": 0, "is_disabled": 0, "fusion_lat": 0.0}, {"fusion_lon": 0.0, "bike_id": "5577ab02180e4bae01d5747940943375", "name": "5577ab02180e4bae01d5747940943375", "type": "electric_scooter", "lon": -77.00109516666667, "rental_uris": {"android": "https://dc.lft.to/lastmile_qr_scan", "ios": "https://dc.lft.to/lastmile_qr_scan"}, "lat": 38.9171215, "is_reserved": 0, "is_disabled": 0, "fusion_lat": 0.0}, {"fusion_lon": 0.0, "bike_id": "147b2fad603c1d9857a2fdf341007e83", "name": "147b2fad603c1d9857a2fdf341007e83", "type": "electric_scooter", "lon": -77.04461033333334, "rental_uris": {"android": "https://dc.lft.to/lastmile_qr_scan", "ios": "https://dc.lft.to/lastmile_qr_scan"}, "lat": 38.91138083333333, "is_reserved": 0, "is_disabled": 0, "fusion_lat": 0.0}, {"fusion_lon": 0.0, "bike_id": "5704143769255ea4a0c67ada5afd5d91", "name": "5704143769255ea4a0c67ada5afd5d91", "type": "electric_scooter", "lon": -76.9901385, "rental_uris": {"android": "https://dc.lft.to/lastmile_qr_scan", "ios": "https://dc.lft.to/lastmile_qr_scan"}, "lat": 38.900381833333334, "is_reserved": 0, "is_disabled": 0, "fusion_lat": 0.0}, {"fusion_lon": 0.0, "bike_id": "36af4fa64f90d24967a31ddb1799d4e9", "name": "36af4fa64f90d24967a31ddb1799d4e9", "type": "electric_scooter", "lon": -77.0092795, "rental_uris": {"android": "https://dc.lft.to/lastmile_qr_scan", "ios": "https://dc.lft.to/lastmile_qr_scan"}, "lat": 38.8768095, "is_reserved": 0, "is_disabled": 0, "fusion_lat": 0.0}, {"fusion_lon": 0.0, "bike_id": "bd5843229402779ca81d75ebe6008632", "name": "bd5843229402779ca81d75ebe6008632", "type": "electric_scooter", "lon": -77.03262933333333, "rental_uris": {"android": "https://dc.lft.to/lastmile_qr_scan", "ios": "https://dc.lft.to/lastmile_qr_scan"}, "lat": 38.935233, "is_reserved": 0, "is_disabled": 0, "fusion_lat": 0.0}, {"fusion_lon": 0.0, "bike_id": "4a0d3d5d5a4b296e4d3666df435c8c55", "name": "4a0d3d5d5a4b296e4d3666df435c8c55", "type": "electric_scooter", "lon": -77.03255066666667, "rental_uris": {"android": "https://dc.lft.to/lastmile_qr_scan", "ios": "https://dc.lft.to/lastmile_qr_scan"}, "lat": 38.91325666666667, "is_reserved": 0, "is_disabled": 0, "fusion_lat": 0.0}, {"fusion_lon": 0.0, "bike_id": "6a37fab1223419baba666a7e8f487f9b", "name": "6a37fab1223419baba666a7e8f487f9b", "type": "electric_bike", "lon": -77.003217, "rental_uris": {"android": "https://dc.lft.to/lastmile_qr_scan", "ios": "https://dc.lft.to/lastmile_qr_scan"}, "lat": 38.919834333333334, "is_reserved": 0, "is_disabled": 0, "fusion_lat": 0.0}, {"fusion_lon": 0.0, "bike_id": "4f042761c7b0979de7eb0a53a7ce48d4", "name": "4f042761c7b0979de7eb0a53a7ce48d4", "type": "electric_scooter", "lon": -77.00338033333334, "rental_uris": {"android": "https://dc.lft.to/lastmile_qr_scan", "ios": "https://dc.lft.to/lastmile_qr_scan"}, "lat": 38.9059495, "is_reserved": 0, "is_disabled": 0, "fusion_lat": 0.0}, {"fusion_lon": 0.0, "bike_id": "292653f5ff90345405945ec87962c145", "name": "292653f5ff90345405945ec87962c145", "type": "electric_bike", "lon": -76.92335133333333, "rental_uris": {"android": "https://dc.lft.to/lastmile_qr_scan", "ios": "https://dc.lft.to/lastmile_qr_scan"}, "lat": 38.8878855, "is_reserved": 0, "is_disabled": 0, "fusion_lat": 0.0}, {"fusion_lon": 0.0, "bike_id": "be01cfc2a05306fd2f537d184e09ab27", "name": "be01cfc2a05306fd2f537d184e09ab27", "type": "electric_scooter", "lon": -77.02998116666667, "rental_uris": {"android": "https://dc.lft.to/lastmile_qr_scan", "ios": "https://dc.lft.to/lastmile_qr_scan"}, "lat": 38.92853566666667, "is_reserved": 0, "is_disabled": 0, "fusion_lat": 0.0}, {"fusion_lon": 0.0, "bike_id": "b10230b2ff63a873bece241fa0dd3740", "name": "b10230b2ff63a873bece241fa0dd3740", "type": "electric_scooter", "lon": -77.00059966666667, "rental_uris": {"android": "https://dc.lft.to/lastmile_qr_scan", "ios": "https://dc.lft.to/lastmile_qr_scan"}, "lat": 38.875259666666665, "is_reserved": 0, "is_disabled": 0, "fusion_lat": 0.0}, {"fusion_lon": 0.0, "bike_id": "aee52adc6384976b6d2e7b711bc1532c", "name": "aee52adc6384976b6d2e7b711bc1532c", "type": "electric_scooter", "lon": -77.03075683333333, "rental_uris": {"android": "https://dc.lft.to/lastmile_qr_scan", "ios": "https://dc.lft.to/lastmile_qr_scan"}, "lat": 38.92384766666667, "is_reserved": 0, "is_disabled": 0, "fusion_lat": 0.0}, {"fusion_lon": 0.0, "bike_id": "151ab3e6f4edc0744e2f7f1b4dff0be9", "name": "151ab3e6f4edc0744e2f7f1b4dff0be9", "type": "electric_bike", "lon": -76.97616966666666, "rental_uris": {"android": "https://dc.lft.to/lastmile_qr_scan", "ios": "https://dc.lft.to/lastmile_qr_scan"}, "lat": 38.8929145, "is_reserved": 0, "is_disabled": 0, "fusion_lat": 0.0}, {"fusion_lon": 0.0, "bike_id": "2e6d1e80bcf5e3b03f763936cf7ed67c", "name": "2e6d1e80bcf5e3b03f763936cf7ed67c", "type": "electric_scooter", "lon": -77.0310695, "rental_uris": {"android": "https://dc.lft.to/lastmile_qr_scan", "ios": "https://dc.lft.to/lastmile_qr_scan"}, "lat": 38.9201115, "is_reserved": 0, "is_disabled": 0, "fusion_lat": 0.0}, {"fusion_lon": 0.0, "bike_id": "a52a67e8e63301128f9c96a610edf83a", "name": "a52a67e8e63301128f9c96a610edf83a", "type": "electric_scooter", "lon": -77.02351116666667, "rental_uris": {"android": "https://dc.lft.to/lastmile_qr_scan", "ios": "https://dc.lft.to/lastmile_qr_scan"}, "lat": 38.935299666666666, "is_reserved": 0, "is_disabled": 0, "fusion_lat": 0.0}, {"fusion_lon": 0.0, "bike_id": "a89f3ad8fc3bdb0a87239d0e2061a86e", "name": "a89f3ad8fc3bdb0a87239d0e2061a86e", "type": "electric_scooter", "lon": -77.031953, "rental_uris": {"android": "https://dc.lft.to/lastmile_qr_scan", "ios": "https://dc.lft.to/lastmile_qr_scan"}, "lat": 38.9092115, "is_reserved": 0, "is_disabled": 0, "fusion_lat": 0.0}, {"fusion_lon": 0.0, "bike_id": "768562a0c6a91a753ca537fafe964404", "name": "768562a0c6a91a753ca537fafe964404", "type": "electric_scooter", "lon": -77.04577866666666, "rental_uris": {"android": "https://dc.lft.to/lastmile_qr_scan", "ios": "https://dc.lft.to/lastmile_qr_scan"}, "lat": 38.92416216666667, "is_reserved": 0, "is_disabled": 0, "fusion_lat": 0.0}, {"fusion_lon": 0.0, "bike_id": "06c11f61454a3189153e102f0d53c1d1", "name": "06c11f61454a3189153e102f0d53c1d1", "type": "electric_scooter", "lon": -77.028036, "rental_uris": {"android": "https://dc.lft.to/lastmile_qr_scan", "ios": "https://dc.lft.to/lastmile_qr_scan"}, "lat": 38.916794833333334, "is_reserved": 0, "is_disabled": 0, "fusion_lat": 0.0}, {"fusion_lon": 0.0, "bike_id": "9fe891351a8a63ecc6929f94d6ab345a", "name": "9fe891351a8a63ecc6929f94d6ab345a", "type": "electric_scooter", "lon": -77.01996583333333, "rental_uris": {"android": "https://dc.lft.to/lastmile_qr_scan", "ios": "https://dc.lft.to/lastmile_qr_scan"}, "lat": 38.966254666666664, "is_reserved": 0, "is_disabled": 0, "fusion_lat": 0.0}, {"fusion_lon": 0.0, "bike_id": "6417e4c57371e0400fab162288cce076", "name": "6417e4c57371e0400fab162288cce076", "type": "electric_bike", "lon": -76.948027, "rental_uris": {"android": "https://dc.lft.to/lastmile_qr_scan", "ios": "https://dc.lft.to/lastmile_qr_scan"}, "lat": 38.86190033333333, "is_reserved": 0, "is_disabled": 0, "fusion_lat": 0.0}, {"fusion_lon": 0.0, "bike_id": "6e77f752e9c0b94ef9bb8c098067a259", "name": "6e77f752e9c0b94ef9bb8c098067a259", "type": "electric_scooter", "lon": -77.02115033333334, "rental_uris": {"android": "https://dc.lft.to/lastmile_qr_scan", "ios": "https://dc.lft.to/lastmile_qr_scan"}, "lat": 38.8948175, "is_reserved": 0, "is_disabled": 0, "fusion_lat": 0.0}, {"fusion_lon": 0.0, "bike_id": "bf641c63316cf5873382de990ebe811c", "name": "bf641c63316cf5873382de990ebe811c", "type": "electric_bike", "lon": -76.9800385, "rental_uris": {"android": "https://dc.lft.to/lastmile_qr_scan", "ios": "https://dc.lft.to/lastmile_qr_scan"}, "lat": 38.853228333333334, "is_reserved": 0, "is_disabled": 0, "fusion_lat": 0.0}, {"fusion_lon": 0.0, "bike_id": "071ec0b702b5af3e5370e2749c9f5a97", "name": "071ec0b702b5af3e5370e2749c9f5a97", "type": "electric_scooter", "lon": -77.03858616666666, "rental_uris": {"android": "https://dc.lft.to/lastmile_qr_scan", "ios": "https://dc.lft.to/lastmile_qr_scan"}, "lat": 38.91558083333334, "is_reserved": 0, "is_disabled": 0, "fusion_lat": 0.0}, {"fusion_lon": 0.0, "bike_id": "ed7ef70a3de650dcdd9a0195f30ab72e", "name": "ed7ef70a3de650dcdd9a0195f30ab72e", "type": "electric_scooter", "lon": -77.02796366666666, "rental_uris": {"android": "https://dc.lft.to/lastmile_qr_scan", "ios": "https://dc.lft.to/lastmile_qr_scan"}, "lat": 38.91105733333333, "is_reserved": 0, "is_disabled": 0, "fusion_lat": 0.0}, {"fusion_lon": 0.0, "bike_id": "3e1df33489193e3d2b94e6b9a421fd69", "name": "3e1df33489193e3d2b94e6b9a421fd69", "type": "electric_scooter", "lon": -77.03250983333334, "rental_uris": {"android": "https://dc.lft.to/lastmile_qr_scan", "ios": "https://dc.lft.to/lastmile_qr_scan"}, "lat": 38.93262416666666, "is_reserved": 0, "is_disabled": 0, "fusion_lat": 0.0}, {"fusion_lon": 0.0, "bike_id": "6d0ea5dfffee7a32cfb3ff8d048d9d71", "name": "6d0ea5dfffee7a32cfb3ff8d048d9d71", "type": "electric_scooter", "lon": -77.0416485, "rental_uris": {"android": "https://dc.lft.to/lastmile_qr_scan", "ios": "https://dc.lft.to/lastmile_qr_scan"}, "lat": 38.920047833333335, "is_reserved": 0, "is_disabled": 0, "fusion_lat": 0.0}, {"fusion_lon": 0.0, "bike_id": "77cdb6b6ae469b7bc22264d31f52d11d", "name": "77cdb6b6ae469b7bc22264d31f52d11d", "type": "electric_scooter", "lon": -77.03195333333333, "rental_uris": {"android": "https://dc.lft.to/lastmile_qr_scan", "ios": "https://dc.lft.to/lastmile_qr_scan"}, "lat": 38.907877666666664, "is_reserved": 0, "is_disabled": 0, "fusion_lat": 0.0}, {"fusion_lon": 0.0, "bike_id": "400a9e11741d800d8b0ab427f0eb9ce7", "name": "400a9e11741d800d8b0ab427f0eb9ce7", "type": "electric_scooter", "lon": -77.03425633333333, "rental_uris": {"android": "https://dc.lft.to/lastmile_qr_scan", "ios": "https://dc.lft.to/lastmile_qr_scan"}, "lat": 38.907199166666665, "is_reserved": 0, "is_disabled": 0, "fusion_lat": 0.0}, {"fusion_lon": 0.0, "bike_id": "f6f8601b5fe1f76de20dc7e57f9449b3", "name": "f6f8601b5fe1f76de20dc7e57f9449b3", "type": "electric_scooter", "lon": -77.011059, "rental_uris": {"android": "https://dc.lft.to/lastmile_qr_scan", "ios": "https://dc.lft.to/lastmile_qr_scan"}, "lat": 38.909650166666665, "is_reserved": 0, "is_disabled": 0, "fusion_lat": 0.0}, {"fusion_lon": 0.0, "bike_id": "b336ccd87002f11d3a94a29beefd294b", "name": "b336ccd87002f11d3a94a29beefd294b", "type": "electric_scooter", "lon": -77.031812, "rental_uris": {"android": "https://dc.lft.to/lastmile_qr_scan", "ios": "https://dc.lft.to/lastmile_qr_scan"}, "lat": 38.90770933333334, "is_reserved": 0, "is_disabled": 0, "fusion_lat": 0.0}, {"fusion_lon": 0.0, "bike_id": "58c53ce43fd95cd1aa4ba5c8a4d25639", "name": "58c53ce43fd95cd1aa4ba5c8a4d25639", "type": "electric_scooter", "lon": -77.03263766666667, "rental_uris": {"android": "https://dc.lft.to/lastmile_qr_scan", "ios": "https://dc.lft.to/lastmile_qr_scan"}, "lat": 38.935225333333335, "is_reserved": 0, "is_disabled": 0, "fusion_lat": 0.0}, {"fusion_lon": 0.0, "bike_id": "41bd51ff8bdbecb3f547ffa378cff70a", "name": "41bd51ff8bdbecb3f547ffa378cff70a", "type": "electric_scooter", "lon": -77.0366375, "rental_uris": {"android": "https://dc.lft.to/lastmile_qr_scan", "ios": "https://dc.lft.to/lastmile_qr_scan"}, "lat": 38.91136983333333, "is_reserved": 0, "is_disabled": 0, "fusion_lat": 0.0}, {"fusion_lon": 0.0, "bike_id": "9fb08cfe3182dab6917017af3a872ce3", "name": "9fb08cfe3182dab6917017af3a872ce3", "type": "electric_scooter", "lon": -77.00449483333334, "rental_uris": {"android": "https://dc.lft.to/lastmile_qr_scan", "ios": "https://dc.lft.to/lastmile_qr_scan"}, "lat": 38.92898016666667, "is_reserved": 0, "is_disabled": 0, "fusion_lat": 0.0}, {"fusion_lon": 0.0, "bike_id": "7cfc271c143ff148febd7e44b7c15701", "name": "7cfc271c143ff148febd7e44b7c15701", "type": "electric_scooter", "lon": -77.0396215, "rental_uris": {"android": "https://dc.lft.to/lastmile_qr_scan", "ios": "https://dc.lft.to/lastmile_qr_scan"}, "lat": 38.9261105, "is_reserved": 0, "is_disabled": 0, "fusion_lat": 0.0}, {"fusion_lon": 0.0, "bike_id": "630948b4c42965a70ca3f50a24c5ae43", "name": "630948b4c42965a70ca3f50a24c5ae43", "type": "electric_scooter", "lon": -77.04789416666667, "rental_uris": {"android": "https://dc.lft.to/lastmile_qr_scan", "ios": "https://dc.lft.to/lastmile_qr_scan"}, "lat": 38.89766516666667, "is_reserved": 0, "is_disabled": 0, "fusion_lat": 0.0}, {"fusion_lon": 0.0, "bike_id": "65fc7b843911132124ea9249b52d40c0", "name": "65fc7b843911132124ea9249b52d40c0", "type": "electric_scooter", "lon": -77.02219616666666, "rental_uris": {"android": "https://dc.lft.to/lastmile_qr_scan", "ios": "https://dc.lft.to/lastmile_qr_scan"}, "lat": 38.935515, "is_reserved": 0, "is_disabled": 0, "fusion_lat": 0.0}, {"fusion_lon": 0.0, "bike_id": "94d941b39f9e01bd90648cf4e5cefdd0", "name": "94d941b39f9e01bd90648cf4e5cefdd0", "type": "electric_scooter", "lon": -77.04678033333333, "rental_uris": {"android": "https://dc.lft.to/lastmile_qr_scan", "ios": "https://dc.lft.to/lastmile_qr_scan"}, "lat": 38.91581866666667, "is_reserved": 0, "is_disabled": 0, "fusion_lat": 0.0}, {"fusion_lon": 0.0, "bike_id": "e2e7aa11efbc77501b6ba8e79e71de83", "name": "e2e7aa11efbc77501b6ba8e79e71de83", "type": "electric_scooter", "lon": -77.03637183333333, "rental_uris": {"android": "https://dc.lft.to/lastmile_qr_scan", "ios": "https://dc.lft.to/lastmile_qr_scan"}, "lat": 38.936678, "is_reserved": 0, "is_disabled": 0, "fusion_lat": 0.0}, {"fusion_lon": 0.0, "bike_id": "6dd3a3135e475f96b3d486654c6599a2", "name": "6dd3a3135e475f96b3d486654c6599a2", "type": "electric_scooter", "lon": -77.02801783333334, "rental_uris": {"android": "https://dc.lft.to/lastmile_qr_scan", "ios": "https://dc.lft.to/lastmile_qr_scan"}, "lat": 38.91213966666667, "is_reserved": 0, "is_disabled": 0, "fusion_lat": 0.0}, {"fusion_lon": 0.0, "bike_id": "7a98d37dfce2edf628c72644595903b4", "name": "7a98d37dfce2edf628c72644595903b4", "type": "electric_scooter", "lon": -77.03249583333333, "rental_uris": {"android": "https://dc.lft.to/lastmile_qr_scan", "ios": "https://dc.lft.to/lastmile_qr_scan"}, "lat": 38.914865, "is_reserved": 0, "is_disabled": 0, "fusion_lat": 0.0}, {"fusion_lon": 0.0, "bike_id": "15f144e1a338904073ba98a8657ad2d7", "name": "15f144e1a338904073ba98a8657ad2d7", "type": "electric_scooter", "lon": -77.07806983333333, "rental_uris": {"android": "https://dc.lft.to/lastmile_qr_scan", "ios": "https://dc.lft.to/lastmile_qr_scan"}, "lat": 38.92461983333333, "is_reserved": 0, "is_disabled": 0, "fusion_lat": 0.0}, {"fusion_lon": 0.0, "bike_id": "b00bb8ff587ca217bb1d6e754e6869f0", "name": "b00bb8ff587ca217bb1d6e754e6869f0", "type": "electric_scooter", "lon": -77.03180783333333, "rental_uris": {"android": "https://dc.lft.to/lastmile_qr_scan", "ios": "https://dc.lft.to/lastmile_qr_scan"}, "lat": 38.89325066666667, "is_reserved": 0, "is_disabled": 0, "fusion_lat": 0.0}, {"fusion_lon": 0.0, "bike_id": "31dd63d493cbd025fc996980a8e79d2c", "name": "31dd63d493cbd025fc996980a8e79d2c", "type": "electric_bike", "lon": -76.90760633333333, "rental_uris": {"android": "https://dc.lft.to/lastmile_qr_scan", "ios": "https://dc.lft.to/lastmile_qr_scan"}, "lat": 38.92436566666667, "is_reserved": 0, "is_disabled": 0, "fusion_lat": 0.0}, {"fusion_lon": 0.0, "bike_id": "e174b2045374c60c526173a686211e7b", "name": "e174b2045374c60c526173a686211e7b", "type": "electric_scooter", "lon": -77.021965, "rental_uris": {"android": "https://dc.lft.to/lastmile_qr_scan", "ios": "https://dc.lft.to/lastmile_qr_scan"}, "lat": 38.915254833333336, "is_reserved": 0, "is_disabled": 0, "fusion_lat": 0.0}, {"fusion_lon": 0.0, "bike_id": "1fa42e060190787854a773cdd73d3386", "name": "1fa42e060190787854a773cdd73d3386", "type": "electric_scooter", "lon": -77.005792, "rental_uris": {"android": "https://dc.lft.to/lastmile_qr_scan", "ios": "https://dc.lft.to/lastmile_qr_scan"}, "lat": 38.871701333333334, "is_reserved": 0, "is_disabled": 0, "fusion_lat": 0.0}, {"fusion_lon": 0.0, "bike_id": "55b024d11cd75e83b25625960158a6b3", "name": "55b024d11cd75e83b25625960158a6b3", "type": "electric_scooter", "lon": -77.017474, "rental_uris": {"android": "https://dc.lft.to/lastmile_qr_scan", "ios": "https://dc.lft.to/lastmile_qr_scan"}, "lat": 38.9002675, "is_reserved": 0, "is_disabled": 0, "fusion_lat": 0.0}, {"fusion_lon": 0.0, "bike_id": "c140f211e5a470e80ae73d081d2ddcea", "name": "c140f211e5a470e80ae73d081d2ddcea", "type": "electric_scooter", "lon": -77.04036616666667, "rental_uris": {"android": "https://dc.lft.to/lastmile_qr_scan", "ios": "https://dc.lft.to/lastmile_qr_scan"}, "lat": 38.925697666666665, "is_reserved": 0, "is_disabled": 0, "fusion_lat": 0.0}, {"fusion_lon": 0.0, "bike_id": "d93132ac0d20a502cd50428f5b1c5de1", "name": "d93132ac0d20a502cd50428f5b1c5de1", "type": "electric_scooter", "lon": -76.94820833333333, "rental_uris": {"android": "https://dc.lft.to/lastmile_qr_scan", "ios": "https://dc.lft.to/lastmile_qr_scan"}, "lat": 38.88511333333334, "is_reserved": 0, "is_disabled": 0, "fusion_lat": 0.0}, {"fusion_lon": 0.0, "bike_id": "006449bc4ec2eb04f8ee60016fc8a76e", "name": "006449bc4ec2eb04f8ee60016fc8a76e", "type": "electric_scooter", "lon": -77.03735733333333, "rental_uris": {"android": "https://dc.lft.to/lastmile_qr_scan", "ios": "https://dc.lft.to/lastmile_qr_scan"}, "lat": 38.90959983333333, "is_reserved": 0, "is_disabled": 0, "fusion_lat": 0.0}, {"fusion_lon": 0.0, "bike_id": "8730ccce2bed0f9b7fe01d2f92f180af", "name": "8730ccce2bed0f9b7fe01d2f92f180af", "type": "electric_scooter", "lon": -77.0160865, "rental_uris": {"android": "https://dc.lft.to/lastmile_qr_scan", "ios": "https://dc.lft.to/lastmile_qr_scan"}, "lat": 38.901623666666666, "is_reserved": 0, "is_disabled": 0, "fusion_lat": 0.0}, {"fusion_lon": 0.0, "bike_id": "1854e6b434b4f4076b70d05d347cf722", "name": "1854e6b434b4f4076b70d05d347cf722", "type": "electric_scooter", "lon": -77.027581, "rental_uris": {"android": "https://dc.lft.to/lastmile_qr_scan", "ios": "https://dc.lft.to/lastmile_qr_scan"}, "lat": 38.91690933333334, "is_reserved": 0, "is_disabled": 0, "fusion_lat": 0.0}, {"fusion_lon": 0.0, "bike_id": "00c7cb2547aadbc49afce3999d1438c1", "name": "00c7cb2547aadbc49afce3999d1438c1", "type": "electric_bike", "lon": -76.99940833333334, "rental_uris": {"android": "https://dc.lft.to/lastmile_qr_scan", "ios": "https://dc.lft.to/lastmile_qr_scan"}, "lat": 38.88206266666667, "is_reserved": 0, "is_disabled": 0, "fusion_lat": 0.0}, {"fusion_lon": 0.0, "bike_id": "7055e700c2be4a85e7aca089ac7cb28a", "name": "7055e700c2be4a85e7aca089ac7cb28a", "type": "electric_scooter", "lon": -77.02676016666666, "rental_uris": {"android": "https://dc.lft.to/lastmile_qr_scan", "ios": "https://dc.lft.to/lastmile_qr_scan"}, "lat": 38.933180166666666, "is_reserved": 0, "is_disabled": 0, "fusion_lat": 0.0}, {"fusion_lon": 0.0, "bike_id": "c99e1579c56634c1c7a597939849fc48", "name": "c99e1579c56634c1c7a597939849fc48", "type": "electric_scooter", "lon": -77.02419916666666, "rental_uris": {"android": "https://dc.lft.to/lastmile_qr_scan", "ios": "https://dc.lft.to/lastmile_qr_scan"}, "lat": 38.905652833333335, "is_reserved": 0, "is_disabled": 0, "fusion_lat": 0.0}, {"fusion_lon": 0.0, "bike_id": "3a1d71633cd675ac77ec21a4c936537b", "name": "3a1d71633cd675ac77ec21a4c936537b", "type": "electric_scooter", "lon": -77.03456666666666, "rental_uris": {"android": "https://dc.lft.to/lastmile_qr_scan", "ios": "https://dc.lft.to/lastmile_qr_scan"}, "lat": 38.905575166666665, "is_reserved": 0, "is_disabled": 0, "fusion_lat": 0.0}, {"fusion_lon": 0.0, "bike_id": "befa5ade18f37771aaa7ea5f400a640e", "name": "befa5ade18f37771aaa7ea5f400a640e", "type": "electric_scooter", "lon": -77.02277716666667, "rental_uris": {"android": "https://dc.lft.to/lastmile_qr_scan", "ios": "https://dc.lft.to/lastmile_qr_scan"}, "lat": 38.916546833333335, "is_reserved": 0, "is_disabled": 0, "fusion_lat": 0.0}, {"fusion_lon": 0.0, "bike_id": "a169c06bf8541ae452aa51bc185f8656", "name": "a169c06bf8541ae452aa51bc185f8656", "type": "electric_scooter", "lon": -77.05437033333334, "rental_uris": {"android": "https://dc.lft.to/lastmile_qr_scan", "ios": "https://dc.lft.to/lastmile_qr_scan"}, "lat": 38.89603, "is_reserved": 0, "is_disabled": 0, "fusion_lat": 0.0}, {"fusion_lon": 0.0, "bike_id": "3fbd5c8318ec010379c36a0f18a491f6", "name": "3fbd5c8318ec010379c36a0f18a491f6", "type": "electric_scooter", "lon": -77.019524, "rental_uris": {"android": "https://dc.lft.to/lastmile_qr_scan", "ios": "https://dc.lft.to/lastmile_qr_scan"}, "lat": 38.92248416666666, "is_reserved": 0, "is_disabled": 0, "fusion_lat": 0.0}, {"fusion_lon": 0.0, "bike_id": "061da4725299fc5d6133bc5f80a60647", "name": "061da4725299fc5d6133bc5f80a60647", "type": "electric_scooter", "lon": -77.02946283333333, "rental_uris": {"android": "https://dc.lft.to/lastmile_qr_scan", "ios": "https://dc.lft.to/lastmile_qr_scan"}, "lat": 38.90510783333333, "is_reserved": 0, "is_disabled": 0, "fusion_lat": 0.0}, {"fusion_lon": 0.0, "bike_id": "2578415d340d223375f6a9a40a7c2fd0", "name": "2578415d340d223375f6a9a40a7c2fd0", "type": "electric_bike", "lon": -77.0697965, "rental_uris": {"android": "https://dc.lft.to/lastmile_qr_scan", "ios": "https://dc.lft.to/lastmile_qr_scan"}, "lat": 38.95260316666667, "is_reserved": 0, "is_disabled": 0, "fusion_lat": 0.0}, {"fusion_lon": 0.0, "bike_id": "7e369cffbb18686eb55823fd67d13c49", "name": "7e369cffbb18686eb55823fd67d13c49", "type": "electric_scooter", "lon": -77.040739, "rental_uris": {"android": "https://dc.lft.to/lastmile_qr_scan", "ios": "https://dc.lft.to/lastmile_qr_scan"}, "lat": 38.898476333333335, "is_reserved": 0, "is_disabled": 0, "fusion_lat": 0.0}, {"fusion_lon": 0.0, "bike_id": "ef01fbc1a435ea3bcaf27c49e30ad0d3", "name": "ef01fbc1a435ea3bcaf27c49e30ad0d3", "type": "electric_scooter", "lon": -77.03145833333333, "rental_uris": {"android": "https://dc.lft.to/lastmile_qr_scan", "ios": "https://dc.lft.to/lastmile_qr_scan"}, "lat": 38.8874535, "is_reserved": 0, "is_disabled": 0, "fusion_lat": 0.0}, {"fusion_lon": 0.0, "bike_id": "137a6fe357bf29404b9250cd36793767", "name": "137a6fe357bf29404b9250cd36793767", "type": "electric_bike", "lon": -76.98376133333333, "rental_uris": {"android": "https://dc.lft.to/lastmile_qr_scan", "ios": "https://dc.lft.to/lastmile_qr_scan"}, "lat": 38.91461866666667, "is_reserved": 0, "is_disabled": 0, "fusion_lat": 0.0}, {"fusion_lon": 0.0, "bike_id": "3deaac0fb654a25b413a8b6e15509af3", "name": "3deaac0fb654a25b413a8b6e15509af3", "type": "electric_scooter", "lon": -77.024518, "rental_uris": {"android": "https://dc.lft.to/lastmile_qr_scan", "ios": "https://dc.lft.to/lastmile_qr_scan"}, "lat": 38.928902, "is_reserved": 0, "is_disabled": 0, "fusion_lat": 0.0}, {"fusion_lon": 0.0, "bike_id": "769214def20185c292214729afd14549", "name": "769214def20185c292214729afd14549", "type": "electric_scooter", "lon": -77.0421605, "rental_uris": {"android": "https://dc.lft.to/lastmile_qr_scan", "ios": "https://dc.lft.to/lastmile_qr_scan"}, "lat": 38.9170965, "is_reserved": 0, "is_disabled": 0, "fusion_lat": 0.0}, {"fusion_lon": 0.0, "bike_id": "77365aa762b0cfebe6662938f1f3539d", "name": "77365aa762b0cfebe6662938f1f3539d", "type": "electric_scooter", "lon": -77.03832783333333, "rental_uris": {"android": "https://dc.lft.to/lastmile_qr_scan", "ios": "https://dc.lft.to/lastmile_qr_scan"}, "lat": 38.915636666666664, "is_reserved": 0, "is_disabled": 0, "fusion_lat": 0.0}, {"fusion_lon": 0.0, "bike_id": "fc3c0881ed18b37126fb50fdad8b4e13", "name": "fc3c0881ed18b37126fb50fdad8b4e13", "type": "electric_scooter", "lon": -77.03283333333333, "rental_uris": {"android": "https://dc.lft.to/lastmile_qr_scan", "ios": "https://dc.lft.to/lastmile_qr_scan"}, "lat": 38.93748566666667, "is_reserved": 0, "is_disabled": 0, "fusion_lat": 0.0}, {"fusion_lon": 0.0, "bike_id": "b5155e458629a01cf81433ee1b268ed1", "name": "b5155e458629a01cf81433ee1b268ed1", "type": "electric_scooter", "lon": -77.00737533333333, "rental_uris": {"android": "https://dc.lft.to/lastmile_qr_scan", "ios": "https://dc.lft.to/lastmile_qr_scan"}, "lat": 38.90367066666666, "is_reserved": 0, "is_disabled": 0, "fusion_lat": 0.0}, {"fusion_lon": 0.0, "bike_id": "e1d369d719cb84d07a502a6e86ed1cca", "name": "e1d369d719cb84d07a502a6e86ed1cca", "type": "electric_scooter", "lon": -77.041825, "rental_uris": {"android": "https://dc.lft.to/lastmile_qr_scan", "ios": "https://dc.lft.to/lastmile_qr_scan"}, "lat": 38.923343833333334, "is_reserved": 0, "is_disabled": 0, "fusion_lat": 0.0}, {"fusion_lon": 0.0, "bike_id": "58456e2cfc7e7357e91c37c273bffca7", "name": "58456e2cfc7e7357e91c37c273bffca7", "type": "electric_scooter", "lon": -77.036412, "rental_uris": {"android": "https://dc.lft.to/lastmile_qr_scan", "ios": "https://dc.lft.to/lastmile_qr_scan"}, "lat": 38.917599833333334, "is_reserved": 0, "is_disabled": 0, "fusion_lat": 0.0}, {"fusion_lon": 0.0, "bike_id": "4e66c8d61176cb0a18e3241a73739f3b", "name": "4e66c8d61176cb0a18e3241a73739f3b", "type": "electric_scooter", "lon": -77.03179416666667, "rental_uris": {"android": "https://dc.lft.to/lastmile_qr_scan", "ios": "https://dc.lft.to/lastmile_qr_scan"}, "lat": 38.9051405, "is_reserved": 0, "is_disabled": 0, "fusion_lat": 0.0}, {"fusion_lon": 0.0, "bike_id": "3132233115a12825604a4cd7fca9e71e", "name": "3132233115a12825604a4cd7fca9e71e", "type": "electric_scooter", "lon": -77.05515816666667, "rental_uris": {"android": "https://dc.lft.to/lastmile_qr_scan", "ios": "https://dc.lft.to/lastmile_qr_scan"}, "lat": 38.944142, "is_reserved": 0, "is_disabled": 0, "fusion_lat": 0.0}, {"fusion_lon": 0.0, "bike_id": "42b31f38842a096e1aa8654ea17b4def", "name": "42b31f38842a096e1aa8654ea17b4def", "type": "electric_scooter", "lon": -77.02963333333334, "rental_uris": {"android": "https://dc.lft.to/lastmile_qr_scan", "ios": "https://dc.lft.to/lastmile_qr_scan"}, "lat": 38.90490283333333, "is_reserved": 0, "is_disabled": 0, "fusion_lat": 0.0}, {"fusion_lon": 0.0, "bike_id": "bcbe180d3083797eee51574eeed9b452", "name": "bcbe180d3083797eee51574eeed9b452", "type": "electric_scooter", "lon": -77.01191583333333, "rental_uris": {"android": "https://dc.lft.to/lastmile_qr_scan", "ios": "https://dc.lft.to/lastmile_qr_scan"}, "lat": 38.88770783333333, "is_reserved": 0, "is_disabled": 0, "fusion_lat": 0.0}, {"fusion_lon": 0.0, "bike_id": "6d0fec1bbb41fed7caee101dee540ed0", "name": "6d0fec1bbb41fed7caee101dee540ed0", "type": "electric_scooter", "lon": -77.04190566666666, "rental_uris": {"android": "https://dc.lft.to/lastmile_qr_scan", "ios": "https://dc.lft.to/lastmile_qr_scan"}, "lat": 38.905292333333335, "is_reserved": 0, "is_disabled": 0, "fusion_lat": 0.0}, {"fusion_lon": 0.0, "bike_id": "a44cd085ee40e56a2e7d1f3146ec6405", "name": "a44cd085ee40e56a2e7d1f3146ec6405", "type": "electric_scooter", "lon": -77.00205433333333, "rental_uris": {"android": "https://dc.lft.to/lastmile_qr_scan", "ios": "https://dc.lft.to/lastmile_qr_scan"}, "lat": 38.89999783333333, "is_reserved": 0, "is_disabled": 0, "fusion_lat": 0.0}, {"fusion_lon": 0.0, "bike_id": "e02b4b297aa16457be228a441cf5a9fb", "name": "e02b4b297aa16457be228a441cf5a9fb", "type": "electric_scooter", "lon": -76.98917166666666, "rental_uris": {"android": "https://dc.lft.to/lastmile_qr_scan", "ios": "https://dc.lft.to/lastmile_qr_scan"}, "lat": 38.90222816666667, "is_reserved": 0, "is_disabled": 0, "fusion_lat": 0.0}, {"fusion_lon": 0.0, "bike_id": "a319650d6a401e3929e2a1ec24d09ae7", "name": "a319650d6a401e3929e2a1ec24d09ae7", "type": "electric_scooter", "lon": -77.013633, "rental_uris": {"android": "https://dc.lft.to/lastmile_qr_scan", "ios": "https://dc.lft.to/lastmile_qr_scan"}, "lat": 38.88635266666667, "is_reserved": 0, "is_disabled": 0, "fusion_lat": 0.0}, {"fusion_lon": 0.0, "bike_id": "c34902cad7aaac7a99c8de15ef9c9882", "name": "c34902cad7aaac7a99c8de15ef9c9882", "type": "electric_scooter", "lon": -77.01502283333333, "rental_uris": {"android": "https://dc.lft.to/lastmile_qr_scan", "ios": "https://dc.lft.to/lastmile_qr_scan"}, "lat": 38.901412, "is_reserved": 0, "is_disabled": 0, "fusion_lat": 0.0}, {"fusion_lon": 0.0, "bike_id": "9701cf349d98597c3ece8525dbf610ed", "name": "9701cf349d98597c3ece8525dbf610ed", "type": "electric_scooter", "lon": -77.016371, "rental_uris": {"android": "https://dc.lft.to/lastmile_qr_scan", "ios": "https://dc.lft.to/lastmile_qr_scan"}, "lat": 38.90120733333333, "is_reserved": 0, "is_disabled": 0, "fusion_lat": 0.0}, {"fusion_lon": 0.0, "bike_id": "b5920886e802630a1507a942d7d67da1", "name": "b5920886e802630a1507a942d7d67da1", "type": "electric_bike", "lon": -77.015594, "rental_uris": {"android": "https://dc.lft.to/lastmile_qr_scan", "ios": "https://dc.lft.to/lastmile_qr_scan"}, "lat": 38.950145666666664, "is_reserved": 0, "is_disabled": 0, "fusion_lat": 0.0}, {"fusion_lon": 0.0, "bike_id": "7032564834f0ca0b629f6962e36239ff", "name": "7032564834f0ca0b629f6962e36239ff", "type": "electric_scooter", "lon": -77.031796, "rental_uris": {"android": "https://dc.lft.to/lastmile_qr_scan", "ios": "https://dc.lft.to/lastmile_qr_scan"}, "lat": 38.913489166666665, "is_reserved": 0, "is_disabled": 0, "fusion_lat": 0.0}, {"fusion_lon": 0.0, "bike_id": "dcb910a44ab77351599cb2f209de0b2b", "name": "dcb910a44ab77351599cb2f209de0b2b", "type": "electric_scooter", "lon": -77.013577, "rental_uris": {"android": "https://dc.lft.to/lastmile_qr_scan", "ios": "https://dc.lft.to/lastmile_qr_scan"}, "lat": 38.928863, "is_reserved": 0, "is_disabled": 0, "fusion_lat": 0.0}, {"fusion_lon": 0.0, "bike_id": "153b854c42cc635cefd06d2b82e99f3b", "name": "153b854c42cc635cefd06d2b82e99f3b", "type": "electric_scooter", "lon": -77.05799866666666, "rental_uris": {"android": "https://dc.lft.to/lastmile_qr_scan", "ios": "https://dc.lft.to/lastmile_qr_scan"}, "lat": 38.934989, "is_reserved": 0, "is_disabled": 0, "fusion_lat": 0.0}, {"fusion_lon": 0.0, "bike_id": "96548d1fee2be305233623bc1899e7bf", "name": "96548d1fee2be305233623bc1899e7bf", "type": "electric_scooter", "lon": -77.02852516666667, "rental_uris": {"android": "https://dc.lft.to/lastmile_qr_scan", "ios": "https://dc.lft.to/lastmile_qr_scan"}, "lat": 38.93270733333333, "is_reserved": 0, "is_disabled": 0, "fusion_lat": 0.0}, {"fusion_lon": 0.0, "bike_id": "3e46c9c83e000f5c59a966de0e7ff1e3", "name": "3e46c9c83e000f5c59a966de0e7ff1e3", "type": "electric_scooter", "lon": -77.04868033333334, "rental_uris": {"android": "https://dc.lft.to/lastmile_qr_scan", "ios": "https://dc.lft.to/lastmile_qr_scan"}, "lat": 38.90911116666667, "is_reserved": 0, "is_disabled": 0, "fusion_lat": 0.0}, {"fusion_lon": 0.0, "bike_id": "e9002d2f67cfd22277b62c66caeaad06", "name": "e9002d2f67cfd22277b62c66caeaad06", "type": "electric_scooter", "lon": -77.05749366666667, "rental_uris": {"android": "https://dc.lft.to/lastmile_qr_scan", "ios": "https://dc.lft.to/lastmile_qr_scan"}, "lat": 38.924987, "is_reserved": 0, "is_disabled": 0, "fusion_lat": 0.0}, {"fusion_lon": 0.0, "bike_id": "233dca6b5b7d455bce79bd648f9e2b3e", "name": "233dca6b5b7d455bce79bd648f9e2b3e", "type": "electric_bike", "lon": -76.9053205, "rental_uris": {"android": "https://dc.lft.to/lastmile_qr_scan", "ios": "https://dc.lft.to/lastmile_qr_scan"}, "lat": 38.897345, "is_reserved": 0, "is_disabled": 0, "fusion_lat": 0.0}, {"fusion_lon": 0.0, "bike_id": "f6e8d597f7e73f6d92d61471eb341f6a", "name": "f6e8d597f7e73f6d92d61471eb341f6a", "type": "electric_scooter", "lon": -77.00256983333334, "rental_uris": {"android": "https://dc.lft.to/lastmile_qr_scan", "ios": "https://dc.lft.to/lastmile_qr_scan"}, "lat": 38.9109435, "is_reserved": 0, "is_disabled": 0, "fusion_lat": 0.0}, {"fusion_lon": 0.0, "bike_id": "1f0dc71a429e78bbf4bccfd48e73da45", "name": "1f0dc71a429e78bbf4bccfd48e73da45", "type": "electric_scooter", "lon": -77.01369916666667, "rental_uris": {"android": "https://dc.lft.to/lastmile_qr_scan", "ios": "https://dc.lft.to/lastmile_qr_scan"}, "lat": 38.892194833333335, "is_reserved": 0, "is_disabled": 0, "fusion_lat": 0.0}, {"fusion_lon": 0.0, "bike_id": "2fb9d8791ca8f8b2c256fe51f78343fe", "name": "2fb9d8791ca8f8b2c256fe51f78343fe", "type": "electric_scooter", "lon": -77.06927283333333, "rental_uris": {"android": "https://dc.lft.to/lastmile_qr_scan", "ios": "https://dc.lft.to/lastmile_qr_scan"}, "lat": 38.91328433333334, "is_reserved": 0, "is_disabled": 0, "fusion_lat": 0.0}, {"fusion_lon": 0.0, "bike_id": "38a7186f5e1719c773f1328476836689", "name": "38a7186f5e1719c773f1328476836689", "type": "electric_scooter", "lon": -77.01875166666666, "rental_uris": {"android": "https://dc.lft.to/lastmile_qr_scan", "ios": "https://dc.lft.to/lastmile_qr_scan"}, "lat": 38.900240833333335, "is_reserved": 0, "is_disabled": 0, "fusion_lat": 0.0}, {"fusion_lon": 0.0, "bike_id": "8a98f7c11a80432e0490bcd6ab9c42e0", "name": "8a98f7c11a80432e0490bcd6ab9c42e0", "type": "electric_scooter", "lon": -77.03853683333334, "rental_uris": {"android": "https://dc.lft.to/lastmile_qr_scan", "ios": "https://dc.lft.to/lastmile_qr_scan"}, "lat": 38.909831833333335, "is_reserved": 0, "is_disabled": 0, "fusion_lat": 0.0}, {"fusion_lon": 0.0, "bike_id": "5853691a471d79e6ba941b30d257bb12", "name": "5853691a471d79e6ba941b30d257bb12", "type": "electric_scooter", "lon": -77.03839333333333, "rental_uris": {"android": "https://dc.lft.to/lastmile_qr_scan", "ios": "https://dc.lft.to/lastmile_qr_scan"}, "lat": 38.912103333333334, "is_reserved": 0, "is_disabled": 0, "fusion_lat": 0.0}, {"fusion_lon": 0.0, "bike_id": "8131ab71999edaf518fd70cc45a7acb4", "name": "8131ab71999edaf518fd70cc45a7acb4", "type": "electric_scooter", "lon": -77.034583, "rental_uris": {"android": "https://dc.lft.to/lastmile_qr_scan", "ios": "https://dc.lft.to/lastmile_qr_scan"}, "lat": 38.91814766666667, "is_reserved": 0, "is_disabled": 0, "fusion_lat": 0.0}, {"fusion_lon": 0.0, "bike_id": "9d255cabec03ee2e6d16c5ca02ac9cb9", "name": "9d255cabec03ee2e6d16c5ca02ac9cb9", "type": "electric_scooter", "lon": -77.0486165, "rental_uris": {"android": "https://dc.lft.to/lastmile_qr_scan", "ios": "https://dc.lft.to/lastmile_qr_scan"}, "lat": 38.892229666666665, "is_reserved": 0, "is_disabled": 0, "fusion_lat": 0.0}, {"fusion_lon": 0.0, "bike_id": "7bf944844b02cc0c0bcc007c77893e10", "name": "7bf944844b02cc0c0bcc007c77893e10", "type": "electric_scooter", "lon": -76.98693683333333, "rental_uris": {"android": "https://dc.lft.to/lastmile_qr_scan", "ios": "https://dc.lft.to/lastmile_qr_scan"}, "lat": 38.90703716666667, "is_reserved": 0, "is_disabled": 0, "fusion_lat": 0.0}, {"fusion_lon": 0.0, "bike_id": "08ced0432bf4f748426bcc1fd9d205dc", "name": "08ced0432bf4f748426bcc1fd9d205dc", "type": "electric_scooter", "lon": -77.03572433333333, "rental_uris": {"android": "https://dc.lft.to/lastmile_qr_scan", "ios": "https://dc.lft.to/lastmile_qr_scan"}, "lat": 38.8818065, "is_reserved": 0, "is_disabled": 0, "fusion_lat": 0.0}, {"fusion_lon": 0.0, "bike_id": "e4f0f28dce325e4b9fa4263e0ba2347f", "name": "e4f0f28dce325e4b9fa4263e0ba2347f", "type": "electric_scooter", "lon": -77.0411675, "rental_uris": {"android": "https://dc.lft.to/lastmile_qr_scan", "ios": "https://dc.lft.to/lastmile_qr_scan"}, "lat": 38.910456, "is_reserved": 0, "is_disabled": 0, "fusion_lat": 0.0},