{"data": {"bikes": [{"lon": -77.02294883333333, "is_disabled": 0, "lat": 38.901266666666665, "fusion_lat": 0.0, "is_reserved": 0, "rental_uris": {"ios": "https://dc.lft.to/lastmile_qr_scan", "android": "https://dc.lft.to/lastmile_qr_scan"}, "fusion_lon": 0.0, "type": "electric_scooter", "bike_id": "cfcb072cbba4925754a7aa4aeb31e842", "name": "cfcb072cbba4925754a7aa4aeb31e842"}, {"lon": -77.0398, "is_disabled": 0, "lat": 38.8921585, "fusion_lat": 0.0, "is_reserved": 0, "rental_uris": {"ios": "https://dc.lft.to/lastmile_qr_scan", "android": "https://dc.lft.to/lastmile_qr_scan"}, "fusion_lon": 0.0, "type": "electric_scooter", "bike_id": "f073e6640499c0d390495f3d56d72f5d", "name": "f073e6640499c0d390495f3d56d72f5d"}, {"lon": -77.02403266666667, "is_disabled": 0, "lat": 38.93455083333333, "fusion_lat": 0.0, "is_reserved": 0, "rental_uris": {"ios": "https://dc.lft.to/lastmile_qr_scan", "android": "https://dc.lft.to/lastmile_qr_scan"}, "fusion_lon": 0.0, "type": "electric_scooter", "bike_id": "a3bd130a636fbf8e5aa35efe2b5f3b1a", "name": "a3bd130a636fbf8e5aa35efe2b5f3b1a"}, {"lon": -77.01772116666666, "is_disabled": 0, "lat": 38.92040383333333, "fusion_lat": 0.0, "is_reserved": 0, "rental_uris": {"ios": "https://dc.lft.to/lastmile_qr_scan", "android": "https://dc.lft.to/lastmile_qr_scan"}, "fusion_lon": 0.0, "type": "electric_scooter", "bike_id": "d9d0a6086b4bfda2d911d186ab55549e", "name": "d9d0a6086b4bfda2d911d186ab55549e"}, {"lon": -76.98844933333334, "is_disabled": 0, "lat": 38.900247, "fusion_lat": 0.0, "is_reserved": 0, "rental_uris": {"ios": "https://dc.lft.to/lastmile_qr_scan", "android": "https://dc.lft.to/lastmile_qr_scan"}, "fusion_lon": 0.0, "type": "electric_scooter", "bike_id": "35316a834d8c4d5375f067fab5b67c4b", "name": "35316a834d8c4d5375f067fab5b67c4b"}, {"lon": -76.97909166666666, "is_disabled": 0, "lat": 38.9042885, "fusion_lat": 0.0, "is_reserved": 0, "rental_uris": {"ios": "https://dc.lft.to/lastmile_qr_scan", "android": "https://dc.lft.to/lastmile_qr_scan"}, "fusion_lon": 0.0, "type": "electric_scooter", "bike_id": "c28f18c866a4bb7ee6ec75a724270ffa", "name": "c28f18c866a4bb7ee6ec75a724270ffa"}, {"lon": -77.050259, "is_disabled": 0, "lat": 38.89250633333333, "fusion_lat": 0.0, "is_reserved": 0, "rental_uris": {"ios": "https://dc.lft.to/lastmile_qr_scan", "android": "https://dc.lft.to/lastmile_qr_scan"}, "fusion_lon": 0.0, "type": "electric_scooter", "bike_id": "f65aee93da28fa45b372ef275abea019", "name": "f65aee93da28fa45b372ef275abea019"}, {"lon": -77.03345666666667, "is_disabled": 0, "lat": 38.92859583333333, "fusion_lat": 0.0, "is_reserved": 0, "rental_uris": {"ios": "https://dc.lft.to/lastmile_qr_scan", "android": "https://dc.lft.to/lastmile_qr_scan"}, "fusion_lon": 0.0, "type": "electric_scooter", "bike_id": "8d614508a097f4692f07a84dd93e6c6f", "name": "8d614508a097f4692f07a84dd93e6c6f"}, {"lon": -77.016992, "is_disabled": 0, "lat": 38.90762083333333, "fusion_lat": 0.0, "is_reserved": 0, "rental_uris": {"ios": "https://dc.lft.to/lastmile_qr_scan", "android": "https://dc.lft.to/lastmile_qr_scan"}, "fusion_lon": 0.0, "type": "electric_scooter", "bike_id": "a7d25589797b581b44b564f850d0c336", "name": "a7d25589797b581b44b564f850d0c336"}, {"lon": -77.043692, "is_disabled": 0, "lat": 38.892203, "fusion_lat": 0.0, "is_reserved": 0, "rental_uris": {"ios": "https://dc.lft.to/lastmile_qr_scan", "android": "https://dc.lft.to/lastmile_qr_scan"}, "fusion_lon": 0.0, "type": "electric_scooter", "bike_id": "e8b4db93c735e7a6c7eea165ed44ab49", "name": "e8b4db93c735e7a6c7eea165ed44ab49"}, {"lon": -76.9463775, "is_disabled": 0, "lat": 38.898634333333334, "fusion_lat": 0.0, "is_reserved": 0, "rental_uris": {"ios": "https://dc.lft.to/lastmile_qr_scan", "android": "https://dc.lft.to/lastmile_qr_scan"}, "fusion_lon": 0.0, "type": "electric_scooter", "bike_id": "6ee62ed69d7e97920784e696b6415afc", "name": "6ee62ed69d7e97920784e696b6415afc"}, {"lon": -77.02316083333334, "is_disabled": 0, "lat": 38.90726516666667, "fusion_lat": 0.0, "is_reserved": 0, "rental_uris": {"ios": "https://dc.lft.to/lastmile_qr_scan", "android": "https://dc.lft.to/lastmile_qr_scan"}, "fusion_lon": 0.0, "type": "electric_scooter", "bike_id": "c916429227d30612daf8ef3755e9c7cb", "name": "c916429227d30612daf8ef3755e9c7cb"}, {"lon": -77.07059116666667, "is_disabled": 0, "lat": 38.901059333333336, "fusion_lat": 0.0, "is_reserved": 0, "rental_uris": {"ios": "https://dc.lft.to/lastmile_qr_scan", "android": "https://dc.lft.to/lastmile_qr_scan"}, "fusion_lon": 0.0, "type": "electric_scooter", "bike_id": "a86ea457956a7b5eeb90dbc55ec8f46a", "name": "a86ea457956a7b5eeb90dbc55ec8f46a"}, {"lon": -77.0448295, "is_disabled": 0, "lat": 38.89523616666666, "fusion_lat": 0.0, "is_reserved": 0, "rental_uris": {"ios": "https://dc.lft.to/lastmile_qr_scan", "android": "https://dc.lft.to/lastmile_qr_scan"}, "fusion_lon": 0.0, "type": "electric_scooter", "bike_id": "9c5fe2a7472ca1ba29ebb6e465616bc0", "name": "9c5fe2a7472ca1ba29ebb6e465616bc0"}, {"lon": -77.00197716666666, "is_disabled": 0, "lat": 38.902624, "fusion_lat": 0.0, "is_reserved": 0, "rental_uris": {"ios": "https://dc.lft.to/lastmile_qr_scan", "android": "https://dc.lft.to/lastmile_qr_scan"}, "fusion_lon": 0.0, "type": "electric_scooter", "bike_id": "e3b858cf205cadf8d0701a302228cf81", "name": "e3b858cf205cadf8d0701a302228cf81"}, {"lon": -77.02195266666666, "is_disabled": 0, "lat": 38.95009066666667, "fusion_lat": 0.0, "is_reserved": 0, "rental_uris": {"ios": "https://dc.lft.to/lastmile_qr_scan", "android": "https://dc.lft.to/lastmile_qr_scan"}, "fusion_lon": 0.0, "type": "electric_scooter", "bike_id": "0c3710795e8f8de35d70aaec7ee20403", "name": "0c3710795e8f8de35d70aaec7ee20403"}, {"lon": -77.04155916666667, "is_disabled": 0, "lat": 38.90664016666667, "fusion_lat": 0.0, "is_reserved": 0, "rental_uris": {"ios": "https://dc.lft.to/lastmile_qr_scan", "android": "https://dc.lft.to/lastmile_qr_scan"}, "fusion_lon": 0.0, "type": "electric_scooter", "bike_id": "234debec006351380bbaf61753752b36", "name": "234debec006351380bbaf61753752b36"}, {"lon": -76.94250466666666, "is_disabled": 0, "lat": 38.897403833333335, "fusion_lat": 0.0, "is_reserved": 0, "rental_uris": {"ios": "https://dc.lft.to/lastmile_qr_scan", "android": "https://dc.lft.to/lastmile_qr_scan"}, "fusion_lon": 0.0, "type": "electric_bike", "bike_id": "73c170f5095097a0295d88ee6b72e9be", "name": "73c170f5095097a0295d88ee6b72e9be"}, {"lon": -77.01306516666666, "is_disabled": 0, "lat": 38.92965683333333, "fusion_lat": 0.0, "is_reserved": 0, "rental_uris": {"ios": "https://dc.lft.to/lastmile_qr_scan", "android": "https://dc.lft.to/lastmile_qr_scan"}, "fusion_lon": 0.0, "type": "electric_bike", "bike_id": "a24afaa901db38576966f5657d0ed9f4", "name": "a24afaa901db38576966f5657d0ed9f4"}, {"lon": -77.04839983333333, "is_disabled": 0, "lat": 38.916177166666664, "fusion_lat": 0.0, "is_reserved": 0, "rental_uris": {"ios": "https://dc.lft.to/lastmile_qr_scan", "android": "https://dc.lft.to/lastmile_qr_scan"}, "fusion_lon": 0.0, "type": "electric_scooter", "bike_id": "01bc0836edb465db7c3f8afaca7fa796", "name": "01bc0836edb465db7c3f8afaca7fa796"}, {"lon": -76.9871665, "is_disabled": 0, "lat": 38.866247, "fusion_lat": 0.0, "is_reserved": 0, "rental_uris": {"ios": "https://dc.lft.to/lastmile_qr_scan", "android": "https://dc.lft.to/lastmile_qr_scan"}, "fusion_lon": 0.0, "type": "electric_scooter", "bike_id": "bc4db847f7288e6ddd84ad4c443832bf", "name": "bc4db847f7288e6ddd84ad4c443832bf"}, {"lon": -77.02305233333334, "is_disabled": 0, "lat": 38.8969765, "fusion_lat": 0.0, "is_reserved": 0, "rental_uris": {"ios": "https://dc.lft.to/lastmile_qr_scan", "android": "https://dc.lft.to/lastmile_qr_scan"}, "fusion_lon": 0.0, "type": "electric_scooter", "bike_id": "eb566fa671d2e04d852fcad83db98b55", "name": "eb566fa671d2e04d852fcad83db98b55"}, {"lon": -77.0239675, "is_disabled": 0, "lat": 38.905621, "fusion_lat": 0.0, "is_reserved": 0, "rental_uris": {"ios": "https://dc.lft.to/lastmile_qr_scan", "android": "https://dc.lft.to/lastmile_qr_scan"}, "fusion_lon": 0.0, "type": "electric_scooter", "bike_id": "1b2b68248ddee0513c39f93c66fc5665", "name": "1b2b68248ddee0513c39f93c66fc5665"}, {"lon": -76.985754, "is_disabled": 0, "lat": 38.86684783333333, "fusion_lat": 0.0, "is_reserved": 0, "rental_uris": {"ios": "https://dc.lft.to/lastmile_qr_scan", "android": "https://dc.lft.to/lastmile_qr_scan"}, "fusion_lon": 0.0, "type": "electric_scooter", "bike_id": "f2f9207fda24f661e90abcedecf33166", "name": "f2f9207fda24f661e90abcedecf33166"}, {"lon": -77.01363266666667, "is_disabled": 0, "lat": 38.886409666666665, "fusion_lat": 0.0, "is_reserved": 0, "rental_uris": {"ios": "https://dc.lft.to/lastmile_qr_scan", "android": "https://dc.lft.to/lastmile_qr_scan"}, "fusion_lon": 0.0, "type": "electric_scooter", "bike_id": "173d645d53200fb5bafa19585a4f3b94", "name": "173d645d53200fb5bafa19585a4f3b94"}, {"lon": -77.0291575, "is_disabled": 0, "lat": 38.90166033333333, "fusion_lat": 0.0, "is_reserved": 0, "rental_uris": {"ios": "https://dc.lft.to/lastmile_qr_scan", "android": "https://dc.lft.to/lastmile_qr_scan"}, "fusion_lon": 0.0, "type": "electric_scooter", "bike_id": "370aa1e65312e6cd0235deabe806c5ce", "name": "370aa1e65312e6cd0235deabe806c5ce"}, {"lon": -77.02450983333334, "is_disabled": 0, "lat": 38.9482655, "fusion_lat": 0.0, "is_reserved": 0, "rental_uris": {"ios": "https://dc.lft.to/lastmile_qr_scan", "android": "https://dc.lft.to/lastmile_qr_scan"}, "fusion_lon": 0.0, "type": "electric_scooter", "bike_id": "d72a13412587508e3d7aca6b0d1ab43c", "name": "d72a13412587508e3d7aca6b0d1ab43c"}, {"lon": -77.02374333333333, "is_disabled": 0, "lat": 38.901995, "fusion_lat": 0.0, "is_reserved": 0, "rental_uris": {"ios": "https://dc.lft.to/lastmile_qr_scan", "android": "https://dc.lft.to/lastmile_qr_scan"}, "fusion_lon": 0.0, "type": "electric_scooter", "bike_id": "ff07a38196dbd69b1779d00c1942f6b4", "name": "ff07a38196dbd69b1779d00c1942f6b4"}, {"lon": -77.00686133333333, "is_disabled": 0, "lat": 38.90014433333333, "fusion_lat": 0.0, "is_reserved": 0, "rental_uris": {"ios": "https://dc.lft.to/lastmile_qr_scan", "android": "https://dc.lft.to/lastmile_qr_scan"}, "fusion_lon": 0.0, "type": "electric_scooter", "bike_id": "af0e34af0ee4e7ad9653225ea54d81d4", "name": "af0e34af0ee4e7ad9653225ea54d81d4"}, {"lon": -77.04260866666667, "is_disabled": 0, "lat": 38.90855216666667, "fusion_lat": 0.0, "is_reserved": 0, "rental_uris": {"ios": "https://dc.lft.to/lastmile_qr_scan", "android": "https://dc.lft.to/lastmile_qr_scan"}, "fusion_lon": 0.0, "type": "electric_scooter", "bike_id": "d4a28bbe82bfbd7d42a411e9b13e3f78", "name": "d4a28bbe82bfbd7d42a411e9b13e3f78"}, {"lon": -76.98034483333333, "is_disabled": 0, "lat": 38.90788033333333, "fusion_lat": 0.0, "is_reserved": 0, "rental_uris": {"ios": "https://dc.lft.to/lastmile_qr_scan", "android": "https://dc.lft.to/lastmile_qr_scan"}, "fusion_lon": 0.0, "type": "electric_scooter", "bike_id": "a9aedd3793456c58de8a10ebcb715bff", "name": "a9aedd3793456c58de8a10ebcb715bff"}, {"lon": -77.0149015, "is_disabled": 0, "lat": 38.892240666666666, "fusion_lat": 0.0, "is_reserved": 0, "rental_uris": {"ios": "https://dc.lft.to/lastmile_qr_scan", "android": "https://dc.lft.to/lastmile_qr_scan"}, "fusion_lon": 0.0, "type": "electric_scooter", "bike_id": "468d061d6c248fc063fa1b5ad9a2702a", "name": "468d061d6c248fc063fa1b5ad9a2702a"}, {"lon": -77.03208683333334, "is_disabled": 0, "lat": 38.8979495, "fusion_lat": 0.0, "is_reserved": 0, "rental_uris": {"ios": "https://dc.lft.to/lastmile_qr_scan", "android": "https://dc.lft.to/lastmile_qr_scan"}, "fusion_lon": 0.0, "type": "electric_scooter", "bike_id": "4f92bc1d3df372139a3b6031b67a6eda", "name": "4f92bc1d3df372139a3b6031b67a6eda"}, {"lon": -77.02309783333334, "is_disabled": 0, "lat": 38.917828166666666, "fusion_lat": 0.0, "is_reserved": 0, "rental_uris": {"ios": "https://dc.lft.to/lastmile_qr_scan", "android": "https://dc.lft.to/lastmile_qr_scan"}, "fusion_lon": 0.0, "type": "electric_scooter", "bike_id": "e9000de71bd0ff66390bb2037357c313", "name": "e9000de71bd0ff66390bb2037357c313"}, {"lon": -77.027161, "is_disabled": 0, "lat": 38.90717566666667, "fusion_lat": 0.0, "is_reserved": 0, "rental_uris": {"ios": "https://dc.lft.to/lastmile_qr_scan", "android": "https://dc.lft.to/lastmile_qr_scan"}, "fusion_lon": 0.0, "type": "electric_scooter", "bike_id": "928c1f44c98a47e825a64c61fada0b32", "name": "928c1f44c98a47e825a64c61fada0b32"}, {"lon": -77.05905033333333, "is_disabled": 0, "lat": 38.901546833333335, "fusion_lat": 0.0, "is_reserved": 0, "rental_uris": {"ios": "https://dc.lft.to/lastmile_qr_scan", "android": "https://dc.lft.to/lastmile_qr_scan"}, "fusion_lon": 0.0, "type": "electric_scooter", "bike_id": "3554aa87fb7576fccb63b6f5930e7396", "name": "3554aa87fb7576fccb63b6f5930e7396"}, {"lon": -77.047676, "is_disabled": 0, "lat": 38.91764966666667, "fusion_lat": 0.0, "is_reserved": 0, "rental_uris": {"ios": "https://dc.lft.to/lastmile_qr_scan", "android": "https://dc.lft.to/lastmile_qr_scan"}, "fusion_lon": 0.0, "type": "electric_scooter", "bike_id": "b6d39a7cb86e717b812c5a04e96caf92", "name": "b6d39a7cb86e717b812c5a04e96caf92"}, {"lon": -77.0200145, "is_disabled": 0, "lat": 38.89735483333333, "fusion_lat": 0.0, "is_reserved": 0, "rental_uris": {"ios": "https://dc.lft.to/lastmile_qr_scan", "android": "https://dc.lft.to/lastmile_qr_scan"}, "fusion_lon": 0.0, "type": "electric_scooter", "bike_id": "a85bf93b5910d4235c2be992f712351e", "name": "a85bf93b5910d4235c2be992f712351e"}, {"lon": -77.02035866666667, "is_disabled": 0, "lat": 38.915532666666664, "fusion_lat": 0.0, "is_reserved": 0, "rental_uris": {"ios": "https://dc.lft.to/lastmile_qr_scan", "android": "https://dc.lft.to/lastmile_qr_scan"}, "fusion_lon": 0.0, "type": "electric_scooter", "bike_id": "5ad0cd4b6a595fd749cff9875d0f54cf", "name": "5ad0cd4b6a595fd749cff9875d0f54cf"}, {"lon": -77.0202535, "is_disabled": 0, "lat": 38.924161833333336, "fusion_lat": 0.0, "is_reserved": 0, "rental_uris": {"ios": "https://dc.lft.to/lastmile_qr_scan", "android": "https://dc.lft.to/lastmile_qr_scan"}, "fusion_lon": 0.0, "type": "electric_scooter", "bike_id": "e7717acd570ede91df981c84a2a02fb1", "name": "e7717acd570ede91df981c84a2a02fb1"}, {"lon": -77.03637083333334, "is_disabled": 0, "lat": 38.91788016666667, "fusion_lat": 0.0, "is_reserved": 0, "rental_uris": {"ios": "https://dc.lft.to/lastmile_qr_scan", "android": "https://dc.lft.to/lastmile_qr_scan"}, "fusion_lon": 0.0, "type": "electric_scooter", "bike_id": "1515f0d4c5b3fca8807db5dcbb9a6c3f", "name": "1515f0d4c5b3fca8807db5dcbb9a6c3f"}, {"lon": -77.08525516666667, "is_disabled": 0, "lat": 38.9160285, "fusion_lat": 0.0, "is_reserved": 0, "rental_uris": {"ios": "https://dc.lft.to/lastmile_qr_scan", "android": "https://dc.lft.to/lastmile_qr_scan"}, "fusion_lon": 0.0, "type": "electric_scooter", "bike_id": "be4e01ee4bb1ff5666e4f3987f12f71d", "name": "be4e01ee4bb1ff5666e4f3987f12f71d"}, {"lon": -76.97057866666667, "is_disabled": 0, "lat": 38.9846335, "fusion_lat": 0.0, "is_reserved": 0, "rental_uris": {"ios": "https://dc.lft.to/lastmile_qr_scan", "android": "https://dc.lft.to/lastmile_qr_scan"}, "fusion_lon": 0.0, "type": "electric_bike", "bike_id": "30bb019751187ddf0614c8a22b16a051", "name": "30bb019751187ddf0614c8a22b16a051"}, {"lon": -77.038162, "is_disabled": 0, "lat": 38.9025345, "fusion_lat": 0.0, "is_reserved": 0, "rental_uris": {"ios": "https://dc.lft.to/lastmile_qr_scan", "android": "https://dc.lft.to/lastmile_qr_scan"}, "fusion_lon": 0.0, "type": "electric_scooter", "bike_id": "3e1de6d3e46016841d5c592bf2e13c72", "name": "3e1de6d3e46016841d5c592bf2e13c72"}, {"lon": -77.01965733333333, "is_disabled": 0, "lat": 38.952489, "fusion_lat": 0.0, "is_reserved": 0, "rental_uris": {"ios": "https://dc.lft.to/lastmile_qr_scan", "android": "https://dc.lft.to/lastmile_qr_scan"}, "fusion_lon": 0.0, "type": "electric_scooter", "bike_id": "df3adc9dd442a2a4a538ffd25c98ff5b", "name": "df3adc9dd442a2a4a538ffd25c98ff5b"}, {"lon": -77.04111383333333, "is_disabled": 0, "lat": 38.925281, "fusion_lat": 0.0, "is_reserved": 0, "rental_uris": {"ios": "https://dc.lft.to/lastmile_qr_scan", "android": "https://dc.lft.to/lastmile_qr_scan"}, "fusion_lon": 0.0, "type": "electric_scooter", "bike_id": "b71984c595d32687e5d99f079114dae3", "name": "b71984c595d32687e5d99f079114dae3"}, {"lon": -77.02454033333333, "is_disabled": 0, "lat": 38.918847166666666, "fusion_lat": 0.0, "is_reserved": 0, "rental_uris": {"ios": "https://dc.lft.to/lastmile_qr_scan", "android": "https://dc.lft.to/lastmile_qr_scan"}, "fusion_lon": 0.0, "type": "electric_scooter", "bike_id": "4b4780ac33c3aba2e694daa3878a39f4", "name": "4b4780ac33c3aba2e694daa3878a39f4"}, {"lon": -77.0573105, "is_disabled": 0, "lat": 38.93365333333333, "fusion_lat": 0.0, "is_reserved": 0, "rental_uris": {"ios": "https://dc.lft.to/lastmile_qr_scan", "android": "https://dc.lft.to/lastmile_qr_scan"}, "fusion_lon": 0.0, "type": "electric_scooter", "bike_id": "897f76485c3a40b8ca22bc31a123d048", "name": "897f76485c3a40b8ca22bc31a123d048"}, {"lon": -77.035252, "is_disabled": 0, "lat": 38.92254166666667, "fusion_lat": 0.0, "is_reserved": 0, "rental_uris": {"ios": "https://dc.lft.to/lastmile_qr_scan", "android": "https://dc.lft.to/lastmile_qr_scan"}, "fusion_lon": 0.0, "type": "electric_scooter", "bike_id": "277aca16ac4999164c1c4b2cc33a1a72", "name": "277aca16ac4999164c1c4b2cc33a1a72"}, {"lon": -77.00203516666667, "is_disabled": 0, "lat": 38.965574, "fusion_lat": 0.0, "is_reserved": 0, "rental_uris": {"ios": "https://dc.lft.to/lastmile_qr_scan", "android": "https://dc.lft.to/lastmile_qr_scan"}, "fusion_lon": 0.0, "type": "electric_scooter", "bike_id": "a71959ad36f2cca65daa7e10dffa6321", "name": "a71959ad36f2cca65daa7e10dffa6321"}, {"lon": -77.04255516666667, "is_disabled": 0, "lat": 38.91031133333333, "fusion_lat": 0.0, "is_reserved": 0, "rental_uris": {"ios": "https://dc.lft.to/lastmile_qr_scan", "android": "https://dc.lft.to/lastmile_qr_scan"}, "fusion_lon": 0.0, "type": "electric_scooter", "bike_id": "21fe0400309e07d017a06edd2b99b3a2", "name": "21fe0400309e07d017a06edd2b99b3a2"}, {"lon": -77.0194815, "is_disabled": 0, "lat": 38.924216333333334, "fusion_lat": 0.0, "is_reserved": 0, "rental_uris": {"ios": "https://dc.lft.to/lastmile_qr_scan", "android": "https://dc.lft.to/lastmile_qr_scan"}, "fusion_lon": 0.0, "type": "electric_scooter", "bike_id": "52621cb88b30529ee495d075184dac85", "name": "52621cb88b30529ee495d075184dac85"}, {"lon": -77.027322, "is_disabled": 0, "lat": 38.93355583333334, "fusion_lat": 0.0, "is_reserved": 0, "rental_uris": {"ios": "https://dc.lft.to/lastmile_qr_scan", "android": "https://dc.lft.to/lastmile_qr_scan"}, "fusion_lon": 0.0, "type": "electric_scooter", "bike_id": "0a61eeadb54a4a36325b2286c79c9dd2", "name": "0a61eeadb54a4a36325b2286c79c9dd2"}, {"lon": -77.03896, "is_disabled": 0, "lat": 38.923276333333334, "fusion_lat": 0.0, "is_reserved": 0, "rental_uris": {"ios": "https://dc.lft.to/lastmile_qr_scan", "android": "https://dc.lft.to/lastmile_qr_scan"}, "fusion_lon": 0.0, "type": "electric_scooter", "bike_id": "fb805a92789fbc7abfa90ea45ded89a4", "name": "fb805a92789fbc7abfa90ea45ded89a4"}, {"lon": -77.027042, "is_disabled": 0, "lat": 38.919528, "fusion_lat": 0.0, "is_reserved": 0, "rental_uris": {"ios": "https://dc.lft.to/lastmile_qr_scan", "android": "https://dc.lft.to/lastmile_qr_scan"}, "fusion_lon": 0.0, "type": "electric_scooter", "bike_id": "1f4d6f6079f79b9c2566d43daf401a4d", "name": "1f4d6f6079f79b9c2566d43daf401a4d"}, {"lon": -77.06449733333334, "is_disabled": 0, "lat": 38.94607933333333, "fusion_lat": 0.0, "is_reserved": 0, "rental_uris": {"ios": "https://dc.lft.to/lastmile_qr_scan", "android": "https://dc.lft.to/lastmile_qr_scan"}, "fusion_lon": 0.0, "type": "electric_scooter", "bike_id": "a0f24a5874e4f910bddab65d12ac5b04", "name": "a0f24a5874e4f910bddab65d12ac5b04"}, {"lon": -77.00200266666667, "is_disabled": 0, "lat": 38.91599716666666, "fusion_lat": 0.0, "is_reserved": 0, "rental_uris": {"ios": "https://dc.lft.to/lastmile_qr_scan", "android": "https://dc.lft.to/lastmile_qr_scan"}, "fusion_lon": 0.0, "type": "electric_scooter", "bike_id": "00a603cbde2cfbe5e890226895a426e7", "name": "00a603cbde2cfbe5e890226895a426e7"}, {"lon": -77.04807366666667, "is_disabled": 0, "lat": 38.90224416666667, "fusion_lat": 0.0, "is_reserved": 0, "rental_uris": {"ios": "https://dc.lft.to/lastmile_qr_scan", "android": "https://dc.lft.to/lastmile_qr_scan"}, "fusion_lon": 0.0, "type": "electric_scooter", "bike_id": "d9a76a51551a24a1adf06d9da2991ffd", "name": "d9a76a51551a24a1adf06d9da2991ffd"}, {"lon": -77.02541483333333, "is_disabled": 0, "lat": 38.9411225, "fusion_lat": 0.0, "is_reserved": 0, "rental_uris": {"ios": "https://dc.lft.to/lastmile_qr_scan", "android": "https://dc.lft.to/lastmile_qr_scan"}, "fusion_lon": 0.0, "type": "electric_scooter", "bike_id": "64640893d5a3647d6d840f6740d9ea71", "name": "64640893d5a3647d6d840f6740d9ea71"}, {"lon": -77.01843866666667, "is_disabled": 0, "lat": 38.946299333333336, "fusion_lat": 0.0, "is_reserved": 0, "rental_uris": {"ios": "https://dc.lft.to/lastmile_qr_scan", "android": "https://dc.lft.to/lastmile_qr_scan"}, "fusion_lon": 0.0, "type": "electric_scooter", "bike_id": "70a1c5de02e011adaedd767a2e58b96b", "name": "70a1c5de02e011adaedd767a2e58b96b"}, {"lon": -77.02690833333334, "is_disabled": 0, "lat": 38.894469, "fusion_lat": 0.0, "is_reserved": 0, "rental_uris": {"ios": "https://dc.lft.to/lastmile_qr_scan", "android": "https://dc.lft.to/lastmile_qr_scan"}, "fusion_lon": 0.0, "type": "electric_scooter", "bike_id": "2159d274a304c9fa0055542c74eb0806", "name": "2159d274a304c9fa0055542c74eb0806"}, {"lon": -77.00673716666667, "is_disabled": 0, "lat": 38.945108166666664, "fusion_lat": 0.0, "is_reserved": 0, "rental_uris": {"ios": "https://dc.lft.to/lastmile_qr_scan", "android": "https://dc.lft.to/lastmile_qr_scan"}, "fusion_lon": 0.0, "type": "electric_bike", "bike_id": "a4d934d64e2c094e66c2662ddfd71079", "name": "a4d934d64e2c094e66c2662ddfd71079"}, {"lon": -77.04160266666666, "is_disabled": 0, "lat": 38.914210833333335, "fusion_lat": 0.0, "is_reserved": 0, "rental_uris": {"ios": "https://dc.lft.to/lastmile_qr_scan", "android": "https://dc.lft.to/lastmile_qr_scan"}, "fusion_lon": 0.0, "type": "electric_scooter", "bike_id": "48fbc214f3fa8ff3875fc35d7d6e7c0c", "name": "48fbc214f3fa8ff3875fc35d7d6e7c0c"}, {"lon": -77.01595683333333, "is_disabled": 0, "lat": 38.876453833333336, "fusion_lat": 0.0, "is_reserved": 0, "rental_uris": {"ios": "https://dc.lft.to/lastmile_qr_scan", "android": "https://dc.lft.to/lastmile_qr_scan"}, "fusion_lon": 0.0, "type": "electric_scooter", "bike_id": "2992f0bafaf6ca0a0411b67e0933bec8", "name": "2992f0bafaf6ca0a0411b67e0933bec8"}, {"lon": -77.04011366666667, "is_disabled": 0, "lat": 38.909973666666666, "fusion_lat": 0.0, "is_reserved": 0, "rental_uris": {"ios": "https://dc.lft.to/lastmile_qr_scan", "android": "https://dc.lft.to/lastmile_qr_scan"}, "fusion_lon": 0.0, "type": "electric_scooter", "bike_id": "c148dd429be6c3233cdaa79126ee5452", "name": "c148dd429be6c3233cdaa79126ee5452"}, {"lon": -76.98818033333333, "is_disabled": 0, "lat": 38.900701833333336, "fusion_lat": 0.0, "is_reserved": 0, "rental_uris": {"ios": "https://dc.lft.to/lastmile_qr_scan", "android": "https://dc.lft.to/lastmile_qr_scan"}, "fusion_lon": 0.0, "type": "electric_scooter", "bike_id": "4c41bfcc1c931d0faf2aefb3b6d33cc7", "name": "4c41bfcc1c931d0faf2aefb3b6d33cc7"}, {"lon": -76.98604, "is_disabled": 0, "lat": 38.90013, "fusion_lat": 0.0, "is_reserved": 0, "rental_uris": {"ios": "https://dc.lft.to/lastmile_qr_scan", "android": "https://dc.lft.to/lastmile_qr_scan"}, "fusion_lon": 0.0, "type": "electric_scooter", "bike_id": "6f4e4cf5c4ba9d6401cb743a31a78125", "name": "6f4e4cf5c4ba9d6401cb743a31a78125"}, {"lon": -77.04873, "is_disabled": 0, "lat": 38.909769833333335, "fusion_lat": 0.0, "is_reserved": 0, "rental_uris": {"ios": "https://dc.lft.to/lastmile_qr_scan", "android": "https://dc.lft.to/lastmile_qr_scan"}, "fusion_lon": 0.0, "type": "electric_scooter", "bike_id": "03097c441eb3faec9b76151b51c0cc86", "name": "03097c441eb3faec9b76151b51c0cc86"}, {"lon": -76.9948765, "is_disabled": 0, "lat": 38.88343483333333, "fusion_lat": 0.0, "is_reserved": 0, "rental_uris": {"ios": "https://dc.lft.to/lastmile_qr_scan", "android": "https://dc.lft.to/lastmile_qr_scan"}, "fusion_lon": 0.0, "type": "electric_scooter", "bike_id": "b8d98c99c5206f4dd57fab230d09832f", "name": "b8d98c99c5206f4dd57fab230d09832f"}, {"lon": -77.02098633333334, "is_disabled": 0, "lat": 38.88181316666667, "fusion_lat": 0.0, "is_reserved": 0, "rental_uris": {"ios": "https://dc.lft.to/lastmile_qr_scan", "android": "https://dc.lft.to/lastmile_qr_scan"}, "fusion_lon": 0.0, "type": "electric_scooter", "bike_id": "9dfe4c375483c0a62ffdda4e3b7a5264", "name": "9dfe4c375483c0a62ffdda4e3b7a5264"}, {"lon": -76.9651845, "is_disabled": 0, "lat": 38.87616666666667, "fusion_lat": 0.0, "is_reserved": 0, "rental_uris": {"ios": "https://dc.lft.to/lastmile_qr_scan", "android": "https://dc.lft.to/lastmile_qr_scan"}, "fusion_lon": 0.0, "type": "electric_scooter", "bike_id": "8d4df0a72bf080dd5722c5cdd70685a1", "name": "8d4df0a72bf080dd5722c5cdd70685a1"}, {"lon": -77.03430066666667, "is_disabled": 0, "lat": 38.919179666666665, "fusion_lat": 0.0, "is_reserved": 0, "rental_uris": {"ios": "https://dc.lft.to/lastmile_qr_scan", "android": "https://dc.lft.to/lastmile_qr_scan"}, "fusion_lon": 0.0, "type": "electric_scooter", "bike_id": "bbbe0ed8d273fafb7912c79b19f655c1", "name": "bbbe0ed8d273fafb7912c79b19f655c1"}, {"lon": -77.03293933333333, "is_disabled": 0, "lat": 38.92435483333333, "fusion_lat": 0.0, "is_reserved": 0, "rental_uris": {"ios": "https://dc.lft.to/lastmile_qr_scan", "android": "https://dc.lft.to/lastmile_qr_scan"}, "fusion_lon": 0.0, "type": "electric_scooter", "bike_id": "75f9af24531df2da2b86a3013655e199", "name": "75f9af24531df2da2b86a3013655e199"}, {"lon": -77.014652, "is_disabled": 0, "lat": 38.917705833333336, "fusion_lat": 0.0, "is_reserved": 0, "rental_uris": {"ios": "https://dc.lft.to/lastmile_qr_scan", "android": "https://dc.lft.to/lastmile_qr_scan"}, "fusion_lon": 0.0, "type": "electric_scooter", "bike_id": "20dd7b642d3d265661323fbafd640407", "name": "20dd7b642d3d265661323fbafd640407"}, {"lon": -77.03039316666667, "is_disabled": 0, "lat": 38.907233, "fusion_lat": 0.0, "is_reserved": 0, "rental_uris": {"ios": "https://dc.lft.to/lastmile_qr_scan", "android": "https://dc.lft.to/lastmile_qr_scan"}, "fusion_lon": 0.0, "type": "electric_scooter", "bike_id": "bd7b821799e1e4fc11998339c2b6f3fa", "name": "bd7b821799e1e4fc11998339c2b6f3fa"}, {"lon": -77.01771233333334, "is_disabled": 0, "lat": 38.9204055, "fusion_lat": 0.0, "is_reserved": 0, "rental_uris": {"ios": "https://dc.lft.to/lastmile_qr_scan", "android": "https://dc.lft.to/lastmile_qr_scan"}, "fusion_lon": 0.0, "type": "electric_scooter", "bike_id": "99a3c309a1fe9cd9337be51fa5f94754", "name": "99a3c309a1fe9cd9337be51fa5f94754"}, {"lon": -77.0499785, "is_disabled": 0, "lat": 38.89227133333333, "fusion_lat": 0.0, "is_reserved": 0, "rental_uris": {"ios": "https://dc.lft.to/lastmile_qr_scan", "android": "https://dc.lft.to/lastmile_qr_scan"}, "fusion_lon": 0.0, "type": "electric_scooter", "bike_id": "7e2ec49af1fd82b784cd28c91246dd39", "name": "7e2ec49af1fd82b784cd28c91246dd39"}, {"lon": -77.02300966666667, "is_disabled": 0, "lat": 38.91767083333333, "fusion_lat": 0.0, "is_reserved": 0, "rental_uris": {"ios": "https://dc.lft.to/lastmile_qr_scan", "android": "https://dc.lft.to/lastmile_qr_scan"}, "fusion_lon": 0.0, "type": "electric_scooter", "bike_id": "c408cf3b57c29f49af6b50d4137f8a40", "name": "c408cf3b57c29f49af6b50d4137f8a40"}, {"lon": -77.04763533333333, "is_disabled": 0, "lat": 38.91759583333334, "fusion_lat": 0.0, "is_reserved": 0, "rental_uris": {"ios": "https://dc.lft.to/lastmile_qr_scan", "android": "https://dc.lft.to/lastmile_qr_scan"}, "fusion_lon": 0.0, "type": "electric_scooter", "bike_id": "6d8d326f746d2e48f485bcae5e898445", "name": "6d8d326f746d2e48f485bcae5e898445"}, {"lon": -77.03503216666667, "is_disabled": 0, "lat": 38.92329633333333, "fusion_lat": 0.0, "is_reserved": 0, "rental_uris": {"ios": "https://dc.lft.to/lastmile_qr_scan", "android": "https://dc.lft.to/lastmile_qr_scan"}, "fusion_lon": 0.0, "type": "electric_scooter", "bike_id": "8d4a3a25b81b2d818053bdc644899007", "name": "8d4a3a25b81b2d818053bdc644899007"}, {"lon": -77.02367183333334, "is_disabled": 0, "lat": 38.91555, "fusion_lat": 0.0, "is_reserved": 0, "rental_uris": {"ios": "https://dc.lft.to/lastmile_qr_scan", "android": "https://dc.lft.to/lastmile_qr_scan"}, "fusion_lon": 0.0, "type": "electric_scooter", "bike_id": "927590e11f6773e73a693a2df25d863d", "name": "927590e11f6773e73a693a2df25d863d"}, {"lon": -77.02219333333333, "is_disabled": 0, "lat": 38.8922015, "fusion_lat": 0.0, "is_reserved": 0, "rental_uris": {"ios": "https://dc.lft.to/lastmile_qr_scan", "android": "https://dc.lft.to/lastmile_qr_scan"}, "fusion_lon": 0.0, "type": "electric_scooter", "bike_id": "500fa65cd58a5fbf782996e09124fb22", "name": "500fa65cd58a5fbf782996e09124fb22"}, {"lon": -77.0588645, "is_disabled": 0, "lat": 38.93639833333334, "fusion_lat": 0.0, "is_reserved": 0, "rental_uris": {"ios": "https://dc.lft.to/lastmile_qr_scan", "android": "https://dc.lft.to/lastmile_qr_scan"}, "fusion_lon": 0.0, "type": "electric_scooter", "bike_id": "e891ecad205cad14f29ce43179dceebd", "name": "e891ecad205cad14f29ce43179dceebd"}, {"lon": -77.03519016666667, "is_disabled": 0, "lat": 38.922632166666666, "fusion_lat": 0.0, "is_reserved": 0, "rental_uris": {"ios": "https://dc.lft.to/lastmile_qr_scan", "android": "https://dc.lft.to/lastmile_qr_scan"}, "fusion_lon": 0.0, "type": "electric_scooter", "bike_id": "70425bd74a78858cd6a07571e5f2d70f", "name": "70425bd74a78858cd6a07571e5f2d70f"}, {"lon": -77.02871266666666, "is_disabled": 0, "lat": 38.998364333333335, "fusion_lat": 0.0, "is_reserved": 0, "rental_uris": {"ios": "https://dc.lft.to/lastmile_qr_scan", "android": "https://dc.lft.to/lastmile_qr_scan"}, "fusion_lon": 0.0, "type": "electric_bike", "bike_id": "4f8f11f8b5bd38381ba042c1a72c5f58", "name": "4f8f11f8b5bd38381ba042c1a72c5f58"}, {"lon": -77.00931116666666, "is_disabled": 0, "lat": 38.91805016666667, "fusion_lat": 0.0, "is_reserved": 0, "rental_uris": {"ios": "https://dc.lft.to/lastmile_qr_scan", "android": "https://dc.lft.to/lastmile_qr_scan"}, "fusion_lon": 0.0, "type": "electric_scooter", "bike_id": "919c246e12b3ade91c6132558f972aa7", "name": "919c246e12b3ade91c6132558f972aa7"}, {"lon": -77.03777216666667, "is_disabled": 0, "lat": 38.922366333333336, "fusion_lat": 0.0, "is_reserved": 0, "rental_uris": {"ios": "https://dc.lft.to/lastmile_qr_scan", "android": "https://dc.lft.to/lastmile_qr_scan"}, "fusion_lon": 0.0, "type": "electric_scooter", "bike_id": "74f7c5d88dc72573c3f150e03771f668", "name": "74f7c5d88dc72573c3f150e03771f668"}, {"lon": -77.02815833333334, "is_disabled": 0, "lat": 38.8865625, "fusion_lat": 0.0, "is_reserved": 0, "rental_uris": {"ios": "https://dc.lft.to/lastmile_qr_scan", "android": "https://dc.lft.to/lastmile_qr_scan"}, "fusion_lon": 0.0, "type": "electric_scooter", "bike_id": "53bbb2dd8eb1695533050f2b8a0b19a6", "name": "53bbb2dd8eb1695533050f2b8a0b19a6"}, {"lon": -76.98514866666666, "is_disabled": 0, "lat": 38.8605465, "fusion_lat": 0.0, "is_reserved": 0, "rental_uris": {"ios": "https://dc.lft.to/lastmile_qr_scan", "android": "https://dc.lft.to/lastmile_qr_scan"}, "fusion_lon": 0.0, "type": "electric_scooter", "bike_id": "ff8b3d4b8e139ea7cad6dfafc57ce0d3", "name": "ff8b3d4b8e139ea7cad6dfafc57ce0d3"}, {"lon": -77.02930816666667, "is_disabled": 0, "lat": 38.91035933333333, "fusion_lat": 0.0, "is_reserved": 0, "rental_uris": {"ios": "https://dc.lft.to/lastmile_qr_scan", "android": "https://dc.lft.to/lastmile_qr_scan"}, "fusion_lon": 0.0, "type": "electric_scooter", "bike_id": "a80b3a4dd4337bfe10a5e802ad8a23c0", "name": "a80b3a4dd4337bfe10a5e802ad8a23c0"}, {"lon": -77.022785, "is_disabled": 0, "lat": 38.915652333333334, "fusion_lat": 0.0, "is_reserved": 0, "rental_uris": {"ios": "https://dc.lft.to/lastmile_qr_scan", "android": "https://dc.lft.to/lastmile_qr_scan"}, "fusion_lon": 0.0, "type": "electric_scooter", "bike_id": "3c6273d27074b6fe5f81729c4d8ef0ee", "name": "3c6273d27074b6fe5f81729c4d8ef0ee"}, {"lon": -77.0342985, "is_disabled": 0, "lat": 38.91917183333333, "fusion_lat": 0.0, "is_reserved": 0, "rental_uris": {"ios": "https://dc.lft.to/lastmile_qr_scan", "android": "https://dc.lft.to/lastmile_qr_scan"}, "fusion_lon": 0.0, "type": "electric_scooter", "bike_id": "c812ad507fd04830f4d299fac5b01442", "name": "c812ad507fd04830f4d299fac5b01442"}, {"lon": -77.08629533333334, "is_disabled": 0, "lat": 38.809724, "fusion_lat": 0.0, "is_reserved": 0, "rental_uris": {"ios": "https://dc.lft.to/lastmile_qr_scan", "android": "https://dc.lft.to/lastmile_qr_scan"}, "fusion_lon": 0.0, "type": "electric_bike", "bike_id": "fe01cb52f6cc75e89e3c767b47b862c7", "name": "fe01cb52f6cc75e89e3c767b47b862c7"}, {"lon": -77.04356966666667, "is_disabled": 0, "lat": 38.90847216666667, "fusion_lat": 0.0, "is_reserved": 0, "rental_uris": {"ios": "https://dc.lft.to/lastmile_qr_scan", "android": "https://dc.lft.to/lastmile_qr_scan"}, "fusion_lon": 0.0, "type": "electric_scooter", "bike_id": "8bca73f348695833551e4ef27a5fb5a9", "name": "8bca73f348695833551e4ef27a5fb5a9"}, {"lon": -77.02288566666667, "is_disabled": 0, "lat": 38.917083833333336, "fusion_lat": 0.0, "is_reserved": 0, "rental_uris": {"ios": "https://dc.lft.to/lastmile_qr_scan", "android": "https://dc.lft.to/lastmile_qr_scan"}, "fusion_lon": 0.0, "type": "electric_scooter", "bike_id": "d686211a09bba0e9f87527c33c0ace56", "name": "d686211a09bba0e9f87527c33c0ace56"}, {"lon": -76.9809455, "is_disabled": 0, "lat": 38.95355716666667, "fusion_lat": 0.0, "is_reserved": 0, "rental_uris": {"ios": "https://dc.lft.to/lastmile_qr_scan", "android": "https://dc.lft.to/lastmile_qr_scan"}, "fusion_lon": 0.0, "type": "electric_bike", "bike_id": "3e18ecfbc00104862073b3ea0853568f", "name": "3e18ecfbc00104862073b3ea0853568f"}, {"lon": -77.0111175, "is_disabled": 0, "lat": 38.962946333333335, "fusion_lat": 0.0, "is_reserved": 0, "rental_uris": {"ios": "https://dc.lft.to/lastmile_qr_scan", "android": "https://dc.lft.to/lastmile_qr_scan"}, "fusion_lon": 0.0, "type": "electric_bike", "bike_id": "c8b5f24588238bd70adb282d76fd766e", "name": "c8b5f24588238bd70adb282d76fd766e"}, {"lon": -77.034638, "is_disabled": 0, "lat": 38.91691433333333, "fusion_lat": 0.0, "is_reserved": 0, "rental_uris": {"ios": "https://dc.lft.to/lastmile_qr_scan", "android": "https://dc.lft.to/lastmile_qr_scan"}, "fusion_lon": 0.0, "type": "electric_scooter", "bike_id": "4852a5b481fa33b062a1c5691effcefd", "name": "4852a5b481fa33b062a1c5691effcefd"}, {"lon": -77.04499616666666, "is_disabled": 0, "lat": 38.9037045, "fusion_lat": 0.0, "is_reserved": 0, "rental_uris": {"ios": "https://dc.lft.to/lastmile_qr_scan", "android": "https://dc.lft.to/lastmile_qr_scan"}, "fusion_lon": 0.0, "type": "electric_scooter", "bike_id": "daaa7839e8d9c48be8e3b948571ffd87", "name": "daaa7839e8d9c48be8e3b948571ffd87"}, {"lon": -77.09442916666667, "is_disabled": 0, "lat": 38.94490566666666, "fusion_lat": 0.0, "is_reserved": 0, "rental_uris": {"ios": "https://dc.lft.to/lastmile_qr_scan", "android": "https://dc.lft.to/lastmile_qr_scan"}, "fusion_lon": 0.0, "type": "electric_scooter", "bike_id": "386b8554839140fc93df5c92d1a043c3", "name": "386b8554839140fc93df5c92d1a043c3"}, {"lon": -77.0231355, "is_disabled": 0, "lat": 38.9552625, "fusion_lat": 0.0, "is_reserved": 0, "rental_uris": {"ios": "https://dc.lft.to/lastmile_qr_scan", "android": "https://dc.lft.to/lastmile_qr_scan"}, "fusion_lon": 0.0, "type": "electric_scooter", "bike_id": "78f9d79a9eacd57463f8828a4e755111", "name": "78f9d79a9eacd57463f8828a4e755111"}, {"lon": -76.93157116666667, "is_disabled": 0, "lat": 38.8993125, "fusion_lat": 0.0, "is_reserved": 0, "rental_uris": {"ios": "https://dc.lft.to/lastmile_qr_scan", "android": "https://dc.lft.to/lastmile_qr_scan"}, "fusion_lon": 0.0, "type": "electric_scooter", "bike_id": "af24ddc97ad22017e5679535ba3f6c70", "name": "af24ddc97ad22017e5679535ba3f6c70"}, {"lon": -77.03654966666667, "is_disabled": 0, "lat": 38.908033, "fusion_lat": 0.0, "is_reserved": 0, "rental_uris": {"ios": "https://dc.lft.to/lastmile_qr_scan", "android": "https://dc.lft.to/lastmile_qr_scan"}, "fusion_lon": 0.0, "type": "electric_scooter", "bike_id": "f65a4f39979155fb60a4b39bd5ba68d1", "name": "f65a4f39979155fb60a4b39bd5ba68d1"}, {"lon": -76.973694, "is_disabled": 0, "lat": 38.963200666666665, "fusion_lat": 0.0, "is_reserved": 0, "rental_uris": {"ios": "https://dc.lft.to/lastmile_qr_scan", "android": "https://dc.lft.to/lastmile_qr_scan"}, "fusion_lon": 0.0, "type": "electric_bike", "bike_id": "eafe8c307cbd6836ebc02c4799799328", "name": "eafe8c307cbd6836ebc02c4799799328"}, {"lon": -77.00148033333333, "is_disabled": 0, "lat": 38.8731145, "fusion_lat": 0.0, "is_reserved": 0, "rental_uris": {"ios": "https://dc.lft.to/lastmile_qr_scan", "android": "https://dc.lft.to/lastmile_qr_scan"}, "fusion_lon": 0.0, "type": "electric_scooter", "bike_id": "ccd575c181b3eaf452b19a8f2d7ee672", "name": "ccd575c181b3eaf452b19a8f2d7ee672"}, {"lon": -77.0169605, "is_disabled": 0, "lat": 38.97501966666667, "fusion_lat": 0.0, "is_reserved": 0, "rental_uris": {"ios": "https://dc.lft.to/lastmile_qr_scan", "android": "https://dc.lft.to/lastmile_qr_scan"}, "fusion_lon": 0.0, "type": "electric_scooter", "bike_id": "22e6b4079e3cb901b37b90d2b9010da2", "name": "22e6b4079e3cb901b37b90d2b9010da2"}, {"lon": -77.02586683333334, "is_disabled": 0, "lat": 38.942063, "fusion_lat": 0.0, "is_reserved": 0, "rental_uris": {"ios": "https://dc.lft.to/lastmile_qr_scan", "android": "https://dc.lft.to/lastmile_qr_scan"}, "fusion_lon": 0.0, "type": "electric_scooter", "bike_id": "9f7e2064dba36076df483f0a5550263f", "name": "9f7e2064dba36076df483f0a5550263f"}, {"lon": -77.07030283333333, "is_disabled": 0, "lat": 38.90527066666667, "fusion_lat": 0.0, "is_reserved": 0, "rental_uris": {"ios": "https://dc.lft.to/lastmile_qr_scan", "android": "https://dc.lft.to/lastmile_qr_scan"}, "fusion_lon": 0.0, "type": "electric_scooter", "bike_id": "768d9e3b96c1b419d53dbf28fa177971", "name": "768d9e3b96c1b419d53dbf28fa177971"}, {"lon": -77.01073983333333, "is_disabled": 0, "lat": 38.90957983333333, "fusion_lat": 0.0, "is_reserved": 0, "rental_uris": {"ios": "https://dc.lft.to/lastmile_qr_scan", "android": "https://dc.lft.to/lastmile_qr_scan"}, "fusion_lon": 0.0, "type": "electric_scooter", "bike_id": "3e26e00eb521607c97d99468b2717525", "name": "3e26e00eb521607c97d99468b2717525"}, {"lon": -77.036453, "is_disabled": 0, "lat": 38.91677583333333, "fusion_lat": 0.0, "is_reserved": 0, "rental_uris": {"ios": "https://dc.lft.to/lastmile_qr_scan", "android": "https://dc.lft.to/lastmile_qr_scan"}, "fusion_lon": 0.0, "type": "electric_scooter", "bike_id": "e2fe4795078651846adc0886a2f8e4a5", "name": "e2fe4795078651846adc0886a2f8e4a5"}, {"lon": -76.97254683333334, "is_disabled": 0, "lat": 38.95746316666666, "fusion_lat": 0.0, "is_reserved": 0, "rental_uris": {"ios": "https://dc.lft.to/lastmile_qr_scan", "android": "https://dc.lft.to/lastmile_qr_scan"}, "fusion_lon": 0.0, "type": "electric_bike", "bike_id": "535bee2d50c03b671215c02badbba87d", "name": "535bee2d50c03b671215c02badbba87d"}, {"lon": -77.01982333333333, "is_disabled": 0, "lat": 38.88721966666667, "fusion_lat": 0.0, "is_reserved": 0, "rental_uris": {"ios": "https://dc.lft.to/lastmile_qr_scan", "android": "https://dc.lft.to/lastmile_qr_scan"}, "fusion_lon": 0.0, "type": "electric_scooter", "bike_id": "2d4c5af292cb19aba7997b282c2b5c4b", "name": "2d4c5af292cb19aba7997b282c2b5c4b"}, {"lon": -77.03193033333334, "is_disabled": 0, "lat": 38.92115783333333, "fusion_lat": 0.0, "is_reserved": 0, "rental_uris": {"ios": "https://dc.lft.to/lastmile_qr_scan", "android": "https://dc.lft.to/lastmile_qr_scan"}, "fusion_lon": 0.0, "type": "electric_scooter", "bike_id": "4fe22488e71910193e616f3836a4c4eb", "name": "4fe22488e71910193e616f3836a4c4eb"}, {"lon": -76.9336775, "is_disabled": 0, "lat": 38.89916083333333, "fusion_lat": 0.0, "is_reserved": 0, "rental_uris": {"ios": "https://dc.lft.to/lastmile_qr_scan", "android": "https://dc.lft.to/lastmile_qr_scan"}, "fusion_lon": 0.0, "type": "electric_scooter", "bike_id": "6c87069dda8874e1a6fd2fd97f05e28e", "name": "6c87069dda8874e1a6fd2fd97f05e28e"}, {"lon": -77.02029566666667, "is_disabled": 0, "lat": 38.924164166666664, "fusion_lat": 0.0, "is_reserved": 0, "rental_uris": {"ios": "https://dc.lft.to/lastmile_qr_scan", "android": "https://dc.lft.to/lastmile_qr_scan"}, "fusion_lon": 0.0, "type": "electric_scooter", "bike_id": "1d03fc12fe574eb3788ec77df4a8434f", "name": "1d03fc12fe574eb3788ec77df4a8434f"}, {"lon": -77.0383755, "is_disabled": 0, "lat": 38.921677, "fusion_lat": 0.0, "is_reserved": 0, "rental_uris": {"ios": "https://dc.lft.to/lastmile_qr_scan", "android": "https://dc.lft.to/lastmile_qr_scan"}, "fusion_lon": 0.0, "type": "electric_scooter", "bike_id": "7c44ad16336b0142f3d2ccaf31e4a8df", "name": "7c44ad16336b0142f3d2ccaf31e4a8df"}, {"lon": -77.04484633333334, "is_disabled": 0, "lat": 38.93127783333333, "fusion_lat": 0.0, "is_reserved": 0, "rental_uris": {"ios": "https://dc.lft.to/lastmile_qr_scan", "android": "https://dc.lft.to/lastmile_qr_scan"}, "fusion_lon": 0.0, "type": "electric_scooter", "bike_id": "a03be9cf88b983d3909bd75e84a4b190", "name": "a03be9cf88b983d3909bd75e84a4b190"}, {"lon": -77.02952883333333, "is_disabled": 0, "lat": 38.9050115, "fusion_lat": 0.0, "is_reserved": 0, "rental_uris": {"ios": "https://dc.lft.to/lastmile_qr_scan", "android": "https://dc.lft.to/lastmile_qr_scan"}, "fusion_lon": 0.0, "type": "electric_scooter", "bike_id": "b3d2055156842f77cbc31db0be613705", "name": "b3d2055156842f77cbc31db0be613705"}, {"lon": -77.02964866666667, "is_disabled": 0, "lat": 38.927508, "fusion_lat": 0.0, "is_reserved": 0, "rental_uris": {"ios": "https://dc.lft.to/lastmile_qr_scan", "android": "https://dc.lft.to/lastmile_qr_scan"}, "fusion_lon": 0.0, "type": "electric_scooter", "bike_id": "bb2e8b60d4632743b437e8ad18853eb4", "name": "bb2e8b60d4632743b437e8ad18853eb4"}, {"lon": -76.997399, "is_disabled": 0, "lat": 38.84529883333333, "fusion_lat": 0.0, "is_reserved": 0, "rental_uris": {"ios": "https://dc.lft.to/lastmile_qr_scan", "android": "https://dc.lft.to/lastmile_qr_scan"}, "fusion_lon": 0.0, "type": "electric_bike", "bike_id": "d73565c60bb23263be504a0a58685871", "name": "d73565c60bb23263be504a0a58685871"}, {"lon": -77.02549716666667, "is_disabled": 0, "lat": 38.91910133333333, "fusion_lat": 0.0, "is_reserved": 0, "rental_uris": {"ios": "https://dc.lft.to/lastmile_qr_scan", "android": "https://dc.lft.to/lastmile_qr_scan"}, "fusion_lon": 0.0, "type": "electric_scooter", "bike_id": "8691bca03a4c13cbbb2cc453df3699b7", "name": "8691bca03a4c13cbbb2cc453df3699b7"}, {"lon": -77.139402, "is_disabled": 0, "lat": 38.8730355, "fusion_lat": 0.0, "is_reserved": 0, "rental_uris": {"ios": "https://dc.lft.to/lastmile_qr_scan", "android": "https://dc.lft.to/lastmile_qr_scan"}, "fusion_lon": 0.0, "type": "electric_bike", "bike_id": "2b1f20a4cd753ee6ee4886f07a117fdf", "name": "2b1f20a4cd753ee6ee4886f07a117fdf"}, {"lon": -77.0434335, "is_disabled": 0, "lat": 38.921858, "fusion_lat": 0.0, "is_reserved": 0, "rental_uris": {"ios": "https://dc.lft.to/lastmile_qr_scan", "android": "https://dc.lft.to/lastmile_qr_scan"}, "fusion_lon": 0.0, "type": "electric_scooter", "bike_id": "e9e93edcc43e0cee3fd005f3b54b7ced", "name": "e9e93edcc43e0cee3fd005f3b54b7ced"}, {"lon": -77.02849133333333, "is_disabled": 0, "lat": 38.9169275, "fusion_lat": 0.0, "is_reserved": 0, "rental_uris": {"ios": "https://dc.lft.to/lastmile_qr_scan", "android": "https://dc.lft.to/lastmile_qr_scan"}, "fusion_lon": 0.0, "type": "electric_scooter", "bike_id": "0c4cb7f2681d9a83c9aa3cd3495cf35a", "name": "0c4cb7f2681d9a83c9aa3cd3495cf35a"}, {"lon": -77.002345, "is_disabled": 0, "lat": 38.874939, "fusion_lat": 0.0, "is_reserved": 0, "rental_uris": {"ios": "https://dc.lft.to/lastmile_qr_scan", "android": "https://dc.lft.to/lastmile_qr_scan"}, "fusion_lon": 0.0, "type": "electric_scooter", "bike_id": "694209e5488d975bef249174aa413367", "name": "694209e5488d975bef249174aa413367"}, {"lon": -76.9940495, "is_disabled": 0, "lat": 38.877851666666665, "fusion_lat": 0.0, "is_reserved": 0, "rental_uris": {"ios": "https://dc.lft.to/lastmile_qr_scan", "android": "https://dc.lft.to/lastmile_qr_scan"}, "fusion_lon": 0.0, "type": "electric_scooter", "bike_id": "8ca28ab218e2f78051fee8788b4d537d", "name": "8ca28ab218e2f78051fee8788b4d537d"}, {"lon": -76.970258, "is_disabled": 0, "lat": 38.87358583333334, "fusion_lat": 0.0, "is_reserved": 0, "rental_uris": {"ios": "https://dc.lft.to/lastmile_qr_scan", "android": "https://dc.lft.to/lastmile_qr_scan"}, "fusion_lon": 0.0, "type": "electric_scooter", "bike_id": "a1d4af67ac4a5aba6b8f6809024b112e", "name": "a1d4af67ac4a5aba6b8f6809024b112e"}, {"lon": -77.04107033333334, "is_disabled": 0, "lat": 38.9230905, "fusion_lat": 0.0, "is_reserved": 0, "rental_uris": {"ios": "https://dc.lft.to/lastmile_qr_scan", "android": "https://dc.lft.to/lastmile_qr_scan"}, "fusion_lon": 0.0, "type": "electric_scooter", "bike_id": "0702f0b9359670f2ed19754b89501982", "name": "0702f0b9359670f2ed19754b89501982"}, {"lon": -76.9794985, "is_disabled": 0, "lat": 38.9043375, "fusion_lat": 0.0, "is_reserved": 0, "rental_uris": {"ios": "https://dc.lft.to/lastmile_qr_scan", "android": "https://dc.lft.to/lastmile_qr_scan"}, "fusion_lon": 0.0, "type": "electric_scooter", "bike_id": "9f119a4b95b0e037fb45c4aec92a0732", "name": "9f119a4b95b0e037fb45c4aec92a0732"}, {"lon": -77.02292366666667, "is_disabled": 0, "lat": 38.91567, "fusion_lat": 0.0, "is_reserved": 0, "rental_uris": {"ios": "https://dc.lft.to/lastmile_qr_scan", "android": "https://dc.lft.to/lastmile_qr_scan"}, "fusion_lon": 0.0, "type": "electric_scooter", "bike_id": "99b1b573b3860dc3b7df269cb8900359", "name": "99b1b573b3860dc3b7df269cb8900359"}, {"lon": -77.0154395, "is_disabled": 0, "lat": 38.88571233333333, "fusion_lat": 0.0, "is_reserved": 0, "rental_uris": {"ios": "https://dc.lft.to/lastmile_qr_scan", "android": "https://dc.lft.to/lastmile_qr_scan"}, "fusion_lon": 0.0, "type": "electric_scooter", "bike_id": "65c6b201014d00789a6efda82b6bae71", "name": "65c6b201014d00789a6efda82b6bae71"}, {"lon": -77.05347766666667, "is_disabled": 0, "lat": 38.927201833333335, "fusion_lat": 0.0, "is_reserved": 0, "rental_uris": {"ios": "https://dc.lft.to/lastmile_qr_scan", "android": "https://dc.lft.to/lastmile_qr_scan"}, "fusion_lon": 0.0, "type": "electric_scooter", "bike_id": "50db5f74ff92a032148793a49580455f", "name": "50db5f74ff92a032148793a49580455f"}, {"lon": -76.96055033333333, "is_disabled": 0, "lat": 38.883206333333334, "fusion_lat": 0.0, "is_reserved": 0, "rental_uris": {"ios": "https://dc.lft.to/lastmile_qr_scan", "android": "https://dc.lft.to/lastmile_qr_scan"}, "fusion_lon": 0.0, "type": "electric_bike", "bike_id": "2ec21af23e581e458254fef29a76fc18", "name": "2ec21af23e581e458254fef29a76fc18"}, {"lon": -77.0244995, "is_disabled": 0, "lat": 38.9182915, "fusion_lat": 0.0, "is_reserved": 0, "rental_uris": {"ios": "https://dc.lft.to/lastmile_qr_scan", "android": "https://dc.lft.to/lastmile_qr_scan"}, "fusion_lon": 0.0, "type": "electric_scooter", "bike_id": "dce8421a75dbbb34c36bb49ae039da00", "name": "dce8421a75dbbb34c36bb49ae039da00"}, {"lon": -77.04279016666666, "is_disabled": 0, "lat": 38.91548183333333, "fusion_lat": 0.0, "is_reserved": 0, "rental_uris": {"ios": "https://dc.lft.to/lastmile_qr_scan", "android": "https://dc.lft.to/lastmile_qr_scan"}, "fusion_lon": 0.0, "type": "electric_scooter", "bike_id": "bdc65cd050d87551c246de8a39719466", "name": "bdc65cd050d87551c246de8a39719466"}, {"lon": -77.0219, "is_disabled": 0, "lat": 38.90196133333333, "fusion_lat": 0.0, "is_reserved": 0, "rental_uris": {"ios": "https://dc.lft.to/lastmile_qr_scan", "android": "https://dc.lft.to/lastmile_qr_scan"}, "fusion_lon": 0.0, "type": "electric_scooter", "bike_id": "4d9ec17f5aaaf610e03b3e20145102c5", "name": "4d9ec17f5aaaf610e03b3e20145102c5"}, {"lon": -77.03314733333333, "is_disabled": 0, "lat": 38.921461666666666, "fusion_lat": 0.0, "is_reserved": 0, "rental_uris": {"ios": "https://dc.lft.to/lastmile_qr_scan", "android": "https://dc.lft.to/lastmile_qr_scan"}, "fusion_lon": 0.0, "type": "electric_scooter", "bike_id": "664248bf370ce46fb3d3fd97b9156926", "name": "664248bf370ce46fb3d3fd97b9156926"}, {"lon": -77.02278733333333, "is_disabled": 0, "lat": 38.914115333333335, "fusion_lat": 0.0, "is_reserved": 0, "rental_uris": {"ios": "https://dc.lft.to/lastmile_qr_scan", "android": "https://dc.lft.to/lastmile_qr_scan"}, "fusion_lon": 0.0, "type": "electric_scooter", "bike_id": "e58370a90e16841236920af5b09b2b77", "name": "e58370a90e16841236920af5b09b2b77"}, {"lon": -77.02705666666667, "is_disabled": 0, "lat": 38.89751616666667, "fusion_lat": 0.0, "is_reserved": 0, "rental_uris": {"ios": "https://dc.lft.to/lastmile_qr_scan", "android": "https://dc.lft.to/lastmile_qr_scan"}, "fusion_lon": 0.0, "type": "electric_scooter", "bike_id": "44cc75b8db48f871e982bfc434bcf0f3", "name": "44cc75b8db48f871e982bfc434bcf0f3"}, {"lon": -77.02835883333333, "is_disabled": 0, "lat": 38.887328833333335, "fusion_lat": 0.0, "is_reserved": 0, "rental_uris": {"ios": "https://dc.lft.to/lastmile_qr_scan", "android": "https://dc.lft.to/lastmile_qr_scan"}, "fusion_lon": 0.0, "type": "electric_scooter", "bike_id": "e1c7f1900584823683a45388831e8d08", "name": "e1c7f1900584823683a45388831e8d08"}, {"lon": -77.00541783333334, "is_disabled": 0, "lat": 38.90549566666667, "fusion_lat": 0.0, "is_reserved": 0, "rental_uris": {"ios": "https://dc.lft.to/lastmile_qr_scan", "android": "https://dc.lft.to/lastmile_qr_scan"}, "fusion_lon": 0.0, "type": "electric_scooter", "bike_id": "d9c10a8abbbd78b6dc87c7dbf9d8bb31", "name": "d9c10a8abbbd78b6dc87c7dbf9d8bb31"}, {"lon": -77.058881, "is_disabled": 0, "lat": 38.936349666666665, "fusion_lat": 0.0, "is_reserved": 0, "rental_uris": {"ios": "https://dc.lft.to/lastmile_qr_scan", "android": "https://dc.lft.to/lastmile_qr_scan"}, "fusion_lon": 0.0, "type": "electric_scooter", "bike_id": "5ae882c8482e04adaff1c8ce32232236", "name": "5ae882c8482e04adaff1c8ce32232236"}, {"lon": -77.031698, "is_disabled": 0, "lat": 38.9191175, "fusion_lat": 0.0, "is_reserved": 0, "rental_uris": {"ios": "https://dc.lft.to/lastmile_qr_scan", "android": "https://dc.lft.to/lastmile_qr_scan"}, "fusion_lon": 0.0, "type": "electric_scooter", "bike_id": "7b1838a21ec83461b2b7901f295487bf", "name": "7b1838a21ec83461b2b7901f295487bf"}, {"lon": -77.00116416666667, "is_disabled": 0, "lat": 38.83583183333333, "fusion_lat": 0.0, "is_reserved": 0, "rental_uris": {"ios": "https://dc.lft.to/lastmile_qr_scan", "android": "https://dc.lft.to/lastmile_qr_scan"}, "fusion_lon": 0.0, "type": "electric_scooter", "bike_id": "e7ca60f737c2a2342470d73bcc395363", "name": "e7ca60f737c2a2342470d73bcc395363"}, {"lon": -77.02157116666666, "is_disabled": 0, "lat": 38.92608833333333, "fusion_lat": 0.0, "is_reserved": 0, "rental_uris": {"ios": "https://dc.lft.to/lastmile_qr_scan", "android": "https://dc.lft.to/lastmile_qr_scan"}, "fusion_lon": 0.0, "type": "electric_scooter", "bike_id": "50a8abd6a8003848afc553bbb90b9685", "name": "50a8abd6a8003848afc553bbb90b9685"}, {"lon": -77.00348633333333, "is_disabled": 0, "lat": 38.89464233333333, "fusion_lat": 0.0, "is_reserved": 0, "rental_uris": {"ios": "https://dc.lft.to/lastmile_qr_scan", "android": "https://dc.lft.to/lastmile_qr_scan"}, "fusion_lon": 0.0, "type": "electric_scooter", "bike_id": "3a68e9efdba26b59170db9180dff6508", "name": "3a68e9efdba26b59170db9180dff6508"}, {"lon": -77.04135683333334, "is_disabled": 0, "lat": 38.90011033333333, "fusion_lat": 0.0, "is_reserved": 0, "rental_uris": {"ios": "https://dc.lft.to/lastmile_qr_scan", "android": "https://dc.lft.to/lastmile_qr_scan"}, "fusion_lon": 0.0, "type": "electric_scooter", "bike_id": "440e4d179e7202e0c041241a415b1c51", "name": "440e4d179e7202e0c041241a415b1c51"}, {"lon": -76.99807566666667, "is_disabled": 0, "lat": 38.9087785, "fusion_lat": 0.0, "is_reserved": 0, "rental_uris": {"ios": "https://dc.lft.to/lastmile_qr_scan", "android": "https://dc.lft.to/lastmile_qr_scan"}, "fusion_lon": 0.0, "type": "electric_scooter", "bike_id": "c135a7ea6a11d2f591ee5e4268c49a8d", "name": "c135a7ea6a11d2f591ee5e4268c49a8d"}, {"lon": -77.04476266666667, "is_disabled": 0, "lat": 38.911069833333336, "fusion_lat": 0.0, "is_reserved": 0, "rental_uris": {"ios": "https://dc.lft.to/lastmile_qr_scan", "android": "https://dc.lft.to/lastmile_qr_scan"}, "fusion_lon": 0.0, "type": "electric_scooter", "bike_id": "568e5e094e6620430fad1879b7ff606c", "name": "568e5e094e6620430fad1879b7ff606c"}, {"lon": -76.98510666666667, "is_disabled": 0, "lat": 38.903445, "fusion_lat": 0.0, "is_reserved": 0, "rental_uris": {"ios": "https://dc.lft.to/lastmile_qr_scan", "android": "https://dc.lft.to/lastmile_qr_scan"}, "fusion_lon": 0.0, "type": "electric_scooter", "bike_id": "2725f0d0a7b2e42e101415a29cc0ea91", "name": "2725f0d0a7b2e42e101415a29cc0ea91"}, {"lon": -77.050324, "is_disabled": 0, "lat": 38.92364366666666, "fusion_lat": 0.0, "is_reserved": 0, "rental_uris": {"ios": "https://dc.lft.to/lastmile_qr_scan", "android": "https://dc.lft.to/lastmile_qr_scan"}, "fusion_lon": 0.0, "type": "electric_scooter", "bike_id": "f4cfdca2f625593ebf6af6af0a615e1c", "name": "f4cfdca2f625593ebf6af6af0a615e1c"}, {"lon": -77.027135, "is_disabled": 0, "lat": 38.927658, "fusion_lat": 0.0, "is_reserved": 0, "rental_uris": {"ios": "https://dc.lft.to/lastmile_qr_scan", "android": "https://dc.lft.to/lastmile_qr_scan"}, "fusion_lon": 0.0, "type": "electric_scooter", "bike_id": "837eec0b167558d98c20b64b808e1e5c", "name": "837eec0b167558d98c20b64b808e1e5c"}, {"lon": -76.981484, "is_disabled": 0, "lat": 38.90566366666667, "fusion_lat": 0.0, "is_reserved": 0, "rental_uris": {"ios": "https://dc.lft.to/lastmile_qr_scan", "android": "https://dc.lft.to/lastmile_qr_scan"}, "fusion_lon": 0.0, "type": "electric_scooter", "bike_id": "b5000dd582d539f71028270839ef94cc", "name": "b5000dd582d539f71028270839ef94cc"}, {"lon": -77.02175533333333, "is_disabled": 0, "lat": 38.901900499999996, "fusion_lat": 0.0, "is_reserved": 0, "rental_uris": {"ios": "https://dc.lft.to/lastmile_qr_scan", "android": "https://dc.lft.to/lastmile_qr_scan"}, "fusion_lon": 0.0, "type": "electric_scooter", "bike_id": "cdbf7bcd6d5aa29de89e0a7cf136a5e1", "name": "cdbf7bcd6d5aa29de89e0a7cf136a5e1"}, {"lon": -77.04209416666667, "is_disabled": 0, "lat": 38.92310616666666, "fusion_lat": 0.0, "is_reserved": 0, "rental_uris": {"ios": "https://dc.lft.to/lastmile_qr_scan", "android": "https://dc.lft.to/lastmile_qr_scan"}, "fusion_lon": 0.0, "type": "electric_scooter", "bike_id": "30bd6252119950a86ae2e9a274b52715", "name": "30bd6252119950a86ae2e9a274b52715"}, {"lon": -77.04083716666666, "is_disabled": 0, "lat": 38.905019333333335, "fusion_lat": 0.0, "is_reserved": 0, "rental_uris": {"ios": "https://dc.lft.to/lastmile_qr_scan", "android": "https://dc.lft.to/lastmile_qr_scan"}, "fusion_lon": 0.0, "type": "electric_scooter", "bike_id": "6ca8041e395d7ae16fe9540a7aeb7514", "name": "6ca8041e395d7ae16fe9540a7aeb7514"}, {"lon": -77.02413016666667, "is_disabled": 0, "lat": 38.919129166666664, "fusion_lat": 0.0, "is_reserved": 0, "rental_uris": {"ios": "https://dc.lft.to/lastmile_qr_scan", "android": "https://dc.lft.to/lastmile_qr_scan"}, "fusion_lon": 0.0, "type": "electric_scooter", "bike_id": "1a4ac2b6ede8115e45b2bc829eae8d68", "name": "1a4ac2b6ede8115e45b2bc829eae8d68"}, {"lon": -77.06843783333333, "is_disabled": 0, "lat": 38.917221166666664, "fusion_lat": 0.0, "is_reserved": 0, "rental_uris": {"ios": "https://dc.lft.to/lastmile_qr_scan", "android": "https://dc.lft.to/lastmile_qr_scan"}, "fusion_lon": 0.0, "type": "electric_scooter", "bike_id": "719e44e6ddee3ac59f9fa89d09f2ac34", "name": "719e44e6ddee3ac59f9fa89d09f2ac34"}, {"lon": -77.041373, "is_disabled": 0, "lat": 38.90714283333333, "fusion_lat": 0.0, "is_reserved": 0, "rental_uris": {"ios": "https://dc.lft.to/lastmile_qr_scan", "android": "https://dc.lft.to/lastmile_qr_scan"}, "fusion_lon": 0.0, "type": "electric_scooter", "bike_id": "2b9b8f692d278e221b0a0fc37af6514e", "name": "2b9b8f692d278e221b0a0fc37af6514e"}, {"lon": -77.043941, "is_disabled": 0, "lat": 38.908671166666664, "fusion_lat": 0.0, "is_reserved": 0, "rental_uris": {"ios": "https://dc.lft.to/lastmile_qr_scan", "android": "https://dc.lft.to/lastmile_qr_scan"}, "fusion_lon": 0.0, "type": "electric_scooter", "bike_id": "e9fd95381d9019981953f7faa73b7f5e", "name": "e9fd95381d9019981953f7faa73b7f5e"}, {"lon": -77.02199533333334, "is_disabled": 0, "lat": 38.91034833333333, "fusion_lat": 0.0, "is_reserved": 0, "rental_uris": {"ios": "https://dc.lft.to/lastmile_qr_scan", "android": "https://dc.lft.to/lastmile_qr_scan"}, "fusion_lon": 0.0, "type": "electric_scooter", "bike_id": "3b07e40b30ba76b95eaae299ce31b996", "name": "3b07e40b30ba76b95eaae299ce31b996"}, {"lon": -77.02397433333333, "is_disabled": 0, "lat": 38.9370535, "fusion_lat": 0.0, "is_reserved": 0, "rental_uris": {"ios": "https://dc.lft.to/lastmile_qr_scan", "android": "https://dc.lft.to/lastmile_qr_scan"}, "fusion_lon": 0.0, "type": "electric_scooter", "bike_id": "02ff4804f239feb5008b6189e94c6d5a", "name": "02ff4804f239feb5008b6189e94c6d5a"}, {"lon": -77.04446216666666, "is_disabled": 0, "lat": 38.9155245, "fusion_lat": 0.0, "is_reserved": 0, "rental_uris": {"ios": "https://dc.lft.to/lastmile_qr_scan", "android": "https://dc.lft.to/lastmile_qr_scan"}, "fusion_lon": 0.0, "type": "electric_scooter", "bike_id": "8061ae666d0534c68d5294897b75ce9f", "name": "8061ae666d0534c68d5294897b75ce9f"}, {"lon": -76.990092, "is_disabled": 0, "lat": 38.8650545, "fusion_lat": 0.0, "is_reserved": 0, "rental_uris": {"ios": "https://dc.lft.to/lastmile_qr_scan", "android": "https://dc.lft.to/lastmile_qr_scan"}, "fusion_lon": 0.0, "type": "electric_scooter", "bike_id": "33d57acab368322fed2c844da5c0cb9f", "name": "33d57acab368322fed2c844da5c0cb9f"}, {"lon": -77.01762866666667, "is_disabled": 0, "lat": 38.883969666666665, "fusion_lat": 0.0, "is_reserved": 0, "rental_uris": {"ios": "https://dc.lft.to/lastmile_qr_scan", "android": "https://dc.lft.to/lastmile_qr_scan"}, "fusion_lon": 0.0, "type": "electric_scooter", "bike_id": "b0ecc8a70967b25e0175365a7822516f", "name": "b0ecc8a70967b25e0175365a7822516f"}, {"lon": -77.02388366666666, "is_disabled": 0, "lat": 38.91991816666667, "fusion_lat": 0.0, "is_reserved": 0, "rental_uris": {"ios": "https://dc.lft.to/lastmile_qr_scan", "android": "https://dc.lft.to/lastmile_qr_scan"}, "fusion_lon": 0.0, "type": "electric_scooter", "bike_id": "4c4b23566fe06a376b31d853ae929842", "name": "4c4b23566fe06a376b31d853ae929842"}, {"lon": -77.02787083333334, "is_disabled": 0, "lat": 38.92764233333333, "fusion_lat": 0.0, "is_reserved": 0, "rental_uris": {"ios": "https://dc.lft.to/lastmile_qr_scan", "android": "https://dc.lft.to/lastmile_qr_scan"}, "fusion_lon": 0.0, "type": "electric_scooter", "bike_id": "1a4f1cf1e0b1f329233542b6f14c87ad", "name": "1a4f1cf1e0b1f329233542b6f14c87ad"}, {"lon": -77.0149425, "is_disabled": 0, "lat": 38.91752433333333, "fusion_lat": 0.0, "is_reserved": 0, "rental_uris": {"ios": "https://dc.lft.to/lastmile_qr_scan", "android": "https://dc.lft.to/lastmile_qr_scan"}, "fusion_lon": 0.0, "type": "electric_scooter", "bike_id": "355ed653a91822c98aed457d384df005", "name": "355ed653a91822c98aed457d384df005"}, {"lon": -77.00772683333334, "is_disabled": 0, "lat": 38.8791245, "fusion_lat": 0.0, "is_reserved": 0, "rental_uris": {"ios": "https://dc.lft.to/lastmile_qr_scan", "android": "https://dc.lft.to/lastmile_qr_scan"}, "fusion_lon": 0.0, "type": "electric_scooter", "bike_id": "a3b786f899f18cd2b6df4c8aea5cfb20", "name": "a3b786f899f18cd2b6df4c8aea5cfb20"}, {"lon": -77.22888, "is_disabled": 0, "lat": 38.909562666666666, "fusion_lat": 0.0, "is_reserved": 0, "rental_uris": {"ios": "https://dc.lft.to/lastmile_qr_scan", "android": "https://dc.lft.to/lastmile_qr_scan"}, "fusion_lon": 0.0, "type": "electric_bike", "bike_id": "10c69fbd6eab10b57ab864ee3e105d00", "name": "10c69fbd6eab10b57ab864ee3e105d00"}, {"lon": -77.03340883333334, "is_disabled": 0, "lat": 38.89845666666667, "fusion_lat": 0.0, "is_reserved": 0, "rental_uris": {"ios": "https://dc.lft.to/lastmile_qr_scan", "android": "https://dc.lft.to/lastmile_qr_scan"}, "fusion_lon": 0.0, "type": "electric_scooter", "bike_id": "0566f9445761f0ae313b3402827ed316", "name": "0566f9445761f0ae313b3402827ed316"}, {"lon": -76.981792, "is_disabled": 0, "lat": 38.8696205, "fusion_lat": 0.0, "is_reserved": 0, "rental_uris": {"ios": "https://dc.lft.to/lastmile_qr_scan", "android": "https://dc.lft.to/lastmile_qr_scan"}, "fusion_lon": 0.0, "type": "electric_scooter", "bike_id": "f4751f1dc3cb26f152da39f88661d939", "name": "f4751f1dc3cb26f152da39f88661d939"}, {"lon": -77.0342025, "is_disabled": 0, "lat": 38.92849733333333, "fusion_lat": 0.0, "is_reserved": 0, "rental_uris": {"ios": "https://dc.lft.to/lastmile_qr_scan", "android": "https://dc.lft.to/lastmile_qr_scan"}, "fusion_lon": 0.0, "type": "electric_scooter", "bike_id": "99e7b3bb9a6ef8737e1ca5debd538960", "name": "99e7b3bb9a6ef8737e1ca5debd538960"}, {"lon": -77.04110833333333, "is_disabled": 0, "lat": 38.91033133333333, "fusion_lat": 0.0, "is_reserved": 0, "rental_uris": {"ios": "https://dc.lft.to/lastmile_qr_scan", "android": "https://dc.lft.to/lastmile_qr_scan"}, "fusion_lon": 0.0, "type": "electric_scooter", "bike_id": "406f10869278c45869c5e5b0b094c911", "name": "406f10869278c45869c5e5b0b094c911"}, {"lon": -77.0392995, "is_disabled": 0, "lat": 38.89858916666667, "fusion_lat": 0.0, "is_reserved": 0, "rental_uris": {"ios": "https://dc.lft.to/lastmile_qr_scan", "android": "https://dc.lft.to/lastmile_qr_scan"}, "fusion_lon": 0.0, "type": "electric_scooter", "bike_id": "cc7400c86b9220e58afd783841ff40a6", "name": "cc7400c86b9220e58afd783841ff40a6"}, {"lon": -77.04177366666667, "is_disabled": 0, "lat": 38.913934833333336, "fusion_lat": 0.0, "is_reserved": 0, "rental_uris": {"ios": "https://dc.lft.to/lastmile_qr_scan", "android": "https://dc.lft.to/lastmile_qr_scan"}, "fusion_lon": 0.0, "type": "electric_scooter", "bike_id": "b212c5f2dd2f41fd8e99a61226ad5c3b", "name": "b212c5f2dd2f41fd8e99a61226ad5c3b"}, {"lon": -76.97839, "is_disabled": 0, "lat": 38.898475166666664, "fusion_lat": 0.0, "is_reserved": 0, "rental_uris": {"ios": "https://dc.lft.to/lastmile_qr_scan", "android": "https://dc.lft.to/lastmile_qr_scan"}, "fusion_lon": 0.0, "type": "electric_scooter", "bike_id": "888ac75fcca81a7d13e79c34f64382c6", "name": "888ac75fcca81a7d13e79c34f64382c6"}, {"lon": -77.03638733333334, "is_disabled": 0, "lat": 38.91787083333333, "fusion_lat": 0.0, "is_reserved": 0, "rental_uris": {"ios": "https://dc.lft.to/lastmile_qr_scan", "android": "https://dc.lft.to/lastmile_qr_scan"}, "fusion_lon": 0.0, "type": "electric_scooter", "bike_id": "9b918ea6d5a55a30e6cef24208b8831a", "name": "9b918ea6d5a55a30e6cef24208b8831a"}, {"lon": -77.01148966666666, "is_disabled": 0, "lat": 38.89641833333334, "fusion_lat": 0.0, "is_reserved": 0, "rental_uris": {"ios": "https://dc.lft.to/lastmile_qr_scan", "android": "https://dc.lft.to/lastmile_qr_scan"}, "fusion_lon": 0.0, "type": "electric_scooter", "bike_id": "f230f7d2bb94e227b22951295300bc87", "name": "f230f7d2bb94e227b22951295300bc87"}, {"lon": -77.03861833333333, "is_disabled": 0, "lat": 38.90714916666667, "fusion_lat": 0.0, "is_reserved": 0, "rental_uris": {"ios": "https://dc.lft.to/lastmile_qr_scan", "android": "https://dc.lft.to/lastmile_qr_scan"}, "fusion_lon": 0.0, "type": "electric_scooter", "bike_id": "60548f3dffa6dd9d66da87b08c07806a", "name": "60548f3dffa6dd9d66da87b08c07806a"}, {"lon": -77.0279415, "is_disabled": 0, "lat": 38.927631166666664, "fusion_lat": 0.0, "is_reserved": 0, "rental_uris": {"ios": "https://dc.lft.to/lastmile_qr_scan", "android": "https://dc.lft.to/lastmile_qr_scan"}, "fusion_lon": 0.0, "type": "electric_scooter", "bike_id": "25d5761a0e34b8302d9459b51eafc014", "name": "25d5761a0e34b8302d9459b51eafc014"}, {"lon": -77.23257383333333, "is_disabled": 0, "lat": 38.8725745, "fusion_lat": 0.0, "is_reserved": 0, "rental_uris": {"ios": "https://dc.lft.to/lastmile_qr_scan", "android": "https://dc.lft.to/lastmile_qr_scan"}, "fusion_lon": 0.0, "type": "electric_bike", "bike_id": "892f820da8dc3625b1a81f2d16f19502", "name": "892f820da8dc3625b1a81f2d16f19502"}, {"lon": -77.050507, "is_disabled": 0, "lat": 38.90522716666667, "fusion_lat": 0.0, "is_reserved": 0, "rental_uris": {"ios": "https://dc.lft.to/lastmile_qr_scan", "android": "https://dc.lft.to/lastmile_qr_scan"}, "fusion_lon": 0.0, "type": "electric_scooter", "bike_id": "165c3f23b79abf01a79177f88ea2c3d2", "name": "165c3f23b79abf01a79177f88ea2c3d2"}, {"lon": -77.0481835, "is_disabled": 0, "lat": 38.909497, "fusion_lat": 0.0, "is_reserved": 0, "rental_uris": {"ios": "https://dc.lft.to/lastmile_qr_scan", "android": "https://dc.lft.to/lastmile_qr_scan"}, "fusion_lon": 0.0, "type": "electric_scooter", "bike_id": "3b85b946faeb0176701ce727b65cf09e", "name": "3b85b946faeb0176701ce727b65cf09e"}, {"lon": -77.0184415, "is_disabled": 0, "lat": 38.90970383333333, "fusion_lat": 0.0, "is_reserved": 0, "rental_uris": {"ios": "https://dc.lft.to/lastmile_qr_scan", "android": "https://dc.lft.to/lastmile_qr_scan"}, "fusion_lon": 0.0, "type": "electric_scooter", "bike_id": "5e19c6969f6f0797fd58dcd0cacbf83a", "name": "5e19c6969f6f0797fd58dcd0cacbf83a"}, {"lon": -76.9888275, "is_disabled": 0, "lat": 38.866598833333335, "fusion_lat": 0.0, "is_reserved": 0, "rental_uris": {"ios": "https://dc.lft.to/lastmile_qr_scan", "android": "https://dc.lft.to/lastmile_qr_scan"}, "fusion_lon": 0.0, "type": "electric_scooter", "bike_id": "5c1fbe3875eab9ee554da8c167b58fa3", "name": "5c1fbe3875eab9ee554da8c167b58fa3"}, {"lon": -77.03920683333334, "is_disabled": 0, "lat": 38.916985333333336, "fusion_lat": 0.0, "is_reserved": 0, "rental_uris": {"ios": "https://dc.lft.to/lastmile_qr_scan", "android": "https://dc.lft.to/lastmile_qr_scan"}, "fusion_lon": 0.0, "type": "electric_scooter", "bike_id": "00aa01c16115653f69924979d0efc831", "name": "00aa01c16115653f69924979d0efc831"}, {"lon": -76.99993066666667, "is_disabled": 0, "lat": 38.96406283333334, "fusion_lat": 0.0, "is_reserved": 0, "rental_uris": {"ios": "https://dc.lft.to/lastmile_qr_scan", "android": "https://dc.lft.to/lastmile_qr_scan"}, "fusion_lon": 0.0, "type": "electric_bike", "bike_id": "1e8fdd29ca535cb127f3d987124c02f5", "name": "1e8fdd29ca535cb127f3d987124c02f5"}, {"lon": -77.04873866666667, "is_disabled": 0, "lat": 38.904105333333334, "fusion_lat": 0.0, "is_reserved": 0, "rental_uris": {"ios": "https://dc.lft.to/lastmile_qr_scan", "android": "https://dc.lft.to/lastmile_qr_scan"}, "fusion_lon": 0.0, "type": "electric_scooter", "bike_id": "61092f0149c5d67e76906d67b9282be6", "name": "61092f0149c5d67e76906d67b9282be6"}, {"lon": -77.0468335, "is_disabled": 0, "lat": 38.895486, "fusion_lat": 0.0, "is_reserved": 0, "rental_uris": {"ios": "https://dc.lft.to/lastmile_qr_scan", "android": "https://dc.lft.to/lastmile_qr_scan"}, "fusion_lon": 0.0, "type": "electric_scooter", "bike_id": "7545b994d2d21da307a343ba6cc4eb6e", "name": "7545b994d2d21da307a343ba6cc4eb6e"}, {"lon": -77.0630075, "is_disabled": 0, "lat": 38.9039655, "fusion_lat": 0.0, "is_reserved": 0, "rental_uris": {"ios": "https://dc.lft.to/lastmile_qr_scan", "android": "https://dc.lft.to/lastmile_qr_scan"}, "fusion_lon": 0.0, "type": "electric_scooter", "bike_id": "04aad4b117b895bb9e43251b2c1645f5", "name": "04aad4b117b895bb9e43251b2c1645f5"}, {"lon": -77.0385675, "is_disabled": 0, "lat": 38.93259583333333, "fusion_lat": 0.0, "is_reserved": 0, "rental_uris": {"ios": "https://dc.lft.to/lastmile_qr_scan", "android": "https://dc.lft.to/lastmile_qr_scan"}, "fusion_lon": 0.0, "type": "electric_scooter", "bike_id": "a68a107b7962b566a808fed3f46dc331", "name": "a68a107b7962b566a808fed3f46dc331"}, {"lon": -77.02799416666667, "is_disabled": 0, "lat": 38.89918616666667, "fusion_lat": 0.0, "is_reserved": 0, "rental_uris": {"ios": "https://dc.lft.to/lastmile_qr_scan", "android": "https://dc.lft.to/lastmile_qr_scan"}, "fusion_lon": 0.0, "type": "electric_scooter", "bike_id": "9a88f0601049b07ce0bc75d287f2c2e4", "name": "9a88f0601049b07ce0bc75d287f2c2e4"}, {"lon": -77.048184, "is_disabled": 0, "lat": 38.90956366666666, "fusion_lat": 0.0, "is_reserved": 0, "rental_uris": {"ios": "https://dc.lft.to/lastmile_qr_scan", "android": "https://dc.lft.to/lastmile_qr_scan"}, "fusion_lon": 0.0, "type": "electric_scooter", "bike_id": "14599b41a34d4b7e7b8320cd031fd1fc", "name": "14599b41a34d4b7e7b8320cd031fd1fc"}, {"lon": -77.03734333333334, "is_disabled": 0, "lat": 38.9202555, "fusion_lat": 0.0, "is_reserved": 0, "rental_uris": {"ios": "https://dc.lft.to/lastmile_qr_scan", "android": "https://dc.lft.to/lastmile_qr_scan"}, "fusion_lon": 0.0, "type": "electric_scooter", "bike_id": "c3417c2e369cc53dd7a3cc3fed7d1021", "name": "c3417c2e369cc53dd7a3cc3fed7d1021"}, {"lon": -77.043567, "is_disabled": 0, "lat": 38.9072865, "fusion_lat": 0.0, "is_reserved": 0, "rental_uris": {"ios": "https://dc.lft.to/lastmile_qr_scan", "android": "https://dc.lft.to/lastmile_qr_scan"}, "fusion_lon": 0.0, "type": "electric_scooter", "bike_id": "9f340671e9d345d3a1c2caea0f8caf78", "name": "9f340671e9d345d3a1c2caea0f8caf78"}, {"lon": -77.03498033333334, "is_disabled": 0, "lat": 38.917072166666664, "fusion_lat": 0.0, "is_reserved": 0, "rental_uris": {"ios": "https://dc.lft.to/lastmile_qr_scan", "android": "https://dc.lft.to/lastmile_qr_scan"}, "fusion_lon": 0.0, "type": "electric_scooter", "bike_id": "006c2dc179e9bed8bcde3730643c3470", "name": "006c2dc179e9bed8bcde3730643c3470"}, {"lon": -77.02949166666667, "is_disabled": 0, "lat": 38.90500133333333, "fusion_lat": 0.0, "is_reserved": 0, "rental_uris": {"ios": "https://dc.lft.to/lastmile_qr_scan", "android": "https://dc.lft.to/lastmile_qr_scan"}, "fusion_lon": 0.0, "type": "electric_scooter", "bike_id": "83c6c1aaf5096e2134185e66dbb1d702", "name": "83c6c1aaf5096e2134185e66dbb1d702"}, {"lon": -77.02130316666667, "is_disabled": 0, "lat": 38.9021445, "fusion_lat": 0.0, "is_reserved": 0, "rental_uris": {"ios": "https://dc.lft.to/lastmile_qr_scan", "android": "https://dc.lft.to/lastmile_qr_scan"}, "fusion_lon": 0.0, "type": "electric_scooter", "bike_id": "632ea5334605a897f62821421ebbd7de", "name": "632ea5334605a897f62821421ebbd7de"}, {"lon": -77.0209315, "is_disabled": 0, "lat": 38.921488, "fusion_lat": 0.0, "is_reserved": 0, "rental_uris": {"ios": "https://dc.lft.to/lastmile_qr_scan", "android": "https://dc.lft.to/lastmile_qr_scan"}, "fusion_lon": 0.0, "type": "electric_scooter", "bike_id": "a5db5c946449b3730cdbd9ee41a26a10", "name": "a5db5c946449b3730cdbd9ee41a26a10"}, {"lon": -77.02319316666667, "is_disabled": 0, "lat": 38.90916166666667, "fusion_lat": 0.0, "is_reserved": 0, "rental_uris": {"ios": "https://dc.lft.to/lastmile_qr_scan", "android": "https://dc.lft.to/lastmile_qr_scan"}, "fusion_lon": 0.0, "type": "electric_scooter", "bike_id": "bd639c8b22aa6e4c15d0504ecf97d901", "name": "bd639c8b22aa6e4c15d0504ecf97d901"}, {"lon": -77.01777566666667, "is_disabled": 0, "lat": 38.915019666666666, "fusion_lat": 0.0, "is_reserved": 0, "rental_uris": {"ios": "https://dc.lft.to/lastmile_qr_scan", "android": "https://dc.lft.to/lastmile_qr_scan"}, "fusion_lon": 0.0, "type": "electric_scooter", "bike_id": "4df7303e6e356e6f0363db8e49742b24", "name": "4df7303e6e356e6f0363db8e49742b24"}, {"lon": -77.0515225, "is_disabled": 0, "lat": 38.92377533333333, "fusion_lat": 0.0, "is_reserved": 0, "rental_uris": {"ios": "https://dc.lft.to/lastmile_qr_scan", "android": "https://dc.lft.to/lastmile_qr_scan"}, "fusion_lon": 0.0, "type": "electric_scooter", "bike_id": "322876c6edb3f724a33c9143ca81937c", "name": "322876c6edb3f724a33c9143ca81937c"}, {"lon": -77.02269866666667, "is_disabled": 0, "lat": 38.89519583333333, "fusion_lat": 0.0, "is_reserved": 0, "rental_uris": {"ios": "https://dc.lft.to/lastmile_qr_scan", "android": "https://dc.lft.to/lastmile_qr_scan"}, "fusion_lon": 0.0, "type": "electric_scooter", "bike_id": "f911b9970a8d19cc7ccddf75e43e02b2", "name": "f911b9970a8d19cc7ccddf75e43e02b2"}, {"lon": -77.001193, "is_disabled": 0, "lat": 38.886509, "fusion_lat": 0.0, "is_reserved": 0, "rental_uris": {"ios": "https://dc.lft.to/lastmile_qr_scan", "android": "https://dc.lft.to/lastmile_qr_scan"}, "fusion_lon": 0.0, "type": "electric_scooter", "bike_id": "b2bc441f721cde0948739eb0086a8b44", "name": "b2bc441f721cde0948739eb0086a8b44"}, {"lon": -76.9301635, "is_disabled": 0, "lat": 38.901612, "fusion_lat": 0.0, "is_reserved": 0, "rental_uris": {"ios": "https://dc.lft.to/lastmile_qr_scan", "android": "https://dc.lft.to/lastmile_qr_scan"}, "fusion_lon": 0.0, "type": "electric_scooter", "bike_id": "f1f45b61041139a423c2db54981c8a04", "name": "f1f45b61041139a423c2db54981c8a04"}, {"lon": -77.03265883333333, "is_disabled": 0, "lat": 38.89859116666667, "fusion_lat": 0.0, "is_reserved": 0, "rental_uris": {"ios": "https://dc.lft.to/lastmile_qr_scan", "android": "https://dc.lft.to/lastmile_qr_scan"}, "fusion_lon": 0.0, "type": "electric_scooter", "bike_id": "63063161ec34ed00e6c7dbd2a05e1322", "name": "63063161ec34ed00e6c7dbd2a05e1322"}, {"lon": -77.02116933333333, "is_disabled": 0, "lat": 38.9174265, "fusion_lat": 0.0, "is_reserved": 0, "rental_uris": {"ios": "https://dc.lft.to/lastmile_qr_scan", "android": "https://dc.lft.to/lastmile_qr_scan"}, "fusion_lon": 0.0, "type": "electric_scooter", "bike_id": "441df5210d703443fec4e3d689d862ce", "name": "441df5210d703443fec4e3d689d862ce"}, {"lon": -77.01194866666667, "is_disabled": 0, "lat": 38.9169765, "fusion_lat": 0.0, "is_reserved": 0, "rental_uris": {"ios": "https://dc.lft.to/lastmile_qr_scan", "android": "https://dc.lft.to/lastmile_qr_scan"}, "fusion_lon": 0.0, "type": "electric_scooter", "bike_id": "39a0fc0093b1f72879bb21faa2e46a64", "name": "39a0fc0093b1f72879bb21faa2e46a64"}, {"lon": -77.01148266666667, "is_disabled": 0, "lat": 38.95637466666667, "fusion_lat": 0.0, "is_reserved": 0, "rental_uris": {"ios": "https://dc.lft.to/lastmile_qr_scan", "android": "https://dc.lft.to/lastmile_qr_scan"}, "fusion_lon": 0.0, "type": "electric_scooter", "bike_id": "feb6e7b3a5e2852ccb36fdd11c72ba7e", "name": "feb6e7b3a5e2852ccb36fdd11c72ba7e"}, {"lon": -77.01000566666667, "is_disabled": 0, "lat": 38.9565345, "fusion_lat": 0.0, "is_reserved": 0, "rental_uris": {"ios": "https://dc.lft.to/lastmile_qr_scan", "android": "https://dc.lft.to/lastmile_qr_scan"}, "fusion_lon": 0.0, "type": "electric_scooter", "bike_id": "0b78de22f4b78723619be2303249e1d5", "name": "0b78de22f4b78723619be2303249e1d5"}, {"lon": -76.96532266666667, "is_disabled": 0, "lat": 38.87479533333333, "fusion_lat": 0.0, "is_reserved": 0, "rental_uris": {"ios": "https://dc.lft.to/lastmile_qr_scan", "android": "https://dc.lft.to/lastmile_qr_scan"}, "fusion_lon": 0.0, "type": "electric_bike", "bike_id": "458f533f70b46b702f6fb05981e61d31", "name": "458f533f70b46b702f6fb05981e61d31"}, {"lon": -77.024562, "is_disabled": 0, "lat": 38.943644666666664, "fusion_lat": 0.0, "is_reserved": 0, "rental_uris": {"ios": "https://dc.lft.to/lastmile_qr_scan", "android": "https://dc.lft.to/lastmile_qr_scan"}, "fusion_lon": 0.0, "type": "electric_scooter", "bike_id": "a7bd16700c740ca75027b665de34af26", "name": "a7bd16700c740ca75027b665de34af26"}, {"lon": -77.0630675, "is_disabled": 0, "lat": 38.798544, "fusion_lat": 0.0, "is_reserved": 0, "rental_uris": {"ios": "https://dc.lft.to/lastmile_qr_scan", "android": "https://dc.lft.to/lastmile_qr_scan"}, "fusion_lon": 0.0, "type": "electric_bike", "bike_id": "688934049776ce4ed15b65c4cc6de913", "name": "688934049776ce4ed15b65c4cc6de913"}, {"lon": -77.00578066666667, "is_disabled": 0, "lat": 38.9053895, "fusion_lat": 0.0, "is_reserved": 0, "rental_uris": {"ios": "https://dc.lft.to/lastmile_qr_scan", "android": "https://dc.lft.to/lastmile_qr_scan"}, "fusion_lon": 0.0, "type": "electric_scooter", "bike_id": "773cf044b86e46e4e5dafcd3492d0938", "name": "773cf044b86e46e4e5dafcd3492d0938"}, {"lon": -77.072652, "is_disabled": 0, "lat": 38.93473383333333, "fusion_lat": 0.0, "is_reserved": 0, "rental_uris": {"ios": "https://dc.lft.to/lastmile_qr_scan", "android": "https://dc.lft.to/lastmile_qr_scan"}, "fusion_lon": 0.0, "type": "electric_scooter", "bike_id": "4683dc922cc1d185853134f1512655fd", "name": "4683dc922cc1d185853134f1512655fd"}, {"lon": -77.02444716666666, "is_disabled": 0, "lat": 38.918372, "fusion_lat": 0.0, "is_reserved": 0, "rental_uris": {"ios": "https://dc.lft.to/lastmile_qr_scan", "android": "https://dc.lft.to/lastmile_qr_scan"}, "fusion_lon": 0.0, "type": "electric_scooter", "bike_id": "35ec1710ff205044018050a59a71da58", "name": "35ec1710ff205044018050a59a71da58"}, {"lon": -77.03954516666667, "is_disabled": 0, "lat": 38.903355166666664, "fusion_lat": 0.0, "is_reserved": 0, "rental_uris": {"ios": "https://dc.lft.to/lastmile_qr_scan", "android": "https://dc.lft.to/lastmile_qr_scan"}, "fusion_lon": 0.0, "type": "electric_scooter", "bike_id": "cd3642fce09101840275eacd20865592", "name": "cd3642fce09101840275eacd20865592"}, {"lon": -76.9949515, "is_disabled": 0, "lat": 38.862461, "fusion_lat": 0.0, "is_reserved": 0, "rental_uris": {"ios": "https://dc.lft.to/lastmile_qr_scan", "android": "https://dc.lft.to/lastmile_qr_scan"}, "fusion_lon": 0.0, "type": "electric_scooter", "bike_id": "d7eea0d87dcd624873a557e0bb0473ed", "name": "d7eea0d87dcd624873a557e0bb0473ed"}, {"lon": -77.03191516666666, "is_disabled": 0, "lat": 38.8924705, "fusion_lat": 0.0, "is_reserved": 0, "rental_uris": {"ios": "https://dc.lft.to/lastmile_qr_scan", "android": "https://dc.lft.to/lastmile_qr_scan"}, "fusion_lon": 0.0, "type": "electric_scooter", "bike_id": "0f4c73ed8f7f0bb5b72afc66f937db36", "name": "0f4c73ed8f7f0bb5b72afc66f937db36"}, {"lon": -77.02655233333333, "is_disabled": 0, "lat": 38.916992, "fusion_lat": 0.0, "is_reserved": 0, "rental_uris": {"ios": "https://dc.lft.to/lastmile_qr_scan", "android": "https://dc.lft.to/lastmile_qr_scan"}, "fusion_lon": 0.0, "type": "electric_scooter", "bike_id": "2af5b5d73da48dd796faf0114c1a382a", "name": "2af5b5d73da48dd796faf0114c1a382a"}, {"lon": -76.98857316666667, "is_disabled": 0, "lat": 38.8443545, "fusion_lat": 0.0, "is_reserved": 0, "rental_uris": {"ios": "https://dc.lft.to/lastmile_qr_scan", "android": "https://dc.lft.to/lastmile_qr_scan"}, "fusion_lon": 0.0, "type": "electric_scooter", "bike_id": "7a331199d392add6ce905cf560782410", "name": "7a331199d392add6ce905cf560782410"}, {"lon": -77.04188516666666, "is_disabled": 0, "lat": 38.926112333333336, "fusion_lat": 0.0, "is_reserved": 0, "rental_uris": {"ios": "https://dc.lft.to/lastmile_qr_scan", "android": "https://dc.lft.to/lastmile_qr_scan"}, "fusion_lon": 0.0, "type": "electric_scooter", "bike_id": "e8ea5353f0c9c9b992fabdd0606d2267", "name": "e8ea5353f0c9c9b992fabdd0606d2267"}, {"lon": -76.93976333333333, "is_disabled": 0, "lat": 38.893119, "fusion_lat": 0.0, "is_reserved": 0, "rental_uris": {"ios": "https://dc.lft.to/lastmile_qr_scan", "android": "https://dc.lft.to/lastmile_qr_scan"}, "fusion_lon": 0.0, "type": "electric_scooter", "bike_id": "37d57b765c211b8c325debbd59126db6", "name": "37d57b765c211b8c325debbd59126db6"}, {"lon": -77.04369433333333, "is_disabled": 0, "lat": 38.89223666666667, "fusion_lat": 0.0, "is_reserved": 0, "rental_uris": {"ios": "https://dc.lft.to/lastmile_qr_scan", "android": "https://dc.lft.to/lastmile_qr_scan"}, "fusion_lon": 0.0, "type": "electric_scooter", "bike_id": "9574f9fb5838637ef9844706cf5b39cf", "name": "9574f9fb5838637ef9844706cf5b39cf"}, {"lon": -77.0318405, "is_disabled": 0, "lat": 38.90940833333333, "fusion_lat": 0.0, "is_reserved": 0, "rental_uris": {"ios": "https://dc.lft.to/lastmile_qr_scan", "android": "https://dc.lft.to/lastmile_qr_scan"}, "fusion_lon": 0.0, "type": "electric_scooter", "bike_id": "eb3a266a2d88e34133c6d8ad6db18f2b", "name": "eb3a266a2d88e34133c6d8ad6db18f2b"}, {"lon": -77.03631433333334, "is_disabled": 0, "lat": 38.95636433333333, "fusion_lat": 0.0, "is_reserved": 0, "rental_uris": {"ios": "https://dc.lft.to/lastmile_qr_scan", "android": "https://dc.lft.to/lastmile_qr_scan"}, "fusion_lon": 0.0, "type": "electric_scooter", "bike_id": "95ffe0814d95cc53e2c315b02e98f5fa", "name": "95ffe0814d95cc53e2c315b02e98f5fa"}, {"lon": -77.0386655, "is_disabled": 0, "lat": 38.921481, "fusion_lat": 0.0, "is_reserved": 0, "rental_uris": {"ios": "https://dc.lft.to/lastmile_qr_scan", "android": "https://dc.lft.to/lastmile_qr_scan"}, "fusion_lon": 0.0, "type": "electric_scooter", "bike_id": "6019c457236128b311e7e7e084b79ab7", "name": "6019c457236128b311e7e7e084b79ab7"}, {"lon": -77.035067, "is_disabled": 0, "lat": 38.9182775, "fusion_lat": 0.0, "is_reserved": 0, "rental_uris": {"ios": "https://dc.lft.to/lastmile_qr_scan", "android": "https://dc.lft.to/lastmile_qr_scan"}, "fusion_lon": 0.0, "type": "electric_scooter", "bike_id": "3c8cfd641bc54ed020aa72ed5c56f08c", "name": "3c8cfd641bc54ed020aa72ed5c56f08c"}, {"lon": -77.02937866666667, "is_disabled": 0, "lat": 38.898095833333336, "fusion_lat": 0.0, "is_reserved": 0, "rental_uris": {"ios": "https://dc.lft.to/lastmile_qr_scan", "android": "https://dc.lft.to/lastmile_qr_scan"}, "fusion_lon": 0.0, "type": "electric_scooter", "bike_id": "21e50bbd6761fbf707cf72f7a3e0542f", "name": "21e50bbd6761fbf707cf72f7a3e0542f"}, {"lon": -77.1175075, "is_disabled": 0, "lat": 39.050975666666666, "fusion_lat": 0.0, "is_reserved": 0, "rental_uris": {"ios": "https://dc.lft.to/lastmile_qr_scan", "android": "https://dc.lft.to/lastmile_qr_scan"}, "fusion_lon": 0.0, "type": "electric_bike", "bike_id": "4adf941a6029e7a3570ae35e09c130af", "name": "4adf941a6029e7a3570ae35e09c130af"}, {"lon": -77.003867, "is_disabled": 0, "lat": 38.90552316666667, "fusion_lat": 0.0, "is_reserved": 0, "rental_uris": {"ios": "https://dc.lft.to/lastmile_qr_scan", "android": "https://dc.lft.to/lastmile_qr_scan"}, "fusion_lon": 0.0, "type": "electric_scooter", "bike_id": "15f2e7bf3ba969d6edc467da68dd2e57", "name": "15f2e7bf3ba969d6edc467da68dd2e57"}, {"lon": -77.00196383333333, "is_disabled": 0, "lat": 38.891078, "fusion_lat": 0.0, "is_reserved": 0, "rental_uris": {"ios": "https://dc.lft.to/lastmile_qr_scan", "android": "https://dc.lft.to/lastmile_qr_scan"}, "fusion_lon": 0.0, "type": "electric_scooter", "bike_id": "e803571bd2818e86669ce0af75c8cba7", "name": "e803571bd2818e86669ce0af75c8cba7"}, {"lon": -76.96052116666667, "is_disabled": 0, "lat": 38.8840145, "fusion_lat": 0.0, "is_reserved": 0, "rental_uris": {"ios": "https://dc.lft.to/lastmile_qr_scan", "android": "https://dc.lft.to/lastmile_qr_scan"}, "fusion_lon": 0.0, "type": "electric_bike", "bike_id": "ddb967edad1985e51d24d054ccfaef90", "name": "ddb967edad1985e51d24d054ccfaef90"}, {"lon": -77.03346433333333, "is_disabled": 0, "lat": 38.92867016666667, "fusion_lat": 0.0, "is_reserved": 0, "rental_uris": {"ios": "https://dc.lft.to/lastmile_qr_scan", "android": "https://dc.lft.to/lastmile_qr_scan"}, "fusion_lon": 0.0, "type": "electric_scooter", "bike_id": "dcaf3ccb2d06bbf5902b7c1da030a6ee", "name": "dcaf3ccb2d06bbf5902b7c1da030a6ee"}, {"lon": -77.01768666666666, "is_disabled": 0, "lat": 38.8775915, "fusion_lat": 0.0, "is_reserved": 0, "rental_uris": {"ios": "https://dc.lft.to/lastmile_qr_scan", "android": "https://dc.lft.to/lastmile_qr_scan"}, "fusion_lon": 0.0, "type": "electric_scooter", "bike_id": "722af32a2ea5134858a99260845ed531", "name": "722af32a2ea5134858a99260845ed531"}, {"lon": -77.02371616666667, "is_disabled": 0, "lat": 38.931544, "fusion_lat": 0.0, "is_reserved": 0, "rental_uris": {"ios": "https://dc.lft.to/lastmile_qr_scan", "android": "https://dc.lft.to/lastmile_qr_scan"}, "fusion_lon": 0.0, "type": "electric_scooter", "bike_id": "905c9ab22a94a1242b468fccd47931e2", "name": "905c9ab22a94a1242b468fccd47931e2"}, {"lon": -77.02223166666667, "is_disabled": 0, "lat": 38.8921585, "fusion_lat": 0.0, "is_reserved": 0, "rental_uris": {"ios": "https://dc.lft.to/lastmile_qr_scan", "android": "https://dc.lft.to/lastmile_qr_scan"}, "fusion_lon": 0.0, "type": "electric_scooter", "bike_id": "3f31303ec012ac9e8aff64368efad3fc", "name": "3f31303ec012ac9e8aff64368efad3fc"}, {"lon": -77.00925233333334, "is_disabled": 0, "lat": 38.910669166666665, "fusion_lat": 0.0, "is_reserved": 0, "rental_uris": {"ios": "https://dc.lft.to/lastmile_qr_scan", "android": "https://dc.lft.to/lastmile_qr_scan"}, "fusion_lon": 0.0, "type": "electric_scooter", "bike_id": "bc3ea781758bf5e6b4bfd995ccd3ad2f", "name": "bc3ea781758bf5e6b4bfd995ccd3ad2f"}, {"lon": -77.03255366666667, "is_disabled": 0, "lat": 38.9396745, "fusion_lat": 0.0, "is_reserved": 0, "rental_uris": {"ios": "https://dc.lft.to/lastmile_qr_scan", "android": "https://dc.lft.to/lastmile_qr_scan"}, "fusion_lon": 0.0, "type": "electric_scooter", "bike_id": "6c72e470e9c4733c25bb7bf033c43df3", "name": "6c72e470e9c4733c25bb7bf033c43df3"}, {"lon": -77.03822016666666, "is_disabled": 0, "lat": 38.9148015, "fusion_lat": 0.0, "is_reserved": 0, "rental_uris": {"ios": "https://dc.lft.to/lastmile_qr_scan", "android": "https://dc.lft.to/lastmile_qr_scan"}, "fusion_lon": 0.0, "type": "electric_scooter", "bike_id": "a04c095394ae66f96de92a4d9dbb28db", "name": "a04c095394ae66f96de92a4d9dbb28db"}, {"lon": -77.04656566666667, "is_disabled": 0, "lat": 38.90557833333333, "fusion_lat": 0.0, "is_reserved": 0, "rental_uris": {"ios": "https://dc.lft.to/lastmile_qr_scan", "android": "https://dc.lft.to/lastmile_qr_scan"}, "fusion_lon": 0.0, "type": "electric_scooter", "bike_id": "72a8e3b2cca90be2787059134787175b", "name": "72a8e3b2cca90be2787059134787175b"}, {"lon": -77.0435865, "is_disabled": 0, "lat": 38.917730666666664, "fusion_lat": 0.0, "is_reserved": 0, "rental_uris": {"ios": "https://dc.lft.to/lastmile_qr_scan", "android": "https://dc.lft.to/lastmile_qr_scan"}, "fusion_lon": 0.0, "type": "electric_scooter", "bike_id": "5154bec747434f77cc536cf6d872aaf5", "name": "5154bec747434f77cc536cf6d872aaf5"}, {"lon": -77.01777766666666, "is_disabled": 0, "lat": 38.88714083333333, "fusion_lat": 0.0, "is_reserved": 0, "rental_uris": {"ios": "https://dc.lft.to/lastmile_qr_scan", "android": "https://dc.lft.to/lastmile_qr_scan"}, "fusion_lon": 0.0, "type": "electric_scooter", "bike_id": "6bf2415fa92ab106a7e13ce5ede7ce26", "name": "6bf2415fa92ab106a7e13ce5ede7ce26"}, {"lon": -77.07253616666667, "is_disabled": 0, "lat": 38.93304933333334, "fusion_lat": 0.0, "is_reserved": 0, "rental_uris": {"ios": "https://dc.lft.to/lastmile_qr_scan", "android": "https://dc.lft.to/lastmile_qr_scan"}, "fusion_lon": 0.0, "type": "electric_scooter", "bike_id": "d63494051e5f8abc4eada4f54e01ab7e", "name": "d63494051e5f8abc4eada4f54e01ab7e"}, {"lon": -76.98336016666667, "is_disabled": 0, "lat": 38.900926, "fusion_lat": 0.0, "is_reserved": 0, "rental_uris": {"ios": "https://dc.lft.to/lastmile_qr_scan", "android": "https://dc.lft.to/lastmile_qr_scan"}, "fusion_lon": 0.0, "type": "electric_scooter", "bike_id": "fb920e733e6d4ee68d48537c68cac75f", "name": "fb920e733e6d4ee68d48537c68cac75f"}, {"lon": -77.05055866666666, "is_disabled": 0, "lat": 38.9038235, "fusion_lat": 0.0, "is_reserved": 0, "rental_uris": {"ios": "https://dc.lft.to/lastmile_qr_scan", "android": "https://dc.lft.to/lastmile_qr_scan"}, "fusion_lon": 0.0, "type": "electric_scooter", "bike_id": "703c688716b050e39fde9ab39ec09414", "name": "703c688716b050e39fde9ab39ec09414"}, {"lon": -77.05608616666666, "is_disabled": 0, "lat": 38.9369605, "fusion_lat": 0.0, "is_reserved": 0, "rental_uris": {"ios": "https://dc.lft.to/lastmile_qr_scan", "android": "https://dc.lft.to/lastmile_qr_scan"}, "fusion_lon": 0.0, "type": "electric_bike", "bike_id": "8fdc6303db5a2f1ace966085c9b08fc3", "name": "8fdc6303db5a2f1ace966085c9b08fc3"}, {"lon": -77.0318715, "is_disabled": 0, "lat": 38.91837116666667, "fusion_lat": 0.0, "is_reserved": 0, "rental_uris": {"ios": "https://dc.lft.to/lastmile_qr_scan", "android": "https://dc.lft.to/lastmile_qr_scan"}, "fusion_lon": 0.0, "type": "electric_scooter", "bike_id": "cd4a11f24f84da95c6080c2af415199b", "name": "cd4a11f24f84da95c6080c2af415199b"}, {"lon": -77.054345, "is_disabled": 0, "lat": 38.928511666666665, "fusion_lat": 0.0, "is_reserved": 0, "rental_uris": {"ios": "https://dc.lft.to/lastmile_qr_scan", "android": "https://dc.lft.to/lastmile_qr_scan"}, "fusion_lon": 0.0, "type": "electric_scooter", "bike_id": "6f3c0cbf68ba450c71eb6e684b629fc3", "name": "6f3c0cbf68ba450c71eb6e684b629fc3"}, {"lon": -77.02438816666667, "is_disabled": 0, "lat": 38.897048166666664, "fusion_lat": 0.0, "is_reserved": 0, "rental_uris": {"ios": "https://dc.lft.to/lastmile_qr_scan", "android": "https://dc.lft.to/lastmile_qr_scan"}, "fusion_lon": 0.0, "type": "electric_scooter", "bike_id": "6f4c78fbfca74d70c0ab0ea4cbc04519", "name": "6f4c78fbfca74d70c0ab0ea4cbc04519"}, {"lon": -77.02308616666667, "is_disabled": 0, "lat": 38.89459016666667, "fusion_lat": 0.0, "is_reserved": 0, "rental_uris": {"ios": "https://dc.lft.to/lastmile_qr_scan", "android": "https://dc.lft.to/lastmile_qr_scan"}, "fusion_lon": 0.0, "type": "electric_bike", "bike_id": "26ce93e06158696e13581be0dbc7662c", "name": "26ce93e06158696e13581be0dbc7662c"}, {"lon": -77.02636, "is_disabled": 0, "lat": 38.91069433333333, "fusion_lat": 0.0, "is_reserved": 0, "rental_uris": {"ios": "https://dc.lft.to/lastmile_qr_scan", "android": "https://dc.lft.to/lastmile_qr_scan"}, "fusion_lon": 0.0, "type": "electric_scooter", "bike_id": "7223598ca9d6cebd23252645ff290f72", "name": "7223598ca9d6cebd23252645ff290f72"}, {"lon": -77.0228905, "is_disabled": 0, "lat": 38.89519666666666, "fusion_lat": 0.0, "is_reserved": 0, "rental_uris": {"ios": "https://dc.lft.to/lastmile_qr_scan", "android": "https://dc.lft.to/lastmile_qr_scan"}, "fusion_lon": 0.0, "type": "electric_scooter", "bike_id": "88e52c0b6bbe37872aefdef99aa397df", "name": "88e52c0b6bbe37872aefdef99aa397df"}, {"lon": -77.05564983333333, "is_disabled": 0, "lat": 38.803938, "fusion_lat": 0.0, "is_reserved": 0, "rental_uris": {"ios": "https://dc.lft.to/lastmile_qr_scan", "android": "https://dc.lft.to/lastmile_qr_scan"}, "fusion_lon": 0.0, "type": "electric_bike", "bike_id": "b6afd256006a6d32f6e057cb1affcc72", "name": "b6afd256006a6d32f6e057cb1affcc72"}, {"lon": -77.03652, "is_disabled": 0, "lat": 38.92383433333333, "fusion_lat": 0.0, "is_reserved": 0, "rental_uris": {"ios": "https://dc.lft.to/lastmile_qr_scan", "android": "https://dc.lft.to/lastmile_qr_scan"}, "fusion_lon": 0.0, "type": "electric_scooter", "bike_id": "c8f21861b3d105e5a3afedecf44abd3c", "name": "c8f21861b3d105e5a3afedecf44abd3c"}, {"lon": -77.001346, "is_disabled": 0, "lat": 38.874977666666666, "fusion_lat": 0.0, "is_reserved": 0, "rental_uris": {"ios": "https://dc.lft.to/lastmile_qr_scan", "android": "https://dc.lft.to/lastmile_qr_scan"}, "fusion_lon": 0.0, "type": "electric_scooter", "bike_id": "1a98d68c94674e2b81969e240779d919", "name": "1a98d68c94674e2b81969e240779d919"}, {"lon": -77.0453875, "is_disabled": 0, "lat": 38.93153816666667, "fusion_lat": 0.0, "is_reserved": 0, "rental_uris": {"ios": "https://dc.lft.to/lastmile_qr_scan", "android": "https://dc.lft.to/lastmile_qr_scan"}, "fusion_lon": 0.0, "type": "electric_scooter", "bike_id": "9c1d72490cd2046dc61bd6474cd9e9be", "name": "9c1d72490cd2046dc61bd6474cd9e9be"}, {"lon": -77.03121666666667, "is_disabled": 0, "lat": 38.916143166666664, "fusion_lat": 0.0, "is_reserved": 0, "rental_uris": {"ios": "https://dc.lft.to/lastmile_qr_scan", "android": "https://dc.lft.to/lastmile_qr_scan"}, "fusion_lon": 0.0, "type": "electric_scooter", "bike_id": "4d0fd0a81ef0c57f405327e539b74794", "name": "4d0fd0a81ef0c57f405327e539b74794"}, {"lon": -77.02183883333333, "is_disabled": 0, "lat": 38.8871485, "fusion_lat": 0.0, "is_reserved": 0, "rental_uris": {"ios": "https://dc.lft.to/lastmile_qr_scan", "android": "https://dc.lft.to/lastmile_qr_scan"}, "fusion_lon": 0.0, "type": "electric_scooter", "bike_id": "eb7adb8719d2e2a6546460793de7e4cc", "name": "eb7adb8719d2e2a6546460793de7e4cc"}, {"lon": -77.04489183333334, "is_disabled": 0, "lat": 38.899510166666666, "fusion_lat": 0.0, "is_reserved": 0, "rental_uris": {"ios": "https://dc.lft.to/lastmile_qr_scan", "android": "https://dc.lft.to/lastmile_qr_scan"}, "fusion_lon": 0.0, "type": "electric_scooter", "bike_id": "9aa1061cdab4af610cd7cf2e17e47087", "name": "9aa1061cdab4af610cd7cf2e17e47087"}, {"lon": -77.12945, "is_disabled": 0, "lat": 38.8651895, "fusion_lat": 0.0, "is_reserved": 0, "rental_uris": {"ios": "https://dc.lft.to/lastmile_qr_scan", "android": "https://dc.lft.to/lastmile_qr_scan"}, "fusion_lon": 0.0, "type": "electric_bike", "bike_id": "686272fc3c0a230061c5fd08123607b0", "name": "686272fc3c0a230061c5fd08123607b0"}, {"lon": -77.00800666666666, "is_disabled": 0, "lat": 38.94911533333333, "fusion_lat": 0.0, "is_reserved": 0, "rental_uris": {"ios": "https://dc.lft.to/lastmile_qr_scan", "android": "https://dc.lft.to/lastmile_qr_scan"}, "fusion_lon": 0.0, "type": "electric_scooter", "bike_id": "ac5e314c9ece99d17b66ec39ed32341e", "name": "ac5e314c9ece99d17b66ec39ed32341e"}, {"lon": -77.00118033333334, "is_disabled": 0, "lat": 38.925355833333334, "fusion_lat": 0.0, "is_reserved": 0, "rental_uris": {"ios": "https://dc.lft.to/lastmile_qr_scan", "android": "https://dc.lft.to/lastmile_qr_scan"}, "fusion_lon": 0.0, "type": "electric_bike", "bike_id": "2e21a3c1727789a79fe63cb2c77d67f6", "name": "2e21a3c1727789a79fe63cb2c77d67f6"}, {"lon": -77.00342866666666, "is_disabled": 0, "lat": 38.895189, "fusion_lat": 0.0, "is_reserved": 0, "rental_uris": {"ios": "https://dc.lft.to/lastmile_qr_scan", "android": "https://dc.lft.to/lastmile_qr_scan"}, "fusion_lon": 0.0, "type": "electric_scooter", "bike_id": "486913831620cf5a8e7fca765cb06a68", "name": "486913831620cf5a8e7fca765cb06a68"}, {"lon": -77.01991816666667, "is_disabled": 0, "lat": 38.9399425, "fusion_lat": 0.0, "is_reserved": 0, "rental_uris": {"ios": "https://dc.lft.to/lastmile_qr_scan", "android": "https://dc.lft.to/lastmile_qr_scan"}, "fusion_lon": 0.0, "type": "electric_scooter", "bike_id": "86561b55d29df4b33abfb5c0d477fae4", "name": "86561b55d29df4b33abfb5c0d477fae4"}, {"lon": -76.97710733333334, "is_disabled": 0, "lat": 38.88521466666667, "fusion_lat": 0.0, "is_reserved": 0, "rental_uris": {"ios": "https://dc.lft.to/lastmile_qr_scan", "android": "https://dc.lft.to/lastmile_qr_scan"}, "fusion_lon": 0.0, "type": "electric_scooter", "bike_id": "c637811bb64af69c017f5cf08a1f08b3", "name": "c637811bb64af69c017f5cf08a1f08b3"}, {"lon": -77.024025, "is_disabled": 0, "lat": 38.915507166666664, "fusion_lat": 0.0, "is_reserved": 0, "rental_uris": {"ios": "https://dc.lft.to/lastmile_qr_scan", "android": "https://dc.lft.to/lastmile_qr_scan"}, "fusion_lon": 0.0, "type": "electric_scooter", "bike_id": "7caffe665b542363bb74ed2de377378e", "name": "7caffe665b542363bb74ed2de377378e"}, {"lon": -77.05334683333334, "is_disabled": 0, "lat": 38.902705, "fusion_lat": 0.0, "is_reserved": 0, "rental_uris": {"ios": "https://dc.lft.to/lastmile_qr_scan", "android": "https://dc.lft.to/lastmile_qr_scan"}, "fusion_lon": 0.0, "type": "electric_scooter", "bike_id": "11d7cb2303d5c9a376fda59e48d182fd", "name": "11d7cb2303d5c9a376fda59e48d182fd"}, {"lon": -77.04155666666666, "is_disabled": 0, "lat": 38.918559333333334, "fusion_lat": 0.0, "is_reserved": 0, "rental_uris": {"ios": "https://dc.lft.to/lastmile_qr_scan", "android": "https://dc.lft.to/lastmile_qr_scan"}, "fusion_lon": 0.0, "type": "electric_scooter", "bike_id": "07c4f8049ab7e9096be2ac4fb80717cd", "name": "07c4f8049ab7e9096be2ac4fb80717cd"}, {"lon": -77.03863333333334, "is_disabled": 0, "lat": 38.912516833333335, "fusion_lat": 0.0, "is_reserved": 0, "rental_uris": {"ios": "https://dc.lft.to/lastmile_qr_scan", "android": "https://dc.lft.to/lastmile_qr_scan"}, "fusion_lon": 0.0, "type": "electric_scooter", "bike_id": "b791a31e84191cc9b0e5184508be38c4", "name": "b791a31e84191cc9b0e5184508be38c4"}, {"lon": -77.03865316666666, "is_disabled": 0, "lat": 38.916909833333335, "fusion_lat": 0.0, "is_reserved": 0, "rental_uris": {"ios": "https://dc.lft.to/lastmile_qr_scan", "android": "https://dc.lft.to/lastmile_qr_scan"}, "fusion_lon": 0.0, "type": "electric_scooter", "bike_id": "ab0c23ff82ddabda0bcf0300a31ef54d", "name": "ab0c23ff82ddabda0bcf0300a31ef54d"}, {"lon": -77.02717133333333, "is_disabled": 0, "lat": 38.91670716666667, "fusion_lat": 0.0, "is_reserved": 0, "rental_uris": {"ios": "https://dc.lft.to/lastmile_qr_scan", "android": "https://dc.lft.to/lastmile_qr_scan"}, "fusion_lon": 0.0, "type": "electric_scooter", "bike_id": "8f16ac1a883ed40af8130b7424e7a5f0", "name": "8f16ac1a883ed40af8130b7424e7a5f0"}, {"lon": -77.03802216666666, "is_disabled": 0, "lat": 38.90237416666667, "fusion_lat": 0.0, "is_reserved": 0, "rental_uris": {"ios": "https://dc.lft.to/lastmile_qr_scan", "android": "https://dc.lft.to/lastmile_qr_scan"}, "fusion_lon": 0.0, "type": "electric_scooter", "bike_id": "332ab4cb7bae152617221848cf639cf2", "name": "332ab4cb7bae152617221848cf639cf2"}, {"lon": -77.01413583333333, "is_disabled": 0, "lat": 38.92811283333333, "fusion_lat": 0.0, "is_reserved": 0, "rental_uris": {"ios": "https://dc.lft.to/lastmile_qr_scan", "android": "https://dc.lft.to/lastmile_qr_scan"}, "fusion_lon": 0.0, "type": "electric_scooter", "bike_id": "9d376586bdddb7ed7d4bc627afa42fde", "name": "9d376586bdddb7ed7d4bc627afa42fde"}, {"lon": -77.02135233333334, "is_disabled": 0, "lat": 38.8970145, "fusion_lat": 0.0, "is_reserved": 0, "rental_uris": {"ios": "https://dc.lft.to/lastmile_qr_scan", "android": "https://dc.lft.to/lastmile_qr_scan"}, "fusion_lon": 0.0, "type": "electric_scooter", "bike_id": "dba10a7a4b049591e62affb1e08b65eb", "name": "dba10a7a4b049591e62affb1e08b65eb"}, {"lon": -77.00449733333333, "is_disabled": 0, "lat": 38.9117455, "fusion_lat": 0.0, "is_reserved": 0, "rental_uris": {"ios": "https://dc.lft.to/lastmile_qr_scan", "android": "https://dc.lft.to/lastmile_qr_scan"}, "fusion_lon": 0.0, "type": "electric_scooter", "bike_id": "051d4577ef9c354faa0f4abcf504d89e", "name": "051d4577ef9c354faa0f4abcf504d89e"}, {"lon": -77.02655466666667, "is_disabled": 0, "lat": 38.97197166666667, "fusion_lat": 0.0, "is_reserved": 0, "rental_uris": {"ios": "https://dc.lft.to/lastmile_qr_scan", "android": "https://dc.lft.to/lastmile_qr_scan"}, "fusion_lon": 0.0, "type": "electric_scooter", "bike_id": "28f966bc443ec20a4be45c4b3833fd5f", "name": "28f966bc443ec20a4be45c4b3833fd5f"}, {"lon": -77.00276033333333, "is_disabled": 0, "lat": 38.919054333333335, "fusion_lat": 0.0, "is_reserved": 0, "rental_uris": {"ios": "https://dc.lft.to/lastmile_qr_scan", "android": "https://dc.lft.to/lastmile_qr_scan"}, "fusion_lon": 0.0, "type": "electric_scooter", "bike_id": "e6cbd7744d022e7c6cc635d44a9dbf5b", "name": "e6cbd7744d022e7c6cc635d44a9dbf5b"}, {"lon": -77.03330166666667, "is_disabled": 0, "lat": 38.93886366666667, "fusion_lat": 0.0, "is_reserved": 0, "rental_uris": {"ios": "https://dc.lft.to/lastmile_qr_scan", "android": "https://dc.lft.to/lastmile_qr_scan"}, "fusion_lon": 0.0, "type": "electric_scooter", "bike_id": "bf38fad86d0ead999ab3b952153b87e8", "name": "bf38fad86d0ead999ab3b952153b87e8"}, {"lon": -76.98061733333333, "is_disabled": 0, "lat": 38.90118783333333, "fusion_lat": 0.0, "is_reserved": 0, "rental_uris": {"ios": "https://dc.lft.to/lastmile_qr_scan", "android": "https://dc.lft.to/lastmile_qr_scan"}, "fusion_lon": 0.0, "type": "electric_bike", "bike_id": "4b219df1f6507ce76819675fa8f76462", "name": "4b219df1f6507ce76819675fa8f76462"}, {"lon": -77.038292, "is_disabled": 0, "lat": 38.915546666666664, "fusion_lat": 0.0, "is_reserved": 0, "rental_uris": {"ios": "https://dc.lft.to/lastmile_qr_scan", "android": "https://dc.lft.to/lastmile_qr_scan"}, "fusion_lon": 0.0, "type": "electric_bike", "bike_id": "5ab46e1bad4dc14aacb2256df8f60278", "name": "5ab46e1bad4dc14aacb2256df8f60278"},