{"data": {"bikes": [{"rental_uris": {"ios": "https://dc.lft.to/lastmile_qr_scan", "android": "https://dc.lft.to/lastmile_qr_scan"}, "lat": 38.900232333333335, "is_disabled": 0, "bike_id": "5ebc23da071d47693c091ce04f8f8e63", "name": "5ebc23da071d47693c091ce04f8f8e63", "type": "electric_scooter", "fusion_lon": 0.0, "is_reserved": 0, "fusion_lat": 0.0, "lon": -77.04492266666666}, {"rental_uris": {"ios": "https://dc.lft.to/lastmile_qr_scan", "android": "https://dc.lft.to/lastmile_qr_scan"}, "lat": 38.86486166666667, "is_disabled": 0, "bike_id": "8cdd5c8d0c0388417819974b7b6c961c", "name": "8cdd5c8d0c0388417819974b7b6c961c", "type": "electric_scooter", "fusion_lon": 0.0, "is_reserved": 0, "fusion_lat": 0.0, "lon": -76.983581}, {"rental_uris": {"ios": "https://dc.lft.to/lastmile_qr_scan", "android": "https://dc.lft.to/lastmile_qr_scan"}, "lat": 38.90955533333333, "is_disabled": 0, "bike_id": "9bbf4e397e5f2acf06d6d3af9fc9a23d", "name": "9bbf4e397e5f2acf06d6d3af9fc9a23d", "type": "electric_scooter", "fusion_lon": 0.0, "is_reserved": 0, "fusion_lat": 0.0, "lon": -77.03372066666667}, {"rental_uris": {"ios": "https://dc.lft.to/lastmile_qr_scan", "android": "https://dc.lft.to/lastmile_qr_scan"}, "lat": 38.92381916666667, "is_disabled": 0, "bike_id": "74415b2fe19c413c3cefca98b508b636", "name": "74415b2fe19c413c3cefca98b508b636", "type": "electric_scooter", "fusion_lon": 0.0, "is_reserved": 0, "fusion_lat": 0.0, "lon": -77.04033616666666}, {"rental_uris": {"ios": "https://dc.lft.to/lastmile_qr_scan", "android": "https://dc.lft.to/lastmile_qr_scan"}, "lat": 38.87657133333333, "is_disabled": 0, "bike_id": "444b033a774f5fecac677427bdf2cad1", "name": "444b033a774f5fecac677427bdf2cad1", "type": "electric_scooter", "fusion_lon": 0.0, "is_reserved": 0, "fusion_lat": 0.0, "lon": -76.993343}, {"rental_uris": {"ios": "https://dc.lft.to/lastmile_qr_scan", "android": "https://dc.lft.to/lastmile_qr_scan"}, "lat": 38.92280483333333, "is_disabled": 0, "bike_id": "92ad2cf9a834685821765ba065c69f96", "name": "92ad2cf9a834685821765ba065c69f96", "type": "electric_scooter", "fusion_lon": 0.0, "is_reserved": 0, "fusion_lat": 0.0, "lon": -76.99779683333334}, {"rental_uris": {"ios": "https://dc.lft.to/lastmile_qr_scan", "android": "https://dc.lft.to/lastmile_qr_scan"}, "lat": 38.892301333333336, "is_disabled": 0, "bike_id": "81b17b95a76cbacd86b6698e0183ea39", "name": "81b17b95a76cbacd86b6698e0183ea39", "type": "electric_scooter", "fusion_lon": 0.0, "is_reserved": 0, "fusion_lat": 0.0, "lon": -77.02827866666667}, {"rental_uris": {"ios": "https://dc.lft.to/lastmile_qr_scan", "android": "https://dc.lft.to/lastmile_qr_scan"}, "lat": 38.9051165, "is_disabled": 0, "bike_id": "1ad4c509022d0f0a37b41515ad6e9e71", "name": "1ad4c509022d0f0a37b41515ad6e9e71", "type": "electric_scooter", "fusion_lon": 0.0, "is_reserved": 0, "fusion_lat": 0.0, "lon": -77.04060333333334}, {"rental_uris": {"ios": "https://dc.lft.to/lastmile_qr_scan", "android": "https://dc.lft.to/lastmile_qr_scan"}, "lat": 38.88770933333333, "is_disabled": 0, "bike_id": "89bf4782c3d5d5b08da6d7381e52aeb9", "name": "89bf4782c3d5d5b08da6d7381e52aeb9", "type": "electric_scooter", "fusion_lon": 0.0, "is_reserved": 0, "fusion_lat": 0.0, "lon": -77.02175283333334}, {"rental_uris": {"ios": "https://dc.lft.to/lastmile_qr_scan", "android": "https://dc.lft.to/lastmile_qr_scan"}, "lat": 38.85248933333333, "is_disabled": 0, "bike_id": "875a4b6be83c052e3a278188ad8070f7", "name": "875a4b6be83c052e3a278188ad8070f7", "type": "electric_bike", "fusion_lon": 0.0, "is_reserved": 0, "fusion_lat": 0.0, "lon": -77.11423466666666}, {"rental_uris": {"ios": "https://dc.lft.to/lastmile_qr_scan", "android": "https://dc.lft.to/lastmile_qr_scan"}, "lat": 38.956379166666665, "is_disabled": 0, "bike_id": "cb67fb58eab7b4b7095bbe03858b7779", "name": "cb67fb58eab7b4b7095bbe03858b7779", "type": "electric_scooter", "fusion_lon": 0.0, "is_reserved": 0, "fusion_lat": 0.0, "lon": -77.0329065}, {"rental_uris": {"ios": "https://dc.lft.to/lastmile_qr_scan", "android": "https://dc.lft.to/lastmile_qr_scan"}, "lat": 38.91711683333333, "is_disabled": 0, "bike_id": "cd0e9a05d52bbf18906cab69fce3813c", "name": "cd0e9a05d52bbf18906cab69fce3813c", "type": "electric_scooter", "fusion_lon": 0.0, "is_reserved": 0, "fusion_lat": 0.0, "lon": -77.09206383333333}, {"rental_uris": {"ios": "https://dc.lft.to/lastmile_qr_scan", "android": "https://dc.lft.to/lastmile_qr_scan"}, "lat": 38.903184833333334, "is_disabled": 0, "bike_id": "4e2f8bd75e222fed9b4c6ffaaaf15fdc", "name": "4e2f8bd75e222fed9b4c6ffaaaf15fdc", "type": "electric_scooter", "fusion_lon": 0.0, "is_reserved": 0, "fusion_lat": 0.0, "lon": -77.034244}, {"rental_uris": {"ios": "https://dc.lft.to/lastmile_qr_scan", "android": "https://dc.lft.to/lastmile_qr_scan"}, "lat": 38.894561, "is_disabled": 0, "bike_id": "7071e716fc72cabdb68da5185da1328f", "name": "7071e716fc72cabdb68da5185da1328f", "type": "electric_scooter", "fusion_lon": 0.0, "is_reserved": 0, "fusion_lat": 0.0, "lon": -77.02103183333334}, {"rental_uris": {"ios": "https://dc.lft.to/lastmile_qr_scan", "android": "https://dc.lft.to/lastmile_qr_scan"}, "lat": 38.91363316666666, "is_disabled": 0, "bike_id": "cecaefad4674bfc259dcc368e9f2dfd8", "name": "cecaefad4674bfc259dcc368e9f2dfd8", "type": "electric_scooter", "fusion_lon": 0.0, "is_reserved": 0, "fusion_lat": 0.0, "lon": -77.02234483333334}, {"rental_uris": {"ios": "https://dc.lft.to/lastmile_qr_scan", "android": "https://dc.lft.to/lastmile_qr_scan"}, "lat": 38.904262, "is_disabled": 0, "bike_id": "aec52fcf4f1ba61c37a6e48b21134753", "name": "aec52fcf4f1ba61c37a6e48b21134753", "type": "electric_scooter", "fusion_lon": 0.0, "is_reserved": 0, "fusion_lat": 0.0, "lon": -77.03954133333333}, {"rental_uris": {"ios": "https://dc.lft.to/lastmile_qr_scan", "android": "https://dc.lft.to/lastmile_qr_scan"}, "lat": 38.9048935, "is_disabled": 0, "bike_id": "105835e0226cdfebd896f433042f8fcc", "name": "105835e0226cdfebd896f433042f8fcc", "type": "electric_scooter", "fusion_lon": 0.0, "is_reserved": 0, "fusion_lat": 0.0, "lon": -77.0466485}, {"rental_uris": {"ios": "https://dc.lft.to/lastmile_qr_scan", "android": "https://dc.lft.to/lastmile_qr_scan"}, "lat": 38.8955975, "is_disabled": 0, "bike_id": "bffcd3a7c20ce1590e297ca1825c9ad2", "name": "bffcd3a7c20ce1590e297ca1825c9ad2", "type": "electric_scooter", "fusion_lon": 0.0, "is_reserved": 0, "fusion_lat": 0.0, "lon": -77.00897766666667}, {"rental_uris": {"ios": "https://dc.lft.to/lastmile_qr_scan", "android": "https://dc.lft.to/lastmile_qr_scan"}, "lat": 38.9226055, "is_disabled": 0, "bike_id": "cd4a0279e1e2830c731240148f5f40b0", "name": "cd4a0279e1e2830c731240148f5f40b0", "type": "electric_scooter", "fusion_lon": 0.0, "is_reserved": 0, "fusion_lat": 0.0, "lon": -77.03218166666667}, {"rental_uris": {"ios": "https://dc.lft.to/lastmile_qr_scan", "android": "https://dc.lft.to/lastmile_qr_scan"}, "lat": 38.933979666666666, "is_disabled": 0, "bike_id": "dce127ca9fe98e4391850c8870bd15df", "name": "dce127ca9fe98e4391850c8870bd15df", "type": "electric_scooter", "fusion_lon": 0.0, "is_reserved": 0, "fusion_lat": 0.0, "lon": -77.02728766666667}, {"rental_uris": {"ios": "https://dc.lft.to/lastmile_qr_scan", "android": "https://dc.lft.to/lastmile_qr_scan"}, "lat": 38.926041, "is_disabled": 0, "bike_id": "9a8d51659bd6d53d5337636ad90c2306", "name": "9a8d51659bd6d53d5337636ad90c2306", "type": "electric_scooter", "fusion_lon": 0.0, "is_reserved": 0, "fusion_lat": 0.0, "lon": -77.039852}, {"rental_uris": {"ios": "https://dc.lft.to/lastmile_qr_scan", "android": "https://dc.lft.to/lastmile_qr_scan"}, "lat": 38.95641166666667, "is_disabled": 0, "bike_id": "62a6eb1352efaa172aac4145735d6cff", "name": "62a6eb1352efaa172aac4145735d6cff", "type": "electric_scooter", "fusion_lon": 0.0, "is_reserved": 0, "fusion_lat": 0.0, "lon": -77.0363185}, {"rental_uris": {"ios": "https://dc.lft.to/lastmile_qr_scan", "android": "https://dc.lft.to/lastmile_qr_scan"}, "lat": 38.91721016666666, "is_disabled": 0, "bike_id": "00eb025a0b370a60260e3141006408ef", "name": "00eb025a0b370a60260e3141006408ef", "type": "electric_scooter", "fusion_lon": 0.0, "is_reserved": 0, "fusion_lat": 0.0, "lon": -77.0229345}, {"rental_uris": {"ios": "https://dc.lft.to/lastmile_qr_scan", "android": "https://dc.lft.to/lastmile_qr_scan"}, "lat": 38.9340255, "is_disabled": 0, "bike_id": "9a918ca1837f40fffe0a4c1c53366a57", "name": "9a918ca1837f40fffe0a4c1c53366a57", "type": "electric_scooter", "fusion_lon": 0.0, "is_reserved": 0, "fusion_lat": 0.0, "lon": -76.9802765}, {"rental_uris": {"ios": "https://dc.lft.to/lastmile_qr_scan", "android": "https://dc.lft.to/lastmile_qr_scan"}, "lat": 38.903975833333334, "is_disabled": 0, "bike_id": "0ac9ae426cd76826979b0e200b01e913", "name": "0ac9ae426cd76826979b0e200b01e913", "type": "electric_scooter", "fusion_lon": 0.0, "is_reserved": 0, "fusion_lat": 0.0, "lon": -77.028355}, {"rental_uris": {"ios": "https://dc.lft.to/lastmile_qr_scan", "android": "https://dc.lft.to/lastmile_qr_scan"}, "lat": 38.924169, "is_disabled": 0, "bike_id": "9a191b2a478c05f8941b73e274fcec87", "name": "9a191b2a478c05f8941b73e274fcec87", "type": "electric_scooter", "fusion_lon": 0.0, "is_reserved": 0, "fusion_lat": 0.0, "lon": -77.0561785}, {"rental_uris": {"ios": "https://dc.lft.to/lastmile_qr_scan", "android": "https://dc.lft.to/lastmile_qr_scan"}, "lat": 38.909481166666666, "is_disabled": 0, "bike_id": "c97730fb51f7a472b1aa38033f82421b", "name": "c97730fb51f7a472b1aa38033f82421b", "type": "electric_scooter", "fusion_lon": 0.0, "is_reserved": 0, "fusion_lat": 0.0, "lon": -76.99908583333334}, {"rental_uris": {"ios": "https://dc.lft.to/lastmile_qr_scan", "android": "https://dc.lft.to/lastmile_qr_scan"}, "lat": 38.9662775, "is_disabled": 0, "bike_id": "12217a443818f9d20336fd04c59e50ed", "name": "12217a443818f9d20336fd04c59e50ed", "type": "electric_scooter", "fusion_lon": 0.0, "is_reserved": 0, "fusion_lat": 0.0, "lon": -77.02744066666666}, {"rental_uris": {"ios": "https://dc.lft.to/lastmile_qr_scan", "android": "https://dc.lft.to/lastmile_qr_scan"}, "lat": 38.9177545, "is_disabled": 0, "bike_id": "a033c6f0332b1af85dc790fed4dea433", "name": "a033c6f0332b1af85dc790fed4dea433", "type": "electric_scooter", "fusion_lon": 0.0, "is_reserved": 0, "fusion_lat": 0.0, "lon": -77.01878183333334}, {"rental_uris": {"ios": "https://dc.lft.to/lastmile_qr_scan", "android": "https://dc.lft.to/lastmile_qr_scan"}, "lat": 38.8999135, "is_disabled": 0, "bike_id": "9c529ea56e13cf38623b875c76030d27", "name": "9c529ea56e13cf38623b875c76030d27", "type": "electric_scooter", "fusion_lon": 0.0, "is_reserved": 0, "fusion_lat": 0.0, "lon": -77.02706933333333}, {"rental_uris": {"ios": "https://dc.lft.to/lastmile_qr_scan", "android": "https://dc.lft.to/lastmile_qr_scan"}, "lat": 38.915696, "is_disabled": 0, "bike_id": "205da33952c33b024437e180963fbcb5", "name": "205da33952c33b024437e180963fbcb5", "type": "electric_scooter", "fusion_lon": 0.0, "is_reserved": 0, "fusion_lat": 0.0, "lon": -77.006196}, {"rental_uris": {"ios": "https://dc.lft.to/lastmile_qr_scan", "android": "https://dc.lft.to/lastmile_qr_scan"}, "lat": 38.8874935, "is_disabled": 0, "bike_id": "dc5c3481a97b37f3240969e060c5245a", "name": "dc5c3481a97b37f3240969e060c5245a", "type": "electric_scooter", "fusion_lon": 0.0, "is_reserved": 0, "fusion_lat": 0.0, "lon": -77.02576183333333}, {"rental_uris": {"ios": "https://dc.lft.to/lastmile_qr_scan", "android": "https://dc.lft.to/lastmile_qr_scan"}, "lat": 38.88034116666667, "is_disabled": 0, "bike_id": "8d39a87ba6ed29a5b32138183a1d839c", "name": "8d39a87ba6ed29a5b32138183a1d839c", "type": "electric_scooter", "fusion_lon": 0.0, "is_reserved": 0, "fusion_lat": 0.0, "lon": -76.99626366666666}, {"rental_uris": {"ios": "https://dc.lft.to/lastmile_qr_scan", "android": "https://dc.lft.to/lastmile_qr_scan"}, "lat": 38.912636666666664, "is_disabled": 0, "bike_id": "d8944a477825b7ed9b056cfebe583a38", "name": "d8944a477825b7ed9b056cfebe583a38", "type": "electric_scooter", "fusion_lon": 0.0, "is_reserved": 0, "fusion_lat": 0.0, "lon": -77.03870433333333}, {"rental_uris": {"ios": "https://dc.lft.to/lastmile_qr_scan", "android": "https://dc.lft.to/lastmile_qr_scan"}, "lat": 38.92952583333334, "is_disabled": 0, "bike_id": "f5fd5da37eaf0ec1e288af06bbf5c4f9", "name": "f5fd5da37eaf0ec1e288af06bbf5c4f9", "type": "electric_scooter", "fusion_lon": 0.0, "is_reserved": 0, "fusion_lat": 0.0, "lon": -76.99094216666667}, {"rental_uris": {"ios": "https://dc.lft.to/lastmile_qr_scan", "android": "https://dc.lft.to/lastmile_qr_scan"}, "lat": 38.92677666666667, "is_disabled": 0, "bike_id": "488ab8421e0e407f22fafe3be321a677", "name": "488ab8421e0e407f22fafe3be321a677", "type": "electric_scooter", "fusion_lon": 0.0, "is_reserved": 0, "fusion_lat": 0.0, "lon": -77.02298633333334}, {"rental_uris": {"ios": "https://dc.lft.to/lastmile_qr_scan", "android": "https://dc.lft.to/lastmile_qr_scan"}, "lat": 38.80309733333333, "is_disabled": 0, "bike_id": "e452d5e6e9acc8acb20c580d1f82d32f", "name": "e452d5e6e9acc8acb20c580d1f82d32f", "type": "electric_bike", "fusion_lon": 0.0, "is_reserved": 0, "fusion_lat": 0.0, "lon": -77.03988733333334}, {"rental_uris": {"ios": "https://dc.lft.to/lastmile_qr_scan", "android": "https://dc.lft.to/lastmile_qr_scan"}, "lat": 38.910291, "is_disabled": 0, "bike_id": "8918a165321bb091b4e8e3843113c032", "name": "8918a165321bb091b4e8e3843113c032", "type": "electric_scooter", "fusion_lon": 0.0, "is_reserved": 0, "fusion_lat": 0.0, "lon": -77.0426685}, {"rental_uris": {"ios": "https://dc.lft.to/lastmile_qr_scan", "android": "https://dc.lft.to/lastmile_qr_scan"}, "lat": 38.84470833333334, "is_disabled": 0, "bike_id": "67d63fef328018ffafead22446486815", "name": "67d63fef328018ffafead22446486815", "type": "electric_scooter", "fusion_lon": 0.0, "is_reserved": 0, "fusion_lat": 0.0, "lon": -76.99511516666666}, {"rental_uris": {"ios": "https://dc.lft.to/lastmile_qr_scan", "android": "https://dc.lft.to/lastmile_qr_scan"}, "lat": 38.908928833333334, "is_disabled": 0, "bike_id": "463c09aba3177e218657422a9b62d650", "name": "463c09aba3177e218657422a9b62d650", "type": "electric_scooter", "fusion_lon": 0.0, "is_reserved": 0, "fusion_lat": 0.0, "lon": -77.02314766666667}, {"rental_uris": {"ios": "https://dc.lft.to/lastmile_qr_scan", "android": "https://dc.lft.to/lastmile_qr_scan"}, "lat": 38.90447366666667, "is_disabled": 0, "bike_id": "d0d2b050a0535a25deb0ceb8516bdc00", "name": "d0d2b050a0535a25deb0ceb8516bdc00", "type": "electric_scooter", "fusion_lon": 0.0, "is_reserved": 0, "fusion_lat": 0.0, "lon": -77.0515345}, {"rental_uris": {"ios": "https://dc.lft.to/lastmile_qr_scan", "android": "https://dc.lft.to/lastmile_qr_scan"}, "lat": 38.917047833333335, "is_disabled": 0, "bike_id": "33e4beea291789e82133c807350c9fa7", "name": "33e4beea291789e82133c807350c9fa7", "type": "electric_scooter", "fusion_lon": 0.0, "is_reserved": 0, "fusion_lat": 0.0, "lon": -77.02936166666667}, {"rental_uris": {"ios": "https://dc.lft.to/lastmile_qr_scan", "android": "https://dc.lft.to/lastmile_qr_scan"}, "lat": 38.926160333333335, "is_disabled": 0, "bike_id": "ddebac2ef4837a233fd9a49aa92a2b45", "name": "ddebac2ef4837a233fd9a49aa92a2b45", "type": "electric_scooter", "fusion_lon": 0.0, "is_reserved": 0, "fusion_lat": 0.0, "lon": -77.02159983333334}, {"rental_uris": {"ios": "https://dc.lft.to/lastmile_qr_scan", "android": "https://dc.lft.to/lastmile_qr_scan"}, "lat": 38.90953233333333, "is_disabled": 0, "bike_id": "3ec9b12618ff4cb7e321123194a8cfa4", "name": "3ec9b12618ff4cb7e321123194a8cfa4", "type": "electric_scooter", "fusion_lon": 0.0, "is_reserved": 0, "fusion_lat": 0.0, "lon": -77.048624}, {"rental_uris": {"ios": "https://dc.lft.to/lastmile_qr_scan", "android": "https://dc.lft.to/lastmile_qr_scan"}, "lat": 38.93910183333333, "is_disabled": 0, "bike_id": "7ef027fc871f37f6b393e1ee40115f70", "name": "7ef027fc871f37f6b393e1ee40115f70", "type": "electric_scooter", "fusion_lon": 0.0, "is_reserved": 0, "fusion_lat": 0.0, "lon": -77.060479}, {"rental_uris": {"ios": "https://dc.lft.to/lastmile_qr_scan", "android": "https://dc.lft.to/lastmile_qr_scan"}, "lat": 38.905059666666666, "is_disabled": 0, "bike_id": "1e60557efe308775694799af7a1c1689", "name": "1e60557efe308775694799af7a1c1689", "type": "electric_scooter", "fusion_lon": 0.0, "is_reserved": 0, "fusion_lat": 0.0, "lon": -77.00718316666666}, {"rental_uris": {"ios": "https://dc.lft.to/lastmile_qr_scan", "android": "https://dc.lft.to/lastmile_qr_scan"}, "lat": 38.88446583333333, "is_disabled": 0, "bike_id": "24177786e10e71888f59576d5b874b70", "name": "24177786e10e71888f59576d5b874b70", "type": "electric_scooter", "fusion_lon": 0.0, "is_reserved": 0, "fusion_lat": 0.0, "lon": -76.99616483333334}, {"rental_uris": {"ios": "https://dc.lft.to/lastmile_qr_scan", "android": "https://dc.lft.to/lastmile_qr_scan"}, "lat": 38.90798766666666, "is_disabled": 0, "bike_id": "e63b0d7e23945026748e2c960e72aa20", "name": "e63b0d7e23945026748e2c960e72aa20", "type": "electric_scooter", "fusion_lon": 0.0, "is_reserved": 0, "fusion_lat": 0.0, "lon": -76.94121183333333}, {"rental_uris": {"ios": "https://dc.lft.to/lastmile_qr_scan", "android": "https://dc.lft.to/lastmile_qr_scan"}, "lat": 38.892339166666666, "is_disabled": 0, "bike_id": "d52d5b0c8b99e4ed3882457f2d9744a0", "name": "d52d5b0c8b99e4ed3882457f2d9744a0", "type": "electric_scooter", "fusion_lon": 0.0, "is_reserved": 0, "fusion_lat": 0.0, "lon": -77.02827716666667}, {"rental_uris": {"ios": "https://dc.lft.to/lastmile_qr_scan", "android": "https://dc.lft.to/lastmile_qr_scan"}, "lat": 38.929092, "is_disabled": 0, "bike_id": "35e1fabfd6332e56b83a9536ff1bc0e8", "name": "35e1fabfd6332e56b83a9536ff1bc0e8", "type": "electric_scooter", "fusion_lon": 0.0, "is_reserved": 0, "fusion_lat": 0.0, "lon": -77.063936}, {"rental_uris": {"ios": "https://dc.lft.to/lastmile_qr_scan", "android": "https://dc.lft.to/lastmile_qr_scan"}, "lat": 38.952138166666664, "is_disabled": 0, "bike_id": "f47a4d5d4986c7b07635d99891705ec9", "name": "f47a4d5d4986c7b07635d99891705ec9", "type": "electric_scooter", "fusion_lon": 0.0, "is_reserved": 0, "fusion_lat": 0.0, "lon": -77.06780466666666}, {"rental_uris": {"ios": "https://dc.lft.to/lastmile_qr_scan", "android": "https://dc.lft.to/lastmile_qr_scan"}, "lat": 38.881273166666666, "is_disabled": 0, "bike_id": "f73a6cd60ce591428895f9b357d6510c", "name": "f73a6cd60ce591428895f9b357d6510c", "type": "electric_scooter", "fusion_lon": 0.0, "is_reserved": 0, "fusion_lat": 0.0, "lon": -77.009667}, {"rental_uris": {"ios": "https://dc.lft.to/lastmile_qr_scan", "android": "https://dc.lft.to/lastmile_qr_scan"}, "lat": 38.91718383333333, "is_disabled": 0, "bike_id": "43a2ad9a95bcd73e079645834c2a4b1b", "name": "43a2ad9a95bcd73e079645834c2a4b1b", "type": "electric_scooter", "fusion_lon": 0.0, "is_reserved": 0, "fusion_lat": 0.0, "lon": -77.04095616666666}, {"rental_uris": {"ios": "https://dc.lft.to/lastmile_qr_scan", "android": "https://dc.lft.to/lastmile_qr_scan"}, "lat": 38.92409583333333, "is_disabled": 0, "bike_id": "bcecda9fc4d085e9c82393ce985f77aa", "name": "bcecda9fc4d085e9c82393ce985f77aa", "type": "electric_scooter", "fusion_lon": 0.0, "is_reserved": 0, "fusion_lat": 0.0, "lon": -77.02002733333333}, {"rental_uris": {"ios": "https://dc.lft.to/lastmile_qr_scan", "android": "https://dc.lft.to/lastmile_qr_scan"}, "lat": 38.9140765, "is_disabled": 0, "bike_id": "c1e919bab7244840dfd2b19eff55f4cb", "name": "c1e919bab7244840dfd2b19eff55f4cb", "type": "electric_scooter", "fusion_lon": 0.0, "is_reserved": 0, "fusion_lat": 0.0, "lon": -77.04181133333333}, {"rental_uris": {"ios": "https://dc.lft.to/lastmile_qr_scan", "android": "https://dc.lft.to/lastmile_qr_scan"}, "lat": 38.95521683333333, "is_disabled": 0, "bike_id": "749a8cc3e208db73d2c5d8da5a11bfaa", "name": "749a8cc3e208db73d2c5d8da5a11bfaa", "type": "electric_scooter", "fusion_lon": 0.0, "is_reserved": 0, "fusion_lat": 0.0, "lon": -77.00738083333333}, {"rental_uris": {"ios": "https://dc.lft.to/lastmile_qr_scan", "android": "https://dc.lft.to/lastmile_qr_scan"}, "lat": 38.95005666666667, "is_disabled": 0, "bike_id": "49f76eadcb61767afcc416632b87cd1d", "name": "49f76eadcb61767afcc416632b87cd1d", "type": "electric_scooter", "fusion_lon": 0.0, "is_reserved": 0, "fusion_lat": 0.0, "lon": -77.0184925}, {"rental_uris": {"ios": "https://dc.lft.to/lastmile_qr_scan", "android": "https://dc.lft.to/lastmile_qr_scan"}, "lat": 38.93581916666667, "is_disabled": 0, "bike_id": "93e809ab77af8eca468dfb82bbc8468e", "name": "93e809ab77af8eca468dfb82bbc8468e", "type": "electric_bike", "fusion_lon": 0.0, "is_reserved": 0, "fusion_lat": 0.0, "lon": -77.1068865}, {"rental_uris": {"ios": "https://dc.lft.to/lastmile_qr_scan", "android": "https://dc.lft.to/lastmile_qr_scan"}, "lat": 38.900258666666666, "is_disabled": 0, "bike_id": "135bc02808eae013379d90304c7feeb0", "name": "135bc02808eae013379d90304c7feeb0", "type": "electric_scooter", "fusion_lon": 0.0, "is_reserved": 0, "fusion_lat": 0.0, "lon": -76.9771385}, {"rental_uris": {"ios": "https://dc.lft.to/lastmile_qr_scan", "android": "https://dc.lft.to/lastmile_qr_scan"}, "lat": 38.902690666666665, "is_disabled": 0, "bike_id": "000aab22daa941c3afc9a2ede08520ca", "name": "000aab22daa941c3afc9a2ede08520ca", "type": "electric_scooter", "fusion_lon": 0.0, "is_reserved": 0, "fusion_lat": 0.0, "lon": -77.02651716666666}, {"rental_uris": {"ios": "https://dc.lft.to/lastmile_qr_scan", "android": "https://dc.lft.to/lastmile_qr_scan"}, "lat": 38.8934015, "is_disabled": 0, "bike_id": "f807ec1ec89a4709ed803478367eabc8", "name": "f807ec1ec89a4709ed803478367eabc8", "type": "electric_scooter", "fusion_lon": 0.0, "is_reserved": 0, "fusion_lat": 0.0, "lon": -77.046612}, {"rental_uris": {"ios": "https://dc.lft.to/lastmile_qr_scan", "android": "https://dc.lft.to/lastmile_qr_scan"}, "lat": 38.905476666666665, "is_disabled": 0, "bike_id": "f50a54f21b177b3f50f020716171a753", "name": "f50a54f21b177b3f50f020716171a753", "type": "electric_scooter", "fusion_lon": 0.0, "is_reserved": 0, "fusion_lat": 0.0, "lon": -77.0490155}, {"rental_uris": {"ios": "https://dc.lft.to/lastmile_qr_scan", "android": "https://dc.lft.to/lastmile_qr_scan"}, "lat": 38.9099225, "is_disabled": 0, "bike_id": "14731126a4f6f30f9ed97fd4325357cf", "name": "14731126a4f6f30f9ed97fd4325357cf", "type": "electric_scooter", "fusion_lon": 0.0, "is_reserved": 0, "fusion_lat": 0.0, "lon": -77.0383975}, {"rental_uris": {"ios": "https://dc.lft.to/lastmile_qr_scan", "android": "https://dc.lft.to/lastmile_qr_scan"}, "lat": 38.8943815, "is_disabled": 0, "bike_id": "a5c51b58670f8229906e94cb5835da56", "name": "a5c51b58670f8229906e94cb5835da56", "type": "electric_scooter", "fusion_lon": 0.0, "is_reserved": 0, "fusion_lat": 0.0, "lon": -76.97910683333333}, {"rental_uris": {"ios": "https://dc.lft.to/lastmile_qr_scan", "android": "https://dc.lft.to/lastmile_qr_scan"}, "lat": 38.903677, "is_disabled": 0, "bike_id": "f36a0e9e3aa61ab0c74147996d23ab55", "name": "f36a0e9e3aa61ab0c74147996d23ab55", "type": "electric_scooter", "fusion_lon": 0.0, "is_reserved": 0, "fusion_lat": 0.0, "lon": -77.0449965}, {"rental_uris": {"ios": "https://dc.lft.to/lastmile_qr_scan", "android": "https://dc.lft.to/lastmile_qr_scan"}, "lat": 38.892951333333336, "is_disabled": 0, "bike_id": "5f8840e8c7530e56e8d335fff9f1e9ec", "name": "5f8840e8c7530e56e8d335fff9f1e9ec", "type": "electric_scooter", "fusion_lon": 0.0, "is_reserved": 0, "fusion_lat": 0.0, "lon": -77.04875133333333}, {"rental_uris": {"ios": "https://dc.lft.to/lastmile_qr_scan", "android": "https://dc.lft.to/lastmile_qr_scan"}, "lat": 38.90278266666667, "is_disabled": 0, "bike_id": "2466b81d2c276008c73a638fe4d51ea8", "name": "2466b81d2c276008c73a638fe4d51ea8", "type": "electric_scooter", "fusion_lon": 0.0, "is_reserved": 0, "fusion_lat": 0.0, "lon": -77.01773066666667}, {"rental_uris": {"ios": "https://dc.lft.to/lastmile_qr_scan", "android": "https://dc.lft.to/lastmile_qr_scan"}, "lat": 38.905664, "is_disabled": 0, "bike_id": "d843e4f824fa366a61b4d1939c46b8a7", "name": "d843e4f824fa366a61b4d1939c46b8a7", "type": "electric_scooter", "fusion_lon": 0.0, "is_reserved": 0, "fusion_lat": 0.0, "lon": -77.0077775}, {"rental_uris": {"ios": "https://dc.lft.to/lastmile_qr_scan", "android": "https://dc.lft.to/lastmile_qr_scan"}, "lat": 38.898281833333336, "is_disabled": 0, "bike_id": "f5aab92c0267eb81bd42968556bcedae", "name": "f5aab92c0267eb81bd42968556bcedae", "type": "electric_scooter", "fusion_lon": 0.0, "is_reserved": 0, "fusion_lat": 0.0, "lon": -77.029563}, {"rental_uris": {"ios": "https://dc.lft.to/lastmile_qr_scan", "android": "https://dc.lft.to/lastmile_qr_scan"}, "lat": 38.92369733333334, "is_disabled": 0, "bike_id": "3855a2d7aab87e4f6fa052fb7374e953", "name": "3855a2d7aab87e4f6fa052fb7374e953", "type": "electric_scooter", "fusion_lon": 0.0, "is_reserved": 0, "fusion_lat": 0.0, "lon": -77.05037}, {"rental_uris": {"ios": "https://dc.lft.to/lastmile_qr_scan", "android": "https://dc.lft.to/lastmile_qr_scan"}, "lat": 38.9367135, "is_disabled": 0, "bike_id": "91220bf8aa873b9afaa80468b7db0157", "name": "91220bf8aa873b9afaa80468b7db0157", "type": "electric_scooter", "fusion_lon": 0.0, "is_reserved": 0, "fusion_lat": 0.0, "lon": -77.03265133333333}, {"rental_uris": {"ios": "https://dc.lft.to/lastmile_qr_scan", "android": "https://dc.lft.to/lastmile_qr_scan"}, "lat": 38.91496, "is_disabled": 0, "bike_id": "99b31671600457fda37e2b8c2a9835a7", "name": "99b31671600457fda37e2b8c2a9835a7", "type": "electric_scooter", "fusion_lon": 0.0, "is_reserved": 0, "fusion_lat": 0.0, "lon": -77.0145745}, {"rental_uris": {"ios": "https://dc.lft.to/lastmile_qr_scan", "android": "https://dc.lft.to/lastmile_qr_scan"}, "lat": 38.92580933333333, "is_disabled": 0, "bike_id": "02b0c9e9afd302494b025ac44e0c4e02", "name": "02b0c9e9afd302494b025ac44e0c4e02", "type": "electric_bike", "fusion_lon": 0.0, "is_reserved": 0, "fusion_lat": 0.0, "lon": -76.99491966666666}, {"rental_uris": {"ios": "https://dc.lft.to/lastmile_qr_scan", "android": "https://dc.lft.to/lastmile_qr_scan"}, "lat": 38.908012166666666, "is_disabled": 0, "bike_id": "6993fda2b305cec7221aedc34f269dab", "name": "6993fda2b305cec7221aedc34f269dab", "type": "electric_scooter", "fusion_lon": 0.0, "is_reserved": 0, "fusion_lat": 0.0, "lon": -77.05143933333333}, {"rental_uris": {"ios": "https://dc.lft.to/lastmile_qr_scan", "android": "https://dc.lft.to/lastmile_qr_scan"}, "lat": 38.8996775, "is_disabled": 0, "bike_id": "5199d6aa282278d909ab1e38e7e24fee", "name": "5199d6aa282278d909ab1e38e7e24fee", "type": "electric_scooter", "fusion_lon": 0.0, "is_reserved": 0, "fusion_lat": 0.0, "lon": -76.934355}, {"rental_uris": {"ios": "https://dc.lft.to/lastmile_qr_scan", "android": "https://dc.lft.to/lastmile_qr_scan"}, "lat": 38.92337583333333, "is_disabled": 0, "bike_id": "0e71389d64f0a16818550012d4ebb1ae", "name": "0e71389d64f0a16818550012d4ebb1ae", "type": "electric_scooter", "fusion_lon": 0.0, "is_reserved": 0, "fusion_lat": 0.0, "lon": -77.0298035}, {"rental_uris": {"ios": "https://dc.lft.to/lastmile_qr_scan", "android": "https://dc.lft.to/lastmile_qr_scan"}, "lat": 38.93351116666667, "is_disabled": 0, "bike_id": "d6a70b56477f85ab6749463deebe47d1", "name": "d6a70b56477f85ab6749463deebe47d1", "type": "electric_scooter", "fusion_lon": 0.0, "is_reserved": 0, "fusion_lat": 0.0, "lon": -76.99446766666667}, {"rental_uris": {"ios": "https://dc.lft.to/lastmile_qr_scan", "android": "https://dc.lft.to/lastmile_qr_scan"}, "lat": 38.827334, "is_disabled": 0, "bike_id": "a802215b5816d784b85c5ae0dbadae5b", "name": "a802215b5816d784b85c5ae0dbadae5b", "type": "electric_bike", "fusion_lon": 0.0, "is_reserved": 0, "fusion_lat": 0.0, "lon": -77.00867883333333}, {"rental_uris": {"ios": "https://dc.lft.to/lastmile_qr_scan", "android": "https://dc.lft.to/lastmile_qr_scan"}, "lat": 38.938818833333336, "is_disabled": 0, "bike_id": "52292f5cef1d831ae0bec3a1a8c7bd28", "name": "52292f5cef1d831ae0bec3a1a8c7bd28", "type": "electric_scooter", "fusion_lon": 0.0, "is_reserved": 0, "fusion_lat": 0.0, "lon": -77.02484816666667}, {"rental_uris": {"ios": "https://dc.lft.to/lastmile_qr_scan", "android": "https://dc.lft.to/lastmile_qr_scan"}, "lat": 38.90880766666667, "is_disabled": 0, "bike_id": "7ef0f62a6d722ae2faa3fe1b1f79fe2f", "name": "7ef0f62a6d722ae2faa3fe1b1f79fe2f", "type": "electric_scooter", "fusion_lon": 0.0, "is_reserved": 0, "fusion_lat": 0.0, "lon": -77.03468083333334}, {"rental_uris": {"ios": "https://dc.lft.to/lastmile_qr_scan", "android": "https://dc.lft.to/lastmile_qr_scan"}, "lat": 38.93484216666667, "is_disabled": 0, "bike_id": "e6877f785b986ff16cbadc11f86ca902", "name": "e6877f785b986ff16cbadc11f86ca902", "type": "electric_scooter", "fusion_lon": 0.0, "is_reserved": 0, "fusion_lat": 0.0, "lon": -77.07279033333333}, {"rental_uris": {"ios": "https://dc.lft.to/lastmile_qr_scan", "android": "https://dc.lft.to/lastmile_qr_scan"}, "lat": 38.90580883333333, "is_disabled": 0, "bike_id": "0465ecff6382b3596e2fa8a34211bebe", "name": "0465ecff6382b3596e2fa8a34211bebe", "type": "electric_scooter", "fusion_lon": 0.0, "is_reserved": 0, "fusion_lat": 0.0, "lon": -77.0058935}, {"rental_uris": {"ios": "https://dc.lft.to/lastmile_qr_scan", "android": "https://dc.lft.to/lastmile_qr_scan"}, "lat": 38.898545666666664, "is_disabled": 0, "bike_id": "7528e847c58ee6abeb133a3bf3a3eab0", "name": "7528e847c58ee6abeb133a3bf3a3eab0", "type": "electric_scooter", "fusion_lon": 0.0, "is_reserved": 0, "fusion_lat": 0.0, "lon": -77.03314816666666}, {"rental_uris": {"ios": "https://dc.lft.to/lastmile_qr_scan", "android": "https://dc.lft.to/lastmile_qr_scan"}, "lat": 38.88045266666666, "is_disabled": 0, "bike_id": "4139eca12802d06e9720ab4fe590ed5b", "name": "4139eca12802d06e9720ab4fe590ed5b", "type": "electric_bike", "fusion_lon": 0.0, "is_reserved": 0, "fusion_lat": 0.0, "lon": -77.02530416666667}, {"rental_uris": {"ios": "https://dc.lft.to/lastmile_qr_scan", "android": "https://dc.lft.to/lastmile_qr_scan"}, "lat": 38.94328083333333, "is_disabled": 0, "bike_id": "8c4d387bb47da629d7cfacef0fae346f", "name": "8c4d387bb47da629d7cfacef0fae346f", "type": "electric_scooter", "fusion_lon": 0.0, "is_reserved": 0, "fusion_lat": 0.0, "lon": -77.07366816666666}, {"rental_uris": {"ios": "https://dc.lft.to/lastmile_qr_scan", "android": "https://dc.lft.to/lastmile_qr_scan"}, "lat": 38.908188333333335, "is_disabled": 0, "bike_id": "880664f9fcc3f27c1d075f416c9d66c5", "name": "880664f9fcc3f27c1d075f416c9d66c5", "type": "electric_scooter", "fusion_lon": 0.0, "is_reserved": 0, "fusion_lat": 0.0, "lon": -77.03686616666667}, {"rental_uris": {"ios": "https://dc.lft.to/lastmile_qr_scan", "android": "https://dc.lft.to/lastmile_qr_scan"}, "lat": 38.88025583333334, "is_disabled": 0, "bike_id": "af9a5d0680bdd0ce1bcc9827ff45ffa7", "name": "af9a5d0680bdd0ce1bcc9827ff45ffa7", "type": "electric_scooter", "fusion_lon": 0.0, "is_reserved": 0, "fusion_lat": 0.0, "lon": -77.01224783333333}, {"rental_uris": {"ios": "https://dc.lft.to/lastmile_qr_scan", "android": "https://dc.lft.to/lastmile_qr_scan"}, "lat": 38.900432333333335, "is_disabled": 0, "bike_id": "ce20b919b486d7b06550d84a8c9d279f", "name": "ce20b919b486d7b06550d84a8c9d279f", "type": "electric_scooter", "fusion_lon": 0.0, "is_reserved": 0, "fusion_lat": 0.0, "lon": -77.04035183333333}, {"rental_uris": {"ios": "https://dc.lft.to/lastmile_qr_scan", "android": "https://dc.lft.to/lastmile_qr_scan"}, "lat": 38.92870816666667, "is_disabled": 0, "bike_id": "e47cd6189d41bc9c535bafd32e895bb5", "name": "e47cd6189d41bc9c535bafd32e895bb5", "type": "electric_scooter", "fusion_lon": 0.0, "is_reserved": 0, "fusion_lat": 0.0, "lon": -76.99028216666666}, {"rental_uris": {"ios": "https://dc.lft.to/lastmile_qr_scan", "android": "https://dc.lft.to/lastmile_qr_scan"}, "lat": 38.92757483333333, "is_disabled": 0, "bike_id": "7ca7ada75e3e1f9e8ce08208397a1463", "name": "7ca7ada75e3e1f9e8ce08208397a1463", "type": "electric_scooter", "fusion_lon": 0.0, "is_reserved": 0, "fusion_lat": 0.0, "lon": -77.03294616666666}, {"rental_uris": {"ios": "https://dc.lft.to/lastmile_qr_scan", "android": "https://dc.lft.to/lastmile_qr_scan"}, "lat": 38.87547083333333, "is_disabled": 0, "bike_id": "7b66a934ee594e2773e5ce0e28e9dcdb", "name": "7b66a934ee594e2773e5ce0e28e9dcdb", "type": "electric_scooter", "fusion_lon": 0.0, "is_reserved": 0, "fusion_lat": 0.0, "lon": -76.9648645}, {"rental_uris": {"ios": "https://dc.lft.to/lastmile_qr_scan", "android": "https://dc.lft.to/lastmile_qr_scan"}, "lat": 38.9310315, "is_disabled": 0, "bike_id": "4da5e32cfa71e124c3ccd810ab4cd033", "name": "4da5e32cfa71e124c3ccd810ab4cd033", "type": "electric_scooter", "fusion_lon": 0.0, "is_reserved": 0, "fusion_lat": 0.0, "lon": -77.03839783333333}, {"rental_uris": {"ios": "https://dc.lft.to/lastmile_qr_scan", "android": "https://dc.lft.to/lastmile_qr_scan"}, "lat": 38.855885, "is_disabled": 0, "bike_id": "ee7ec164d39eb446f14de3fd93090e60", "name": "ee7ec164d39eb446f14de3fd93090e60", "type": "electric_scooter", "fusion_lon": 0.0, "is_reserved": 0, "fusion_lat": 0.0, "lon": -76.98568966666667}, {"rental_uris": {"ios": "https://dc.lft.to/lastmile_qr_scan", "android": "https://dc.lft.to/lastmile_qr_scan"}, "lat": 38.8873795, "is_disabled": 0, "bike_id": "e79ceef418c793ea23e23f4cf32092f2", "name": "e79ceef418c793ea23e23f4cf32092f2", "type": "electric_scooter", "fusion_lon": 0.0, "is_reserved": 0, "fusion_lat": 0.0, "lon": -77.01533466666666}, {"rental_uris": {"ios": "https://dc.lft.to/lastmile_qr_scan", "android": "https://dc.lft.to/lastmile_qr_scan"}, "lat": 38.91772, "is_disabled": 0, "bike_id": "c7cdd7bacecb661eaef6e39402e48cc7", "name": "c7cdd7bacecb661eaef6e39402e48cc7", "type": "electric_scooter", "fusion_lon": 0.0, "is_reserved": 0, "fusion_lat": 0.0, "lon": -77.02339216666667}, {"rental_uris": {"ios": "https://dc.lft.to/lastmile_qr_scan", "android": "https://dc.lft.to/lastmile_qr_scan"}, "lat": 38.8620105, "is_disabled": 0, "bike_id": "d101895b76e33435f3349439afe6c5dd", "name": "d101895b76e33435f3349439afe6c5dd", "type": "electric_scooter", "fusion_lon": 0.0, "is_reserved": 0, "fusion_lat": 0.0, "lon": -76.99502916666667}, {"rental_uris": {"ios": "https://dc.lft.to/lastmile_qr_scan", "android": "https://dc.lft.to/lastmile_qr_scan"}, "lat": 38.92408183333333, "is_disabled": 0, "bike_id": "f402843ff6edaef07afd2c08d3832477", "name": "f402843ff6edaef07afd2c08d3832477", "type": "electric_scooter", "fusion_lon": 0.0, "is_reserved": 0, "fusion_lat": 0.0, "lon": -77.02959983333334}, {"rental_uris": {"ios": "https://dc.lft.to/lastmile_qr_scan", "android": "https://dc.lft.to/lastmile_qr_scan"}, "lat": 38.89270416666667, "is_disabled": 0, "bike_id": "6553bad2826715909e51b35ca4e53194", "name": "6553bad2826715909e51b35ca4e53194", "type": "electric_scooter", "fusion_lon": 0.0, "is_reserved": 0, "fusion_lat": 0.0, "lon": -77.02023983333333}, {"rental_uris": {"ios": "https://dc.lft.to/lastmile_qr_scan", "android": "https://dc.lft.to/lastmile_qr_scan"}, "lat": 38.89234283333333, "is_disabled": 0, "bike_id": "00174a80a4393ccb62a0086c0bf5448f", "name": "00174a80a4393ccb62a0086c0bf5448f", "type": "electric_scooter", "fusion_lon": 0.0, "is_reserved": 0, "fusion_lat": 0.0, "lon": -77.00299133333333}, {"rental_uris": {"ios": "https://dc.lft.to/lastmile_qr_scan", "android": "https://dc.lft.to/lastmile_qr_scan"}, "lat": 38.84518583333333, "is_disabled": 0, "bike_id": "1582774b1d5508f18e013ddff3b6d1ce", "name": "1582774b1d5508f18e013ddff3b6d1ce", "type": "electric_bike", "fusion_lon": 0.0, "is_reserved": 0, "fusion_lat": 0.0, "lon": -77.07790183333333}, {"rental_uris": {"ios": "https://dc.lft.to/lastmile_qr_scan", "android": "https://dc.lft.to/lastmile_qr_scan"}, "lat": 38.96134816666667, "is_disabled": 0, "bike_id": "ed9f6dcbc67a351a942d83d0322cf66a", "name": "ed9f6dcbc67a351a942d83d0322cf66a", "type": "electric_scooter", "fusion_lon": 0.0, "is_reserved": 0, "fusion_lat": 0.0, "lon": -77.0281315}, {"rental_uris": {"ios": "https://dc.lft.to/lastmile_qr_scan", "android": "https://dc.lft.to/lastmile_qr_scan"}, "lat": 38.84296783333333, "is_disabled": 0, "bike_id": "f3b595f42c6253adf8efe5649177d247", "name": "f3b595f42c6253adf8efe5649177d247", "type": "electric_scooter", "fusion_lon": 0.0, "is_reserved": 0, "fusion_lat": 0.0, "lon": -76.9995435}, {"rental_uris": {"ios": "https://dc.lft.to/lastmile_qr_scan", "android": "https://dc.lft.to/lastmile_qr_scan"}, "lat": 38.8929855, "is_disabled": 0, "bike_id": "921b573d195b31a60015061f245eaf23", "name": "921b573d195b31a60015061f245eaf23", "type": "electric_scooter", "fusion_lon": 0.0, "is_reserved": 0, "fusion_lat": 0.0, "lon": -77.0257715}, {"rental_uris": {"ios": "https://dc.lft.to/lastmile_qr_scan", "android": "https://dc.lft.to/lastmile_qr_scan"}, "lat": 38.9441825, "is_disabled": 0, "bike_id": "0926f4cbb34378aa31b5966d0a9b6bf8", "name": "0926f4cbb34378aa31b5966d0a9b6bf8", "type": "electric_scooter", "fusion_lon": 0.0, "is_reserved": 0, "fusion_lat": 0.0, "lon": -77.05515416666667}, {"rental_uris": {"ios": "https://dc.lft.to/lastmile_qr_scan", "android": "https://dc.lft.to/lastmile_qr_scan"}, "lat": 38.92651716666667, "is_disabled": 0, "bike_id": "139eda90e96a05aa1f88924a574f4f5d", "name": "139eda90e96a05aa1f88924a574f4f5d", "type": "electric_scooter", "fusion_lon": 0.0, "is_reserved": 0, "fusion_lat": 0.0, "lon": -77.0405935}, {"rental_uris": {"ios": "https://dc.lft.to/lastmile_qr_scan", "android": "https://dc.lft.to/lastmile_qr_scan"}, "lat": 38.898007666666665, "is_disabled": 0, "bike_id": "14d6503ce1fc02655c7241723abb93d5", "name": "14d6503ce1fc02655c7241723abb93d5", "type": "electric_scooter", "fusion_lon": 0.0, "is_reserved": 0, "fusion_lat": 0.0, "lon": -77.02724116666667}, {"rental_uris": {"ios": "https://dc.lft.to/lastmile_qr_scan", "android": "https://dc.lft.to/lastmile_qr_scan"}, "lat": 38.902865, "is_disabled": 0, "bike_id": "19d318610cbedf6d687fa6ee09602123", "name": "19d318610cbedf6d687fa6ee09602123", "type": "electric_scooter", "fusion_lon": 0.0, "is_reserved": 0, "fusion_lat": 0.0, "lon": -77.03267583333333}, {"rental_uris": {"ios": "https://dc.lft.to/lastmile_qr_scan", "android": "https://dc.lft.to/lastmile_qr_scan"}, "lat": 38.887455333333335, "is_disabled": 0, "bike_id": "49c14d837c653352d69cd20d6afec093", "name": "49c14d837c653352d69cd20d6afec093", "type": "electric_scooter", "fusion_lon": 0.0, "is_reserved": 0, "fusion_lat": 0.0, "lon": -77.02169816666667}, {"rental_uris": {"ios": "https://dc.lft.to/lastmile_qr_scan", "android": "https://dc.lft.to/lastmile_qr_scan"}, "lat": 38.915701, "is_disabled": 0, "bike_id": "3f830c2e351566a2a44fc83cd01dcd98", "name": "3f830c2e351566a2a44fc83cd01dcd98", "type": "electric_scooter", "fusion_lon": 0.0, "is_reserved": 0, "fusion_lat": 0.0, "lon": -77.00836366666667}, {"rental_uris": {"ios": "https://dc.lft.to/lastmile_qr_scan", "android": "https://dc.lft.to/lastmile_qr_scan"}, "lat": 38.910997333333334, "is_disabled": 0, "bike_id": "07271667a03da2b1e06408897e28603b", "name": "07271667a03da2b1e06408897e28603b", "type": "electric_scooter", "fusion_lon": 0.0, "is_reserved": 0, "fusion_lat": 0.0, "lon": -77.04394183333334}, {"rental_uris": {"ios": "https://dc.lft.to/lastmile_qr_scan", "android": "https://dc.lft.to/lastmile_qr_scan"}, "lat": 38.9014495, "is_disabled": 0, "bike_id": "e8a86474252f41e873b5d598a49d0a5c", "name": "e8a86474252f41e873b5d598a49d0a5c", "type": "electric_scooter", "fusion_lon": 0.0, "is_reserved": 0, "fusion_lat": 0.0, "lon": -77.0325435}, {"rental_uris": {"ios": "https://dc.lft.to/lastmile_qr_scan", "android": "https://dc.lft.to/lastmile_qr_scan"}, "lat": 38.92346516666667, "is_disabled": 0, "bike_id": "ce90a80a797452b4379e79d2516bb2d3", "name": "ce90a80a797452b4379e79d2516bb2d3", "type": "electric_scooter", "fusion_lon": 0.0, "is_reserved": 0, "fusion_lat": 0.0, "lon": -77.04644033333334}, {"rental_uris": {"ios": "https://dc.lft.to/lastmile_qr_scan", "android": "https://dc.lft.to/lastmile_qr_scan"}, "lat": 38.9162425, "is_disabled": 0, "bike_id": "2dbac2eb4b15b9bdc461b714659a12e2", "name": "2dbac2eb4b15b9bdc461b714659a12e2", "type": "electric_scooter", "fusion_lon": 0.0, "is_reserved": 0, "fusion_lat": 0.0, "lon": -77.02272133333334}, {"rental_uris": {"ios": "https://dc.lft.to/lastmile_qr_scan", "android": "https://dc.lft.to/lastmile_qr_scan"}, "lat": 38.89734883333333, "is_disabled": 0, "bike_id": "8b707d7161a090e0c83499fcb74acad3", "name": "8b707d7161a090e0c83499fcb74acad3", "type": "electric_bike", "fusion_lon": 0.0, "is_reserved": 0, "fusion_lat": 0.0, "lon": -76.90536983333334}, {"rental_uris": {"ios": "https://dc.lft.to/lastmile_qr_scan", "android": "https://dc.lft.to/lastmile_qr_scan"}, "lat": 38.937104833333336, "is_disabled": 0, "bike_id": "9b2d9542bc38f1de40039db9c334c1cf", "name": "9b2d9542bc38f1de40039db9c334c1cf", "type": "electric_scooter", "fusion_lon": 0.0, "is_reserved": 0, "fusion_lat": 0.0, "lon": -77.02116216666667}, {"rental_uris": {"ios": "https://dc.lft.to/lastmile_qr_scan", "android": "https://dc.lft.to/lastmile_qr_scan"}, "lat": 38.92496366666666, "is_disabled": 0, "bike_id": "450241ecba2153af8042068c1d06fa02", "name": "450241ecba2153af8042068c1d06fa02", "type": "electric_scooter", "fusion_lon": 0.0, "is_reserved": 0, "fusion_lat": 0.0, "lon": -77.02711866666667}, {"rental_uris": {"ios": "https://dc.lft.to/lastmile_qr_scan", "android": "https://dc.lft.to/lastmile_qr_scan"}, "lat": 38.907796, "is_disabled": 0, "bike_id": "4d78d28a3c927277b99a160ce4271934", "name": "4d78d28a3c927277b99a160ce4271934", "type": "electric_scooter", "fusion_lon": 0.0, "is_reserved": 0, "fusion_lat": 0.0, "lon": -77.071682}, {"rental_uris": {"ios": "https://dc.lft.to/lastmile_qr_scan", "android": "https://dc.lft.to/lastmile_qr_scan"}, "lat": 38.9278085, "is_disabled": 0, "bike_id": "8e918a9225ee79602ef319a909979a46", "name": "8e918a9225ee79602ef319a909979a46", "type": "electric_scooter", "fusion_lon": 0.0, "is_reserved": 0, "fusion_lat": 0.0, "lon": -77.05590683333334}, {"rental_uris": {"ios": "https://dc.lft.to/lastmile_qr_scan", "android": "https://dc.lft.to/lastmile_qr_scan"}, "lat": 38.921332, "is_disabled": 0, "bike_id": "68f3bb0726a6c2f4156fc0969e416e12", "name": "68f3bb0726a6c2f4156fc0969e416e12", "type": "electric_scooter", "fusion_lon": 0.0, "is_reserved": 0, "fusion_lat": 0.0, "lon": -77.04595033333334}, {"rental_uris": {"ios": "https://dc.lft.to/lastmile_qr_scan", "android": "https://dc.lft.to/lastmile_qr_scan"}, "lat": 38.89222933333333, "is_disabled": 0, "bike_id": "7ab22269165e2656770fc132fa0356ee", "name": "7ab22269165e2656770fc132fa0356ee", "type": "electric_scooter", "fusion_lon": 0.0, "is_reserved": 0, "fusion_lat": 0.0, "lon": -77.0283935}, {"rental_uris": {"ios": "https://dc.lft.to/lastmile_qr_scan", "android": "https://dc.lft.to/lastmile_qr_scan"}, "lat": 38.838109, "is_disabled": 0, "bike_id": "9a836a85b03bd749a45626e33c612eda", "name": "9a836a85b03bd749a45626e33c612eda", "type": "electric_bike", "fusion_lon": 0.0, "is_reserved": 0, "fusion_lat": 0.0, "lon": -77.095215}, {"rental_uris": {"ios": "https://dc.lft.to/lastmile_qr_scan", "android": "https://dc.lft.to/lastmile_qr_scan"}, "lat": 38.9079105, "is_disabled": 0, "bike_id": "3bf33ce3297413b87ad6dc5b738b80bf", "name": "3bf33ce3297413b87ad6dc5b738b80bf", "type": "electric_scooter", "fusion_lon": 0.0, "is_reserved": 0, "fusion_lat": 0.0, "lon": -77.01108433333333}, {"rental_uris": {"ios": "https://dc.lft.to/lastmile_qr_scan", "android": "https://dc.lft.to/lastmile_qr_scan"}, "lat": 38.90582, "is_disabled": 0, "bike_id": "5ed4da283a92459f5961cd8ad837a67e", "name": "5ed4da283a92459f5961cd8ad837a67e", "type": "electric_scooter", "fusion_lon": 0.0, "is_reserved": 0, "fusion_lat": 0.0, "lon": -77.03811133333333}, {"rental_uris": {"ios": "https://dc.lft.to/lastmile_qr_scan", "android": "https://dc.lft.to/lastmile_qr_scan"}, "lat": 38.884237166666665, "is_disabled": 0, "bike_id": "514d137037826e99aef531334c12e449", "name": "514d137037826e99aef531334c12e449", "type": "electric_scooter", "fusion_lon": 0.0, "is_reserved": 0, "fusion_lat": 0.0, "lon": -76.99549116666667}, {"rental_uris": {"ios": "https://dc.lft.to/lastmile_qr_scan", "android": "https://dc.lft.to/lastmile_qr_scan"}, "lat": 38.90419166666667, "is_disabled": 0, "bike_id": "a0df70bc59b266638c2a43acdf26ecff", "name": "a0df70bc59b266638c2a43acdf26ecff", "type": "electric_scooter", "fusion_lon": 0.0, "is_reserved": 0, "fusion_lat": 0.0, "lon": -77.04344416666666}, {"rental_uris": {"ios": "https://dc.lft.to/lastmile_qr_scan", "android": "https://dc.lft.to/lastmile_qr_scan"}, "lat": 38.920253833333334, "is_disabled": 0, "bike_id": "76e62c03c221451dccc914dfacdd563b", "name": "76e62c03c221451dccc914dfacdd563b", "type": "electric_scooter", "fusion_lon": 0.0, "is_reserved": 0, "fusion_lat": 0.0, "lon": -76.99570833333334}, {"rental_uris": {"ios": "https://dc.lft.to/lastmile_qr_scan", "android": "https://dc.lft.to/lastmile_qr_scan"}, "lat": 38.91490183333333, "is_disabled": 0, "bike_id": "6f9ae3928cbd0fd5adee14e642fdf370", "name": "6f9ae3928cbd0fd5adee14e642fdf370", "type": "electric_scooter", "fusion_lon": 0.0, "is_reserved": 0, "fusion_lat": 0.0, "lon": -77.04188916666666}, {"rental_uris": {"ios": "https://dc.lft.to/lastmile_qr_scan", "android": "https://dc.lft.to/lastmile_qr_scan"}, "lat": 38.9126775, "is_disabled": 0, "bike_id": "7f3f46d647f6de8b8a41ff2922cd5cdf", "name": "7f3f46d647f6de8b8a41ff2922cd5cdf", "type": "electric_scooter", "fusion_lon": 0.0, "is_reserved": 0, "fusion_lat": 0.0, "lon": -77.03755733333334}, {"rental_uris": {"ios": "https://dc.lft.to/lastmile_qr_scan", "android": "https://dc.lft.to/lastmile_qr_scan"}, "lat": 38.900249, "is_disabled": 0, "bike_id": "5eb667f7a52b5d5cb28981ed012b93ad", "name": "5eb667f7a52b5d5cb28981ed012b93ad", "type": "electric_scooter", "fusion_lon": 0.0, "is_reserved": 0, "fusion_lat": 0.0, "lon": -77.0014895}, {"rental_uris": {"ios": "https://dc.lft.to/lastmile_qr_scan", "android": "https://dc.lft.to/lastmile_qr_scan"}, "lat": 38.9094945, "is_disabled": 0, "bike_id": "0577a4cf1461916b3c2f975bed3cf5e3", "name": "0577a4cf1461916b3c2f975bed3cf5e3", "type": "electric_scooter", "fusion_lon": 0.0, "is_reserved": 0, "fusion_lat": 0.0, "lon": -77.032029}, {"rental_uris": {"ios": "https://dc.lft.to/lastmile_qr_scan", "android": "https://dc.lft.to/lastmile_qr_scan"}, "lat": 38.892230833333336, "is_disabled": 0, "bike_id": "013add71229125ec32babdc01a6dcbb2", "name": "013add71229125ec32babdc01a6dcbb2", "type": "electric_scooter", "fusion_lon": 0.0, "is_reserved": 0, "fusion_lat": 0.0, "lon": -77.02840716666667}, {"rental_uris": {"ios": "https://dc.lft.to/lastmile_qr_scan", "android": "https://dc.lft.to/lastmile_qr_scan"}, "lat": 38.919380333333336, "is_disabled": 0, "bike_id": "42a8673164144768b69ef0986641f62e", "name": "42a8673164144768b69ef0986641f62e", "type": "electric_bike", "fusion_lon": 0.0, "is_reserved": 0, "fusion_lat": 0.0, "lon": -76.97514766666667}, {"rental_uris": {"ios": "https://dc.lft.to/lastmile_qr_scan", "android": "https://dc.lft.to/lastmile_qr_scan"}, "lat": 38.90446033333333, "is_disabled": 0, "bike_id": "d7e10719a1fe97da2f99f49782d9f4cc", "name": "d7e10719a1fe97da2f99f49782d9f4cc", "type": "electric_scooter", "fusion_lon": 0.0, "is_reserved": 0, "fusion_lat": 0.0, "lon": -76.9755645}, {"rental_uris": {"ios": "https://dc.lft.to/lastmile_qr_scan", "android": "https://dc.lft.to/lastmile_qr_scan"}, "lat": 38.917179, "is_disabled": 0, "bike_id": "9ed9932828ffb7332389cfd6ffc06651", "name": "9ed9932828ffb7332389cfd6ffc06651", "type": "electric_scooter", "fusion_lon": 0.0, "is_reserved": 0, "fusion_lat": 0.0, "lon": -77.02808316666666}, {"rental_uris": {"ios": "https://dc.lft.to/lastmile_qr_scan", "android": "https://dc.lft.to/lastmile_qr_scan"}, "lat": 38.91913783333333, "is_disabled": 0, "bike_id": "678149a8075766cad39ed342c6852a12", "name": "678149a8075766cad39ed342c6852a12", "type": "electric_scooter", "fusion_lon": 0.0, "is_reserved": 0, "fusion_lat": 0.0, "lon": -77.04458016666666}, {"rental_uris": {"ios": "https://dc.lft.to/lastmile_qr_scan", "android": "https://dc.lft.to/lastmile_qr_scan"}, "lat": 38.900355833333336, "is_disabled": 0, "bike_id": "e97ca176b0fb17106eb89c30285e6d65", "name": "e97ca176b0fb17106eb89c30285e6d65", "type": "electric_scooter", "fusion_lon": 0.0, "is_reserved": 0, "fusion_lat": 0.0, "lon": -76.987807}, {"rental_uris": {"ios": "https://dc.lft.to/lastmile_qr_scan", "android": "https://dc.lft.to/lastmile_qr_scan"}, "lat": 38.8624525, "is_disabled": 0, "bike_id": "717743081d8fbe7b202155a7b298ded1", "name": "717743081d8fbe7b202155a7b298ded1", "type": "electric_scooter", "fusion_lon": 0.0, "is_reserved": 0, "fusion_lat": 0.0, "lon": -76.99491916666666}, {"rental_uris": {"ios": "https://dc.lft.to/lastmile_qr_scan", "android": "https://dc.lft.to/lastmile_qr_scan"}, "lat": 38.931185, "is_disabled": 0, "bike_id": "9b6af6d21a065f58a8c41d49201a4fa2", "name": "9b6af6d21a065f58a8c41d49201a4fa2", "type": "electric_scooter", "fusion_lon": 0.0, "is_reserved": 0, "fusion_lat": 0.0, "lon": -77.03040766666666}, {"rental_uris": {"ios": "https://dc.lft.to/lastmile_qr_scan", "android": "https://dc.lft.to/lastmile_qr_scan"}, "lat": 38.886109, "is_disabled": 0, "bike_id": "aedf35db619afb821ad76b68f3e42abc", "name": "aedf35db619afb821ad76b68f3e42abc", "type": "electric_scooter", "fusion_lon": 0.0, "is_reserved": 0, "fusion_lat": 0.0, "lon": -77.0181875}, {"rental_uris": {"ios": "https://dc.lft.to/lastmile_qr_scan", "android": "https://dc.lft.to/lastmile_qr_scan"}, "lat": 38.828804166666664, "is_disabled": 0, "bike_id": "b02d1b7115553c804c8b2b39eb971828", "name": "b02d1b7115553c804c8b2b39eb971828", "type": "electric_bike", "fusion_lon": 0.0, "is_reserved": 0, "fusion_lat": 0.0, "lon": -77.11214083333333}, {"rental_uris": {"ios": "https://dc.lft.to/lastmile_qr_scan", "android": "https://dc.lft.to/lastmile_qr_scan"}, "lat": 38.88030333333333, "is_disabled": 0, "bike_id": "23b628439274c80d20c21da05415fec2", "name": "23b628439274c80d20c21da05415fec2", "type": "electric_scooter", "fusion_lon": 0.0, "is_reserved": 0, "fusion_lat": 0.0, "lon": -76.99622716666667}, {"rental_uris": {"ios": "https://dc.lft.to/lastmile_qr_scan", "android": "https://dc.lft.to/lastmile_qr_scan"}, "lat": 38.8988795, "is_disabled": 0, "bike_id": "c47c5a8b69df242c48462cb4e26ccd8b", "name": "c47c5a8b69df242c48462cb4e26ccd8b", "type": "electric_scooter", "fusion_lon": 0.0, "is_reserved": 0, "fusion_lat": 0.0, "lon": -76.93161866666667}, {"rental_uris": {"ios": "https://dc.lft.to/lastmile_qr_scan", "android": "https://dc.lft.to/lastmile_qr_scan"}, "lat": 38.99093116666667, "is_disabled": 0, "bike_id": "950111b0a4e810eda1e36b4aa9a3b37b", "name": "950111b0a4e810eda1e36b4aa9a3b37b", "type": "electric_bike", "fusion_lon": 0.0, "is_reserved": 0, "fusion_lat": 0.0, "lon": -76.87498116666667}, {"rental_uris": {"ios": "https://dc.lft.to/lastmile_qr_scan", "android": "https://dc.lft.to/lastmile_qr_scan"}, "lat": 38.92050183333333, "is_disabled": 0, "bike_id": "31c18235a8f93135055fecf7680b77c7", "name": "31c18235a8f93135055fecf7680b77c7", "type": "electric_scooter", "fusion_lon": 0.0, "is_reserved": 0, "fusion_lat": 0.0, "lon": -77.033886}, {"rental_uris": {"ios": "https://dc.lft.to/lastmile_qr_scan", "android": "https://dc.lft.to/lastmile_qr_scan"}, "lat": 38.9214345, "is_disabled": 0, "bike_id": "ae75883caf99a4400ff804f2546b245f", "name": "ae75883caf99a4400ff804f2546b245f", "type": "electric_scooter", "fusion_lon": 0.0, "is_reserved": 0, "fusion_lat": 0.0, "lon": -77.00957366666667}, {"rental_uris": {"ios": "https://dc.lft.to/lastmile_qr_scan", "android": "https://dc.lft.to/lastmile_qr_scan"}, "lat": 38.90495416666667, "is_disabled": 0, "bike_id": "95b0543f11327d28cd3f14e96ba7258f", "name": "95b0543f11327d28cd3f14e96ba7258f", "type": "electric_scooter", "fusion_lon": 0.0, "is_reserved": 0, "fusion_lat": 0.0, "lon": -77.03431416666666}, {"rental_uris": {"ios": "https://dc.lft.to/lastmile_qr_scan", "android": "https://dc.lft.to/lastmile_qr_scan"}, "lat": 38.89852483333333, "is_disabled": 0, "bike_id": "488acc9b4b4237bd7d95bb11470016aa", "name": "488acc9b4b4237bd7d95bb11470016aa", "type": "electric_scooter", "fusion_lon": 0.0, "is_reserved": 0, "fusion_lat": 0.0, "lon": -77.03323616666667}, {"rental_uris": {"ios": "https://dc.lft.to/lastmile_qr_scan", "android": "https://dc.lft.to/lastmile_qr_scan"}, "lat": 38.867295166666665, "is_disabled": 0, "bike_id": "3ebfc82f77a387bcd7726912a45462f7", "name": "3ebfc82f77a387bcd7726912a45462f7", "type": "electric_scooter", "fusion_lon": 0.0, "is_reserved": 0, "fusion_lat": 0.0, "lon": -76.98732033333333}, {"rental_uris": {"ios": "https://dc.lft.to/lastmile_qr_scan", "android": "https://dc.lft.to/lastmile_qr_scan"}, "lat": 38.885886666666664, "is_disabled": 0, "bike_id": "a68ce7755f63874a34ab9342feef6eb8", "name": "a68ce7755f63874a34ab9342feef6eb8", "type": "electric_scooter", "fusion_lon": 0.0, "is_reserved": 0, "fusion_lat": 0.0, "lon": -77.0256855}, {"rental_uris": {"ios": "https://dc.lft.to/lastmile_qr_scan", "android": "https://dc.lft.to/lastmile_qr_scan"}, "lat": 38.92876, "is_disabled": 0, "bike_id": "bfe4e1288a9297300889de48d132e2c2", "name": "bfe4e1288a9297300889de48d132e2c2", "type": "electric_scooter", "fusion_lon": 0.0, "is_reserved": 0, "fusion_lat": 0.0, "lon": -77.03474133333333}, {"rental_uris": {"ios": "https://dc.lft.to/lastmile_qr_scan", "android": "https://dc.lft.to/lastmile_qr_scan"}, "lat": 38.8962485, "is_disabled": 0, "bike_id": "54581ffa18368192632cc73bd7af73dd", "name": "54581ffa18368192632cc73bd7af73dd", "type": "electric_scooter", "fusion_lon": 0.0, "is_reserved": 0, "fusion_lat": 0.0, "lon": -76.99931116666667}, {"rental_uris": {"ios": "https://dc.lft.to/lastmile_qr_scan", "android": "https://dc.lft.to/lastmile_qr_scan"}, "lat": 38.94604483333333, "is_disabled": 0, "bike_id": "99e11e8fb00f5df16eeacf5ce1c75c1f", "name": "99e11e8fb00f5df16eeacf5ce1c75c1f", "type": "electric_scooter", "fusion_lon": 0.0, "is_reserved": 0, "fusion_lat": 0.0, "lon": -77.029777}, {"rental_uris": {"ios": "https://dc.lft.to/lastmile_qr_scan", "android": "https://dc.lft.to/lastmile_qr_scan"}, "lat": 38.91029733333333, "is_disabled": 0, "bike_id": "de6463de927ffeb5ed3ce23c8a6ce369", "name": "de6463de927ffeb5ed3ce23c8a6ce369", "type": "electric_scooter", "fusion_lon": 0.0, "is_reserved": 0, "fusion_lat": 0.0, "lon": -77.00756516666667}, {"rental_uris": {"ios": "https://dc.lft.to/lastmile_qr_scan", "android": "https://dc.lft.to/lastmile_qr_scan"}, "lat": 38.958493833333335, "is_disabled": 0, "bike_id": "c8328664509fd5c165428f0d0ab4aae7", "name": "c8328664509fd5c165428f0d0ab4aae7", "type": "electric_scooter", "fusion_lon": 0.0, "is_reserved": 0, "fusion_lat": 0.0, "lon": -77.02904466666666}, {"rental_uris": {"ios": "https://dc.lft.to/lastmile_qr_scan", "android": "https://dc.lft.to/lastmile_qr_scan"}, "lat": 38.92386966666667, "is_disabled": 0, "bike_id": "4513e76ac8b909c9ae2a567b41af86e4", "name": "4513e76ac8b909c9ae2a567b41af86e4", "type": "electric_scooter", "fusion_lon": 0.0, "is_reserved": 0, "fusion_lat": 0.0, "lon": -77.04082416666667}, {"rental_uris": {"ios": "https://dc.lft.to/lastmile_qr_scan", "android": "https://dc.lft.to/lastmile_qr_scan"}, "lat": 38.884698666666665, "is_disabled": 0, "bike_id": "34f9cdb2afe29112b1b5eafad09d2c71", "name": "34f9cdb2afe29112b1b5eafad09d2c71", "type": "electric_scooter", "fusion_lon": 0.0, "is_reserved": 0, "fusion_lat": 0.0, "lon": -77.02346233333333}, {"rental_uris": {"ios": "https://dc.lft.to/lastmile_qr_scan", "android": "https://dc.lft.to/lastmile_qr_scan"}, "lat": 38.90711183333333, "is_disabled": 0, "bike_id": "d8ffd608ea10bc303a2f5e31f0672b9f", "name": "d8ffd608ea10bc303a2f5e31f0672b9f", "type": "electric_scooter", "fusion_lon": 0.0, "is_reserved": 0, "fusion_lat": 0.0, "lon": -77.03595083333333}, {"rental_uris": {"ios": "https://dc.lft.to/lastmile_qr_scan", "android": "https://dc.lft.to/lastmile_qr_scan"}, "lat": 38.924429333333336, "is_disabled": 0, "bike_id": "a582eaef573bb491f03daf6e354d56b7", "name": "a582eaef573bb491f03daf6e354d56b7", "type": "electric_scooter", "fusion_lon": 0.0, "is_reserved": 0, "fusion_lat": 0.0, "lon": -77.03884866666667}, {"rental_uris": {"ios": "https://dc.lft.to/lastmile_qr_scan", "android": "https://dc.lft.to/lastmile_qr_scan"}, "lat": 38.91267716666667, "is_disabled": 0, "bike_id": "aec7adf07cbd73be72c2cc4537f88e2e", "name": "aec7adf07cbd73be72c2cc4537f88e2e", "type": "electric_scooter", "fusion_lon": 0.0, "is_reserved": 0, "fusion_lat": 0.0, "lon": -77.03863316666667}, {"rental_uris": {"ios": "https://dc.lft.to/lastmile_qr_scan", "android": "https://dc.lft.to/lastmile_qr_scan"}, "lat": 38.91504583333333, "is_disabled": 0, "bike_id": "9534e66f11563ccde54d8de1905c7003", "name": "9534e66f11563ccde54d8de1905c7003", "type": "electric_scooter", "fusion_lon": 0.0, "is_reserved": 0, "fusion_lat": 0.0, "lon": -77.01207933333333}, {"rental_uris": {"ios": "https://dc.lft.to/lastmile_qr_scan", "android": "https://dc.lft.to/lastmile_qr_scan"}, "lat": 39.024216833333334, "is_disabled": 0, "bike_id": "5a9038c75f81691396777d05f1c2d5aa", "name": "5a9038c75f81691396777d05f1c2d5aa", "type": "electric_bike", "fusion_lon": 0.0, "is_reserved": 0, "fusion_lat": 0.0, "lon": -77.12503216666667}, {"rental_uris": {"ios": "https://dc.lft.to/lastmile_qr_scan", "android": "https://dc.lft.to/lastmile_qr_scan"}, "lat": 38.890132, "is_disabled": 0, "bike_id": "9d013870aa61459d8a10baca83862bee", "name": "9d013870aa61459d8a10baca83862bee", "type": "electric_scooter", "fusion_lon": 0.0, "is_reserved": 0, "fusion_lat": 0.0, "lon": -76.93844116666666}, {"rental_uris": {"ios": "https://dc.lft.to/lastmile_qr_scan", "android": "https://dc.lft.to/lastmile_qr_scan"}, "lat": 38.926419333333335, "is_disabled": 0, "bike_id": "6f03ce887db7944d53f14d0336d781e8", "name": "6f03ce887db7944d53f14d0336d781e8", "type": "electric_scooter", "fusion_lon": 0.0, "is_reserved": 0, "fusion_lat": 0.0, "lon": -77.036994}, {"rental_uris": {"ios": "https://dc.lft.to/lastmile_qr_scan", "android": "https://dc.lft.to/lastmile_qr_scan"}, "lat": 38.904367, "is_disabled": 0, "bike_id": "62dbb8e23283802681bf9b589a23581f", "name": "62dbb8e23283802681bf9b589a23581f", "type": "electric_scooter", "fusion_lon": 0.0, "is_reserved": 0, "fusion_lat": 0.0, "lon": -77.01994183333333}, {"rental_uris": {"ios": "https://dc.lft.to/lastmile_qr_scan", "android": "https://dc.lft.to/lastmile_qr_scan"}, "lat": 38.9620865, "is_disabled": 0, "bike_id": "5fac02aaf4d5f5cb528dbe2e76231db0", "name": "5fac02aaf4d5f5cb528dbe2e76231db0", "type": "electric_scooter", "fusion_lon": 0.0, "is_reserved": 0, "fusion_lat": 0.0, "lon": -77.02347416666667}, {"rental_uris": {"ios": "https://dc.lft.to/lastmile_qr_scan", "android": "https://dc.lft.to/lastmile_qr_scan"}, "lat": 38.91910933333333, "is_disabled": 0, "bike_id": "e8f1519cc6861f06465f44b6ff8d3081", "name": "e8f1519cc6861f06465f44b6ff8d3081", "type": "electric_scooter", "fusion_lon": 0.0, "is_reserved": 0, "fusion_lat": 0.0, "lon": -77.07867466666667}, {"rental_uris": {"ios": "https://dc.lft.to/lastmile_qr_scan", "android": "https://dc.lft.to/lastmile_qr_scan"}, "lat": 38.92315933333333, "is_disabled": 0, "bike_id": "b319fbfbea42ab56d1d593ae6ed0c1fb", "name": "b319fbfbea42ab56d1d593ae6ed0c1fb", "type": "electric_scooter", "fusion_lon": 0.0, "is_reserved": 0, "fusion_lat": 0.0, "lon": -77.02959283333334}, {"rental_uris": {"ios": "https://dc.lft.to/lastmile_qr_scan", "android": "https://dc.lft.to/lastmile_qr_scan"}, "lat": 38.899972166666664, "is_disabled": 0, "bike_id": "1fadb82e64b88dfc19f79dc0b173160f", "name": "1fadb82e64b88dfc19f79dc0b173160f", "type": "electric_scooter", "fusion_lon": 0.0, "is_reserved": 0, "fusion_lat": 0.0, "lon": -77.02506366666667}, {"rental_uris": {"ios": "https://dc.lft.to/lastmile_qr_scan", "android": "https://dc.lft.to/lastmile_qr_scan"}, "lat": 38.90408583333333, "is_disabled": 0, "bike_id": "b64ec18d2e7232cd0e7f4f37ccfabb79", "name": "b64ec18d2e7232cd0e7f4f37ccfabb79", "type": "electric_scooter", "fusion_lon": 0.0, "is_reserved": 0, "fusion_lat": 0.0, "lon": -77.04348983333334}, {"rental_uris": {"ios": "https://dc.lft.to/lastmile_qr_scan", "android": "https://dc.lft.to/lastmile_qr_scan"}, "lat": 38.90397166666666, "is_disabled": 0, "bike_id": "e342e7ec948f6827afeef2296c279eff", "name": "e342e7ec948f6827afeef2296c279eff", "type": "electric_scooter", "fusion_lon": 0.0, "is_reserved": 0, "fusion_lat": 0.0, "lon": -77.03557483333333}, {"rental_uris": {"ios": "https://dc.lft.to/lastmile_qr_scan", "android": "https://dc.lft.to/lastmile_qr_scan"}, "lat": 38.9216155, "is_disabled": 0, "bike_id": "0573968958f79ce34bc20776b10c467c", "name": "0573968958f79ce34bc20776b10c467c", "type": "electric_scooter", "fusion_lon": 0.0, "is_reserved": 0, "fusion_lat": 0.0, "lon": -77.035123}, {"rental_uris": {"ios": "https://dc.lft.to/lastmile_qr_scan", "android": "https://dc.lft.to/lastmile_qr_scan"}, "lat": 38.91298416666667, "is_disabled": 0, "bike_id": "b1854379c52a6192834e3cc0bd1bb1e8", "name": "b1854379c52a6192834e3cc0bd1bb1e8", "type": "electric_scooter", "fusion_lon": 0.0, "is_reserved": 0, "fusion_lat": 0.0, "lon": -77.00893416666666}, {"rental_uris": {"ios": "https://dc.lft.to/lastmile_qr_scan", "android": "https://dc.lft.to/lastmile_qr_scan"}, "lat": 38.91572816666667, "is_disabled": 0, "bike_id": "8f30b79b9c1a5d5efe033e32d52bfa39", "name": "8f30b79b9c1a5d5efe033e32d52bfa39", "type": "electric_scooter", "fusion_lon": 0.0, "is_reserved": 0, "fusion_lat": 0.0, "lon": -77.00593266666667}, {"rental_uris": {"ios": "https://dc.lft.to/lastmile_qr_scan", "android": "https://dc.lft.to/lastmile_qr_scan"}, "lat": 38.922204666666666, "is_disabled": 0, "bike_id": "33d856f917da9ecaf71cb29a71cf355a", "name": "33d856f917da9ecaf71cb29a71cf355a", "type": "electric_scooter", "fusion_lon": 0.0, "is_reserved": 0, "fusion_lat": 0.0, "lon": -77.04334666666666}, {"rental_uris": {"ios": "https://dc.lft.to/lastmile_qr_scan", "android": "https://dc.lft.to/lastmile_qr_scan"}, "lat": 38.862405833333334, "is_disabled": 0, "bike_id": "dcbc3183f3025a6b1c2c0178c49be385", "name": "dcbc3183f3025a6b1c2c0178c49be385", "type": "electric_scooter", "fusion_lon": 0.0, "is_reserved": 0, "fusion_lat": 0.0, "lon": -76.9948325}, {"rental_uris": {"ios": "https://dc.lft.to/lastmile_qr_scan", "android": "https://dc.lft.to/lastmile_qr_scan"}, "lat": 38.90260383333333, "is_disabled": 0, "bike_id": "d2aad44b9f9fcc57b62b76ec6ac170be", "name": "d2aad44b9f9fcc57b62b76ec6ac170be", "type": "electric_scooter", "fusion_lon": 0.0, "is_reserved": 0, "fusion_lat": 0.0, "lon": -77.03944766666666}, {"rental_uris": {"ios": "https://dc.lft.to/lastmile_qr_scan", "android": "https://dc.lft.to/lastmile_qr_scan"}, "lat": 38.89229783333333, "is_disabled": 0, "bike_id": "320de501c843db884516e672068247eb", "name": "320de501c843db884516e672068247eb", "type": "electric_scooter", "fusion_lon": 0.0, "is_reserved": 0, "fusion_lat": 0.0, "lon": -77.0271825}, {"rental_uris": {"ios": "https://dc.lft.to/lastmile_qr_scan", "android": "https://dc.lft.to/lastmile_qr_scan"}, "lat": 38.903622, "is_disabled": 0, "bike_id": "ab8f197d269f037afda5b8c6ceb39ac3", "name": "ab8f197d269f037afda5b8c6ceb39ac3", "type": "electric_scooter", "fusion_lon": 0.0, "is_reserved": 0, "fusion_lat": 0.0, "lon": -77.0110415}, {"rental_uris": {"ios": "https://dc.lft.to/lastmile_qr_scan", "android": "https://dc.lft.to/lastmile_qr_scan"}, "lat": 38.935005333333336, "is_disabled": 0, "bike_id": "489ba6010340fc519ae2dabdeb123cea", "name": "489ba6010340fc519ae2dabdeb123cea", "type": "electric_bike", "fusion_lon": 0.0, "is_reserved": 0, "fusion_lat": 0.0, "lon": -76.94952283333333}, {"rental_uris": {"ios": "https://dc.lft.to/lastmile_qr_scan", "android": "https://dc.lft.to/lastmile_qr_scan"}, "lat": 38.90776483333333, "is_disabled": 0, "bike_id": "724dc18bf61de54d7dba2a2c1012f0bd", "name": "724dc18bf61de54d7dba2a2c1012f0bd", "type": "electric_scooter", "fusion_lon": 0.0, "is_reserved": 0, "fusion_lat": 0.0, "lon": -77.031981}, {"rental_uris": {"ios": "https://dc.lft.to/lastmile_qr_scan", "android": "https://dc.lft.to/lastmile_qr_scan"}, "lat": 38.901173, "is_disabled": 0, "bike_id": "8b36ac9322b00e5d944921640a001a27", "name": "8b36ac9322b00e5d944921640a001a27", "type": "electric_bike", "fusion_lon": 0.0, "is_reserved": 0, "fusion_lat": 0.0, "lon": -77.0498225}, {"rental_uris": {"ios": "https://dc.lft.to/lastmile_qr_scan", "android": "https://dc.lft.to/lastmile_qr_scan"}, "lat": 38.89494916666666, "is_disabled": 0, "bike_id": "645b912802996f9801eb2c79c45b225a", "name": "645b912802996f9801eb2c79c45b225a", "type": "electric_scooter", "fusion_lon": 0.0, "is_reserved": 0, "fusion_lat": 0.0, "lon": -77.0277575}, {"rental_uris": {"ios": "https://dc.lft.to/lastmile_qr_scan", "android": "https://dc.lft.to/lastmile_qr_scan"}, "lat": 38.8967935, "is_disabled": 0, "bike_id": "ae33affeec45709d1aa58bfff9f211d2", "name": "ae33affeec45709d1aa58bfff9f211d2", "type": "electric_scooter", "fusion_lon": 0.0, "is_reserved": 0, "fusion_lat": 0.0, "lon": -76.99640566666666}, {"rental_uris": {"ios": "https://dc.lft.to/lastmile_qr_scan", "android": "https://dc.lft.to/lastmile_qr_scan"}, "lat": 38.90478816666667, "is_disabled": 0, "bike_id": "b2b4554706f014ca672fb8a9d8d1f0cb", "name": "b2b4554706f014ca672fb8a9d8d1f0cb", "type": "electric_scooter", "fusion_lon": 0.0, "is_reserved": 0, "fusion_lat": 0.0, "lon": -77.04330383333334}, {"rental_uris": {"ios": "https://dc.lft.to/lastmile_qr_scan", "android": "https://dc.lft.to/lastmile_qr_scan"}, "lat": 38.922521, "is_disabled": 0, "bike_id": "40699ff41639e2c1ebefdfada99077a3", "name": "40699ff41639e2c1ebefdfada99077a3", "type": "electric_scooter", "fusion_lon": 0.0, "is_reserved": 0, "fusion_lat": 0.0, "lon": -77.09959716666667}, {"rental_uris": {"ios": "https://dc.lft.to/lastmile_qr_scan", "android": "https://dc.lft.to/lastmile_qr_scan"}, "lat": 38.90073366666667, "is_disabled": 0, "bike_id": "5ba60508ffaeb19c2e7562d51be23312", "name": "5ba60508ffaeb19c2e7562d51be23312", "type": "electric_scooter", "fusion_lon": 0.0, "is_reserved": 0, "fusion_lat": 0.0, "lon": -77.00206933333334}, {"rental_uris": {"ios": "https://dc.lft.to/lastmile_qr_scan", "android": "https://dc.lft.to/lastmile_qr_scan"}, "lat": 38.938644833333335, "is_disabled": 0, "bike_id": "9336c3b485eeb40ac7b07d1b43ec90a7", "name": "9336c3b485eeb40ac7b07d1b43ec90a7", "type": "electric_scooter", "fusion_lon": 0.0, "is_reserved": 0, "fusion_lat": 0.0, "lon": -77.0264815}, {"rental_uris": {"ios": "https://dc.lft.to/lastmile_qr_scan", "android": "https://dc.lft.to/lastmile_qr_scan"}, "lat": 38.88761733333333, "is_disabled": 0, "bike_id": "821ede03b577f6e59ccba8d20607e105", "name": "821ede03b577f6e59ccba8d20607e105", "type": "electric_scooter", "fusion_lon": 0.0, "is_reserved": 0, "fusion_lat": 0.0, "lon": -77.01606283333334}, {"rental_uris": {"ios": "https://dc.lft.to/lastmile_qr_scan", "android": "https://dc.lft.to/lastmile_qr_scan"}, "lat": 38.90392816666667, "is_disabled": 0, "bike_id": "53be2c973c11dd4a45a42bd017df4d9c", "name": "53be2c973c11dd4a45a42bd017df4d9c", "type": "electric_scooter", "fusion_lon": 0.0, "is_reserved": 0, "fusion_lat": 0.0, "lon": -77.03657916666667}, {"rental_uris": {"ios": "https://dc.lft.to/lastmile_qr_scan", "android": "https://dc.lft.to/lastmile_qr_scan"}, "lat": 38.88745816666667, "is_disabled": 0, "bike_id": "bbc5b6388b83d3d8916fe970e1ac3cf6", "name": "bbc5b6388b83d3d8916fe970e1ac3cf6", "type": "electric_scooter", "fusion_lon": 0.0, "is_reserved": 0, "fusion_lat": 0.0, "lon": -77.02274516666667}, {"rental_uris": {"ios": "https://dc.lft.to/lastmile_qr_scan", "android": "https://dc.lft.to/lastmile_qr_scan"}, "lat": 38.926781166666665, "is_disabled": 0, "bike_id": "b51e35c058e1525495c8a39d785a3a96", "name": "b51e35c058e1525495c8a39d785a3a96", "type": "electric_scooter", "fusion_lon": 0.0, "is_reserved": 0, "fusion_lat": 0.0, "lon": -77.07825283333334}, {"rental_uris": {"ios": "https://dc.lft.to/lastmile_qr_scan", "android": "https://dc.lft.to/lastmile_qr_scan"}, "lat": 38.87925933333333, "is_disabled": 0, "bike_id": "c7977487688526429bade0336da20242", "name": "c7977487688526429bade0336da20242", "type": "electric_scooter", "fusion_lon": 0.0, "is_reserved": 0, "fusion_lat": 0.0, "lon": -77.007981}, {"rental_uris": {"ios": "https://dc.lft.to/lastmile_qr_scan", "android": "https://dc.lft.to/lastmile_qr_scan"}, "lat": 38.916494, "is_disabled": 0, "bike_id": "84f53f11d2aba0113a72b875e08fc951", "name": "84f53f11d2aba0113a72b875e08fc951", "type": "electric_scooter", "fusion_lon": 0.0, "is_reserved": 0, "fusion_lat": 0.0, "lon": -77.03182866666667}, {"rental_uris": {"ios": "https://dc.lft.to/lastmile_qr_scan", "android": "https://dc.lft.to/lastmile_qr_scan"}, "lat": 38.939756833333334, "is_disabled": 0, "bike_id": "c7ad6c87ad46fefa198449d021385add", "name": "c7ad6c87ad46fefa198449d021385add", "type": "electric_scooter", "fusion_lon": 0.0, "is_reserved": 0, "fusion_lat": 0.0, "lon": -77.02711783333334}, {"rental_uris": {"ios": "https://dc.lft.to/lastmile_qr_scan", "android": "https://dc.lft.to/lastmile_qr_scan"}, "lat": 38.904918, "is_disabled": 0, "bike_id": "5e48d53e0a4d7de51074933839bab07e", "name": "5e48d53e0a4d7de51074933839bab07e", "type": "electric_scooter", "fusion_lon": 0.0, "is_reserved": 0, "fusion_lat": 0.0, "lon": -77.03560333333333}, {"rental_uris": {"ios": "https://dc.lft.to/lastmile_qr_scan", "android": "https://dc.lft.to/lastmile_qr_scan"}, "lat": 38.887447333333334, "is_disabled": 0, "bike_id": "3d64e065e196a324e6bc58c119a0cd58", "name": "3d64e065e196a324e6bc58c119a0cd58", "type": "electric_scooter", "fusion_lon": 0.0, "is_reserved": 0, "fusion_lat": 0.0, "lon": -77.02835966666666}, {"rental_uris": {"ios": "https://dc.lft.to/lastmile_qr_scan", "android": "https://dc.lft.to/lastmile_qr_scan"}, "lat": 38.86353016666666, "is_disabled": 0, "bike_id": "37cb8be4bae5c37fc11e6800ecab7ec5", "name": "37cb8be4bae5c37fc11e6800ecab7ec5", "type": "electric_scooter", "fusion_lon": 0.0, "is_reserved": 0, "fusion_lat": 0.0, "lon": -76.990881}, {"rental_uris": {"ios": "https://dc.lft.to/lastmile_qr_scan", "android": "https://dc.lft.to/lastmile_qr_scan"}, "lat": 38.8670575, "is_disabled": 0, "bike_id": "5bf61e79551f77cd9ab51a251eb1fee2", "name": "5bf61e79551f77cd9ab51a251eb1fee2", "type": "electric_scooter", "fusion_lon": 0.0, "is_reserved": 0, "fusion_lat": 0.0, "lon": -76.9873305}, {"rental_uris": {"ios": "https://dc.lft.to/lastmile_qr_scan", "android": "https://dc.lft.to/lastmile_qr_scan"}, "lat": 38.936697333333335, "is_disabled": 0, "bike_id": "3bbd5c18a9e3b83eacd424b88f32b64d", "name": "3bbd5c18a9e3b83eacd424b88f32b64d", "type": "electric_bike", "fusion_lon": 0.0, "is_reserved": 0, "fusion_lat": 0.0, "lon": -76.9520285}, {"rental_uris": {"ios": "https://dc.lft.to/lastmile_qr_scan", "android": "https://dc.lft.to/lastmile_qr_scan"}, "lat": 38.936077, "is_disabled": 0, "bike_id": "6ac695937c2a64295d622b40772389be", "name": "6ac695937c2a64295d622b40772389be", "type": "electric_scooter", "fusion_lon": 0.0, "is_reserved": 0, "fusion_lat": 0.0, "lon": -77.035168}, {"rental_uris": {"ios": "https://dc.lft.to/lastmile_qr_scan", "android": "https://dc.lft.to/lastmile_qr_scan"}, "lat": 38.9118625, "is_disabled": 0, "bike_id": "4159ae08fae34cb3623c171c07c2c687", "name": "4159ae08fae34cb3623c171c07c2c687", "type": "electric_scooter", "fusion_lon": 0.0, "is_reserved": 0, "fusion_lat": 0.0, "lon": -77.03198716666667}, {"rental_uris": {"ios": "https://dc.lft.to/lastmile_qr_scan", "android": "https://dc.lft.to/lastmile_qr_scan"}, "lat": 38.8875505, "is_disabled": 0, "bike_id": "70b1e3d87f30bb5b7e8de8343a665e32", "name": "70b1e3d87f30bb5b7e8de8343a665e32", "type": "electric_scooter", "fusion_lon": 0.0, "is_reserved": 0, "fusion_lat": 0.0, "lon": -76.93674416666667}, {"rental_uris": {"ios": "https://dc.lft.to/lastmile_qr_scan", "android": "https://dc.lft.to/lastmile_qr_scan"}, "lat": 38.8462395, "is_disabled": 0, "bike_id": "01cdafdead66ea3f42e8dfa47dba28f7", "name": "01cdafdead66ea3f42e8dfa47dba28f7", "type": "electric_scooter", "fusion_lon": 0.0, "is_reserved": 0, "fusion_lat": 0.0, "lon": -76.996326}, {"rental_uris": {"ios": "https://dc.lft.to/lastmile_qr_scan", "android": "https://dc.lft.to/lastmile_qr_scan"}, "lat": 38.9051505, "is_disabled": 0, "bike_id": "3e49304ededbbd93c65974429d737c88", "name": "3e49304ededbbd93c65974429d737c88", "type": "electric_scooter", "fusion_lon": 0.0, "is_reserved": 0, "fusion_lat": 0.0, "lon": -77.049916}, {"rental_uris": {"ios": "https://dc.lft.to/lastmile_qr_scan", "android": "https://dc.lft.to/lastmile_qr_scan"}, "lat": 38.92099733333333, "is_disabled": 0, "bike_id": "cb4d7a4f59196f310fc3e76166a464d8", "name": "cb4d7a4f59196f310fc3e76166a464d8", "type": "electric_scooter", "fusion_lon": 0.0, "is_reserved": 0, "fusion_lat": 0.0, "lon": -77.02595}, {"rental_uris": {"ios": "https://dc.lft.to/lastmile_qr_scan", "android": "https://dc.lft.to/lastmile_qr_scan"}, "lat": 38.94095266666667, "is_disabled": 0, "bike_id": "301ae0cf630f5609c947206b7f3b4cba", "name": "301ae0cf630f5609c947206b7f3b4cba", "type": "electric_scooter", "fusion_lon": 0.0, "is_reserved": 0, "fusion_lat": 0.0, "lon": -77.06129966666667}, {"rental_uris": {"ios": "https://dc.lft.to/lastmile_qr_scan", "android": "https://dc.lft.to/lastmile_qr_scan"}, "lat": 38.917198, "is_disabled": 0, "bike_id": "48608321a2a76f97697f81871cff30a6", "name": "48608321a2a76f97697f81871cff30a6", "type": "electric_scooter", "fusion_lon": 0.0, "is_reserved": 0, "fusion_lat": 0.0, "lon": -77.04099333333333}, {"rental_uris": {"ios": "https://dc.lft.to/lastmile_qr_scan", "android": "https://dc.lft.to/lastmile_qr_scan"}, "lat": 38.911084333333335, "is_disabled": 0, "bike_id": "34f3d042762f8bc5e2a230da16e4b38d", "name": "34f3d042762f8bc5e2a230da16e4b38d", "type": "electric_scooter", "fusion_lon": 0.0, "is_reserved": 0, "fusion_lat": 0.0, "lon": -77.03193016666667}, {"rental_uris": {"ios": "https://dc.lft.to/lastmile_qr_scan", "android": "https://dc.lft.to/lastmile_qr_scan"}, "lat": 38.92159433333333, "is_disabled": 0, "bike_id": "644b49122f587080d433aa643df3bae2", "name": "644b49122f587080d433aa643df3bae2", "type": "electric_scooter", "fusion_lon": 0.0, "is_reserved": 0, "fusion_lat": 0.0, "lon": -77.035108}, {"rental_uris": {"ios": "https://dc.lft.to/lastmile_qr_scan", "android": "https://dc.lft.to/lastmile_qr_scan"}, "lat": 38.905229, "is_disabled": 0, "bike_id": "599ef9ae447d3df8c12dcd7827af7400", "name": "599ef9ae447d3df8c12dcd7827af7400", "type": "electric_scooter", "fusion_lon": 0.0, "is_reserved": 0, "fusion_lat": 0.0, "lon": -77.05404366666667}, {"rental_uris": {"ios": "https://dc.lft.to/lastmile_qr_scan", "android": "https://dc.lft.to/lastmile_qr_scan"}, "lat": 38.905831166666665, "is_disabled": 0, "bike_id": "32cf8bb1281d648fd362ad7963cc4292", "name": "32cf8bb1281d648fd362ad7963cc4292", "type": "electric_scooter", "fusion_lon": 0.0, "is_reserved": 0, "fusion_lat": 0.0, "lon": -77.02494883333334}, {"rental_uris": {"ios": "https://dc.lft.to/lastmile_qr_scan", "android": "https://dc.lft.to/lastmile_qr_scan"}, "lat": 38.8934245, "is_disabled": 0, "bike_id": "f316519c5a67290eea8433b5495349f2", "name": "f316519c5a67290eea8433b5495349f2", "type": "electric_bike", "fusion_lon": 0.0, "is_reserved": 0, "fusion_lat": 0.0, "lon": -77.12403416666666}, {"rental_uris": {"ios": "https://dc.lft.to/lastmile_qr_scan", "android": "https://dc.lft.to/lastmile_qr_scan"}, "lat": 38.88080033333333, "is_disabled": 0, "bike_id": "f6c9bc352f6add12805b1f6f06d51c2e", "name": "f6c9bc352f6add12805b1f6f06d51c2e", "type": "electric_scooter", "fusion_lon": 0.0, "is_reserved": 0, "fusion_lat": 0.0, "lon": -76.98508633333333}, {"rental_uris": {"ios": "https://dc.lft.to/lastmile_qr_scan", "android": "https://dc.lft.to/lastmile_qr_scan"}, "lat": 38.930629333333336, "is_disabled": 0, "bike_id": "b919a6fb311231cc75c809b2114652d4", "name": "b919a6fb311231cc75c809b2114652d4", "type": "electric_scooter", "fusion_lon": 0.0, "is_reserved": 0, "fusion_lat": 0.0, "lon": -77.028066}, {"rental_uris": {"ios": "https://dc.lft.to/lastmile_qr_scan", "android": "https://dc.lft.to/lastmile_qr_scan"}, "lat": 38.919881833333335, "is_disabled": 0, "bike_id": "d51cb09c3d8a4b22ce342ecb7e5f4b5e", "name": "d51cb09c3d8a4b22ce342ecb7e5f4b5e", "type": "electric_scooter", "fusion_lon": 0.0, "is_reserved": 0, "fusion_lat": 0.0, "lon": -77.04108266666667}, {"rental_uris": {"ios": "https://dc.lft.to/lastmile_qr_scan", "android": "https://dc.lft.to/lastmile_qr_scan"}, "lat": 38.88611683333333, "is_disabled": 0, "bike_id": "ad39b66dc2c57b7550df1b039a276875", "name": "ad39b66dc2c57b7550df1b039a276875", "type": "electric_scooter", "fusion_lon": 0.0, "is_reserved": 0, "fusion_lat": 0.0, "lon": -76.99655366666667}, {"rental_uris": {"ios": "https://dc.lft.to/lastmile_qr_scan", "android": "https://dc.lft.to/lastmile_qr_scan"}, "lat": 38.9282265, "is_disabled": 0, "bike_id": "da7ca6c7cce409705d0c4efe08322234", "name": "da7ca6c7cce409705d0c4efe08322234", "type": "electric_scooter", "fusion_lon": 0.0, "is_reserved": 0, "fusion_lat": 0.0, "lon": -77.0225795}, {"rental_uris": {"ios": "https://dc.lft.to/lastmile_qr_scan", "android": "https://dc.lft.to/lastmile_qr_scan"}, "lat": 38.91791, "is_disabled": 0, "bike_id": "0bf4f3b445c85da026ec879ade69d27d", "name": "0bf4f3b445c85da026ec879ade69d27d", "type": "electric_scooter", "fusion_lon": 0.0, "is_reserved": 0, "fusion_lat": 0.0, "lon": -77.042512}, {"rental_uris": {"ios": "https://dc.lft.to/lastmile_qr_scan", "android": "https://dc.lft.to/lastmile_qr_scan"}, "lat": 38.90315833333333, "is_disabled": 0, "bike_id": "4d2bd376b40003b5da82e05c4ad8e8f0", "name": "4d2bd376b40003b5da82e05c4ad8e8f0", "type": "electric_scooter", "fusion_lon": 0.0, "is_reserved": 0, "fusion_lat": 0.0, "lon": -77.03303366666667}, {"rental_uris": {"ios": "https://dc.lft.to/lastmile_qr_scan", "android": "https://dc.lft.to/lastmile_qr_scan"}, "lat": 38.921738500000004, "is_disabled": 0, "bike_id": "7587cd13faed47ae8de53060d2a0a60d", "name": "7587cd13faed47ae8de53060d2a0a60d", "type": "electric_scooter", "fusion_lon": 0.0, "is_reserved": 0, "fusion_lat": 0.0, "lon": -77.03235566666666}, {"rental_uris": {"ios": "https://dc.lft.to/lastmile_qr_scan", "android": "https://dc.lft.to/lastmile_qr_scan"}, "lat": 38.83813283333333, "is_disabled": 0, "bike_id": "9e6301fd309cf20bf210d66495f239da", "name": "9e6301fd309cf20bf210d66495f239da", "type": "electric_bike", "fusion_lon": 0.0, "is_reserved": 0, "fusion_lat": 0.0, "lon": -77.09552333333333}, {"rental_uris": {"ios": "https://dc.lft.to/lastmile_qr_scan", "android": "https://dc.lft.to/lastmile_qr_scan"}, "lat": 38.918192166666664, "is_disabled": 0, "bike_id": "253e44b4b86fa64d165f9cf51a8ace0a", "name": "253e44b4b86fa64d165f9cf51a8ace0a", "type": "electric_scooter", "fusion_lon": 0.0, "is_reserved": 0, "fusion_lat": 0.0, "lon": -77.02475983333333}, {"rental_uris": {"ios": "https://dc.lft.to/lastmile_qr_scan", "android": "https://dc.lft.to/lastmile_qr_scan"}, "lat": 38.928489666666664, "is_disabled": 0, "bike_id": "c910128da8ec6c7b595c548b6e8c5cf8", "name": "c910128da8ec6c7b595c548b6e8c5cf8", "type": "electric_bike", "fusion_lon": 0.0, "is_reserved": 0, "fusion_lat": 0.0, "lon": -77.10507316666667}, {"rental_uris": {"ios": "https://dc.lft.to/lastmile_qr_scan", "android": "https://dc.lft.to/lastmile_qr_scan"}, "lat": 38.85981233333333, "is_disabled": 0, "bike_id": "8bd9ee09618cc432cd00a5a9069feacf", "name": "8bd9ee09618cc432cd00a5a9069feacf", "type": "electric_scooter", "fusion_lon": 0.0, "is_reserved": 0, "fusion_lat": 0.0, "lon": -76.98407083333333}, {"rental_uris": {"ios": "https://dc.lft.to/lastmile_qr_scan", "android": "https://dc.lft.to/lastmile_qr_scan"}, "lat": 38.858668, "is_disabled": 0, "bike_id": "df8067ced05b15ed6f21d9b8d69fce06", "name": "df8067ced05b15ed6f21d9b8d69fce06", "type": "electric_bike", "fusion_lon": 0.0, "is_reserved": 0, "fusion_lat": 0.0, "lon": -77.10099716666667}, {"rental_uris": {"ios": "https://dc.lft.to/lastmile_qr_scan", "android": "https://dc.lft.to/lastmile_qr_scan"}, "lat": 38.90779033333333, "is_disabled": 0, "bike_id": "54a7a9f2af2944bb2bfedf2ec60f3a95", "name": "54a7a9f2af2944bb2bfedf2ec60f3a95", "type": "electric_scooter", "fusion_lon": 0.0, "is_reserved": 0, "fusion_lat": 0.0, "lon": -77.04501816666667}, {"rental_uris": {"ios": "https://dc.lft.to/lastmile_qr_scan", "android": "https://dc.lft.to/lastmile_qr_scan"}, "lat": 38.942898666666665, "is_disabled": 0, "bike_id": "f50f0dd030a1181e8da4026287e49605", "name": "f50f0dd030a1181e8da4026287e49605", "type": "electric_scooter", "fusion_lon": 0.0, "is_reserved": 0, "fusion_lat": 0.0, "lon": -77.027631}, {"rental_uris": {"ios": "https://dc.lft.to/lastmile_qr_scan", "android": "https://dc.lft.to/lastmile_qr_scan"}, "lat": 38.89502133333333, "is_disabled": 0, "bike_id": "2cec3cbe5e9cb2cf913dc5b5dd2874fe", "name": "2cec3cbe5e9cb2cf913dc5b5dd2874fe", "type": "electric_scooter", "fusion_lon": 0.0, "is_reserved": 0, "fusion_lat": 0.0, "lon": -77.02776166666666}, {"rental_uris": {"ios": "https://dc.lft.to/lastmile_qr_scan", "android": "https://dc.lft.to/lastmile_qr_scan"}, "lat": 38.934577833333336, "is_disabled": 0, "bike_id": "e2e60154214f7743d3706db689537f8f", "name": "e2e60154214f7743d3706db689537f8f", "type": "electric_bike", "fusion_lon": 0.0, "is_reserved": 0, "fusion_lat": 0.0, "lon": -77.089501}, {"rental_uris": {"ios": "https://dc.lft.to/lastmile_qr_scan", "android": "https://dc.lft.to/lastmile_qr_scan"}, "lat": 38.89998033333333, "is_disabled": 0, "bike_id": "968618b60d9402e883de54c36ab29996", "name": "968618b60d9402e883de54c36ab29996", "type": "electric_scooter", "fusion_lon": 0.0, "is_reserved": 0, "fusion_lat": 0.0, "lon": -77.03166166666666}, {"rental_uris": {"ios": "https://dc.lft.to/lastmile_qr_scan", "android": "https://dc.lft.to/lastmile_qr_scan"}, "lat": 38.92076483333334, "is_disabled": 0, "bike_id": "161124fafc5646644224c2f5f042a0f0", "name": "161124fafc5646644224c2f5f042a0f0", "type": "electric_scooter", "fusion_lon": 0.0, "is_reserved": 0, "fusion_lat": 0.0, "lon": -77.042453}, {"rental_uris": {"ios": "https://dc.lft.to/lastmile_qr_scan", "android": "https://dc.lft.to/lastmile_qr_scan"}, "lat": 38.922367666666666, "is_disabled": 0, "bike_id": "25239b3ced7904384647b6e9749e3458", "name": "25239b3ced7904384647b6e9749e3458", "type": "electric_bike", "fusion_lon": 0.0, "is_reserved": 0, "fusion_lat": 0.0, "lon": -77.04341316666667}, {"rental_uris": {"ios": "https://dc.lft.to/lastmile_qr_scan", "android": "https://dc.lft.to/lastmile_qr_scan"}, "lat": 38.8987295, "is_disabled": 0, "bike_id": "1dd610f21fae3a513f6691b9344d6f62", "name": "1dd610f21fae3a513f6691b9344d6f62", "type": "electric_scooter", "fusion_lon": 0.0, "is_reserved": 0, "fusion_lat": 0.0, "lon": -76.94661633333334}, {"rental_uris": {"ios": "https://dc.lft.to/lastmile_qr_scan", "android": "https://dc.lft.to/lastmile_qr_scan"}, "lat": 38.91432433333333, "is_disabled": 0, "bike_id": "0211f98090b61327a30be597b7191100", "name": "0211f98090b61327a30be597b7191100", "type": "electric_scooter", "fusion_lon": 0.0, "is_reserved": 0, "fusion_lat": 0.0, "lon": -77.002032}, {"rental_uris": {"ios": "https://dc.lft.to/lastmile_qr_scan", "android": "https://dc.lft.to/lastmile_qr_scan"}, "lat": 38.9082935, "is_disabled": 0, "bike_id": "131290faaa0a218e614ddb4517522e87", "name": "131290faaa0a218e614ddb4517522e87", "type": "electric_scooter", "fusion_lon": 0.0, "is_reserved": 0, "fusion_lat": 0.0, "lon": -77.03943733333334}, {"rental_uris": {"ios": "https://dc.lft.to/lastmile_qr_scan", "android": "https://dc.lft.to/lastmile_qr_scan"}, "lat": 38.896140833333334, "is_disabled": 0, "bike_id": "c8bb8a0bb676e1cfcc1d6717623d87c0", "name": "c8bb8a0bb676e1cfcc1d6717623d87c0", "type": "electric_scooter", "fusion_lon": 0.0, "is_reserved": 0, "fusion_lat": 0.0, "lon": -77.01163716666667}, {"rental_uris": {"ios": "https://dc.lft.to/lastmile_qr_scan", "android": "https://dc.lft.to/lastmile_qr_scan"}, "lat": 38.912670166666665, "is_disabled": 0, "bike_id": "48ecf9757f5d8597f2fcb242d9fb5046", "name": "48ecf9757f5d8597f2fcb242d9fb5046", "type": "electric_scooter", "fusion_lon": 0.0, "is_reserved": 0, "fusion_lat": 0.0, "lon": -77.0455115}, {"rental_uris": {"ios": "https://dc.lft.to/lastmile_qr_scan", "android": "https://dc.lft.to/lastmile_qr_scan"}, "lat": 38.90269583333333, "is_disabled": 0, "bike_id": "4458358403d8326dc79339742ab0ccd5", "name": "4458358403d8326dc79339742ab0ccd5", "type": "electric_scooter", "fusion_lon": 0.0, "is_reserved": 0, "fusion_lat": 0.0, "lon": -77.03437083333333}, {"rental_uris": {"ios": "https://dc.lft.to/lastmile_qr_scan", "android": "https://dc.lft.to/lastmile_qr_scan"}, "lat": 38.90357083333333, "is_disabled": 0, "bike_id": "5184634c54ba0742a84eae7e0d0e0900", "name": "5184634c54ba0742a84eae7e0d0e0900", "type": "electric_scooter", "fusion_lon": 0.0, "is_reserved": 0, "fusion_lat": 0.0, "lon": -77.0169005}, {"rental_uris": {"ios": "https://dc.lft.to/lastmile_qr_scan", "android": "https://dc.lft.to/lastmile_qr_scan"}, "lat": 38.914319, "is_disabled": 0, "bike_id": "d5c51bf739f029ab7bade0016fd5cc3e", "name": "d5c51bf739f029ab7bade0016fd5cc3e", "type": "electric_scooter", "fusion_lon": 0.0, "is_reserved": 0, "fusion_lat": 0.0, "lon": -77.02817666666667}, {"rental_uris": {"ios": "https://dc.lft.to/lastmile_qr_scan", "android": "https://dc.lft.to/lastmile_qr_scan"}, "lat": 38.8659375, "is_disabled": 0, "bike_id": "c5213abb0c7259e493302fefdd2f2d8c", "name": "c5213abb0c7259e493302fefdd2f2d8c", "type": "electric_bike", "fusion_lon": 0.0, "is_reserved": 0, "fusion_lat": 0.0, "lon": -76.93225}, {"rental_uris": {"ios": "https://dc.lft.to/lastmile_qr_scan", "android": "https://dc.lft.to/lastmile_qr_scan"}, "lat": 38.905749, "is_disabled": 0, "bike_id": "cf83c969603346bbd7324aa1a09cc418", "name": "cf83c969603346bbd7324aa1a09cc418", "type": "electric_scooter", "fusion_lon": 0.0, "is_reserved": 0, "fusion_lat": 0.0, "lon": -77.0059515}, {"rental_uris": {"ios": "https://dc.lft.to/lastmile_qr_scan", "android": "https://dc.lft.to/lastmile_qr_scan"}, "lat": 38.87456383333333, "is_disabled": 0, "bike_id": "f9064c1061541853efc1dfb5355bdfec", "name": "f9064c1061541853efc1dfb5355bdfec", "type": "electric_scooter", "fusion_lon": 0.0, "is_reserved": 0, "fusion_lat": 0.0, "lon": -77.00608816666667}, {"rental_uris": {"ios": "https://dc.lft.to/lastmile_qr_scan", "android": "https://dc.lft.to/lastmile_qr_scan"}, "lat": 38.9086105, "is_disabled": 0, "bike_id": "6d128a36ce7fea84d34c18896b94e53c", "name": "6d128a36ce7fea84d34c18896b94e53c", "type": "electric_scooter", "fusion_lon": 0.0, "is_reserved": 0, "fusion_lat": 0.0, "lon": -77.04566233333334}, {"rental_uris": {"ios": "https://dc.lft.to/lastmile_qr_scan", "android": "https://dc.lft.to/lastmile_qr_scan"}, "lat": 38.94140433333333, "is_disabled": 0, "bike_id": "c5b55e2004c2f342384ee0025e7e14f7", "name": "c5b55e2004c2f342384ee0025e7e14f7", "type": "electric_scooter", "fusion_lon": 0.0, "is_reserved": 0, "fusion_lat": 0.0, "lon": -77.092035}, {"rental_uris": {"ios": "https://dc.lft.to/lastmile_qr_scan", "android": "https://dc.lft.to/lastmile_qr_scan"}, "lat": 38.955684166666664, "is_disabled": 0, "bike_id": "c9cd36653f5ffa7992f08aedbaba2cb0", "name": "c9cd36653f5ffa7992f08aedbaba2cb0", "type": "electric_scooter", "fusion_lon": 0.0, "is_reserved": 0, "fusion_lat": 0.0, "lon": -77.00635116666666}, {"rental_uris": {"ios": "https://dc.lft.to/lastmile_qr_scan", "android": "https://dc.lft.to/lastmile_qr_scan"}, "lat": 38.90268183333333, "is_disabled": 0, "bike_id": "0783a2bf2195fb50eef69e9b8cafacea", "name": "0783a2bf2195fb50eef69e9b8cafacea", "type": "electric_scooter", "fusion_lon": 0.0, "is_reserved": 0, "fusion_lat": 0.0, "lon": -77.03471383333333}, {"rental_uris": {"ios": "https://dc.lft.to/lastmile_qr_scan", "android": "https://dc.lft.to/lastmile_qr_scan"}, "lat": 38.90071566666667, "is_disabled": 0, "bike_id": "7eb6a38e8c2d8779a1150f86635639c0", "name": "7eb6a38e8c2d8779a1150f86635639c0", "type": "electric_scooter", "fusion_lon": 0.0, "is_reserved": 0, "fusion_lat": 0.0, "lon": -77.0020395}, {"rental_uris": {"ios": "https://dc.lft.to/lastmile_qr_scan", "android": "https://dc.lft.to/lastmile_qr_scan"}, "lat": 38.91764, "is_disabled": 0, "bike_id": "e690df2b07209cd80f8919f55f7b1ca0", "name": "e690df2b07209cd80f8919f55f7b1ca0", "type": "electric_scooter", "fusion_lon": 0.0, "is_reserved": 0, "fusion_lat": 0.0, "lon": -77.02492166666667}, {"rental_uris": {"ios": "https://dc.lft.to/lastmile_qr_scan", "android": "https://dc.lft.to/lastmile_qr_scan"}, "lat": 38.85217983333333, "is_disabled": 0, "bike_id": "4f47a3a5cbcfb6dd9b99f48ca4bd58ae", "name": "4f47a3a5cbcfb6dd9b99f48ca4bd58ae", "type": "electric_bike", "fusion_lon": 0.0, "is_reserved": 0, "fusion_lat": 0.0, "lon": -77.129571}, {"rental_uris": {"ios": "https://dc.lft.to/lastmile_qr_scan", "android": "https://dc.lft.to/lastmile_qr_scan"}, "lat": 38.8948615, "is_disabled": 0, "bike_id": "79299bacd3b82458962d11d88f3bc483", "name": "79299bacd3b82458962d11d88f3bc483", "type": "electric_scooter", "fusion_lon": 0.0, "is_reserved": 0, "fusion_lat": 0.0, "lon": -76.9951885}, {"rental_uris": {"ios": "https://dc.lft.to/lastmile_qr_scan", "android": "https://dc.lft.to/lastmile_qr_scan"}, "lat": 38.91253716666667, "is_disabled": 0, "bike_id": "329d255b2aff6b104ce5cbd0ba506f39", "name": "329d255b2aff6b104ce5cbd0ba506f39", "type": "electric_scooter", "fusion_lon": 0.0, "is_reserved": 0, "fusion_lat": 0.0, "lon": -77.0093385}, {"rental_uris": {"ios": "https://dc.lft.to/lastmile_qr_scan", "android": "https://dc.lft.to/lastmile_qr_scan"}, "lat": 38.905045, "is_disabled": 0, "bike_id": "f747c31b48dd069ec85e7817df6f0e1f", "name": "f747c31b48dd069ec85e7817df6f0e1f", "type": "electric_scooter", "fusion_lon": 0.0, "is_reserved": 0, "fusion_lat": 0.0, "lon": -77.04051233333334}, {"rental_uris": {"ios": "https://dc.lft.to/lastmile_qr_scan", "android": "https://dc.lft.to/lastmile_qr_scan"}, "lat": 38.9133255, "is_disabled": 0, "bike_id": "a1cd054f6e0229b681845e52b728fbd9", "name": "a1cd054f6e0229b681845e52b728fbd9", "type": "electric_scooter", "fusion_lon": 0.0, "is_reserved": 0, "fusion_lat": 0.0, "lon": -77.0452865}, {"rental_uris": {"ios": "https://dc.lft.to/lastmile_qr_scan", "android": "https://dc.lft.to/lastmile_qr_scan"}, "lat": 38.900362, "is_disabled": 0, "bike_id": "1f427d22ae0f69f27b83d5d7c7dd44bc", "name": "1f427d22ae0f69f27b83d5d7c7dd44bc", "type": "electric_scooter", "fusion_lon": 0.0, "is_reserved": 0, "fusion_lat": 0.0, "lon": -77.04022233333333}, {"rental_uris": {"ios": "https://dc.lft.to/lastmile_qr_scan", "android": "https://dc.lft.to/lastmile_qr_scan"}, "lat": 38.889909, "is_disabled": 0, "bike_id": "6f009e6b8041015da69a02e6de82ed33", "name": "6f009e6b8041015da69a02e6de82ed33", "type": "electric_scooter", "fusion_lon": 0.0, "is_reserved": 0, "fusion_lat": 0.0, "lon": -76.92401116666667}, {"rental_uris": {"ios": "https://dc.lft.to/lastmile_qr_scan", "android": "https://dc.lft.to/lastmile_qr_scan"}, "lat": 38.893253, "is_disabled": 0, "bike_id": "8c0befc8f02279392d54539bd06a1faf", "name": "8c0befc8f02279392d54539bd06a1faf", "type": "electric_scooter", "fusion_lon": 0.0, "is_reserved": 0, "fusion_lat": 0.0, "lon": -77.0295835}, {"rental_uris": {"ios": "https://dc.lft.to/lastmile_qr_scan", "android": "https://dc.lft.to/lastmile_qr_scan"}, "lat": 38.879189333333336, "is_disabled": 0, "bike_id": "26cc202381aacfaea406b148432c04d1", "name": "26cc202381aacfaea406b148432c04d1", "type": "electric_scooter", "fusion_lon": 0.0, "is_reserved": 0, "fusion_lat": 0.0, "lon": -76.991636}, {"rental_uris": {"ios": "https://dc.lft.to/lastmile_qr_scan", "android": "https://dc.lft.to/lastmile_qr_scan"}, "lat": 38.90398366666667, "is_disabled": 0, "bike_id": "ec68e96b70f274b6d3bca55073b783d1", "name": "ec68e96b70f274b6d3bca55073b783d1", "type": "electric_scooter", "fusion_lon": 0.0, "is_reserved": 0, "fusion_lat": 0.0, "lon": -77.04476033333333}, {"rental_uris": {"ios": "https://dc.lft.to/lastmile_qr_scan", "android": "https://dc.lft.to/lastmile_qr_scan"}, "lat": 38.90243133333333, "is_disabled": 0, "bike_id": "6481586dfb69993e9b18957d4ef33477", "name": "6481586dfb69993e9b18957d4ef33477", "type": "electric_scooter", "fusion_lon": 0.0, "is_reserved": 0, "fusion_lat": 0.0, "lon": -77.002011}, {"rental_uris": {"ios": "https://dc.lft.to/lastmile_qr_scan", "android": "https://dc.lft.to/lastmile_qr_scan"}, "lat": 38.86509083333333, "is_disabled": 0, "bike_id": "dcb094b71a182be1b2ff7ebae85222b7", "name": "dcb094b71a182be1b2ff7ebae85222b7", "type": "electric_scooter", "fusion_lon": 0.0, "is_reserved": 0, "fusion_lat": 0.0, "lon": -76.973451}, {"rental_uris": {"ios": "https://dc.lft.to/lastmile_qr_scan", "android": "https://dc.lft.to/lastmile_qr_scan"}, "lat": 38.907901333333335, "is_disabled": 0, "bike_id": "8cb136ce59591702e26e522e64a8c595", "name": "8cb136ce59591702e26e522e64a8c595", "type": "electric_scooter", "fusion_lon": 0.0, "is_reserved": 0, "fusion_lat": 0.0, "lon": -77.04501583333334}, {"rental_uris": {"ios": "https://dc.lft.to/lastmile_qr_scan", "android": "https://dc.lft.to/lastmile_qr_scan"}, "lat": 38.89253, "is_disabled": 0, "bike_id": "f657fec17018fa9d7cbb222038140704", "name": "f657fec17018fa9d7cbb222038140704", "type": "electric_scooter", "fusion_lon": 0.0, "is_reserved": 0, "fusion_lat": 0.0, "lon": -77.0217755}, {"rental_uris": {"ios": "https://dc.lft.to/lastmile_qr_scan", "android": "https://dc.lft.to/lastmile_qr_scan"}, "lat": 38.927458666666666, "is_disabled": 0, "bike_id": "c326832a249650c551f268279bb9ed0a", "name": "c326832a249650c551f268279bb9ed0a", "type": "electric_scooter", "fusion_lon": 0.0, "is_reserved": 0, "fusion_lat": 0.0, "lon": -77.02274483333333}, {"rental_uris": {"ios": "https://dc.lft.to/lastmile_qr_scan", "android": "https://dc.lft.to/lastmile_qr_scan"}, "lat": 38.888398, "is_disabled": 0, "bike_id": "6d45e391c13f56d140c9e13cb6af8994", "name": "6d45e391c13f56d140c9e13cb6af8994", "type": "electric_scooter", "fusion_lon": 0.0, "is_reserved": 0, "fusion_lat": 0.0, "lon": -77.04903033333333}, {"rental_uris": {"ios": "https://dc.lft.to/lastmile_qr_scan", "android": "https://dc.lft.to/lastmile_qr_scan"}, "lat": 38.91886983333333, "is_disabled": 0, "bike_id": "8a7f1806633d7f05488e58efb3ac6ed2", "name": "8a7f1806633d7f05488e58efb3ac6ed2", "type": "electric_scooter", "fusion_lon": 0.0, "is_reserved": 0, "fusion_lat": 0.0, "lon": -77.04265716666667}, {"rental_uris": {"ios": "https://dc.lft.to/lastmile_qr_scan", "android": "https://dc.lft.to/lastmile_qr_scan"}, "lat": 38.92187666666667, "is_disabled": 0, "bike_id": "476e9e942310d000d78f76cd57d53e22", "name": "476e9e942310d000d78f76cd57d53e22", "type": "electric_scooter", "fusion_lon": 0.0, "is_reserved": 0, "fusion_lat": 0.0, "lon": -77.04012516666667}, {"rental_uris": {"ios": "https://dc.lft.to/lastmile_qr_scan", "android": "https://dc.lft.to/lastmile_qr_scan"}, "lat": 39.0173285, "is_disabled": 0, "bike_id": "eee939ec3bdc1b7b5675908ef7d4d618", "name": "eee939ec3bdc1b7b5675908ef7d4d618", "type": "electric_bike", "fusion_lon": 0.0, "is_reserved": 0, "fusion_lat": 0.0, "lon": -77.0638885}, {"rental_uris": {"ios": "https://dc.lft.to/lastmile_qr_scan", "android": "https://dc.lft.to/lastmile_qr_scan"}, "lat": 38.9133595, "is_disabled": 0, "bike_id": "b5536fe12a9f3145ccd5d8a4849d61cc", "name": "b5536fe12a9f3145ccd5d8a4849d61cc", "type": "electric_scooter", "fusion_lon": 0.0, "is_reserved": 0, "fusion_lat": 0.0, "lon": -77.01998966666666}, {"rental_uris": {"ios": "https://dc.lft.to/lastmile_qr_scan", "android": "https://dc.lft.to/lastmile_qr_scan"}, "lat": 38.957426, "is_disabled": 0, "bike_id": "1736280c804d3455e8a7cc9049d23886", "name": "1736280c804d3455e8a7cc9049d23886", "type": "electric_bike", "fusion_lon": 0.0, "is_reserved": 0, "fusion_lat": 0.0, "lon": -76.97250833333334}, {"rental_uris": {"ios": "https://dc.lft.to/lastmile_qr_scan", "android": "https://dc.lft.to/lastmile_qr_scan"}, "lat": 38.89919966666667, "is_disabled": 0, "bike_id": "36d29ab02ccacab53a4772ed9dd42bad", "name": "36d29ab02ccacab53a4772ed9dd42bad", "type": "electric_scooter", "fusion_lon": 0.0, "is_reserved": 0, "fusion_lat": 0.0, "lon": -77.00343516666666}, {"rental_uris": {"ios": "https://dc.lft.to/lastmile_qr_scan", "android": "https://dc.lft.to/lastmile_qr_scan"}, "lat": 38.915059666666664, "is_disabled": 0, "bike_id": "150334eb8f50023a8809779b9651ad70", "name": "150334eb8f50023a8809779b9651ad70", "type": "electric_scooter", "fusion_lon": 0.0, "is_reserved": 0, "fusion_lat": 0.0, "lon": -77.038122}, {"rental_uris": {"ios": "https://dc.lft.to/lastmile_qr_scan", "android": "https://dc.lft.to/lastmile_qr_scan"}, "lat": 38.857207, "is_disabled": 0, "bike_id": "f6e31482a71d8aa1dfaaba4c08f23673", "name": "f6e31482a71d8aa1dfaaba4c08f23673", "type": "electric_scooter", "fusion_lon": 0.0, "is_reserved": 0, "fusion_lat": 0.0, "lon": -76.97103416666667}, {"rental_uris": {"ios": "https://dc.lft.to/lastmile_qr_scan", "android": "https://dc.lft.to/lastmile_qr_scan"}, "lat": 38.897476166666664, "is_disabled": 0, "bike_id": "12a33e92c70992a4eb345ba7e4de0677", "name": "12a33e92c70992a4eb345ba7e4de0677", "type": "electric_scooter", "fusion_lon": 0.0, "is_reserved": 0, "fusion_lat": 0.0, "lon": -77.0270155}, {"rental_uris": {"ios": "https://dc.lft.to/lastmile_qr_scan", "android": "https://dc.lft.to/lastmile_qr_scan"}, "lat": 38.906206, "is_disabled": 0, "bike_id": "67b69889ad321eae49a6c1ff33382c05", "name": "67b69889ad321eae49a6c1ff33382c05", "type": "electric_scooter", "fusion_lon": 0.0, "is_reserved": 0, "fusion_lat": 0.0, "lon": -77.06286016666667}, {"rental_uris": {"ios": "https://dc.lft.to/lastmile_qr_scan", "android": "https://dc.lft.to/lastmile_qr_scan"}, "lat": 38.89351816666667, "is_disabled": 0, "bike_id": "0714176107c8d6d63c2e551f8838f20c", "name": "0714176107c8d6d63c2e551f8838f20c", "type": "electric_bike", "fusion_lon": 0.0, "is_reserved": 0, "fusion_lat": 0.0, "lon": -77.187395}, {"rental_uris": {"ios": "https://dc.lft.to/lastmile_qr_scan", "android": "https://dc.lft.to/lastmile_qr_scan"}, "lat": 38.896353833333336, "is_disabled": 0, "bike_id": "34e6691ad385f480182038273a21ae0f", "name": "34e6691ad385f480182038273a21ae0f", "type": "electric_scooter", "fusion_lon": 0.0, "is_reserved": 0, "fusion_lat": 0.0, "lon": -76.95661466666667}, {"rental_uris": {"ios": "https://dc.lft.to/lastmile_qr_scan", "android": "https://dc.lft.to/lastmile_qr_scan"}, "lat": 38.90867083333333, "is_disabled": 0, "bike_id": "6fd7568116375f93cf98f1cdcc521043", "name": "6fd7568116375f93cf98f1cdcc521043", "type": "electric_scooter", "fusion_lon": 0.0, "is_reserved": 0, "fusion_lat": 0.0, "lon": -76.99964166666666}, {"rental_uris": {"ios": "https://dc.lft.to/lastmile_qr_scan", "android": "https://dc.lft.to/lastmile_qr_scan"}, "lat": 38.87946183333333, "is_disabled": 0, "bike_id": "5997d2546d307afb5b2e57bb4ccd7ed5", "name": "5997d2546d307afb5b2e57bb4ccd7ed5", "type": "electric_bike", "fusion_lon": 0.0, "is_reserved": 0, "fusion_lat": 0.0, "lon": -77.0096225}, {"rental_uris": {"ios": "https://dc.lft.to/lastmile_qr_scan", "android": "https://dc.lft.to/lastmile_qr_scan"}, "lat": 38.9041015, "is_disabled": 0, "bike_id": "7170ef16fc37223d288d4efa43254c64", "name": "7170ef16fc37223d288d4efa43254c64", "type": "electric_scooter", "fusion_lon": 0.0, "is_reserved": 0, "fusion_lat": 0.0, "lon": -77.03249483333333}, {"rental_uris": {"ios": "https://dc.lft.to/lastmile_qr_scan", "android": "https://dc.lft.to/lastmile_qr_scan"}, "lat": 38.911074166666666, "is_disabled": 0, "bike_id": "1d524c8eb45256045d7d73c1a7723808", "name": "1d524c8eb45256045d7d73c1a7723808", "type": "electric_scooter", "fusion_lon": 0.0, "is_reserved": 0, "fusion_lat": 0.0, "lon": -77.04405933333334}, {"rental_uris": {"ios": "https://dc.lft.to/lastmile_qr_scan", "android": "https://dc.lft.to/lastmile_qr_scan"}, "lat": 38.90288666666667, "is_disabled": 0, "bike_id": "e4cce2e4ac00704ea8c197b2ad395f1d", "name": "e4cce2e4ac00704ea8c197b2ad395f1d", "type": "electric_scooter", "fusion_lon": 0.0, "is_reserved": 0, "fusion_lat": 0.0, "lon": -77.00226266666667}, {"rental_uris": {"ios": "https://dc.lft.to/lastmile_qr_scan", "android": "https://dc.lft.to/lastmile_qr_scan"},