{"data": {"bikes": [{"is_disabled": 0, "fusion_lon": 0.0, "fusion_lat": 0.0, "lat": 38.910133, "type": "electric_scooter", "lon": -77.043952, "bike_id": "66a86626bd7ba9bbc3262757040118b8", "rental_uris": {"android": "https://dc.lft.to/lastmile_qr_scan", "ios": "https://dc.lft.to/lastmile_qr_scan"}, "name": "66a86626bd7ba9bbc3262757040118b8", "is_reserved": 0}, {"is_disabled": 0, "fusion_lon": 0.0, "fusion_lat": 0.0, "lat": 38.8967975, "type": "electric_bike", "lon": -76.9405835, "bike_id": "e57f934afd75d827e32333da71355af5", "rental_uris": {"android": "https://dc.lft.to/lastmile_qr_scan", "ios": "https://dc.lft.to/lastmile_qr_scan"}, "name": "e57f934afd75d827e32333da71355af5", "is_reserved": 0}, {"is_disabled": 0, "fusion_lon": 0.0, "fusion_lat": 0.0, "lat": 38.90784683333333, "type": "electric_scooter", "lon": -77.009689, "bike_id": "65a1dafc83b072cdefdd4aa4b91fe03e", "rental_uris": {"android": "https://dc.lft.to/lastmile_qr_scan", "ios": "https://dc.lft.to/lastmile_qr_scan"}, "name": "65a1dafc83b072cdefdd4aa4b91fe03e", "is_reserved": 0}, {"is_disabled": 0, "fusion_lon": 0.0, "fusion_lat": 0.0, "lat": 38.904136, "type": "electric_scooter", "lon": -77.01807816666667, "bike_id": "34db8bc65c73930cde779b8f263d0973", "rental_uris": {"android": "https://dc.lft.to/lastmile_qr_scan", "ios": "https://dc.lft.to/lastmile_qr_scan"}, "name": "34db8bc65c73930cde779b8f263d0973", "is_reserved": 0}, {"is_disabled": 0, "fusion_lon": 0.0, "fusion_lat": 0.0, "lat": 38.92710816666666, "type": "electric_scooter", "lon": -77.040494, "bike_id": "fd644bb56256528f8eb774d567768cce", "rental_uris": {"android": "https://dc.lft.to/lastmile_qr_scan", "ios": "https://dc.lft.to/lastmile_qr_scan"}, "name": "fd644bb56256528f8eb774d567768cce", "is_reserved": 0}, {"is_disabled": 0, "fusion_lon": 0.0, "fusion_lat": 0.0, "lat": 38.92991216666667, "type": "electric_scooter", "lon": -77.01979783333333, "bike_id": "5a105b707ff44d53c19df0b54ff19193", "rental_uris": {"android": "https://dc.lft.to/lastmile_qr_scan", "ios": "https://dc.lft.to/lastmile_qr_scan"}, "name": "5a105b707ff44d53c19df0b54ff19193", "is_reserved": 0}, {"is_disabled": 0, "fusion_lon": 0.0, "fusion_lat": 0.0, "lat": 38.841055, "type": "electric_bike", "lon": -77.08943333333333, "bike_id": "2c399a4e6027bc20436bd3e0901c0247", "rental_uris": {"android": "https://dc.lft.to/lastmile_qr_scan", "ios": "https://dc.lft.to/lastmile_qr_scan"}, "name": "2c399a4e6027bc20436bd3e0901c0247", "is_reserved": 0}, {"is_disabled": 0, "fusion_lon": 0.0, "fusion_lat": 0.0, "lat": 38.85985216666667, "type": "electric_bike", "lon": -76.97051983333333, "bike_id": "332f5397b4f7a56190dcf98a1e244fe9", "rental_uris": {"android": "https://dc.lft.to/lastmile_qr_scan", "ios": "https://dc.lft.to/lastmile_qr_scan"}, "name": "332f5397b4f7a56190dcf98a1e244fe9", "is_reserved": 0}, {"is_disabled": 0, "fusion_lon": 0.0, "fusion_lat": 0.0, "lat": 38.903226833333335, "type": "electric_scooter", "lon": -77.03628216666667, "bike_id": "1a5270ab797450729261777d929d99c4", "rental_uris": {"android": "https://dc.lft.to/lastmile_qr_scan", "ios": "https://dc.lft.to/lastmile_qr_scan"}, "name": "1a5270ab797450729261777d929d99c4", "is_reserved": 0}, {"is_disabled": 0, "fusion_lon": 0.0, "fusion_lat": 0.0, "lat": 38.99453466666667, "type": "electric_bike", "lon": -76.9081515, "bike_id": "9da30a9314bfe92de70aad0a22cdd9db", "rental_uris": {"android": "https://dc.lft.to/lastmile_qr_scan", "ios": "https://dc.lft.to/lastmile_qr_scan"}, "name": "9da30a9314bfe92de70aad0a22cdd9db", "is_reserved": 0}, {"is_disabled": 0, "fusion_lon": 0.0, "fusion_lat": 0.0, "lat": 38.8666305, "type": "electric_scooter", "lon": -76.98893966666667, "bike_id": "f72b2d6966cca026fcbb98085d637760", "rental_uris": {"android": "https://dc.lft.to/lastmile_qr_scan", "ios": "https://dc.lft.to/lastmile_qr_scan"}, "name": "f72b2d6966cca026fcbb98085d637760", "is_reserved": 0}, {"is_disabled": 0, "fusion_lon": 0.0, "fusion_lat": 0.0, "lat": 38.87852766666666, "type": "electric_scooter", "lon": -77.00503633333334, "bike_id": "f0a79b830406891bd5a7d037a8642d5b", "rental_uris": {"android": "https://dc.lft.to/lastmile_qr_scan", "ios": "https://dc.lft.to/lastmile_qr_scan"}, "name": "f0a79b830406891bd5a7d037a8642d5b", "is_reserved": 0}, {"is_disabled": 0, "fusion_lon": 0.0, "fusion_lat": 0.0, "lat": 38.932454, "type": "electric_scooter", "lon": -77.040087, "bike_id": "16469d594ed724d68b0766989ab7c311", "rental_uris": {"android": "https://dc.lft.to/lastmile_qr_scan", "ios": "https://dc.lft.to/lastmile_qr_scan"}, "name": "16469d594ed724d68b0766989ab7c311", "is_reserved": 0}, {"is_disabled": 0, "fusion_lon": 0.0, "fusion_lat": 0.0, "lat": 38.880094, "type": "electric_bike", "lon": -76.9159565, "bike_id": "b2012d8f4c5590b81aed09674d1a42de", "rental_uris": {"android": "https://dc.lft.to/lastmile_qr_scan", "ios": "https://dc.lft.to/lastmile_qr_scan"}, "name": "b2012d8f4c5590b81aed09674d1a42de", "is_reserved": 0}, {"is_disabled": 0, "fusion_lon": 0.0, "fusion_lat": 0.0, "lat": 38.92559416666667, "type": "electric_scooter", "lon": -77.02283916666667, "bike_id": "406e3f303cbb63b4a4f8baaf13e3aea7", "rental_uris": {"android": "https://dc.lft.to/lastmile_qr_scan", "ios": "https://dc.lft.to/lastmile_qr_scan"}, "name": "406e3f303cbb63b4a4f8baaf13e3aea7", "is_reserved": 0}, {"is_disabled": 0, "fusion_lon": 0.0, "fusion_lat": 0.0, "lat": 38.914105, "type": "electric_scooter", "lon": -77.02557716666666, "bike_id": "a18068af910cffef0c51f3e7500021e5", "rental_uris": {"android": "https://dc.lft.to/lastmile_qr_scan", "ios": "https://dc.lft.to/lastmile_qr_scan"}, "name": "a18068af910cffef0c51f3e7500021e5", "is_reserved": 0}, {"is_disabled": 0, "fusion_lon": 0.0, "fusion_lat": 0.0, "lat": 38.9055, "type": "electric_scooter", "lon": -77.03246816666666, "bike_id": "197cee47ed57d93103dc6aa8cfd2179b", "rental_uris": {"android": "https://dc.lft.to/lastmile_qr_scan", "ios": "https://dc.lft.to/lastmile_qr_scan"}, "name": "197cee47ed57d93103dc6aa8cfd2179b", "is_reserved": 0}, {"is_disabled": 0, "fusion_lon": 0.0, "fusion_lat": 0.0, "lat": 38.86842766666667, "type": "electric_bike", "lon": -77.0973105, "bike_id": "d11b75c40f2e101b1bc649b515b0dd64", "rental_uris": {"android": "https://dc.lft.to/lastmile_qr_scan", "ios": "https://dc.lft.to/lastmile_qr_scan"}, "name": "d11b75c40f2e101b1bc649b515b0dd64", "is_reserved": 0}, {"is_disabled": 0, "fusion_lon": 0.0, "fusion_lat": 0.0, "lat": 38.9185115, "type": "electric_bike", "lon": -76.96093983333333, "bike_id": "6f7318c0cfecb8f6ca977537bec28b2e", "rental_uris": {"android": "https://dc.lft.to/lastmile_qr_scan", "ios": "https://dc.lft.to/lastmile_qr_scan"}, "name": "6f7318c0cfecb8f6ca977537bec28b2e", "is_reserved": 0}, {"is_disabled": 0, "fusion_lon": 0.0, "fusion_lat": 0.0, "lat": 38.915543166666666, "type": "electric_scooter", "lon": -77.020491, "bike_id": "fd654146c3717237a221b9a8b3787e52", "rental_uris": {"android": "https://dc.lft.to/lastmile_qr_scan", "ios": "https://dc.lft.to/lastmile_qr_scan"}, "name": "fd654146c3717237a221b9a8b3787e52", "is_reserved": 0}, {"is_disabled": 0, "fusion_lon": 0.0, "fusion_lat": 0.0, "lat": 38.90089366666667, "type": "electric_scooter", "lon": -77.02170733333334, "bike_id": "a3997a6eef7031d4bbdad1d963d6b2e3", "rental_uris": {"android": "https://dc.lft.to/lastmile_qr_scan", "ios": "https://dc.lft.to/lastmile_qr_scan"}, "name": "a3997a6eef7031d4bbdad1d963d6b2e3", "is_reserved": 0}, {"is_disabled": 0, "fusion_lon": 0.0, "fusion_lat": 0.0, "lat": 38.89851083333333, "type": "electric_bike", "lon": -76.93188966666666, "bike_id": "586e06c35474bd58d6c6f7c3b52c2e4d", "rental_uris": {"android": "https://dc.lft.to/lastmile_qr_scan", "ios": "https://dc.lft.to/lastmile_qr_scan"}, "name": "586e06c35474bd58d6c6f7c3b52c2e4d", "is_reserved": 0}, {"is_disabled": 0, "fusion_lon": 0.0, "fusion_lat": 0.0, "lat": 38.91808833333333, "type": "electric_scooter", "lon": -77.01392783333333, "bike_id": "8e8f5845746095894a5b79d29cfe74d6", "rental_uris": {"android": "https://dc.lft.to/lastmile_qr_scan", "ios": "https://dc.lft.to/lastmile_qr_scan"}, "name": "8e8f5845746095894a5b79d29cfe74d6", "is_reserved": 0}, {"is_disabled": 0, "fusion_lon": 0.0, "fusion_lat": 0.0, "lat": 38.89857533333333, "type": "electric_scooter", "lon": -77.0229515, "bike_id": "1b0f62b3b3b331aeca19e25d5a66e32b", "rental_uris": {"android": "https://dc.lft.to/lastmile_qr_scan", "ios": "https://dc.lft.to/lastmile_qr_scan"}, "name": "1b0f62b3b3b331aeca19e25d5a66e32b", "is_reserved": 0}, {"is_disabled": 0, "fusion_lon": 0.0, "fusion_lat": 0.0, "lat": 38.914458333333336, "type": "electric_scooter", "lon": -77.041587, "bike_id": "a6f71913834206cfdf949f5ceee9bd4d", "rental_uris": {"android": "https://dc.lft.to/lastmile_qr_scan", "ios": "https://dc.lft.to/lastmile_qr_scan"}, "name": "a6f71913834206cfdf949f5ceee9bd4d", "is_reserved": 0}, {"is_disabled": 0, "fusion_lon": 0.0, "fusion_lat": 0.0, "lat": 38.908642666666665, "type": "electric_scooter", "lon": -77.02674133333333, "bike_id": "847dc2ee2cb66b6fd295886e5f67fa3f", "rental_uris": {"android": "https://dc.lft.to/lastmile_qr_scan", "ios": "https://dc.lft.to/lastmile_qr_scan"}, "name": "847dc2ee2cb66b6fd295886e5f67fa3f", "is_reserved": 0}, {"is_disabled": 0, "fusion_lon": 0.0, "fusion_lat": 0.0, "lat": 38.917078, "type": "electric_scooter", "lon": -77.034247, "bike_id": "23604d9da211433eddbcd17e1c33198f", "rental_uris": {"android": "https://dc.lft.to/lastmile_qr_scan", "ios": "https://dc.lft.to/lastmile_qr_scan"}, "name": "23604d9da211433eddbcd17e1c33198f", "is_reserved": 0}, {"is_disabled": 0, "fusion_lon": 0.0, "fusion_lat": 0.0, "lat": 38.91303, "type": "electric_scooter", "lon": -77.031979, "bike_id": "d67ba97d2191440726f6261784db4667", "rental_uris": {"android": "https://dc.lft.to/lastmile_qr_scan", "ios": "https://dc.lft.to/lastmile_qr_scan"}, "name": "d67ba97d2191440726f6261784db4667", "is_reserved": 0}, {"is_disabled": 0, "fusion_lon": 0.0, "fusion_lat": 0.0, "lat": 38.900158166666664, "type": "electric_scooter", "lon": -77.0119575, "bike_id": "a10d50d32f2457142d77daa248e612ab", "rental_uris": {"android": "https://dc.lft.to/lastmile_qr_scan", "ios": "https://dc.lft.to/lastmile_qr_scan"}, "name": "a10d50d32f2457142d77daa248e612ab", "is_reserved": 0}, {"is_disabled": 0, "fusion_lon": 0.0, "fusion_lat": 0.0, "lat": 38.8963645, "type": "electric_scooter", "lon": -77.02133016666667, "bike_id": "cdb9263ebfb4b9fe6571465bd563b4af", "rental_uris": {"android": "https://dc.lft.to/lastmile_qr_scan", "ios": "https://dc.lft.to/lastmile_qr_scan"}, "name": "cdb9263ebfb4b9fe6571465bd563b4af", "is_reserved": 0}, {"is_disabled": 0, "fusion_lon": 0.0, "fusion_lat": 0.0, "lat": 38.93251016666667, "type": "electric_scooter", "lon": -77.0325535, "bike_id": "d6ba12c36b50c6f9074209a5af12076b", "rental_uris": {"android": "https://dc.lft.to/lastmile_qr_scan", "ios": "https://dc.lft.to/lastmile_qr_scan"}, "name": "d6ba12c36b50c6f9074209a5af12076b", "is_reserved": 0}, {"is_disabled": 0, "fusion_lon": 0.0, "fusion_lat": 0.0, "lat": 38.900617833333335, "type": "electric_scooter", "lon": -76.98682783333334, "bike_id": "9e0c2b4bf5560bccf8fae2b02e8c0412", "rental_uris": {"android": "https://dc.lft.to/lastmile_qr_scan", "ios": "https://dc.lft.to/lastmile_qr_scan"}, "name": "9e0c2b4bf5560bccf8fae2b02e8c0412", "is_reserved": 0}, {"is_disabled": 0, "fusion_lon": 0.0, "fusion_lat": 0.0, "lat": 38.922673, "type": "electric_scooter", "lon": -77.02240733333333, "bike_id": "59923c4c9513e1b84f7484f918cdf708", "rental_uris": {"android": "https://dc.lft.to/lastmile_qr_scan", "ios": "https://dc.lft.to/lastmile_qr_scan"}, "name": "59923c4c9513e1b84f7484f918cdf708", "is_reserved": 0}, {"is_disabled": 0, "fusion_lon": 0.0, "fusion_lat": 0.0, "lat": 38.914161, "type": "electric_scooter", "lon": -77.042452, "bike_id": "5c7e6f50b5befd2bb28e876c8ad5eb73", "rental_uris": {"android": "https://dc.lft.to/lastmile_qr_scan", "ios": "https://dc.lft.to/lastmile_qr_scan"}, "name": "5c7e6f50b5befd2bb28e876c8ad5eb73", "is_reserved": 0}, {"is_disabled": 0, "fusion_lon": 0.0, "fusion_lat": 0.0, "lat": 38.9138005, "type": "electric_scooter", "lon": -77.029682, "bike_id": "d80295fb2e2dea46c6be706d776d044d", "rental_uris": {"android": "https://dc.lft.to/lastmile_qr_scan", "ios": "https://dc.lft.to/lastmile_qr_scan"}, "name": "d80295fb2e2dea46c6be706d776d044d", "is_reserved": 0}, {"is_disabled": 0, "fusion_lon": 0.0, "fusion_lat": 0.0, "lat": 38.921166666666664, "type": "electric_scooter", "lon": -76.99586283333333, "bike_id": "c09754ea15484d92d83883ae888b412f", "rental_uris": {"android": "https://dc.lft.to/lastmile_qr_scan", "ios": "https://dc.lft.to/lastmile_qr_scan"}, "name": "c09754ea15484d92d83883ae888b412f", "is_reserved": 0}, {"is_disabled": 0, "fusion_lon": 0.0, "fusion_lat": 0.0, "lat": 38.84289316666667, "type": "electric_scooter", "lon": -76.999514, "bike_id": "4874870234e5481d482eec7e5543afaa", "rental_uris": {"android": "https://dc.lft.to/lastmile_qr_scan", "ios": "https://dc.lft.to/lastmile_qr_scan"}, "name": "4874870234e5481d482eec7e5543afaa", "is_reserved": 0}, {"is_disabled": 0, "fusion_lon": 0.0, "fusion_lat": 0.0, "lat": 38.95728183333333, "type": "electric_scooter", "lon": -77.02404166666666, "bike_id": "4a66d874a4efd369c5428676aa4598b7", "rental_uris": {"android": "https://dc.lft.to/lastmile_qr_scan", "ios": "https://dc.lft.to/lastmile_qr_scan"}, "name": "4a66d874a4efd369c5428676aa4598b7", "is_reserved": 0}, {"is_disabled": 0, "fusion_lon": 0.0, "fusion_lat": 0.0, "lat": 38.876689, "type": "electric_scooter", "lon": -77.0036555, "bike_id": "18f141713987ee1afefab00f2f9e2b58", "rental_uris": {"android": "https://dc.lft.to/lastmile_qr_scan", "ios": "https://dc.lft.to/lastmile_qr_scan"}, "name": "18f141713987ee1afefab00f2f9e2b58", "is_reserved": 0}, {"is_disabled": 0, "fusion_lon": 0.0, "fusion_lat": 0.0, "lat": 38.921076666666664, "type": "electric_scooter", "lon": -77.03186033333333, "bike_id": "2fbe19e882880d76265e50eecf2e2d06", "rental_uris": {"android": "https://dc.lft.to/lastmile_qr_scan", "ios": "https://dc.lft.to/lastmile_qr_scan"}, "name": "2fbe19e882880d76265e50eecf2e2d06", "is_reserved": 0}, {"is_disabled": 0, "fusion_lon": 0.0, "fusion_lat": 0.0, "lat": 38.92215816666667, "type": "electric_scooter", "lon": -77.03451133333333, "bike_id": "180e29cf8677fdcf6879cc8e320238af", "rental_uris": {"android": "https://dc.lft.to/lastmile_qr_scan", "ios": "https://dc.lft.to/lastmile_qr_scan"}, "name": "180e29cf8677fdcf6879cc8e320238af", "is_reserved": 0}, {"is_disabled": 0, "fusion_lon": 0.0, "fusion_lat": 0.0, "lat": 38.898246, "type": "electric_scooter", "lon": -77.033234, "bike_id": "0842d9efcc6c6e4b14ae2bbc2d5f2599", "rental_uris": {"android": "https://dc.lft.to/lastmile_qr_scan", "ios": "https://dc.lft.to/lastmile_qr_scan"}, "name": "0842d9efcc6c6e4b14ae2bbc2d5f2599", "is_reserved": 0}, {"is_disabled": 0, "fusion_lon": 0.0, "fusion_lat": 0.0, "lat": 38.89718966666667, "type": "electric_scooter", "lon": -77.00980533333333, "bike_id": "f5779d9ecb9b8784019c1c47b1919e19", "rental_uris": {"android": "https://dc.lft.to/lastmile_qr_scan", "ios": "https://dc.lft.to/lastmile_qr_scan"}, "name": "f5779d9ecb9b8784019c1c47b1919e19", "is_reserved": 0}, {"is_disabled": 0, "fusion_lon": 0.0, "fusion_lat": 0.0, "lat": 38.927559333333335, "type": "electric_scooter", "lon": -77.0059275, "bike_id": "d5c8240abe449c9a2a6fa4161c57ec52", "rental_uris": {"android": "https://dc.lft.to/lastmile_qr_scan", "ios": "https://dc.lft.to/lastmile_qr_scan"}, "name": "d5c8240abe449c9a2a6fa4161c57ec52", "is_reserved": 0}, {"is_disabled": 0, "fusion_lon": 0.0, "fusion_lat": 0.0, "lat": 38.942144166666665, "type": "electric_scooter", "lon": -77.024983, "bike_id": "4aaaef077075692075a2e369b3e462c6", "rental_uris": {"android": "https://dc.lft.to/lastmile_qr_scan", "ios": "https://dc.lft.to/lastmile_qr_scan"}, "name": "4aaaef077075692075a2e369b3e462c6", "is_reserved": 0}, {"is_disabled": 0, "fusion_lon": 0.0, "fusion_lat": 0.0, "lat": 38.90389866666666, "type": "electric_scooter", "lon": -76.9900555, "bike_id": "4e85bd49f1fb2032f3c43b9fdb63277a", "rental_uris": {"android": "https://dc.lft.to/lastmile_qr_scan", "ios": "https://dc.lft.to/lastmile_qr_scan"}, "name": "4e85bd49f1fb2032f3c43b9fdb63277a", "is_reserved": 0}, {"is_disabled": 0, "fusion_lon": 0.0, "fusion_lat": 0.0, "lat": 38.9032675, "type": "electric_scooter", "lon": -77.038479, "bike_id": "2b45a5f446626de76cdf29b7a4df2272", "rental_uris": {"android": "https://dc.lft.to/lastmile_qr_scan", "ios": "https://dc.lft.to/lastmile_qr_scan"}, "name": "2b45a5f446626de76cdf29b7a4df2272", "is_reserved": 0}, {"is_disabled": 0, "fusion_lon": 0.0, "fusion_lat": 0.0, "lat": 38.939613666666666, "type": "electric_scooter", "lon": -77.032822, "bike_id": "8cb499070913a2ec4eee01115a39ac6b", "rental_uris": {"android": "https://dc.lft.to/lastmile_qr_scan", "ios": "https://dc.lft.to/lastmile_qr_scan"}, "name": "8cb499070913a2ec4eee01115a39ac6b", "is_reserved": 0}, {"is_disabled": 0, "fusion_lon": 0.0, "fusion_lat": 0.0, "lat": 38.9132555, "type": "electric_scooter", "lon": -77.04164933333334, "bike_id": "4a25351b14cb9b82344033c978ec663d", "rental_uris": {"android": "https://dc.lft.to/lastmile_qr_scan", "ios": "https://dc.lft.to/lastmile_qr_scan"}, "name": "4a25351b14cb9b82344033c978ec663d", "is_reserved": 0}, {"is_disabled": 0, "fusion_lon": 0.0, "fusion_lat": 0.0, "lat": 38.9259675, "type": "electric_scooter", "lon": -77.02150033333334, "bike_id": "93d6c1091a8a4aa75cb870c02926737b", "rental_uris": {"android": "https://dc.lft.to/lastmile_qr_scan", "ios": "https://dc.lft.to/lastmile_qr_scan"}, "name": "93d6c1091a8a4aa75cb870c02926737b", "is_reserved": 0}, {"is_disabled": 0, "fusion_lon": 0.0, "fusion_lat": 0.0, "lat": 38.91968983333334, "type": "electric_scooter", "lon": -76.980536, "bike_id": "a8ead0725c3c8067a4f677fff6b05cd5", "rental_uris": {"android": "https://dc.lft.to/lastmile_qr_scan", "ios": "https://dc.lft.to/lastmile_qr_scan"}, "name": "a8ead0725c3c8067a4f677fff6b05cd5", "is_reserved": 0}, {"is_disabled": 0, "fusion_lon": 0.0, "fusion_lat": 0.0, "lat": 38.88743433333333, "type": "electric_scooter", "lon": -77.0216225, "bike_id": "dd2723f5e31a7934a0a7f132c1a597a1", "rental_uris": {"android": "https://dc.lft.to/lastmile_qr_scan", "ios": "https://dc.lft.to/lastmile_qr_scan"}, "name": "dd2723f5e31a7934a0a7f132c1a597a1", "is_reserved": 0}, {"is_disabled": 0, "fusion_lon": 0.0, "fusion_lat": 0.0, "lat": 38.88624166666666, "type": "electric_bike", "lon": -77.0924055, "bike_id": "b21fe8d0d635cd2972ab88d2f4585dd8", "rental_uris": {"android": "https://dc.lft.to/lastmile_qr_scan", "ios": "https://dc.lft.to/lastmile_qr_scan"}, "name": "b21fe8d0d635cd2972ab88d2f4585dd8", "is_reserved": 0}, {"is_disabled": 0, "fusion_lon": 0.0, "fusion_lat": 0.0, "lat": 38.92036266666667, "type": "electric_scooter", "lon": -77.04182866666666, "bike_id": "eadfb314db2f887cc069ffbfb99fbca3", "rental_uris": {"android": "https://dc.lft.to/lastmile_qr_scan", "ios": "https://dc.lft.to/lastmile_qr_scan"}, "name": "eadfb314db2f887cc069ffbfb99fbca3", "is_reserved": 0}, {"is_disabled": 0, "fusion_lon": 0.0, "fusion_lat": 0.0, "lat": 38.889925166666664, "type": "electric_scooter", "lon": -77.0005135, "bike_id": "e5cfae64c90aa370c93c6c34d620cd12", "rental_uris": {"android": "https://dc.lft.to/lastmile_qr_scan", "ios": "https://dc.lft.to/lastmile_qr_scan"}, "name": "e5cfae64c90aa370c93c6c34d620cd12", "is_reserved": 0}, {"is_disabled": 0, "fusion_lon": 0.0, "fusion_lat": 0.0, "lat": 38.905331333333336, "type": "electric_scooter", "lon": -77.05127666666667, "bike_id": "10363616bc55352878d33f374d0b6b8a", "rental_uris": {"android": "https://dc.lft.to/lastmile_qr_scan", "ios": "https://dc.lft.to/lastmile_qr_scan"}, "name": "10363616bc55352878d33f374d0b6b8a", "is_reserved": 0}, {"is_disabled": 0, "fusion_lon": 0.0, "fusion_lat": 0.0, "lat": 38.94105783333333, "type": "electric_scooter", "lon": -77.07727083333333, "bike_id": "3295e9064d10721f5eeeb90a55288d1a", "rental_uris": {"android": "https://dc.lft.to/lastmile_qr_scan", "ios": "https://dc.lft.to/lastmile_qr_scan"}, "name": "3295e9064d10721f5eeeb90a55288d1a", "is_reserved": 0}, {"is_disabled": 0, "fusion_lon": 0.0, "fusion_lat": 0.0, "lat": 38.897279, "type": "electric_bike", "lon": -76.90541916666666, "bike_id": "a3e61183c0e74f33ffe2494cc92c9e27", "rental_uris": {"android": "https://dc.lft.to/lastmile_qr_scan", "ios": "https://dc.lft.to/lastmile_qr_scan"}, "name": "a3e61183c0e74f33ffe2494cc92c9e27", "is_reserved": 0}, {"is_disabled": 0, "fusion_lon": 0.0, "fusion_lat": 0.0, "lat": 38.920646166666664, "type": "electric_scooter", "lon": -77.04356583333333, "bike_id": "7a550d0e338486dda916b1cb96a5e2e9", "rental_uris": {"android": "https://dc.lft.to/lastmile_qr_scan", "ios": "https://dc.lft.to/lastmile_qr_scan"}, "name": "7a550d0e338486dda916b1cb96a5e2e9", "is_reserved": 0}, {"is_disabled": 0, "fusion_lon": 0.0, "fusion_lat": 0.0, "lat": 38.9681625, "type": "electric_scooter", "lon": -77.00888333333333, "bike_id": "3bceed7d0b5f2233f5f819e3726c7824", "rental_uris": {"android": "https://dc.lft.to/lastmile_qr_scan", "ios": "https://dc.lft.to/lastmile_qr_scan"}, "name": "3bceed7d0b5f2233f5f819e3726c7824", "is_reserved": 0}, {"is_disabled": 0, "fusion_lon": 0.0, "fusion_lat": 0.0, "lat": 38.90772066666667, "type": "electric_scooter", "lon": -77.044863, "bike_id": "4e4e1a5c5400ef8d89371a2a056e1e18", "rental_uris": {"android": "https://dc.lft.to/lastmile_qr_scan", "ios": "https://dc.lft.to/lastmile_qr_scan"}, "name": "4e4e1a5c5400ef8d89371a2a056e1e18", "is_reserved": 0}, {"is_disabled": 0, "fusion_lon": 0.0, "fusion_lat": 0.0, "lat": 38.90379983333333, "type": "electric_scooter", "lon": -77.00476966666666, "bike_id": "f09a5e80b593b87bdc9bf28e7fe02ec5", "rental_uris": {"android": "https://dc.lft.to/lastmile_qr_scan", "ios": "https://dc.lft.to/lastmile_qr_scan"}, "name": "f09a5e80b593b87bdc9bf28e7fe02ec5", "is_reserved": 0}, {"is_disabled": 0, "fusion_lon": 0.0, "fusion_lat": 0.0, "lat": 38.85813616666667, "type": "electric_scooter", "lon": -76.989378, "bike_id": "8c1ad689879391e62c5587e4d84c5009", "rental_uris": {"android": "https://dc.lft.to/lastmile_qr_scan", "ios": "https://dc.lft.to/lastmile_qr_scan"}, "name": "8c1ad689879391e62c5587e4d84c5009", "is_reserved": 0}, {"is_disabled": 0, "fusion_lon": 0.0, "fusion_lat": 0.0, "lat": 38.91452733333333, "type": "electric_scooter", "lon": -77.01998416666666, "bike_id": "3f4d186cf3a648b5267ac8358b17d50c", "rental_uris": {"android": "https://dc.lft.to/lastmile_qr_scan", "ios": "https://dc.lft.to/lastmile_qr_scan"}, "name": "3f4d186cf3a648b5267ac8358b17d50c", "is_reserved": 0}, {"is_disabled": 0, "fusion_lon": 0.0, "fusion_lat": 0.0, "lat": 38.90956666666666, "type": "electric_scooter", "lon": -77.03940583333333, "bike_id": "af1722fb8c4b8970cc76ca8b53d2c81c", "rental_uris": {"android": "https://dc.lft.to/lastmile_qr_scan", "ios": "https://dc.lft.to/lastmile_qr_scan"}, "name": "af1722fb8c4b8970cc76ca8b53d2c81c", "is_reserved": 0}, {"is_disabled": 0, "fusion_lon": 0.0, "fusion_lat": 0.0, "lat": 38.920308666666664, "type": "electric_scooter", "lon": -77.02586316666667, "bike_id": "9b0d15d998c792605f6a3e3e4525c46c", "rental_uris": {"android": "https://dc.lft.to/lastmile_qr_scan", "ios": "https://dc.lft.to/lastmile_qr_scan"}, "name": "9b0d15d998c792605f6a3e3e4525c46c", "is_reserved": 0}, {"is_disabled": 0, "fusion_lon": 0.0, "fusion_lat": 0.0, "lat": 38.8995015, "type": "electric_scooter", "lon": -77.05149366666667, "bike_id": "b379cd24a14674873dbc6d17cf06ecd4", "rental_uris": {"android": "https://dc.lft.to/lastmile_qr_scan", "ios": "https://dc.lft.to/lastmile_qr_scan"}, "name": "b379cd24a14674873dbc6d17cf06ecd4", "is_reserved": 0}, {"is_disabled": 0, "fusion_lon": 0.0, "fusion_lat": 0.0, "lat": 39.052007833333334, "type": "electric_bike", "lon": -77.044115, "bike_id": "6531e11d72201d08345067ff12a00c61", "rental_uris": {"android": "https://dc.lft.to/lastmile_qr_scan", "ios": "https://dc.lft.to/lastmile_qr_scan"}, "name": "6531e11d72201d08345067ff12a00c61", "is_reserved": 0}, {"is_disabled": 0, "fusion_lon": 0.0, "fusion_lat": 0.0, "lat": 38.903484666666664, "type": "electric_scooter", "lon": -77.02169066666667, "bike_id": "3e182c7ba4566b22c5c843a4bb28ccf3", "rental_uris": {"android": "https://dc.lft.to/lastmile_qr_scan", "ios": "https://dc.lft.to/lastmile_qr_scan"}, "name": "3e182c7ba4566b22c5c843a4bb28ccf3", "is_reserved": 0}, {"is_disabled": 0, "fusion_lon": 0.0, "fusion_lat": 0.0, "lat": 38.86350083333333, "type": "electric_scooter", "lon": -76.99065966666667, "bike_id": "c65b67062f74b7d185fcdb4211534201", "rental_uris": {"android": "https://dc.lft.to/lastmile_qr_scan", "ios": "https://dc.lft.to/lastmile_qr_scan"}, "name": "c65b67062f74b7d185fcdb4211534201", "is_reserved": 0}, {"is_disabled": 0, "fusion_lon": 0.0, "fusion_lat": 0.0, "lat": 38.916771833333335, "type": "electric_scooter", "lon": -77.02974366666666, "bike_id": "3313a4c1f81c1ac3eed5c854c9e22e27", "rental_uris": {"android": "https://dc.lft.to/lastmile_qr_scan", "ios": "https://dc.lft.to/lastmile_qr_scan"}, "name": "3313a4c1f81c1ac3eed5c854c9e22e27", "is_reserved": 0}, {"is_disabled": 0, "fusion_lon": 0.0, "fusion_lat": 0.0, "lat": 38.915539, "type": "electric_scooter", "lon": -77.02046983333334, "bike_id": "764c545b4e0bda3e21c625a9c48aefed", "rental_uris": {"android": "https://dc.lft.to/lastmile_qr_scan", "ios": "https://dc.lft.to/lastmile_qr_scan"}, "name": "764c545b4e0bda3e21c625a9c48aefed", "is_reserved": 0}, {"is_disabled": 0, "fusion_lon": 0.0, "fusion_lat": 0.0, "lat": 38.8854655, "type": "electric_scooter", "lon": -77.00577033333333, "bike_id": "daedbfff5b120339a6b0aac8493301a0", "rental_uris": {"android": "https://dc.lft.to/lastmile_qr_scan", "ios": "https://dc.lft.to/lastmile_qr_scan"}, "name": "daedbfff5b120339a6b0aac8493301a0", "is_reserved": 0}, {"is_disabled": 0, "fusion_lon": 0.0, "fusion_lat": 0.0, "lat": 38.9053305, "type": "electric_scooter", "lon": -77.06153016666667, "bike_id": "00a0db9ad8d8550a7aa675698d69396b", "rental_uris": {"android": "https://dc.lft.to/lastmile_qr_scan", "ios": "https://dc.lft.to/lastmile_qr_scan"}, "name": "00a0db9ad8d8550a7aa675698d69396b", "is_reserved": 0}, {"is_disabled": 0, "fusion_lon": 0.0, "fusion_lat": 0.0, "lat": 38.9055645, "type": "electric_scooter", "lon": -77.0404745, "bike_id": "e8e13a878fbb4d3cb79a3b874b2dde4c", "rental_uris": {"android": "https://dc.lft.to/lastmile_qr_scan", "ios": "https://dc.lft.to/lastmile_qr_scan"}, "name": "e8e13a878fbb4d3cb79a3b874b2dde4c", "is_reserved": 0}, {"is_disabled": 0, "fusion_lon": 0.0, "fusion_lat": 0.0, "lat": 38.84893066666667, "type": "electric_scooter", "lon": -77.00521466666666, "bike_id": "97c104111adfb2d67b71ae707eba1ca4", "rental_uris": {"android": "https://dc.lft.to/lastmile_qr_scan", "ios": "https://dc.lft.to/lastmile_qr_scan"}, "name": "97c104111adfb2d67b71ae707eba1ca4", "is_reserved": 0}, {"is_disabled": 0, "fusion_lon": 0.0, "fusion_lat": 0.0, "lat": 38.911136, "type": "electric_scooter", "lon": -77.04486866666667, "bike_id": "1977cdd1af150f969c281d2738114431", "rental_uris": {"android": "https://dc.lft.to/lastmile_qr_scan", "ios": "https://dc.lft.to/lastmile_qr_scan"}, "name": "1977cdd1af150f969c281d2738114431", "is_reserved": 0}, {"is_disabled": 0, "fusion_lon": 0.0, "fusion_lat": 0.0, "lat": 38.88794266666667, "type": "electric_bike", "lon": -76.929961, "bike_id": "7d68ca448dbd9d67d2e9c0eb8be10707", "rental_uris": {"android": "https://dc.lft.to/lastmile_qr_scan", "ios": "https://dc.lft.to/lastmile_qr_scan"}, "name": "7d68ca448dbd9d67d2e9c0eb8be10707", "is_reserved": 0}, {"is_disabled": 0, "fusion_lon": 0.0, "fusion_lat": 0.0, "lat": 38.827425166666664, "type": "electric_bike", "lon": -77.00849783333334, "bike_id": "18e414fabe6ff8885a74b99aab60222e", "rental_uris": {"android": "https://dc.lft.to/lastmile_qr_scan", "ios": "https://dc.lft.to/lastmile_qr_scan"}, "name": "18e414fabe6ff8885a74b99aab60222e", "is_reserved": 0}, {"is_disabled": 0, "fusion_lon": 0.0, "fusion_lat": 0.0, "lat": 38.89568666666667, "type": "electric_scooter", "lon": -77.0218825, "bike_id": "6304c80d0f9ee37cbb8806c762d781f9", "rental_uris": {"android": "https://dc.lft.to/lastmile_qr_scan", "ios": "https://dc.lft.to/lastmile_qr_scan"}, "name": "6304c80d0f9ee37cbb8806c762d781f9", "is_reserved": 0}, {"is_disabled": 0, "fusion_lon": 0.0, "fusion_lat": 0.0, "lat": 38.90276566666667, "type": "electric_scooter", "lon": -77.02177633333334, "bike_id": "86f354b1a7d176aa4eb4f4232aff5ac9", "rental_uris": {"android": "https://dc.lft.to/lastmile_qr_scan", "ios": "https://dc.lft.to/lastmile_qr_scan"}, "name": "86f354b1a7d176aa4eb4f4232aff5ac9", "is_reserved": 0}, {"is_disabled": 0, "fusion_lon": 0.0, "fusion_lat": 0.0, "lat": 38.9404315, "type": "electric_scooter", "lon": -77.02900266666667, "bike_id": "de2bb173d8dc60a8c3bc17069f217fa4", "rental_uris": {"android": "https://dc.lft.to/lastmile_qr_scan", "ios": "https://dc.lft.to/lastmile_qr_scan"}, "name": "de2bb173d8dc60a8c3bc17069f217fa4", "is_reserved": 0}, {"is_disabled": 0, "fusion_lon": 0.0, "fusion_lat": 0.0, "lat": 38.910135, "type": "electric_scooter", "lon": -77.04786, "bike_id": "5e54c4ebe87da93c611e071e355ec1fc", "rental_uris": {"android": "https://dc.lft.to/lastmile_qr_scan", "ios": "https://dc.lft.to/lastmile_qr_scan"}, "name": "5e54c4ebe87da93c611e071e355ec1fc", "is_reserved": 0}, {"is_disabled": 0, "fusion_lon": 0.0, "fusion_lat": 0.0, "lat": 38.940712, "type": "electric_bike", "lon": -77.05286966666667, "bike_id": "baede3d77983b023c9ac64530d7198d5", "rental_uris": {"android": "https://dc.lft.to/lastmile_qr_scan", "ios": "https://dc.lft.to/lastmile_qr_scan"}, "name": "baede3d77983b023c9ac64530d7198d5", "is_reserved": 0}, {"is_disabled": 0, "fusion_lon": 0.0, "fusion_lat": 0.0, "lat": 38.8983315, "type": "electric_scooter", "lon": -76.9804775, "bike_id": "3e19c9d00055d3657d5db211e0f5463e", "rental_uris": {"android": "https://dc.lft.to/lastmile_qr_scan", "ios": "https://dc.lft.to/lastmile_qr_scan"}, "name": "3e19c9d00055d3657d5db211e0f5463e", "is_reserved": 0}, {"is_disabled": 0, "fusion_lon": 0.0, "fusion_lat": 0.0, "lat": 39.00865966666667, "type": "electric_bike", "lon": -77.0789945, "bike_id": "a9de3d08d6c41753d92a354423d0b39f", "rental_uris": {"android": "https://dc.lft.to/lastmile_qr_scan", "ios": "https://dc.lft.to/lastmile_qr_scan"}, "name": "a9de3d08d6c41753d92a354423d0b39f", "is_reserved": 0}, {"is_disabled": 0, "fusion_lon": 0.0, "fusion_lat": 0.0, "lat": 38.9240365, "type": "electric_scooter", "lon": -77.0253925, "bike_id": "4934ea4f7c7b9e7e9cbf7c9a30cd1be2", "rental_uris": {"android": "https://dc.lft.to/lastmile_qr_scan", "ios": "https://dc.lft.to/lastmile_qr_scan"}, "name": "4934ea4f7c7b9e7e9cbf7c9a30cd1be2", "is_reserved": 0}, {"is_disabled": 0, "fusion_lon": 0.0, "fusion_lat": 0.0, "lat": 38.893726, "type": "electric_scooter", "lon": -76.94994316666667, "bike_id": "141528b98f4defe49cd562d08ff2050c", "rental_uris": {"android": "https://dc.lft.to/lastmile_qr_scan", "ios": "https://dc.lft.to/lastmile_qr_scan"}, "name": "141528b98f4defe49cd562d08ff2050c", "is_reserved": 0}, {"is_disabled": 0, "fusion_lon": 0.0, "fusion_lat": 0.0, "lat": 38.9298685, "type": "electric_scooter", "lon": -77.0347285, "bike_id": "5306a2a846a56ec53e2c464682b564da", "rental_uris": {"android": "https://dc.lft.to/lastmile_qr_scan", "ios": "https://dc.lft.to/lastmile_qr_scan"}, "name": "5306a2a846a56ec53e2c464682b564da", "is_reserved": 0}, {"is_disabled": 0, "fusion_lon": 0.0, "fusion_lat": 0.0, "lat": 38.911162833333336, "type": "electric_scooter", "lon": -77.0450365, "bike_id": "06f02edbe08f9dd676f492c3115ddd4c", "rental_uris": {"android": "https://dc.lft.to/lastmile_qr_scan", "ios": "https://dc.lft.to/lastmile_qr_scan"}, "name": "06f02edbe08f9dd676f492c3115ddd4c", "is_reserved": 0}, {"is_disabled": 0, "fusion_lon": 0.0, "fusion_lat": 0.0, "lat": 38.916942666666664, "type": "electric_scooter", "lon": -77.01167116666667, "bike_id": "8c613622d4d68957365e1f0d7e0ad85b", "rental_uris": {"android": "https://dc.lft.to/lastmile_qr_scan", "ios": "https://dc.lft.to/lastmile_qr_scan"}, "name": "8c613622d4d68957365e1f0d7e0ad85b", "is_reserved": 0}, {"is_disabled": 0, "fusion_lon": 0.0, "fusion_lat": 0.0, "lat": 38.90476183333333, "type": "electric_scooter", "lon": -76.9732545, "bike_id": "91564f865c8afd8a863f765ebbbb7002", "rental_uris": {"android": "https://dc.lft.to/lastmile_qr_scan", "ios": "https://dc.lft.to/lastmile_qr_scan"}, "name": "91564f865c8afd8a863f765ebbbb7002", "is_reserved": 0}, {"is_disabled": 0, "fusion_lon": 0.0, "fusion_lat": 0.0, "lat": 38.87973266666667, "type": "electric_scooter", "lon": -76.99370516666667, "bike_id": "caad44d4b0146e7203c0d8399f39b46d", "rental_uris": {"android": "https://dc.lft.to/lastmile_qr_scan", "ios": "https://dc.lft.to/lastmile_qr_scan"}, "name": "caad44d4b0146e7203c0d8399f39b46d", "is_reserved": 0}, {"is_disabled": 0, "fusion_lon": 0.0, "fusion_lat": 0.0, "lat": 38.92540183333333, "type": "electric_scooter", "lon": -77.0347125, "bike_id": "c089082ff2b69ce5ee70f4e095141b32", "rental_uris": {"android": "https://dc.lft.to/lastmile_qr_scan", "ios": "https://dc.lft.to/lastmile_qr_scan"}, "name": "c089082ff2b69ce5ee70f4e095141b32", "is_reserved": 0}, {"is_disabled": 0, "fusion_lon": 0.0, "fusion_lat": 0.0, "lat": 38.9849285, "type": "electric_bike", "lon": -76.98204483333333, "bike_id": "f1ac2726307d600f81787a06fca708b0", "rental_uris": {"android": "https://dc.lft.to/lastmile_qr_scan", "ios": "https://dc.lft.to/lastmile_qr_scan"}, "name": "f1ac2726307d600f81787a06fca708b0", "is_reserved": 0}, {"is_disabled": 0, "fusion_lon": 0.0, "fusion_lat": 0.0, "lat": 38.912727333333336, "type": "electric_scooter", "lon": -77.04355533333333, "bike_id": "9ca51831b15391aa80b73c104cfa8442", "rental_uris": {"android": "https://dc.lft.to/lastmile_qr_scan", "ios": "https://dc.lft.to/lastmile_qr_scan"}, "name": "9ca51831b15391aa80b73c104cfa8442", "is_reserved": 0}, {"is_disabled": 0, "fusion_lon": 0.0, "fusion_lat": 0.0, "lat": 38.92556416666667, "type": "electric_scooter", "lon": -77.03787666666666, "bike_id": "aefdb59eab9c867484ee7667928eb687", "rental_uris": {"android": "https://dc.lft.to/lastmile_qr_scan", "ios": "https://dc.lft.to/lastmile_qr_scan"}, "name": "aefdb59eab9c867484ee7667928eb687", "is_reserved": 0}, {"is_disabled": 0, "fusion_lon": 0.0, "fusion_lat": 0.0, "lat": 38.89833183333333, "type": "electric_scooter", "lon": -77.02269716666666, "bike_id": "5e70bcb643cdd9b2ed37f8fce6f08f8d", "rental_uris": {"android": "https://dc.lft.to/lastmile_qr_scan", "ios": "https://dc.lft.to/lastmile_qr_scan"}, "name": "5e70bcb643cdd9b2ed37f8fce6f08f8d", "is_reserved": 0}, {"is_disabled": 0, "fusion_lon": 0.0, "fusion_lat": 0.0, "lat": 38.89715533333333, "type": "electric_scooter", "lon": -77.02024283333333, "bike_id": "d73b8b95697a733edba3d44cc2cd4e0f", "rental_uris": {"android": "https://dc.lft.to/lastmile_qr_scan", "ios": "https://dc.lft.to/lastmile_qr_scan"}, "name": "d73b8b95697a733edba3d44cc2cd4e0f", "is_reserved": 0}, {"is_disabled": 0, "fusion_lon": 0.0, "fusion_lat": 0.0, "lat": 38.90820683333333, "type": "electric_scooter", "lon": -77.04360866666667, "bike_id": "56aa224ef0e22c1b56229adcc90be4bc", "rental_uris": {"android": "https://dc.lft.to/lastmile_qr_scan", "ios": "https://dc.lft.to/lastmile_qr_scan"}, "name": "56aa224ef0e22c1b56229adcc90be4bc", "is_reserved": 0}, {"is_disabled": 0, "fusion_lon": 0.0, "fusion_lat": 0.0, "lat": 38.892214, "type": "electric_scooter", "lon": -77.04649166666667, "bike_id": "1fee1e53d7b8d4f90e497a711141058e", "rental_uris": {"android": "https://dc.lft.to/lastmile_qr_scan", "ios": "https://dc.lft.to/lastmile_qr_scan"}, "name": "1fee1e53d7b8d4f90e497a711141058e", "is_reserved": 0}, {"is_disabled": 0, "fusion_lon": 0.0, "fusion_lat": 0.0, "lat": 38.898332, "type": "electric_scooter", "lon": -77.0278905, "bike_id": "79c5010735aa8a2c68e4b5046c4c23ad", "rental_uris": {"android": "https://dc.lft.to/lastmile_qr_scan", "ios": "https://dc.lft.to/lastmile_qr_scan"}, "name": "79c5010735aa8a2c68e4b5046c4c23ad", "is_reserved": 0}, {"is_disabled": 0, "fusion_lon": 0.0, "fusion_lat": 0.0, "lat": 38.913773166666665, "type": "electric_scooter", "lon": -77.02976183333334, "bike_id": "94cd21854e330fd98be2d39361c365fa", "rental_uris": {"android": "https://dc.lft.to/lastmile_qr_scan", "ios": "https://dc.lft.to/lastmile_qr_scan"}, "name": "94cd21854e330fd98be2d39361c365fa", "is_reserved": 0}, {"is_disabled": 0, "fusion_lon": 0.0, "fusion_lat": 0.0, "lat": 38.916881000000004, "type": "electric_scooter", "lon": -77.02594133333334, "bike_id": "18c555b05bb3c5d477b1e854ca89c59a", "rental_uris": {"android": "https://dc.lft.to/lastmile_qr_scan", "ios": "https://dc.lft.to/lastmile_qr_scan"}, "name": "18c555b05bb3c5d477b1e854ca89c59a", "is_reserved": 0}, {"is_disabled": 0, "fusion_lon": 0.0, "fusion_lat": 0.0, "lat": 38.9246025, "type": "electric_scooter", "lon": -77.0395595, "bike_id": "a23a1364e46793309c41b75a8914da0a", "rental_uris": {"android": "https://dc.lft.to/lastmile_qr_scan", "ios": "https://dc.lft.to/lastmile_qr_scan"}, "name": "a23a1364e46793309c41b75a8914da0a", "is_reserved": 0}, {"is_disabled": 0, "fusion_lon": 0.0, "fusion_lat": 0.0, "lat": 38.892608, "type": "electric_scooter", "lon": -76.94156983333333, "bike_id": "5088b338fd4d5981936358c26c5a9cbc", "rental_uris": {"android": "https://dc.lft.to/lastmile_qr_scan", "ios": "https://dc.lft.to/lastmile_qr_scan"}, "name": "5088b338fd4d5981936358c26c5a9cbc", "is_reserved": 0}, {"is_disabled": 0, "fusion_lon": 0.0, "fusion_lat": 0.0, "lat": 38.906514333333334, "type": "electric_scooter", "lon": -77.0253135, "bike_id": "6ba7ac09677c29e9396be1fd1f660f9b", "rental_uris": {"android": "https://dc.lft.to/lastmile_qr_scan", "ios": "https://dc.lft.to/lastmile_qr_scan"}, "name": "6ba7ac09677c29e9396be1fd1f660f9b", "is_reserved": 0}, {"is_disabled": 0, "fusion_lon": 0.0, "fusion_lat": 0.0, "lat": 38.90128133333333, "type": "electric_scooter", "lon": -77.04039383333334, "bike_id": "770f090c405f7689f54523c608dde378", "rental_uris": {"android": "https://dc.lft.to/lastmile_qr_scan", "ios": "https://dc.lft.to/lastmile_qr_scan"}, "name": "770f090c405f7689f54523c608dde378", "is_reserved": 0}, {"is_disabled": 0, "fusion_lon": 0.0, "fusion_lat": 0.0, "lat": 38.95046966666666, "type": "electric_scooter", "lon": -77.0229365, "bike_id": "80d559d4255df23c4dff480eaa5ea42d", "rental_uris": {"android": "https://dc.lft.to/lastmile_qr_scan", "ios": "https://dc.lft.to/lastmile_qr_scan"}, "name": "80d559d4255df23c4dff480eaa5ea42d", "is_reserved": 0}, {"is_disabled": 0, "fusion_lon": 0.0, "fusion_lat": 0.0, "lat": 38.88341916666667, "type": "electric_scooter", "lon": -76.92790383333333, "bike_id": "2d01ed96521e867e38a469e41040e503", "rental_uris": {"android": "https://dc.lft.to/lastmile_qr_scan", "ios": "https://dc.lft.to/lastmile_qr_scan"}, "name": "2d01ed96521e867e38a469e41040e503", "is_reserved": 0}, {"is_disabled": 0, "fusion_lon": 0.0, "fusion_lat": 0.0, "lat": 38.90747266666666, "type": "electric_scooter", "lon": -77.0466375, "bike_id": "9aebbe303cc7cfeb2e129ab2a653b46f", "rental_uris": {"android": "https://dc.lft.to/lastmile_qr_scan", "ios": "https://dc.lft.to/lastmile_qr_scan"}, "name": "9aebbe303cc7cfeb2e129ab2a653b46f", "is_reserved": 0}, {"is_disabled": 0, "fusion_lon": 0.0, "fusion_lat": 0.0, "lat": 38.9271015, "type": "electric_scooter", "lon": -76.97211783333333, "bike_id": "b8aa58f334b3bdffc8558361960089a3", "rental_uris": {"android": "https://dc.lft.to/lastmile_qr_scan", "ios": "https://dc.lft.to/lastmile_qr_scan"}, "name": "b8aa58f334b3bdffc8558361960089a3", "is_reserved": 0}, {"is_disabled": 0, "fusion_lon": 0.0, "fusion_lat": 0.0, "lat": 38.957835333333335, "type": "electric_scooter", "lon": -77.02469533333333, "bike_id": "2bb2be8a473145ba30d37f3a0de2225a", "rental_uris": {"android": "https://dc.lft.to/lastmile_qr_scan", "ios": "https://dc.lft.to/lastmile_qr_scan"}, "name": "2bb2be8a473145ba30d37f3a0de2225a", "is_reserved": 0}, {"is_disabled": 0, "fusion_lon": 0.0, "fusion_lat": 0.0, "lat": 38.9027215, "type": "electric_scooter", "lon": -77.03459866666667, "bike_id": "25d34e5ee4c4cf143b3b3c6941594051", "rental_uris": {"android": "https://dc.lft.to/lastmile_qr_scan", "ios": "https://dc.lft.to/lastmile_qr_scan"}, "name": "25d34e5ee4c4cf143b3b3c6941594051", "is_reserved": 0}, {"is_disabled": 0, "fusion_lon": 0.0, "fusion_lat": 0.0, "lat": 38.916922166666666, "type": "electric_scooter", "lon": -77.03636133333333, "bike_id": "c03a3aa1ecc4b2113b4da9b90850b38b", "rental_uris": {"android": "https://dc.lft.to/lastmile_qr_scan", "ios": "https://dc.lft.to/lastmile_qr_scan"}, "name": "c03a3aa1ecc4b2113b4da9b90850b38b", "is_reserved": 0}, {"is_disabled": 0, "fusion_lon": 0.0, "fusion_lat": 0.0, "lat": 38.902671, "type": "electric_scooter", "lon": -77.0345305, "bike_id": "dd20bfc04a5b5ad31bf16b2161e3e0fb", "rental_uris": {"android": "https://dc.lft.to/lastmile_qr_scan", "ios": "https://dc.lft.to/lastmile_qr_scan"}, "name": "dd20bfc04a5b5ad31bf16b2161e3e0fb", "is_reserved": 0}, {"is_disabled": 0, "fusion_lon": 0.0, "fusion_lat": 0.0, "lat": 38.900518166666664, "type": "electric_scooter", "lon": -77.04446733333333, "bike_id": "445f1cf7cc81ea3cc54cc65cb7a7aea1", "rental_uris": {"android": "https://dc.lft.to/lastmile_qr_scan", "ios": "https://dc.lft.to/lastmile_qr_scan"}, "name": "445f1cf7cc81ea3cc54cc65cb7a7aea1", "is_reserved": 0}, {"is_disabled": 0, "fusion_lon": 0.0, "fusion_lat": 0.0, "lat": 38.9053805, "type": "electric_scooter", "lon": -77.021989, "bike_id": "8e59e20e7a126da8589ec45869a3870d", "rental_uris": {"android": "https://dc.lft.to/lastmile_qr_scan", "ios": "https://dc.lft.to/lastmile_qr_scan"}, "name": "8e59e20e7a126da8589ec45869a3870d", "is_reserved": 0}, {"is_disabled": 0, "fusion_lon": 0.0, "fusion_lat": 0.0, "lat": 38.89958883333333, "type": "electric_scooter", "lon": -77.03203433333333, "bike_id": "31172ae07a7e81245a4020519030fd24", "rental_uris": {"android": "https://dc.lft.to/lastmile_qr_scan", "ios": "https://dc.lft.to/lastmile_qr_scan"}, "name": "31172ae07a7e81245a4020519030fd24", "is_reserved": 0}, {"is_disabled": 0, "fusion_lon": 0.0, "fusion_lat": 0.0, "lat": 38.912865333333336, "type": "electric_scooter", "lon": -76.98687866666667, "bike_id": "0ecbd1cb69eaac290c98c4e79e02bd3f", "rental_uris": {"android": "https://dc.lft.to/lastmile_qr_scan", "ios": "https://dc.lft.to/lastmile_qr_scan"}, "name": "0ecbd1cb69eaac290c98c4e79e02bd3f", "is_reserved": 0}, {"is_disabled": 0, "fusion_lon": 0.0, "fusion_lat": 0.0, "lat": 38.935725, "type": "electric_scooter", "lon": -77.05869583333333, "bike_id": "98f739e46463cb8e5836f1eee5a1fe74", "rental_uris": {"android": "https://dc.lft.to/lastmile_qr_scan", "ios": "https://dc.lft.to/lastmile_qr_scan"}, "name": "98f739e46463cb8e5836f1eee5a1fe74", "is_reserved": 0}, {"is_disabled": 0, "fusion_lon": 0.0, "fusion_lat": 0.0, "lat": 38.897102, "type": "electric_scooter", "lon": -77.02430233333334, "bike_id": "78d1ca42fe4e0b27d0a093368577f6c5", "rental_uris": {"android": "https://dc.lft.to/lastmile_qr_scan", "ios": "https://dc.lft.to/lastmile_qr_scan"}, "name": "78d1ca42fe4e0b27d0a093368577f6c5", "is_reserved": 0}, {"is_disabled": 0, "fusion_lon": 0.0, "fusion_lat": 0.0, "lat": 38.89904133333334, "type": "electric_scooter", "lon": -76.93392283333333, "bike_id": "d2bb5634408b0a3ff1077428d21eade3", "rental_uris": {"android": "https://dc.lft.to/lastmile_qr_scan", "ios": "https://dc.lft.to/lastmile_qr_scan"}, "name": "d2bb5634408b0a3ff1077428d21eade3", "is_reserved": 0}, {"is_disabled": 0, "fusion_lon": 0.0, "fusion_lat": 0.0, "lat": 38.91814133333333, "type": "electric_scooter", "lon": -77.02476683333333, "bike_id": "ee96a6ca10d2315d99904a28e647d2b5", "rental_uris": {"android": "https://dc.lft.to/lastmile_qr_scan", "ios": "https://dc.lft.to/lastmile_qr_scan"}, "name": "ee96a6ca10d2315d99904a28e647d2b5", "is_reserved": 0}, {"is_disabled": 0, "fusion_lon": 0.0, "fusion_lat": 0.0, "lat": 38.9055865, "type": "electric_scooter", "lon": -77.04083966666667, "bike_id": "410a1325e4186f2a91a947a90bb737d4", "rental_uris": {"android": "https://dc.lft.to/lastmile_qr_scan", "ios": "https://dc.lft.to/lastmile_qr_scan"}, "name": "410a1325e4186f2a91a947a90bb737d4", "is_reserved": 0}, {"is_disabled": 0, "fusion_lon": 0.0, "fusion_lat": 0.0, "lat": 38.934945166666665, "type": "electric_scooter", "lon": -77.02420516666666, "bike_id": "27d7c85ad978cb10189960230ddba017", "rental_uris": {"android": "https://dc.lft.to/lastmile_qr_scan", "ios": "https://dc.lft.to/lastmile_qr_scan"}, "name": "27d7c85ad978cb10189960230ddba017", "is_reserved": 0}, {"is_disabled": 0, "fusion_lon": 0.0, "fusion_lat": 0.0, "lat": 38.84271566666666, "type": "electric_bike", "lon": -76.988434, "bike_id": "afc9105dda3bbc5b84046cab1815ea3a", "rental_uris": {"android": "https://dc.lft.to/lastmile_qr_scan", "ios": "https://dc.lft.to/lastmile_qr_scan"}, "name": "afc9105dda3bbc5b84046cab1815ea3a", "is_reserved": 0}, {"is_disabled": 0, "fusion_lon": 0.0, "fusion_lat": 0.0, "lat": 38.969120833333335, "type": "electric_bike", "lon": -77.02614733333333, "bike_id": "4fe9f6252e0f40ce2c05cb12e2db0fd0", "rental_uris": {"android": "https://dc.lft.to/lastmile_qr_scan", "ios": "https://dc.lft.to/lastmile_qr_scan"}, "name": "4fe9f6252e0f40ce2c05cb12e2db0fd0", "is_reserved": 0}, {"is_disabled": 0, "fusion_lon": 0.0, "fusion_lat": 0.0, "lat": 38.896604833333335, "type": "electric_scooter", "lon": -77.05098266666667, "bike_id": "05a58a264433c8c04c088b7038e347e4", "rental_uris": {"android": "https://dc.lft.to/lastmile_qr_scan", "ios": "https://dc.lft.to/lastmile_qr_scan"}, "name": "05a58a264433c8c04c088b7038e347e4", "is_reserved": 0}, {"is_disabled": 0, "fusion_lon": 0.0, "fusion_lat": 0.0, "lat": 38.90973266666666, "type": "electric_scooter", "lon": -77.06764383333334, "bike_id": "9cce379e6cdfd6b26b16cd3353ba31e4", "rental_uris": {"android": "https://dc.lft.to/lastmile_qr_scan", "ios": "https://dc.lft.to/lastmile_qr_scan"}, "name": "9cce379e6cdfd6b26b16cd3353ba31e4", "is_reserved": 0}, {"is_disabled": 0, "fusion_lon": 0.0, "fusion_lat": 0.0, "lat": 38.88578833333333, "type": "electric_scooter", "lon": -77.0197385, "bike_id": "d9dd764ab00e70069a81db504a5534ff", "rental_uris": {"android": "https://dc.lft.to/lastmile_qr_scan", "ios": "https://dc.lft.to/lastmile_qr_scan"}, "name": "d9dd764ab00e70069a81db504a5534ff", "is_reserved": 0}, {"is_disabled": 0, "fusion_lon": 0.0, "fusion_lat": 0.0, "lat": 38.90589633333333, "type": "electric_scooter", "lon": -77.04167316666667, "bike_id": "e9f372b12eddf3ab62535ff1cf095c6d", "rental_uris": {"android": "https://dc.lft.to/lastmile_qr_scan", "ios": "https://dc.lft.to/lastmile_qr_scan"}, "name": "e9f372b12eddf3ab62535ff1cf095c6d", "is_reserved": 0}, {"is_disabled": 0, "fusion_lon": 0.0, "fusion_lat": 0.0, "lat": 38.876206833333335, "type": "electric_scooter", "lon": -76.96536733333333, "bike_id": "bac5d609dddcc4285e1b22533995b0dd", "rental_uris": {"android": "https://dc.lft.to/lastmile_qr_scan", "ios": "https://dc.lft.to/lastmile_qr_scan"}, "name": "bac5d609dddcc4285e1b22533995b0dd", "is_reserved": 0}, {"is_disabled": 0, "fusion_lon": 0.0, "fusion_lat": 0.0, "lat": 38.92639166666667, "type": "electric_scooter", "lon": -77.03721583333333, "bike_id": "f5dca3bcdcee2418361c4c93e21e5500", "rental_uris": {"android": "https://dc.lft.to/lastmile_qr_scan", "ios": "https://dc.lft.to/lastmile_qr_scan"}, "name": "f5dca3bcdcee2418361c4c93e21e5500", "is_reserved": 0}, {"is_disabled": 0, "fusion_lon": 0.0, "fusion_lat": 0.0, "lat": 38.99088116666667, "type": "electric_bike", "lon": -76.87496233333333, "bike_id": "81db4b486fc35bf1c411e3164e369e78", "rental_uris": {"android": "https://dc.lft.to/lastmile_qr_scan", "ios": "https://dc.lft.to/lastmile_qr_scan"}, "name": "81db4b486fc35bf1c411e3164e369e78", "is_reserved": 0}, {"is_disabled": 0, "fusion_lon": 0.0, "fusion_lat": 0.0, "lat": 38.91004783333333, "type": "electric_scooter", "lon": -77.00769233333334, "bike_id": "95b1e9e01ada0bfba9dd9122318d7a92", "rental_uris": {"android": "https://dc.lft.to/lastmile_qr_scan", "ios": "https://dc.lft.to/lastmile_qr_scan"}, "name": "95b1e9e01ada0bfba9dd9122318d7a92", "is_reserved": 0}, {"is_disabled": 0, "fusion_lon": 0.0, "fusion_lat": 0.0, "lat": 38.89213266666667, "type": "electric_scooter", "lon": -77.0222115, "bike_id": "0fcb3b3cebcbb9f0a542c67f94c70d80", "rental_uris": {"android": "https://dc.lft.to/lastmile_qr_scan", "ios": "https://dc.lft.to/lastmile_qr_scan"}, "name": "0fcb3b3cebcbb9f0a542c67f94c70d80", "is_reserved": 0}, {"is_disabled": 0, "fusion_lon": 0.0, "fusion_lat": 0.0, "lat": 38.90160233333334, "type": "electric_scooter", "lon": -77.02598583333334, "bike_id": "fd498425a1ea939403c7a35b7bf19e83", "rental_uris": {"android": "https://dc.lft.to/lastmile_qr_scan", "ios": "https://dc.lft.to/lastmile_qr_scan"}, "name": "fd498425a1ea939403c7a35b7bf19e83", "is_reserved": 0}, {"is_disabled": 0, "fusion_lon": 0.0, "fusion_lat": 0.0, "lat": 38.89417483333333, "type": "electric_scooter", "lon": -77.023336, "bike_id": "7e804a909f582ce5510086e065c21d7c", "rental_uris": {"android": "https://dc.lft.to/lastmile_qr_scan", "ios": "https://dc.lft.to/lastmile_qr_scan"}, "name": "7e804a909f582ce5510086e065c21d7c", "is_reserved": 0}, {"is_disabled": 0, "fusion_lon": 0.0, "fusion_lat": 0.0, "lat": 38.89390683333333, "type": "electric_scooter", "lon": -76.94996216666667, "bike_id": "a9e533f8495adbe528a6cd2e1dd0ed2e", "rental_uris": {"android": "https://dc.lft.to/lastmile_qr_scan", "ios": "https://dc.lft.to/lastmile_qr_scan"}, "name": "a9e533f8495adbe528a6cd2e1dd0ed2e", "is_reserved": 0}, {"is_disabled": 0, "fusion_lon": 0.0, "fusion_lat": 0.0, "lat": 38.90990733333334, "type": "electric_scooter", "lon": -77.04262516666667, "bike_id": "b66be4ca47239aea4ffbf5a1bb3e041e", "rental_uris": {"android": "https://dc.lft.to/lastmile_qr_scan", "ios": "https://dc.lft.to/lastmile_qr_scan"}, "name": "b66be4ca47239aea4ffbf5a1bb3e041e", "is_reserved": 0}, {"is_disabled": 0, "fusion_lon": 0.0, "fusion_lat": 0.0, "lat": 38.91361916666666, "type": "electric_scooter", "lon": -77.025892, "bike_id": "24a22fb76503c4d42fb2407904687ff5", "rental_uris": {"android": "https://dc.lft.to/lastmile_qr_scan", "ios": "https://dc.lft.to/lastmile_qr_scan"}, "name": "24a22fb76503c4d42fb2407904687ff5", "is_reserved": 0}, {"is_disabled": 0, "fusion_lon": 0.0, "fusion_lat": 0.0, "lat": 38.9168925, "type": "electric_scooter", "lon": -77.03683933333333, "bike_id": "7794a590bcaeaa77960b27866e435b4d", "rental_uris": {"android": "https://dc.lft.to/lastmile_qr_scan", "ios": "https://dc.lft.to/lastmile_qr_scan"}, "name": "7794a590bcaeaa77960b27866e435b4d", "is_reserved": 0}, {"is_disabled": 0, "fusion_lon": 0.0, "fusion_lat": 0.0, "lat": 38.9050025, "type": "electric_scooter", "lon": -76.99628716666666, "bike_id": "8017cf02af07e9019b71fd78b2ce9c22", "rental_uris": {"android": "https://dc.lft.to/lastmile_qr_scan", "ios": "https://dc.lft.to/lastmile_qr_scan"}, "name": "8017cf02af07e9019b71fd78b2ce9c22", "is_reserved": 0}, {"is_disabled": 0, "fusion_lon": 0.0, "fusion_lat": 0.0, "lat": 38.918060833333335, "type": "electric_scooter", "lon": -77.0329845, "bike_id": "d74010e0d298590820b38087ec1ceca5", "rental_uris": {"android": "https://dc.lft.to/lastmile_qr_scan", "ios": "https://dc.lft.to/lastmile_qr_scan"}, "name": "d74010e0d298590820b38087ec1ceca5", "is_reserved": 0}, {"is_disabled": 0, "fusion_lon": 0.0, "fusion_lat": 0.0, "lat": 38.92463866666667, "type": "electric_scooter", "lon": -77.03947383333333, "bike_id": "18ab09d894fe8f58c2a03d5fee08aefb", "rental_uris": {"android": "https://dc.lft.to/lastmile_qr_scan", "ios": "https://dc.lft.to/lastmile_qr_scan"}, "name": "18ab09d894fe8f58c2a03d5fee08aefb", "is_reserved": 0}, {"is_disabled": 0, "fusion_lon": 0.0, "fusion_lat": 0.0, "lat": 38.84434666666667, "type": "electric_scooter", "lon": -76.99780966666667, "bike_id": "7a2c339e46074c20129c53fedcf3eef3", "rental_uris": {"android": "https://dc.lft.to/lastmile_qr_scan", "ios": "https://dc.lft.to/lastmile_qr_scan"}, "name": "7a2c339e46074c20129c53fedcf3eef3", "is_reserved": 0}, {"is_disabled": 0, "fusion_lon": 0.0, "fusion_lat": 0.0, "lat": 38.928596166666665, "type": "electric_scooter", "lon": -77.014083, "bike_id": "901e1ddffe3c136bb8d4bb25d29fca61", "rental_uris": {"android": "https://dc.lft.to/lastmile_qr_scan", "ios": "https://dc.lft.to/lastmile_qr_scan"}, "name": "901e1ddffe3c136bb8d4bb25d29fca61", "is_reserved": 0}, {"is_disabled": 0, "fusion_lon": 0.0, "fusion_lat": 0.0, "lat": 38.90075266666667, "type": "electric_scooter", "lon": -77.0021015, "bike_id": "3485ba90f0b0be9d04ebb9e00dfd3265", "rental_uris": {"android": "https://dc.lft.to/lastmile_qr_scan", "ios": "https://dc.lft.to/lastmile_qr_scan"}, "name": "3485ba90f0b0be9d04ebb9e00dfd3265", "is_reserved": 0}, {"is_disabled": 0, "fusion_lon": 0.0, "fusion_lat": 0.0, "lat": 38.9350475, "type": "electric_scooter", "lon": -77.08219016666666, "bike_id": "c1119a7284f3e177430289b051ef3024", "rental_uris": {"android": "https://dc.lft.to/lastmile_qr_scan", "ios": "https://dc.lft.to/lastmile_qr_scan"}, "name": "c1119a7284f3e177430289b051ef3024", "is_reserved": 0}, {"is_disabled": 0, "fusion_lon": 0.0, "fusion_lat": 0.0, "lat": 38.9352995, "type": "electric_scooter", "lon": -77.02355416666667, "bike_id": "2502660d20b10e8f4174d36bfd167f2b", "rental_uris": {"android": "https://dc.lft.to/lastmile_qr_scan", "ios": "https://dc.lft.to/lastmile_qr_scan"}, "name": "2502660d20b10e8f4174d36bfd167f2b", "is_reserved": 0}, {"is_disabled": 0, "fusion_lon": 0.0, "fusion_lat": 0.0, "lat": 38.92301716666667, "type": "electric_scooter", "lon": -77.04738566666667, "bike_id": "aa86e7d11a2aecdb08530edd01960557", "rental_uris": {"android": "https://dc.lft.to/lastmile_qr_scan", "ios": "https://dc.lft.to/lastmile_qr_scan"}, "name": "aa86e7d11a2aecdb08530edd01960557", "is_reserved": 0}, {"is_disabled": 0, "fusion_lon": 0.0, "fusion_lat": 0.0, "lat": 38.96192116666667, "type": "electric_scooter", "lon": -77.02784016666666, "bike_id": "036aad7165fbb22204568d62f4927af7", "rental_uris": {"android": "https://dc.lft.to/lastmile_qr_scan", "ios": "https://dc.lft.to/lastmile_qr_scan"}, "name": "036aad7165fbb22204568d62f4927af7", "is_reserved": 0}, {"is_disabled": 0, "fusion_lon": 0.0, "fusion_lat": 0.0, "lat": 38.898326, "type": "electric_scooter", "lon": -76.9463425, "bike_id": "212a12267e30054be4e7d25531fae5b6", "rental_uris": {"android": "https://dc.lft.to/lastmile_qr_scan", "ios": "https://dc.lft.to/lastmile_qr_scan"}, "name": "212a12267e30054be4e7d25531fae5b6", "is_reserved": 0}, {"is_disabled": 0, "fusion_lon": 0.0, "fusion_lat": 0.0, "lat": 38.82779416666666, "type": "electric_bike", "lon": -77.11080816666667, "bike_id": "f6c8ccd42ee37e8eb42ec4751c90d4a9", "rental_uris": {"android": "https://dc.lft.to/lastmile_qr_scan", "ios": "https://dc.lft.to/lastmile_qr_scan"}, "name": "f6c8ccd42ee37e8eb42ec4751c90d4a9", "is_reserved": 0}, {"is_disabled": 0, "fusion_lon": 0.0, "fusion_lat": 0.0, "lat": 38.930273, "type": "electric_scooter", "lon": -77.034538, "bike_id": "458b75d3968f59a8c42ae612e303c165", "rental_uris": {"android": "https://dc.lft.to/lastmile_qr_scan", "ios": "https://dc.lft.to/lastmile_qr_scan"}, "name": "458b75d3968f59a8c42ae612e303c165", "is_reserved": 0}, {"is_disabled": 0, "fusion_lon": 0.0, "fusion_lat": 0.0, "lat": 38.939601833333334, "type": "electric_scooter", "lon": -77.03276283333334, "bike_id": "e804b4a394f0da5789fe476e5834ab29", "rental_uris": {"android": "https://dc.lft.to/lastmile_qr_scan", "ios": "https://dc.lft.to/lastmile_qr_scan"}, "name": "e804b4a394f0da5789fe476e5834ab29", "is_reserved": 0}, {"is_disabled": 0, "fusion_lon": 0.0, "fusion_lat": 0.0, "lat": 38.907381666666666, "type": "electric_scooter", "lon": -77.041925, "bike_id": "58aaa0c36edf888792ba1a14fa090617", "rental_uris": {"android": "https://dc.lft.to/lastmile_qr_scan", "ios": "https://dc.lft.to/lastmile_qr_scan"}, "name": "58aaa0c36edf888792ba1a14fa090617", "is_reserved": 0}, {"is_disabled": 0, "fusion_lon": 0.0, "fusion_lat": 0.0, "lat": 38.89741733333334, "type": "electric_scooter", "lon": -77.0004415, "bike_id": "9083c778b3492ecabbf74d0d81c50496", "rental_uris": {"android": "https://dc.lft.to/lastmile_qr_scan", "ios": "https://dc.lft.to/lastmile_qr_scan"}, "name": "9083c778b3492ecabbf74d0d81c50496", "is_reserved": 0}, {"is_disabled": 0, "fusion_lon": 0.0, "fusion_lat": 0.0, "lat": 38.91591533333333, "type": "electric_scooter", "lon": -77.046841, "bike_id": "7214253ee412cfac7165f42dcc4331ee", "rental_uris": {"android": "https://dc.lft.to/lastmile_qr_scan", "ios": "https://dc.lft.to/lastmile_qr_scan"}, "name": "7214253ee412cfac7165f42dcc4331ee", "is_reserved": 0}, {"is_disabled": 0, "fusion_lon": 0.0, "fusion_lat": 0.0, "lat": 38.824426833333334, "type": "electric_bike", "lon": -77.07043433333334, "bike_id": "5f43af96ad0beada471b5b70f5d1f499", "rental_uris": {"android": "https://dc.lft.to/lastmile_qr_scan", "ios": "https://dc.lft.to/lastmile_qr_scan"}, "name": "5f43af96ad0beada471b5b70f5d1f499", "is_reserved": 0}, {"is_disabled": 0, "fusion_lon": 0.0, "fusion_lat": 0.0, "lat": 38.935323, "type": "electric_scooter", "lon": -77.023853, "bike_id": "2ce8ab259e61d64bd15967dbb96461d2", "rental_uris": {"android": "https://dc.lft.to/lastmile_qr_scan", "ios": "https://dc.lft.to/lastmile_qr_scan"}, "name": "2ce8ab259e61d64bd15967dbb96461d2", "is_reserved": 0}, {"is_disabled": 0, "fusion_lon": 0.0, "fusion_lat": 0.0, "lat": 38.9072325, "type": "electric_scooter", "lon": -77.02445016666667, "bike_id": "78bfa8872ad88462dc956e01f48de251", "rental_uris": {"android": "https://dc.lft.to/lastmile_qr_scan", "ios": "https://dc.lft.to/lastmile_qr_scan"}, "name": "78bfa8872ad88462dc956e01f48de251", "is_reserved": 0}, {"is_disabled": 0, "fusion_lon": 0.0, "fusion_lat": 0.0, "lat": 38.93123833333333, "type": "electric_scooter", "lon": -77.05710183333333, "bike_id": "042cfc1b74971621a049cda577614ef0", "rental_uris": {"android": "https://dc.lft.to/lastmile_qr_scan", "ios": "https://dc.lft.to/lastmile_qr_scan"}, "name": "042cfc1b74971621a049cda577614ef0", "is_reserved": 0}, {"is_disabled": 0, "fusion_lon": 0.0, "fusion_lat": 0.0, "lat": 38.89503883333333, "type": "electric_scooter", "lon": -76.94880466666666, "bike_id": "49dc5e4547f2d1d9b0789df12cd9cea4", "rental_uris": {"android": "https://dc.lft.to/lastmile_qr_scan", "ios": "https://dc.lft.to/lastmile_qr_scan"}, "name": "49dc5e4547f2d1d9b0789df12cd9cea4", "is_reserved": 0}, {"is_disabled": 0, "fusion_lon": 0.0, "fusion_lat": 0.0, "lat": 38.82725, "type": "electric_bike", "lon": -77.00862216666667, "bike_id": "11a61947605149e48681193a82e67bcb", "rental_uris": {"android": "https://dc.lft.to/lastmile_qr_scan", "ios": "https://dc.lft.to/lastmile_qr_scan"}, "name": "11a61947605149e48681193a82e67bcb", "is_reserved": 0}, {"is_disabled": 0, "fusion_lon": 0.0, "fusion_lat": 0.0, "lat": 38.918143, "type": "electric_scooter", "lon": -77.02714783333333, "bike_id": "c0dd262f8a791e1bed7fb9b85d5c0c1a", "rental_uris": {"android": "https://dc.lft.to/lastmile_qr_scan", "ios": "https://dc.lft.to/lastmile_qr_scan"}, "name": "c0dd262f8a791e1bed7fb9b85d5c0c1a", "is_reserved": 0}, {"is_disabled": 0, "fusion_lon": 0.0, "fusion_lat": 0.0, "lat": 38.901423666666666, "type": "electric_scooter", "lon": -76.98630416666667, "bike_id": "4eabf6f600e6d7556b6d5a48c23727a5", "rental_uris": {"android": "https://dc.lft.to/lastmile_qr_scan", "ios": "https://dc.lft.to/lastmile_qr_scan"}, "name": "4eabf6f600e6d7556b6d5a48c23727a5", "is_reserved": 0}, {"is_disabled": 0, "fusion_lon": 0.0, "fusion_lat": 0.0, "lat": 38.900805166666665, "type": "electric_scooter", "lon": -77.04731733333334, "bike_id": "c3b2c982c8673fce2d2c475b572e28c8", "rental_uris": {"android": "https://dc.lft.to/lastmile_qr_scan", "ios": "https://dc.lft.to/lastmile_qr_scan"}, "name": "c3b2c982c8673fce2d2c475b572e28c8", "is_reserved": 0}, {"is_disabled": 0, "fusion_lon": 0.0, "fusion_lat": 0.0, "lat": 38.91484833333333, "type": "electric_scooter", "lon": -76.98379016666667, "bike_id": "dec0937e19b4497b0c1c4d9cf3e64187", "rental_uris": {"android": "https://dc.lft.to/lastmile_qr_scan", "ios": "https://dc.lft.to/lastmile_qr_scan"}, "name": "dec0937e19b4497b0c1c4d9cf3e64187", "is_reserved": 0}, {"is_disabled": 0, "fusion_lon": 0.0, "fusion_lat": 0.0, "lat": 38.94413766666667, "type": "electric_scooter", "lon": -77.026262, "bike_id": "fc770e52c6d53a9dcceb0ece3d0e39fd", "rental_uris": {"android": "https://dc.lft.to/lastmile_qr_scan", "ios": "https://dc.lft.to/lastmile_qr_scan"}, "name": "fc770e52c6d53a9dcceb0ece3d0e39fd", "is_reserved": 0}, {"is_disabled": 0, "fusion_lon": 0.0, "fusion_lat": 0.0, "lat": 38.90930566666667, "type": "electric_scooter", "lon": -77.02814616666667, "bike_id": "32869d3e50bed759528bdfe95e3810fc", "rental_uris": {"android": "https://dc.lft.to/lastmile_qr_scan", "ios": "https://dc.lft.to/lastmile_qr_scan"}, "name": "32869d3e50bed759528bdfe95e3810fc", "is_reserved": 0}, {"is_disabled": 0, "fusion_lon": 0.0, "fusion_lat": 0.0, "lat": 38.90764216666667, "type": "electric_scooter", "lon": -77.0386065, "bike_id": "eb9e3672f743dc9a5377df6ad8b9a080", "rental_uris": {"android": "https://dc.lft.to/lastmile_qr_scan", "ios": "https://dc.lft.to/lastmile_qr_scan"}, "name": "eb9e3672f743dc9a5377df6ad8b9a080", "is_reserved": 0}, {"is_disabled": 0, "fusion_lon": 0.0, "fusion_lat": 0.0, "lat": 38.875439, "type": "electric_scooter", "lon": -77.00534666666667, "bike_id": "b7e8f34b89808ec004137eade9800c04", "rental_uris": {"android": "https://dc.lft.to/lastmile_qr_scan", "ios": "https://dc.lft.to/lastmile_qr_scan"}, "name": "b7e8f34b89808ec004137eade9800c04", "is_reserved": 0}, {"is_disabled": 0, "fusion_lon": 0.0, "fusion_lat": 0.0, "lat": 38.9619195, "type": "electric_scooter", "lon": -77.02778283333333, "bike_id": "a888d593965046e467b167d032d590b0", "rental_uris": {"android": "https://dc.lft.to/lastmile_qr_scan", "ios": "https://dc.lft.to/lastmile_qr_scan"}, "name": "a888d593965046e467b167d032d590b0", "is_reserved": 0}, {"is_disabled": 0, "fusion_lon": 0.0, "fusion_lat": 0.0, "lat": 38.88916433333333, "type": "electric_scooter", "lon": -76.98007083333333, "bike_id": "742027bc7f0182b3e703435086c72558", "rental_uris": {"android": "https://dc.lft.to/lastmile_qr_scan", "ios": "https://dc.lft.to/lastmile_qr_scan"}, "name": "742027bc7f0182b3e703435086c72558", "is_reserved": 0}, {"is_disabled": 0, "fusion_lon": 0.0, "fusion_lat": 0.0, "lat": 38.90590483333333, "type": "electric_scooter", "lon": -77.0691175, "bike_id": "0f288f13f2b2823e5b0c4ae009429290", "rental_uris": {"android": "https://dc.lft.to/lastmile_qr_scan", "ios": "https://dc.lft.to/lastmile_qr_scan"}, "name": "0f288f13f2b2823e5b0c4ae009429290", "is_reserved": 0}, {"is_disabled": 0, "fusion_lon": 0.0, "fusion_lat": 0.0, "lat": 38.904036, "type": "electric_scooter", "lon": -77.06876316666667, "bike_id": "799a9e9dbd549a20d60317013b70168b", "rental_uris": {"android": "https://dc.lft.to/lastmile_qr_scan", "ios": "https://dc.lft.to/lastmile_qr_scan"}, "name": "799a9e9dbd549a20d60317013b70168b", "is_reserved": 0}, {"is_disabled": 0, "fusion_lon": 0.0, "fusion_lat": 0.0, "lat": 38.907969333333334, "type": "electric_scooter", "lon": -77.00135616666667, "bike_id": "ebc3aeb8adb62e53811905eb77ebb06e", "rental_uris": {"android": "https://dc.lft.to/lastmile_qr_scan", "ios": "https://dc.lft.to/lastmile_qr_scan"}, "name": "ebc3aeb8adb62e53811905eb77ebb06e", "is_reserved": 0}, {"is_disabled": 0, "fusion_lon": 0.0, "fusion_lat": 0.0, "lat": 38.871951, "type": "electric_scooter", "lon": -76.97824233333333, "bike_id": "35018f81308614fb5c2bb3815cec6ad9", "rental_uris": {"android": "https://dc.lft.to/lastmile_qr_scan", "ios": "https://dc.lft.to/lastmile_qr_scan"}, "name": "35018f81308614fb5c2bb3815cec6ad9", "is_reserved": 0}, {"is_disabled": 0, "fusion_lon": 0.0, "fusion_lat": 0.0, "lat": 38.924376333333335, "type": "electric_bike", "lon": -76.907575, "bike_id": "6dd4d5583f3682af2470d3b703a1827c", "rental_uris": {"android": "https://dc.lft.to/lastmile_qr_scan", "ios": "https://dc.lft.to/lastmile_qr_scan"}, "name": "6dd4d5583f3682af2470d3b703a1827c", "is_reserved": 0}, {"is_disabled": 0, "fusion_lon": 0.0, "fusion_lat": 0.0, "lat": 38.918261, "type": "electric_scooter", "lon": -77.04507616666666, "bike_id": "32462b8e1dc1d605ad021e7aaa979c41", "rental_uris": {"android": "https://dc.lft.to/lastmile_qr_scan", "ios": "https://dc.lft.to/lastmile_qr_scan"}, "name": "32462b8e1dc1d605ad021e7aaa979c41", "is_reserved": 0}, {"is_disabled": 0, "fusion_lon": 0.0, "fusion_lat": 0.0, "lat": 38.8994705, "type": "electric_scooter", "lon": -77.05107083333333, "bike_id": "2fc16fd77af24c0cd6b77af1711ec4e4", "rental_uris": {"android": "https://dc.lft.to/lastmile_qr_scan", "ios": "https://dc.lft.to/lastmile_qr_scan"}, "name": "2fc16fd77af24c0cd6b77af1711ec4e4", "is_reserved": 0}, {"is_disabled": 0, "fusion_lon": 0.0, "fusion_lat": 0.0, "lat": 38.90377683333333, "type": "electric_scooter", "lon": -77.02826983333334, "bike_id": "7f32efae61e52274e15704defcfc269c", "rental_uris": {"android": "https://dc.lft.to/lastmile_qr_scan", "ios": "https://dc.lft.to/lastmile_qr_scan"}, "name": "7f32efae61e52274e15704defcfc269c", "is_reserved": 0}, {"is_disabled": 0, "fusion_lon": 0.0, "fusion_lat": 0.0, "lat": 38.90529766666667, "type": "electric_scooter", "lon": -77.02220016666666, "bike_id": "fca8e6c0d399c27d7eba6a0b6442f08a", "rental_uris": {"android": "https://dc.lft.to/lastmile_qr_scan", "ios": "https://dc.lft.to/lastmile_qr_scan"}, "name": "fca8e6c0d399c27d7eba6a0b6442f08a", "is_reserved": 0}, {"is_disabled": 0, "fusion_lon": 0.0, "fusion_lat": 0.0, "lat": 38.930877, "type": "electric_scooter", "lon": -77.02468333333333, "bike_id": "30156728e1f54d404a4302f4108a7d49", "rental_uris": {"android": "https://dc.lft.to/lastmile_qr_scan", "ios": "https://dc.lft.to/lastmile_qr_scan"}, "name": "30156728e1f54d404a4302f4108a7d49", "is_reserved": 0}, {"is_disabled": 0, "fusion_lon": 0.0, "fusion_lat": 0.0, "lat": 38.92338633333333, "type": "electric_scooter", "lon": -77.05059083333333, "bike_id": "6bb04039c5ba82a5f2cb21b4f798ed3b", "rental_uris": {"android": "https://dc.lft.to/lastmile_qr_scan", "ios": "https://dc.lft.to/lastmile_qr_scan"}, "name": "6bb04039c5ba82a5f2cb21b4f798ed3b", "is_reserved": 0}, {"is_disabled": 0, "fusion_lon": 0.0, "fusion_lat": 0.0, "lat": 38.894988833333336, "type": "electric_scooter", "lon": -77.00948283333334, "bike_id": "a5ac567aa1c714ddeab5c14bbb3d7717", "rental_uris": {"android": "https://dc.lft.to/lastmile_qr_scan", "ios": "https://dc.lft.to/lastmile_qr_scan"}, "name": "a5ac567aa1c714ddeab5c14bbb3d7717", "is_reserved": 0}, {"is_disabled": 0, "fusion_lon": 0.0, "fusion_lat": 0.0, "lat": 38.900432333333335, "type": "electric_scooter", "lon": -76.9832185, "bike_id": "18781a572945b8dd4d0b4bc5fbcd86e8", "rental_uris": {"android": "https://dc.lft.to/lastmile_qr_scan", "ios": "https://dc.lft.to/lastmile_qr_scan"}, "name": "18781a572945b8dd4d0b4bc5fbcd86e8", "is_reserved": 0}, {"is_disabled": 0, "fusion_lon": 0.0, "fusion_lat": 0.0, "lat": 38.92128066666667, "type": "electric_scooter", "lon": -77.009519, "bike_id": "928cabc9ac0ca40a7c3c6c2674c80e54", "rental_uris": {"android": "https://dc.lft.to/lastmile_qr_scan", "ios": "https://dc.lft.to/lastmile_qr_scan"}, "name": "928cabc9ac0ca40a7c3c6c2674c80e54", "is_reserved": 0}, {"is_disabled": 0, "fusion_lon": 0.0, "fusion_lat": 0.0, "lat": 38.92993883333333, "type": "electric_scooter", "lon": -77.024046, "bike_id": "dc9e3bebaf76201096814b625212422d", "rental_uris": {"android": "https://dc.lft.to/lastmile_qr_scan", "ios": "https://dc.lft.to/lastmile_qr_scan"}, "name": "dc9e3bebaf76201096814b625212422d", "is_reserved": 0}, {"is_disabled": 0, "fusion_lon": 0.0, "fusion_lat": 0.0, "lat": 38.916751, "type": "electric_scooter", "lon": -77.0290115, "bike_id": "f6fbef08b53f69ecb848ca6c271606c3", "rental_uris": {"android": "https://dc.lft.to/lastmile_qr_scan", "ios": "https://dc.lft.to/lastmile_qr_scan"}, "name": "f6fbef08b53f69ecb848ca6c271606c3", "is_reserved": 0}, {"is_disabled": 0, "fusion_lon": 0.0, "fusion_lat": 0.0, "lat": 38.9140475, "type": "electric_scooter", "lon": -77.03173866666667, "bike_id": "ee7871a608ef8c715e906811ed3de225", "rental_uris": {"android": "https://dc.lft.to/lastmile_qr_scan", "ios": "https://dc.lft.to/lastmile_qr_scan"}, "name": "ee7871a608ef8c715e906811ed3de225", "is_reserved": 0}, {"is_disabled": 0, "fusion_lon": 0.0, "fusion_lat": 0.0, "lat": 38.9522385, "type": "electric_scooter", "lon": -77.02758433333334, "bike_id": "f32e9f13aff14f4e2097cce4e2894786", "rental_uris": {"android": "https://dc.lft.to/lastmile_qr_scan", "ios": "https://dc.lft.to/lastmile_qr_scan"}, "name": "f32e9f13aff14f4e2097cce4e2894786", "is_reserved": 0}, {"is_disabled": 0, "fusion_lon": 0.0, "fusion_lat": 0.0, "lat": 38.90542833333333, "type": "electric_scooter", "lon": -77.058062, "bike_id": "9f139f48a2b62227c66019a22b905a7b", "rental_uris": {"android": "https://dc.lft.to/lastmile_qr_scan", "ios": "https://dc.lft.to/lastmile_qr_scan"}, "name": "9f139f48a2b62227c66019a22b905a7b", "is_reserved": 0}, {"is_disabled": 0, "fusion_lon": 0.0, "fusion_lat": 0.0, "lat": 38.860577666666664, "type": "electric_scooter", "lon": -76.98509233333333, "bike_id": "39488df226b0196a789e6c3553e2c5d1", "rental_uris": {"android": "https://dc.lft.to/lastmile_qr_scan", "ios": "https://dc.lft.to/lastmile_qr_scan"}, "name": "39488df226b0196a789e6c3553e2c5d1", "is_reserved": 0}, {"is_disabled": 0, "fusion_lon": 0.0, "fusion_lat": 0.0, "lat": 38.9302165, "type": "electric_scooter", "lon": -77.05556, "bike_id": "7aed3fe6a0bc942b46063cdcc7d9a910", "rental_uris": {"android": "https://dc.lft.to/lastmile_qr_scan", "ios": "https://dc.lft.to/lastmile_qr_scan"}, "name": "7aed3fe6a0bc942b46063cdcc7d9a910", "is_reserved": 0}, {"is_disabled": 0, "fusion_lon": 0.0, "fusion_lat": 0.0, "lat": 38.8981885, "type": "electric_scooter", "lon": -77.03309783333333, "bike_id": "37578074dd06147adebcc16e30f7d1fb", "rental_uris": {"android": "https://dc.lft.to/lastmile_qr_scan", "ios": "https://dc.lft.to/lastmile_qr_scan"}, "name": "37578074dd06147adebcc16e30f7d1fb", "is_reserved": 0}, {"is_disabled": 0, "fusion_lon": 0.0, "fusion_lat": 0.0, "lat": 38.92875316666667, "type": "electric_scooter", "lon": -77.04131083333333, "bike_id": "bba3b72b36b4bcdad3d7532df025ecb6", "rental_uris": {"android": "https://dc.lft.to/lastmile_qr_scan", "ios": "https://dc.lft.to/lastmile_qr_scan"}, "name": "bba3b72b36b4bcdad3d7532df025ecb6", "is_reserved": 0}, {"is_disabled": 0, "fusion_lon": 0.0, "fusion_lat": 0.0, "lat": 38.91671566666667, "type": "electric_scooter", "lon": -77.0228395, "bike_id": "f33290f227bbf0f92e173b86dabbdccc", "rental_uris": {"android": "https://dc.lft.to/lastmile_qr_scan", "ios": "https://dc.lft.to/lastmile_qr_scan"}, "name": "f33290f227bbf0f92e173b86dabbdccc", "is_reserved": 0}, {"is_disabled": 0, "fusion_lon": 0.0, "fusion_lat": 0.0, "lat": 38.90530733333333, "type": "electric_scooter", "lon": -77.057636, "bike_id": "54097ccfbbf5e2ade8abc43cac496460", "rental_uris": {"android": "https://dc.lft.to/lastmile_qr_scan", "ios": "https://dc.lft.to/lastmile_qr_scan"}, "name": "54097ccfbbf5e2ade8abc43cac496460", "is_reserved": 0}, {"is_disabled": 0, "fusion_lon": 0.0, "fusion_lat": 0.0, "lat": 38.912556, "type": "electric_scooter", "lon": -77.032923, "bike_id": "a54522f7a83364c5b12711ffcba0b8da", "rental_uris": {"android": "https://dc.lft.to/lastmile_qr_scan", "ios": "https://dc.lft.to/lastmile_qr_scan"}, "name": "a54522f7a83364c5b12711ffcba0b8da", "is_reserved": 0}, {"is_disabled": 0, "fusion_lon": 0.0, "fusion_lat": 0.0, "lat": 38.905452833333335, "type": "electric_scooter", "lon": -77.0466975, "bike_id": "7104f5e63cca160471034738ebafb522", "rental_uris": {"android": "https://dc.lft.to/lastmile_qr_scan", "ios": "https://dc.lft.to/lastmile_qr_scan"}, "name": "7104f5e63cca160471034738ebafb522", "is_reserved": 0}, {"is_disabled": 0, "fusion_lon": 0.0, "fusion_lat": 0.0, "lat": 38.91379283333333, "type": "electric_scooter", "lon": -77.02967383333333, "bike_id": "f23e1190e75508baf2918fa7bc29fad9", "rental_uris": {"android": "https://dc.lft.to/lastmile_qr_scan", "ios": "https://dc.lft.to/lastmile_qr_scan"}, "name": "f23e1190e75508baf2918fa7bc29fad9", "is_reserved": 0}, {"is_disabled": 0, "fusion_lon": 0.0, "fusion_lat": 0.0, "lat": 38.89879416666667, "type": "electric_scooter", "lon": -76.93159416666667, "bike_id": "f52004fa1c8ad4495ebba768ce9e255d", "rental_uris": {"android": "https://dc.lft.to/lastmile_qr_scan", "ios": "https://dc.lft.to/lastmile_qr_scan"}, "name": "f52004fa1c8ad4495ebba768ce9e255d", "is_reserved": 0}, {"is_disabled": 0, "fusion_lon": 0.0, "fusion_lat": 0.0, "lat": 38.887533166666664, "type": "electric_scooter", "lon": -77.00224816666666, "bike_id": "66f031b90a5c995eb341231d9cbe339c", "rental_uris": {"android": "https://dc.lft.to/lastmile_qr_scan", "ios": "https://dc.lft.to/lastmile_qr_scan"}, "name": "66f031b90a5c995eb341231d9cbe339c", "is_reserved": 0}, {"is_disabled": 0, "fusion_lon": 0.0, "fusion_lat": 0.0, "lat": 38.904203333333335, "type": "electric_scooter", "lon": -77.04480483333333, "bike_id": "9117cad06300f82a686a76cfd07efcba", "rental_uris": {"android": "https://dc.lft.to/lastmile_qr_scan", "ios": "https://dc.lft.to/lastmile_qr_scan"}, "name": "9117cad06300f82a686a76cfd07efcba", "is_reserved": 0}, {"is_disabled": 0, "fusion_lon": 0.0, "fusion_lat": 0.0, "lat": 38.89335716666667, "type": "electric_bike", "lon": -77.124036, "bike_id": "66c0cea09433d0efad5b9df0515331cd", "rental_uris": {"android": "https://dc.lft.to/lastmile_qr_scan", "ios": "https://dc.lft.to/lastmile_qr_scan"}, "name": "66c0cea09433d0efad5b9df0515331cd", "is_reserved": 0}, {"is_disabled": 0, "fusion_lon": 0.0, "fusion_lat": 0.0, "lat": 38.904659, "type": "electric_scooter", "lon": -77.02993416666666, "bike_id": "3486fc41860660899f62d8e01e12ab7a", "rental_uris": {"android": "https://dc.lft.to/lastmile_qr_scan", "ios": "https://dc.lft.to/lastmile_qr_scan"}, "name": "3486fc41860660899f62d8e01e12ab7a", "is_reserved": 0}, {"is_disabled": 0, "fusion_lon": 0.0, "fusion_lat": 0.0, "lat": 38.88670966666667, "type": "electric_scooter", "lon": -77.00176333333333, "bike_id": "a4d292e90193d5dc5f9828edde51a787", "rental_uris": {"android": "https://dc.lft.to/lastmile_qr_scan", "ios": "https://dc.lft.to/lastmile_qr_scan"}, "name": "a4d292e90193d5dc5f9828edde51a787", "is_reserved": 0}, {"is_disabled": 0, "fusion_lon": 0.0, "fusion_lat": 0.0, "lat": 38.90938216666667, "type": "electric_scooter", "lon": -77.053619, "bike_id": "c3c4a23042bd212257bebaf668e99e66", "rental_uris": {"android": "https://dc.lft.to/lastmile_qr_scan", "ios": "https://dc.lft.to/lastmile_qr_scan"}, "name": "c3c4a23042bd212257bebaf668e99e66", "is_reserved": 0}, {"is_disabled": 0, "fusion_lon": 0.0, "fusion_lat": 0.0, "lat": 38.95540316666667, "type": "electric_bike", "lon": -76.93533083333334, "bike_id": "354ad602fb189897e3bdbda5ede5f7c0", "rental_uris": {"android": "https://dc.lft.to/lastmile_qr_scan", "ios": "https://dc.lft.to/lastmile_qr_scan"}, "name": "354ad602fb189897e3bdbda5ede5f7c0", "is_reserved": 0}, {"is_disabled": 0, "fusion_lon": 0.0, "fusion_lat": 0.0, "lat": 38.92236833333333, "type": "electric_scooter", "lon": -77.03521583333334, "bike_id": "c1b4bfd7882ff3e21179082c89ca6c63", "rental_uris": {"android": "https://dc.lft.to/lastmile_qr_scan", "ios": "https://dc.lft.to/lastmile_qr_scan"}, "name": "c1b4bfd7882ff3e21179082c89ca6c63", "is_reserved": 0}, {"is_disabled": 0, "fusion_lon": 0.0, "fusion_lat": 0.0, "lat": 38.82872533333333, "type": "electric_bike", "lon": -77.1122545, "bike_id": "b482f1e2af503a3467992f519b881a50", "rental_uris": {"android": "https://dc.lft.to/lastmile_qr_scan", "ios": "https://dc.lft.to/lastmile_qr_scan"}, "name": "b482f1e2af503a3467992f519b881a50", "is_reserved": 0}, {"is_disabled": 0, "fusion_lon": 0.0, "fusion_lat": 0.0, "lat": 38.898481833333335, "type": "electric_scooter", "lon": -76.99032416666667, "bike_id": "97a940215a66507a9c4751e081c36fb0", "rental_uris": {"android": "https://dc.lft.to/lastmile_qr_scan", "ios": "https://dc.lft.to/lastmile_qr_scan"}, "name": "97a940215a66507a9c4751e081c36fb0", "is_reserved": 0}, {"is_disabled": 0, "fusion_lon": 0.0, "fusion_lat": 0.0, "lat": 38.93276516666667, "type": "electric_scooter", "lon": -77.03985266666666, "bike_id": "a0bd2611f1058d1ae2ab3dd2ec01a62c", "rental_uris": {"android": "https://dc.lft.to/lastmile_qr_scan", "ios": "https://dc.lft.to/lastmile_qr_scan"}, "name": "a0bd2611f1058d1ae2ab3dd2ec01a62c", "is_reserved": 0}, {"is_disabled": 0, "fusion_lon": 0.0, "fusion_lat": 0.0, "lat": 38.908382833333334, "type": "electric_scooter", "lon": -77.02961066666667, "bike_id": "e4d7aeeabc5dbc17edc1b0de361a782d", "rental_uris": {"android": "https://dc.lft.to/lastmile_qr_scan", "ios": "https://dc.lft.to/lastmile_qr_scan"}, "name": "e4d7aeeabc5dbc17edc1b0de361a782d", "is_reserved": 0}, {"is_disabled": 0, "fusion_lon": 0.0, "fusion_lat": 0.0, "lat": 38.9068685, "type": "electric_scooter", "lon": -77.05790783333333, "bike_id": "24e8cee413c40df71e6f5f8228a308a7", "rental_uris": {"android": "https://dc.lft.to/lastmile_qr_scan", "ios": "https://dc.lft.to/lastmile_qr_scan"}, "name": "24e8cee413c40df71e6f5f8228a308a7", "is_reserved": 0}, {"is_disabled": 0, "fusion_lon": 0.0, "fusion_lat": 0.0, "lat": 38.96554866666666, "type": "electric_scooter", "lon": -77.00271483333333, "bike_id": "375fa2893959578618d8a1d938088b8c", "rental_uris": {"android": "https://dc.lft.to/lastmile_qr_scan", "ios": "https://dc.lft.to/lastmile_qr_scan"}, "name": "375fa2893959578618d8a1d938088b8c", "is_reserved": 0}, {"is_disabled": 0, "fusion_lon": 0.0, "fusion_lat": 0.0, "lat": 38.9517895, "type": "electric_scooter", "lon": -77.05658333333334, "bike_id": "b0ff075e87192fb0d75af852a80d45e8", "rental_uris": {"android": "https://dc.lft.to/lastmile_qr_scan", "ios": "https://dc.lft.to/lastmile_qr_scan"}, "name": "b0ff075e87192fb0d75af852a80d45e8", "is_reserved": 0}, {"is_disabled": 0, "fusion_lon": 0.0, "fusion_lat": 0.0, "lat": 38.91649983333333, "type": "electric_scooter", "lon": -77.03209183333334, "bike_id": "b6f9bbd957f84d98acbacb6b7ead7f42", "rental_uris": {"android": "https://dc.lft.to/lastmile_qr_scan", "ios": "https://dc.lft.to/lastmile_qr_scan"}, "name": "b6f9bbd957f84d98acbacb6b7ead7f42", "is_reserved": 0}, {"is_disabled": 0, "fusion_lon": 0.0, "fusion_lat": 0.0, "lat": 38.907765, "type": "electric_scooter", "lon": -77.03470016666667, "bike_id": "c57dcf4c183d7abfd13c5fedb43389d6", "rental_uris": {"android": "https://dc.lft.to/lastmile_qr_scan", "ios": "https://dc.lft.to/lastmile_qr_scan"}, "name": "c57dcf4c183d7abfd13c5fedb43389d6", "is_reserved": 0}, {"is_disabled": 0, "fusion_lon": 0.0, "fusion_lat": 0.0, "lat": 38.9127505, "type": "electric_scooter", "lon": -77.02246933333333, "bike_id": "76487781ceffc1cec79fe6dba38f9d37", "rental_uris": {"android": "https://dc.lft.to/lastmile_qr_scan", "ios": "https://dc.lft.to/lastmile_qr_scan"}, "name": "76487781ceffc1cec79fe6dba38f9d37", "is_reserved": 0}, {"is_disabled": 0, "fusion_lon": 0.0, "fusion_lat": 0.0, "lat": 38.90714666666667, "type": "electric_scooter", "lon": -77.04593183333333, "bike_id": "368db24c1cdc546549b9414d73eb5e84", "rental_uris": {"android": "https://dc.lft.to/lastmile_qr_scan", "ios": "https://dc.lft.to/lastmile_qr_scan"}, "name": "368db24c1cdc546549b9414d73eb5e84", "is_reserved": 0}, {"is_disabled": 0, "fusion_lon": 0.0, "fusion_lat": 0.0, "lat": 38.86246333333333, "type": "electric_scooter", "lon": -76.99501316666667, "bike_id": "0f7b42fafda486f91485aab7aeef77d6", "rental_uris": {"android": "https://dc.lft.to/lastmile_qr_scan", "ios": "https://dc.lft.to/lastmile_qr_scan"}, "name": "0f7b42fafda486f91485aab7aeef77d6", "is_reserved": 0}, {"is_disabled": 0, "fusion_lon": 0.0, "fusion_lat": 0.0, "lat": 38.885022166666666, "type": "electric_scooter", "lon": -77.00326516666667, "bike_id": "51e9afdf5bff5f1770f171349a7a47c1", "rental_uris": {"android": "https://dc.lft.to/lastmile_qr_scan", "ios": "https://dc.lft.to/lastmile_qr_scan"}, "name": "51e9afdf5bff5f1770f171349a7a47c1", "is_reserved": 0}, {"is_disabled": 0, "fusion_lon": 0.0, "fusion_lat": 0.0, "lat": 38.926136166666666, "type": "electric_scooter", "lon": -77.04327933333333, "bike_id": "b21c8e75e7a91aa74aa8024dbb1d5020", "rental_uris": {"android": "https://dc.lft.to/lastmile_qr_scan", "ios": "https://dc.lft.to/lastmile_qr_scan"}, "name": "b21c8e75e7a91aa74aa8024dbb1d5020", "is_reserved": 0}, {"is_disabled": 0, "fusion_lon": 0.0, "fusion_lat": 0.0, "lat": 38.9594465, "type": "electric_scooter", "lon": -77.07229366666667, "bike_id": "bf795942276604442dd3d89df070de4f", "rental_uris": {"android": "https://dc.lft.to/lastmile_qr_scan", "ios": "https://dc.lft.to/lastmile_qr_scan"}, "name": "bf795942276604442dd3d89df070de4f", "is_reserved": 0}, {"is_disabled": 0, "fusion_lon": 0.0, "fusion_lat": 0.0, "lat": 38.90955533333333, "type": "electric_scooter", "lon": -77.0592, "bike_id": "daba6215995a4e5b2af4822e96c56dbe", "rental_uris": {"android": "https://dc.lft.to/lastmile_qr_scan", "ios": "https://dc.lft.to/lastmile_qr_scan"}, "name": "daba6215995a4e5b2af4822e96c56dbe", "is_reserved": 0}, {"is_disabled": 0, "fusion_lon": 0.0, "fusion_lat": 0.0, "lat": 38.900627, "type": "electric_scooter", "lon": -77.0131485, "bike_id": "235d5604b5c4e1a101e31882d3a37533", "rental_uris": {"android": "https://dc.lft.to/lastmile_qr_scan", "ios": "https://dc.lft.to/lastmile_qr_scan"}, "name": "235d5604b5c4e1a101e31882d3a37533", "is_reserved": 0}, {"is_disabled": 0, "fusion_lon": 0.0, "fusion_lat": 0.0, "lat": 38.921037166666665, "type": "electric_scooter", "lon": -77.04380883333333, "bike_id": "fab638a2f87d5278f28e829ac63532ce", "rental_uris": {"android": "https://dc.lft.to/lastmile_qr_scan", "ios": "https://dc.lft.to/lastmile_qr_scan"}, "name": "fab638a2f87d5278f28e829ac63532ce", "is_reserved": 0}, {"is_disabled": 0, "fusion_lon": 0.0, "fusion_lat": 0.0, "lat": 38.895458166666664, "type": "electric_scooter", "lon": -77.02936333333334, "bike_id": "9cadb10a7b1e59b16949ca3cbeb9152d", "rental_uris": {"android": "https://dc.lft.to/lastmile_qr_scan", "ios": "https://dc.lft.to/lastmile_qr_scan"}, "name": "9cadb10a7b1e59b16949ca3cbeb9152d", "is_reserved": 0}, {"is_disabled": 0, "fusion_lon": 0.0, "fusion_lat": 0.0, "lat": 38.8896365, "type": "electric_scooter", "lon": -76.927353, "bike_id": "b20f18122fdda7b2b8cfa027fed68689", "rental_uris": {"android": "https://dc.lft.to/lastmile_qr_scan", "ios": "https://dc.lft.to/lastmile_qr_scan"}, "name": "b20f18122fdda7b2b8cfa027fed68689", "is_reserved": 0}, {"is_disabled": 0, "fusion_lon": 0.0, "fusion_lat": 0.0, "lat": 38.89247316666667, "type": "electric_scooter", "lon": -77.02816583333333, "bike_id": "b5b989752f6c2ec52557f78b7bb14a25", "rental_uris": {"android": "https://dc.lft.to/lastmile_qr_scan", "ios": "https://dc.lft.to/lastmile_qr_scan"}, "name": "b5b989752f6c2ec52557f78b7bb14a25", "is_reserved": 0}, {"is_disabled": 0, "fusion_lon": 0.0, "fusion_lat": 0.0, "lat": 38.90239, "type": "electric_scooter", "lon": -77.0455015, "bike_id": "d60ebd08dc61328db192ee1072df5ae4", "rental_uris": {"android": "https://dc.lft.to/lastmile_qr_scan", "ios": "https://dc.lft.to/lastmile_qr_scan"}, "name": "d60ebd08dc61328db192ee1072df5ae4", "is_reserved": 0}, {"is_disabled": 0, "fusion_lon": 0.0, "fusion_lat": 0.0, "lat": 38.93453983333333, "type": "electric_scooter", "lon": -77.07234, "bike_id": "f17a67fe8be04ac7763889895b80e78e", "rental_uris": {"android": "https://dc.lft.to/lastmile_qr_scan", "ios": "https://dc.lft.to/lastmile_qr_scan"}, "name": "f17a67fe8be04ac7763889895b80e78e", "is_reserved": 0}, {"is_disabled": 0, "fusion_lon": 0.0, "fusion_lat": 0.0, "lat": 38.916804, "type": "electric_scooter", "lon": -77.03818283333334, "bike_id": "c33e1175be6197d80b8b01c2835461cc", "rental_uris": {"android": "https://dc.lft.to/lastmile_qr_scan", "ios": "https://dc.lft.to/lastmile_qr_scan"}, "name": "c33e1175be6197d80b8b01c2835461cc", "is_reserved": 0}, {"is_disabled": 0, "fusion_lon": 0.0, "fusion_lat": 0.0, "lat": 38.9233495, "type": "electric_scooter", "lon": -76.9938825, "bike_id": "08f9fa01e1e51736f4f16fe239114a31", "rental_uris": {"android": "https://dc.lft.to/lastmile_qr_scan", "ios": "https://dc.lft.to/lastmile_qr_scan"}, "name": "08f9fa01e1e51736f4f16fe239114a31", "is_reserved": 0}, {"is_disabled": 0, "fusion_lon": 0.0, "fusion_lat": 0.0, "lat": 38.8872635, "type": "electric_scooter", "lon": -77.00324083333334, "bike_id": "e1a1b171c12f59a87037c599a191e64e", "rental_uris": {"android": "https://dc.lft.to/lastmile_qr_scan", "ios": "https://dc.lft.to/lastmile_qr_scan"}, "name": "e1a1b171c12f59a87037c599a191e64e", "is_reserved": 0}, {"is_disabled": 0, "fusion_lon": 0.0, "fusion_lat": 0.0, "lat": 38.900404333333334, "type": "electric_scooter", "lon": -76.922688, "bike_id": "ade88fc0d80dcae31001d98810062591", "rental_uris": {"android": "https://dc.lft.to/lastmile_qr_scan", "ios": "https://dc.lft.to/lastmile_qr_scan"}, "name": "ade88fc0d80dcae31001d98810062591", "is_reserved": 0}, {"is_disabled": 0, "fusion_lon": 0.0, "fusion_lat": 0.0, "lat": 38.895611333333335, "type": "electric_scooter", "lon": -77.04669066666666, "bike_id": "a59cb4b805e921fae95f1e38bd0f13b3", "rental_uris": {"android": "https://dc.lft.to/lastmile_qr_scan", "ios": "https://dc.lft.to/lastmile_qr_scan"}, "name": "a59cb4b805e921fae95f1e38bd0f13b3", "is_reserved": 0}, {"is_disabled": 0, "fusion_lon": 0.0, "fusion_lat": 0.0, "lat": 38.9282255, "type": "electric_scooter", "lon": -77.014178, "bike_id": "57caebb06366099e41666a9aeb5df396", "rental_uris": {"android": "https://dc.lft.to/lastmile_qr_scan", "ios": "https://dc.lft.to/lastmile_qr_scan"}, "name": "57caebb06366099e41666a9aeb5df396", "is_reserved": 0}, {"is_disabled": 0, "fusion_lon": 0.0, "fusion_lat": 0.0, "lat": 38.862472333333336, "type": "electric_scooter", "lon": -76.99502483333333, "bike_id": "b604f444b4f6754ce07890425e306781", "rental_uris": {"android": "https://dc.lft.to/lastmile_qr_scan", "ios": "https://dc.lft.to/lastmile_qr_scan"}, "name": "b604f444b4f6754ce07890425e306781", "is_reserved": 0}, {"is_disabled": 0, "fusion_lon": 0.0, "fusion_lat": 0.0, "lat": 38.935331166666664, "type": "electric_scooter", "lon": -77.02372333333334, "bike_id": "a54f55cc7fbf7395a043ce3130843fe0", "rental_uris": {"android": "https://dc.lft.to/lastmile_qr_scan", "ios": "https://dc.lft.to/lastmile_qr_scan"}, "name": "a54f55cc7fbf7395a043ce3130843fe0", "is_reserved": 0}, {"is_disabled": 0, "fusion_lon": 0.0, "fusion_lat": 0.0, "lat": 38.918273666666664, "type": "electric_scooter", "lon": -77.03440066666667, "bike_id": "77527340135ebf136e5c5644940e503d", "rental_uris": {"android": "https://dc.lft.to/lastmile_qr_scan", "ios": "https://dc.lft.to/lastmile_qr_scan"}, "name": "77527340135ebf136e5c5644940e503d", "is_reserved": 0}, {"is_disabled": 0, "fusion_lon": 0.0, "fusion_lat": 0.0, "lat": 38.90979166666666, "type": "electric_scooter", "lon": -77.021837, "bike_id": "0d58a3cb3fc62b6a854d339adcbcbaf4", "rental_uris": {"android": "https://dc.lft.to/lastmile_qr_scan", "ios": "https://dc.lft.to/lastmile_qr_scan"}, "name": "0d58a3cb3fc62b6a854d339adcbcbaf4", "is_reserved": 0}, {"is_disabled": 0, "fusion_lon": 0.0, "fusion_lat": 0.0, "lat": 38.893689, "type": "electric_scooter", "lon": -76.94996833333333, "bike_id": "77fde808f6f58e94eba248b89945443d", "rental_uris": {"android": "https://dc.lft.to/lastmile_qr_scan", "ios": "https://dc.lft.to/lastmile_qr_scan"}, "name": "77fde808f6f58e94eba248b89945443d", "is_reserved": 0}, {"is_disabled": 0, "fusion_lon": 0.0, "fusion_lat": 0.0, "lat": 38.8857545, "type": "electric_scooter", "lon": -76.91909333333334, "bike_id": "2ae9d2b82c38f5db7fe51c62e1381506", "rental_uris": {"android": "https://dc.lft.to/lastmile_qr_scan", "ios": "https://dc.lft.to/lastmile_qr_scan"}, "name": "2ae9d2b82c38f5db7fe51c62e1381506", "is_reserved": 0}, {"is_disabled": 0, "fusion_lon": 0.0, "fusion_lat": 0.0, "lat": 38.91542883333334, "type": "electric_scooter", "lon": -77.03856083333334, "bike_id": "9548d6653da09db8b107ad282cd7d637", "rental_uris": {"android": "https://dc.lft.to/lastmile_qr_scan", "ios": "https://dc.lft.to/lastmile_qr_scan"}, "name": "9548d6653da09db8b107ad282cd7d637", "is_reserved": 0}, {"is_disabled": 0, "fusion_lon": 0.0, "fusion_lat": 0.0, "lat": 38.910333, "type": "electric_scooter", "lon": -77.04261216666667, "bike_id": "02e92362133268a819747d4bc0705895", "rental_uris": {"android": "https://dc.lft.to/lastmile_qr_scan", "ios": "https://dc.lft.to/lastmile_qr_scan"}, "name": "02e92362133268a819747d4bc0705895", "is_reserved": 0}, {"is_disabled": 0, "fusion_lon": 0.0, "fusion_lat": 0.0, "lat": 38.9093995, "type": "electric_scooter", "lon": -77.04716516666667, "bike_id": "684cd11baa5ddb6ecfca46b1ae41fec0", "rental_uris": {"android": "https://dc.lft.to/lastmile_qr_scan", "ios": "https://dc.lft.to/lastmile_qr_scan"}, "name": "684cd11baa5ddb6ecfca46b1ae41fec0", "is_reserved": 0}, {"is_disabled": 0, "fusion_lon": 0.0, "fusion_lat": 0.0, "lat": 39.03878483333333, "type": "electric_bike", "lon": -77.10910333333334, "bike_id": "a3d72be79acab03786381db68aa7334f", "rental_uris": {"android": "https://dc.lft.to/lastmile_qr_scan", "ios": "https://dc.lft.to/lastmile_qr_scan"}, "name": "a3d72be79acab03786381db68aa7334f", "is_reserved": 0}, {"is_disabled": 0, "fusion_lon": 0.0, "fusion_lat": 0.0, "lat": 38.99265833333333, "type": "electric_scooter", "lon": -77.036094, "bike_id": "6c590cab6ab4ba1d044a176bf15b730d", "rental_uris": {"android": "https://dc.lft.to/lastmile_qr_scan", "ios": "https://dc.lft.to/lastmile_qr_scan"}, "name": "6c590cab6ab4ba1d044a176bf15b730d", "is_reserved": 0}, {"is_disabled": 0, "fusion_lon": 0.0, "fusion_lat": 0.0, "lat": 38.917095, "type": "electric_scooter", "lon": -77.05125183333334, "bike_id": "b51410412b419e158653fb0da6ecc6e4", "rental_uris": {"android": "https://dc.lft.to/lastmile_qr_scan", "ios": "https://dc.lft.to/lastmile_qr_scan"}, "name": "b51410412b419e158653fb0da6ecc6e4", "is_reserved": 0}, {"is_disabled": 0, "fusion_lon": 0.0, "fusion_lat": 0.0, "lat": 38.907399166666664, "type": "electric_scooter", "lon": -77.0417105, "bike_id": "5bbb962892ec85f37e24a14595bddb7a", "rental_uris": {"android": "https://dc.lft.to/lastmile_qr_scan", "ios": "https://dc.lft.to/lastmile_qr_scan"}, "name": "5bbb962892ec85f37e24a14595bddb7a", "is_reserved": 0}, {"is_disabled": 0, "fusion_lon": 0.0, "fusion_lat": 0.0, "lat": 38.9367205, "type": "electric_bike", "lon": -76.952078, "bike_id": "30fc9d52aedb3969c15a40a9f2490e5a", "rental_uris": {"android": "https://dc.lft.to/lastmile_qr_scan", "ios": "https://dc.lft.to/lastmile_qr_scan"}, "name": "30fc9d52aedb3969c15a40a9f2490e5a", "is_reserved": 0}, {"is_disabled": 0, "fusion_lon": 0.0, "fusion_lat": 0.0, "lat": 38.90968, "type": "electric_scooter", "lon": -77.04622966666666, "bike_id": "d86b3db54e2bdec981ff9afbf9dd30e9", "rental_uris": {"android": "https://dc.lft.to/lastmile_qr_scan", "ios": "https://dc.lft.to/lastmile_qr_scan"}, "name": "d86b3db54e2bdec981ff9afbf9dd30e9", "is_reserved": 0}, {"is_disabled": 0, "fusion_lon": 0.0, "fusion_lat": 0.0, "lat": 38.917831166666666, "type": "electric_scooter", "lon": -77.04335716666667, "bike_id": "03bf5ca63e0d334e62cb5cbb07856c00", "rental_uris": {"android": "https://dc.lft.to/lastmile_qr_scan", "ios": "https://dc.lft.to/lastmile_qr_scan"}, "name": "03bf5ca63e0d334e62cb5cbb07856c00", "is_reserved": 0}, {"is_disabled": 0, "fusion_lon": 0.0, "fusion_lat": 0.0, "lat": 38.93478283333334, "type": "electric_scooter", "lon": -77.07271483333334, "bike_id": "c57cba9e86306cbdeae8e5a78366d865", "rental_uris": {"android": "https://dc.lft.to/lastmile_qr_scan", "ios": "https://dc.lft.to/lastmile_qr_scan"}, "name": "c57cba9e86306cbdeae8e5a78366d865", "is_reserved": 0}, {"is_disabled": 0, "fusion_lon": 0.0, "fusion_lat": 0.0, "lat": 38.95835616666667, "type": "electric_scooter", "lon": -77.0716525, "bike_id": "19722a210d0ca45f060a09f4e8c11756", "rental_uris": {"android": "https://dc.lft.to/lastmile_qr_scan", "ios": "https://dc.lft.to/lastmile_qr_scan"}, "name": "19722a210d0ca45f060a09f4e8c11756", "is_reserved": 0}, {"is_disabled": 0, "fusion_lon": 0.0, "fusion_lat": 0.0, "lat": 38.91876883333333, "type": "electric_scooter", "lon": -77.04304233333333, "bike_id": "01e9e9bc54ab3f1a8b6aeeba0b63eacb", "rental_uris": {"android": "https://dc.lft.to/lastmile_qr_scan", "ios": "https://dc.lft.to/lastmile_qr_scan"}, "name": "01e9e9bc54ab3f1a8b6aeeba0b63eacb", "is_reserved": 0}, {"is_disabled": 0, "fusion_lon": 0.0, "fusion_lat": 0.0, "lat": 38.895783, "type": "electric_bike", "lon": -77.07129833333333, "bike_id": "fd5f2f36236326af984d4f6eb2045bf7", "rental_uris": {"android": "https://dc.lft.to/lastmile_qr_scan", "ios": "https://dc.lft.to/lastmile_qr_scan"}, "name": "fd5f2f36236326af984d4f6eb2045bf7", "is_reserved": 0}, {"is_disabled": 0, "fusion_lon": 0.0, "fusion_lat": 0.0, "lat": 38.9052765, "type": "electric_scooter", "lon": -77.058269, "bike_id": "b398fcf465210123c29debf4bbcc9e30", "rental_uris": {"android": "https://dc.lft.to/lastmile_qr_scan", "ios": "https://dc.lft.to/lastmile_qr_scan"}, "name": "b398fcf465210123c29debf4bbcc9e30", "is_reserved": 0}, {"is_disabled": 0, "fusion_lon": 0.0, "fusion_lat": 0.0, "lat": 38.84298033333334, "type": "electric_bike", "lon": -77.1142175, "bike_id": "ba920ad209294562738625f2fd2176e2", "rental_uris": {"android": "https://dc.lft.to/lastmile_qr_scan", "ios": "https://dc.lft.to/lastmile_qr_scan"}, "name": "ba920ad209294562738625f2fd2176e2", "is_reserved": 0}, {"is_disabled": 0, "fusion_lon": 0.0, "fusion_lat": 0.0, "lat": 38.945470666666665, "type": "electric_scooter", "lon": -77.04248483333333, "bike_id": "e58a182b07ba4ee59a3a3b35d445fde7", "rental_uris": {"android": "https://dc.lft.to/lastmile_qr_scan", "ios": "https://dc.lft.to/lastmile_qr_scan"}, "name": "e58a182b07ba4ee59a3a3b35d445fde7", "is_reserved": 0}, {"is_disabled": 0, "fusion_lon": 0.0, "fusion_lat": 0.0, "lat": 38.92668183333333, "type": "electric_scooter", "lon": -77.04300033333334, "bike_id": "6a2c0f01e296ed4d6f055491fc1f1597", "rental_uris": {"android": "https://dc.lft.to/lastmile_qr_scan", "ios": "https://dc.lft.to/lastmile_qr_scan"}, "name": "6a2c0f01e296ed4d6f055491fc1f1597", "is_reserved": 0}, {"is_disabled": 0, "fusion_lon": 0.0, "fusion_lat": 0.0, "lat": 38.91849883333333, "type": "electric_bike", "lon": -76.96093333333333, "bike_id": "49b63e368d0e8e9060ef2bc3ad281d91", "rental_uris": {"android": "https://dc.lft.to/lastmile_qr_scan", "ios": "https://dc.lft.to/lastmile_qr_scan"}, "name": "49b63e368d0e8e9060ef2bc3ad281d91", "is_reserved": 0}, {"is_disabled": 0, "fusion_lon": 0.0, "fusion_lat": 0.0, "lat": 38.9345065, "type": "electric_scooter", "lon": -77.07269916666667, "bike_id": "e68d40135c01072b84a11931bfcff733", "rental_uris": {"android": "https://dc.lft.to/lastmile_qr_scan", "ios": "https://dc.lft.to/lastmile_qr_scan"}, "name": "e68d40135c01072b84a11931bfcff733", "is_reserved": 0}, {"is_disabled": 0, "fusion_lon": 0.0, "fusion_lat": 0.0, "lat": 38.934772833333334, "type": "electric_scooter", "lon": -77.07269816666667, "bike_id": "66f52560924701caae1c040a379747ed", "rental_uris": {"android": "https://dc.lft.to/lastmile_qr_scan", "ios": "https://dc.lft.to/lastmile_qr_scan"}, "name": "66f52560924701caae1c040a379747ed", "is_reserved": 0}, {"is_disabled": 0, "fusion_lon": 0.0, "fusion_lat": 0.0, "lat": 38.89218433333333, "type": "electric_scooter", "lon": -77.03212, "bike_id": "c7d3dd7736f912fd3c7ef73bc650e373", "rental_uris": {"android": "https://dc.lft.to/lastmile_qr_scan", "ios": "https://dc.lft.to/lastmile_qr_scan"}, "name": "c7d3dd7736f912fd3c7ef73bc650e373", "is_reserved": 0}, {"is_disabled": 0, "fusion_lon": 0.0, "fusion_lat": 0.0, "lat": 38.91933866666667, "type": "electric_scooter", "lon": -77.0259425, "bike_id": "9b4e7365f2eb877586a467ef5ce625ad", "rental_uris": {"android": "https://dc.lft.to/lastmile_qr_scan", "ios": "https://dc.lft.to/lastmile_qr_scan"}, "name": "9b4e7365f2eb877586a467ef5ce625ad", "is_reserved": 0}, {"is_disabled": 0, "fusion_lon": 0.0, "fusion_lat": 0.0, "lat": 38.916894166666665, "type": "electric_scooter", "lon": -77.0369315, "bike_id": "f0f186cb1182458e1b0fd1cad854d3c1", "rental_uris": {"android": "https://dc.lft.to/lastmile_qr_scan", "ios": "https://dc.lft.to/lastmile_qr_scan"}, "name": "f0f186cb1182458e1b0fd1cad854d3c1", "is_reserved": 0}, {"is_disabled": 0, "fusion_lon": 0.0, "fusion_lat": 0.0, "lat": 38.93169816666666, "type": "electric_scooter", "lon": -77.07250716666667, "bike_id": "df47142d76186250d22bd8a5223b3a0d", "rental_uris": {"android": "https://dc.lft.to/lastmile_qr_scan", "ios": "https://dc.lft.to/lastmile_qr_scan"}, "name": "df47142d76186250d22bd8a5223b3a0d", "is_reserved": 0}, {"is_disabled": 0, "fusion_lon": 0.0, "fusion_lat": 0.0, "lat": 38.8624595, "type": "electric_scooter", "lon": -76.99502033333333, "bike_id": "9c7bddb5104942c33dbf23661e2c7693", "rental_uris": {"android": "https://dc.lft.to/lastmile_qr_scan", "ios": "https://dc.lft.to/lastmile_qr_scan"}, "name": "9c7bddb5104942c33dbf23661e2c7693", "is_reserved": 0}, {"is_disabled": 0, "fusion_lon": 0.0, "fusion_lat": 0.0, "lat": 38.902382, "type": "electric_scooter", "lon": -77.02376816666667, "bike_id": "87649d3ed7ff4071fe4d21a6a17e7c71", "rental_uris": {"android": "https://dc.lft.to/lastmile_qr_scan", "ios": "https://dc.lft.to/lastmile_qr_scan"}, "name": "87649d3ed7ff4071fe4d21a6a17e7c71", "is_reserved": 0}, {"is_disabled": 0, "fusion_lon": 0.0, "fusion_lat": 0.0, "lat": 38.89732333333333, "type": "electric_scooter", "lon": -77.04678933333334, "bike_id": "c41e29e77005385d2ecc0726c1437c10", "rental_uris": {"android": "https://dc.lft.to/lastmile_qr_scan", "ios": "https://dc.lft.to/lastmile_qr_scan"}, "name": "c41e29e77005385d2ecc0726c1437c10", "is_reserved": 0}, {"is_disabled": 0, "fusion_lon": 0.0, "fusion_lat": 0.0, "lat": 38.8662575, "type": "electric_scooter", "lon": -76.987178, "bike_id": "429204f9ff8ed9f8a381f32d04fb9f63", "rental_uris": {"android": "https://dc.lft.to/lastmile_qr_scan", "ios": "https://dc.lft.to/lastmile_qr_scan"}, "name": "429204f9ff8ed9f8a381f32d04fb9f63", "is_reserved": 0}, {"is_disabled": 0, "fusion_lon": 0.0, "fusion_lat": 0.0, "lat": 38.87715766666667, "type": "electric_scooter", "lon": -77.0160495, "bike_id": "46b35d6c77858e2c44a121c33ecffb4f", "rental_uris": {"android": "https://dc.lft.to/lastmile_qr_scan", "ios": "https://dc.lft.to/lastmile_qr_scan"}, "name": "46b35d6c77858e2c44a121c33ecffb4f", "is_reserved": 0}, {"is_disabled": 0, "fusion_lon": 0.0, "fusion_lat": 0.0, "lat": 38.9020025, "type": "electric_scooter", "lon": -76.98213783333334, "bike_id": "308f1f8410c015516184e493afe1a0ac", "rental_uris": {"android": "https://dc.lft.to/lastmile_qr_scan", "ios": "https://dc.lft.to/lastmile_qr_scan"}, "name": "308f1f8410c015516184e493afe1a0ac", "is_reserved": 0}, {"is_disabled": 0, "fusion_lon": 0.0, "fusion_lat": 0.0, "lat": 38.88040083333333, "type": "electric_bike", "lon": -76.99013866666667, "bike_id": "0370493fae1efc6e34556cecd38043c8", "rental_uris": {"android": "https://dc.lft.to/lastmile_qr_scan", "ios": "https://dc.lft.to/lastmile_qr_scan"}, "name": "0370493fae1efc6e34556cecd38043c8", "is_reserved": 0}, {"is_disabled": 0, "fusion_lon": 0.0, "fusion_lat": 0.0, "lat": 38.9110985, "type": "electric_scooter", "lon": -77.0361205, "bike_id": "ec0acad192934f6ab859b780e296c092", "rental_uris": {"android": "https://dc.lft.to/lastmile_qr_scan", "ios": "https://dc.lft.to/lastmile_qr_scan"}, "name": "ec0acad192934f6ab859b780e296c092", "is_reserved": 0}, {"is_disabled": 0, "fusion_lon": 0.0, "fusion_lat": 0.0, "lat": 38.84297383333333, "type": "electric_bike", "lon": -77.07641083333333, "bike_id": "050c10b3ca7c2b46cf0cba3d1fb7f563", "rental_uris": {"android": "https://dc.lft.to/lastmile_qr_scan", "ios": "https://dc.lft.to/lastmile_qr_scan"}, "name": "050c10b3ca7c2b46cf0cba3d1fb7f563", "is_reserved": 0}, {"is_disabled": 0, "fusion_lon": 0.0, "fusion_lat": 0.0, "lat": 38.9241365, "type": "electric_scooter", "lon": -77.05070316666666, "bike_id": "35035f63b185511794fc16d5311851ff", "rental_uris": {"android": "https://dc.lft.to/lastmile_qr_scan", "ios": "https://dc.lft.to/lastmile_qr_scan"},