{"data": {"bikes": [{"fusion_lon": 0.0, "is_reserved": 0, "bike_id": "74b515d0f3a54c637cb9fe811f67d583", "lon": -77.02308516666666, "name": "74b515d0f3a54c637cb9fe811f67d583", "lat": 38.920579000000004, "fusion_lat": 0.0, "rental_uris": {"ios": "https://dc.lft.to/lastmile_qr_scan", "android": "https://dc.lft.to/lastmile_qr_scan"}, "is_disabled": 0, "type": "electric_scooter"}, {"fusion_lon": 0.0, "is_reserved": 0, "bike_id": "6bf50354536648b0720597355abe5d80", "lon": -77.05337033333333, "name": "6bf50354536648b0720597355abe5d80", "lat": 38.855752, "fusion_lat": 0.0, "rental_uris": {"ios": "https://dc.lft.to/lastmile_qr_scan", "android": "https://dc.lft.to/lastmile_qr_scan"}, "is_disabled": 0, "type": "electric_bike"}, {"fusion_lon": 0.0, "is_reserved": 0, "bike_id": "85e4a7485d4c952ac41e012b7e26f8e6", "lon": -76.99281783333333, "name": "85e4a7485d4c952ac41e012b7e26f8e6", "lat": 38.972659, "fusion_lat": 0.0, "rental_uris": {"ios": "https://dc.lft.to/lastmile_qr_scan", "android": "https://dc.lft.to/lastmile_qr_scan"}, "is_disabled": 0, "type": "electric_bike"}, {"fusion_lon": 0.0, "is_reserved": 0, "bike_id": "804657ac0993103895ff6311d158d6eb", "lon": -77.08081533333333, "name": "804657ac0993103895ff6311d158d6eb", "lat": 38.90867816666667, "fusion_lat": 0.0, "rental_uris": {"ios": "https://dc.lft.to/lastmile_qr_scan", "android": "https://dc.lft.to/lastmile_qr_scan"}, "is_disabled": 0, "type": "electric_bike"}, {"fusion_lon": 0.0, "is_reserved": 0, "bike_id": "5898999afcb826d6744cf23ae076faf7", "lon": -77.0211205, "name": "5898999afcb826d6744cf23ae076faf7", "lat": 38.92356066666667, "fusion_lat": 0.0, "rental_uris": {"ios": "https://dc.lft.to/lastmile_qr_scan", "android": "https://dc.lft.to/lastmile_qr_scan"}, "is_disabled": 0, "type": "electric_scooter"}, {"fusion_lon": 0.0, "is_reserved": 0, "bike_id": "17a638e243949a144a3087b103cc7b30", "lon": -77.08404583333333, "name": "17a638e243949a144a3087b103cc7b30", "lat": 38.90806083333333, "fusion_lat": 0.0, "rental_uris": {"ios": "https://dc.lft.to/lastmile_qr_scan", "android": "https://dc.lft.to/lastmile_qr_scan"}, "is_disabled": 0, "type": "electric_scooter"}, {"fusion_lon": 0.0, "is_reserved": 0, "bike_id": "3c1fa3d40b71fd73702ce530e192590e", "lon": -77.02681516666667, "name": "3c1fa3d40b71fd73702ce530e192590e", "lat": 38.97557916666667, "fusion_lat": 0.0, "rental_uris": {"ios": "https://dc.lft.to/lastmile_qr_scan", "android": "https://dc.lft.to/lastmile_qr_scan"}, "is_disabled": 0, "type": "electric_scooter"}, {"fusion_lon": 0.0, "is_reserved": 0, "bike_id": "2433116bc1c6ca83b74570438e943cbd", "lon": -77.00914366666667, "name": "2433116bc1c6ca83b74570438e943cbd", "lat": 38.871186333333334, "fusion_lat": 0.0, "rental_uris": {"ios": "https://dc.lft.to/lastmile_qr_scan", "android": "https://dc.lft.to/lastmile_qr_scan"}, "is_disabled": 0, "type": "electric_scooter"}, {"fusion_lon": 0.0, "is_reserved": 0, "bike_id": "307b10867095bc707ed2cdcc8a7b2fe9", "lon": -77.03301266666666, "name": "307b10867095bc707ed2cdcc8a7b2fe9", "lat": 38.904257333333334, "fusion_lat": 0.0, "rental_uris": {"ios": "https://dc.lft.to/lastmile_qr_scan", "android": "https://dc.lft.to/lastmile_qr_scan"}, "is_disabled": 0, "type": "electric_scooter"}, {"fusion_lon": 0.0, "is_reserved": 0, "bike_id": "8d01b9ec1d43148a9f8b197b59a2f3a9", "lon": -76.99321083333334, "name": "8d01b9ec1d43148a9f8b197b59a2f3a9", "lat": 38.877084833333335, "fusion_lat": 0.0, "rental_uris": {"ios": "https://dc.lft.to/lastmile_qr_scan", "android": "https://dc.lft.to/lastmile_qr_scan"}, "is_disabled": 0, "type": "electric_scooter"}, {"fusion_lon": 0.0, "is_reserved": 0, "bike_id": "1c11edd74f0e1932270339c6a343e008", "lon": -77.044387, "name": "1c11edd74f0e1932270339c6a343e008", "lat": 38.91254933333333, "fusion_lat": 0.0, "rental_uris": {"ios": "https://dc.lft.to/lastmile_qr_scan", "android": "https://dc.lft.to/lastmile_qr_scan"}, "is_disabled": 0, "type": "electric_scooter"}, {"fusion_lon": 0.0, "is_reserved": 0, "bike_id": "6c14b627ed1b921540ec766fc7e966d7", "lon": -77.04441316666667, "name": "6c14b627ed1b921540ec766fc7e966d7", "lat": 38.90142016666667, "fusion_lat": 0.0, "rental_uris": {"ios": "https://dc.lft.to/lastmile_qr_scan", "android": "https://dc.lft.to/lastmile_qr_scan"}, "is_disabled": 0, "type": "electric_scooter"}, {"fusion_lon": 0.0, "is_reserved": 0, "bike_id": "7cfb7b032176c755da456a452e836675", "lon": -77.02029816666666, "name": "7cfb7b032176c755da456a452e836675", "lat": 38.92423733333333, "fusion_lat": 0.0, "rental_uris": {"ios": "https://dc.lft.to/lastmile_qr_scan", "android": "https://dc.lft.to/lastmile_qr_scan"}, "is_disabled": 0, "type": "electric_scooter"}, {"fusion_lon": 0.0, "is_reserved": 0, "bike_id": "a44bec96d8f6aad265663552995a8984", "lon": -77.01770116666667, "name": "a44bec96d8f6aad265663552995a8984", "lat": 38.8780275, "fusion_lat": 0.0, "rental_uris": {"ios": "https://dc.lft.to/lastmile_qr_scan", "android": "https://dc.lft.to/lastmile_qr_scan"}, "is_disabled": 0, "type": "electric_scooter"}, {"fusion_lon": 0.0, "is_reserved": 0, "bike_id": "110e7bdd4c641440dd6b8ef9b3ce40f9", "lon": -77.041449, "name": "110e7bdd4c641440dd6b8ef9b3ce40f9", "lat": 38.93245616666667, "fusion_lat": 0.0, "rental_uris": {"ios": "https://dc.lft.to/lastmile_qr_scan", "android": "https://dc.lft.to/lastmile_qr_scan"}, "is_disabled": 0, "type": "electric_scooter"}, {"fusion_lon": 0.0, "is_reserved": 0, "bike_id": "18ab8f1004b136f96f73f33bb404f257", "lon": -77.01998433333333, "name": "18ab8f1004b136f96f73f33bb404f257", "lat": 38.895136, "fusion_lat": 0.0, "rental_uris": {"ios": "https://dc.lft.to/lastmile_qr_scan", "android": "https://dc.lft.to/lastmile_qr_scan"}, "is_disabled": 0, "type": "electric_scooter"}, {"fusion_lon": 0.0, "is_reserved": 0, "bike_id": "87c22f6380561f2f15203888525399e5", "lon": -77.02749566666667, "name": "87c22f6380561f2f15203888525399e5", "lat": 38.892236, "fusion_lat": 0.0, "rental_uris": {"ios": "https://dc.lft.to/lastmile_qr_scan", "android": "https://dc.lft.to/lastmile_qr_scan"}, "is_disabled": 0, "type": "electric_scooter"}, {"fusion_lon": 0.0, "is_reserved": 0, "bike_id": "258760d42b3658446542f231ac9da969", "lon": -77.00336533333333, "name": "258760d42b3658446542f231ac9da969", "lat": 38.895033166666664, "fusion_lat": 0.0, "rental_uris": {"ios": "https://dc.lft.to/lastmile_qr_scan", "android": "https://dc.lft.to/lastmile_qr_scan"}, "is_disabled": 0, "type": "electric_scooter"}, {"fusion_lon": 0.0, "is_reserved": 0, "bike_id": "f0649fcc67553b5d5258bc4815b5bd07", "lon": -77.061481, "name": "f0649fcc67553b5d5258bc4815b5bd07", "lat": 38.933546, "fusion_lat": 0.0, "rental_uris": {"ios": "https://dc.lft.to/lastmile_qr_scan", "android": "https://dc.lft.to/lastmile_qr_scan"}, "is_disabled": 0, "type": "electric_scooter"}, {"fusion_lon": 0.0, "is_reserved": 0, "bike_id": "6d56770cbe2a90a216ff1ae9cf6b2ed9", "lon": -77.01624383333333, "name": "6d56770cbe2a90a216ff1ae9cf6b2ed9", "lat": 38.9030505, "fusion_lat": 0.0, "rental_uris": {"ios": "https://dc.lft.to/lastmile_qr_scan", "android": "https://dc.lft.to/lastmile_qr_scan"}, "is_disabled": 0, "type": "electric_scooter"}, {"fusion_lon": 0.0, "is_reserved": 0, "bike_id": "b5638dbb8ba278ef31cef4a4f2b55e95", "lon": -77.0630285, "name": "b5638dbb8ba278ef31cef4a4f2b55e95", "lat": 38.903986333333336, "fusion_lat": 0.0, "rental_uris": {"ios": "https://dc.lft.to/lastmile_qr_scan", "android": "https://dc.lft.to/lastmile_qr_scan"}, "is_disabled": 0, "type": "electric_scooter"}, {"fusion_lon": 0.0, "is_reserved": 0, "bike_id": "99fd44518f787bf4c9c6a1ba9d6895f7", "lon": -77.024251, "name": "99fd44518f787bf4c9c6a1ba9d6895f7", "lat": 38.8921905, "fusion_lat": 0.0, "rental_uris": {"ios": "https://dc.lft.to/lastmile_qr_scan", "android": "https://dc.lft.to/lastmile_qr_scan"}, "is_disabled": 0, "type": "electric_scooter"}, {"fusion_lon": 0.0, "is_reserved": 0, "bike_id": "9e80280b9445aceb34c1d10f199cd191", "lon": -77.12877166666667, "name": "9e80280b9445aceb34c1d10f199cd191", "lat": 38.9061355, "fusion_lat": 0.0, "rental_uris": {"ios": "https://dc.lft.to/lastmile_qr_scan", "android": "https://dc.lft.to/lastmile_qr_scan"}, "is_disabled": 0, "type": "electric_bike"}, {"fusion_lon": 0.0, "is_reserved": 0, "bike_id": "3ec53e1c36e74b6af010214a45afdeb8", "lon": -77.0136515, "name": "3ec53e1c36e74b6af010214a45afdeb8", "lat": 38.895735333333334, "fusion_lat": 0.0, "rental_uris": {"ios": "https://dc.lft.to/lastmile_qr_scan", "android": "https://dc.lft.to/lastmile_qr_scan"}, "is_disabled": 0, "type": "electric_scooter"}, {"fusion_lon": 0.0, "is_reserved": 0, "bike_id": "9ef5cbf3664b17a21d86c3d812358a5b", "lon": -77.02184033333333, "name": "9ef5cbf3664b17a21d86c3d812358a5b", "lat": 38.887069333333336, "fusion_lat": 0.0, "rental_uris": {"ios": "https://dc.lft.to/lastmile_qr_scan", "android": "https://dc.lft.to/lastmile_qr_scan"}, "is_disabled": 0, "type": "electric_scooter"}, {"fusion_lon": 0.0, "is_reserved": 0, "bike_id": "5b7887f0d0bf6d1c51654bf19565cdb3", "lon": -77.0513645, "name": "5b7887f0d0bf6d1c51654bf19565cdb3", "lat": 38.92725316666667, "fusion_lat": 0.0, "rental_uris": {"ios": "https://dc.lft.to/lastmile_qr_scan", "android": "https://dc.lft.to/lastmile_qr_scan"}, "is_disabled": 0, "type": "electric_scooter"}, {"fusion_lon": 0.0, "is_reserved": 0, "bike_id": "1853a4bccf8b9fdef2a2252421393ff6", "lon": -77.01960233333334, "name": "1853a4bccf8b9fdef2a2252421393ff6", "lat": 38.92323116666667, "fusion_lat": 0.0, "rental_uris": {"ios": "https://dc.lft.to/lastmile_qr_scan", "android": "https://dc.lft.to/lastmile_qr_scan"}, "is_disabled": 0, "type": "electric_scooter"}, {"fusion_lon": 0.0, "is_reserved": 0, "bike_id": "f5ec1c3cccffd4cda480e1668a0df2b9", "lon": -77.0387075, "name": "f5ec1c3cccffd4cda480e1668a0df2b9", "lat": 38.902712333333334, "fusion_lat": 0.0, "rental_uris": {"ios": "https://dc.lft.to/lastmile_qr_scan", "android": "https://dc.lft.to/lastmile_qr_scan"}, "is_disabled": 0, "type": "electric_scooter"}, {"fusion_lon": 0.0, "is_reserved": 0, "bike_id": "a531eac6ce5f905bbce8002ed8665ff5", "lon": -77.04653866666666, "name": "a531eac6ce5f905bbce8002ed8665ff5", "lat": 38.89393716666667, "fusion_lat": 0.0, "rental_uris": {"ios": "https://dc.lft.to/lastmile_qr_scan", "android": "https://dc.lft.to/lastmile_qr_scan"}, "is_disabled": 0, "type": "electric_scooter"}, {"fusion_lon": 0.0, "is_reserved": 0, "bike_id": "29c9af0cedc4d89177b1307468269171", "lon": -77.039934, "name": "29c9af0cedc4d89177b1307468269171", "lat": 38.9140655, "fusion_lat": 0.0, "rental_uris": {"ios": "https://dc.lft.to/lastmile_qr_scan", "android": "https://dc.lft.to/lastmile_qr_scan"}, "is_disabled": 0, "type": "electric_scooter"}, {"fusion_lon": 0.0, "is_reserved": 0, "bike_id": "dd96c6ac092ce0be4f4d8bb7075e3635", "lon": -77.02302683333333, "name": "dd96c6ac092ce0be4f4d8bb7075e3635", "lat": 38.92059783333333, "fusion_lat": 0.0, "rental_uris": {"ios": "https://dc.lft.to/lastmile_qr_scan", "android": "https://dc.lft.to/lastmile_qr_scan"}, "is_disabled": 0, "type": "electric_scooter"}, {"fusion_lon": 0.0, "is_reserved": 0, "bike_id": "905860a609d35a8bc9fb889ca4e224ab", "lon": -77.02934883333333, "name": "905860a609d35a8bc9fb889ca4e224ab", "lat": 38.89245016666667, "fusion_lat": 0.0, "rental_uris": {"ios": "https://dc.lft.to/lastmile_qr_scan", "android": "https://dc.lft.to/lastmile_qr_scan"}, "is_disabled": 0, "type": "electric_scooter"}, {"fusion_lon": 0.0, "is_reserved": 0, "bike_id": "93d38b635bb1d2e5fdd9f394f954dfcf", "lon": -76.9943975, "name": "93d38b635bb1d2e5fdd9f394f954dfcf", "lat": 38.93347116666666, "fusion_lat": 0.0, "rental_uris": {"ios": "https://dc.lft.to/lastmile_qr_scan", "android": "https://dc.lft.to/lastmile_qr_scan"}, "is_disabled": 0, "type": "electric_scooter"}, {"fusion_lon": 0.0, "is_reserved": 0, "bike_id": "bbfd057f856c18ed9d07516aa98549cc", "lon": -77.04589566666667, "name": "bbfd057f856c18ed9d07516aa98549cc", "lat": 38.914123833333335, "fusion_lat": 0.0, "rental_uris": {"ios": "https://dc.lft.to/lastmile_qr_scan", "android": "https://dc.lft.to/lastmile_qr_scan"}, "is_disabled": 0, "type": "electric_scooter"}, {"fusion_lon": 0.0, "is_reserved": 0, "bike_id": "113b75c47780025cf6b419c85013a7cb", "lon": -77.00582216666666, "name": "113b75c47780025cf6b419c85013a7cb", "lat": 38.875977166666665, "fusion_lat": 0.0, "rental_uris": {"ios": "https://dc.lft.to/lastmile_qr_scan", "android": "https://dc.lft.to/lastmile_qr_scan"}, "is_disabled": 0, "type": "electric_scooter"}, {"fusion_lon": 0.0, "is_reserved": 0, "bike_id": "77b40f34df90fbee8f364ae1026c700f", "lon": -77.0280725, "name": "77b40f34df90fbee8f364ae1026c700f", "lat": 38.89524466666667, "fusion_lat": 0.0, "rental_uris": {"ios": "https://dc.lft.to/lastmile_qr_scan", "android": "https://dc.lft.to/lastmile_qr_scan"}, "is_disabled": 0, "type": "electric_scooter"}, {"fusion_lon": 0.0, "is_reserved": 0, "bike_id": "7345ea6fa1ca215110a2f5622b32cdf0", "lon": -77.028525, "name": "7345ea6fa1ca215110a2f5622b32cdf0", "lat": 38.94264, "fusion_lat": 0.0, "rental_uris": {"ios": "https://dc.lft.to/lastmile_qr_scan", "android": "https://dc.lft.to/lastmile_qr_scan"}, "is_disabled": 0, "type": "electric_scooter"}, {"fusion_lon": 0.0, "is_reserved": 0, "bike_id": "6e0b79f780cceb3230f5cb6fd9ca9465", "lon": -77.02285616666667, "name": "6e0b79f780cceb3230f5cb6fd9ca9465", "lat": 38.916777333333336, "fusion_lat": 0.0, "rental_uris": {"ios": "https://dc.lft.to/lastmile_qr_scan", "android": "https://dc.lft.to/lastmile_qr_scan"}, "is_disabled": 0, "type": "electric_scooter"}, {"fusion_lon": 0.0, "is_reserved": 0, "bike_id": "000082180fc7e87073e9c893b2cb3234", "lon": -77.044736, "name": "000082180fc7e87073e9c893b2cb3234", "lat": 38.911995166666664, "fusion_lat": 0.0, "rental_uris": {"ios": "https://dc.lft.to/lastmile_qr_scan", "android": "https://dc.lft.to/lastmile_qr_scan"}, "is_disabled": 0, "type": "electric_scooter"}, {"fusion_lon": 0.0, "is_reserved": 0, "bike_id": "6b657de936158db722ee3f943adabc6a", "lon": -77.05043433333333, "name": "6b657de936158db722ee3f943adabc6a", "lat": 38.915765, "fusion_lat": 0.0, "rental_uris": {"ios": "https://dc.lft.to/lastmile_qr_scan", "android": "https://dc.lft.to/lastmile_qr_scan"}, "is_disabled": 0, "type": "electric_scooter"}, {"fusion_lon": 0.0, "is_reserved": 0, "bike_id": "ee9a37dace3bdc4655ecda1d9d9ba801", "lon": -77.041579, "name": "ee9a37dace3bdc4655ecda1d9d9ba801", "lat": 38.919874, "fusion_lat": 0.0, "rental_uris": {"ios": "https://dc.lft.to/lastmile_qr_scan", "android": "https://dc.lft.to/lastmile_qr_scan"}, "is_disabled": 0, "type": "electric_scooter"}, {"fusion_lon": 0.0, "is_reserved": 0, "bike_id": "15eef2022ff2a995db01bf5300a8bb99", "lon": -77.012845, "name": "15eef2022ff2a995db01bf5300a8bb99", "lat": 39.003782666666666, "fusion_lat": 0.0, "rental_uris": {"ios": "https://dc.lft.to/lastmile_qr_scan", "android": "https://dc.lft.to/lastmile_qr_scan"}, "is_disabled": 0, "type": "electric_bike"}, {"fusion_lon": 0.0, "is_reserved": 0, "bike_id": "4edeffc44a7562f728fe2e22a00ae717", "lon": -77.07962533333334, "name": "4edeffc44a7562f728fe2e22a00ae717", "lat": 38.9457325, "fusion_lat": 0.0, "rental_uris": {"ios": "https://dc.lft.to/lastmile_qr_scan", "android": "https://dc.lft.to/lastmile_qr_scan"}, "is_disabled": 0, "type": "electric_scooter"}, {"fusion_lon": 0.0, "is_reserved": 0, "bike_id": "347268591215eadd11bd31ed66c4f897", "lon": -76.99867133333333, "name": "347268591215eadd11bd31ed66c4f897", "lat": 38.83741766666667, "fusion_lat": 0.0, "rental_uris": {"ios": "https://dc.lft.to/lastmile_qr_scan", "android": "https://dc.lft.to/lastmile_qr_scan"}, "is_disabled": 0, "type": "electric_scooter"}, {"fusion_lon": 0.0, "is_reserved": 0, "bike_id": "62b5eee7165dcb51924670dacdc492a5", "lon": -77.023184, "name": "62b5eee7165dcb51924670dacdc492a5", "lat": 38.878894333333335, "fusion_lat": 0.0, "rental_uris": {"ios": "https://dc.lft.to/lastmile_qr_scan", "android": "https://dc.lft.to/lastmile_qr_scan"}, "is_disabled": 0, "type": "electric_scooter"}, {"fusion_lon": 0.0, "is_reserved": 0, "bike_id": "a1fc534c9842f111b31623d5e2a82dbe", "lon": -77.0746845, "name": "a1fc534c9842f111b31623d5e2a82dbe", "lat": 38.912563166666665, "fusion_lat": 0.0, "rental_uris": {"ios": "https://dc.lft.to/lastmile_qr_scan", "android": "https://dc.lft.to/lastmile_qr_scan"}, "is_disabled": 0, "type": "electric_scooter"}, {"fusion_lon": 0.0, "is_reserved": 0, "bike_id": "cdfc542f35e4b7429b8021a90510a094", "lon": -77.022717, "name": "cdfc542f35e4b7429b8021a90510a094", "lat": 38.918346666666665, "fusion_lat": 0.0, "rental_uris": {"ios": "https://dc.lft.to/lastmile_qr_scan", "android": "https://dc.lft.to/lastmile_qr_scan"}, "is_disabled": 0, "type": "electric_scooter"}, {"fusion_lon": 0.0, "is_reserved": 0, "bike_id": "f589ecbe749b62b099b7c550c313372a", "lon": -77.0200055, "name": "f589ecbe749b62b099b7c550c313372a", "lat": 38.895168166666664, "fusion_lat": 0.0, "rental_uris": {"ios": "https://dc.lft.to/lastmile_qr_scan", "android": "https://dc.lft.to/lastmile_qr_scan"}, "is_disabled": 0, "type": "electric_scooter"}, {"fusion_lon": 0.0, "is_reserved": 0, "bike_id": "11b48299b51ee26b50e84053cf95fe33", "lon": -76.97577283333334, "name": "11b48299b51ee26b50e84053cf95fe33", "lat": 38.903419, "fusion_lat": 0.0, "rental_uris": {"ios": "https://dc.lft.to/lastmile_qr_scan", "android": "https://dc.lft.to/lastmile_qr_scan"}, "is_disabled": 0, "type": "electric_scooter"}, {"fusion_lon": 0.0, "is_reserved": 0, "bike_id": "19b96888a3814673e78ccfed7f85f2a6", "lon": -76.94894566666666, "name": "19b96888a3814673e78ccfed7f85f2a6", "lat": 38.894912833333336, "fusion_lat": 0.0, "rental_uris": {"ios": "https://dc.lft.to/lastmile_qr_scan", "android": "https://dc.lft.to/lastmile_qr_scan"}, "is_disabled": 0, "type": "electric_scooter"}, {"fusion_lon": 0.0, "is_reserved": 0, "bike_id": "03d66f3e1d8f848a7f9613011aa89f21", "lon": -77.029743, "name": "03d66f3e1d8f848a7f9613011aa89f21", "lat": 38.916806333333334, "fusion_lat": 0.0, "rental_uris": {"ios": "https://dc.lft.to/lastmile_qr_scan", "android": "https://dc.lft.to/lastmile_qr_scan"}, "is_disabled": 0, "type": "electric_scooter"}, {"fusion_lon": 0.0, "is_reserved": 0, "bike_id": "342d11372fe64e8b6112285006d389cf", "lon": -77.02979183333333, "name": "342d11372fe64e8b6112285006d389cf", "lat": 38.92365683333333, "fusion_lat": 0.0, "rental_uris": {"ios": "https://dc.lft.to/lastmile_qr_scan", "android": "https://dc.lft.to/lastmile_qr_scan"}, "is_disabled": 0, "type": "electric_scooter"}, {"fusion_lon": 0.0, "is_reserved": 0, "bike_id": "836d7e4af9d8590d02113629c8650073", "lon": -77.02639983333333, "name": "836d7e4af9d8590d02113629c8650073", "lat": 38.892235166666666, "fusion_lat": 0.0, "rental_uris": {"ios": "https://dc.lft.to/lastmile_qr_scan", "android": "https://dc.lft.to/lastmile_qr_scan"}, "is_disabled": 0, "type": "electric_scooter"}, {"fusion_lon": 0.0, "is_reserved": 0, "bike_id": "131bd9032e87dfbe7959b11620c52ab2", "lon": -77.034322, "name": "131bd9032e87dfbe7959b11620c52ab2", "lat": 38.93972083333333, "fusion_lat": 0.0, "rental_uris": {"ios": "https://dc.lft.to/lastmile_qr_scan", "android": "https://dc.lft.to/lastmile_qr_scan"}, "is_disabled": 0, "type": "electric_scooter"}, {"fusion_lon": 0.0, "is_reserved": 0, "bike_id": "02d1c1c7d3b9b2cd12183d31c4f99d9b", "lon": -76.997024, "name": "02d1c1c7d3b9b2cd12183d31c4f99d9b", "lat": 38.88426533333333, "fusion_lat": 0.0, "rental_uris": {"ios": "https://dc.lft.to/lastmile_qr_scan", "android": "https://dc.lft.to/lastmile_qr_scan"}, "is_disabled": 0, "type": "electric_scooter"}, {"fusion_lon": 0.0, "is_reserved": 0, "bike_id": "927dd905c6e5f82546facdbb824a40df", "lon": -76.984906, "name": "927dd905c6e5f82546facdbb824a40df", "lat": 38.9199835, "fusion_lat": 0.0, "rental_uris": {"ios": "https://dc.lft.to/lastmile_qr_scan", "android": "https://dc.lft.to/lastmile_qr_scan"}, "is_disabled": 0, "type": "electric_scooter"}, {"fusion_lon": 0.0, "is_reserved": 0, "bike_id": "f53557a49960f0dcf93a1f694b37d6f3", "lon": -77.03866216666667, "name": "f53557a49960f0dcf93a1f694b37d6f3", "lat": 38.9126295, "fusion_lat": 0.0, "rental_uris": {"ios": "https://dc.lft.to/lastmile_qr_scan", "android": "https://dc.lft.to/lastmile_qr_scan"}, "is_disabled": 0, "type": "electric_scooter"}, {"fusion_lon": 0.0, "is_reserved": 0, "bike_id": "5f24d6f26bc5f00d6f8a643c202b2bfd", "lon": -77.043538, "name": "5f24d6f26bc5f00d6f8a643c202b2bfd", "lat": 38.90840016666667, "fusion_lat": 0.0, "rental_uris": {"ios": "https://dc.lft.to/lastmile_qr_scan", "android": "https://dc.lft.to/lastmile_qr_scan"}, "is_disabled": 0, "type": "electric_scooter"}, {"fusion_lon": 0.0, "is_reserved": 0, "bike_id": "a20fbcdce96c59415f8321e688c0e2c1", "lon": -77.02052733333333, "name": "a20fbcdce96c59415f8321e688c0e2c1", "lat": 38.913452166666666, "fusion_lat": 0.0, "rental_uris": {"ios": "https://dc.lft.to/lastmile_qr_scan", "android": "https://dc.lft.to/lastmile_qr_scan"}, "is_disabled": 0, "type": "electric_scooter"}, {"fusion_lon": 0.0, "is_reserved": 0, "bike_id": "f6c88055f4656ff4ed8ec73a8d9c81bb", "lon": -76.98932016666667, "name": "f6c88055f4656ff4ed8ec73a8d9c81bb", "lat": 38.85888466666667, "fusion_lat": 0.0, "rental_uris": {"ios": "https://dc.lft.to/lastmile_qr_scan", "android": "https://dc.lft.to/lastmile_qr_scan"}, "is_disabled": 0, "type": "electric_scooter"}, {"fusion_lon": 0.0, "is_reserved": 0, "bike_id": "c8647226726c623e262cd8ae87eef8e9", "lon": -77.07647766666666, "name": "c8647226726c623e262cd8ae87eef8e9", "lat": 38.90867866666667, "fusion_lat": 0.0, "rental_uris": {"ios": "https://dc.lft.to/lastmile_qr_scan", "android": "https://dc.lft.to/lastmile_qr_scan"}, "is_disabled": 0, "type": "electric_scooter"}, {"fusion_lon": 0.0, "is_reserved": 0, "bike_id": "7712e6e372382cd44ebf0fd472785166", "lon": -77.02033533333334, "name": "7712e6e372382cd44ebf0fd472785166", "lat": 38.924218, "fusion_lat": 0.0, "rental_uris": {"ios": "https://dc.lft.to/lastmile_qr_scan", "android": "https://dc.lft.to/lastmile_qr_scan"}, "is_disabled": 0, "type": "electric_scooter"}, {"fusion_lon": 0.0, "is_reserved": 0, "bike_id": "b5765c4942f77f9c8b40ae62d9698f20", "lon": -77.00195483333333, "name": "b5765c4942f77f9c8b40ae62d9698f20", "lat": 38.88650966666667, "fusion_lat": 0.0, "rental_uris": {"ios": "https://dc.lft.to/lastmile_qr_scan", "android": "https://dc.lft.to/lastmile_qr_scan"}, "is_disabled": 0, "type": "electric_scooter"}, {"fusion_lon": 0.0, "is_reserved": 0, "bike_id": "008566471d340b66095b0e44ac5edba1", "lon": -77.0169575, "name": "008566471d340b66095b0e44ac5edba1", "lat": 38.906457333333336, "fusion_lat": 0.0, "rental_uris": {"ios": "https://dc.lft.to/lastmile_qr_scan", "android": "https://dc.lft.to/lastmile_qr_scan"}, "is_disabled": 0, "type": "electric_scooter"}, {"fusion_lon": 0.0, "is_reserved": 0, "bike_id": "074422a120cb93fd21cd64a0654c3214", "lon": -77.021169, "name": "074422a120cb93fd21cd64a0654c3214", "lat": 38.92236666666667, "fusion_lat": 0.0, "rental_uris": {"ios": "https://dc.lft.to/lastmile_qr_scan", "android": "https://dc.lft.to/lastmile_qr_scan"}, "is_disabled": 0, "type": "electric_scooter"}, {"fusion_lon": 0.0, "is_reserved": 0, "bike_id": "66b6675b3ff3f7963c1efb4d30832117", "lon": -77.03541616666666, "name": "66b6675b3ff3f7963c1efb4d30832117", "lat": 38.931764, "fusion_lat": 0.0, "rental_uris": {"ios": "https://dc.lft.to/lastmile_qr_scan", "android": "https://dc.lft.to/lastmile_qr_scan"}, "is_disabled": 0, "type": "electric_bike"}, {"fusion_lon": 0.0, "is_reserved": 0, "bike_id": "cec8179565cf6aa12efab07676f1fc92", "lon": -76.99742, "name": "cec8179565cf6aa12efab07676f1fc92", "lat": 39.0423635, "fusion_lat": 0.0, "rental_uris": {"ios": "https://dc.lft.to/lastmile_qr_scan", "android": "https://dc.lft.to/lastmile_qr_scan"}, "is_disabled": 0, "type": "electric_bike"}, {"fusion_lon": 0.0, "is_reserved": 0, "bike_id": "266762ce173d54c6d618744d157e8b7f", "lon": -77.00069016666667, "name": "266762ce173d54c6d618744d157e8b7f", "lat": 38.923893666666665, "fusion_lat": 0.0, "rental_uris": {"ios": "https://dc.lft.to/lastmile_qr_scan", "android": "https://dc.lft.to/lastmile_qr_scan"}, "is_disabled": 0, "type": "electric_scooter"}, {"fusion_lon": 0.0, "is_reserved": 0, "bike_id": "4aaa83a8b1c119d57cab00a499c27d98", "lon": -77.06874966666666, "name": "4aaa83a8b1c119d57cab00a499c27d98", "lat": 38.905053333333335, "fusion_lat": 0.0, "rental_uris": {"ios": "https://dc.lft.to/lastmile_qr_scan", "android": "https://dc.lft.to/lastmile_qr_scan"}, "is_disabled": 0, "type": "electric_scooter"}, {"fusion_lon": 0.0, "is_reserved": 0, "bike_id": "51709c6283d919dd46feeaea14f93ad7", "lon": -77.0181825, "name": "51709c6283d919dd46feeaea14f93ad7", "lat": 38.914067, "fusion_lat": 0.0, "rental_uris": {"ios": "https://dc.lft.to/lastmile_qr_scan", "android": "https://dc.lft.to/lastmile_qr_scan"}, "is_disabled": 0, "type": "electric_scooter"}, {"fusion_lon": 0.0, "is_reserved": 0, "bike_id": "7b7ae25b51599a406b20912c0b10faa8", "lon": -77.01028866666667, "name": "7b7ae25b51599a406b20912c0b10faa8", "lat": 38.91652166666667, "fusion_lat": 0.0, "rental_uris": {"ios": "https://dc.lft.to/lastmile_qr_scan", "android": "https://dc.lft.to/lastmile_qr_scan"}, "is_disabled": 0, "type": "electric_scooter"}, {"fusion_lon": 0.0, "is_reserved": 0, "bike_id": "c5bbc269476388f353cedede1e934773", "lon": -77.02412633333333, "name": "c5bbc269476388f353cedede1e934773", "lat": 38.908588333333334, "fusion_lat": 0.0, "rental_uris": {"ios": "https://dc.lft.to/lastmile_qr_scan", "android": "https://dc.lft.to/lastmile_qr_scan"}, "is_disabled": 0, "type": "electric_scooter"}, {"fusion_lon": 0.0, "is_reserved": 0, "bike_id": "0688b923b9417e25fb2b4118a93a85ac", "lon": -77.00273533333333, "name": "0688b923b9417e25fb2b4118a93a85ac", "lat": 38.8852525, "fusion_lat": 0.0, "rental_uris": {"ios": "https://dc.lft.to/lastmile_qr_scan", "android": "https://dc.lft.to/lastmile_qr_scan"}, "is_disabled": 0, "type": "electric_scooter"}, {"fusion_lon": 0.0, "is_reserved": 0, "bike_id": "9d4214e185783f09346026ff6a00cd53", "lon": -77.03864383333334, "name": "9d4214e185783f09346026ff6a00cd53", "lat": 38.917079333333334, "fusion_lat": 0.0, "rental_uris": {"ios": "https://dc.lft.to/lastmile_qr_scan", "android": "https://dc.lft.to/lastmile_qr_scan"}, "is_disabled": 0, "type": "electric_scooter"}, {"fusion_lon": 0.0, "is_reserved": 0, "bike_id": "605bb9f2d7c02e63662de9206b832f49", "lon": -77.02651633333333, "name": "605bb9f2d7c02e63662de9206b832f49", "lat": 38.93867516666667, "fusion_lat": 0.0, "rental_uris": {"ios": "https://dc.lft.to/lastmile_qr_scan", "android": "https://dc.lft.to/lastmile_qr_scan"}, "is_disabled": 0, "type": "electric_scooter"}, {"fusion_lon": 0.0, "is_reserved": 0, "bike_id": "a0b4ce1fadd5d5d3011ba192db8a9416", "lon": -76.98883216666667, "name": "a0b4ce1fadd5d5d3011ba192db8a9416", "lat": 38.92117616666667, "fusion_lat": 0.0, "rental_uris": {"ios": "https://dc.lft.to/lastmile_qr_scan", "android": "https://dc.lft.to/lastmile_qr_scan"}, "is_disabled": 0, "type": "electric_bike"}, {"fusion_lon": 0.0, "is_reserved": 0, "bike_id": "cf7011175717a47c17269653a02a59a6", "lon": -77.02187233333333, "name": "cf7011175717a47c17269653a02a59a6", "lat": 38.89625866666667, "fusion_lat": 0.0, "rental_uris": {"ios": "https://dc.lft.to/lastmile_qr_scan", "android": "https://dc.lft.to/lastmile_qr_scan"}, "is_disabled": 0, "type": "electric_scooter"}, {"fusion_lon": 0.0, "is_reserved": 0, "bike_id": "3187eeef33dce240b70c2e8a48794140", "lon": -76.97390366666667, "name": "3187eeef33dce240b70c2e8a48794140", "lat": 38.903865833333334, "fusion_lat": 0.0, "rental_uris": {"ios": "https://dc.lft.to/lastmile_qr_scan", "android": "https://dc.lft.to/lastmile_qr_scan"}, "is_disabled": 0, "type": "electric_scooter"}, {"fusion_lon": 0.0, "is_reserved": 0, "bike_id": "ef3b6c0944a4220afc4cd880d7bdaad3", "lon": -76.99667833333334, "name": "ef3b6c0944a4220afc4cd880d7bdaad3", "lat": 38.8786225, "fusion_lat": 0.0, "rental_uris": {"ios": "https://dc.lft.to/lastmile_qr_scan", "android": "https://dc.lft.to/lastmile_qr_scan"}, "is_disabled": 0, "type": "electric_scooter"}, {"fusion_lon": 0.0, "is_reserved": 0, "bike_id": "98e9f282bc70615a47a246c04e07bc72", "lon": -76.98624666666667, "name": "98e9f282bc70615a47a246c04e07bc72", "lat": 38.85460583333333, "fusion_lat": 0.0, "rental_uris": {"ios": "https://dc.lft.to/lastmile_qr_scan", "android": "https://dc.lft.to/lastmile_qr_scan"}, "is_disabled": 0, "type": "electric_bike"}, {"fusion_lon": 0.0, "is_reserved": 0, "bike_id": "6677d1c68232f304ace19ec5fc1026db", "lon": -77.01592316666667, "name": "6677d1c68232f304ace19ec5fc1026db", "lat": 38.930154333333334, "fusion_lat": 0.0, "rental_uris": {"ios": "https://dc.lft.to/lastmile_qr_scan", "android": "https://dc.lft.to/lastmile_qr_scan"}, "is_disabled": 0, "type": "electric_scooter"}, {"fusion_lon": 0.0, "is_reserved": 0, "bike_id": "e892d8becd3d9467078bad2986607ff6", "lon": -77.02654166666666, "name": "e892d8becd3d9467078bad2986607ff6", "lat": 38.89469483333333, "fusion_lat": 0.0, "rental_uris": {"ios": "https://dc.lft.to/lastmile_qr_scan", "android": "https://dc.lft.to/lastmile_qr_scan"}, "is_disabled": 0, "type": "electric_scooter"}, {"fusion_lon": 0.0, "is_reserved": 0, "bike_id": "3be93f1cdf8a317a1455bc28bab21756", "lon": -76.98311816666667, "name": "3be93f1cdf8a317a1455bc28bab21756", "lat": 38.925555333333335, "fusion_lat": 0.0, "rental_uris": {"ios": "https://dc.lft.to/lastmile_qr_scan", "android": "https://dc.lft.to/lastmile_qr_scan"}, "is_disabled": 0, "type": "electric_scooter"}, {"fusion_lon": 0.0, "is_reserved": 0, "bike_id": "6203985abcfb374f51906ac304f495e8", "lon": -76.97075466666666, "name": "6203985abcfb374f51906ac304f495e8", "lat": 38.84646433333333, "fusion_lat": 0.0, "rental_uris": {"ios": "https://dc.lft.to/lastmile_qr_scan", "android": "https://dc.lft.to/lastmile_qr_scan"}, "is_disabled": 0, "type": "electric_bike"}, {"fusion_lon": 0.0, "is_reserved": 0, "bike_id": "732ae4bb4899be3d67844d8c67dd501d", "lon": -77.02296883333334, "name": "732ae4bb4899be3d67844d8c67dd501d", "lat": 38.918356333333335, "fusion_lat": 0.0, "rental_uris": {"ios": "https://dc.lft.to/lastmile_qr_scan", "android": "https://dc.lft.to/lastmile_qr_scan"}, "is_disabled": 0, "type": "electric_scooter"}, {"fusion_lon": 0.0, "is_reserved": 0, "bike_id": "7b5d320a033d0554e4812599501ee65a", "lon": -76.98474766666666, "name": "7b5d320a033d0554e4812599501ee65a", "lat": 38.90253383333334, "fusion_lat": 0.0, "rental_uris": {"ios": "https://dc.lft.to/lastmile_qr_scan", "android": "https://dc.lft.to/lastmile_qr_scan"}, "is_disabled": 0, "type": "electric_scooter"}, {"fusion_lon": 0.0, "is_reserved": 0, "bike_id": "689914b4aa701b73ab6c3c1b5d4a5896", "lon": -77.006682, "name": "689914b4aa701b73ab6c3c1b5d4a5896", "lat": 38.87185216666666, "fusion_lat": 0.0, "rental_uris": {"ios": "https://dc.lft.to/lastmile_qr_scan", "android": "https://dc.lft.to/lastmile_qr_scan"}, "is_disabled": 0, "type": "electric_scooter"}, {"fusion_lon": 0.0, "is_reserved": 0, "bike_id": "993c7e3ce2cc88202ea4aeeb9319d79e", "lon": -77.02320033333334, "name": "993c7e3ce2cc88202ea4aeeb9319d79e", "lat": 38.917834, "fusion_lat": 0.0, "rental_uris": {"ios": "https://dc.lft.to/lastmile_qr_scan", "android": "https://dc.lft.to/lastmile_qr_scan"}, "is_disabled": 0, "type": "electric_scooter"}, {"fusion_lon": 0.0, "is_reserved": 0, "bike_id": "cf1640875dc067c16b23b060eebb2039", "lon": -77.03866016666667, "name": "cf1640875dc067c16b23b060eebb2039", "lat": 38.91117766666667, "fusion_lat": 0.0, "rental_uris": {"ios": "https://dc.lft.to/lastmile_qr_scan", "android": "https://dc.lft.to/lastmile_qr_scan"}, "is_disabled": 0, "type": "electric_scooter"}, {"fusion_lon": 0.0, "is_reserved": 0, "bike_id": "94b122ab81f8b0fe18849af2de55df95", "lon": -77.00575683333334, "name": "94b122ab81f8b0fe18849af2de55df95", "lat": 38.87664133333333, "fusion_lat": 0.0, "rental_uris": {"ios": "https://dc.lft.to/lastmile_qr_scan", "android": "https://dc.lft.to/lastmile_qr_scan"}, "is_disabled": 0, "type": "electric_scooter"}, {"fusion_lon": 0.0, "is_reserved": 0, "bike_id": "8bc55acf7dfc99e6b44b1259e887fe7b", "lon": -77.02660383333334, "name": "8bc55acf7dfc99e6b44b1259e887fe7b", "lat": 38.923894, "fusion_lat": 0.0, "rental_uris": {"ios": "https://dc.lft.to/lastmile_qr_scan", "android": "https://dc.lft.to/lastmile_qr_scan"}, "is_disabled": 0, "type": "electric_scooter"}, {"fusion_lon": 0.0, "is_reserved": 0, "bike_id": "b90c0e22f15fb7d15c26a9aca26bd09e", "lon": -77.02146516666667, "name": "b90c0e22f15fb7d15c26a9aca26bd09e", "lat": 38.925986333333334, "fusion_lat": 0.0, "rental_uris": {"ios": "https://dc.lft.to/lastmile_qr_scan", "android": "https://dc.lft.to/lastmile_qr_scan"}, "is_disabled": 0, "type": "electric_scooter"}, {"fusion_lon": 0.0, "is_reserved": 0, "bike_id": "80c1ea5c2a4003d4debf02dfaa864cbd", "lon": -76.95747983333334, "name": "80c1ea5c2a4003d4debf02dfaa864cbd", "lat": 38.88435416666667, "fusion_lat": 0.0, "rental_uris": {"ios": "https://dc.lft.to/lastmile_qr_scan", "android": "https://dc.lft.to/lastmile_qr_scan"}, "is_disabled": 0, "type": "electric_scooter"}, {"fusion_lon": 0.0, "is_reserved": 0, "bike_id": "328f06792d7df5c5d22c592e587f65a8", "lon": -76.99791416666666, "name": "328f06792d7df5c5d22c592e587f65a8", "lat": 38.94827733333333, "fusion_lat": 0.0, "rental_uris": {"ios": "https://dc.lft.to/lastmile_qr_scan", "android": "https://dc.lft.to/lastmile_qr_scan"}, "is_disabled": 0, "type": "electric_scooter"}, {"fusion_lon": 0.0, "is_reserved": 0, "bike_id": "44f3c2a11382193cfb77310b98f4f39e", "lon": -77.038553, "name": "44f3c2a11382193cfb77310b98f4f39e", "lat": 38.902740666666666, "fusion_lat": 0.0, "rental_uris": {"ios": "https://dc.lft.to/lastmile_qr_scan", "android": "https://dc.lft.to/lastmile_qr_scan"}, "is_disabled": 0, "type": "electric_scooter"}, {"fusion_lon": 0.0, "is_reserved": 0, "bike_id": "46bd0f37bf35646a8049c1493aa68634", "lon": -77.04730533333333, "name": "46bd0f37bf35646a8049c1493aa68634", "lat": 38.89978683333333, "fusion_lat": 0.0, "rental_uris": {"ios": "https://dc.lft.to/lastmile_qr_scan", "android": "https://dc.lft.to/lastmile_qr_scan"}, "is_disabled": 0, "type": "electric_scooter"}, {"fusion_lon": 0.0, "is_reserved": 0, "bike_id": "191c603176f7567de05c9c45efbbc2b8", "lon": -77.01787883333333, "name": "191c603176f7567de05c9c45efbbc2b8", "lat": 38.90273716666667, "fusion_lat": 0.0, "rental_uris": {"ios": "https://dc.lft.to/lastmile_qr_scan", "android": "https://dc.lft.to/lastmile_qr_scan"}, "is_disabled": 0, "type": "electric_scooter"}, {"fusion_lon": 0.0, "is_reserved": 0, "bike_id": "24c70199af8e1f4fa680072b08c48d39", "lon": -76.99259833333333, "name": "24c70199af8e1f4fa680072b08c48d39", "lat": 38.80733166666667, "fusion_lat": 0.0, "rental_uris": {"ios": "https://dc.lft.to/lastmile_qr_scan", "android": "https://dc.lft.to/lastmile_qr_scan"}, "is_disabled": 0, "type": "electric_bike"}, {"fusion_lon": 0.0, "is_reserved": 0, "bike_id": "fa8ba0eb9040a2a9158d91a8f85a964a", "lon": -77.02967133333334, "name": "fa8ba0eb9040a2a9158d91a8f85a964a", "lat": 38.92687633333333, "fusion_lat": 0.0, "rental_uris": {"ios": "https://dc.lft.to/lastmile_qr_scan", "android": "https://dc.lft.to/lastmile_qr_scan"}, "is_disabled": 0, "type": "electric_scooter"}, {"fusion_lon": 0.0, "is_reserved": 0, "bike_id": "7e6dd30c5328c3852622268f3dfdc93d", "lon": -77.04366633333333, "name": "7e6dd30c5328c3852622268f3dfdc93d", "lat": 38.8922315, "fusion_lat": 0.0, "rental_uris": {"ios": "https://dc.lft.to/lastmile_qr_scan", "android": "https://dc.lft.to/lastmile_qr_scan"}, "is_disabled": 0, "type": "electric_scooter"}, {"fusion_lon": 0.0, "is_reserved": 0, "bike_id": "b958de621ee8a5773edbdfd3a6caa4fc", "lon": -77.0404445, "name": "b958de621ee8a5773edbdfd3a6caa4fc", "lat": 38.90455633333333, "fusion_lat": 0.0, "rental_uris": {"ios": "https://dc.lft.to/lastmile_qr_scan", "android": "https://dc.lft.to/lastmile_qr_scan"}, "is_disabled": 0, "type": "electric_scooter"}, {"fusion_lon": 0.0, "is_reserved": 0, "bike_id": "db6e4c6c3b8efdff4f05691c8a67257b", "lon": -77.024894, "name": "db6e4c6c3b8efdff4f05691c8a67257b", "lat": 38.91951783333333, "fusion_lat": 0.0, "rental_uris": {"ios": "https://dc.lft.to/lastmile_qr_scan", "android": "https://dc.lft.to/lastmile_qr_scan"}, "is_disabled": 0, "type": "electric_scooter"}, {"fusion_lon": 0.0, "is_reserved": 0, "bike_id": "f56b6b204160c80f83c9e960cc9f6244", "lon": -77.00042933333333, "name": "f56b6b204160c80f83c9e960cc9f6244", "lat": 38.87452583333334, "fusion_lat": 0.0, "rental_uris": {"ios": "https://dc.lft.to/lastmile_qr_scan", "android": "https://dc.lft.to/lastmile_qr_scan"}, "is_disabled": 0, "type": "electric_scooter"}, {"fusion_lon": 0.0, "is_reserved": 0, "bike_id": "8c14bcd225fef447ce312bba00723de8", "lon": -77.063296, "name": "8c14bcd225fef447ce312bba00723de8", "lat": 38.9441305, "fusion_lat": 0.0, "rental_uris": {"ios": "https://dc.lft.to/lastmile_qr_scan", "android": "https://dc.lft.to/lastmile_qr_scan"}, "is_disabled": 0, "type": "electric_scooter"}, {"fusion_lon": 0.0, "is_reserved": 0, "bike_id": "eebdd87a2c4c1d0ec256117fe4273978", "lon": -77.021545, "name": "eebdd87a2c4c1d0ec256117fe4273978", "lat": 38.92555316666667, "fusion_lat": 0.0, "rental_uris": {"ios": "https://dc.lft.to/lastmile_qr_scan", "android": "https://dc.lft.to/lastmile_qr_scan"}, "is_disabled": 0, "type": "electric_scooter"}, {"fusion_lon": 0.0, "is_reserved": 0, "bike_id": "1c38f380db02a5241ea67a6180715208", "lon": -77.02170633333333, "name": "1c38f380db02a5241ea67a6180715208", "lat": 38.9261585, "fusion_lat": 0.0, "rental_uris": {"ios": "https://dc.lft.to/lastmile_qr_scan", "android": "https://dc.lft.to/lastmile_qr_scan"}, "is_disabled": 0, "type": "electric_scooter"}, {"fusion_lon": 0.0, "is_reserved": 0, "bike_id": "8f094cf42fddecd72ccbee4550cd6846", "lon": -77.00125816666667, "name": "8f094cf42fddecd72ccbee4550cd6846", "lat": 38.90481366666667, "fusion_lat": 0.0, "rental_uris": {"ios": "https://dc.lft.to/lastmile_qr_scan", "android": "https://dc.lft.to/lastmile_qr_scan"}, "is_disabled": 0, "type": "electric_scooter"}, {"fusion_lon": 0.0, "is_reserved": 0, "bike_id": "84ec19315642630893e6a0ad2c17397c", "lon": -77.0034775, "name": "84ec19315642630893e6a0ad2c17397c", "lat": 38.893769666666664, "fusion_lat": 0.0, "rental_uris": {"ios": "https://dc.lft.to/lastmile_qr_scan", "android": "https://dc.lft.to/lastmile_qr_scan"}, "is_disabled": 0, "type": "electric_scooter"}, {"fusion_lon": 0.0, "is_reserved": 0, "bike_id": "c6e48cc14280ae59506ab5e50dde9e14", "lon": -76.9373845, "name": "c6e48cc14280ae59506ab5e50dde9e14", "lat": 38.890152666666665, "fusion_lat": 0.0, "rental_uris": {"ios": "https://dc.lft.to/lastmile_qr_scan", "android": "https://dc.lft.to/lastmile_qr_scan"}, "is_disabled": 0, "type": "electric_scooter"}, {"fusion_lon": 0.0, "is_reserved": 0, "bike_id": "96eaf38bbb7042f693b46bb956d315ff", "lon": -77.03208683333334, "name": "96eaf38bbb7042f693b46bb956d315ff", "lat": 38.915728666666666, "fusion_lat": 0.0, "rental_uris": {"ios": "https://dc.lft.to/lastmile_qr_scan", "android": "https://dc.lft.to/lastmile_qr_scan"}, "is_disabled": 0, "type": "electric_scooter"}, {"fusion_lon": 0.0, "is_reserved": 0, "bike_id": "629f033019901db6f0259c72820890c6", "lon": -77.03322383333334, "name": "629f033019901db6f0259c72820890c6", "lat": 38.9216005, "fusion_lat": 0.0, "rental_uris": {"ios": "https://dc.lft.to/lastmile_qr_scan", "android": "https://dc.lft.to/lastmile_qr_scan"}, "is_disabled": 0, "type": "electric_scooter"}, {"fusion_lon": 0.0, "is_reserved": 0, "bike_id": "85cf84b3d8866b2eca8577c3cfa52070", "lon": -77.02784933333334, "name": "85cf84b3d8866b2eca8577c3cfa52070", "lat": 38.942905833333334, "fusion_lat": 0.0, "rental_uris": {"ios": "https://dc.lft.to/lastmile_qr_scan", "android": "https://dc.lft.to/lastmile_qr_scan"}, "is_disabled": 0, "type": "electric_scooter"}, {"fusion_lon": 0.0, "is_reserved": 0, "bike_id": "9d52ac90a0f0353f94e5e37c7017faa3", "lon": -77.04060166666666, "name": "9d52ac90a0f0353f94e5e37c7017faa3", "lat": 38.907397833333334, "fusion_lat": 0.0, "rental_uris": {"ios": "https://dc.lft.to/lastmile_qr_scan", "android": "https://dc.lft.to/lastmile_qr_scan"}, "is_disabled": 0, "type": "electric_scooter"}, {"fusion_lon": 0.0, "is_reserved": 0, "bike_id": "922c0e6d3b45600f89ccb450b57108aa", "lon": -77.04456716666667, "name": "922c0e6d3b45600f89ccb450b57108aa", "lat": 38.91024183333333, "fusion_lat": 0.0, "rental_uris": {"ios": "https://dc.lft.to/lastmile_qr_scan", "android": "https://dc.lft.to/lastmile_qr_scan"}, "is_disabled": 0, "type": "electric_scooter"}, {"fusion_lon": 0.0, "is_reserved": 0, "bike_id": "6029e3b9136ba590f281d97c264d0d42", "lon": -77.024028, "name": "6029e3b9136ba590f281d97c264d0d42", "lat": 38.933758833333336, "fusion_lat": 0.0, "rental_uris": {"ios": "https://dc.lft.to/lastmile_qr_scan", "android": "https://dc.lft.to/lastmile_qr_scan"}, "is_disabled": 0, "type": "electric_scooter"}, {"fusion_lon": 0.0, "is_reserved": 0, "bike_id": "ab011181ae4155195157ccdbabcb79bd", "lon": -77.05328133333333, "name": "ab011181ae4155195157ccdbabcb79bd", "lat": 38.903989333333335, "fusion_lat": 0.0, "rental_uris": {"ios": "https://dc.lft.to/lastmile_qr_scan", "android": "https://dc.lft.to/lastmile_qr_scan"}, "is_disabled": 0, "type": "electric_scooter"}, {"fusion_lon": 0.0, "is_reserved": 0, "bike_id": "9da8466a48e1656637644e06464d32f5", "lon": -77.04879616666666, "name": "9da8466a48e1656637644e06464d32f5", "lat": 38.899239666666666, "fusion_lat": 0.0, "rental_uris": {"ios": "https://dc.lft.to/lastmile_qr_scan", "android": "https://dc.lft.to/lastmile_qr_scan"}, "is_disabled": 0, "type": "electric_scooter"}, {"fusion_lon": 0.0, "is_reserved": 0, "bike_id": "3b2cd1228313b06eb6c1e66fc1f977a1", "lon": -77.0215855, "name": "3b2cd1228313b06eb6c1e66fc1f977a1", "lat": 38.924679833333336, "fusion_lat": 0.0, "rental_uris": {"ios": "https://dc.lft.to/lastmile_qr_scan", "android": "https://dc.lft.to/lastmile_qr_scan"}, "is_disabled": 0, "type": "electric_scooter"}, {"fusion_lon": 0.0, "is_reserved": 0, "bike_id": "dabc9e16ea1b582afddd2a785d4cf1af", "lon": -77.02121466666667, "name": "dabc9e16ea1b582afddd2a785d4cf1af", "lat": 38.922394833333335, "fusion_lat": 0.0, "rental_uris": {"ios": "https://dc.lft.to/lastmile_qr_scan", "android": "https://dc.lft.to/lastmile_qr_scan"}, "is_disabled": 0, "type": "electric_scooter"}, {"fusion_lon": 0.0, "is_reserved": 0, "bike_id": "5d4d5d671ae4926ccccd77d73cae5c05", "lon": -77.05699983333334, "name": "5d4d5d671ae4926ccccd77d73cae5c05", "lat": 38.93143383333334, "fusion_lat": 0.0, "rental_uris": {"ios": "https://dc.lft.to/lastmile_qr_scan", "android": "https://dc.lft.to/lastmile_qr_scan"}, "is_disabled": 0, "type": "electric_scooter"}, {"fusion_lon": 0.0, "is_reserved": 0, "bike_id": "d39241494413edd960d919fd2482223e", "lon": -77.022877, "name": "d39241494413edd960d919fd2482223e", "lat": 38.918441333333334, "fusion_lat": 0.0, "rental_uris": {"ios": "https://dc.lft.to/lastmile_qr_scan", "android": "https://dc.lft.to/lastmile_qr_scan"}, "is_disabled": 0, "type": "electric_scooter"}, {"fusion_lon": 0.0, "is_reserved": 0, "bike_id": "52276b494c1690940121b02c8038d9f7", "lon": -76.98201666666667, "name": "52276b494c1690940121b02c8038d9f7", "lat": 38.9261425, "fusion_lat": 0.0, "rental_uris": {"ios": "https://dc.lft.to/lastmile_qr_scan", "android": "https://dc.lft.to/lastmile_qr_scan"}, "is_disabled": 0, "type": "electric_scooter"}, {"fusion_lon": 0.0, "is_reserved": 0, "bike_id": "fde6b8586f5572ec714968aeca29e100", "lon": -77.043706, "name": "fde6b8586f5572ec714968aeca29e100", "lat": 38.9042065, "fusion_lat": 0.0, "rental_uris": {"ios": "https://dc.lft.to/lastmile_qr_scan", "android": "https://dc.lft.to/lastmile_qr_scan"}, "is_disabled": 0, "type": "electric_scooter"}, {"fusion_lon": 0.0, "is_reserved": 0, "bike_id": "e07b24b9d50341af87292011d155488a", "lon": -77.01793183333334, "name": "e07b24b9d50341af87292011d155488a", "lat": 38.92145983333333, "fusion_lat": 0.0, "rental_uris": {"ios": "https://dc.lft.to/lastmile_qr_scan", "android": "https://dc.lft.to/lastmile_qr_scan"}, "is_disabled": 0, "type": "electric_scooter"}, {"fusion_lon": 0.0, "is_reserved": 0, "bike_id": "6797ec38cf2206857c1ed6bde4afee40", "lon": -77.063618, "name": "6797ec38cf2206857c1ed6bde4afee40", "lat": 38.944005833333335, "fusion_lat": 0.0, "rental_uris": {"ios": "https://dc.lft.to/lastmile_qr_scan", "android": "https://dc.lft.to/lastmile_qr_scan"}, "is_disabled": 0, "type": "electric_scooter"}, {"fusion_lon": 0.0, "is_reserved": 0, "bike_id": "64639fb986dbb51e24cc33f89c828972", "lon": -77.09694816666666, "name": "64639fb986dbb51e24cc33f89c828972", "lat": 38.807376833333336, "fusion_lat": 0.0, "rental_uris": {"ios": "https://dc.lft.to/lastmile_qr_scan", "android": "https://dc.lft.to/lastmile_qr_scan"}, "is_disabled": 0, "type": "electric_bike"}, {"fusion_lon": 0.0, "is_reserved": 0, "bike_id": "1dca454cab59d0de4f0661c27339793f", "lon": -77.02844583333334, "name": "1dca454cab59d0de4f0661c27339793f", "lat": 38.881855, "fusion_lat": 0.0, "rental_uris": {"ios": "https://dc.lft.to/lastmile_qr_scan", "android": "https://dc.lft.to/lastmile_qr_scan"}, "is_disabled": 0, "type": "electric_scooter"}, {"fusion_lon": 0.0, "is_reserved": 0, "bike_id": "c102f05ce94afda81b8d0a6c454a0094", "lon": -76.99646483333333, "name": "c102f05ce94afda81b8d0a6c454a0094", "lat": 38.887191666666666, "fusion_lat": 0.0, "rental_uris": {"ios": "https://dc.lft.to/lastmile_qr_scan", "android": "https://dc.lft.to/lastmile_qr_scan"}, "is_disabled": 0, "type": "electric_scooter"}, {"fusion_lon": 0.0, "is_reserved": 0, "bike_id": "be086dd7f027b74b021d30d79165d24e", "lon": -77.0147225, "name": "be086dd7f027b74b021d30d79165d24e", "lat": 38.92671433333334, "fusion_lat": 0.0, "rental_uris": {"ios": "https://dc.lft.to/lastmile_qr_scan", "android": "https://dc.lft.to/lastmile_qr_scan"}, "is_disabled": 0, "type": "electric_scooter"}, {"fusion_lon": 0.0, "is_reserved": 0, "bike_id": "1460de23eb475ad48d9c7bae68e24aa4", "lon": -77.02960016666667, "name": "1460de23eb475ad48d9c7bae68e24aa4", "lat": 38.92685266666667, "fusion_lat": 0.0, "rental_uris": {"ios": "https://dc.lft.to/lastmile_qr_scan", "android": "https://dc.lft.to/lastmile_qr_scan"}, "is_disabled": 0, "type": "electric_scooter"}, {"fusion_lon": 0.0, "is_reserved": 0, "bike_id": "4da7e0d942d7e80143734b9918a7ed4b", "lon": -77.0312945, "name": "4da7e0d942d7e80143734b9918a7ed4b", "lat": 38.91830433333333, "fusion_lat": 0.0, "rental_uris": {"ios": "https://dc.lft.to/lastmile_qr_scan", "android": "https://dc.lft.to/lastmile_qr_scan"}, "is_disabled": 0, "type": "electric_scooter"}, {"fusion_lon": 0.0, "is_reserved": 0, "bike_id": "48ecea7927c59f861de8c31894dd5814", "lon": -77.031995, "name": "48ecea7927c59f861de8c31894dd5814", "lat": 38.910123666666664, "fusion_lat": 0.0, "rental_uris": {"ios": "https://dc.lft.to/lastmile_qr_scan", "android": "https://dc.lft.to/lastmile_qr_scan"}, "is_disabled": 0, "type": "electric_scooter"}, {"fusion_lon": 0.0, "is_reserved": 0, "bike_id": "195ad6657eac8d3fdb5b5a469376fc43", "lon": -77.03286116666666, "name": "195ad6657eac8d3fdb5b5a469376fc43", "lat": 38.964090166666665, "fusion_lat": 0.0, "rental_uris": {"ios": "https://dc.lft.to/lastmile_qr_scan", "android": "https://dc.lft.to/lastmile_qr_scan"}, "is_disabled": 0, "type": "electric_scooter"}, {"fusion_lon": 0.0, "is_reserved": 0, "bike_id": "e8c32ac4a79be4c0ddaf233f02a4a7f5", "lon": -77.11033716666667, "name": "e8c32ac4a79be4c0ddaf233f02a4a7f5", "lat": 38.870711, "fusion_lat": 0.0, "rental_uris": {"ios": "https://dc.lft.to/lastmile_qr_scan", "android": "https://dc.lft.to/lastmile_qr_scan"}, "is_disabled": 0, "type": "electric_bike"}, {"fusion_lon": 0.0, "is_reserved": 0, "bike_id": "55ce5615e3be04ae88c595cce0bc03f6", "lon": -77.055221, "name": "55ce5615e3be04ae88c595cce0bc03f6", "lat": 38.897447166666666, "fusion_lat": 0.0, "rental_uris": {"ios": "https://dc.lft.to/lastmile_qr_scan", "android": "https://dc.lft.to/lastmile_qr_scan"}, "is_disabled": 0, "type": "electric_scooter"}, {"fusion_lon": 0.0, "is_reserved": 0, "bike_id": "078621012c22844e3a0cb3a5721d6a7e", "lon": -77.03350666666667, "name": "078621012c22844e3a0cb3a5721d6a7e", "lat": 38.917159833333336, "fusion_lat": 0.0, "rental_uris": {"ios": "https://dc.lft.to/lastmile_qr_scan", "android": "https://dc.lft.to/lastmile_qr_scan"}, "is_disabled": 0, "type": "electric_scooter"}, {"fusion_lon": 0.0, "is_reserved": 0, "bike_id": "1c595124a4703dc686779a0dc2a375a3", "lon": -77.03220066666667, "name": "1c595124a4703dc686779a0dc2a375a3", "lat": 38.915631833333336, "fusion_lat": 0.0, "rental_uris": {"ios": "https://dc.lft.to/lastmile_qr_scan", "android": "https://dc.lft.to/lastmile_qr_scan"}, "is_disabled": 0, "type": "electric_scooter"}, {"fusion_lon": 0.0, "is_reserved": 0, "bike_id": "c5e6f3b7ee89978524121f274d2a6799", "lon": -77.01683983333334, "name": "c5e6f3b7ee89978524121f274d2a6799", "lat": 38.9204085, "fusion_lat": 0.0, "rental_uris": {"ios": "https://dc.lft.to/lastmile_qr_scan", "android": "https://dc.lft.to/lastmile_qr_scan"}, "is_disabled": 0, "type": "electric_scooter"}, {"fusion_lon": 0.0, "is_reserved": 0, "bike_id": "38f5c9cf593386830181524db7d23583", "lon": -77.0066475, "name": "38f5c9cf593386830181524db7d23583", "lat": 38.8717685, "fusion_lat": 0.0, "rental_uris": {"ios": "https://dc.lft.to/lastmile_qr_scan", "android": "https://dc.lft.to/lastmile_qr_scan"}, "is_disabled": 0, "type": "electric_scooter"}, {"fusion_lon": 0.0, "is_reserved": 0, "bike_id": "8c7cb2c43def272f07d92f9e5bca096b", "lon": -77.00513416666666, "name": "8c7cb2c43def272f07d92f9e5bca096b", "lat": 38.874700833333335, "fusion_lat": 0.0, "rental_uris": {"ios": "https://dc.lft.to/lastmile_qr_scan", "android": "https://dc.lft.to/lastmile_qr_scan"}, "is_disabled": 0, "type": "electric_scooter"}, {"fusion_lon": 0.0, "is_reserved": 0, "bike_id": "91c58668178e5f7b09482555e4023926", "lon": -76.98700816666667, "name": "91c58668178e5f7b09482555e4023926", "lat": 38.907042, "fusion_lat": 0.0, "rental_uris": {"ios": "https://dc.lft.to/lastmile_qr_scan", "android": "https://dc.lft.to/lastmile_qr_scan"}, "is_disabled": 0, "type": "electric_scooter"}, {"fusion_lon": 0.0, "is_reserved": 0, "bike_id": "469edf7f27b36a6d757cb4a689dc587b", "lon": -77.04357333333333, "name": "469edf7f27b36a6d757cb4a689dc587b", "lat": 38.89728933333333, "fusion_lat": 0.0, "rental_uris": {"ios": "https://dc.lft.to/lastmile_qr_scan", "android": "https://dc.lft.to/lastmile_qr_scan"}, "is_disabled": 0, "type": "electric_scooter"}, {"fusion_lon": 0.0, "is_reserved": 0, "bike_id": "51012e9b2dca2be1a9df3f95d50f6f88", "lon": -77.04742683333333, "name": "51012e9b2dca2be1a9df3f95d50f6f88", "lat": 38.9052225, "fusion_lat": 0.0, "rental_uris": {"ios": "https://dc.lft.to/lastmile_qr_scan", "android": "https://dc.lft.to/lastmile_qr_scan"}, "is_disabled": 0, "type": "electric_scooter"}, {"fusion_lon": 0.0, "is_reserved": 0, "bike_id": "c2d9020d1aa9150cc42beb0908fd06d5", "lon": -77.04811666666667, "name": "c2d9020d1aa9150cc42beb0908fd06d5", "lat": 38.89593283333333, "fusion_lat": 0.0, "rental_uris": {"ios": "https://dc.lft.to/lastmile_qr_scan", "android": "https://dc.lft.to/lastmile_qr_scan"}, "is_disabled": 0, "type": "electric_scooter"}, {"fusion_lon": 0.0, "is_reserved": 0, "bike_id": "6e10deea727fed189c24e97345b93214", "lon": -77.03868616666666, "name": "6e10deea727fed189c24e97345b93214", "lat": 38.9026945, "fusion_lat": 0.0, "rental_uris": {"ios": "https://dc.lft.to/lastmile_qr_scan", "android": "https://dc.lft.to/lastmile_qr_scan"}, "is_disabled": 0, "type": "electric_scooter"}, {"fusion_lon": 0.0, "is_reserved": 0, "bike_id": "5d805da8c693c18f9c435dc5c6556532", "lon": -77.024435, "name": "5d805da8c693c18f9c435dc5c6556532", "lat": 38.89730983333333, "fusion_lat": 0.0, "rental_uris": {"ios": "https://dc.lft.to/lastmile_qr_scan", "android": "https://dc.lft.to/lastmile_qr_scan"}, "is_disabled": 0, "type": "electric_scooter"}, {"fusion_lon": 0.0, "is_reserved": 0, "bike_id": "de79dcda2717edffa99d6fc5b71f1ace", "lon": -77.03339483333333, "name": "de79dcda2717edffa99d6fc5b71f1ace", "lat": 38.903836166666665, "fusion_lat": 0.0, "rental_uris": {"ios": "https://dc.lft.to/lastmile_qr_scan", "android": "https://dc.lft.to/lastmile_qr_scan"}, "is_disabled": 0, "type": "electric_scooter"}, {"fusion_lon": 0.0, "is_reserved": 0, "bike_id": "c3212bf04d325d009cdd718fa9cfe18f", "lon": -77.10402616666667, "name": "c3212bf04d325d009cdd718fa9cfe18f", "lat": 39.00534016666667, "fusion_lat": 0.0, "rental_uris": {"ios": "https://dc.lft.to/lastmile_qr_scan", "android": "https://dc.lft.to/lastmile_qr_scan"}, "is_disabled": 0, "type": "electric_bike"}, {"fusion_lon": 0.0, "is_reserved": 0, "bike_id": "dbaa397a7e333f9cb1f357b5662f3e12", "lon": -77.0242275, "name": "dbaa397a7e333f9cb1f357b5662f3e12", "lat": 38.920688166666665, "fusion_lat": 0.0, "rental_uris": {"ios": "https://dc.lft.to/lastmile_qr_scan", "android": "https://dc.lft.to/lastmile_qr_scan"}, "is_disabled": 0, "type": "electric_scooter"}, {"fusion_lon": 0.0, "is_reserved": 0, "bike_id": "e73e90113df53b7401f7dac9269563f9", "lon": -77.04664766666667, "name": "e73e90113df53b7401f7dac9269563f9", "lat": 38.917803, "fusion_lat": 0.0, "rental_uris": {"ios": "https://dc.lft.to/lastmile_qr_scan", "android": "https://dc.lft.to/lastmile_qr_scan"}, "is_disabled": 0, "type": "electric_scooter"}, {"fusion_lon": 0.0, "is_reserved": 0, "bike_id": "3190b1e05ed3dfbfc22e18c6aa1c5011", "lon": -77.05527866666667, "name": "3190b1e05ed3dfbfc22e18c6aa1c5011", "lat": 38.89991916666666, "fusion_lat": 0.0, "rental_uris": {"ios": "https://dc.lft.to/lastmile_qr_scan", "android": "https://dc.lft.to/lastmile_qr_scan"}, "is_disabled": 0, "type": "electric_scooter"}, {"fusion_lon": 0.0, "is_reserved": 0, "bike_id": "624bce7521b65b8a24dffbfd3eacbf02", "lon": -77.021404, "name": "624bce7521b65b8a24dffbfd3eacbf02", "lat": 38.92446983333333, "fusion_lat": 0.0, "rental_uris": {"ios": "https://dc.lft.to/lastmile_qr_scan", "android": "https://dc.lft.to/lastmile_qr_scan"}, "is_disabled": 0, "type": "electric_scooter"}, {"fusion_lon": 0.0, "is_reserved": 0, "bike_id": "0752903e3d77067002034ee3cc2dbad4", "lon": -77.02454466666667, "name": "0752903e3d77067002034ee3cc2dbad4", "lat": 38.936468166666664, "fusion_lat": 0.0, "rental_uris": {"ios": "https://dc.lft.to/lastmile_qr_scan", "android": "https://dc.lft.to/lastmile_qr_scan"}, "is_disabled": 0, "type": "electric_scooter"}, {"fusion_lon": 0.0, "is_reserved": 0, "bike_id": "75bf5fe9ec1f007a38f3cd29e8e5658f", "lon": -77.0215775, "name": "75bf5fe9ec1f007a38f3cd29e8e5658f", "lat": 38.89717, "fusion_lat": 0.0, "rental_uris": {"ios": "https://dc.lft.to/lastmile_qr_scan", "android": "https://dc.lft.to/lastmile_qr_scan"}, "is_disabled": 0, "type": "electric_scooter"}, {"fusion_lon": 0.0, "is_reserved": 0, "bike_id": "c87480c98a85cef2ab659c3e0fc69e91", "lon": -77.02434183333334, "name": "c87480c98a85cef2ab659c3e0fc69e91", "lat": 38.879885333333334, "fusion_lat": 0.0, "rental_uris": {"ios": "https://dc.lft.to/lastmile_qr_scan", "android": "https://dc.lft.to/lastmile_qr_scan"}, "is_disabled": 0, "type": "electric_scooter"}, {"fusion_lon": 0.0, "is_reserved": 0, "bike_id": "76b4fdc9b3a44bb4dcd1b2a389dfba8a", "lon": -77.02507816666666, "name": "76b4fdc9b3a44bb4dcd1b2a389dfba8a", "lat": 38.920713166666665, "fusion_lat": 0.0, "rental_uris": {"ios": "https://dc.lft.to/lastmile_qr_scan", "android": "https://dc.lft.to/lastmile_qr_scan"}, "is_disabled": 0, "type": "electric_scooter"}, {"fusion_lon": 0.0, "is_reserved": 0, "bike_id": "7a408a2d81bb27dd6117007425075bc3", "lon": -77.01958866666666, "name": "7a408a2d81bb27dd6117007425075bc3", "lat": 38.9232275, "fusion_lat": 0.0, "rental_uris": {"ios": "https://dc.lft.to/lastmile_qr_scan", "android": "https://dc.lft.to/lastmile_qr_scan"}, "is_disabled": 0, "type": "electric_scooter"}, {"fusion_lon": 0.0, "is_reserved": 0, "bike_id": "7b1bcd900c87c1143c4a72b48a0bd037", "lon": -77.08961933333333, "name": "7b1bcd900c87c1143c4a72b48a0bd037", "lat": 38.93451533333333, "fusion_lat": 0.0, "rental_uris": {"ios": "https://dc.lft.to/lastmile_qr_scan", "android": "https://dc.lft.to/lastmile_qr_scan"}, "is_disabled": 0, "type": "electric_scooter"}, {"fusion_lon": 0.0, "is_reserved": 0, "bike_id": "50e68b8cd0b3be14c25be17dc35d177a", "lon": -77.02432466666667, "name": "50e68b8cd0b3be14c25be17dc35d177a", "lat": 38.949747333333335, "fusion_lat": 0.0, "rental_uris": {"ios": "https://dc.lft.to/lastmile_qr_scan", "android": "https://dc.lft.to/lastmile_qr_scan"}, "is_disabled": 0, "type": "electric_scooter"}, {"fusion_lon": 0.0, "is_reserved": 0, "bike_id": "01b56d9da1368415bb4383f73c3324fe", "lon": -77.04234966666667, "name": "01b56d9da1368415bb4383f73c3324fe", "lat": 38.9097455, "fusion_lat": 0.0, "rental_uris": {"ios": "https://dc.lft.to/lastmile_qr_scan", "android": "https://dc.lft.to/lastmile_qr_scan"}, "is_disabled": 0, "type": "electric_scooter"}, {"fusion_lon": 0.0, "is_reserved": 0, "bike_id": "f06a1a6d3be81b58a6ee69f37bfed3d7", "lon": -77.008002, "name": "f06a1a6d3be81b58a6ee69f37bfed3d7", "lat": 38.87484633333333, "fusion_lat": 0.0, "rental_uris": {"ios": "https://dc.lft.to/lastmile_qr_scan", "android": "https://dc.lft.to/lastmile_qr_scan"}, "is_disabled": 0, "type": "electric_bike"}, {"fusion_lon": 0.0, "is_reserved": 0, "bike_id": "7d8dadd78796e2d9a23f6cc46de9a9f1", "lon": -77.0100185, "name": "7d8dadd78796e2d9a23f6cc46de9a9f1", "lat": 38.908489, "fusion_lat": 0.0, "rental_uris": {"ios": "https://dc.lft.to/lastmile_qr_scan", "android": "https://dc.lft.to/lastmile_qr_scan"}, "is_disabled": 0, "type": "electric_scooter"}, {"fusion_lon": 0.0, "is_reserved": 0, "bike_id": "aed7deac684741fc75e3d649cd2a364f", "lon": -77.02699033333333, "name": "aed7deac684741fc75e3d649cd2a364f", "lat": 38.971720166666664, "fusion_lat": 0.0, "rental_uris": {"ios": "https://dc.lft.to/lastmile_qr_scan", "android": "https://dc.lft.to/lastmile_qr_scan"}, "is_disabled": 0, "type": "electric_scooter"}, {"fusion_lon": 0.0, "is_reserved": 0, "bike_id": "cf4d8d338797ade2c1541a8b51de5eb2", "lon": -77.01519916666666, "name": "cf4d8d338797ade2c1541a8b51de5eb2", "lat": 38.926754833333334, "fusion_lat": 0.0, "rental_uris": {"ios": "https://dc.lft.to/lastmile_qr_scan", "android": "https://dc.lft.to/lastmile_qr_scan"}, "is_disabled": 0, "type": "electric_scooter"}, {"fusion_lon": 0.0, "is_reserved": 0, "bike_id": "dc1aeb55882f8e2aff1b0b0d946b40e4", "lon": -77.03265683333333, "name": "dc1aeb55882f8e2aff1b0b0d946b40e4", "lat": 38.91406883333333, "fusion_lat": 0.0, "rental_uris": {"ios": "https://dc.lft.to/lastmile_qr_scan", "android": "https://dc.lft.to/lastmile_qr_scan"}, "is_disabled": 0, "type": "electric_scooter"}, {"fusion_lon": 0.0, "is_reserved": 0, "bike_id": "6d22ae7c5ab29a7ec3d332987a8ff62b", "lon": -77.0273495, "name": "6d22ae7c5ab29a7ec3d332987a8ff62b", "lat": 38.896313166666665, "fusion_lat": 0.0, "rental_uris": {"ios": "https://dc.lft.to/lastmile_qr_scan", "android": "https://dc.lft.to/lastmile_qr_scan"}, "is_disabled": 0, "type": "electric_scooter"}, {"fusion_lon": 0.0, "is_reserved": 0, "bike_id": "60a8b2630de7fe28617f090363fb8eae", "lon": -77.02376733333334, "name": "60a8b2630de7fe28617f090363fb8eae", "lat": 38.92085483333334, "fusion_lat": 0.0, "rental_uris": {"ios": "https://dc.lft.to/lastmile_qr_scan", "android": "https://dc.lft.to/lastmile_qr_scan"}, "is_disabled": 0, "type": "electric_scooter"}, {"fusion_lon": 0.0, "is_reserved": 0, "bike_id": "d90b606de21be94097599bacb5906c92", "lon": -77.0340395, "name": "d90b606de21be94097599bacb5906c92", "lat": 38.924411666666664, "fusion_lat": 0.0, "rental_uris": {"ios": "https://dc.lft.to/lastmile_qr_scan", "android": "https://dc.lft.to/lastmile_qr_scan"}, "is_disabled": 0, "type": "electric_scooter"}, {"fusion_lon": 0.0, "is_reserved": 0, "bike_id": "fb7c3f71fe7c6a53c1fa991111ded51c", "lon": -76.9976095, "name": "fb7c3f71fe7c6a53c1fa991111ded51c", "lat": 38.88544666666667, "fusion_lat": 0.0, "rental_uris": {"ios": "https://dc.lft.to/lastmile_qr_scan", "android": "https://dc.lft.to/lastmile_qr_scan"}, "is_disabled": 0, "type": "electric_scooter"}, {"fusion_lon": 0.0, "is_reserved": 0, "bike_id": "7a0365fc7d98b1b6dbc26b4cc91897ce", "lon": -77.00224216666666, "name": "7a0365fc7d98b1b6dbc26b4cc91897ce", "lat": 38.908497, "fusion_lat": 0.0, "rental_uris": {"ios": "https://dc.lft.to/lastmile_qr_scan", "android": "https://dc.lft.to/lastmile_qr_scan"}, "is_disabled": 0, "type": "electric_scooter"}, {"fusion_lon": 0.0, "is_reserved": 0, "bike_id": "73c68aa8475169bd92bbc31c227a98ea", "lon": -77.013729, "name": "73c68aa8475169bd92bbc31c227a98ea", "lat": 38.883335333333335, "fusion_lat": 0.0, "rental_uris": {"ios": "https://dc.lft.to/lastmile_qr_scan", "android": "https://dc.lft.to/lastmile_qr_scan"}, "is_disabled": 0, "type": "electric_scooter"}, {"fusion_lon": 0.0, "is_reserved": 0, "bike_id": "975ea2f7a2821c7861b05d461b8663ee", "lon": -77.03250233333333, "name": "975ea2f7a2821c7861b05d461b8663ee", "lat": 38.93131016666667, "fusion_lat": 0.0, "rental_uris": {"ios": "https://dc.lft.to/lastmile_qr_scan", "android": "https://dc.lft.to/lastmile_qr_scan"}, "is_disabled": 0, "type": "electric_bike"}, {"fusion_lon": 0.0, "is_reserved": 0, "bike_id": "58feca85b49ebd29e6c751d1d829250b", "lon": -77.015818, "name": "58feca85b49ebd29e6c751d1d829250b", "lat": 38.951028, "fusion_lat": 0.0, "rental_uris": {"ios": "https://dc.lft.to/lastmile_qr_scan", "android": "https://dc.lft.to/lastmile_qr_scan"}, "is_disabled": 0, "type": "electric_scooter"}, {"fusion_lon": 0.0, "is_reserved": 0, "bike_id": "2c614f2134f6f28e33ee93f941c6bc86", "lon": -77.02062616666667, "name": "2c614f2134f6f28e33ee93f941c6bc86", "lat": 38.92324033333333, "fusion_lat": 0.0, "rental_uris": {"ios": "https://dc.lft.to/lastmile_qr_scan", "android": "https://dc.lft.to/lastmile_qr_scan"}, "is_disabled": 0, "type": "electric_scooter"}, {"fusion_lon": 0.0, "is_reserved": 0, "bike_id": "5d8d5b5f8e25814f1fd6a97aaf2bd237", "lon": -77.000837, "name": "5d8d5b5f8e25814f1fd6a97aaf2bd237", "lat": 38.875977666666664, "fusion_lat": 0.0, "rental_uris": {"ios": "https://dc.lft.to/lastmile_qr_scan", "android": "https://dc.lft.to/lastmile_qr_scan"}, "is_disabled": 0, "type": "electric_scooter"}, {"fusion_lon": 0.0, "is_reserved": 0, "bike_id": "9e4e4ef96e534d113c875218f61b461a", "lon": -77.03211716666667, "name": "9e4e4ef96e534d113c875218f61b461a", "lat": 38.91315266666667, "fusion_lat": 0.0, "rental_uris": {"ios": "https://dc.lft.to/lastmile_qr_scan", "android": "https://dc.lft.to/lastmile_qr_scan"}, "is_disabled": 0, "type": "electric_scooter"}, {"fusion_lon": 0.0, "is_reserved": 0, "bike_id": "fcf25121e6643ab59f2abe04747cc919", "lon": -77.03129233333334, "name": "fcf25121e6643ab59f2abe04747cc919", "lat": 38.923752, "fusion_lat": 0.0, "rental_uris": {"ios": "https://dc.lft.to/lastmile_qr_scan", "android": "https://dc.lft.to/lastmile_qr_scan"}, "is_disabled": 0, "type": "electric_scooter"}, {"fusion_lon": 0.0, "is_reserved": 0, "bike_id": "c857cebe1936ce9b4ca1f3a731821e70", "lon": -77.04872966666667, "name": "c857cebe1936ce9b4ca1f3a731821e70", "lat": 38.909486, "fusion_lat": 0.0, "rental_uris": {"ios": "https://dc.lft.to/lastmile_qr_scan", "android": "https://dc.lft.to/lastmile_qr_scan"}, "is_disabled": 0, "type": "electric_scooter"}, {"fusion_lon": 0.0, "is_reserved": 0, "bike_id": "acd1fcae248e846e9ff9b0c2d6b2a75d", "lon": -77.01493616666667, "name": "acd1fcae248e846e9ff9b0c2d6b2a75d", "lat": 38.91772483333333, "fusion_lat": 0.0, "rental_uris": {"ios": "https://dc.lft.to/lastmile_qr_scan", "android": "https://dc.lft.to/lastmile_qr_scan"}, "is_disabled": 0, "type": "electric_scooter"}, {"fusion_lon": 0.0, "is_reserved": 0, "bike_id": "55554e8cf19bfbc84c3f9b0e920d3679", "lon": -77.04488466666666, "name": "55554e8cf19bfbc84c3f9b0e920d3679", "lat": 38.918750833333334, "fusion_lat": 0.0, "rental_uris": {"ios": "https://dc.lft.to/lastmile_qr_scan", "android": "https://dc.lft.to/lastmile_qr_scan"}, "is_disabled": 0, "type": "electric_scooter"}, {"fusion_lon": 0.0, "is_reserved": 0, "bike_id": "b76f731a033378468d2a3ac9d2c46140", "lon": -77.00509166666667, "name": "b76f731a033378468d2a3ac9d2c46140", "lat": 38.960495, "fusion_lat": 0.0, "rental_uris": {"ios": "https://dc.lft.to/lastmile_qr_scan", "android": "https://dc.lft.to/lastmile_qr_scan"}, "is_disabled": 0, "type": "electric_scooter"}, {"fusion_lon": 0.0, "is_reserved": 0, "bike_id": "0bc693cfa565ab5c18acbb20f0a7be55", "lon": -77.01753833333333, "name": "0bc693cfa565ab5c18acbb20f0a7be55", "lat": 38.901129833333336, "fusion_lat": 0.0, "rental_uris": {"ios": "https://dc.lft.to/lastmile_qr_scan", "android": "https://dc.lft.to/lastmile_qr_scan"}, "is_disabled": 0, "type": "electric_scooter"}, {"fusion_lon": 0.0, "is_reserved": 0, "bike_id": "a9c2b70206656f894b3be3191ff139b1", "lon": -77.04339583333334, "name": "a9c2b70206656f894b3be3191ff139b1", "lat": 38.93058083333333, "fusion_lat": 0.0, "rental_uris": {"ios": "https://dc.lft.to/lastmile_qr_scan", "android": "https://dc.lft.to/lastmile_qr_scan"}, "is_disabled": 0, "type": "electric_scooter"}, {"fusion_lon": 0.0, "is_reserved": 0, "bike_id": "bc78af589d70b89fb13b9c1339fe9d89", "lon": -77.04212233333334, "name": "bc78af589d70b89fb13b9c1339fe9d89", "lat": 38.92286466666667, "fusion_lat": 0.0, "rental_uris": {"ios": "https://dc.lft.to/lastmile_qr_scan", "android": "https://dc.lft.to/lastmile_qr_scan"}, "is_disabled": 0, "type": "electric_scooter"}, {"fusion_lon": 0.0, "is_reserved": 0, "bike_id": "9892a6bf535da83617c7ab82057c171c", "lon": -76.93173383333334, "name": "9892a6bf535da83617c7ab82057c171c", "lat": 38.898863, "fusion_lat": 0.0, "rental_uris": {"ios": "https://dc.lft.to/lastmile_qr_scan", "android": "https://dc.lft.to/lastmile_qr_scan"}, "is_disabled": 0, "type": "electric_scooter"}, {"fusion_lon": 0.0, "is_reserved": 0, "bike_id": "53362cb97753026054261fbedd165988", "lon": -77.026863, "name": "53362cb97753026054261fbedd165988", "lat": 38.89484083333333, "fusion_lat": 0.0, "rental_uris": {"ios": "https://dc.lft.to/lastmile_qr_scan", "android": "https://dc.lft.to/lastmile_qr_scan"}, "is_disabled": 0, "type": "electric_scooter"}, {"fusion_lon": 0.0, "is_reserved": 0, "bike_id": "3085aa750864d895544d9e04753b7e16", "lon": -77.03172866666667, "name": "3085aa750864d895544d9e04753b7e16", "lat": 38.915530333333336, "fusion_lat": 0.0, "rental_uris": {"ios": "https://dc.lft.to/lastmile_qr_scan", "android": "https://dc.lft.to/lastmile_qr_scan"}, "is_disabled": 0, "type": "electric_scooter"}, {"fusion_lon": 0.0, "is_reserved": 0, "bike_id": "01dab9811178ea0461328469ecab3233", "lon": -77.02292983333334, "name": "01dab9811178ea0461328469ecab3233", "lat": 38.919425, "fusion_lat": 0.0, "rental_uris": {"ios": "https://dc.lft.to/lastmile_qr_scan", "android": "https://dc.lft.to/lastmile_qr_scan"}, "is_disabled": 0, "type": "electric_scooter"}, {"fusion_lon": 0.0, "is_reserved": 0, "bike_id": "76577ca54ec08b9d1e83ac758152f097", "lon": -77.02794566666667, "name": "76577ca54ec08b9d1e83ac758152f097", "lat": 38.96151866666666, "fusion_lat": 0.0, "rental_uris": {"ios": "https://dc.lft.to/lastmile_qr_scan", "android": "https://dc.lft.to/lastmile_qr_scan"}, "is_disabled": 0, "type": "electric_scooter"}, {"fusion_lon": 0.0, "is_reserved": 0, "bike_id": "1b2f5d03255968682abc47ed401d0883", "lon": -76.98354766666667, "name": "1b2f5d03255968682abc47ed401d0883", "lat": 38.86253383333333, "fusion_lat": 0.0, "rental_uris": {"ios": "https://dc.lft.to/lastmile_qr_scan", "android": "https://dc.lft.to/lastmile_qr_scan"}, "is_disabled": 0, "type": "electric_bike"}, {"fusion_lon": 0.0, "is_reserved": 0, "bike_id": "63a0d76d9a786cac8f0036fbcc79ac78", "lon": -77.0455225, "name": "63a0d76d9a786cac8f0036fbcc79ac78", "lat": 38.920729, "fusion_lat": 0.0, "rental_uris": {"ios": "https://dc.lft.to/lastmile_qr_scan", "android": "https://dc.lft.to/lastmile_qr_scan"}, "is_disabled": 0, "type": "electric_scooter"}, {"fusion_lon": 0.0, "is_reserved": 0, "bike_id": "936aaea606c4de929b41070f6ef27b2b", "lon": -77.01425783333333, "name": "936aaea606c4de929b41070f6ef27b2b", "lat": 38.91815716666667, "fusion_lat": 0.0, "rental_uris": {"ios": "https://dc.lft.to/lastmile_qr_scan", "android": "https://dc.lft.to/lastmile_qr_scan"}, "is_disabled": 0, "type": "electric_scooter"}, {"fusion_lon": 0.0, "is_reserved": 0, "bike_id": "4316e950ec7da4235490c422b48b4b8b", "lon": -77.0379015, "name": "4316e950ec7da4235490c422b48b4b8b", "lat": 38.920136666666664, "fusion_lat": 0.0, "rental_uris": {"ios": "https://dc.lft.to/lastmile_qr_scan", "android": "https://dc.lft.to/lastmile_qr_scan"}, "is_disabled": 0, "type": "electric_scooter"}, {"fusion_lon": 0.0, "is_reserved": 0, "bike_id": "e42349705757898f354facd23bfc267f", "lon": -77.03189683333333, "name": "e42349705757898f354facd23bfc267f", "lat": 38.912718166666664, "fusion_lat": 0.0, "rental_uris": {"ios": "https://dc.lft.to/lastmile_qr_scan", "android": "https://dc.lft.to/lastmile_qr_scan"}, "is_disabled": 0, "type": "electric_scooter"}, {"fusion_lon": 0.0, "is_reserved": 0, "bike_id": "ec171a4c2699c5563c6f065ba6398bf8", "lon": -77.047983, "name": "ec171a4c2699c5563c6f065ba6398bf8", "lat": 38.896082666666665, "fusion_lat": 0.0, "rental_uris": {"ios": "https://dc.lft.to/lastmile_qr_scan", "android": "https://dc.lft.to/lastmile_qr_scan"}, "is_disabled": 0, "type": "electric_scooter"}, {"fusion_lon": 0.0, "is_reserved": 0, "bike_id": "f486d987fafcd614deb519e94c6339b0", "lon": -77.0222925, "name": "f486d987fafcd614deb519e94c6339b0", "lat": 38.9127155, "fusion_lat": 0.0, "rental_uris": {"ios": "https://dc.lft.to/lastmile_qr_scan", "android": "https://dc.lft.to/lastmile_qr_scan"}, "is_disabled": 0, "type": "electric_scooter"}, {"fusion_lon": 0.0, "is_reserved": 0, "bike_id": "1a879b05c80185b378fc168f25bac451", "lon": -77.0709685, "name": "1a879b05c80185b378fc168f25bac451", "lat": 38.89737683333333, "fusion_lat": 0.0, "rental_uris": {"ios": "https://dc.lft.to/lastmile_qr_scan", "android": "https://dc.lft.to/lastmile_qr_scan"}, "is_disabled": 0, "type": "electric_bike"}, {"fusion_lon": 0.0, "is_reserved": 0, "bike_id": "0862e5d7de65facad48e76e44dffeb33", "lon": -77.04375533333334, "name": "0862e5d7de65facad48e76e44dffeb33", "lat": 38.892226, "fusion_lat": 0.0, "rental_uris": {"ios": "https://dc.lft.to/lastmile_qr_scan", "android": "https://dc.lft.to/lastmile_qr_scan"}, "is_disabled": 0, "type": "electric_scooter"}, {"fusion_lon": 0.0, "is_reserved": 0, "bike_id": "72724f6b301dbbcac660b66ee86081c1", "lon": -76.9717565, "name": "72724f6b301dbbcac660b66ee86081c1", "lat": 38.85439516666667, "fusion_lat": 0.0, "rental_uris": {"ios": "https://dc.lft.to/lastmile_qr_scan", "android": "https://dc.lft.to/lastmile_qr_scan"}, "is_disabled": 0, "type": "electric_scooter"}, {"fusion_lon": 0.0, "is_reserved": 0, "bike_id": "61c72ac05dc9c9c11d3d774fc142d2ac", "lon": -77.00577266666667, "name": "61c72ac05dc9c9c11d3d774fc142d2ac", "lat": 38.880307, "fusion_lat": 0.0, "rental_uris": {"ios": "https://dc.lft.to/lastmile_qr_scan", "android": "https://dc.lft.to/lastmile_qr_scan"}, "is_disabled": 0, "type": "electric_scooter"}, {"fusion_lon": 0.0, "is_reserved": 0, "bike_id": "7a2b3140c4fdec2a273422a5b000ac23", "lon": -77.04651566666666, "name": "7a2b3140c4fdec2a273422a5b000ac23", "lat": 38.897133, "fusion_lat": 0.0, "rental_uris": {"ios": "https://dc.lft.to/lastmile_qr_scan", "android": "https://dc.lft.to/lastmile_qr_scan"}, "is_disabled": 0, "type": "electric_scooter"}, {"fusion_lon": 0.0, "is_reserved": 0, "bike_id": "c5a3367b45adf245042d769446f46708", "lon": -76.98403433333333, "name": "c5a3367b45adf245042d769446f46708", "lat": 38.91999233333333, "fusion_lat": 0.0, "rental_uris": {"ios": "https://dc.lft.to/lastmile_qr_scan", "android": "https://dc.lft.to/lastmile_qr_scan"}, "is_disabled": 0, "type": "electric_scooter"}, {"fusion_lon": 0.0, "is_reserved": 0, "bike_id": "36264c76e30febc925a50c3200b1902a", "lon": -77.00510566666667, "name": "36264c76e30febc925a50c3200b1902a", "lat": 38.960520333333335, "fusion_lat": 0.0, "rental_uris": {"ios": "https://dc.lft.to/lastmile_qr_scan", "android": "https://dc.lft.to/lastmile_qr_scan"}, "is_disabled": 0, "type": "electric_scooter"}, {"fusion_lon": 0.0, "is_reserved": 0, "bike_id": "7431776a572a621ff62dc6520ad5242c", "lon": -77.04465633333334, "name": "7431776a572a621ff62dc6520ad5242c", "lat": 38.91261266666667, "fusion_lat": 0.0, "rental_uris": {"ios": "https://dc.lft.to/lastmile_qr_scan", "android": "https://dc.lft.to/lastmile_qr_scan"}, "is_disabled": 0, "type": "electric_scooter"}, {"fusion_lon": 0.0, "is_reserved": 0, "bike_id": "9ad2c2da695e1675fe362cfe2dccffad", "lon": -77.02517866666666, "name": "9ad2c2da695e1675fe362cfe2dccffad", "lat": 38.93879666666667, "fusion_lat": 0.0, "rental_uris": {"ios": "https://dc.lft.to/lastmile_qr_scan", "android": "https://dc.lft.to/lastmile_qr_scan"}, "is_disabled": 0, "type": "electric_scooter"}, {"fusion_lon": 0.0, "is_reserved": 0, "bike_id": "401bd4ed96cc1ad69971c90115070568", "lon": -77.02094533333333, "name": "401bd4ed96cc1ad69971c90115070568", "lat": 38.9270515, "fusion_lat": 0.0, "rental_uris": {"ios": "https://dc.lft.to/lastmile_qr_scan", "android": "https://dc.lft.to/lastmile_qr_scan"}, "is_disabled": 0, "type": "electric_scooter"}, {"fusion_lon": 0.0, "is_reserved": 0, "bike_id": "698f0a4d38f2676d1869d5279da7253a", "lon": -77.04458183333334, "name": "698f0a4d38f2676d1869d5279da7253a", "lat": 38.9030025, "fusion_lat": 0.0, "rental_uris": {"ios": "https://dc.lft.to/lastmile_qr_scan", "android": "https://dc.lft.to/lastmile_qr_scan"}, "is_disabled": 0, "type": "electric_scooter"}, {"fusion_lon": 0.0, "is_reserved": 0, "bike_id": "7316a1de72934d8e781fff94c4cf9fb8", "lon": -77.0421875, "name": "7316a1de72934d8e781fff94c4cf9fb8", "lat": 38.92156083333333, "fusion_lat": 0.0, "rental_uris": {"ios": "https://dc.lft.to/lastmile_qr_scan", "android": "https://dc.lft.to/lastmile_qr_scan"}, "is_disabled": 0, "type": "electric_scooter"}, {"fusion_lon": 0.0, "is_reserved": 0, "bike_id": "b97b605c22dca2618c25c5b945dfbeab", "lon": -76.9906565, "name": "b97b605c22dca2618c25c5b945dfbeab", "lat": 38.90262583333333, "fusion_lat": 0.0, "rental_uris": {"ios": "https://dc.lft.to/lastmile_qr_scan", "android": "https://dc.lft.to/lastmile_qr_scan"}, "is_disabled": 0, "type": "electric_scooter"}, {"fusion_lon": 0.0, "is_reserved": 0, "bike_id": "213882dd24f27b337aa0d22e15bc4c1d", "lon": -77.000759, "name": "213882dd24f27b337aa0d22e15bc4c1d", "lat": 38.87377766666667, "fusion_lat": 0.0, "rental_uris": {"ios": "https://dc.lft.to/lastmile_qr_scan", "android": "https://dc.lft.to/lastmile_qr_scan"}, "is_disabled": 0, "type": "electric_scooter"}, {"fusion_lon": 0.0, "is_reserved": 0, "bike_id": "83ce753ea77e726ca895ca9706870d18", "lon": -76.98817883333334, "name": "83ce753ea77e726ca895ca9706870d18", "lat": 38.86385533333333, "fusion_lat": 0.0, "rental_uris": {"ios": "https://dc.lft.to/lastmile_qr_scan", "android": "https://dc.lft.to/lastmile_qr_scan"}, "is_disabled": 0, "type": "electric_scooter"}, {"fusion_lon": 0.0, "is_reserved": 0, "bike_id": "5fd384c315b326d1c4380a1d3ddb068a", "lon": -77.0275055, "name": "5fd384c315b326d1c4380a1d3ddb068a", "lat": 38.89227133333333, "fusion_lat": 0.0, "rental_uris": {"ios": "https://dc.lft.to/lastmile_qr_scan", "android": "https://dc.lft.to/lastmile_qr_scan"}, "is_disabled": 0, "type": "electric_scooter"}, {"fusion_lon": 0.0, "is_reserved": 0, "bike_id": "7f3207653e4e5e4bd726a3c7e88e127e", "lon": -77.035153, "name": "7f3207653e4e5e4bd726a3c7e88e127e", "lat": 38.92247, "fusion_lat": 0.0, "rental_uris": {"ios": "https://dc.lft.to/lastmile_qr_scan", "android": "https://dc.lft.to/lastmile_qr_scan"}, "is_disabled": 0, "type": "electric_scooter"}, {"fusion_lon": 0.0, "is_reserved": 0, "bike_id": "cc5dfa0945cbcb122c6e3a948c570cfc", "lon": -76.9353455, "name": "cc5dfa0945cbcb122c6e3a948c570cfc", "lat": 38.8789635, "fusion_lat": 0.0, "rental_uris": {"ios": "https://dc.lft.to/lastmile_qr_scan", "android": "https://dc.lft.to/lastmile_qr_scan"}, "is_disabled": 0, "type": "electric_scooter"}, {"fusion_lon": 0.0, "is_reserved": 0, "bike_id": "3029627d906a6c42f89b4a013b36f344", "lon": -76.94636266666667, "name": "3029627d906a6c42f89b4a013b36f344", "lat": 38.898314166666665, "fusion_lat": 0.0, "rental_uris": {"ios": "https://dc.lft.to/lastmile_qr_scan", "android": "https://dc.lft.to/lastmile_qr_scan"}, "is_disabled": 0, "type": "electric_scooter"}, {"fusion_lon": 0.0, "is_reserved": 0, "bike_id": "eb1454e2b50d0dfb2a25e13257683b39", "lon": -76.98820033333334, "name": "eb1454e2b50d0dfb2a25e13257683b39", "lat": 38.90041083333333, "fusion_lat": 0.0, "rental_uris": {"ios": "https://dc.lft.to/lastmile_qr_scan", "android": "https://dc.lft.to/lastmile_qr_scan"}, "is_disabled": 0, "type": "electric_scooter"}, {"fusion_lon": 0.0, "is_reserved": 0, "bike_id": "dbd51a9f4091ff7db35ea2159e021f7f", "lon": -77.00607416666666, "name": "dbd51a9f4091ff7db35ea2159e021f7f", "lat": 38.898184, "fusion_lat": 0.0, "rental_uris": {"ios": "https://dc.lft.to/lastmile_qr_scan", "android": "https://dc.lft.to/lastmile_qr_scan"}, "is_disabled": 0, "type": "electric_bike"}, {"fusion_lon": 0.0, "is_reserved": 0, "bike_id": "68e1c821b69ba5340f0b306118719170", "lon": -76.90757466666666, "name": "68e1c821b69ba5340f0b306118719170", "lat": 38.89616516666667, "fusion_lat": 0.0, "rental_uris": {"ios": "https://dc.lft.to/lastmile_qr_scan", "android": "https://dc.lft.to/lastmile_qr_scan"}, "is_disabled": 0, "type": "electric_bike"}, {"fusion_lon": 0.0, "is_reserved": 0, "bike_id": "5a46737ea09723eb1a6e343e4cd72dd0", "lon": -76.99433916666666, "name": "5a46737ea09723eb1a6e343e4cd72dd0", "lat": 38.93350133333333, "fusion_lat": 0.0, "rental_uris": {"ios": "https://dc.lft.to/lastmile_qr_scan", "android": "https://dc.lft.to/lastmile_qr_scan"}, "is_disabled": 0, "type": "electric_scooter"}, {"fusion_lon": 0.0, "is_reserved": 0, "bike_id": "634001965b34a91cd1729d640deba41e", "lon": -77.0416435, "name": "634001965b34a91cd1729d640deba41e", "lat": 38.919875166666664, "fusion_lat": 0.0, "rental_uris": {"ios": "https://dc.lft.to/lastmile_qr_scan", "android": "https://dc.lft.to/lastmile_qr_scan"}, "is_disabled": 0, "type": "electric_scooter"}, {"fusion_lon": 0.0, "is_reserved": 0, "bike_id": "863330dbc51558b932ffd703ba5f790e", "lon": -77.0021285, "name": "863330dbc51558b932ffd703ba5f790e", "lat": 38.9084105, "fusion_lat": 0.0, "rental_uris": {"ios": "https://dc.lft.to/lastmile_qr_scan", "android": "https://dc.lft.to/lastmile_qr_scan"}, "is_disabled": 0, "type": "electric_scooter"}, {"fusion_lon": 0.0, "is_reserved": 0, "bike_id": "d6f9cf3f855046ecdd03d92238798580", "lon": -77.036681, "name": "d6f9cf3f855046ecdd03d92238798580", "lat": 38.92244733333333, "fusion_lat": 0.0, "rental_uris": {"ios": "https://dc.lft.to/lastmile_qr_scan", "android": "https://dc.lft.to/lastmile_qr_scan"}, "is_disabled": 0, "type": "electric_scooter"}, {"fusion_lon": 0.0, "is_reserved": 0, "bike_id": "10ea85fba03fa333ac5e5ca5a64ddf7e", "lon": -77.02848933333334, "name": "10ea85fba03fa333ac5e5ca5a64ddf7e", "lat": 38.9426395, "fusion_lat": 0.0, "rental_uris": {"ios": "https://dc.lft.to/lastmile_qr_scan", "android": "https://dc.lft.to/lastmile_qr_scan"}, "is_disabled": 0, "type": "electric_bike"}, {"fusion_lon": 0.0, "is_reserved": 0, "bike_id": "119021d21a0f199440f8d5b5af775d2b", "lon": -76.9894645, "name": "119021d21a0f199440f8d5b5af775d2b", "lat": 38.90391566666667, "fusion_lat": 0.0, "rental_uris": {"ios": "https://dc.lft.to/lastmile_qr_scan", "android": "https://dc.lft.to/lastmile_qr_scan"}, "is_disabled": 0, "type": "electric_scooter"}, {"fusion_lon": 0.0, "is_reserved": 0, "bike_id": "9770a7c59f17d4c3893a14ae0f3b2af9", "lon": -77.01378016666666, "name": "9770a7c59f17d4c3893a14ae0f3b2af9", "lat": 38.88671266666667, "fusion_lat": 0.0, "rental_uris": {"ios": "https://dc.lft.to/lastmile_qr_scan", "android": "https://dc.lft.to/lastmile_qr_scan"}, "is_disabled": 0, "type": "electric_scooter"}, {"fusion_lon": 0.0, "is_reserved": 0, "bike_id": "0d8d6484322eb8f5547c9a99b062cb70", "lon": -77.07166583333333, "name": "0d8d6484322eb8f5547c9a99b062cb70", "lat": 38.920151, "fusion_lat": 0.0, "rental_uris": {"ios": "https://dc.lft.to/lastmile_qr_scan", "android": "https://dc.lft.to/lastmile_qr_scan"}, "is_disabled": 0, "type": "electric_scooter"}, {"fusion_lon": 0.0, "is_reserved": 0, "bike_id": "28f7d02e4fb56ae1a30b1dfaf4896e0d", "lon": -76.939753, "name": "28f7d02e4fb56ae1a30b1dfaf4896e0d", "lat": 38.89327633333333, "fusion_lat": 0.0, "rental_uris": {"ios": "https://dc.lft.to/lastmile_qr_scan", "android": "https://dc.lft.to/lastmile_qr_scan"}, "is_disabled": 0, "type": "electric_scooter"}, {"fusion_lon": 0.0, "is_reserved": 0, "bike_id": "d3673e287c2f420f44ce1d393c0f5179", "lon": -77.01911716666666, "name": "d3673e287c2f420f44ce1d393c0f5179", "lat": 38.92174333333333, "fusion_lat": 0.0, "rental_uris": {"ios": "https://dc.lft.to/lastmile_qr_scan", "android": "https://dc.lft.to/lastmile_qr_scan"}, "is_disabled": 0, "type": "electric_scooter"}, {"fusion_lon": 0.0, "is_reserved": 0, "bike_id": "36866c57d8d7f60462627b29b975a533", "lon": -77.03141166666667, "name": "36866c57d8d7f60462627b29b975a533", "lat": 38.89222016666667, "fusion_lat": 0.0, "rental_uris": {"ios": "https://dc.lft.to/lastmile_qr_scan", "android": "https://dc.lft.to/lastmile_qr_scan"}, "is_disabled": 0, "type": "electric_scooter"}, {"fusion_lon": 0.0, "is_reserved": 0, "bike_id": "80a5575ca84e39ea29c54cb26a458bb4", "lon": -77.05382716666666, "name": "80a5575ca84e39ea29c54cb26a458bb4", "lat": 38.84759483333333, "fusion_lat": 0.0, "rental_uris": {"ios": "https://dc.lft.to/lastmile_qr_scan", "android": "https://dc.lft.to/lastmile_qr_scan"}, "is_disabled": 0, "type": "electric_bike"}, {"fusion_lon": 0.0, "is_reserved": 0, "bike_id": "1a70a1b6360afc1f9bbe6e9cf540ae56", "lon": -77.022706, "name": "1a70a1b6360afc1f9bbe6e9cf540ae56", "lat": 38.931295166666665, "fusion_lat": 0.0, "rental_uris": {"ios": "https://dc.lft.to/lastmile_qr_scan", "android": "https://dc.lft.to/lastmile_qr_scan"}, "is_disabled": 0, "type": "electric_scooter"}, {"fusion_lon": 0.0, "is_reserved": 0, "bike_id": "82b319d9d16eb80e69d6101d57b42cb9", "lon": -77.013084, "name": "82b319d9d16eb80e69d6101d57b42cb9", "lat": 38.897082, "fusion_lat": 0.0, "rental_uris": {"ios": "https://dc.lft.to/lastmile_qr_scan", "android": "https://dc.lft.to/lastmile_qr_scan"}, "is_disabled": 0, "type": "electric_scooter"}, {"fusion_lon": 0.0, "is_reserved": 0, "bike_id": "7b7658fe3139b1f25e925ebd23bf238b", "lon": -76.948936, "name": "7b7658fe3139b1f25e925ebd23bf238b", "lat": 38.8948945, "fusion_lat": 0.0, "rental_uris": {"ios": "https://dc.lft.to/lastmile_qr_scan", "android": "https://dc.lft.to/lastmile_qr_scan"}, "is_disabled": 0, "type": "electric_scooter"}, {"fusion_lon": 0.0, "is_reserved": 0, "bike_id": "7f587a4c302ce023e7af703756a9e5ef", "lon": -77.0034345, "name": "7f587a4c302ce023e7af703756a9e5ef", "lat": 38.907103, "fusion_lat": 0.0, "rental_uris": {"ios": "https://dc.lft.to/lastmile_qr_scan", "android": "https://dc.lft.to/lastmile_qr_scan"}, "is_disabled": 0, "type": "electric_scooter"}, {"fusion_lon": 0.0, "is_reserved": 0, "bike_id": "3e7c51bf883b801190c54135bdb80a68", "lon": -77.02933416666667, "name": "3e7c51bf883b801190c54135bdb80a68", "lat": 38.902553833333336, "fusion_lat": 0.0, "rental_uris": {"ios": "https://dc.lft.to/lastmile_qr_scan", "android": "https://dc.lft.to/lastmile_qr_scan"}, "is_disabled": 0, "type": "electric_scooter"}, {"fusion_lon": 0.0, "is_reserved": 0, "bike_id": "7159634c5f596c7a3f033f9bca6683d6", "lon": -77.03538316666666, "name": "7159634c5f596c7a3f033f9bca6683d6", "lat": 38.923514, "fusion_lat": 0.0, "rental_uris": {"ios": "https://dc.lft.to/lastmile_qr_scan", "android": "https://dc.lft.to/lastmile_qr_scan"}, "is_disabled": 0, "type": "electric_scooter"}, {"fusion_lon": 0.0, "is_reserved": 0, "bike_id": "f433697fb2e66ee4a11a61db7ee61f5a", "lon": -77.039838, "name": "f433697fb2e66ee4a11a61db7ee61f5a", "lat": 38.9207225, "fusion_lat": 0.0, "rental_uris": {"ios": "https://dc.lft.to/lastmile_qr_scan", "android": "https://dc.lft.to/lastmile_qr_scan"}, "is_disabled": 0, "type": "electric_scooter"}, {"fusion_lon": 0.0, "is_reserved": 0, "bike_id": "0ba912cb902636532570cfaa21adf70c", "lon": -77.05815366666667, "name": "0ba912cb902636532570cfaa21adf70c", "lat": 38.935375, "fusion_lat": 0.0, "rental_uris": {"ios": "https://dc.lft.to/lastmile_qr_scan", "android": "https://dc.lft.to/lastmile_qr_scan"}, "is_disabled": 0, "type": "electric_scooter"}, {"fusion_lon": 0.0, "is_reserved": 0, "bike_id": "fd705657d95a027c4ebd71f6a5209284", "lon": -77.05063916666667, "name": "fd705657d95a027c4ebd71f6a5209284", "lat": 38.916234, "fusion_lat": 0.0, "rental_uris": {"ios": "https://dc.lft.to/lastmile_qr_scan", "android": "https://dc.lft.to/lastmile_qr_scan"}, "is_disabled": 0, "type": "electric_scooter"}, {"fusion_lon": 0.0, "is_reserved": 0, "bike_id": "26805bb5f47fc656603290d71a4e4eb0", "lon": -77.03411083333333, "name": "26805bb5f47fc656603290d71a4e4eb0", "lat": 38.928701333333336, "fusion_lat": 0.0, "rental_uris": {"ios": "https://dc.lft.to/lastmile_qr_scan", "android": "https://dc.lft.to/lastmile_qr_scan"}, "is_disabled": 0, "type": "electric_scooter"}, {"fusion_lon": 0.0, "is_reserved": 0, "bike_id": "5c1f842fc70ab2694729ea1e74027a5c", "lon": -77.02493783333334, "name": "5c1f842fc70ab2694729ea1e74027a5c", "lat": 38.9418385, "fusion_lat": 0.0, "rental_uris": {"ios": "https://dc.lft.to/lastmile_qr_scan", "android": "https://dc.lft.to/lastmile_qr_scan"}, "is_disabled": 0, "type": "electric_scooter"}, {"fusion_lon": 0.0, "is_reserved": 0, "bike_id": "8037d8ec7f938fc649dad48be10bd004", "lon": -77.01587166666667, "name": "8037d8ec7f938fc649dad48be10bd004", "lat": 38.916768833333336, "fusion_lat": 0.0, "rental_uris": {"ios": "https://dc.lft.to/lastmile_qr_scan", "android": "https://dc.lft.to/lastmile_qr_scan"}, "is_disabled": 0, "type": "electric_scooter"}, {"fusion_lon": 0.0, "is_reserved": 0, "bike_id": "f4d2b446d447109de293e78439750b56", "lon": -77.00078566666667, "name": "f4d2b446d447109de293e78439750b56", "lat": 38.876720666666664, "fusion_lat": 0.0, "rental_uris": {"ios": "https://dc.lft.to/lastmile_qr_scan", "android": "https://dc.lft.to/lastmile_qr_scan"}, "is_disabled": 0, "type": "electric_scooter"}, {"fusion_lon": 0.0, "is_reserved": 0, "bike_id": "02de646c5f45c54f46ded9311dd52e4a", "lon": -77.02132966666667, "name": "02de646c5f45c54f46ded9311dd52e4a", "lat": 38.924162833333334, "fusion_lat": 0.0, "rental_uris": {"ios": "https://dc.lft.to/lastmile_qr_scan", "android": "https://dc.lft.to/lastmile_qr_scan"}, "is_disabled": 0, "type": "electric_scooter"}, {"fusion_lon": 0.0, "is_reserved": 0, "bike_id": "a1a74b44a63e51bcee9195c35726eabf", "lon": -77.0242505, "name": "a1a74b44a63e51bcee9195c35726eabf", "lat": 38.930112333333334, "fusion_lat": 0.0, "rental_uris": {"ios": "https://dc.lft.to/lastmile_qr_scan", "android": "https://dc.lft.to/lastmile_qr_scan"}, "is_disabled": 0, "type": "electric_scooter"}, {"fusion_lon": 0.0, "is_reserved": 0, "bike_id": "94b25b90c3148de1bddec36e5e4a83d7", "lon": -77.04881283333333, "name": "94b25b90c3148de1bddec36e5e4a83d7", "lat": 38.914040666666665, "fusion_lat": 0.0, "rental_uris": {"ios": "https://dc.lft.to/lastmile_qr_scan", "android": "https://dc.lft.to/lastmile_qr_scan"}, "is_disabled": 0, "type": "electric_scooter"}, {"fusion_lon": 0.0, "is_reserved": 0, "bike_id": "2d00ff4a5a97502b4c4ff451ea9ca3dc", "lon": -76.98409583333333, "name": "2d00ff4a5a97502b4c4ff451ea9ca3dc", "lat": 38.913919666666665, "fusion_lat": 0.0, "rental_uris": {"ios": "https://dc.lft.to/lastmile_qr_scan", "android": "https://dc.lft.to/lastmile_qr_scan"}, "is_disabled": 0, "type": "electric_scooter"}, {"fusion_lon": 0.0, "is_reserved": 0, "bike_id": "e0e456db24dadbcca4df20fe1e5ba0c6", "lon": -77.03268866666667, "name": "e0e456db24dadbcca4df20fe1e5ba0c6", "lat": 38.93207566666667, "fusion_lat": 0.0, "rental_uris": {"ios": "https://dc.lft.to/lastmile_qr_scan", "android": "https://dc.lft.to/lastmile_qr_scan"}, "is_disabled": 0, "type": "electric_scooter"}, {"fusion_lon": 0.0, "is_reserved": 0, "bike_id": "5cc3fe8fd349afa6b397cdb48118665d", "lon": -77.0255355, "name": "5cc3fe8fd349afa6b397cdb48118665d", "lat": 38.91636366666667, "fusion_lat": 0.0, "rental_uris": {"ios": "https://dc.lft.to/lastmile_qr_scan", "android": "https://dc.lft.to/lastmile_qr_scan"}, "is_disabled": 0, "type": "electric_scooter"}, {"fusion_lon": 0.0, "is_reserved": 0, "bike_id": "0419854314131d86ef9c49576067ae21", "lon": -77.02800116666667, "name": "0419854314131d86ef9c49576067ae21", "lat": 38.8959085, "fusion_lat": 0.0, "rental_uris": {"ios": "https://dc.lft.to/lastmile_qr_scan", "android": "https://dc.lft.to/lastmile_qr_scan"}, "is_disabled": 0, "type": "electric_scooter"}, {"fusion_lon": 0.0, "is_reserved": 0, "bike_id": "7bd7167c69f476d25130d50161cd844a", "lon": -77.038641, "name": "7bd7167c69f476d25130d50161cd844a", "lat": 38.917084833333334, "fusion_lat": 0.0, "rental_uris": {"ios": "https://dc.lft.to/lastmile_qr_scan", "android": "https://dc.lft.to/lastmile_qr_scan"}, "is_disabled": 0, "type": "electric_scooter"}, {"fusion_lon": 0.0, "is_reserved": 0, "bike_id": "2f8346854e31839cbd6799ac3071f1aa", "lon": -77.04533166666667, "name": "2f8346854e31839cbd6799ac3071f1aa", "lat": 38.913247, "fusion_lat": 0.0, "rental_uris": {"ios": "https://dc.lft.to/lastmile_qr_scan", "android": "https://dc.lft.to/lastmile_qr_scan"}, "is_disabled": 0, "type": "electric_scooter"}, {"fusion_lon": 0.0, "is_reserved": 0, "bike_id": "de9d0febb19a0fffd7a43212a331c5b5", "lon": -77.1153105, "name": "de9d0febb19a0fffd7a43212a331c5b5", "lat": 39.074724833333335, "fusion_lat": 0.0, "rental_uris": {"ios": "https://dc.lft.to/lastmile_qr_scan", "android": "https://dc.lft.to/lastmile_qr_scan"}, "is_disabled": 0, "type": "electric_bike"}, {"fusion_lon": 0.0, "is_reserved": 0, "bike_id": "09c46cdfb3bcefc7ffa2566d6ceccd93", "lon": -77.03632216666666, "name": "09c46cdfb3bcefc7ffa2566d6ceccd93", "lat": 38.903831833333335, "fusion_lat": 0.0, "rental_uris": {"ios": "https://dc.lft.to/lastmile_qr_scan", "android": "https://dc.lft.to/lastmile_qr_scan"}, "is_disabled": 0, "type": "electric_scooter"}, {"fusion_lon": 0.0, "is_reserved": 0, "bike_id": "5bcbcd8c512990ad62ff1f73bf42c7bb", "lon": -77.03964616666667, "name": "5bcbcd8c512990ad62ff1f73bf42c7bb", "lat": 38.898520500000004, "fusion_lat": 0.0, "rental_uris": {"ios": "https://dc.lft.to/lastmile_qr_scan", "android": "https://dc.lft.to/lastmile_qr_scan"}, "is_disabled": 0, "type": "electric_scooter"}, {"fusion_lon": 0.0, "is_reserved": 0, "bike_id": "54a76ba413f1411d9af7619b9c870afa", "lon": -77.046097, "name": "54a76ba413f1411d9af7619b9c870afa", "lat": 38.91665316666667, "fusion_lat": 0.0, "rental_uris": {"ios": "https://dc.lft.to/lastmile_qr_scan", "android": "https://dc.lft.to/lastmile_qr_scan"}, "is_disabled": 0, "type": "electric_scooter"}, {"fusion_lon": 0.0, "is_reserved": 0, "bike_id": "056411587adfebd7055bd0a0b78488de", "lon": -77.0167065, "name": "056411587adfebd7055bd0a0b78488de", "lat": 38.9204195, "fusion_lat": 0.0, "rental_uris": {"ios": "https://dc.lft.to/lastmile_qr_scan", "android": "https://dc.lft.to/lastmile_qr_scan"}, "is_disabled": 0, "type": "electric_scooter"}, {"fusion_lon": 0.0, "is_reserved": 0, "bike_id": "20199f90df46e755ecd48be7ad016183", "lon": -76.9985875, "name": "20199f90df46e755ecd48be7ad016183", "lat": 38.90021, "fusion_lat": 0.0, "rental_uris": {"ios": "https://dc.lft.to/lastmile_qr_scan", "android": "https://dc.lft.to/lastmile_qr_scan"}, "is_disabled": 0, "type": "electric_scooter"}, {"fusion_lon": 0.0, "is_reserved": 0, "bike_id": "7ffaed58769e730f1916748b975a6287", "lon": -76.98832116666667, "name": "7ffaed58769e730f1916748b975a6287", "lat": 38.9002995, "fusion_lat": 0.0, "rental_uris": {"ios": "https://dc.lft.to/lastmile_qr_scan", "android": "https://dc.lft.to/lastmile_qr_scan"}, "is_disabled": 0, "type": "electric_scooter"}, {"fusion_lon": 0.0, "is_reserved": 0, "bike_id": "4c4ba30e6b09ca1eb770c78cbe431e1d", "lon": -77.03950433333333, "name": "4c4ba30e6b09ca1eb770c78cbe431e1d", "lat": 38.90268066666667, "fusion_lat": 0.0, "rental_uris": {"ios": "https://dc.lft.to/lastmile_qr_scan", "android": "https://dc.lft.to/lastmile_qr_scan"}, "is_disabled": 0, "type": "electric_scooter"}, {"fusion_lon": 0.0, "is_reserved": 0, "bike_id": "89e08e567433dd17e1f52ac8e82a4fcc", "lon": -77.03372983333334, "name": "89e08e567433dd17e1f52ac8e82a4fcc", "lat": 38.91051866666667, "fusion_lat": 0.0, "rental_uris": {"ios": "https://dc.lft.to/lastmile_qr_scan", "android": "https://dc.lft.to/lastmile_qr_scan"}, "is_disabled": 0, "type": "electric_scooter"}, {"fusion_lon": 0.0, "is_reserved": 0, "bike_id": "134fe80ff3d535e5f8f7fec328af31ee", "lon": -77.0619145, "name": "134fe80ff3d535e5f8f7fec328af31ee", "lat": 38.9301315, "fusion_lat": 0.0, "rental_uris": {"ios": "https://dc.lft.to/lastmile_qr_scan", "android": "https://dc.lft.to/lastmile_qr_scan"}, "is_disabled": 0, "type": "electric_scooter"}, {"fusion_lon": 0.0, "is_reserved": 0, "bike_id": "2d0ef72c37eabdd4ffc0349a2fc52560", "lon": -77.04626766666667, "name": "2d0ef72c37eabdd4ffc0349a2fc52560", "lat": 38.89375366666667, "fusion_lat": 0.0, "rental_uris": {"ios": "https://dc.lft.to/lastmile_qr_scan", "android": "https://dc.lft.to/lastmile_qr_scan"}, "is_disabled": 0, "type": "electric_scooter"}, {"fusion_lon": 0.0, "is_reserved": 0, "bike_id": "5a19fcac3f55f911fde0c3743995fae5", "lon": -76.93914566666666, "name": "5a19fcac3f55f911fde0c3743995fae5", "lat": 38.897035, "fusion_lat": 0.0, "rental_uris": {"ios": "https://dc.lft.to/lastmile_qr_scan", "android": "https://dc.lft.to/lastmile_qr_scan"}, "is_disabled": 0, "type": "electric_scooter"}, {"fusion_lon": 0.0, "is_reserved": 0, "bike_id": "2c919afc28ad06be9aefb2d01fcfef6b", "lon": -77.02952833333333, "name": "2c919afc28ad06be9aefb2d01fcfef6b", "lat": 38.90811216666667, "fusion_lat": 0.0, "rental_uris": {"ios": "https://dc.lft.to/lastmile_qr_scan", "android": "https://dc.lft.to/lastmile_qr_scan"}, "is_disabled": 0, "type": "electric_scooter"}, {"fusion_lon": 0.0, "is_reserved": 0, "bike_id": "0799e390163fc89e1ec9160ac815ad5f", "lon": -77.031394, "name": "0799e390163fc89e1ec9160ac815ad5f", "lat": 38.8922395, "fusion_lat": 0.0, "rental_uris": {"ios": "https://dc.lft.to/lastmile_qr_scan", "android": "https://dc.lft.to/lastmile_qr_scan"}, "is_disabled": 0, "type": "electric_scooter"}, {"fusion_lon": 0.0, "is_reserved": 0, "bike_id": "7d39d466ba1cef2c2af47bc8010b5f40", "lon": -76.96103483333333, "name": "7d39d466ba1cef2c2af47bc8010b5f40", "lat": 38.94970566666667, "fusion_lat": 0.0, "rental_uris": {"ios": "https://dc.lft.to/lastmile_qr_scan", "android": "https://dc.lft.to/lastmile_qr_scan"}, "is_disabled": 0, "type": "electric_bike"}, {"fusion_lon": 0.0, "is_reserved": 0, "bike_id": "6ed444fe8defed7c376b4617e5a98b6b", "lon": -77.003263, "name": "6ed444fe8defed7c376b4617e5a98b6b", "lat": 38.924382666666666, "fusion_lat": 0.0, "rental_uris": {"ios": "https://dc.lft.to/lastmile_qr_scan", "android": "https://dc.lft.to/lastmile_qr_scan"}, "is_disabled": 0, "type": "electric_scooter"}, {"fusion_lon": 0.0, "is_reserved": 0, "bike_id": "be855962484142fff87c328cea38911c", "lon": -77.01175066666667, "name": "be855962484142fff87c328cea38911c", "lat": 38.87660233333333, "fusion_lat": 0.0, "rental_uris": {"ios": "https://dc.lft.to/lastmile_qr_scan", "android": "https://dc.lft.to/lastmile_qr_scan"}, "is_disabled": 0, "type": "electric_scooter"}, {"fusion_lon": 0.0, "is_reserved": 0, "bike_id": "fa997c35b3c65bcd4d719fe9e796388f", "lon": -76.948883, "name": "fa997c35b3c65bcd4d719fe9e796388f", "lat": 38.8950905, "fusion_lat": 0.0, "rental_uris": {"ios": "https://dc.lft.to/lastmile_qr_scan", "android": "https://dc.lft.to/lastmile_qr_scan"}, "is_disabled": 0, "type": "electric_scooter"}, {"fusion_lon": 0.0, "is_reserved": 0, "bike_id": "a0b8787f8b0fd574cbf892469d048482", "lon": -77.02318883333334, "name": "a0b8787f8b0fd574cbf892469d048482", "lat": 38.916791333333336, "fusion_lat": 0.0, "rental_uris": {"ios": "https://dc.lft.to/lastmile_qr_scan", "android": "https://dc.lft.to/lastmile_qr_scan"}, "is_disabled": 0, "type": "electric_scooter"}, {"fusion_lon": 0.0, "is_reserved": 0, "bike_id": "1683f0d52860b008105fda393adc31b6", "lon": -77.04096016666666, "name": "1683f0d52860b008105fda393adc31b6", "lat": 38.923706, "fusion_lat": 0.0, "rental_uris": {"ios": "https://dc.lft.to/lastmile_qr_scan", "android": "https://dc.lft.to/lastmile_qr_scan"}, "is_disabled": 0, "type": "electric_scooter"}, {"fusion_lon": 0.0, "is_reserved": 0, "bike_id": "d069c2bf1b1066c37125162d5681041a", "lon": -76.98824333333333, "name": "d069c2bf1b1066c37125162d5681041a", "lat": 38.87802, "fusion_lat": 0.0, "rental_uris": {"ios": "https://dc.lft.to/lastmile_qr_scan", "android": "https://dc.lft.to/lastmile_qr_scan"}, "is_disabled": 0, "type": "electric_scooter"}, {"fusion_lon": 0.0, "is_reserved": 0, "bike_id": "ef81582bb59e69465eb518a8e4e938af", "lon": -77.01903933333334, "name": "ef81582bb59e69465eb518a8e4e938af", "lat": 38.92334683333333, "fusion_lat": 0.0, "rental_uris": {"ios": "https://dc.lft.to/lastmile_qr_scan", "android": "https://dc.lft.to/lastmile_qr_scan"}, "is_disabled": 0, "type": "electric_scooter"}, {"fusion_lon": 0.0, "is_reserved": 0, "bike_id": "c5d60f9214989feb1764c2ab10a09738", "lon": -76.98764616666666, "name": "c5d60f9214989feb1764c2ab10a09738", "lat": 38.8580645, "fusion_lat": 0.0, "rental_uris": {"ios": "https://dc.lft.to/lastmile_qr_scan", "android": "https://dc.lft.to/lastmile_qr_scan"}, "is_disabled": 0, "type": "electric_bike"}, {"fusion_lon": 0.0, "is_reserved": 0, "bike_id": "cb8b8195eaf9179d40bb7972c154ed82", "lon": -77.0328205, "name": "cb8b8195eaf9179d40bb7972c154ed82", "lat": 38.93450166666667, "fusion_lat": 0.0, "rental_uris": {"ios": "https://dc.lft.to/lastmile_qr_scan", "android": "https://dc.lft.to/lastmile_qr_scan"}, "is_disabled": 0, "type": "electric_scooter"}, {"fusion_lon": 0.0, "is_reserved": 0, "bike_id": "e0df388a5cae389bcdc68ec0531aafc7", "lon": -77.0386535, "name": "e0df388a5cae389bcdc68ec0531aafc7", "lat": 38.902686, "fusion_lat": 0.0, "rental_uris": {"ios": "https://dc.lft.to/lastmile_qr_scan", "android": "https://dc.lft.to/lastmile_qr_scan"}, "is_disabled": 0, "type": "electric_scooter"}, {"fusion_lon": 0.0, "is_reserved": 0, "bike_id": "c90dc5e9e5b1506d7cb23f8f06fd93cb", "lon": -77.0383225, "name": "c90dc5e9e5b1506d7cb23f8f06fd93cb", "lat": 38.902552166666666, "fusion_lat": 0.0, "rental_uris": {"ios": "https://dc.lft.to/lastmile_qr_scan", "android": "https://dc.lft.to/lastmile_qr_scan"}, "is_disabled": 0, "type": "electric_scooter"}, {"fusion_lon": 0.0, "is_reserved": 0, "bike_id": "fab019c673738591d635d317dbb69810", "lon": -77.08286983333333, "name": "fab019c673738591d635d317dbb69810", "lat": 38.930454, "fusion_lat": 0.0, "rental_uris": {"ios": "https://dc.lft.to/lastmile_qr_scan", "android": "https://dc.lft.to/lastmile_qr_scan"}, "is_disabled": 0, "type": "electric_bike"}, {"fusion_lon": 0.0, "is_reserved": 0, "bike_id": "fe3011f1a4cd97adbd01b8e112b60930", "lon": -77.01364916666667, "name": "fe3011f1a4cd97adbd01b8e112b60930", "lat": 39.029230166666665, "fusion_lat": 0.0, "rental_uris": {"ios": "https://dc.lft.to/lastmile_qr_scan", "android": "https://dc.lft.to/lastmile_qr_scan"}, "is_disabled": 0, "type": "electric_bike"}, {"fusion_lon": 0.0, "is_reserved": 0, "bike_id": "cb80d9a458a4dc6b17ebf31263a060d9", "lon": -77.04732566666667, "name": "cb80d9a458a4dc6b17ebf31263a060d9", "lat": 38.89749033333333, "fusion_lat": 0.0, "rental_uris": {"ios": "https://dc.lft.to/lastmile_qr_scan", "android": "https://dc.lft.to/lastmile_qr_scan"}, "is_disabled": 0, "type": "electric_scooter"}, {"fusion_lon": 0.0, "is_reserved": 0, "bike_id": "e554613ce45b7163a6927cc9fb9d8494", "lon": -77.02508833333333, "name": "e554613ce45b7163a6927cc9fb9d8494", "lat": 38.9198545, "fusion_lat": 0.0, "rental_uris": {"ios": "https://dc.lft.to/lastmile_qr_scan", "android": "https://dc.lft.to/lastmile_qr_scan"}, "is_disabled": 0, "type": "electric_scooter"},