{"data": {"bikes": [{"bike_id": "f776f17efe6e8fbc5a34e235b12673ef", "lat": 38.904194, "is_reserved": 0, "fusion_lat": 0.0, "rental_uris": {"android": "https://dc.lft.to/lastmile_qr_scan", "ios": "https://dc.lft.to/lastmile_qr_scan"}, "fusion_lon": 0.0, "name": "f776f17efe6e8fbc5a34e235b12673ef", "lon": -76.97375366666667, "is_disabled": 0, "type": "electric_scooter"}, {"bike_id": "4fb344801bd410cd20feea6bcb64fd2c", "lat": 38.91812933333333, "is_reserved": 0, "fusion_lat": 0.0, "rental_uris": {"android": "https://dc.lft.to/lastmile_qr_scan", "ios": "https://dc.lft.to/lastmile_qr_scan"}, "fusion_lon": 0.0, "name": "4fb344801bd410cd20feea6bcb64fd2c", "lon": -77.02474766666667, "is_disabled": 0, "type": "electric_scooter"}, {"bike_id": "c193ee8c4f22ec5a3e1dd26be2f09029", "lat": 38.91679516666667, "is_reserved": 0, "fusion_lat": 0.0, "rental_uris": {"android": "https://dc.lft.to/lastmile_qr_scan", "ios": "https://dc.lft.to/lastmile_qr_scan"}, "fusion_lon": 0.0, "name": "c193ee8c4f22ec5a3e1dd26be2f09029", "lon": -77.03216066666667, "is_disabled": 0, "type": "electric_scooter"}, {"bike_id": "d179a46dc996fada861be8f473c3b307", "lat": 38.905645166666666, "is_reserved": 0, "fusion_lat": 0.0, "rental_uris": {"android": "https://dc.lft.to/lastmile_qr_scan", "ios": "https://dc.lft.to/lastmile_qr_scan"}, "fusion_lon": 0.0, "name": "d179a46dc996fada861be8f473c3b307", "lon": -77.0418265, "is_disabled": 0, "type": "electric_scooter"}, {"bike_id": "76b52ef2b21005525958d5315a386b39", "lat": 38.865677833333336, "is_reserved": 0, "fusion_lat": 0.0, "rental_uris": {"android": "https://dc.lft.to/lastmile_qr_scan", "ios": "https://dc.lft.to/lastmile_qr_scan"}, "fusion_lon": 0.0, "name": "76b52ef2b21005525958d5315a386b39", "lon": -76.9821875, "is_disabled": 0, "type": "electric_scooter"}, {"bike_id": "3a93e3ed285ce3788f887da44e09fd98", "lat": 38.9157, "is_reserved": 0, "fusion_lat": 0.0, "rental_uris": {"android": "https://dc.lft.to/lastmile_qr_scan", "ios": "https://dc.lft.to/lastmile_qr_scan"}, "fusion_lon": 0.0, "name": "3a93e3ed285ce3788f887da44e09fd98", "lon": -77.02291883333334, "is_disabled": 0, "type": "electric_scooter"}, {"bike_id": "3caf5442fcb53a731b3b263efe53b551", "lat": 38.926517833333335, "is_reserved": 0, "fusion_lat": 0.0, "rental_uris": {"android": "https://dc.lft.to/lastmile_qr_scan", "ios": "https://dc.lft.to/lastmile_qr_scan"}, "fusion_lon": 0.0, "name": "3caf5442fcb53a731b3b263efe53b551", "lon": -77.02481766666666, "is_disabled": 0, "type": "electric_scooter"}, {"bike_id": "a5c17f7fa385defa58f153eab4581163", "lat": 38.90769866666667, "is_reserved": 0, "fusion_lat": 0.0, "rental_uris": {"android": "https://dc.lft.to/lastmile_qr_scan", "ios": "https://dc.lft.to/lastmile_qr_scan"}, "fusion_lon": 0.0, "name": "a5c17f7fa385defa58f153eab4581163", "lon": -77.06278166666667, "is_disabled": 0, "type": "electric_scooter"}, {"bike_id": "f73c088b988ea9e08027db79e16e5306", "lat": 38.89955916666667, "is_reserved": 0, "fusion_lat": 0.0, "rental_uris": {"android": "https://dc.lft.to/lastmile_qr_scan", "ios": "https://dc.lft.to/lastmile_qr_scan"}, "fusion_lon": 0.0, "name": "f73c088b988ea9e08027db79e16e5306", "lon": -76.97542883333334, "is_disabled": 0, "type": "electric_scooter"}, {"bike_id": "bc02997bf7a23471a3f182d123633152", "lat": 38.89225616666667, "is_reserved": 0, "fusion_lat": 0.0, "rental_uris": {"android": "https://dc.lft.to/lastmile_qr_scan", "ios": "https://dc.lft.to/lastmile_qr_scan"}, "fusion_lon": 0.0, "name": "bc02997bf7a23471a3f182d123633152", "lon": -77.02452583333333, "is_disabled": 0, "type": "electric_scooter"}, {"bike_id": "b1df71d90c5e4c085645d1fec203eb6d", "lat": 38.925741333333335, "is_reserved": 0, "fusion_lat": 0.0, "rental_uris": {"android": "https://dc.lft.to/lastmile_qr_scan", "ios": "https://dc.lft.to/lastmile_qr_scan"}, "fusion_lon": 0.0, "name": "b1df71d90c5e4c085645d1fec203eb6d", "lon": -77.05430133333333, "is_disabled": 0, "type": "electric_scooter"}, {"bike_id": "8552ed32ff19e7d042ab6d02dcd193d5", "lat": 38.89752333333333, "is_reserved": 0, "fusion_lat": 0.0, "rental_uris": {"android": "https://dc.lft.to/lastmile_qr_scan", "ios": "https://dc.lft.to/lastmile_qr_scan"}, "fusion_lon": 0.0, "name": "8552ed32ff19e7d042ab6d02dcd193d5", "lon": -77.02856116666666, "is_disabled": 0, "type": "electric_scooter"}, {"bike_id": "bfa7c0f7ee923d7cc55e5f0ea341db52", "lat": 38.90972583333333, "is_reserved": 0, "fusion_lat": 0.0, "rental_uris": {"android": "https://dc.lft.to/lastmile_qr_scan", "ios": "https://dc.lft.to/lastmile_qr_scan"}, "fusion_lon": 0.0, "name": "bfa7c0f7ee923d7cc55e5f0ea341db52", "lon": -77.02382883333334, "is_disabled": 0, "type": "electric_scooter"}, {"bike_id": "d0292057661dd1a69512d25d2a65aa99", "lat": 38.90178983333333, "is_reserved": 0, "fusion_lat": 0.0, "rental_uris": {"android": "https://dc.lft.to/lastmile_qr_scan", "ios": "https://dc.lft.to/lastmile_qr_scan"}, "fusion_lon": 0.0, "name": "d0292057661dd1a69512d25d2a65aa99", "lon": -76.98448633333334, "is_disabled": 0, "type": "electric_scooter"}, {"bike_id": "75d7017ad78de2d362ab77f8e228e35d", "lat": 38.892054333333334, "is_reserved": 0, "fusion_lat": 0.0, "rental_uris": {"android": "https://dc.lft.to/lastmile_qr_scan", "ios": "https://dc.lft.to/lastmile_qr_scan"}, "fusion_lon": 0.0, "name": "75d7017ad78de2d362ab77f8e228e35d", "lon": -76.97644316666667, "is_disabled": 0, "type": "electric_bike"}, {"bike_id": "50eb1dc88f0b8b2c551d73ebbf4aa5df", "lat": 38.900424, "is_reserved": 0, "fusion_lat": 0.0, "rental_uris": {"android": "https://dc.lft.to/lastmile_qr_scan", "ios": "https://dc.lft.to/lastmile_qr_scan"}, "fusion_lon": 0.0, "name": "50eb1dc88f0b8b2c551d73ebbf4aa5df", "lon": -77.02612766666667, "is_disabled": 0, "type": "electric_scooter"}, {"bike_id": "1c1b69782bab4d6c8cdcc5cee17537a7", "lat": 38.86659066666667, "is_reserved": 0, "fusion_lat": 0.0, "rental_uris": {"android": "https://dc.lft.to/lastmile_qr_scan", "ios": "https://dc.lft.to/lastmile_qr_scan"}, "fusion_lon": 0.0, "name": "1c1b69782bab4d6c8cdcc5cee17537a7", "lon": -76.9888985, "is_disabled": 0, "type": "electric_scooter"}, {"bike_id": "5e4631dc2e152cc7266beca1fb8146be", "lat": 38.9068595, "is_reserved": 0, "fusion_lat": 0.0, "rental_uris": {"android": "https://dc.lft.to/lastmile_qr_scan", "ios": "https://dc.lft.to/lastmile_qr_scan"}, "fusion_lon": 0.0, "name": "5e4631dc2e152cc7266beca1fb8146be", "lon": -77.06154916666667, "is_disabled": 0, "type": "electric_scooter"}, {"bike_id": "b8b3b38574878a17a6e443d6089b596e", "lat": 38.907439333333336, "is_reserved": 0, "fusion_lat": 0.0, "rental_uris": {"android": "https://dc.lft.to/lastmile_qr_scan", "ios": "https://dc.lft.to/lastmile_qr_scan"}, "fusion_lon": 0.0, "name": "b8b3b38574878a17a6e443d6089b596e", "lon": -77.00063666666667, "is_disabled": 0, "type": "electric_scooter"}, {"bike_id": "2fec090deb9b0ca2b4ee9101f4b61d6c", "lat": 38.846123, "is_reserved": 0, "fusion_lat": 0.0, "rental_uris": {"android": "https://dc.lft.to/lastmile_qr_scan", "ios": "https://dc.lft.to/lastmile_qr_scan"}, "fusion_lon": 0.0, "name": "2fec090deb9b0ca2b4ee9101f4b61d6c", "lon": -76.96912683333333, "is_disabled": 0, "type": "electric_bike"}, {"bike_id": "8d40f4d38485415bec8e233d783dd9eb", "lat": 38.924555166666664, "is_reserved": 0, "fusion_lat": 0.0, "rental_uris": {"android": "https://dc.lft.to/lastmile_qr_scan", "ios": "https://dc.lft.to/lastmile_qr_scan"}, "fusion_lon": 0.0, "name": "8d40f4d38485415bec8e233d783dd9eb", "lon": -77.0522665, "is_disabled": 0, "type": "electric_scooter"}, {"bike_id": "29f0c45b5a72e2dbe46fd8e8dffb1c13", "lat": 38.892570666666664, "is_reserved": 0, "fusion_lat": 0.0, "rental_uris": {"android": "https://dc.lft.to/lastmile_qr_scan", "ios": "https://dc.lft.to/lastmile_qr_scan"}, "fusion_lon": 0.0, "name": "29f0c45b5a72e2dbe46fd8e8dffb1c13", "lon": -76.925737, "is_disabled": 0, "type": "electric_scooter"}, {"bike_id": "173ffe1e87db84b2dcb01ed1aa401b3d", "lat": 38.896065, "is_reserved": 0, "fusion_lat": 0.0, "rental_uris": {"android": "https://dc.lft.to/lastmile_qr_scan", "ios": "https://dc.lft.to/lastmile_qr_scan"}, "fusion_lon": 0.0, "name": "173ffe1e87db84b2dcb01ed1aa401b3d", "lon": -77.04433933333334, "is_disabled": 0, "type": "electric_scooter"}, {"bike_id": "c120fabe52c6fef3642a56436add9536", "lat": 38.884167166666664, "is_reserved": 0, "fusion_lat": 0.0, "rental_uris": {"android": "https://dc.lft.to/lastmile_qr_scan", "ios": "https://dc.lft.to/lastmile_qr_scan"}, "fusion_lon": 0.0, "name": "c120fabe52c6fef3642a56436add9536", "lon": -77.00060566666667, "is_disabled": 0, "type": "electric_scooter"}, {"bike_id": "d402ecf62813dc0eec5eddbde19f6f52", "lat": 38.932011, "is_reserved": 0, "fusion_lat": 0.0, "rental_uris": {"android": "https://dc.lft.to/lastmile_qr_scan", "ios": "https://dc.lft.to/lastmile_qr_scan"}, "fusion_lon": 0.0, "name": "d402ecf62813dc0eec5eddbde19f6f52", "lon": -77.03857833333333, "is_disabled": 0, "type": "electric_scooter"}, {"bike_id": "26744cf4e87a0e928d4de1493bcca165", "lat": 38.903823, "is_reserved": 0, "fusion_lat": 0.0, "rental_uris": {"android": "https://dc.lft.to/lastmile_qr_scan", "ios": "https://dc.lft.to/lastmile_qr_scan"}, "fusion_lon": 0.0, "name": "26744cf4e87a0e928d4de1493bcca165", "lon": -77.04501683333334, "is_disabled": 0, "type": "electric_scooter"}, {"bike_id": "417daf45dfbe99a309cceab03c377cd9", "lat": 38.8769005, "is_reserved": 0, "fusion_lat": 0.0, "rental_uris": {"android": "https://dc.lft.to/lastmile_qr_scan", "ios": "https://dc.lft.to/lastmile_qr_scan"}, "fusion_lon": 0.0, "name": "417daf45dfbe99a309cceab03c377cd9", "lon": -77.01751966666667, "is_disabled": 0, "type": "electric_scooter"}, {"bike_id": "9a247375785ca7abba7b8c69a5d74c8d", "lat": 38.905444333333335, "is_reserved": 0, "fusion_lat": 0.0, "rental_uris": {"android": "https://dc.lft.to/lastmile_qr_scan", "ios": "https://dc.lft.to/lastmile_qr_scan"}, "fusion_lon": 0.0, "name": "9a247375785ca7abba7b8c69a5d74c8d", "lon": -77.03246483333334, "is_disabled": 0, "type": "electric_scooter"}, {"bike_id": "524072ed7b7c18160b3bb7479536edce", "lat": 38.874640166666666, "is_reserved": 0, "fusion_lat": 0.0, "rental_uris": {"android": "https://dc.lft.to/lastmile_qr_scan", "ios": "https://dc.lft.to/lastmile_qr_scan"}, "fusion_lon": 0.0, "name": "524072ed7b7c18160b3bb7479536edce", "lon": -77.00486266666667, "is_disabled": 0, "type": "electric_scooter"}, {"bike_id": "68711e9387e7791b28db3e52e3ead44e", "lat": 38.88720583333333, "is_reserved": 0, "fusion_lat": 0.0, "rental_uris": {"android": "https://dc.lft.to/lastmile_qr_scan", "ios": "https://dc.lft.to/lastmile_qr_scan"}, "fusion_lon": 0.0, "name": "68711e9387e7791b28db3e52e3ead44e", "lon": -76.99628483333333, "is_disabled": 0, "type": "electric_scooter"}, {"bike_id": "5942106deec9f8049b8a70cff8637397", "lat": 38.89292616666667, "is_reserved": 0, "fusion_lat": 0.0, "rental_uris": {"android": "https://dc.lft.to/lastmile_qr_scan", "ios": "https://dc.lft.to/lastmile_qr_scan"}, "fusion_lon": 0.0, "name": "5942106deec9f8049b8a70cff8637397", "lon": -77.0487495, "is_disabled": 0, "type": "electric_scooter"}, {"bike_id": "c843e12a9721e2d7678da7644a3c5449", "lat": 38.89735866666667, "is_reserved": 0, "fusion_lat": 0.0, "rental_uris": {"android": "https://dc.lft.to/lastmile_qr_scan", "ios": "https://dc.lft.to/lastmile_qr_scan"}, "fusion_lon": 0.0, "name": "c843e12a9721e2d7678da7644a3c5449", "lon": -77.04678966666667, "is_disabled": 0, "type": "electric_scooter"}, {"bike_id": "90b45c908434ecafbd0445ed98af4480", "lat": 38.89623983333333, "is_reserved": 0, "fusion_lat": 0.0, "rental_uris": {"android": "https://dc.lft.to/lastmile_qr_scan", "ios": "https://dc.lft.to/lastmile_qr_scan"}, "fusion_lon": 0.0, "name": "90b45c908434ecafbd0445ed98af4480", "lon": -77.023922, "is_disabled": 0, "type": "electric_scooter"}, {"bike_id": "b120186e76f8a6d1ee7616e41e4cd2b3", "lat": 38.906398, "is_reserved": 0, "fusion_lat": 0.0, "rental_uris": {"android": "https://dc.lft.to/lastmile_qr_scan", "ios": "https://dc.lft.to/lastmile_qr_scan"}, "fusion_lon": 0.0, "name": "b120186e76f8a6d1ee7616e41e4cd2b3", "lon": -77.01829766666667, "is_disabled": 0, "type": "electric_scooter"}, {"bike_id": "bf79b125895478bceebe502432a67f9f", "lat": 38.87909716666667, "is_reserved": 0, "fusion_lat": 0.0, "rental_uris": {"android": "https://dc.lft.to/lastmile_qr_scan", "ios": "https://dc.lft.to/lastmile_qr_scan"}, "fusion_lon": 0.0, "name": "bf79b125895478bceebe502432a67f9f", "lon": -77.0055445, "is_disabled": 0, "type": "electric_scooter"}, {"bike_id": "722d4487ada46e20b3a0a58848c476e5", "lat": 38.90585766666667, "is_reserved": 0, "fusion_lat": 0.0, "rental_uris": {"android": "https://dc.lft.to/lastmile_qr_scan", "ios": "https://dc.lft.to/lastmile_qr_scan"}, "fusion_lon": 0.0, "name": "722d4487ada46e20b3a0a58848c476e5", "lon": -77.00252533333334, "is_disabled": 0, "type": "electric_scooter"}, {"bike_id": "6f9e0e5e2abfd4fe6b8d79d3cfb89b45", "lat": 38.9014605, "is_reserved": 0, "fusion_lat": 0.0, "rental_uris": {"android": "https://dc.lft.to/lastmile_qr_scan", "ios": "https://dc.lft.to/lastmile_qr_scan"}, "fusion_lon": 0.0, "name": "6f9e0e5e2abfd4fe6b8d79d3cfb89b45", "lon": -77.04195933333334, "is_disabled": 0, "type": "electric_scooter"}, {"bike_id": "cc0c54b3224675cc31236320a09dab43", "lat": 38.89876833333334, "is_reserved": 0, "fusion_lat": 0.0, "rental_uris": {"android": "https://dc.lft.to/lastmile_qr_scan", "ios": "https://dc.lft.to/lastmile_qr_scan"}, "fusion_lon": 0.0, "name": "cc0c54b3224675cc31236320a09dab43", "lon": -77.0488165, "is_disabled": 0, "type": "electric_scooter"}, {"bike_id": "a8710590ce1934331d27c4083e2b4a92", "lat": 38.89730083333333, "is_reserved": 0, "fusion_lat": 0.0, "rental_uris": {"android": "https://dc.lft.to/lastmile_qr_scan", "ios": "https://dc.lft.to/lastmile_qr_scan"}, "fusion_lon": 0.0, "name": "a8710590ce1934331d27c4083e2b4a92", "lon": -77.0270475, "is_disabled": 0, "type": "electric_scooter"}, {"bike_id": "aab199b5f6c53a1391d942dde7c625cb", "lat": 38.906108833333334, "is_reserved": 0, "fusion_lat": 0.0, "rental_uris": {"android": "https://dc.lft.to/lastmile_qr_scan", "ios": "https://dc.lft.to/lastmile_qr_scan"}, "fusion_lon": 0.0, "name": "aab199b5f6c53a1391d942dde7c625cb", "lon": -77.028015, "is_disabled": 0, "type": "electric_scooter"}, {"bike_id": "d3e2990ef34789babe5faa248697aead", "lat": 38.8924285, "is_reserved": 0, "fusion_lat": 0.0, "rental_uris": {"android": "https://dc.lft.to/lastmile_qr_scan", "ios": "https://dc.lft.to/lastmile_qr_scan"}, "fusion_lon": 0.0, "name": "d3e2990ef34789babe5faa248697aead", "lon": -77.03958533333333, "is_disabled": 0, "type": "electric_scooter"}, {"bike_id": "2e3adda62d5b5094aa93406e3267217b", "lat": 38.884977, "is_reserved": 0, "fusion_lat": 0.0, "rental_uris": {"android": "https://dc.lft.to/lastmile_qr_scan", "ios": "https://dc.lft.to/lastmile_qr_scan"}, "fusion_lon": 0.0, "name": "2e3adda62d5b5094aa93406e3267217b", "lon": -77.00730066666667, "is_disabled": 0, "type": "electric_scooter"}, {"bike_id": "ad99e595ea023acb4c66a476af43b3f3", "lat": 38.937641666666664, "is_reserved": 0, "fusion_lat": 0.0, "rental_uris": {"android": "https://dc.lft.to/lastmile_qr_scan", "ios": "https://dc.lft.to/lastmile_qr_scan"}, "fusion_lon": 0.0, "name": "ad99e595ea023acb4c66a476af43b3f3", "lon": -77.01967416666666, "is_disabled": 0, "type": "electric_scooter"}, {"bike_id": "10cf5d4400e3875228bdf757eaa634b4", "lat": 38.8781565, "is_reserved": 0, "fusion_lat": 0.0, "rental_uris": {"android": "https://dc.lft.to/lastmile_qr_scan", "ios": "https://dc.lft.to/lastmile_qr_scan"}, "fusion_lon": 0.0, "name": "10cf5d4400e3875228bdf757eaa634b4", "lon": -76.971735, "is_disabled": 0, "type": "electric_scooter"}, {"bike_id": "479236bf5596bcf2fdfa3c1b2e002740", "lat": 38.90736483333333, "is_reserved": 0, "fusion_lat": 0.0, "rental_uris": {"android": "https://dc.lft.to/lastmile_qr_scan", "ios": "https://dc.lft.to/lastmile_qr_scan"}, "fusion_lon": 0.0, "name": "479236bf5596bcf2fdfa3c1b2e002740", "lon": -77.00222233333334, "is_disabled": 0, "type": "electric_scooter"}, {"bike_id": "994168feeb15038e74c8cc54b6eac319", "lat": 38.892420333333334, "is_reserved": 0, "fusion_lat": 0.0, "rental_uris": {"android": "https://dc.lft.to/lastmile_qr_scan", "ios": "https://dc.lft.to/lastmile_qr_scan"}, "fusion_lon": 0.0, "name": "994168feeb15038e74c8cc54b6eac319", "lon": -77.04504733333333, "is_disabled": 0, "type": "electric_scooter"}, {"bike_id": "16569b6503519412ab69b835d3efa4eb", "lat": 38.926278333333336, "is_reserved": 0, "fusion_lat": 0.0, "rental_uris": {"android": "https://dc.lft.to/lastmile_qr_scan", "ios": "https://dc.lft.to/lastmile_qr_scan"}, "fusion_lon": 0.0, "name": "16569b6503519412ab69b835d3efa4eb", "lon": -77.03783316666667, "is_disabled": 0, "type": "electric_scooter"}, {"bike_id": "9d230d72cb513868a0ad225b769b1030", "lat": 38.915632, "is_reserved": 0, "fusion_lat": 0.0, "rental_uris": {"android": "https://dc.lft.to/lastmile_qr_scan", "ios": "https://dc.lft.to/lastmile_qr_scan"}, "fusion_lon": 0.0, "name": "9d230d72cb513868a0ad225b769b1030", "lon": -77.031369, "is_disabled": 0, "type": "electric_scooter"}, {"bike_id": "c8e77ecd8488dfcd2eb9ecf6e94e9f4e", "lat": 38.85897033333333, "is_reserved": 0, "fusion_lat": 0.0, "rental_uris": {"android": "https://dc.lft.to/lastmile_qr_scan", "ios": "https://dc.lft.to/lastmile_qr_scan"}, "fusion_lon": 0.0, "name": "c8e77ecd8488dfcd2eb9ecf6e94e9f4e", "lon": -76.99729283333333, "is_disabled": 0, "type": "electric_scooter"}, {"bike_id": "b75f48829a26df67b3112ac5779ab32a", "lat": 38.902431, "is_reserved": 0, "fusion_lat": 0.0, "rental_uris": {"android": "https://dc.lft.to/lastmile_qr_scan", "ios": "https://dc.lft.to/lastmile_qr_scan"}, "fusion_lon": 0.0, "name": "b75f48829a26df67b3112ac5779ab32a", "lon": -77.019158, "is_disabled": 0, "type": "electric_scooter"}, {"bike_id": "ebd5b92def6e69c9d00fcec2a0fdf48b", "lat": 38.883144, "is_reserved": 0, "fusion_lat": 0.0, "rental_uris": {"android": "https://dc.lft.to/lastmile_qr_scan", "ios": "https://dc.lft.to/lastmile_qr_scan"}, "fusion_lon": 0.0, "name": "ebd5b92def6e69c9d00fcec2a0fdf48b", "lon": -77.00346466666667, "is_disabled": 0, "type": "electric_scooter"}, {"bike_id": "dc75c0c5e1ca924e4e755adb5d877695", "lat": 38.99097016666666, "is_reserved": 0, "fusion_lat": 0.0, "rental_uris": {"android": "https://dc.lft.to/lastmile_qr_scan", "ios": "https://dc.lft.to/lastmile_qr_scan"}, "fusion_lon": 0.0, "name": "dc75c0c5e1ca924e4e755adb5d877695", "lon": -76.99356333333333, "is_disabled": 0, "type": "electric_bike"}, {"bike_id": "78f10c8c36716bf1294880dd8aa7e41d", "lat": 38.924118666666665, "is_reserved": 0, "fusion_lat": 0.0, "rental_uris": {"android": "https://dc.lft.to/lastmile_qr_scan", "ios": "https://dc.lft.to/lastmile_qr_scan"}, "fusion_lon": 0.0, "name": "78f10c8c36716bf1294880dd8aa7e41d", "lon": -77.03910066666667, "is_disabled": 0, "type": "electric_scooter"}, {"bike_id": "f2dd66c9ad3a35e3cad9fcf3380fbd30", "lat": 38.884328333333336, "is_reserved": 0, "fusion_lat": 0.0, "rental_uris": {"android": "https://dc.lft.to/lastmile_qr_scan", "ios": "https://dc.lft.to/lastmile_qr_scan"}, "fusion_lon": 0.0, "name": "f2dd66c9ad3a35e3cad9fcf3380fbd30", "lon": -76.95753683333334, "is_disabled": 0, "type": "electric_scooter"}, {"bike_id": "2e3fcbfc2d9bb2689d79db9243a14e2b", "lat": 38.933898, "is_reserved": 0, "fusion_lat": 0.0, "rental_uris": {"android": "https://dc.lft.to/lastmile_qr_scan", "ios": "https://dc.lft.to/lastmile_qr_scan"}, "fusion_lon": 0.0, "name": "2e3fcbfc2d9bb2689d79db9243a14e2b", "lon": -77.05739766666666, "is_disabled": 0, "type": "electric_scooter"}, {"bike_id": "5d678f663bddacd11f3d39fda64522f7", "lat": 38.897177, "is_reserved": 0, "fusion_lat": 0.0, "rental_uris": {"android": "https://dc.lft.to/lastmile_qr_scan", "ios": "https://dc.lft.to/lastmile_qr_scan"}, "fusion_lon": 0.0, "name": "5d678f663bddacd11f3d39fda64522f7", "lon": -77.00797033333333, "is_disabled": 0, "type": "electric_scooter"}, {"bike_id": "308efac6819e5e761e61867f4e0c00af", "lat": 38.90865383333333, "is_reserved": 0, "fusion_lat": 0.0, "rental_uris": {"android": "https://dc.lft.to/lastmile_qr_scan", "ios": "https://dc.lft.to/lastmile_qr_scan"}, "fusion_lon": 0.0, "name": "308efac6819e5e761e61867f4e0c00af", "lon": -77.0407715, "is_disabled": 0, "type": "electric_scooter"}, {"bike_id": "454d758e07c84bdf27118719128aeac8", "lat": 38.914419333333335, "is_reserved": 0, "fusion_lat": 0.0, "rental_uris": {"android": "https://dc.lft.to/lastmile_qr_scan", "ios": "https://dc.lft.to/lastmile_qr_scan"}, "fusion_lon": 0.0, "name": "454d758e07c84bdf27118719128aeac8", "lon": -77.02592533333333, "is_disabled": 0, "type": "electric_scooter"}, {"bike_id": "042f694ab248d059984a439aa5afa7b6", "lat": 38.90049166666667, "is_reserved": 0, "fusion_lat": 0.0, "rental_uris": {"android": "https://dc.lft.to/lastmile_qr_scan", "ios": "https://dc.lft.to/lastmile_qr_scan"}, "fusion_lon": 0.0, "name": "042f694ab248d059984a439aa5afa7b6", "lon": -77.02855583333333, "is_disabled": 0, "type": "electric_scooter"}, {"bike_id": "838753d8659acd38394387517ae9a69b", "lat": 38.903743666666664, "is_reserved": 0, "fusion_lat": 0.0, "rental_uris": {"android": "https://dc.lft.to/lastmile_qr_scan", "ios": "https://dc.lft.to/lastmile_qr_scan"}, "fusion_lon": 0.0, "name": "838753d8659acd38394387517ae9a69b", "lon": -77.03190866666667, "is_disabled": 0, "type": "electric_scooter"}, {"bike_id": "068bcd6bed1577807803d142eef03449", "lat": 38.899793, "is_reserved": 0, "fusion_lat": 0.0, "rental_uris": {"android": "https://dc.lft.to/lastmile_qr_scan", "ios": "https://dc.lft.to/lastmile_qr_scan"}, "fusion_lon": 0.0, "name": "068bcd6bed1577807803d142eef03449", "lon": -77.01582383333333, "is_disabled": 0, "type": "electric_scooter"}, {"bike_id": "e2496d47547bf075ffe1fd9e70ebd1a6", "lat": 38.91034033333333, "is_reserved": 0, "fusion_lat": 0.0, "rental_uris": {"android": "https://dc.lft.to/lastmile_qr_scan", "ios": "https://dc.lft.to/lastmile_qr_scan"}, "fusion_lon": 0.0, "name": "e2496d47547bf075ffe1fd9e70ebd1a6", "lon": -77.0379935, "is_disabled": 0, "type": "electric_scooter"}, {"bike_id": "0761bb394a5296f87e93da75927d267b", "lat": 38.897603833333335, "is_reserved": 0, "fusion_lat": 0.0, "rental_uris": {"android": "https://dc.lft.to/lastmile_qr_scan", "ios": "https://dc.lft.to/lastmile_qr_scan"}, "fusion_lon": 0.0, "name": "0761bb394a5296f87e93da75927d267b", "lon": -76.94707133333333, "is_disabled": 0, "type": "electric_scooter"}, {"bike_id": "00d67690505700e20bc03b507ea44c62", "lat": 38.8963, "is_reserved": 0, "fusion_lat": 0.0, "rental_uris": {"android": "https://dc.lft.to/lastmile_qr_scan", "ios": "https://dc.lft.to/lastmile_qr_scan"}, "fusion_lon": 0.0, "name": "00d67690505700e20bc03b507ea44c62", "lon": -77.01227833333333, "is_disabled": 0, "type": "electric_scooter"}, {"bike_id": "1b236a4cb96cb883c9feef10a9ea6902", "lat": 38.9720505, "is_reserved": 0, "fusion_lat": 0.0, "rental_uris": {"android": "https://dc.lft.to/lastmile_qr_scan", "ios": "https://dc.lft.to/lastmile_qr_scan"}, "fusion_lon": 0.0, "name": "1b236a4cb96cb883c9feef10a9ea6902", "lon": -77.03332, "is_disabled": 0, "type": "electric_bike"}, {"bike_id": "ce676d29d359ec2820d1a30344a7b478", "lat": 38.9204575, "is_reserved": 0, "fusion_lat": 0.0, "rental_uris": {"android": "https://dc.lft.to/lastmile_qr_scan", "ios": "https://dc.lft.to/lastmile_qr_scan"}, "fusion_lon": 0.0, "name": "ce676d29d359ec2820d1a30344a7b478", "lon": -77.02577516666666, "is_disabled": 0, "type": "electric_scooter"}, {"bike_id": "978683c571708e68d37bb03f7a4dc5a6", "lat": 38.8849005, "is_reserved": 0, "fusion_lat": 0.0, "rental_uris": {"android": "https://dc.lft.to/lastmile_qr_scan", "ios": "https://dc.lft.to/lastmile_qr_scan"}, "fusion_lon": 0.0, "name": "978683c571708e68d37bb03f7a4dc5a6", "lon": -77.034762, "is_disabled": 0, "type": "electric_scooter"}, {"bike_id": "065e1467782b65760dc80503eb899e70", "lat": 38.9056385, "is_reserved": 0, "fusion_lat": 0.0, "rental_uris": {"android": "https://dc.lft.to/lastmile_qr_scan", "ios": "https://dc.lft.to/lastmile_qr_scan"}, "fusion_lon": 0.0, "name": "065e1467782b65760dc80503eb899e70", "lon": -77.034235, "is_disabled": 0, "type": "electric_scooter"}, {"bike_id": "936dcdde0bc377aa8b06ef0ba6951b24", "lat": 38.84469766666667, "is_reserved": 0, "fusion_lat": 0.0, "rental_uris": {"android": "https://dc.lft.to/lastmile_qr_scan", "ios": "https://dc.lft.to/lastmile_qr_scan"}, "fusion_lon": 0.0, "name": "936dcdde0bc377aa8b06ef0ba6951b24", "lon": -76.978609, "is_disabled": 0, "type": "electric_bike"}, {"bike_id": "0bfef2b5c41ffb2354a77e05808e3a11", "lat": 38.93245866666667, "is_reserved": 0, "fusion_lat": 0.0, "rental_uris": {"android": "https://dc.lft.to/lastmile_qr_scan", "ios": "https://dc.lft.to/lastmile_qr_scan"}, "fusion_lon": 0.0, "name": "0bfef2b5c41ffb2354a77e05808e3a11", "lon": -76.99512233333333, "is_disabled": 0, "type": "electric_scooter"}, {"bike_id": "425a24daa5ec60794102e3116e9d2ef2", "lat": 38.88370166666667, "is_reserved": 0, "fusion_lat": 0.0, "rental_uris": {"android": "https://dc.lft.to/lastmile_qr_scan", "ios": "https://dc.lft.to/lastmile_qr_scan"}, "fusion_lon": 0.0, "name": "425a24daa5ec60794102e3116e9d2ef2", "lon": -76.9954505, "is_disabled": 0, "type": "electric_scooter"}, {"bike_id": "1f1e606c538f445d5787595cf3ee5d10", "lat": 38.901923333333336, "is_reserved": 0, "fusion_lat": 0.0, "rental_uris": {"android": "https://dc.lft.to/lastmile_qr_scan", "ios": "https://dc.lft.to/lastmile_qr_scan"}, "fusion_lon": 0.0, "name": "1f1e606c538f445d5787595cf3ee5d10", "lon": -76.97882333333334, "is_disabled": 0, "type": "electric_scooter"}, {"bike_id": "c6167e68266736b0bfa8e25fd4460ba8", "lat": 38.9004595, "is_reserved": 0, "fusion_lat": 0.0, "rental_uris": {"android": "https://dc.lft.to/lastmile_qr_scan", "ios": "https://dc.lft.to/lastmile_qr_scan"}, "fusion_lon": 0.0, "name": "c6167e68266736b0bfa8e25fd4460ba8", "lon": -76.98288466666666, "is_disabled": 0, "type": "electric_scooter"}, {"bike_id": "c218a7ffb5de551d1261c76e075cbc2e", "lat": 38.9205185, "is_reserved": 0, "fusion_lat": 0.0, "rental_uris": {"android": "https://dc.lft.to/lastmile_qr_scan", "ios": "https://dc.lft.to/lastmile_qr_scan"}, "fusion_lon": 0.0, "name": "c218a7ffb5de551d1261c76e075cbc2e", "lon": -77.01620716666666, "is_disabled": 0, "type": "electric_scooter"}, {"bike_id": "21a19165f7b642181eccc272fd0dfec7", "lat": 38.89509816666666, "is_reserved": 0, "fusion_lat": 0.0, "rental_uris": {"android": "https://dc.lft.to/lastmile_qr_scan", "ios": "https://dc.lft.to/lastmile_qr_scan"}, "fusion_lon": 0.0, "name": "21a19165f7b642181eccc272fd0dfec7", "lon": -77.0034195, "is_disabled": 0, "type": "electric_scooter"}, {"bike_id": "a53dd333318676e3d4ddd3b590926610", "lat": 38.90952383333333, "is_reserved": 0, "fusion_lat": 0.0, "rental_uris": {"android": "https://dc.lft.to/lastmile_qr_scan", "ios": "https://dc.lft.to/lastmile_qr_scan"}, "fusion_lon": 0.0, "name": "a53dd333318676e3d4ddd3b590926610", "lon": -77.048867, "is_disabled": 0, "type": "electric_scooter"}, {"bike_id": "d9197c72a8e26ebe4768bd159cfe9042", "lat": 38.933890166666664, "is_reserved": 0, "fusion_lat": 0.0, "rental_uris": {"android": "https://dc.lft.to/lastmile_qr_scan", "ios": "https://dc.lft.to/lastmile_qr_scan"}, "fusion_lon": 0.0, "name": "d9197c72a8e26ebe4768bd159cfe9042", "lon": -77.03225233333333, "is_disabled": 0, "type": "electric_scooter"}, {"bike_id": "0da4bddf4fd40feca6cfde2f79aaf519", "lat": 38.8842835, "is_reserved": 0, "fusion_lat": 0.0, "rental_uris": {"android": "https://dc.lft.to/lastmile_qr_scan", "ios": "https://dc.lft.to/lastmile_qr_scan"}, "fusion_lon": 0.0, "name": "0da4bddf4fd40feca6cfde2f79aaf519", "lon": -76.95755066666666, "is_disabled": 0, "type": "electric_scooter"}, {"bike_id": "ccafe83712e913593eacd6d14fc0faac", "lat": 38.94228016666667, "is_reserved": 0, "fusion_lat": 0.0, "rental_uris": {"android": "https://dc.lft.to/lastmile_qr_scan", "ios": "https://dc.lft.to/lastmile_qr_scan"}, "fusion_lon": 0.0, "name": "ccafe83712e913593eacd6d14fc0faac", "lon": -76.96582, "is_disabled": 0, "type": "electric_bike"}, {"bike_id": "420177c963a1d7307ae5d2f0e24d2a64", "lat": 38.905534833333334, "is_reserved": 0, "fusion_lat": 0.0, "rental_uris": {"android": "https://dc.lft.to/lastmile_qr_scan", "ios": "https://dc.lft.to/lastmile_qr_scan"}, "fusion_lon": 0.0, "name": "420177c963a1d7307ae5d2f0e24d2a64", "lon": -76.99622883333333, "is_disabled": 0, "type": "electric_scooter"}, {"bike_id": "26bcef480bd225cd747b409c7276f9e2", "lat": 38.91128416666667, "is_reserved": 0, "fusion_lat": 0.0, "rental_uris": {"android": "https://dc.lft.to/lastmile_qr_scan", "ios": "https://dc.lft.to/lastmile_qr_scan"}, "fusion_lon": 0.0, "name": "26bcef480bd225cd747b409c7276f9e2", "lon": -77.03183766666666, "is_disabled": 0, "type": "electric_scooter"}, {"bike_id": "b089c563bdf8d400d307b4cde2c3d487", "lat": 38.900124166666664, "is_reserved": 0, "fusion_lat": 0.0, "rental_uris": {"android": "https://dc.lft.to/lastmile_qr_scan", "ios": "https://dc.lft.to/lastmile_qr_scan"}, "fusion_lon": 0.0, "name": "b089c563bdf8d400d307b4cde2c3d487", "lon": -77.0245325, "is_disabled": 0, "type": "electric_scooter"}, {"bike_id": "acf775e428bd6beb34bb75364b91c158", "lat": 38.917192, "is_reserved": 0, "fusion_lat": 0.0, "rental_uris": {"android": "https://dc.lft.to/lastmile_qr_scan", "ios": "https://dc.lft.to/lastmile_qr_scan"}, "fusion_lon": 0.0, "name": "acf775e428bd6beb34bb75364b91c158", "lon": -77.0324905, "is_disabled": 0, "type": "electric_scooter"}, {"bike_id": "7002a866eea4c5ab20cc47046392d798", "lat": 38.87687366666667, "is_reserved": 0, "fusion_lat": 0.0, "rental_uris": {"android": "https://dc.lft.to/lastmile_qr_scan", "ios": "https://dc.lft.to/lastmile_qr_scan"}, "fusion_lon": 0.0, "name": "7002a866eea4c5ab20cc47046392d798", "lon": -77.01757533333334, "is_disabled": 0, "type": "electric_scooter"}, {"bike_id": "f5523e4f15512be352055e553fbe65c6", "lat": 38.89454333333333, "is_reserved": 0, "fusion_lat": 0.0, "rental_uris": {"android": "https://dc.lft.to/lastmile_qr_scan", "ios": "https://dc.lft.to/lastmile_qr_scan"}, "fusion_lon": 0.0, "name": "f5523e4f15512be352055e553fbe65c6", "lon": -77.0467495, "is_disabled": 0, "type": "electric_scooter"}, {"bike_id": "2958083e51b9fdffc2c6d10464514531", "lat": 38.90510533333333, "is_reserved": 0, "fusion_lat": 0.0, "rental_uris": {"android": "https://dc.lft.to/lastmile_qr_scan", "ios": "https://dc.lft.to/lastmile_qr_scan"}, "fusion_lon": 0.0, "name": "2958083e51b9fdffc2c6d10464514531", "lon": -77.04878233333334, "is_disabled": 0, "type": "electric_scooter"}, {"bike_id": "416c703afaf6e315118babfae665e0b2", "lat": 38.91980383333333, "is_reserved": 0, "fusion_lat": 0.0, "rental_uris": {"android": "https://dc.lft.to/lastmile_qr_scan", "ios": "https://dc.lft.to/lastmile_qr_scan"}, "fusion_lon": 0.0, "name": "416c703afaf6e315118babfae665e0b2", "lon": -77.012125, "is_disabled": 0, "type": "electric_scooter"}, {"bike_id": "31104243541b6bbecd2325d6ab52f215", "lat": 38.911904166666666, "is_reserved": 0, "fusion_lat": 0.0, "rental_uris": {"android": "https://dc.lft.to/lastmile_qr_scan", "ios": "https://dc.lft.to/lastmile_qr_scan"}, "fusion_lon": 0.0, "name": "31104243541b6bbecd2325d6ab52f215", "lon": -77.03971866666667, "is_disabled": 0, "type": "electric_scooter"}, {"bike_id": "ee23fa3acbc2758c099eaa0b30e7d5f9", "lat": 38.9244745, "is_reserved": 0, "fusion_lat": 0.0, "rental_uris": {"android": "https://dc.lft.to/lastmile_qr_scan", "ios": "https://dc.lft.to/lastmile_qr_scan"}, "fusion_lon": 0.0, "name": "ee23fa3acbc2758c099eaa0b30e7d5f9", "lon": -77.02146483333334, "is_disabled": 0, "type": "electric_scooter"}, {"bike_id": "66b18c0ecb006101b6144eac3eb66164", "lat": 38.9198795, "is_reserved": 0, "fusion_lat": 0.0, "rental_uris": {"android": "https://dc.lft.to/lastmile_qr_scan", "ios": "https://dc.lft.to/lastmile_qr_scan"}, "fusion_lon": 0.0, "name": "66b18c0ecb006101b6144eac3eb66164", "lon": -77.03246566666667, "is_disabled": 0, "type": "electric_scooter"}, {"bike_id": "a1c6eb7f70a83f815b29b3ae01f640fa", "lat": 38.804443166666665, "is_reserved": 0, "fusion_lat": 0.0, "rental_uris": {"android": "https://dc.lft.to/lastmile_qr_scan", "ios": "https://dc.lft.to/lastmile_qr_scan"}, "fusion_lon": 0.0, "name": "a1c6eb7f70a83f815b29b3ae01f640fa", "lon": -77.05386683333333, "is_disabled": 0, "type": "electric_bike"}, {"bike_id": "f45ca76deb5470a1dd2d70291e0b0415", "lat": 38.83932, "is_reserved": 0, "fusion_lat": 0.0, "rental_uris": {"android": "https://dc.lft.to/lastmile_qr_scan", "ios": "https://dc.lft.to/lastmile_qr_scan"}, "fusion_lon": 0.0, "name": "f45ca76deb5470a1dd2d70291e0b0415", "lon": -77.07904483333333, "is_disabled": 0, "type": "electric_bike"}, {"bike_id": "76c86960ec5cdd3c46994041141fb18e", "lat": 38.95089566666667, "is_reserved": 0, "fusion_lat": 0.0, "rental_uris": {"android": "https://dc.lft.to/lastmile_qr_scan", "ios": "https://dc.lft.to/lastmile_qr_scan"}, "fusion_lon": 0.0, "name": "76c86960ec5cdd3c46994041141fb18e", "lon": -76.99796566666667, "is_disabled": 0, "type": "electric_bike"}, {"bike_id": "4d3034ac5d01300d12373075944f10ae", "lat": 38.91030833333333, "is_reserved": 0, "fusion_lat": 0.0, "rental_uris": {"android": "https://dc.lft.to/lastmile_qr_scan", "ios": "https://dc.lft.to/lastmile_qr_scan"}, "fusion_lon": 0.0, "name": "4d3034ac5d01300d12373075944f10ae", "lon": -76.98553183333334, "is_disabled": 0, "type": "electric_scooter"}, {"bike_id": "f4b9b0a7fc018fc5504b08024042ec6e", "lat": 38.927604, "is_reserved": 0, "fusion_lat": 0.0, "rental_uris": {"android": "https://dc.lft.to/lastmile_qr_scan", "ios": "https://dc.lft.to/lastmile_qr_scan"}, "fusion_lon": 0.0, "name": "f4b9b0a7fc018fc5504b08024042ec6e", "lon": -77.05639816666667, "is_disabled": 0, "type": "electric_scooter"}, {"bike_id": "21ce9ec39cccbb6472214573707d0276", "lat": 38.91111433333333, "is_reserved": 0, "fusion_lat": 0.0, "rental_uris": {"android": "https://dc.lft.to/lastmile_qr_scan", "ios": "https://dc.lft.to/lastmile_qr_scan"}, "fusion_lon": 0.0, "name": "21ce9ec39cccbb6472214573707d0276", "lon": -77.03865616666667, "is_disabled": 0, "type": "electric_scooter"}, {"bike_id": "450c642b0daac4439ff0e2872f865407", "lat": 38.9232835, "is_reserved": 0, "fusion_lat": 0.0, "rental_uris": {"android": "https://dc.lft.to/lastmile_qr_scan", "ios": "https://dc.lft.to/lastmile_qr_scan"}, "fusion_lon": 0.0, "name": "450c642b0daac4439ff0e2872f865407", "lon": -77.04619383333333, "is_disabled": 0, "type": "electric_scooter"}, {"bike_id": "7fed9d598c950cc9e88284575fe7752b", "lat": 38.908800666666664, "is_reserved": 0, "fusion_lat": 0.0, "rental_uris": {"android": "https://dc.lft.to/lastmile_qr_scan", "ios": "https://dc.lft.to/lastmile_qr_scan"}, "fusion_lon": 0.0, "name": "7fed9d598c950cc9e88284575fe7752b", "lon": -77.04659, "is_disabled": 0, "type": "electric_scooter"}, {"bike_id": "2173243bde451daf82cdc1d811160525", "lat": 38.89132216666667, "is_reserved": 0, "fusion_lat": 0.0, "rental_uris": {"android": "https://dc.lft.to/lastmile_qr_scan", "ios": "https://dc.lft.to/lastmile_qr_scan"}, "fusion_lon": 0.0, "name": "2173243bde451daf82cdc1d811160525", "lon": -76.95185116666667, "is_disabled": 0, "type": "electric_scooter"}, {"bike_id": "61458ee24dc5939ac4f8178004b80d8e", "lat": 38.871702166666665, "is_reserved": 0, "fusion_lat": 0.0, "rental_uris": {"android": "https://dc.lft.to/lastmile_qr_scan", "ios": "https://dc.lft.to/lastmile_qr_scan"}, "fusion_lon": 0.0, "name": "61458ee24dc5939ac4f8178004b80d8e", "lon": -77.00626216666667, "is_disabled": 0, "type": "electric_scooter"}, {"bike_id": "949b0db28e9329a4a6b55b26231469c4", "lat": 38.9263975, "is_reserved": 0, "fusion_lat": 0.0, "rental_uris": {"android": "https://dc.lft.to/lastmile_qr_scan", "ios": "https://dc.lft.to/lastmile_qr_scan"}, "fusion_lon": 0.0, "name": "949b0db28e9329a4a6b55b26231469c4", "lon": -77.03431483333334, "is_disabled": 0, "type": "electric_scooter"}, {"bike_id": "f30c1d6e3e047d6c87529d3ad99de5d3", "lat": 38.897314333333334, "is_reserved": 0, "fusion_lat": 0.0, "rental_uris": {"android": "https://dc.lft.to/lastmile_qr_scan", "ios": "https://dc.lft.to/lastmile_qr_scan"}, "fusion_lon": 0.0, "name": "f30c1d6e3e047d6c87529d3ad99de5d3", "lon": -77.04454266666667, "is_disabled": 0, "type": "electric_scooter"}, {"bike_id": "ee3bb28496ac83b4f6f6f27ff68b8994", "lat": 38.93621366666667, "is_reserved": 0, "fusion_lat": 0.0, "rental_uris": {"android": "https://dc.lft.to/lastmile_qr_scan", "ios": "https://dc.lft.to/lastmile_qr_scan"}, "fusion_lon": 0.0, "name": "ee3bb28496ac83b4f6f6f27ff68b8994", "lon": -76.97971816666667, "is_disabled": 0, "type": "electric_scooter"}, {"bike_id": "4e394b1d93bf3955fbae866332f4e3c1", "lat": 38.91576516666667, "is_reserved": 0, "fusion_lat": 0.0, "rental_uris": {"android": "https://dc.lft.to/lastmile_qr_scan", "ios": "https://dc.lft.to/lastmile_qr_scan"}, "fusion_lon": 0.0, "name": "4e394b1d93bf3955fbae866332f4e3c1", "lon": -77.01877666666667, "is_disabled": 0, "type": "electric_scooter"}, {"bike_id": "558f38a5cb397a121a9e2bcdbf38745a", "lat": 38.9054475, "is_reserved": 0, "fusion_lat": 0.0, "rental_uris": {"android": "https://dc.lft.to/lastmile_qr_scan", "ios": "https://dc.lft.to/lastmile_qr_scan"}, "fusion_lon": 0.0, "name": "558f38a5cb397a121a9e2bcdbf38745a", "lon": -77.03453466666667, "is_disabled": 0, "type": "electric_scooter"}, {"bike_id": "bb31daf3bffb0e0f11f2b332fc6d16a2", "lat": 38.90383633333333, "is_reserved": 0, "fusion_lat": 0.0, "rental_uris": {"android": "https://dc.lft.to/lastmile_qr_scan", "ios": "https://dc.lft.to/lastmile_qr_scan"}, "fusion_lon": 0.0, "name": "bb31daf3bffb0e0f11f2b332fc6d16a2", "lon": -76.9821285, "is_disabled": 0, "type": "electric_scooter"}, {"bike_id": "33bb9f4d8a78f5307425098537254a78", "lat": 38.914957, "is_reserved": 0, "fusion_lat": 0.0, "rental_uris": {"android": "https://dc.lft.to/lastmile_qr_scan", "ios": "https://dc.lft.to/lastmile_qr_scan"}, "fusion_lon": 0.0, "name": "33bb9f4d8a78f5307425098537254a78", "lon": -77.0186015, "is_disabled": 0, "type": "electric_scooter"}, {"bike_id": "b50f346a54e33755caae3b61fb64dad6", "lat": 38.90656416666667, "is_reserved": 0, "fusion_lat": 0.0, "rental_uris": {"android": "https://dc.lft.to/lastmile_qr_scan", "ios": "https://dc.lft.to/lastmile_qr_scan"}, "fusion_lon": 0.0, "name": "b50f346a54e33755caae3b61fb64dad6", "lon": -77.04287633333334, "is_disabled": 0, "type": "electric_scooter"}, {"bike_id": "b24d41111dc8fe0474a6ebc8c1b9de26", "lat": 38.92243716666667, "is_reserved": 0, "fusion_lat": 0.0, "rental_uris": {"android": "https://dc.lft.to/lastmile_qr_scan", "ios": "https://dc.lft.to/lastmile_qr_scan"}, "fusion_lon": 0.0, "name": "b24d41111dc8fe0474a6ebc8c1b9de26", "lon": -77.04005633333334, "is_disabled": 0, "type": "electric_scooter"}, {"bike_id": "9fcc8de85b28c276959bb5354ad632cc", "lat": 38.91423733333333, "is_reserved": 0, "fusion_lat": 0.0, "rental_uris": {"android": "https://dc.lft.to/lastmile_qr_scan", "ios": "https://dc.lft.to/lastmile_qr_scan"}, "fusion_lon": 0.0, "name": "9fcc8de85b28c276959bb5354ad632cc", "lon": -77.03181266666667, "is_disabled": 0, "type": "electric_scooter"}, {"bike_id": "9eacc7150a8dd9065de8be1d31c65d77", "lat": 38.905704, "is_reserved": 0, "fusion_lat": 0.0, "rental_uris": {"android": "https://dc.lft.to/lastmile_qr_scan", "ios": "https://dc.lft.to/lastmile_qr_scan"}, "fusion_lon": 0.0, "name": "9eacc7150a8dd9065de8be1d31c65d77", "lon": -77.02209466666666, "is_disabled": 0, "type": "electric_scooter"}, {"bike_id": "6e8153ad466285fbcf8712e38537f94c", "lat": 38.91815, "is_reserved": 0, "fusion_lat": 0.0, "rental_uris": {"android": "https://dc.lft.to/lastmile_qr_scan", "ios": "https://dc.lft.to/lastmile_qr_scan"}, "fusion_lon": 0.0, "name": "6e8153ad466285fbcf8712e38537f94c", "lon": -77.02476733333333, "is_disabled": 0, "type": "electric_scooter"}, {"bike_id": "862e30ed46c0e00b09f3a0635e7c5128", "lat": 38.91543583333333, "is_reserved": 0, "fusion_lat": 0.0, "rental_uris": {"android": "https://dc.lft.to/lastmile_qr_scan", "ios": "https://dc.lft.to/lastmile_qr_scan"}, "fusion_lon": 0.0, "name": "862e30ed46c0e00b09f3a0635e7c5128", "lon": -77.036442, "is_disabled": 0, "type": "electric_scooter"}, {"bike_id": "0bab6999de5976f558cd642404cf74a0", "lat": 38.914805666666666, "is_reserved": 0, "fusion_lat": 0.0, "rental_uris": {"android": "https://dc.lft.to/lastmile_qr_scan", "ios": "https://dc.lft.to/lastmile_qr_scan"}, "fusion_lon": 0.0, "name": "0bab6999de5976f558cd642404cf74a0", "lon": -77.02583483333333, "is_disabled": 0, "type": "electric_scooter"}, {"bike_id": "f9570ec02fa5eb5e61244aff88c678cd", "lat": 38.8974665, "is_reserved": 0, "fusion_lat": 0.0, "rental_uris": {"android": "https://dc.lft.to/lastmile_qr_scan", "ios": "https://dc.lft.to/lastmile_qr_scan"}, "fusion_lon": 0.0, "name": "f9570ec02fa5eb5e61244aff88c678cd", "lon": -76.94192316666667, "is_disabled": 0, "type": "electric_scooter"}, {"bike_id": "4d89f47747528291277cedddc5cadd20", "lat": 38.93096933333333, "is_reserved": 0, "fusion_lat": 0.0, "rental_uris": {"android": "https://dc.lft.to/lastmile_qr_scan", "ios": "https://dc.lft.to/lastmile_qr_scan"}, "fusion_lon": 0.0, "name": "4d89f47747528291277cedddc5cadd20", "lon": -77.02663233333334, "is_disabled": 0, "type": "electric_scooter"}, {"bike_id": "601bc6ed39cfa719736ab55b19043f03", "lat": 38.8994655, "is_reserved": 0, "fusion_lat": 0.0, "rental_uris": {"android": "https://dc.lft.to/lastmile_qr_scan", "ios": "https://dc.lft.to/lastmile_qr_scan"}, "fusion_lon": 0.0, "name": "601bc6ed39cfa719736ab55b19043f03", "lon": -77.044954, "is_disabled": 0, "type": "electric_scooter"}, {"bike_id": "4cfe7216323b6099ddf7dc1f8296f048", "lat": 38.88351016666667, "is_reserved": 0, "fusion_lat": 0.0, "rental_uris": {"android": "https://dc.lft.to/lastmile_qr_scan", "ios": "https://dc.lft.to/lastmile_qr_scan"}, "fusion_lon": 0.0, "name": "4cfe7216323b6099ddf7dc1f8296f048", "lon": -76.99488166666667, "is_disabled": 0, "type": "electric_bike"}, {"bike_id": "9eaf29c8feb412e70a32b5dd81f61f28", "lat": 38.91640483333333, "is_reserved": 0, "fusion_lat": 0.0, "rental_uris": {"android": "https://dc.lft.to/lastmile_qr_scan", "ios": "https://dc.lft.to/lastmile_qr_scan"}, "fusion_lon": 0.0, "name": "9eaf29c8feb412e70a32b5dd81f61f28", "lon": -77.03218183333334, "is_disabled": 0, "type": "electric_scooter"}, {"bike_id": "6b6ca5efa22dd3b98c6ff74d5a1433bf", "lat": 38.91281133333333, "is_reserved": 0, "fusion_lat": 0.0, "rental_uris": {"android": "https://dc.lft.to/lastmile_qr_scan", "ios": "https://dc.lft.to/lastmile_qr_scan"}, "fusion_lon": 0.0, "name": "6b6ca5efa22dd3b98c6ff74d5a1433bf", "lon": -77.06111233333333, "is_disabled": 0, "type": "electric_scooter"}, {"bike_id": "da01bf8227700e13c1e95f718c8e1b5f", "lat": 38.920697833333335, "is_reserved": 0, "fusion_lat": 0.0, "rental_uris": {"android": "https://dc.lft.to/lastmile_qr_scan", "ios": "https://dc.lft.to/lastmile_qr_scan"}, "fusion_lon": 0.0, "name": "da01bf8227700e13c1e95f718c8e1b5f", "lon": -76.89072033333333, "is_disabled": 0, "type": "electric_bike"}, {"bike_id": "5d83d82560cad77f06ede17ba62777ea", "lat": 38.90822383333333, "is_reserved": 0, "fusion_lat": 0.0, "rental_uris": {"android": "https://dc.lft.to/lastmile_qr_scan", "ios": "https://dc.lft.to/lastmile_qr_scan"}, "fusion_lon": 0.0, "name": "5d83d82560cad77f06ede17ba62777ea", "lon": -77.03831333333333, "is_disabled": 0, "type": "electric_scooter"}, {"bike_id": "0c342b700f896fa90516c8241ad5ff72", "lat": 38.86246633333333, "is_reserved": 0, "fusion_lat": 0.0, "rental_uris": {"android": "https://dc.lft.to/lastmile_qr_scan", "ios": "https://dc.lft.to/lastmile_qr_scan"}, "fusion_lon": 0.0, "name": "0c342b700f896fa90516c8241ad5ff72", "lon": -76.9950115, "is_disabled": 0, "type": "electric_scooter"}, {"bike_id": "73489c5ce0494c54484dab150b101f7c", "lat": 38.90259916666667, "is_reserved": 0, "fusion_lat": 0.0, "rental_uris": {"android": "https://dc.lft.to/lastmile_qr_scan", "ios": "https://dc.lft.to/lastmile_qr_scan"}, "fusion_lon": 0.0, "name": "73489c5ce0494c54484dab150b101f7c", "lon": -77.00825216666667, "is_disabled": 0, "type": "electric_scooter"}, {"bike_id": "d73e9dfa4fd353b8e73d01fd1ae977cb", "lat": 38.91109483333334, "is_reserved": 0, "fusion_lat": 0.0, "rental_uris": {"android": "https://dc.lft.to/lastmile_qr_scan", "ios": "https://dc.lft.to/lastmile_qr_scan"}, "fusion_lon": 0.0, "name": "d73e9dfa4fd353b8e73d01fd1ae977cb", "lon": -77.04357616666667, "is_disabled": 0, "type": "electric_scooter"}, {"bike_id": "312342fe4a77e024216081280e381d33", "lat": 38.857633, "is_reserved": 0, "fusion_lat": 0.0, "rental_uris": {"android": "https://dc.lft.to/lastmile_qr_scan", "ios": "https://dc.lft.to/lastmile_qr_scan"}, "fusion_lon": 0.0, "name": "312342fe4a77e024216081280e381d33", "lon": -76.98756333333333, "is_disabled": 0, "type": "electric_bike"}, {"bike_id": "14fdb8398ac72bf1ef176617b6486327", "lat": 38.897287166666665, "is_reserved": 0, "fusion_lat": 0.0, "rental_uris": {"android": "https://dc.lft.to/lastmile_qr_scan", "ios": "https://dc.lft.to/lastmile_qr_scan"}, "fusion_lon": 0.0, "name": "14fdb8398ac72bf1ef176617b6486327", "lon": -77.02166083333333, "is_disabled": 0, "type": "electric_scooter"}, {"bike_id": "5ff2c81e42f0fa4b6b71f2c34af103a9", "lat": 38.83163183333333, "is_reserved": 0, "fusion_lat": 0.0, "rental_uris": {"android": "https://dc.lft.to/lastmile_qr_scan", "ios": "https://dc.lft.to/lastmile_qr_scan"}, "fusion_lon": 0.0, "name": "5ff2c81e42f0fa4b6b71f2c34af103a9", "lon": -77.00811716666666, "is_disabled": 0, "type": "electric_scooter"}, {"bike_id": "e162de9e414a32f24c19e06a83a13e85", "lat": 38.903590666666666, "is_reserved": 0, "fusion_lat": 0.0, "rental_uris": {"android": "https://dc.lft.to/lastmile_qr_scan", "ios": "https://dc.lft.to/lastmile_qr_scan"}, "fusion_lon": 0.0, "name": "e162de9e414a32f24c19e06a83a13e85", "lon": -77.04570883333334, "is_disabled": 0, "type": "electric_scooter"}, {"bike_id": "91f3ef4ceff33b07f981df04893dfcf6", "lat": 38.9169565, "is_reserved": 0, "fusion_lat": 0.0, "rental_uris": {"android": "https://dc.lft.to/lastmile_qr_scan", "ios": "https://dc.lft.to/lastmile_qr_scan"}, "fusion_lon": 0.0, "name": "91f3ef4ceff33b07f981df04893dfcf6", "lon": -77.00814883333334, "is_disabled": 0, "type": "electric_scooter"}, {"bike_id": "f10550bafa8697b748e8373d983ed27d", "lat": 38.896221, "is_reserved": 0, "fusion_lat": 0.0, "rental_uris": {"android": "https://dc.lft.to/lastmile_qr_scan", "ios": "https://dc.lft.to/lastmile_qr_scan"}, "fusion_lon": 0.0, "name": "f10550bafa8697b748e8373d983ed27d", "lon": -77.02381333333334, "is_disabled": 0, "type": "electric_scooter"}, {"bike_id": "dc5a5a33509fd3594c7aed256c39f82a", "lat": 38.9251765, "is_reserved": 0, "fusion_lat": 0.0, "rental_uris": {"android": "https://dc.lft.to/lastmile_qr_scan", "ios": "https://dc.lft.to/lastmile_qr_scan"}, "fusion_lon": 0.0, "name": "dc5a5a33509fd3594c7aed256c39f82a", "lon": -77.04113433333333, "is_disabled": 0, "type": "electric_scooter"}, {"bike_id": "b95f42be79e068929cd14c175c64939a", "lat": 38.904241166666665, "is_reserved": 0, "fusion_lat": 0.0, "rental_uris": {"android": "https://dc.lft.to/lastmile_qr_scan", "ios": "https://dc.lft.to/lastmile_qr_scan"}, "fusion_lon": 0.0, "name": "b95f42be79e068929cd14c175c64939a", "lon": -77.03831366666667, "is_disabled": 0, "type": "electric_scooter"}, {"bike_id": "72e0c14909f869a3e3993d8e86b42561", "lat": 38.919253499999996, "is_reserved": 0, "fusion_lat": 0.0, "rental_uris": {"android": "https://dc.lft.to/lastmile_qr_scan", "ios": "https://dc.lft.to/lastmile_qr_scan"}, "fusion_lon": 0.0, "name": "72e0c14909f869a3e3993d8e86b42561", "lon": -77.03195133333334, "is_disabled": 0, "type": "electric_scooter"}, {"bike_id": "595624539526edeb82aba14a12da6cd3", "lat": 38.91673566666667, "is_reserved": 0, "fusion_lat": 0.0, "rental_uris": {"android": "https://dc.lft.to/lastmile_qr_scan", "ios": "https://dc.lft.to/lastmile_qr_scan"}, "fusion_lon": 0.0, "name": "595624539526edeb82aba14a12da6cd3", "lon": -77.023285, "is_disabled": 0, "type": "electric_scooter"}, {"bike_id": "51cb24408fb3c920a6f7bfad381f5a74", "lat": 38.91706383333333, "is_reserved": 0, "fusion_lat": 0.0, "rental_uris": {"android": "https://dc.lft.to/lastmile_qr_scan", "ios": "https://dc.lft.to/lastmile_qr_scan"}, "fusion_lon": 0.0, "name": "51cb24408fb3c920a6f7bfad381f5a74", "lon": -77.09581116666666, "is_disabled": 0, "type": "electric_scooter"}, {"bike_id": "8d26813f0731a0caafcfcd863c9904f9", "lat": 38.90389366666667, "is_reserved": 0, "fusion_lat": 0.0, "rental_uris": {"android": "https://dc.lft.to/lastmile_qr_scan", "ios": "https://dc.lft.to/lastmile_qr_scan"}, "fusion_lon": 0.0, "name": "8d26813f0731a0caafcfcd863c9904f9", "lon": -77.04035083333333, "is_disabled": 0, "type": "electric_scooter"}, {"bike_id": "9894b6ba2c2c66dc3e942c2101854a17", "lat": 38.92766833333334, "is_reserved": 0, "fusion_lat": 0.0, "rental_uris": {"android": "https://dc.lft.to/lastmile_qr_scan", "ios": "https://dc.lft.to/lastmile_qr_scan"}, "fusion_lon": 0.0, "name": "9894b6ba2c2c66dc3e942c2101854a17", "lon": -76.987553, "is_disabled": 0, "type": "electric_scooter"}, {"bike_id": "291487639bffba78bb3fbd574e95b6ac", "lat": 38.91547633333333, "is_reserved": 0, "fusion_lat": 0.0, "rental_uris": {"android": "https://dc.lft.to/lastmile_qr_scan", "ios": "https://dc.lft.to/lastmile_qr_scan"}, "fusion_lon": 0.0, "name": "291487639bffba78bb3fbd574e95b6ac", "lon": -77.005493, "is_disabled": 0, "type": "electric_scooter"}, {"bike_id": "ff44fff5755e626016761428ff07f767", "lat": 38.90035866666667, "is_reserved": 0, "fusion_lat": 0.0, "rental_uris": {"android": "https://dc.lft.to/lastmile_qr_scan", "ios": "https://dc.lft.to/lastmile_qr_scan"}, "fusion_lon": 0.0, "name": "ff44fff5755e626016761428ff07f767", "lon": -76.972281, "is_disabled": 0, "type": "electric_bike"}, {"bike_id": "824027bded97dd076ecb87fc67b8b518", "lat": 38.883841333333336, "is_reserved": 0, "fusion_lat": 0.0, "rental_uris": {"android": "https://dc.lft.to/lastmile_qr_scan", "ios": "https://dc.lft.to/lastmile_qr_scan"}, "fusion_lon": 0.0, "name": "824027bded97dd076ecb87fc67b8b518", "lon": -77.01773466666667, "is_disabled": 0, "type": "electric_scooter"}, {"bike_id": "1b6b5096d01df071755159acd6b02937", "lat": 38.8964575, "is_reserved": 0, "fusion_lat": 0.0, "rental_uris": {"android": "https://dc.lft.to/lastmile_qr_scan", "ios": "https://dc.lft.to/lastmile_qr_scan"}, "fusion_lon": 0.0, "name": "1b6b5096d01df071755159acd6b02937", "lon": -77.00912483333333, "is_disabled": 0, "type": "electric_scooter"}, {"bike_id": "44bdcb02ccc44fd275310e706d53bb9f", "lat": 38.9076945, "is_reserved": 0, "fusion_lat": 0.0, "rental_uris": {"android": "https://dc.lft.to/lastmile_qr_scan", "ios": "https://dc.lft.to/lastmile_qr_scan"}, "fusion_lon": 0.0, "name": "44bdcb02ccc44fd275310e706d53bb9f", "lon": -77.07387916666667, "is_disabled": 0, "type": "electric_scooter"}, {"bike_id": "6aa9a75585697d37c45a39f127ef11ee", "lat": 38.9435025, "is_reserved": 0, "fusion_lat": 0.0, "rental_uris": {"android": "https://dc.lft.to/lastmile_qr_scan", "ios": "https://dc.lft.to/lastmile_qr_scan"}, "fusion_lon": 0.0, "name": "6aa9a75585697d37c45a39f127ef11ee", "lon": -77.03765483333333, "is_disabled": 0, "type": "electric_scooter"}, {"bike_id": "e3465ccc3154d7039414fc71aba20b18", "lat": 38.866831833333336, "is_reserved": 0, "fusion_lat": 0.0, "rental_uris": {"android": "https://dc.lft.to/lastmile_qr_scan", "ios": "https://dc.lft.to/lastmile_qr_scan"}, "fusion_lon": 0.0, "name": "e3465ccc3154d7039414fc71aba20b18", "lon": -76.98578566666667, "is_disabled": 0, "type": "electric_scooter"}, {"bike_id": "3300f7709238a5c26baa3388b0d85b0b", "lat": 38.90245683333333, "is_reserved": 0, "fusion_lat": 0.0, "rental_uris": {"android": "https://dc.lft.to/lastmile_qr_scan", "ios": "https://dc.lft.to/lastmile_qr_scan"}, "fusion_lon": 0.0, "name": "3300f7709238a5c26baa3388b0d85b0b", "lon": -77.05904283333334, "is_disabled": 0, "type": "electric_scooter"}, {"bike_id": "f1a5071aca6d92dc6c7b21669809fa70", "lat": 38.907932833333334, "is_reserved": 0, "fusion_lat": 0.0, "rental_uris": {"android": "https://dc.lft.to/lastmile_qr_scan", "ios": "https://dc.lft.to/lastmile_qr_scan"}, "fusion_lon": 0.0, "name": "f1a5071aca6d92dc6c7b21669809fa70", "lon": -77.07167883333334, "is_disabled": 0, "type": "electric_bike"}, {"bike_id": "27c6c4c19ddd9e818613e79bb61e5c51", "lat": 38.923281833333334, "is_reserved": 0, "fusion_lat": 0.0, "rental_uris": {"android": "https://dc.lft.to/lastmile_qr_scan", "ios": "https://dc.lft.to/lastmile_qr_scan"}, "fusion_lon": 0.0, "name": "27c6c4c19ddd9e818613e79bb61e5c51", "lon": -77.019563, "is_disabled": 0, "type": "electric_scooter"}, {"bike_id": "92b705495f1b7007ac0ac503e84d7a7a", "lat": 38.89831016666667, "is_reserved": 0, "fusion_lat": 0.0, "rental_uris": {"android": "https://dc.lft.to/lastmile_qr_scan", "ios": "https://dc.lft.to/lastmile_qr_scan"}, "fusion_lon": 0.0, "name": "92b705495f1b7007ac0ac503e84d7a7a", "lon": -76.919545, "is_disabled": 0, "type": "electric_scooter"}, {"bike_id": "2905eff46718eacc8671dcb4fc0a347d", "lat": 38.905292333333335, "is_reserved": 0, "fusion_lat": 0.0, "rental_uris": {"android": "https://dc.lft.to/lastmile_qr_scan", "ios": "https://dc.lft.to/lastmile_qr_scan"}, "fusion_lon": 0.0, "name": "2905eff46718eacc8671dcb4fc0a347d", "lon": -77.04151566666667, "is_disabled": 0, "type": "electric_scooter"}, {"bike_id": "e26c2303c96f4ec7b2f768191192f9a8", "lat": 38.865103833333336, "is_reserved": 0, "fusion_lat": 0.0, "rental_uris": {"android": "https://dc.lft.to/lastmile_qr_scan", "ios": "https://dc.lft.to/lastmile_qr_scan"}, "fusion_lon": 0.0, "name": "e26c2303c96f4ec7b2f768191192f9a8", "lon": -76.99008566666667, "is_disabled": 0, "type": "electric_scooter"}, {"bike_id": "697ff44278e59b9f9b66418deed6761a", "lat": 38.915530833333335, "is_reserved": 0, "fusion_lat": 0.0, "rental_uris": {"android": "https://dc.lft.to/lastmile_qr_scan", "ios": "https://dc.lft.to/lastmile_qr_scan"}, "fusion_lon": 0.0, "name": "697ff44278e59b9f9b66418deed6761a", "lon": -77.0444995, "is_disabled": 0, "type": "electric_scooter"}, {"bike_id": "621482355dbe4b4c6312d2ef20031924", "lat": 38.929755, "is_reserved": 0, "fusion_lat": 0.0, "rental_uris": {"android": "https://dc.lft.to/lastmile_qr_scan", "ios": "https://dc.lft.to/lastmile_qr_scan"}, "fusion_lon": 0.0, "name": "621482355dbe4b4c6312d2ef20031924", "lon": -77.02793133333333, "is_disabled": 0, "type": "electric_scooter"}, {"bike_id": "cf4615f03a85da3fe031910291bd2d70", "lat": 38.918528333333335, "is_reserved": 0, "fusion_lat": 0.0, "rental_uris": {"android": "https://dc.lft.to/lastmile_qr_scan", "ios": "https://dc.lft.to/lastmile_qr_scan"}, "fusion_lon": 0.0, "name": "cf4615f03a85da3fe031910291bd2d70", "lon": -77.02520066666666, "is_disabled": 0, "type": "electric_scooter"}, {"bike_id": "703a8cea6e051bee85af6c056ac7bcff", "lat": 38.9111965, "is_reserved": 0, "fusion_lat": 0.0, "rental_uris": {"android": "https://dc.lft.to/lastmile_qr_scan", "ios": "https://dc.lft.to/lastmile_qr_scan"}, "fusion_lon": 0.0, "name": "703a8cea6e051bee85af6c056ac7bcff", "lon": -77.02209133333334, "is_disabled": 0, "type": "electric_scooter"}, {"bike_id": "0dfccba1823f9061e81031d6f9a517c5", "lat": 38.924513, "is_reserved": 0, "fusion_lat": 0.0, "rental_uris": {"android": "https://dc.lft.to/lastmile_qr_scan", "ios": "https://dc.lft.to/lastmile_qr_scan"}, "fusion_lon": 0.0, "name": "0dfccba1823f9061e81031d6f9a517c5", "lon": -77.04118233333334, "is_disabled": 0, "type": "electric_scooter"}, {"bike_id": "d440d0f20e7dfdc71bbd490970b0548a", "lat": 38.91816716666666, "is_reserved": 0, "fusion_lat": 0.0, "rental_uris": {"android": "https://dc.lft.to/lastmile_qr_scan", "ios": "https://dc.lft.to/lastmile_qr_scan"}, "fusion_lon": 0.0, "name": "d440d0f20e7dfdc71bbd490970b0548a", "lon": -77.01209383333334, "is_disabled": 0, "type": "electric_scooter"}, {"bike_id": "27a4e218f131ead59abd21f9aa832aa5", "lat": 38.8977315, "is_reserved": 0, "fusion_lat": 0.0, "rental_uris": {"android": "https://dc.lft.to/lastmile_qr_scan", "ios": "https://dc.lft.to/lastmile_qr_scan"}, "fusion_lon": 0.0, "name": "27a4e218f131ead59abd21f9aa832aa5", "lon": -77.0014645, "is_disabled": 0, "type": "electric_scooter"}, {"bike_id": "2c868216de7227c089a1d8ea0012d47d", "lat": 38.918345, "is_reserved": 0, "fusion_lat": 0.0, "rental_uris": {"android": "https://dc.lft.to/lastmile_qr_scan", "ios": "https://dc.lft.to/lastmile_qr_scan"}, "fusion_lon": 0.0, "name": "2c868216de7227c089a1d8ea0012d47d", "lon": -77.0351445, "is_disabled": 0, "type": "electric_scooter"}, {"bike_id": "536b82b9be2a96b6ab883d38564fe610", "lat": 38.933974166666665, "is_reserved": 0, "fusion_lat": 0.0, "rental_uris": {"android": "https://dc.lft.to/lastmile_qr_scan", "ios": "https://dc.lft.to/lastmile_qr_scan"}, "fusion_lon": 0.0, "name": "536b82b9be2a96b6ab883d38564fe610", "lon": -77.02208033333334, "is_disabled": 0, "type": "electric_scooter"}, {"bike_id": "43836ca51b2997ccc2dfe723fae26b4a", "lat": 38.90501533333333, "is_reserved": 0, "fusion_lat": 0.0, "rental_uris": {"android": "https://dc.lft.to/lastmile_qr_scan", "ios": "https://dc.lft.to/lastmile_qr_scan"}, "fusion_lon": 0.0, "name": "43836ca51b2997ccc2dfe723fae26b4a", "lon": -77.06014633333334, "is_disabled": 0, "type": "electric_scooter"}, {"bike_id": "587980d281232914b60c1e93c2776cc1", "lat": 38.866579, "is_reserved": 0, "fusion_lat": 0.0, "rental_uris": {"android": "https://dc.lft.to/lastmile_qr_scan", "ios": "https://dc.lft.to/lastmile_qr_scan"}, "fusion_lon": 0.0, "name": "587980d281232914b60c1e93c2776cc1", "lon": -76.98881416666667, "is_disabled": 0, "type": "electric_scooter"}, {"bike_id": "895846e2261a7473b3cc0f08c45d2d16", "lat": 38.9002655, "is_reserved": 0, "fusion_lat": 0.0, "rental_uris": {"android": "https://dc.lft.to/lastmile_qr_scan", "ios": "https://dc.lft.to/lastmile_qr_scan"}, "fusion_lon": 0.0, "name": "895846e2261a7473b3cc0f08c45d2d16", "lon": -76.98657583333333, "is_disabled": 0, "type": "electric_scooter"}, {"bike_id": "26b69b7cec618d22c8f931fece97330b", "lat": 38.86965883333333, "is_reserved": 0, "fusion_lat": 0.0, "rental_uris": {"android": "https://dc.lft.to/lastmile_qr_scan", "ios": "https://dc.lft.to/lastmile_qr_scan"}, "fusion_lon": 0.0, "name": "26b69b7cec618d22c8f931fece97330b", "lon": -76.98175283333333, "is_disabled": 0, "type": "electric_scooter"}, {"bike_id": "29c06c11a12de3c33520e5d96dbdadf6", "lat": 38.8725595, "is_reserved": 0, "fusion_lat": 0.0, "rental_uris": {"android": "https://dc.lft.to/lastmile_qr_scan", "ios": "https://dc.lft.to/lastmile_qr_scan"}, "fusion_lon": 0.0, "name": "29c06c11a12de3c33520e5d96dbdadf6", "lon": -77.23258416666667, "is_disabled": 0, "type": "electric_bike"}, {"bike_id": "b90c3c33832018702ce9cf261485b3d6", "lat": 38.90503666666667, "is_reserved": 0, "fusion_lat": 0.0, "rental_uris": {"android": "https://dc.lft.to/lastmile_qr_scan", "ios": "https://dc.lft.to/lastmile_qr_scan"}, "fusion_lon": 0.0, "name": "b90c3c33832018702ce9cf261485b3d6", "lon": -77.06015866666667, "is_disabled": 0, "type": "electric_scooter"}, {"bike_id": "db2bc22e7451f0f5a0ec965c636fda75", "lat": 38.9050295, "is_reserved": 0, "fusion_lat": 0.0, "rental_uris": {"android": "https://dc.lft.to/lastmile_qr_scan", "ios": "https://dc.lft.to/lastmile_qr_scan"}, "fusion_lon": 0.0, "name": "db2bc22e7451f0f5a0ec965c636fda75", "lon": -77.06933166666667, "is_disabled": 0, "type": "electric_bike"}, {"bike_id": "aa60e294c1517af165dd1543eb9323c6", "lat": 38.91016, "is_reserved": 0, "fusion_lat": 0.0, "rental_uris": {"android": "https://dc.lft.to/lastmile_qr_scan", "ios": "https://dc.lft.to/lastmile_qr_scan"}, "fusion_lon": 0.0, "name": "aa60e294c1517af165dd1543eb9323c6", "lon": -77.22803016666667, "is_disabled": 0, "type": "electric_bike"}, {"bike_id": "7bc8a657bb804a1cf21f378de8dbe52c", "lat": 38.9141845, "is_reserved": 0, "fusion_lat": 0.0, "rental_uris": {"android": "https://dc.lft.to/lastmile_qr_scan", "ios": "https://dc.lft.to/lastmile_qr_scan"}, "fusion_lon": 0.0, "name": "7bc8a657bb804a1cf21f378de8dbe52c", "lon": -77.04809816666666, "is_disabled": 0, "type": "electric_scooter"}, {"bike_id": "73346c56e354f6c926f6976e2f67b4c9", "lat": 38.906146166666666, "is_reserved": 0, "fusion_lat": 0.0, "rental_uris": {"android": "https://dc.lft.to/lastmile_qr_scan", "ios": "https://dc.lft.to/lastmile_qr_scan"}, "fusion_lon": 0.0, "name": "73346c56e354f6c926f6976e2f67b4c9", "lon": -77.0148935, "is_disabled": 0, "type": "electric_scooter"}, {"bike_id": "83f70c0e448f3866605e3c364e5c2c78", "lat": 38.905591, "is_reserved": 0, "fusion_lat": 0.0, "rental_uris": {"android": "https://dc.lft.to/lastmile_qr_scan", "ios": "https://dc.lft.to/lastmile_qr_scan"}, "fusion_lon": 0.0, "name": "83f70c0e448f3866605e3c364e5c2c78", "lon": -77.04178183333333, "is_disabled": 0, "type": "electric_scooter"}, {"bike_id": "b085cbdc8f60c6f2762bcd0d59f8e92b", "lat": 38.90529, "is_reserved": 0, "fusion_lat": 0.0, "rental_uris": {"android": "https://dc.lft.to/lastmile_qr_scan", "ios": "https://dc.lft.to/lastmile_qr_scan"}, "fusion_lon": 0.0, "name": "b085cbdc8f60c6f2762bcd0d59f8e92b", "lon": -77.0533175, "is_disabled": 0, "type": "electric_scooter"}, {"bike_id": "829f9453a5186d4801c2a86bd06921b6", "lat": 38.88498, "is_reserved": 0, "fusion_lat": 0.0, "rental_uris": {"android": "https://dc.lft.to/lastmile_qr_scan", "ios": "https://dc.lft.to/lastmile_qr_scan"}, "fusion_lon": 0.0, "name": "829f9453a5186d4801c2a86bd06921b6", "lon": -77.00731, "is_disabled": 0, "type": "electric_scooter"}, {"bike_id": "9d506a549400639f3fac7831ccb91c18", "lat": 38.93489683333333, "is_reserved": 0, "fusion_lat": 0.0, "rental_uris": {"android": "https://dc.lft.to/lastmile_qr_scan", "ios": "https://dc.lft.to/lastmile_qr_scan"}, "fusion_lon": 0.0, "name": "9d506a549400639f3fac7831ccb91c18", "lon": -77.03282833333333, "is_disabled": 0, "type": "electric_scooter"}, {"bike_id": "4818a5bea9c229c7ce5963d72e6abdc1", "lat": 38.908380666666666, "is_reserved": 0, "fusion_lat": 0.0, "rental_uris": {"android": "https://dc.lft.to/lastmile_qr_scan", "ios": "https://dc.lft.to/lastmile_qr_scan"}, "fusion_lon": 0.0, "name": "4818a5bea9c229c7ce5963d72e6abdc1", "lon": -77.04295, "is_disabled": 0, "type": "electric_scooter"}, {"bike_id": "8520a0ee69ac129798ca1d1d615a03af", "lat": 38.9132895, "is_reserved": 0, "fusion_lat": 0.0, "rental_uris": {"android": "https://dc.lft.to/lastmile_qr_scan", "ios": "https://dc.lft.to/lastmile_qr_scan"}, "fusion_lon": 0.0, "name": "8520a0ee69ac129798ca1d1d615a03af", "lon": -77.0318745, "is_disabled": 0, "type": "electric_scooter"}, {"bike_id": "b71b77777d8e9090ee235a3a53bc5402", "lat": 38.88518333333333, "is_reserved": 0, "fusion_lat": 0.0, "rental_uris": {"android": "https://dc.lft.to/lastmile_qr_scan", "ios": "https://dc.lft.to/lastmile_qr_scan"}, "fusion_lon": 0.0, "name": "b71b77777d8e9090ee235a3a53bc5402", "lon": -76.977063, "is_disabled": 0, "type": "electric_scooter"}, {"bike_id": "202f6827c49d0feaaacfca72b991994c", "lat": 38.915335166666665, "is_reserved": 0, "fusion_lat": 0.0, "rental_uris": {"android": "https://dc.lft.to/lastmile_qr_scan", "ios": "https://dc.lft.to/lastmile_qr_scan"}, "fusion_lon": 0.0, "name": "202f6827c49d0feaaacfca72b991994c", "lon": -76.983473, "is_disabled": 0, "type": "electric_scooter"}, {"bike_id": "a4d17ada9e62015516236a29127e64bf", "lat": 38.90531583333333, "is_reserved": 0, "fusion_lat": 0.0, "rental_uris": {"android": "https://dc.lft.to/lastmile_qr_scan", "ios": "https://dc.lft.to/lastmile_qr_scan"}, "fusion_lon": 0.0, "name": "a4d17ada9e62015516236a29127e64bf", "lon": -77.06031166666666, "is_disabled": 0, "type": "electric_scooter"}, {"bike_id": "38acace76fdf064582b11d0d19df2b5a", "lat": 38.92050666666667, "is_reserved": 0, "fusion_lat": 0.0, "rental_uris": {"android": "https://dc.lft.to/lastmile_qr_scan", "ios": "https://dc.lft.to/lastmile_qr_scan"}, "fusion_lon": 0.0, "name": "38acace76fdf064582b11d0d19df2b5a", "lon": -77.04184116666667, "is_disabled": 0, "type": "electric_scooter"}, {"bike_id": "e3a1480aae59c9079ceede135f3f0b82", "lat": 38.894971, "is_reserved": 0, "fusion_lat": 0.0, "rental_uris": {"android": "https://dc.lft.to/lastmile_qr_scan", "ios": "https://dc.lft.to/lastmile_qr_scan"}, "fusion_lon": 0.0, "name": "e3a1480aae59c9079ceede135f3f0b82", "lon": -77.02277766666667, "is_disabled": 0, "type": "electric_scooter"}, {"bike_id": "3a4189f66f29fb48f2d3582db8dca5b3", "lat": 38.914222333333335, "is_reserved": 0, "fusion_lat": 0.0, "rental_uris": {"android": "https://dc.lft.to/lastmile_qr_scan", "ios": "https://dc.lft.to/lastmile_qr_scan"}, "fusion_lon": 0.0, "name": "3a4189f66f29fb48f2d3582db8dca5b3", "lon": -77.01984666666667, "is_disabled": 0, "type": "electric_scooter"}, {"bike_id": "c1dbbb3d5c30e0f415133bb5aba355b1", "lat": 38.92007, "is_reserved": 0, "fusion_lat": 0.0, "rental_uris": {"android": "https://dc.lft.to/lastmile_qr_scan", "ios": "https://dc.lft.to/lastmile_qr_scan"}, "fusion_lon": 0.0, "name": "c1dbbb3d5c30e0f415133bb5aba355b1", "lon": -77.0818835, "is_disabled": 0, "type": "electric_scooter"}, {"bike_id": "fd84d4e9f4ef2d22e1789c9250ebd530", "lat": 38.90818433333333, "is_reserved": 0, "fusion_lat": 0.0, "rental_uris": {"android": "https://dc.lft.to/lastmile_qr_scan", "ios": "https://dc.lft.to/lastmile_qr_scan"}, "fusion_lon": 0.0, "name": "fd84d4e9f4ef2d22e1789c9250ebd530", "lon": -77.031863, "is_disabled": 0, "type": "electric_scooter"}, {"bike_id": "576de07f7a369562bc8df80b23762699", "lat": 38.91690583333333, "is_reserved": 0, "fusion_lat": 0.0, "rental_uris": {"android": "https://dc.lft.to/lastmile_qr_scan", "ios": "https://dc.lft.to/lastmile_qr_scan"}, "fusion_lon": 0.0, "name": "576de07f7a369562bc8df80b23762699", "lon": -77.02601683333333, "is_disabled": 0, "type": "electric_scooter"}, {"bike_id": "63c031fb063f9fc1625576ed741af4d1", "lat": 38.895365, "is_reserved": 0, "fusion_lat": 0.0, "rental_uris": {"android": "https://dc.lft.to/lastmile_qr_scan", "ios": "https://dc.lft.to/lastmile_qr_scan"}, "fusion_lon": 0.0, "name": "63c031fb063f9fc1625576ed741af4d1", "lon": -77.02818966666666, "is_disabled": 0, "type": "electric_scooter"}, {"bike_id": "1dd374d8bc718f4101420a1cbd305334", "lat": 38.93047166666667, "is_reserved": 0, "fusion_lat": 0.0, "rental_uris": {"android": "https://dc.lft.to/lastmile_qr_scan", "ios": "https://dc.lft.to/lastmile_qr_scan"}, "fusion_lon": 0.0, "name": "1dd374d8bc718f4101420a1cbd305334", "lon": -77.04250433333333, "is_disabled": 0, "type": "electric_scooter"}, {"bike_id": "954a096015e0d83f0cf5d0ee2e7a90bf", "lat": 38.877121333333335, "is_reserved": 0, "fusion_lat": 0.0, "rental_uris": {"android": "https://dc.lft.to/lastmile_qr_scan", "ios": "https://dc.lft.to/lastmile_qr_scan"}, "fusion_lon": 0.0, "name": "954a096015e0d83f0cf5d0ee2e7a90bf", "lon": -77.01764083333333, "is_disabled": 0, "type": "electric_scooter"}, {"bike_id": "0caeee350ccd1eb3071f7d4ec8435980", "lat": 38.851781833333334, "is_reserved": 0, "fusion_lat": 0.0, "rental_uris": {"android": "https://dc.lft.to/lastmile_qr_scan", "ios": "https://dc.lft.to/lastmile_qr_scan"}, "fusion_lon": 0.0, "name": "0caeee350ccd1eb3071f7d4ec8435980", "lon": -76.99578366666667, "is_disabled": 0, "type": "electric_scooter"}, {"bike_id": "9f44836f554da2147abd1875cd49b6ee", "lat": 38.91391183333333, "is_reserved": 0, "fusion_lat": 0.0, "rental_uris": {"android": "https://dc.lft.to/lastmile_qr_scan", "ios": "https://dc.lft.to/lastmile_qr_scan"}, "fusion_lon": 0.0, "name": "9f44836f554da2147abd1875cd49b6ee", "lon": -77.046127, "is_disabled": 0, "type": "electric_scooter"}, {"bike_id": "5f2d9f4021a9834413b4f27165df542d", "lat": 38.92047633333333, "is_reserved": 0, "fusion_lat": 0.0, "rental_uris": {"android": "https://dc.lft.to/lastmile_qr_scan", "ios": "https://dc.lft.to/lastmile_qr_scan"}, "fusion_lon": 0.0, "name": "5f2d9f4021a9834413b4f27165df542d", "lon": -77.0335335, "is_disabled": 0, "type": "electric_scooter"}, {"bike_id": "0b1c9774173527d89edd7d375e61b833", "lat": 38.88363416666667, "is_reserved": 0, "fusion_lat": 0.0, "rental_uris": {"android": "https://dc.lft.to/lastmile_qr_scan", "ios": "https://dc.lft.to/lastmile_qr_scan"}, "fusion_lon": 0.0, "name": "0b1c9774173527d89edd7d375e61b833", "lon": -77.019896, "is_disabled": 0, "type": "electric_scooter"}, {"bike_id": "09abd5bea662cdc7e0f9a0f509a63768", "lat": 38.906819, "is_reserved": 0, "fusion_lat": 0.0, "rental_uris": {"android": "https://dc.lft.to/lastmile_qr_scan", "ios": "https://dc.lft.to/lastmile_qr_scan"}, "fusion_lon": 0.0, "name": "09abd5bea662cdc7e0f9a0f509a63768", "lon": -76.98001633333334, "is_disabled": 0, "type": "electric_scooter"}, {"bike_id": "ad8a5699f915c3b1061cb712fc965e0c", "lat": 38.912676166666664, "is_reserved": 0, "fusion_lat": 0.0, "rental_uris": {"android": "https://dc.lft.to/lastmile_qr_scan", "ios": "https://dc.lft.to/lastmile_qr_scan"}, "fusion_lon": 0.0, "name": "ad8a5699f915c3b1061cb712fc965e0c", "lon": -77.02214483333333, "is_disabled": 0, "type": "electric_scooter"}, {"bike_id": "f5e196a3d63322238599a0b795e6018a", "lat": 38.925082833333335, "is_reserved": 0, "fusion_lat": 0.0, "rental_uris": {"android": "https://dc.lft.to/lastmile_qr_scan", "ios": "https://dc.lft.to/lastmile_qr_scan"}, "fusion_lon": 0.0, "name": "f5e196a3d63322238599a0b795e6018a", "lon": -77.00224583333333, "is_disabled": 0, "type": "electric_scooter"}, {"bike_id": "3158e5e3acfeefe44d8db6344c55a302", "lat": 38.893860333333336, "is_reserved": 0, "fusion_lat": 0.0, "rental_uris": {"android": "https://dc.lft.to/lastmile_qr_scan", "ios": "https://dc.lft.to/lastmile_qr_scan"}, "fusion_lon": 0.0, "name": "3158e5e3acfeefe44d8db6344c55a302", "lon": -77.022692, "is_disabled": 0, "type": "electric_scooter"}, {"bike_id": "5ab624257e2267b528a12bd80fe7c1d2", "lat": 38.89849983333333, "is_reserved": 0, "fusion_lat": 0.0, "rental_uris": {"android": "https://dc.lft.to/lastmile_qr_scan", "ios": "https://dc.lft.to/lastmile_qr_scan"}, "fusion_lon": 0.0, "name": "5ab624257e2267b528a12bd80fe7c1d2", "lon": -76.92911583333333, "is_disabled": 0, "type": "electric_scooter"}, {"bike_id": "58afd289d1d57499e05e2aeaecf140eb", "lat": 38.94824216666667, "is_reserved": 0, "fusion_lat": 0.0, "rental_uris": {"android": "https://dc.lft.to/lastmile_qr_scan", "ios": "https://dc.lft.to/lastmile_qr_scan"}, "fusion_lon": 0.0, "name": "58afd289d1d57499e05e2aeaecf140eb", "lon": -77.02487516666666, "is_disabled": 0, "type": "electric_scooter"}, {"bike_id": "e0bcddbee4ec6773e945b71cac6f755f", "lat": 38.90248483333333, "is_reserved": 0, "fusion_lat": 0.0, "rental_uris": {"android": "https://dc.lft.to/lastmile_qr_scan", "ios": "https://dc.lft.to/lastmile_qr_scan"}, "fusion_lon": 0.0, "name": "e0bcddbee4ec6773e945b71cac6f755f", "lon": -77.03416683333333, "is_disabled": 0, "type": "electric_scooter"}, {"bike_id": "26f572d7c498cfbca01fbca59c6230bc", "lat": 38.918275666666666, "is_reserved": 0, "fusion_lat": 0.0, "rental_uris": {"android": "https://dc.lft.to/lastmile_qr_scan", "ios": "https://dc.lft.to/lastmile_qr_scan"}, "fusion_lon": 0.0, "name": "26f572d7c498cfbca01fbca59c6230bc", "lon": -77.049318, "is_disabled": 0, "type": "electric_scooter"}, {"bike_id": "cb7dfd5d5d08e539dae323804da5714b", "lat": 38.91425183333333, "is_reserved": 0, "fusion_lat": 0.0, "rental_uris": {"android": "https://dc.lft.to/lastmile_qr_scan", "ios": "https://dc.lft.to/lastmile_qr_scan"}, "fusion_lon": 0.0, "name": "cb7dfd5d5d08e539dae323804da5714b", "lon": -77.03185166666667, "is_disabled": 0, "type": "electric_scooter"}, {"bike_id": "4b80c9fabaa4f3dfb2410ef06a65d807", "lat": 38.929004, "is_reserved": 0, "fusion_lat": 0.0, "rental_uris": {"android": "https://dc.lft.to/lastmile_qr_scan", "ios": "https://dc.lft.to/lastmile_qr_scan"}, "fusion_lon": 0.0, "name": "4b80c9fabaa4f3dfb2410ef06a65d807", "lon": -77.02746, "is_disabled": 0, "type": "electric_scooter"}, {"bike_id": "8fe6616c066073868ad44fb3af654ec4", "lat": 38.922468, "is_reserved": 0, "fusion_lat": 0.0, "rental_uris": {"android": "https://dc.lft.to/lastmile_qr_scan", "ios": "https://dc.lft.to/lastmile_qr_scan"}, "fusion_lon": 0.0, "name": "8fe6616c066073868ad44fb3af654ec4", "lon": -77.04273333333333, "is_disabled": 0, "type": "electric_scooter"}, {"bike_id": "39d48fe66e1fb658b57d4f06e4550645", "lat": 38.91739316666666, "is_reserved": 0, "fusion_lat": 0.0, "rental_uris": {"android": "https://dc.lft.to/lastmile_qr_scan", "ios": "https://dc.lft.to/lastmile_qr_scan"}, "fusion_lon": 0.0, "name": "39d48fe66e1fb658b57d4f06e4550645", "lon": -77.04585366666667, "is_disabled": 0, "type": "electric_scooter"}, {"bike_id": "9d3a9d4ee07fd1ad10be90cba9a391d9", "lat": 38.899768333333334, "is_reserved": 0, "fusion_lat": 0.0, "rental_uris": {"android": "https://dc.lft.to/lastmile_qr_scan", "ios": "https://dc.lft.to/lastmile_qr_scan"}, "fusion_lon": 0.0, "name": "9d3a9d4ee07fd1ad10be90cba9a391d9", "lon": -76.9961445, "is_disabled": 0, "type": "electric_scooter"}, {"bike_id": "45e66cca9f8ce3c9d983322f79006522", "lat": 38.965530333333334, "is_reserved": 0, "fusion_lat": 0.0, "rental_uris": {"android": "https://dc.lft.to/lastmile_qr_scan", "ios": "https://dc.lft.to/lastmile_qr_scan"}, "fusion_lon": 0.0, "name": "45e66cca9f8ce3c9d983322f79006522", "lon": -77.03622533333333, "is_disabled": 0, "type": "electric_scooter"}, {"bike_id": "e42f4c9d4bc77079fdd4954d7f5b1f7c", "lat": 38.90535, "is_reserved": 0, "fusion_lat": 0.0, "rental_uris": {"android": "https://dc.lft.to/lastmile_qr_scan", "ios": "https://dc.lft.to/lastmile_qr_scan"}, "fusion_lon": 0.0, "name": "e42f4c9d4bc77079fdd4954d7f5b1f7c", "lon": -77.044834, "is_disabled": 0, "type": "electric_scooter"}, {"bike_id": "324732c9b4bfb0780fbd6b6d6b95ca04", "lat": 38.885192833333335, "is_reserved": 0, "fusion_lat": 0.0, "rental_uris": {"android": "https://dc.lft.to/lastmile_qr_scan", "ios": "https://dc.lft.to/lastmile_qr_scan"}, "fusion_lon": 0.0, "name": "324732c9b4bfb0780fbd6b6d6b95ca04", "lon": -76.9909325, "is_disabled": 0, "type": "electric_scooter"}, {"bike_id": "d1c925334a5a5df6858856cad0449757", "lat": 38.903722333333334, "is_reserved": 0, "fusion_lat": 0.0, "rental_uris": {"android": "https://dc.lft.to/lastmile_qr_scan", "ios": "https://dc.lft.to/lastmile_qr_scan"}, "fusion_lon": 0.0, "name": "d1c925334a5a5df6858856cad0449757", "lon": -77.01899316666666, "is_disabled": 0, "type": "electric_scooter"}, {"bike_id": "f17afdb8bbee3f3793eafeb3d72a05b3", "lat": 38.91540833333333, "is_reserved": 0, "fusion_lat": 0.0, "rental_uris": {"android": "https://dc.lft.to/lastmile_qr_scan", "ios": "https://dc.lft.to/lastmile_qr_scan"}, "fusion_lon": 0.0, "name": "f17afdb8bbee3f3793eafeb3d72a05b3", "lon": -77.02202166666666, "is_disabled": 0, "type": "electric_scooter"}, {"bike_id": "0ccdd11432bfd38b355aaa2f781f0d08", "lat": 38.916839333333336, "is_reserved": 0, "fusion_lat": 0.0, "rental_uris": {"android": "https://dc.lft.to/lastmile_qr_scan", "ios": "https://dc.lft.to/lastmile_qr_scan"}, "fusion_lon": 0.0, "name": "0ccdd11432bfd38b355aaa2f781f0d08", "lon": -77.02974933333333, "is_disabled": 0, "type": "electric_scooter"}, {"bike_id": "d32bdfe8fef18d83d3eeb8d72feffbeb", "lat": 38.8989785, "is_reserved": 0, "fusion_lat": 0.0, "rental_uris": {"android": "https://dc.lft.to/lastmile_qr_scan", "ios": "https://dc.lft.to/lastmile_qr_scan"}, "fusion_lon": 0.0, "name": "d32bdfe8fef18d83d3eeb8d72feffbeb", "lon": -77.03287283333333, "is_disabled": 0, "type": "electric_scooter"}, {"bike_id": "a622e28d2e587400976ef3b1e56277b3", "lat": 38.921655, "is_reserved": 0, "fusion_lat": 0.0, "rental_uris": {"android": "https://dc.lft.to/lastmile_qr_scan", "ios": "https://dc.lft.to/lastmile_qr_scan"}, "fusion_lon": 0.0, "name": "a622e28d2e587400976ef3b1e56277b3", "lon": -77.03360316666667, "is_disabled": 0, "type": "electric_scooter"}, {"bike_id": "8f481aa741551f78ec136dfc508d3403", "lat": 38.90233683333334, "is_reserved": 0, "fusion_lat": 0.0, "rental_uris": {"android": "https://dc.lft.to/lastmile_qr_scan", "ios": "https://dc.lft.to/lastmile_qr_scan"}, "fusion_lon": 0.0, "name": "8f481aa741551f78ec136dfc508d3403", "lon": -77.03932566666667, "is_disabled": 0, "type": "electric_scooter"}, {"bike_id": "1e240869fbcf6bf0fb010fbae446e4dd", "lat": 38.9087075, "is_reserved": 0, "fusion_lat": 0.0, "rental_uris": {"android": "https://dc.lft.to/lastmile_qr_scan", "ios": "https://dc.lft.to/lastmile_qr_scan"}, "fusion_lon": 0.0, "name": "1e240869fbcf6bf0fb010fbae446e4dd", "lon": -76.99786116666667, "is_disabled": 0, "type": "electric_scooter"}, {"bike_id": "2f3baf26b90f4a8533395d816499cecb", "lat": 38.9197755, "is_reserved": 0, "fusion_lat": 0.0, "rental_uris": {"android": "https://dc.lft.to/lastmile_qr_scan", "ios": "https://dc.lft.to/lastmile_qr_scan"}, "fusion_lon": 0.0, "name": "2f3baf26b90f4a8533395d816499cecb", "lon": -77.02179833333334, "is_disabled": 0, "type": "electric_scooter"}, {"bike_id": "2bf8187a94360548b3380eb471184fd7", "lat": 38.93818183333333, "is_reserved": 0, "fusion_lat": 0.0, "rental_uris": {"android": "https://dc.lft.to/lastmile_qr_scan", "ios": "https://dc.lft.to/lastmile_qr_scan"}, "fusion_lon": 0.0, "name": "2bf8187a94360548b3380eb471184fd7", "lon": -77.0716465, "is_disabled": 0, "type": "electric_scooter"}, {"bike_id": "aa77b185545398f5c2012586ff770af8", "lat": 38.9040775, "is_reserved": 0, "fusion_lat": 0.0, "rental_uris": {"android": "https://dc.lft.to/lastmile_qr_scan", "ios": "https://dc.lft.to/lastmile_qr_scan"}, "fusion_lon": 0.0, "name": "aa77b185545398f5c2012586ff770af8", "lon": -77.06512916666667, "is_disabled": 0, "type": "electric_scooter"}, {"bike_id": "58be297ffc9a63a52f27f70e7480427a", "lat": 38.911092, "is_reserved": 0, "fusion_lat": 0.0, "rental_uris": {"android": "https://dc.lft.to/lastmile_qr_scan", "ios": "https://dc.lft.to/lastmile_qr_scan"}, "fusion_lon": 0.0, "name": "58be297ffc9a63a52f27f70e7480427a", "lon": -77.03861583333334, "is_disabled": 0, "type": "electric_scooter"}, {"bike_id": "af28a8c68593bd189268cfb3826c53f7", "lat": 38.902567, "is_reserved": 0, "fusion_lat": 0.0, "rental_uris": {"android": "https://dc.lft.to/lastmile_qr_scan", "ios": "https://dc.lft.to/lastmile_qr_scan"}, "fusion_lon": 0.0, "name": "af28a8c68593bd189268cfb3826c53f7", "lon": -77.0082575, "is_disabled": 0, "type": "electric_scooter"}, {"bike_id": "cb0d4a3a875543d52b2a360e80be89cb", "lat": 38.9086535, "is_reserved": 0, "fusion_lat": 0.0, "rental_uris": {"android": "https://dc.lft.to/lastmile_qr_scan", "ios": "https://dc.lft.to/lastmile_qr_scan"}, "fusion_lon": 0.0, "name": "cb0d4a3a875543d52b2a360e80be89cb", "lon": -77.027105, "is_disabled": 0, "type": "electric_scooter"}, {"bike_id": "1a26ea3ef68e5f5f8da6f4d1885b8825", "lat": 38.90759416666667, "is_reserved": 0, "fusion_lat": 0.0, "rental_uris": {"android": "https://dc.lft.to/lastmile_qr_scan", "ios": "https://dc.lft.to/lastmile_qr_scan"}, "fusion_lon": 0.0, "name": "1a26ea3ef68e5f5f8da6f4d1885b8825", "lon": -77.0088925, "is_disabled": 0, "type": "electric_scooter"}, {"bike_id": "2371b9a46b0890c330a1d01e4c913ede", "lat": 38.92343133333333, "is_reserved": 0, "fusion_lat": 0.0, "rental_uris": {"android": "https://dc.lft.to/lastmile_qr_scan", "ios": "https://dc.lft.to/lastmile_qr_scan"}, "fusion_lon": 0.0, "name": "2371b9a46b0890c330a1d01e4c913ede", "lon": -77.0512295, "is_disabled": 0, "type": "electric_scooter"}, {"bike_id": "9cd4dd09620f8e8d8bc56971bb67340b", "lat": 38.91771966666667, "is_reserved": 0, "fusion_lat": 0.0, "rental_uris": {"android": "https://dc.lft.to/lastmile_qr_scan", "ios": "https://dc.lft.to/lastmile_qr_scan"}, "fusion_lon": 0.0, "name": "9cd4dd09620f8e8d8bc56971bb67340b", "lon": -77.03181683333334, "is_disabled": 0, "type": "electric_scooter"}, {"bike_id": "34550fe645a8c4eaec5cb3b18e62c30d", "lat": 38.90835383333334, "is_reserved": 0, "fusion_lat": 0.0, "rental_uris": {"android": "https://dc.lft.to/lastmile_qr_scan", "ios": "https://dc.lft.to/lastmile_qr_scan"}, "fusion_lon": 0.0, "name": "34550fe645a8c4eaec5cb3b18e62c30d", "lon": -77.04345933333333, "is_disabled": 0, "type": "electric_scooter"}, {"bike_id": "266a7583a77e26653e0c51b98ce63257", "lat": 38.88821566666667, "is_reserved": 0, "fusion_lat": 0.0, "rental_uris": {"android": "https://dc.lft.to/lastmile_qr_scan", "ios": "https://dc.lft.to/lastmile_qr_scan"}, "fusion_lon": 0.0, "name": "266a7583a77e26653e0c51b98ce63257", "lon": -76.9915605, "is_disabled": 0, "type": "electric_scooter"}, {"bike_id": "31716864ab3594d17e5df39c928d5634", "lat": 38.905856666666665, "is_reserved": 0, "fusion_lat": 0.0, "rental_uris": {"android": "https://dc.lft.to/lastmile_qr_scan", "ios": "https://dc.lft.to/lastmile_qr_scan"}, "fusion_lon": 0.0, "name": "31716864ab3594d17e5df39c928d5634", "lon": -77.04575183333333, "is_disabled": 0, "type": "electric_scooter"}, {"bike_id": "3ad68fe3a994d46ddca2984e7f355b0e", "lat": 39.05630816666667, "is_reserved": 0, "fusion_lat": 0.0, "rental_uris": {"android": "https://dc.lft.to/lastmile_qr_scan", "ios": "https://dc.lft.to/lastmile_qr_scan"}, "fusion_lon": 0.0, "name": "3ad68fe3a994d46ddca2984e7f355b0e", "lon": -77.12524966666666, "is_disabled": 0, "type": "electric_bike"}, {"bike_id": "c93e4e050ce73bd1246ff367d7e883b4", "lat": 38.94210483333333, "is_reserved": 0, "fusion_lat": 0.0, "rental_uris": {"android": "https://dc.lft.to/lastmile_qr_scan", "ios": "https://dc.lft.to/lastmile_qr_scan"}, "fusion_lon": 0.0, "name": "c93e4e050ce73bd1246ff367d7e883b4", "lon": -77.025854, "is_disabled": 0, "type": "electric_scooter"}, {"bike_id": "5488b3d6a6fcd46b078558b3fa8de5ff", "lat": 38.91552466666667, "is_reserved": 0, "fusion_lat": 0.0, "rental_uris": {"android": "https://dc.lft.to/lastmile_qr_scan", "ios": "https://dc.lft.to/lastmile_qr_scan"}, "fusion_lon": 0.0, "name": "5488b3d6a6fcd46b078558b3fa8de5ff", "lon": -77.02209666666667, "is_disabled": 0, "type": "electric_scooter"}, {"bike_id": "afe3dd97619ed6905a6dfca70e61f848", "lat": 38.932753, "is_reserved": 0, "fusion_lat": 0.0, "rental_uris": {"android": "https://dc.lft.to/lastmile_qr_scan", "ios": "https://dc.lft.to/lastmile_qr_scan"}, "fusion_lon": 0.0, "name": "afe3dd97619ed6905a6dfca70e61f848", "lon": -77.03498133333333, "is_disabled": 0, "type": "electric_scooter"}, {"bike_id": "033affb5b35f0c24cc4a3f6f078bba6b", "lat": 38.9003165, "is_reserved": 0, "fusion_lat": 0.0, "rental_uris": {"android": "https://dc.lft.to/lastmile_qr_scan", "ios": "https://dc.lft.to/lastmile_qr_scan"}, "fusion_lon": 0.0, "name": "033affb5b35f0c24cc4a3f6f078bba6b", "lon": -77.00074433333333, "is_disabled": 0, "type": "electric_scooter"}, {"bike_id": "683dd11aad8f7ba97c1ef4a91c548dcc", "lat": 38.92412383333333, "is_reserved": 0, "fusion_lat": 0.0, "rental_uris": {"android": "https://dc.lft.to/lastmile_qr_scan", "ios": "https://dc.lft.to/lastmile_qr_scan"}, "fusion_lon": 0.0, "name": "683dd11aad8f7ba97c1ef4a91c548dcc", "lon": -77.02126716666666, "is_disabled": 0, "type": "electric_scooter"}, {"bike_id": "1fc03163d64ae5b53fe7a647534accb9", "lat": 38.866830666666665, "is_reserved": 0, "fusion_lat": 0.0, "rental_uris": {"android": "https://dc.lft.to/lastmile_qr_scan", "ios": "https://dc.lft.to/lastmile_qr_scan"}, "fusion_lon": 0.0, "name": "1fc03163d64ae5b53fe7a647534accb9", "lon": -76.98575116666666, "is_disabled": 0, "type": "electric_scooter"}, {"bike_id": "085b546868a8880a9e280fb8f090e2e7", "lat": 38.8536045, "is_reserved": 0, "fusion_lat": 0.0, "rental_uris": {"android": "https://dc.lft.to/lastmile_qr_scan", "ios": "https://dc.lft.to/lastmile_qr_scan"}, "fusion_lon": 0.0, "name": "085b546868a8880a9e280fb8f090e2e7", "lon": -77.13464566666667, "is_disabled": 0, "type": "electric_bike"}, {"bike_id": "17241b844ab9aee77b4261253ba7fd2c", "lat": 38.916751166666664, "is_reserved": 0, "fusion_lat": 0.0, "rental_uris": {"android": "https://dc.lft.to/lastmile_qr_scan", "ios": "https://dc.lft.to/lastmile_qr_scan"}, "fusion_lon": 0.0, "name": "17241b844ab9aee77b4261253ba7fd2c", "lon": -77.02366433333333, "is_disabled": 0, "type": "electric_scooter"}, {"bike_id": "3bf1706db02f30150234ae8f6dda408c", "lat": 38.9216235, "is_reserved": 0, "fusion_lat": 0.0, "rental_uris": {"android": "https://dc.lft.to/lastmile_qr_scan", "ios": "https://dc.lft.to/lastmile_qr_scan"}, "fusion_lon": 0.0, "name": "3bf1706db02f30150234ae8f6dda408c", "lon": -77.0339575, "is_disabled": 0, "type": "electric_scooter"}, {"bike_id": "80f158db1b05764422ee7dfb45d515a6", "lat": 38.89398766666667, "is_reserved": 0, "fusion_lat": 0.0, "rental_uris": {"android": "https://dc.lft.to/lastmile_qr_scan", "ios": "https://dc.lft.to/lastmile_qr_scan"}, "fusion_lon": 0.0, "name": "80f158db1b05764422ee7dfb45d515a6", "lon": -77.02205, "is_disabled": 0, "type": "electric_scooter"}, {"bike_id": "f83b119e8b5dbe34441eecb4ec0c9e3c", "lat": 38.925832, "is_reserved": 0, "fusion_lat": 0.0, "rental_uris": {"android": "https://dc.lft.to/lastmile_qr_scan", "ios": "https://dc.lft.to/lastmile_qr_scan"}, "fusion_lon": 0.0, "name": "f83b119e8b5dbe34441eecb4ec0c9e3c", "lon": -77.039863, "is_disabled": 0, "type": "electric_scooter"}, {"bike_id": "c671c1074b90bf53415975cdd61ad7d5", "lat": 38.907262, "is_reserved": 0, "fusion_lat": 0.0, "rental_uris": {"android": "https://dc.lft.to/lastmile_qr_scan", "ios": "https://dc.lft.to/lastmile_qr_scan"}, "fusion_lon": 0.0, "name": "c671c1074b90bf53415975cdd61ad7d5", "lon": -77.04024266666667, "is_disabled": 0, "type": "electric_scooter"}, {"bike_id": "6836aa8c55a09ee001176df73f26b61e", "lat": 38.914403, "is_reserved": 0, "fusion_lat": 0.0, "rental_uris": {"android": "https://dc.lft.to/lastmile_qr_scan", "ios": "https://dc.lft.to/lastmile_qr_scan"}, "fusion_lon": 0.0, "name": "6836aa8c55a09ee001176df73f26b61e", "lon": -77.03179116666666, "is_disabled": 0, "type": "electric_scooter"}, {"bike_id": "fcc7bb476db2d093340d7881fec20069", "lat": 38.924950333333335, "is_reserved": 0, "fusion_lat": 0.0, "rental_uris": {"android": "https://dc.lft.to/lastmile_qr_scan", "ios": "https://dc.lft.to/lastmile_qr_scan"}, "fusion_lon": 0.0, "name": "fcc7bb476db2d093340d7881fec20069", "lon": -77.0511565, "is_disabled": 0, "type": "electric_scooter"}, {"bike_id": "aaff2dc02a7f1fdb1d89dd47f7783e7c", "lat": 38.892839333333335, "is_reserved": 0, "fusion_lat": 0.0, "rental_uris": {"android": "https://dc.lft.to/lastmile_qr_scan", "ios": "https://dc.lft.to/lastmile_qr_scan"}, "fusion_lon": 0.0, "name": "aaff2dc02a7f1fdb1d89dd47f7783e7c", "lon": -77.03352533333333, "is_disabled": 0, "type": "electric_scooter"}, {"bike_id": "4596369fa8dc7c9ce04da9d41dd77ab3", "lat": 38.90755083333333, "is_reserved": 0, "fusion_lat": 0.0, "rental_uris": {"android": "https://dc.lft.to/lastmile_qr_scan", "ios": "https://dc.lft.to/lastmile_qr_scan"}, "fusion_lon": 0.0, "name": "4596369fa8dc7c9ce04da9d41dd77ab3", "lon": -77.03216033333334, "is_disabled": 0, "type": "electric_scooter"}, {"bike_id": "3d03db28f883f4ea8febb19609c2b432", "lat": 38.897486666666666, "is_reserved": 0, "fusion_lat": 0.0, "rental_uris": {"android": "https://dc.lft.to/lastmile_qr_scan", "ios": "https://dc.lft.to/lastmile_qr_scan"}, "fusion_lon": 0.0, "name": "3d03db28f883f4ea8febb19609c2b432", "lon": -76.9797105, "is_disabled": 0, "type": "electric_scooter"}, {"bike_id": "0dfe4125fffb057bde00eda657a5fbd3", "lat": 38.9022615, "is_reserved": 0, "fusion_lat": 0.0, "rental_uris": {"android": "https://dc.lft.to/lastmile_qr_scan", "ios": "https://dc.lft.to/lastmile_qr_scan"}, "fusion_lon": 0.0, "name": "0dfe4125fffb057bde00eda657a5fbd3", "lon": -77.0212335, "is_disabled": 0, "type": "electric_scooter"}, {"bike_id": "fc80dd25b0a176a92dc19875bb77f332", "lat": 38.955300666666666, "is_reserved": 0, "fusion_lat": 0.0, "rental_uris": {"android": "https://dc.lft.to/lastmile_qr_scan", "ios": "https://dc.lft.to/lastmile_qr_scan"}, "fusion_lon": 0.0, "name": "fc80dd25b0a176a92dc19875bb77f332", "lon": -77.02782216666667, "is_disabled": 0, "type": "electric_scooter"}, {"bike_id": "d13247c2e03f0863a425b570379c5a79", "lat": 38.90225133333333, "is_reserved": 0, "fusion_lat": 0.0, "rental_uris": {"android": "https://dc.lft.to/lastmile_qr_scan", "ios": "https://dc.lft.to/lastmile_qr_scan"}, "fusion_lon": 0.0, "name": "d13247c2e03f0863a425b570379c5a79", "lon": -77.01688916666667, "is_disabled": 0, "type": "electric_scooter"}, {"bike_id": "5305dbc239c56b7a29e3c277d72d909d", "lat": 38.8995, "is_reserved": 0, "fusion_lat": 0.0, "rental_uris": {"android": "https://dc.lft.to/lastmile_qr_scan", "ios": "https://dc.lft.to/lastmile_qr_scan"}, "fusion_lon": 0.0, "name": "5305dbc239c56b7a29e3c277d72d909d", "lon": -77.03187283333334, "is_disabled": 0, "type": "electric_scooter"}, {"bike_id": "2d9743399309a97f1c1bb52d68cb34c2", "lat": 38.94289166666667, "is_reserved": 0, "fusion_lat": 0.0, "rental_uris": {"android": "https://dc.lft.to/lastmile_qr_scan", "ios": "https://dc.lft.to/lastmile_qr_scan"}, "fusion_lon": 0.0, "name": "2d9743399309a97f1c1bb52d68cb34c2", "lon": -77.02168583333334, "is_disabled": 0, "type": "electric_scooter"}, {"bike_id": "10ebc2e348f91c74e5649c6e9ed4a0e3", "lat": 38.920626666666664, "is_reserved": 0, "fusion_lat": 0.0, "rental_uris": {"android": "https://dc.lft.to/lastmile_qr_scan", "ios": "https://dc.lft.to/lastmile_qr_scan"}, "fusion_lon": 0.0, "name": "10ebc2e348f91c74e5649c6e9ed4a0e3", "lon": -77.04249083333333, "is_disabled": 0, "type": "electric_scooter"}, {"bike_id": "8bf2182276d48196600f22bc6e2082c6", "lat": 38.90856466666666, "is_reserved": 0, "fusion_lat": 0.0, "rental_uris": {"android": "https://dc.lft.to/lastmile_qr_scan", "ios": "https://dc.lft.to/lastmile_qr_scan"}, "fusion_lon": 0.0, "name": "8bf2182276d48196600f22bc6e2082c6", "lon": -76.99800133333333, "is_disabled": 0, "type": "electric_scooter"}, {"bike_id": "6a593f3056ead9e3235f9b304a1adf8f", "lat": 38.906719333333335, "is_reserved": 0, "fusion_lat": 0.0, "rental_uris": {"android": "https://dc.lft.to/lastmile_qr_scan", "ios": "https://dc.lft.to/lastmile_qr_scan"}, "fusion_lon": 0.0, "name": "6a593f3056ead9e3235f9b304a1adf8f", "lon": -77.027046, "is_disabled": 0, "type": "electric_scooter"}, {"bike_id": "8ae1f2ef6dec9446f3efaadb5aba2ec4", "lat": 38.914248666666666, "is_reserved": 0, "fusion_lat": 0.0, "rental_uris": {"android": "https://dc.lft.to/lastmile_qr_scan", "ios": "https://dc.lft.to/lastmile_qr_scan"}, "fusion_lon": 0.0, "name": "8ae1f2ef6dec9446f3efaadb5aba2ec4", "lon": -77.0198385, "is_disabled": 0, "type": "electric_scooter"}, {"bike_id": "7f53102ae68a7e9bf71e6912e59b892f", "lat": 38.89619166666667, "is_reserved": 0, "fusion_lat": 0.0, "rental_uris": {"android": "https://dc.lft.to/lastmile_qr_scan", "ios": "https://dc.lft.to/lastmile_qr_scan"}, "fusion_lon": 0.0, "name": "7f53102ae68a7e9bf71e6912e59b892f", "lon": -77.02654266666667, "is_disabled": 0, "type": "electric_scooter"}, {"bike_id": "1690a02ba5f560c046c8c8a7b57ffc5f", "lat": 38.916890333333335, "is_reserved": 0, "fusion_lat": 0.0, "rental_uris": {"android": "https://dc.lft.to/lastmile_qr_scan", "ios": "https://dc.lft.to/lastmile_qr_scan"}, "fusion_lon": 0.0, "name": "1690a02ba5f560c046c8c8a7b57ffc5f", "lon": -77.032316, "is_disabled": 0, "type": "electric_scooter"}, {"bike_id": "c39443a677d4ea740f0d0bb566262f5e", "lat": 38.892221666666664, "is_reserved": 0, "fusion_lat": 0.0, "rental_uris": {"android": "https://dc.lft.to/lastmile_qr_scan", "ios": "https://dc.lft.to/lastmile_qr_scan"}, "fusion_lon": 0.0, "name": "c39443a677d4ea740f0d0bb566262f5e", "lon": -77.0486685, "is_disabled": 0, "type": "electric_scooter"}, {"bike_id": "3977a38a1a2685491874cebe7fbbfac9", "lat": 38.83609716666667, "is_reserved": 0, "fusion_lat": 0.0, "rental_uris": {"android": "https://dc.lft.to/lastmile_qr_scan", "ios": "https://dc.lft.to/lastmile_qr_scan"}, "fusion_lon": 0.0, "name": "3977a38a1a2685491874cebe7fbbfac9", "lon": -77.0038855, "is_disabled": 0, "type": "electric_bike"}, {"bike_id": "8d1e1e0d8e8a29020079c35ea2aaaef9", "lat": 38.89731466666667, "is_reserved": 0, "fusion_lat": 0.0, "rental_uris": {"android": "https://dc.lft.to/lastmile_qr_scan", "ios": "https://dc.lft.to/lastmile_qr_scan"}, "fusion_lon": 0.0, "name": "8d1e1e0d8e8a29020079c35ea2aaaef9", "lon": -77.0555945, "is_disabled": 0, "type": "electric_bike"}, {"bike_id": "2c7d0b1fce0fd8bc60736db659be44a0", "lat": 38.89533616666667, "is_reserved": 0, "fusion_lat": 0.0, "rental_uris": {"android": "https://dc.lft.to/lastmile_qr_scan", "ios": "https://dc.lft.to/lastmile_qr_scan"}, "fusion_lon": 0.0, "name": "2c7d0b1fce0fd8bc60736db659be44a0", "lon": -77.028113, "is_disabled": 0, "type": "electric_scooter"}, {"bike_id": "5988696b4105c5bb5ddd7decef84be78", "lat": 38.899424333333336, "is_reserved": 0, "fusion_lat": 0.0, "rental_uris": {"android": "https://dc.lft.to/lastmile_qr_scan", "ios": "https://dc.lft.to/lastmile_qr_scan"}, "fusion_lon": 0.0, "name": "5988696b4105c5bb5ddd7decef84be78", "lon": -77.0144965, "is_disabled": 0, "type": "electric_scooter"}, {"bike_id": "e523da6a1a326124c32c0c5327369a33", "lat": 38.92606766666667, "is_reserved": 0, "fusion_lat": 0.0, "rental_uris": {"android": "https://dc.lft.to/lastmile_qr_scan", "ios": "https://dc.lft.to/lastmile_qr_scan"}, "fusion_lon": 0.0, "name": "e523da6a1a326124c32c0c5327369a33", "lon": -77.05705933333333, "is_disabled": 0, "type": "electric_scooter"}, {"bike_id": "3208ad9514da3cb62fe3077e33f0b3cb", "lat": 38.92240733333333, "is_reserved": 0, "fusion_lat": 0.0, "rental_uris": {"android": "https://dc.lft.to/lastmile_qr_scan", "ios": "https://dc.lft.to/lastmile_qr_scan"}, "fusion_lon": 0.0, "name": "3208ad9514da3cb62fe3077e33f0b3cb", "lon": -77.02988133333334, "is_disabled": 0, "type": "electric_scooter"}, {"bike_id": "682514cf644e5cb09e35710346bfccad", "lat": 38.90013183333333, "is_reserved": 0, "fusion_lat": 0.0, "rental_uris": {"android": "https://dc.lft.to/lastmile_qr_scan", "ios": "https://dc.lft.to/lastmile_qr_scan"}, "fusion_lon": 0.0, "name": "682514cf644e5cb09e35710346bfccad", "lon": -77.011869, "is_disabled": 0, "type": "electric_scooter"}, {"bike_id": "4927f1ecdd3066c15a006db48d2a1d53", "lat": 38.891907333333336, "is_reserved": 0, "fusion_lat": 0.0, "rental_uris": {"android": "https://dc.lft.to/lastmile_qr_scan", "ios": "https://dc.lft.to/lastmile_qr_scan"}, "fusion_lon": 0.0, "name": "4927f1ecdd3066c15a006db48d2a1d53", "lon": -77.02404866666667, "is_disabled": 0, "type": "electric_scooter"}, {"bike_id": "8e149d22a8b6c618e72217cca5316d84", "lat": 38.90136583333334, "is_reserved": 0, "fusion_lat": 0.0, "rental_uris": {"android": "https://dc.lft.to/lastmile_qr_scan", "ios": "https://dc.lft.to/lastmile_qr_scan"}, "fusion_lon": 0.0, "name": "8e149d22a8b6c618e72217cca5316d84", "lon": -77.04191416666667, "is_disabled": 0, "type": "electric_scooter"}, {"bike_id": "92ab3575b87cb5335ccabefcbcd77cd1", "lat": 38.915287666666664, "is_reserved": 0, "fusion_lat": 0.0, "rental_uris": {"android": "https://dc.lft.to/lastmile_qr_scan", "ios": "https://dc.lft.to/lastmile_qr_scan"}, "fusion_lon": 0.0, "name": "92ab3575b87cb5335ccabefcbcd77cd1", "lon": -77.01975733333333, "is_disabled": 0, "type": "electric_scooter"}, {"bike_id": "bd916f39da9f51681e49fbfe509d345f", "lat": 38.902274, "is_reserved": 0, "fusion_lat": 0.0, "rental_uris": {"android": "https://dc.lft.to/lastmile_qr_scan", "ios": "https://dc.lft.to/lastmile_qr_scan"}, "fusion_lon": 0.0, "name": "bd916f39da9f51681e49fbfe509d345f", "lon": -77.02377216666666, "is_disabled": 0, "type": "electric_scooter"}, {"bike_id": "80f800268cb4ae362846eb3c084bbf82", "lat": 38.90244166666667, "is_reserved": 0, "fusion_lat": 0.0, "rental_uris": {"android": "https://dc.lft.to/lastmile_qr_scan", "ios": "https://dc.lft.to/lastmile_qr_scan"}, "fusion_lon": 0.0, "name": "80f800268cb4ae362846eb3c084bbf82", "lon": -77.04024733333334, "is_disabled": 0, "type": "electric_scooter"}, {"bike_id": "03d864f4fed90d6f1c23f6c9e670aa60", "lat": 38.87377683333333, "is_reserved": 0, "fusion_lat": 0.0, "rental_uris": {"android": "https://dc.lft.to/lastmile_qr_scan", "ios": "https://dc.lft.to/lastmile_qr_scan"}, "fusion_lon": 0.0, "name": "03d864f4fed90d6f1c23f6c9e670aa60", "lon": -77.00039266666667, "is_disabled": 0, "type": "electric_scooter"}, {"bike_id": "17338dcf3dd687ab32d7a778cf5eea40", "lat": 38.90144166666666, "is_reserved": 0, "fusion_lat": 0.0, "rental_uris": {"android": "https://dc.lft.to/lastmile_qr_scan", "ios": "https://dc.lft.to/lastmile_qr_scan"}, "fusion_lon": 0.0, "name": "17338dcf3dd687ab32d7a778cf5eea40", "lon": -77.0241835, "is_disabled": 0, "type": "electric_scooter"}, {"bike_id": "48d5da6e02db765b0d17b173c0620e87", "lat": 38.92155433333333, "is_reserved": 0, "fusion_lat": 0.0, "rental_uris": {"android": "https://dc.lft.to/lastmile_qr_scan", "ios": "https://dc.lft.to/lastmile_qr_scan"}, "fusion_lon": 0.0, "name": "48d5da6e02db765b0d17b173c0620e87", "lon": -77.03388066666666, "is_disabled": 0, "type": "electric_scooter"}, {"bike_id": "5824713544d0741de7a2a13a76aa3bf3", "lat": 38.90026133333333, "is_reserved": 0, "fusion_lat": 0.0, "rental_uris": {"android": "https://dc.lft.to/lastmile_qr_scan", "ios": "https://dc.lft.to/lastmile_qr_scan"}, "fusion_lon": 0.0, "name": "5824713544d0741de7a2a13a76aa3bf3", "lon": -77.02898, "is_disabled": 0, "type": "electric_scooter"}, {"bike_id": "09e7308b6388a1ed35b009d9713ef74b", "lat": 38.897532166666664, "is_reserved": 0, "fusion_lat": 0.0, "rental_uris": {"android": "https://dc.lft.to/lastmile_qr_scan", "ios": "https://dc.lft.to/lastmile_qr_scan"}, "fusion_lon": 0.0, "name": "09e7308b6388a1ed35b009d9713ef74b", "lon": -77.029977, "is_disabled": 0, "type": "electric_scooter"}, {"bike_id": "c14ead3aba2463706c131dbd79e80d9c", "lat": 38.90523183333333, "is_reserved": 0, "fusion_lat": 0.0, "rental_uris": {"android": "https://dc.lft.to/lastmile_qr_scan", "ios": "https://dc.lft.to/lastmile_qr_scan"}, "fusion_lon": 0.0, "name": "c14ead3aba2463706c131dbd79e80d9c", "lon": -77.05985533333333, "is_disabled": 0, "type": "electric_scooter"}, {"bike_id": "c51cd714c45b369f4be53cbc64a148e8", "lat": 38.9216365, "is_reserved": 0, "fusion_lat": 0.0, "rental_uris": {"android": "https://dc.lft.to/lastmile_qr_scan", "ios": "https://dc.lft.to/lastmile_qr_scan"}, "fusion_lon": 0.0, "name": "c51cd714c45b369f4be53cbc64a148e8", "lon": -77.020883, "is_disabled": 0, "type": "electric_scooter"}, {"bike_id": "b983e27735be35edc88631f940e074e6", "lat": 38.906649333333334, "is_reserved": 0, "fusion_lat": 0.0, "rental_uris": {"android": "https://dc.lft.to/lastmile_qr_scan", "ios": "https://dc.lft.to/lastmile_qr_scan"}, "fusion_lon": 0.0, "name": "b983e27735be35edc88631f940e074e6", "lon": -77.02705833333333, "is_disabled": 0, "type": "electric_scooter"}, {"bike_id": "b7b68c3b869f7c4acbe822cf511ad161", "lat": 38.90172033333333, "is_reserved": 0, "fusion_lat": 0.0, "rental_uris": {"android": "https://dc.lft.to/lastmile_qr_scan", "ios": "https://dc.lft.to/lastmile_qr_scan"}, "fusion_lon": 0.0, "name": "b7b68c3b869f7c4acbe822cf511ad161", "lon": -76.92657333333334, "is_disabled": 0, "type": "electric_scooter"}, {"bike_id": "c0eb04529656be33d26e78d8af9397a4", "lat": 38.881909666666665, "is_reserved": 0, "fusion_lat": 0.0, "rental_uris": {"android": "https://dc.lft.to/lastmile_qr_scan", "ios": "https://dc.lft.to/lastmile_qr_scan"}, "fusion_lon": 0.0, "name": "c0eb04529656be33d26e78d8af9397a4", "lon": -77.02084616666667, "is_disabled": 0, "type": "electric_scooter"}, {"bike_id": "b2f96592f14e4c4a9ceebc3360fd5a37", "lat": 38.9157075, "is_reserved": 0, "fusion_lat": 0.0, "rental_uris": {"android": "https://dc.lft.to/lastmile_qr_scan", "ios": "https://dc.lft.to/lastmile_qr_scan"}, "fusion_lon": 0.0, "name": "b2f96592f14e4c4a9ceebc3360fd5a37", "lon": -77.0382625, "is_disabled": 0, "type": "electric_scooter"}, {"bike_id": "72297e41967dc78b12bec2b3d1adcf5e", "lat": 38.91100616666667, "is_reserved": 0, "fusion_lat": 0.0, "rental_uris": {"android": "https://dc.lft.to/lastmile_qr_scan", "ios": "https://dc.lft.to/lastmile_qr_scan"}, "fusion_lon": 0.0, "name": "72297e41967dc78b12bec2b3d1adcf5e", "lon": -77.0318505, "is_disabled": 0, "type": "electric_scooter"}, {"bike_id": "f17f6854af12b397ca2739f5940a6853", "lat": 38.90671716666667, "is_reserved": 0, "fusion_lat": 0.0, "rental_uris": {"android": "https://dc.lft.to/lastmile_qr_scan", "ios": "https://dc.lft.to/lastmile_qr_scan"}, "fusion_lon": 0.0, "name": "f17f6854af12b397ca2739f5940a6853", "lon": -77.01053766666666, "is_disabled": 0, "type": "electric_scooter"},