{"data": {"bikes": [{"name": "eb7df7d3f0da255ba74df884c66bd255", "fusion_lat": 0.0, "fusion_lon": 0.0, "bike_id": "eb7df7d3f0da255ba74df884c66bd255", "rental_uris": {"ios": "https://dc.lft.to/lastmile_qr_scan", "android": "https://dc.lft.to/lastmile_qr_scan"}, "type": "electric_scooter", "lat": 38.901049, "is_disabled": 0, "lon": -77.031992, "is_reserved": 0}, {"name": "06febe556552c52756d6b48f034b24f3", "fusion_lat": 0.0, "fusion_lon": 0.0, "bike_id": "06febe556552c52756d6b48f034b24f3", "rental_uris": {"ios": "https://dc.lft.to/lastmile_qr_scan", "android": "https://dc.lft.to/lastmile_qr_scan"}, "type": "electric_scooter", "lat": 38.91423616666667, "is_disabled": 0, "lon": -77.03907883333333, "is_reserved": 0}, {"name": "62b47bcb4642d86b849965541b31b814", "fusion_lat": 0.0, "fusion_lon": 0.0, "bike_id": "62b47bcb4642d86b849965541b31b814", "rental_uris": {"ios": "https://dc.lft.to/lastmile_qr_scan", "android": "https://dc.lft.to/lastmile_qr_scan"}, "type": "electric_scooter", "lat": 38.885025166666665, "is_disabled": 0, "lon": -77.00570366666666, "is_reserved": 0}, {"name": "2fec25e7599e251d81ed32736d06e4a2", "fusion_lat": 0.0, "fusion_lon": 0.0, "bike_id": "2fec25e7599e251d81ed32736d06e4a2", "rental_uris": {"ios": "https://dc.lft.to/lastmile_qr_scan", "android": "https://dc.lft.to/lastmile_qr_scan"}, "type": "electric_bike", "lat": 38.99255183333333, "is_disabled": 0, "lon": -77.0499765, "is_reserved": 0}, {"name": "73799b4ee46f3e4420bdce51744a63bc", "fusion_lat": 0.0, "fusion_lon": 0.0, "bike_id": "73799b4ee46f3e4420bdce51744a63bc", "rental_uris": {"ios": "https://dc.lft.to/lastmile_qr_scan", "android": "https://dc.lft.to/lastmile_qr_scan"}, "type": "electric_bike", "lat": 38.961972333333335, "is_disabled": 0, "lon": -77.07409366666667, "is_reserved": 0}, {"name": "86ffcfc8a93c2df0fa3b6a0ff94ff7d4", "fusion_lat": 0.0, "fusion_lon": 0.0, "bike_id": "86ffcfc8a93c2df0fa3b6a0ff94ff7d4", "rental_uris": {"ios": "https://dc.lft.to/lastmile_qr_scan", "android": "https://dc.lft.to/lastmile_qr_scan"}, "type": "electric_scooter", "lat": 38.8978975, "is_disabled": 0, "lon": -77.007295, "is_reserved": 0}, {"name": "f66543885d1435a4d301494bc203ce4a", "fusion_lat": 0.0, "fusion_lon": 0.0, "bike_id": "f66543885d1435a4d301494bc203ce4a", "rental_uris": {"ios": "https://dc.lft.to/lastmile_qr_scan", "android": "https://dc.lft.to/lastmile_qr_scan"}, "type": "electric_bike", "lat": 38.998093, "is_disabled": 0, "lon": -77.0291355, "is_reserved": 0}, {"name": "bc246786312d6767555f873216094ca4", "fusion_lat": 0.0, "fusion_lon": 0.0, "bike_id": "bc246786312d6767555f873216094ca4", "rental_uris": {"ios": "https://dc.lft.to/lastmile_qr_scan", "android": "https://dc.lft.to/lastmile_qr_scan"}, "type": "electric_bike", "lat": 38.868577333333334, "is_disabled": 0, "lon": -76.91657233333333, "is_reserved": 0}, {"name": "aad33175d330971fa6a531e3f7ec806c", "fusion_lat": 0.0, "fusion_lon": 0.0, "bike_id": "aad33175d330971fa6a531e3f7ec806c", "rental_uris": {"ios": "https://dc.lft.to/lastmile_qr_scan", "android": "https://dc.lft.to/lastmile_qr_scan"}, "type": "electric_bike", "lat": 38.93186766666667, "is_disabled": 0, "lon": -77.229363, "is_reserved": 0}, {"name": "70264f27950c61804c50b8b8e576285e", "fusion_lat": 0.0, "fusion_lon": 0.0, "bike_id": "70264f27950c61804c50b8b8e576285e", "rental_uris": {"ios": "https://dc.lft.to/lastmile_qr_scan", "android": "https://dc.lft.to/lastmile_qr_scan"}, "type": "electric_scooter", "lat": 38.9175125, "is_disabled": 0, "lon": -77.02491916666666, "is_reserved": 0}, {"name": "8381b6ec424edf598ff60e0a0306c471", "fusion_lat": 0.0, "fusion_lon": 0.0, "bike_id": "8381b6ec424edf598ff60e0a0306c471", "rental_uris": {"ios": "https://dc.lft.to/lastmile_qr_scan", "android": "https://dc.lft.to/lastmile_qr_scan"}, "type": "electric_scooter", "lat": 38.90966216666666, "is_disabled": 0, "lon": -77.02181183333333, "is_reserved": 0}, {"name": "3c90523c1e0fb587272f11d75077e60d", "fusion_lat": 0.0, "fusion_lon": 0.0, "bike_id": "3c90523c1e0fb587272f11d75077e60d", "rental_uris": {"ios": "https://dc.lft.to/lastmile_qr_scan", "android": "https://dc.lft.to/lastmile_qr_scan"}, "type": "electric_scooter", "lat": 38.9197635, "is_disabled": 0, "lon": -77.02195866666666, "is_reserved": 0}, {"name": "08f91ae801ebeccedfafc2b7489fc7ad", "fusion_lat": 0.0, "fusion_lon": 0.0, "bike_id": "08f91ae801ebeccedfafc2b7489fc7ad", "rental_uris": {"ios": "https://dc.lft.to/lastmile_qr_scan", "android": "https://dc.lft.to/lastmile_qr_scan"}, "type": "electric_scooter", "lat": 38.913175833333334, "is_disabled": 0, "lon": -77.032437, "is_reserved": 0}, {"name": "8670e588d8e02b83f572d6137fc8e299", "fusion_lat": 0.0, "fusion_lon": 0.0, "bike_id": "8670e588d8e02b83f572d6137fc8e299", "rental_uris": {"ios": "https://dc.lft.to/lastmile_qr_scan", "android": "https://dc.lft.to/lastmile_qr_scan"}, "type": "electric_scooter", "lat": 38.914188833333334, "is_disabled": 0, "lon": -77.025491, "is_reserved": 0}, {"name": "08bb3190da55cb65846dcb47d863570a", "fusion_lat": 0.0, "fusion_lon": 0.0, "bike_id": "08bb3190da55cb65846dcb47d863570a", "rental_uris": {"ios": "https://dc.lft.to/lastmile_qr_scan", "android": "https://dc.lft.to/lastmile_qr_scan"}, "type": "electric_bike", "lat": 38.85790166666666, "is_disabled": 0, "lon": -77.09963483333334, "is_reserved": 0}, {"name": "5a10a4e8231572f8c925a6ad56d4eba1", "fusion_lat": 0.0, "fusion_lon": 0.0, "bike_id": "5a10a4e8231572f8c925a6ad56d4eba1", "rental_uris": {"ios": "https://dc.lft.to/lastmile_qr_scan", "android": "https://dc.lft.to/lastmile_qr_scan"}, "type": "electric_scooter", "lat": 38.90198683333333, "is_disabled": 0, "lon": -77.0612125, "is_reserved": 0}, {"name": "6af67afb08332ce30ff3ea5079f86432", "fusion_lat": 0.0, "fusion_lon": 0.0, "bike_id": "6af67afb08332ce30ff3ea5079f86432", "rental_uris": {"ios": "https://dc.lft.to/lastmile_qr_scan", "android": "https://dc.lft.to/lastmile_qr_scan"}, "type": "electric_scooter", "lat": 38.90234933333333, "is_disabled": 0, "lon": -77.045716, "is_reserved": 0}, {"name": "17b7d227b52cd66974eb402e2f5bb776", "fusion_lat": 0.0, "fusion_lon": 0.0, "bike_id": "17b7d227b52cd66974eb402e2f5bb776", "rental_uris": {"ios": "https://dc.lft.to/lastmile_qr_scan", "android": "https://dc.lft.to/lastmile_qr_scan"}, "type": "electric_scooter", "lat": 38.89606216666667, "is_disabled": 0, "lon": -77.0109465, "is_reserved": 0}, {"name": "01e28ee3369e8c4d8f4815220126e909", "fusion_lat": 0.0, "fusion_lon": 0.0, "bike_id": "01e28ee3369e8c4d8f4815220126e909", "rental_uris": {"ios": "https://dc.lft.to/lastmile_qr_scan", "android": "https://dc.lft.to/lastmile_qr_scan"}, "type": "electric_scooter", "lat": 38.907184, "is_disabled": 0, "lon": -77.03863, "is_reserved": 0}, {"name": "f7215e0a23335203c428fe6496852c9a", "fusion_lat": 0.0, "fusion_lon": 0.0, "bike_id": "f7215e0a23335203c428fe6496852c9a", "rental_uris": {"ios": "https://dc.lft.to/lastmile_qr_scan", "android": "https://dc.lft.to/lastmile_qr_scan"}, "type": "electric_scooter", "lat": 38.90574, "is_disabled": 0, "lon": -77.00887366666667, "is_reserved": 0}, {"name": "ef44b3c70e106e8376277b64415dbe00", "fusion_lat": 0.0, "fusion_lon": 0.0, "bike_id": "ef44b3c70e106e8376277b64415dbe00", "rental_uris": {"ios": "https://dc.lft.to/lastmile_qr_scan", "android": "https://dc.lft.to/lastmile_qr_scan"}, "type": "electric_scooter", "lat": 38.91806183333333, "is_disabled": 0, "lon": -77.02686816666667, "is_reserved": 0}, {"name": "eaa4a345c08529a5fcb8c8c8904fde26", "fusion_lat": 0.0, "fusion_lon": 0.0, "bike_id": "eaa4a345c08529a5fcb8c8c8904fde26", "rental_uris": {"ios": "https://dc.lft.to/lastmile_qr_scan", "android": "https://dc.lft.to/lastmile_qr_scan"}, "type": "electric_scooter", "lat": 38.92785633333333, "is_disabled": 0, "lon": -77.02737016666667, "is_reserved": 0}, {"name": "ce6d541a839e1b106c8d18cb28289a76", "fusion_lat": 0.0, "fusion_lon": 0.0, "bike_id": "ce6d541a839e1b106c8d18cb28289a76", "rental_uris": {"ios": "https://dc.lft.to/lastmile_qr_scan", "android": "https://dc.lft.to/lastmile_qr_scan"}, "type": "electric_scooter", "lat": 38.92785, "is_disabled": 0, "lon": -77.0273485, "is_reserved": 0}, {"name": "98e753a4e65cc91de07c0be283c2628e", "fusion_lat": 0.0, "fusion_lon": 0.0, "bike_id": "98e753a4e65cc91de07c0be283c2628e", "rental_uris": {"ios": "https://dc.lft.to/lastmile_qr_scan", "android": "https://dc.lft.to/lastmile_qr_scan"}, "type": "electric_scooter", "lat": 38.900169166666664, "is_disabled": 0, "lon": -77.0334235, "is_reserved": 0}, {"name": "accc720e86c58f0534c57744e57980ac", "fusion_lat": 0.0, "fusion_lon": 0.0, "bike_id": "accc720e86c58f0534c57744e57980ac", "rental_uris": {"ios": "https://dc.lft.to/lastmile_qr_scan", "android": "https://dc.lft.to/lastmile_qr_scan"}, "type": "electric_scooter", "lat": 38.898459833333334, "is_disabled": 0, "lon": -76.99033116666666, "is_reserved": 0}, {"name": "59c12e42479ff2f0ccae4cac8f3f0069", "fusion_lat": 0.0, "fusion_lon": 0.0, "bike_id": "59c12e42479ff2f0ccae4cac8f3f0069", "rental_uris": {"ios": "https://dc.lft.to/lastmile_qr_scan", "android": "https://dc.lft.to/lastmile_qr_scan"}, "type": "electric_scooter", "lat": 38.87458616666667, "is_disabled": 0, "lon": -77.005045, "is_reserved": 0}, {"name": "7eb3e37e1e4e651451c604e83719bcaa", "fusion_lat": 0.0, "fusion_lon": 0.0, "bike_id": "7eb3e37e1e4e651451c604e83719bcaa", "rental_uris": {"ios": "https://dc.lft.to/lastmile_qr_scan", "android": "https://dc.lft.to/lastmile_qr_scan"}, "type": "electric_scooter", "lat": 38.9272, "is_disabled": 0, "lon": -77.05356983333333, "is_reserved": 0}, {"name": "ffcc6b80ab44c20ccc18ebbef553700d", "fusion_lat": 0.0, "fusion_lon": 0.0, "bike_id": "ffcc6b80ab44c20ccc18ebbef553700d", "rental_uris": {"ios": "https://dc.lft.to/lastmile_qr_scan", "android": "https://dc.lft.to/lastmile_qr_scan"}, "type": "electric_scooter", "lat": 38.91384983333333, "is_disabled": 0, "lon": -77.01710316666667, "is_reserved": 0}, {"name": "be430b38710834a9c257cc74a0aea76c", "fusion_lat": 0.0, "fusion_lon": 0.0, "bike_id": "be430b38710834a9c257cc74a0aea76c", "rental_uris": {"ios": "https://dc.lft.to/lastmile_qr_scan", "android": "https://dc.lft.to/lastmile_qr_scan"}, "type": "electric_scooter", "lat": 38.902507, "is_disabled": 0, "lon": -76.94629733333333, "is_reserved": 0}, {"name": "687a2e939bfeee24141b2a64339e4bef", "fusion_lat": 0.0, "fusion_lon": 0.0, "bike_id": "687a2e939bfeee24141b2a64339e4bef", "rental_uris": {"ios": "https://dc.lft.to/lastmile_qr_scan", "android": "https://dc.lft.to/lastmile_qr_scan"}, "type": "electric_scooter", "lat": 38.91837066666667, "is_disabled": 0, "lon": -77.031985, "is_reserved": 0}, {"name": "7a3f1ca3d1f6737e1b3393e001b9d263", "fusion_lat": 0.0, "fusion_lon": 0.0, "bike_id": "7a3f1ca3d1f6737e1b3393e001b9d263", "rental_uris": {"ios": "https://dc.lft.to/lastmile_qr_scan", "android": "https://dc.lft.to/lastmile_qr_scan"}, "type": "electric_scooter", "lat": 38.904205833333336, "is_disabled": 0, "lon": -77.02521766666666, "is_reserved": 0}, {"name": "e4cb4186e13377119bf18e3c5a5978a4", "fusion_lat": 0.0, "fusion_lon": 0.0, "bike_id": "e4cb4186e13377119bf18e3c5a5978a4", "rental_uris": {"ios": "https://dc.lft.to/lastmile_qr_scan", "android": "https://dc.lft.to/lastmile_qr_scan"}, "type": "electric_bike", "lat": 38.95082166666667, "is_disabled": 0, "lon": -77.01256333333333, "is_reserved": 0}, {"name": "8fcbf1384489f5453fc755eba2c73a3b", "fusion_lat": 0.0, "fusion_lon": 0.0, "bike_id": "8fcbf1384489f5453fc755eba2c73a3b", "rental_uris": {"ios": "https://dc.lft.to/lastmile_qr_scan", "android": "https://dc.lft.to/lastmile_qr_scan"}, "type": "electric_scooter", "lat": 38.912626833333334, "is_disabled": 0, "lon": -77.016851, "is_reserved": 0}, {"name": "fa4020c3f8fef41487b6ba299eece87c", "fusion_lat": 0.0, "fusion_lon": 0.0, "bike_id": "fa4020c3f8fef41487b6ba299eece87c", "rental_uris": {"ios": "https://dc.lft.to/lastmile_qr_scan", "android": "https://dc.lft.to/lastmile_qr_scan"}, "type": "electric_scooter", "lat": 38.92148866666667, "is_disabled": 0, "lon": -77.03869733333333, "is_reserved": 0}, {"name": "a5a466eb2f0b69570adbcbbbe35553c5", "fusion_lat": 0.0, "fusion_lon": 0.0, "bike_id": "a5a466eb2f0b69570adbcbbbe35553c5", "rental_uris": {"ios": "https://dc.lft.to/lastmile_qr_scan", "android": "https://dc.lft.to/lastmile_qr_scan"}, "type": "electric_bike", "lat": 38.874908, "is_disabled": 0, "lon": -77.04899633333333, "is_reserved": 0}, {"name": "28e2fa4f3e200f01aa9b25dc7921f1d3", "fusion_lat": 0.0, "fusion_lon": 0.0, "bike_id": "28e2fa4f3e200f01aa9b25dc7921f1d3", "rental_uris": {"ios": "https://dc.lft.to/lastmile_qr_scan", "android": "https://dc.lft.to/lastmile_qr_scan"}, "type": "electric_scooter", "lat": 38.92852883333333, "is_disabled": 0, "lon": -77.01421783333333, "is_reserved": 0}, {"name": "5ab9f6a479e6271d2af5bd2e3cde1f17", "fusion_lat": 0.0, "fusion_lon": 0.0, "bike_id": "5ab9f6a479e6271d2af5bd2e3cde1f17", "rental_uris": {"ios": "https://dc.lft.to/lastmile_qr_scan", "android": "https://dc.lft.to/lastmile_qr_scan"}, "type": "electric_scooter", "lat": 38.90314766666667, "is_disabled": 0, "lon": -77.02366266666667, "is_reserved": 0}, {"name": "a8e200698dd27e12c213931e058d23bf", "fusion_lat": 0.0, "fusion_lon": 0.0, "bike_id": "a8e200698dd27e12c213931e058d23bf", "rental_uris": {"ios": "https://dc.lft.to/lastmile_qr_scan", "android": "https://dc.lft.to/lastmile_qr_scan"}, "type": "electric_scooter", "lat": 38.91499866666667, "is_disabled": 0, "lon": -77.03856383333333, "is_reserved": 0}, {"name": "20a59667966514c4d8276aa2799b3aaf", "fusion_lat": 0.0, "fusion_lon": 0.0, "bike_id": "20a59667966514c4d8276aa2799b3aaf", "rental_uris": {"ios": "https://dc.lft.to/lastmile_qr_scan", "android": "https://dc.lft.to/lastmile_qr_scan"}, "type": "electric_scooter", "lat": 38.885122, "is_disabled": 0, "lon": -77.00566933333333, "is_reserved": 0}, {"name": "35c036157f9983117fab179868c51658", "fusion_lat": 0.0, "fusion_lon": 0.0, "bike_id": "35c036157f9983117fab179868c51658", "rental_uris": {"ios": "https://dc.lft.to/lastmile_qr_scan", "android": "https://dc.lft.to/lastmile_qr_scan"}, "type": "electric_scooter", "lat": 38.926042333333335, "is_disabled": 0, "lon": -77.021557, "is_reserved": 0}, {"name": "df675ed66addc0451bfc8a4ce9620d51", "fusion_lat": 0.0, "fusion_lon": 0.0, "bike_id": "df675ed66addc0451bfc8a4ce9620d51", "rental_uris": {"ios": "https://dc.lft.to/lastmile_qr_scan", "android": "https://dc.lft.to/lastmile_qr_scan"}, "type": "electric_scooter", "lat": 38.904552833333334, "is_disabled": 0, "lon": -77.0282295, "is_reserved": 0}, {"name": "837284f7c85981d1ed3b888fc9350d95", "fusion_lat": 0.0, "fusion_lon": 0.0, "bike_id": "837284f7c85981d1ed3b888fc9350d95", "rental_uris": {"ios": "https://dc.lft.to/lastmile_qr_scan", "android": "https://dc.lft.to/lastmile_qr_scan"}, "type": "electric_scooter", "lat": 38.9214365, "is_disabled": 0, "lon": -77.03484083333333, "is_reserved": 0}, {"name": "37be0db3ecd2c9b997db7edfef466d44", "fusion_lat": 0.0, "fusion_lon": 0.0, "bike_id": "37be0db3ecd2c9b997db7edfef466d44", "rental_uris": {"ios": "https://dc.lft.to/lastmile_qr_scan", "android": "https://dc.lft.to/lastmile_qr_scan"}, "type": "electric_scooter", "lat": 38.917051666666666, "is_disabled": 0, "lon": -77.0258455, "is_reserved": 0}, {"name": "49656155529d94f5286a9993eb062928", "fusion_lat": 0.0, "fusion_lon": 0.0, "bike_id": "49656155529d94f5286a9993eb062928", "rental_uris": {"ios": "https://dc.lft.to/lastmile_qr_scan", "android": "https://dc.lft.to/lastmile_qr_scan"}, "type": "electric_bike", "lat": 38.990896666666664, "is_disabled": 0, "lon": -76.87493916666666, "is_reserved": 0}, {"name": "0889cd3cb18f0baff941911512663820", "fusion_lat": 0.0, "fusion_lon": 0.0, "bike_id": "0889cd3cb18f0baff941911512663820", "rental_uris": {"ios": "https://dc.lft.to/lastmile_qr_scan", "android": "https://dc.lft.to/lastmile_qr_scan"}, "type": "electric_bike", "lat": 38.99062416666666, "is_disabled": 0, "lon": -77.1003075, "is_reserved": 0}, {"name": "73ca4fb4df34924b7d20227bbabc2064", "fusion_lat": 0.0, "fusion_lon": 0.0, "bike_id": "73ca4fb4df34924b7d20227bbabc2064", "rental_uris": {"ios": "https://dc.lft.to/lastmile_qr_scan", "android": "https://dc.lft.to/lastmile_qr_scan"}, "type": "electric_scooter", "lat": 38.962113333333335, "is_disabled": 0, "lon": -77.02807083333333, "is_reserved": 0}, {"name": "1b9e4b3ddc35845a747a61c0b7f71a5a", "fusion_lat": 0.0, "fusion_lon": 0.0, "bike_id": "1b9e4b3ddc35845a747a61c0b7f71a5a", "rental_uris": {"ios": "https://dc.lft.to/lastmile_qr_scan", "android": "https://dc.lft.to/lastmile_qr_scan"}, "type": "electric_scooter", "lat": 38.92979533333333, "is_disabled": 0, "lon": -77.05506166666666, "is_reserved": 0}, {"name": "4665be9b722cbc1ef5dd7203c1e4b075", "fusion_lat": 0.0, "fusion_lon": 0.0, "bike_id": "4665be9b722cbc1ef5dd7203c1e4b075", "rental_uris": {"ios": "https://dc.lft.to/lastmile_qr_scan", "android": "https://dc.lft.to/lastmile_qr_scan"}, "type": "electric_scooter", "lat": 38.90238383333333, "is_disabled": 0, "lon": -77.0626995, "is_reserved": 0}, {"name": "775fe3d0ca61bb29c1037088a3b53fe4", "fusion_lat": 0.0, "fusion_lon": 0.0, "bike_id": "775fe3d0ca61bb29c1037088a3b53fe4", "rental_uris": {"ios": "https://dc.lft.to/lastmile_qr_scan", "android": "https://dc.lft.to/lastmile_qr_scan"}, "type": "electric_scooter", "lat": 38.87703366666667, "is_disabled": 0, "lon": -77.01733383333334, "is_reserved": 0}, {"name": "6a9ed0da35661fa2d0dea71b9c79dea6", "fusion_lat": 0.0, "fusion_lon": 0.0, "bike_id": "6a9ed0da35661fa2d0dea71b9c79dea6", "rental_uris": {"ios": "https://dc.lft.to/lastmile_qr_scan", "android": "https://dc.lft.to/lastmile_qr_scan"}, "type": "electric_scooter", "lat": 38.912684666666664, "is_disabled": 0, "lon": -77.01696483333333, "is_reserved": 0}, {"name": "b33c3e01daea20e03a31d5aff4e40c0b", "fusion_lat": 0.0, "fusion_lon": 0.0, "bike_id": "b33c3e01daea20e03a31d5aff4e40c0b", "rental_uris": {"ios": "https://dc.lft.to/lastmile_qr_scan", "android": "https://dc.lft.to/lastmile_qr_scan"}, "type": "electric_scooter", "lat": 38.90866033333333, "is_disabled": 0, "lon": -77.04046366666667, "is_reserved": 0}, {"name": "577a7eb66e9746cdb1c22784884fab2c", "fusion_lat": 0.0, "fusion_lon": 0.0, "bike_id": "577a7eb66e9746cdb1c22784884fab2c", "rental_uris": {"ios": "https://dc.lft.to/lastmile_qr_scan", "android": "https://dc.lft.to/lastmile_qr_scan"}, "type": "electric_scooter", "lat": 38.88367816666667, "is_disabled": 0, "lon": -76.995213, "is_reserved": 0}, {"name": "df1d2804a76de7832279adf156baf5d1", "fusion_lat": 0.0, "fusion_lon": 0.0, "bike_id": "df1d2804a76de7832279adf156baf5d1", "rental_uris": {"ios": "https://dc.lft.to/lastmile_qr_scan", "android": "https://dc.lft.to/lastmile_qr_scan"}, "type": "electric_scooter", "lat": 38.922034833333335, "is_disabled": 0, "lon": -77.04263533333334, "is_reserved": 0}, {"name": "8a9749f82178ccabbb2b430b7f5ed651", "fusion_lat": 0.0, "fusion_lon": 0.0, "bike_id": "8a9749f82178ccabbb2b430b7f5ed651", "rental_uris": {"ios": "https://dc.lft.to/lastmile_qr_scan", "android": "https://dc.lft.to/lastmile_qr_scan"}, "type": "electric_bike", "lat": 38.967571166666666, "is_disabled": 0, "lon": -77.0917065, "is_reserved": 0}, {"name": "9fcca41f0c9df0d5597b5c5e93efc5a9", "fusion_lat": 0.0, "fusion_lon": 0.0, "bike_id": "9fcca41f0c9df0d5597b5c5e93efc5a9", "rental_uris": {"ios": "https://dc.lft.to/lastmile_qr_scan", "android": "https://dc.lft.to/lastmile_qr_scan"}, "type": "electric_scooter", "lat": 38.9012, "is_disabled": 0, "lon": -77.01199066666666, "is_reserved": 0}, {"name": "df4e7b3c78ecfde5dae7987893bbf62e", "fusion_lat": 0.0, "fusion_lon": 0.0, "bike_id": "df4e7b3c78ecfde5dae7987893bbf62e", "rental_uris": {"ios": "https://dc.lft.to/lastmile_qr_scan", "android": "https://dc.lft.to/lastmile_qr_scan"}, "type": "electric_scooter", "lat": 38.89488083333333, "is_disabled": 0, "lon": -76.99518166666667, "is_reserved": 0}, {"name": "1150ef320ae7bddef5e870c31e239a41", "fusion_lat": 0.0, "fusion_lon": 0.0, "bike_id": "1150ef320ae7bddef5e870c31e239a41", "rental_uris": {"ios": "https://dc.lft.to/lastmile_qr_scan", "android": "https://dc.lft.to/lastmile_qr_scan"}, "type": "electric_scooter", "lat": 38.89533466666666, "is_disabled": 0, "lon": -77.02962783333334, "is_reserved": 0}, {"name": "80c2d52508c2887458a24d74f17157d2", "fusion_lat": 0.0, "fusion_lon": 0.0, "bike_id": "80c2d52508c2887458a24d74f17157d2", "rental_uris": {"ios": "https://dc.lft.to/lastmile_qr_scan", "android": "https://dc.lft.to/lastmile_qr_scan"}, "type": "electric_scooter", "lat": 38.91775833333333, "is_disabled": 0, "lon": -77.02315316666666, "is_reserved": 0}, {"name": "e22e247149fc169f96442c92223f6ff2", "fusion_lat": 0.0, "fusion_lon": 0.0, "bike_id": "e22e247149fc169f96442c92223f6ff2", "rental_uris": {"ios": "https://dc.lft.to/lastmile_qr_scan", "android": "https://dc.lft.to/lastmile_qr_scan"}, "type": "electric_scooter", "lat": 38.8580765, "is_disabled": 0, "lon": -76.9865615, "is_reserved": 0}, {"name": "2cc8805f7dca926357d83708e7e9cf51", "fusion_lat": 0.0, "fusion_lon": 0.0, "bike_id": "2cc8805f7dca926357d83708e7e9cf51", "rental_uris": {"ios": "https://dc.lft.to/lastmile_qr_scan", "android": "https://dc.lft.to/lastmile_qr_scan"}, "type": "electric_scooter", "lat": 38.94085833333333, "is_disabled": 0, "lon": -77.0273685, "is_reserved": 0}, {"name": "dad3058238b1f1ae8451ba840ff2643e", "fusion_lat": 0.0, "fusion_lon": 0.0, "bike_id": "dad3058238b1f1ae8451ba840ff2643e", "rental_uris": {"ios": "https://dc.lft.to/lastmile_qr_scan", "android": "https://dc.lft.to/lastmile_qr_scan"}, "type": "electric_scooter", "lat": 38.892981666666664, "is_disabled": 0, "lon": -77.046594, "is_reserved": 0}, {"name": "66ea84d51f23950e93864b47f98faf15", "fusion_lat": 0.0, "fusion_lon": 0.0, "bike_id": "66ea84d51f23950e93864b47f98faf15", "rental_uris": {"ios": "https://dc.lft.to/lastmile_qr_scan", "android": "https://dc.lft.to/lastmile_qr_scan"}, "type": "electric_bike", "lat": 38.998948166666665, "is_disabled": 0, "lon": -77.02873483333333, "is_reserved": 0}, {"name": "fab0b8fee6bdf63aa6b15b83c1dc75a2", "fusion_lat": 0.0, "fusion_lon": 0.0, "bike_id": "fab0b8fee6bdf63aa6b15b83c1dc75a2", "rental_uris": {"ios": "https://dc.lft.to/lastmile_qr_scan", "android": "https://dc.lft.to/lastmile_qr_scan"}, "type": "electric_scooter", "lat": 38.93126483333333, "is_disabled": 0, "lon": -77.03851466666667, "is_reserved": 0}, {"name": "5994e66ea7c769d4563ecb71d68aa4f9", "fusion_lat": 0.0, "fusion_lon": 0.0, "bike_id": "5994e66ea7c769d4563ecb71d68aa4f9", "rental_uris": {"ios": "https://dc.lft.to/lastmile_qr_scan", "android": "https://dc.lft.to/lastmile_qr_scan"}, "type": "electric_scooter", "lat": 38.939567, "is_disabled": 0, "lon": -77.0277875, "is_reserved": 0}, {"name": "571d7396a98f27850be667a6d2ad3ffa", "fusion_lat": 0.0, "fusion_lon": 0.0, "bike_id": "571d7396a98f27850be667a6d2ad3ffa", "rental_uris": {"ios": "https://dc.lft.to/lastmile_qr_scan", "android": "https://dc.lft.to/lastmile_qr_scan"}, "type": "electric_bike", "lat": 39.038788833333335, "is_disabled": 0, "lon": -77.10912333333333, "is_reserved": 0}, {"name": "f71e63be05c1431a7020f1014ca5652d", "fusion_lat": 0.0, "fusion_lon": 0.0, "bike_id": "f71e63be05c1431a7020f1014ca5652d", "rental_uris": {"ios": "https://dc.lft.to/lastmile_qr_scan", "android": "https://dc.lft.to/lastmile_qr_scan"}, "type": "electric_bike", "lat": 38.919534, "is_disabled": 0, "lon": -76.9580285, "is_reserved": 0}, {"name": "6dc12a076e56e87bb72bc51513f39c19", "fusion_lat": 0.0, "fusion_lon": 0.0, "bike_id": "6dc12a076e56e87bb72bc51513f39c19", "rental_uris": {"ios": "https://dc.lft.to/lastmile_qr_scan", "android": "https://dc.lft.to/lastmile_qr_scan"}, "type": "electric_scooter", "lat": 38.95605883333333, "is_disabled": 0, "lon": -77.02790883333333, "is_reserved": 0}, {"name": "95260da8baaaacc08a6bb219188928ba", "fusion_lat": 0.0, "fusion_lon": 0.0, "bike_id": "95260da8baaaacc08a6bb219188928ba", "rental_uris": {"ios": "https://dc.lft.to/lastmile_qr_scan", "android": "https://dc.lft.to/lastmile_qr_scan"}, "type": "electric_scooter", "lat": 38.862119666666665, "is_disabled": 0, "lon": -76.99476016666667, "is_reserved": 0}, {"name": "ef118838f3817b7eccd1aaa58557ec0e", "fusion_lat": 0.0, "fusion_lon": 0.0, "bike_id": "ef118838f3817b7eccd1aaa58557ec0e", "rental_uris": {"ios": "https://dc.lft.to/lastmile_qr_scan", "android": "https://dc.lft.to/lastmile_qr_scan"}, "type": "electric_bike", "lat": 38.917117833333336, "is_disabled": 0, "lon": -77.221181, "is_reserved": 0}, {"name": "c71cca695f2689d0e94d8caf53d0f4c4", "fusion_lat": 0.0, "fusion_lon": 0.0, "bike_id": "c71cca695f2689d0e94d8caf53d0f4c4", "rental_uris": {"ios": "https://dc.lft.to/lastmile_qr_scan", "android": "https://dc.lft.to/lastmile_qr_scan"}, "type": "electric_scooter", "lat": 38.866572, "is_disabled": 0, "lon": -76.98887966666666, "is_reserved": 0}, {"name": "6da3182868707984746c993ce8512218", "fusion_lat": 0.0, "fusion_lon": 0.0, "bike_id": "6da3182868707984746c993ce8512218", "rental_uris": {"ios": "https://dc.lft.to/lastmile_qr_scan", "android": "https://dc.lft.to/lastmile_qr_scan"}, "type": "electric_scooter", "lat": 38.876530333333335, "is_disabled": 0, "lon": -77.00817416666666, "is_reserved": 0}, {"name": "e73aabd796e11f54bcdb37d9130f79f1", "fusion_lat": 0.0, "fusion_lon": 0.0, "bike_id": "e73aabd796e11f54bcdb37d9130f79f1", "rental_uris": {"ios": "https://dc.lft.to/lastmile_qr_scan", "android": "https://dc.lft.to/lastmile_qr_scan"}, "type": "electric_scooter", "lat": 38.900252, "is_disabled": 0, "lon": -76.99767783333333, "is_reserved": 0}, {"name": "adebfa4ddf628ce3a5595de72f0a8956", "fusion_lat": 0.0, "fusion_lon": 0.0, "bike_id": "adebfa4ddf628ce3a5595de72f0a8956", "rental_uris": {"ios": "https://dc.lft.to/lastmile_qr_scan", "android": "https://dc.lft.to/lastmile_qr_scan"}, "type": "electric_scooter", "lat": 38.909688833333334, "is_disabled": 0, "lon": -77.01105933333334, "is_reserved": 0}, {"name": "ba0f92c5e17a8364e40cdd2189338d33", "fusion_lat": 0.0, "fusion_lon": 0.0, "bike_id": "ba0f92c5e17a8364e40cdd2189338d33", "rental_uris": {"ios": "https://dc.lft.to/lastmile_qr_scan", "android": "https://dc.lft.to/lastmile_qr_scan"}, "type": "electric_scooter", "lat": 38.90392533333333, "is_disabled": 0, "lon": -77.03301333333333, "is_reserved": 0}, {"name": "774a5400e4713c28d0b6c8c0f86397f4", "fusion_lat": 0.0, "fusion_lon": 0.0, "bike_id": "774a5400e4713c28d0b6c8c0f86397f4", "rental_uris": {"ios": "https://dc.lft.to/lastmile_qr_scan", "android": "https://dc.lft.to/lastmile_qr_scan"}, "type": "electric_scooter", "lat": 38.899078333333335, "is_disabled": 0, "lon": -77.022062, "is_reserved": 0}, {"name": "36692faf3f2c0058946b4d51aec6871c", "fusion_lat": 0.0, "fusion_lon": 0.0, "bike_id": "36692faf3f2c0058946b4d51aec6871c", "rental_uris": {"ios": "https://dc.lft.to/lastmile_qr_scan", "android": "https://dc.lft.to/lastmile_qr_scan"}, "type": "electric_bike", "lat": 39.000130166666665, "is_disabled": 0, "lon": -76.87286416666667, "is_reserved": 0}, {"name": "88767518d718e1feb115fcdf38f1a989", "fusion_lat": 0.0, "fusion_lon": 0.0, "bike_id": "88767518d718e1feb115fcdf38f1a989", "rental_uris": {"ios": "https://dc.lft.to/lastmile_qr_scan", "android": "https://dc.lft.to/lastmile_qr_scan"}, "type": "electric_scooter", "lat": 38.90768083333333, "is_disabled": 0, "lon": -77.0386005, "is_reserved": 0}, {"name": "6b4f185530b8df97e3f34fb127159531", "fusion_lat": 0.0, "fusion_lon": 0.0, "bike_id": "6b4f185530b8df97e3f34fb127159531", "rental_uris": {"ios": "https://dc.lft.to/lastmile_qr_scan", "android": "https://dc.lft.to/lastmile_qr_scan"}, "type": "electric_scooter", "lat": 38.898406333333334, "is_disabled": 0, "lon": -77.02983316666666, "is_reserved": 0}, {"name": "4ec4aa845e32bee35ff2e9c04b02f166", "fusion_lat": 0.0, "fusion_lon": 0.0, "bike_id": "4ec4aa845e32bee35ff2e9c04b02f166", "rental_uris": {"ios": "https://dc.lft.to/lastmile_qr_scan", "android": "https://dc.lft.to/lastmile_qr_scan"}, "type": "electric_scooter", "lat": 38.922827166666664, "is_disabled": 0, "lon": -77.07293133333333, "is_reserved": 0}, {"name": "1f51e4db6b4237d74dac5bea42e9563d", "fusion_lat": 0.0, "fusion_lon": 0.0, "bike_id": "1f51e4db6b4237d74dac5bea42e9563d", "rental_uris": {"ios": "https://dc.lft.to/lastmile_qr_scan", "android": "https://dc.lft.to/lastmile_qr_scan"}, "type": "electric_scooter", "lat": 38.90254916666667, "is_disabled": 0, "lon": -77.06109216666667, "is_reserved": 0}, {"name": "9b10a23f2e3f6dce636cc834e7047c2d", "fusion_lat": 0.0, "fusion_lon": 0.0, "bike_id": "9b10a23f2e3f6dce636cc834e7047c2d", "rental_uris": {"ios": "https://dc.lft.to/lastmile_qr_scan", "android": "https://dc.lft.to/lastmile_qr_scan"}, "type": "electric_bike", "lat": 38.8286845, "is_disabled": 0, "lon": -77.11222533333333, "is_reserved": 0}, {"name": "49a5b12469bb678f892448d41d13f32a", "fusion_lat": 0.0, "fusion_lon": 0.0, "bike_id": "49a5b12469bb678f892448d41d13f32a", "rental_uris": {"ios": "https://dc.lft.to/lastmile_qr_scan", "android": "https://dc.lft.to/lastmile_qr_scan"}, "type": "electric_scooter", "lat": 38.917111, "is_disabled": 0, "lon": -77.0284865, "is_reserved": 0}, {"name": "ac666e4cb4ac2596fb46a884f0e8fb13", "fusion_lat": 0.0, "fusion_lon": 0.0, "bike_id": "ac666e4cb4ac2596fb46a884f0e8fb13", "rental_uris": {"ios": "https://dc.lft.to/lastmile_qr_scan", "android": "https://dc.lft.to/lastmile_qr_scan"}, "type": "electric_scooter", "lat": 38.918294, "is_disabled": 0, "lon": -77.03179933333334, "is_reserved": 0}, {"name": "af7cd0f9108d095ef89eebfa546676bb", "fusion_lat": 0.0, "fusion_lon": 0.0, "bike_id": "af7cd0f9108d095ef89eebfa546676bb", "rental_uris": {"ios": "https://dc.lft.to/lastmile_qr_scan", "android": "https://dc.lft.to/lastmile_qr_scan"}, "type": "electric_scooter", "lat": 38.89982, "is_disabled": 0, "lon": -77.02039466666666, "is_reserved": 0}, {"name": "acc3d436bf21758caf5b9856c6c9e1e3", "fusion_lat": 0.0, "fusion_lon": 0.0, "bike_id": "acc3d436bf21758caf5b9856c6c9e1e3", "rental_uris": {"ios": "https://dc.lft.to/lastmile_qr_scan", "android": "https://dc.lft.to/lastmile_qr_scan"}, "type": "electric_scooter", "lat": 38.894815, "is_disabled": 0, "lon": -76.99517316666666, "is_reserved": 0}, {"name": "25c4986db0fb7a7da8c95bf1506bc2a9", "fusion_lat": 0.0, "fusion_lon": 0.0, "bike_id": "25c4986db0fb7a7da8c95bf1506bc2a9", "rental_uris": {"ios": "https://dc.lft.to/lastmile_qr_scan", "android": "https://dc.lft.to/lastmile_qr_scan"}, "type": "electric_scooter", "lat": 38.86358033333333, "is_disabled": 0, "lon": -76.9905125, "is_reserved": 0}, {"name": "d2d5a9fd38ac1b426e72fb396a31b563", "fusion_lat": 0.0, "fusion_lon": 0.0, "bike_id": "d2d5a9fd38ac1b426e72fb396a31b563", "rental_uris": {"ios": "https://dc.lft.to/lastmile_qr_scan", "android": "https://dc.lft.to/lastmile_qr_scan"}, "type": "electric_scooter", "lat": 38.899504666666665, "is_disabled": 0, "lon": -77.04785566666666, "is_reserved": 0}, {"name": "f0e02c0d564ef81e78216944d84c7595", "fusion_lat": 0.0, "fusion_lon": 0.0, "bike_id": "f0e02c0d564ef81e78216944d84c7595", "rental_uris": {"ios": "https://dc.lft.to/lastmile_qr_scan", "android": "https://dc.lft.to/lastmile_qr_scan"}, "type": "electric_scooter", "lat": 38.8947785, "is_disabled": 0, "lon": -76.99414733333333, "is_reserved": 0}, {"name": "649b8fa087579c54f831899aa19a38ab", "fusion_lat": 0.0, "fusion_lon": 0.0, "bike_id": "649b8fa087579c54f831899aa19a38ab", "rental_uris": {"ios": "https://dc.lft.to/lastmile_qr_scan", "android": "https://dc.lft.to/lastmile_qr_scan"}, "type": "electric_scooter", "lat": 38.89674266666667, "is_disabled": 0, "lon": -76.99635516666666, "is_reserved": 0}, {"name": "93585ee750dc8e4ceac12ef4a180a34c", "fusion_lat": 0.0, "fusion_lon": 0.0, "bike_id": "93585ee750dc8e4ceac12ef4a180a34c", "rental_uris": {"ios": "https://dc.lft.to/lastmile_qr_scan", "android": "https://dc.lft.to/lastmile_qr_scan"}, "type": "electric_scooter", "lat": 38.90329933333334, "is_disabled": 0, "lon": -77.0161405, "is_reserved": 0}, {"name": "7781d967e6e4e59a79f84a4281d467d4", "fusion_lat": 0.0, "fusion_lon": 0.0, "bike_id": "7781d967e6e4e59a79f84a4281d467d4", "rental_uris": {"ios": "https://dc.lft.to/lastmile_qr_scan", "android": "https://dc.lft.to/lastmile_qr_scan"}, "type": "electric_scooter", "lat": 38.9281185, "is_disabled": 0, "lon": -77.00583066666667, "is_reserved": 0}, {"name": "e245fc2820082bbb61704b94c292e395", "fusion_lat": 0.0, "fusion_lon": 0.0, "bike_id": "e245fc2820082bbb61704b94c292e395", "rental_uris": {"ios": "https://dc.lft.to/lastmile_qr_scan", "android": "https://dc.lft.to/lastmile_qr_scan"}, "type": "electric_scooter", "lat": 38.92057233333333, "is_disabled": 0, "lon": -76.978031, "is_reserved": 0}, {"name": "3fb65808df4c15e1ade5c8223e96c7e2", "fusion_lat": 0.0, "fusion_lon": 0.0, "bike_id": "3fb65808df4c15e1ade5c8223e96c7e2", "rental_uris": {"ios": "https://dc.lft.to/lastmile_qr_scan", "android": "https://dc.lft.to/lastmile_qr_scan"}, "type": "electric_scooter", "lat": 38.88609133333333, "is_disabled": 0, "lon": -76.996543, "is_reserved": 0}, {"name": "4e9c0e61ba89338283503e40173104da", "fusion_lat": 0.0, "fusion_lon": 0.0, "bike_id": "4e9c0e61ba89338283503e40173104da", "rental_uris": {"ios": "https://dc.lft.to/lastmile_qr_scan", "android": "https://dc.lft.to/lastmile_qr_scan"}, "type": "electric_bike", "lat": 38.883967, "is_disabled": 0, "lon": -77.03084616666666, "is_reserved": 0}, {"name": "b2e21f6a2a39a868093e4b2a0767aefa", "fusion_lat": 0.0, "fusion_lon": 0.0, "bike_id": "b2e21f6a2a39a868093e4b2a0767aefa", "rental_uris": {"ios": "https://dc.lft.to/lastmile_qr_scan", "android": "https://dc.lft.to/lastmile_qr_scan"}, "type": "electric_scooter", "lat": 38.904681833333335, "is_disabled": 0, "lon": -77.02813366666666, "is_reserved": 0}, {"name": "eec858f97898b490c576ae46602e2b3b", "fusion_lat": 0.0, "fusion_lon": 0.0, "bike_id": "eec858f97898b490c576ae46602e2b3b", "rental_uris": {"ios": "https://dc.lft.to/lastmile_qr_scan", "android": "https://dc.lft.to/lastmile_qr_scan"}, "type": "electric_scooter", "lat": 38.887358166666665, "is_disabled": 0, "lon": -77.0153485, "is_reserved": 0}, {"name": "459ea0c81e5c80b9eadf4afa067e65c0", "fusion_lat": 0.0, "fusion_lon": 0.0, "bike_id": "459ea0c81e5c80b9eadf4afa067e65c0", "rental_uris": {"ios": "https://dc.lft.to/lastmile_qr_scan", "android": "https://dc.lft.to/lastmile_qr_scan"}, "type": "electric_scooter", "lat": 38.917750833333336, "is_disabled": 0, "lon": -77.0231825, "is_reserved": 0}, {"name": "589ef5487be4717d2ba5c6730e330fa2", "fusion_lat": 0.0, "fusion_lon": 0.0, "bike_id": "589ef5487be4717d2ba5c6730e330fa2", "rental_uris": {"ios": "https://dc.lft.to/lastmile_qr_scan", "android": "https://dc.lft.to/lastmile_qr_scan"}, "type": "electric_bike", "lat": 38.8460575, "is_disabled": 0, "lon": -76.96880116666667, "is_reserved": 0}, {"name": "9e752dc2bbef6640f9aabc14a7497a98", "fusion_lat": 0.0, "fusion_lon": 0.0, "bike_id": "9e752dc2bbef6640f9aabc14a7497a98", "rental_uris": {"ios": "https://dc.lft.to/lastmile_qr_scan", "android": "https://dc.lft.to/lastmile_qr_scan"}, "type": "electric_scooter", "lat": 38.9285695, "is_disabled": 0, "lon": -77.0141445, "is_reserved": 0}, {"name": "5f230eeeacf1c5ae9847d213195fa8a3", "fusion_lat": 0.0, "fusion_lon": 0.0, "bike_id": "5f230eeeacf1c5ae9847d213195fa8a3", "rental_uris": {"ios": "https://dc.lft.to/lastmile_qr_scan", "android": "https://dc.lft.to/lastmile_qr_scan"}, "type": "electric_scooter", "lat": 38.86358883333333, "is_disabled": 0, "lon": -76.9906275, "is_reserved": 0}, {"name": "78e5d92fba1cc6dab56b5f98558b9b9c", "fusion_lat": 0.0, "fusion_lon": 0.0, "bike_id": "78e5d92fba1cc6dab56b5f98558b9b9c", "rental_uris": {"ios": "https://dc.lft.to/lastmile_qr_scan", "android": "https://dc.lft.to/lastmile_qr_scan"}, "type": "electric_scooter", "lat": 38.915301166666666, "is_disabled": 0, "lon": -77.02201833333334, "is_reserved": 0}, {"name": "046ff05fc53107a7275ab3e5e79d1a99", "fusion_lat": 0.0, "fusion_lon": 0.0, "bike_id": "046ff05fc53107a7275ab3e5e79d1a99", "rental_uris": {"ios": "https://dc.lft.to/lastmile_qr_scan", "android": "https://dc.lft.to/lastmile_qr_scan"}, "type": "electric_scooter", "lat": 38.8461985, "is_disabled": 0, "lon": -76.99628733333333, "is_reserved": 0}, {"name": "ec237b77b1f8d8558f8b36414edf7eb3", "fusion_lat": 0.0, "fusion_lon": 0.0, "bike_id": "ec237b77b1f8d8558f8b36414edf7eb3", "rental_uris": {"ios": "https://dc.lft.to/lastmile_qr_scan", "android": "https://dc.lft.to/lastmile_qr_scan"}, "type": "electric_bike", "lat": 38.8792505, "is_disabled": 0, "lon": -77.02380016666666, "is_reserved": 0}, {"name": "69c4c7eda931153f65c7bf6e2c05283b", "fusion_lat": 0.0, "fusion_lon": 0.0, "bike_id": "69c4c7eda931153f65c7bf6e2c05283b", "rental_uris": {"ios": "https://dc.lft.to/lastmile_qr_scan", "android": "https://dc.lft.to/lastmile_qr_scan"}, "type": "electric_scooter", "lat": 38.90716316666666, "is_disabled": 0, "lon": -77.04540916666667, "is_reserved": 0}, {"name": "633b00804114f6011e4f091688e0bb14", "fusion_lat": 0.0, "fusion_lon": 0.0, "bike_id": "633b00804114f6011e4f091688e0bb14", "rental_uris": {"ios": "https://dc.lft.to/lastmile_qr_scan", "android": "https://dc.lft.to/lastmile_qr_scan"}, "type": "electric_scooter", "lat": 38.89836833333333, "is_disabled": 0, "lon": -77.03128466666666, "is_reserved": 0}, {"name": "8e9cc5b4965860ee61964e6973f1a5f7", "fusion_lat": 0.0, "fusion_lon": 0.0, "bike_id": "8e9cc5b4965860ee61964e6973f1a5f7", "rental_uris": {"ios": "https://dc.lft.to/lastmile_qr_scan", "android": "https://dc.lft.to/lastmile_qr_scan"}, "type": "electric_scooter", "lat": 38.901471, "is_disabled": 0, "lon": -77.04181183333333, "is_reserved": 0}, {"name": "2872f4310d81b6a2963cb49b3c06ce05", "fusion_lat": 0.0, "fusion_lon": 0.0, "bike_id": "2872f4310d81b6a2963cb49b3c06ce05", "rental_uris": {"ios": "https://dc.lft.to/lastmile_qr_scan", "android": "https://dc.lft.to/lastmile_qr_scan"}, "type": "electric_bike", "lat": 38.8309295, "is_disabled": 0, "lon": -77.04294833333333, "is_reserved": 0}, {"name": "521947ca439bed00fd6d3a330286e9c3", "fusion_lat": 0.0, "fusion_lon": 0.0, "bike_id": "521947ca439bed00fd6d3a330286e9c3", "rental_uris": {"ios": "https://dc.lft.to/lastmile_qr_scan", "android": "https://dc.lft.to/lastmile_qr_scan"}, "type": "electric_scooter", "lat": 38.94519316666667, "is_disabled": 0, "lon": -77.02980066666667, "is_reserved": 0}, {"name": "c55c43a1e27634efdf236a009c340f29", "fusion_lat": 0.0, "fusion_lon": 0.0, "bike_id": "c55c43a1e27634efdf236a009c340f29", "rental_uris": {"ios": "https://dc.lft.to/lastmile_qr_scan", "android": "https://dc.lft.to/lastmile_qr_scan"}, "type": "electric_scooter", "lat": 38.899346333333334, "is_disabled": 0, "lon": -77.00336183333333, "is_reserved": 0}, {"name": "ec5a49ccbba515eb009b98cb8b9531e0", "fusion_lat": 0.0, "fusion_lon": 0.0, "bike_id": "ec5a49ccbba515eb009b98cb8b9531e0", "rental_uris": {"ios": "https://dc.lft.to/lastmile_qr_scan", "android": "https://dc.lft.to/lastmile_qr_scan"}, "type": "electric_scooter", "lat": 38.92331983333333, "is_disabled": 0, "lon": -76.99911866666666, "is_reserved": 0}, {"name": "31385377e9246f8ee837d32bfc29825a", "fusion_lat": 0.0, "fusion_lon": 0.0, "bike_id": "31385377e9246f8ee837d32bfc29825a", "rental_uris": {"ios": "https://dc.lft.to/lastmile_qr_scan", "android": "https://dc.lft.to/lastmile_qr_scan"}, "type": "electric_scooter", "lat": 38.918357666666665, "is_disabled": 0, "lon": -77.04172933333334, "is_reserved": 0}, {"name": "9d0b46bebd03f013eed623d63a135480", "fusion_lat": 0.0, "fusion_lon": 0.0, "bike_id": "9d0b46bebd03f013eed623d63a135480", "rental_uris": {"ios": "https://dc.lft.to/lastmile_qr_scan", "android": "https://dc.lft.to/lastmile_qr_scan"}, "type": "electric_scooter", "lat": 38.89007133333333, "is_disabled": 0, "lon": -76.93738733333333, "is_reserved": 0}, {"name": "fb61030b7807803cad1e6899e2a09a79", "fusion_lat": 0.0, "fusion_lon": 0.0, "bike_id": "fb61030b7807803cad1e6899e2a09a79", "rental_uris": {"ios": "https://dc.lft.to/lastmile_qr_scan", "android": "https://dc.lft.to/lastmile_qr_scan"}, "type": "electric_scooter", "lat": 38.927366, "is_disabled": 0, "lon": -77.02247283333334, "is_reserved": 0}, {"name": "2d53916bb54dc17e7aedf033a950d33c", "fusion_lat": 0.0, "fusion_lon": 0.0, "bike_id": "2d53916bb54dc17e7aedf033a950d33c", "rental_uris": {"ios": "https://dc.lft.to/lastmile_qr_scan", "android": "https://dc.lft.to/lastmile_qr_scan"}, "type": "electric_scooter", "lat": 38.899736833333336, "is_disabled": 0, "lon": -77.0419295, "is_reserved": 0}, {"name": "3dcb4ecb9fa22f1dbba18884419beee9", "fusion_lat": 0.0, "fusion_lon": 0.0, "bike_id": "3dcb4ecb9fa22f1dbba18884419beee9", "rental_uris": {"ios": "https://dc.lft.to/lastmile_qr_scan", "android": "https://dc.lft.to/lastmile_qr_scan"}, "type": "electric_scooter", "lat": 38.90717866666667, "is_disabled": 0, "lon": -77.04358966666666, "is_reserved": 0}, {"name": "2c4b5ded5265400a1894fb73c883a61b", "fusion_lat": 0.0, "fusion_lon": 0.0, "bike_id": "2c4b5ded5265400a1894fb73c883a61b", "rental_uris": {"ios": "https://dc.lft.to/lastmile_qr_scan", "android": "https://dc.lft.to/lastmile_qr_scan"}, "type": "electric_scooter", "lat": 38.92829183333333, "is_disabled": 0, "lon": -77.0141065, "is_reserved": 0}, {"name": "f22452990905efe4f88d32faa5756bb5", "fusion_lat": 0.0, "fusion_lon": 0.0, "bike_id": "f22452990905efe4f88d32faa5756bb5", "rental_uris": {"ios": "https://dc.lft.to/lastmile_qr_scan", "android": "https://dc.lft.to/lastmile_qr_scan"}, "type": "electric_scooter", "lat": 38.8938675, "is_disabled": 0, "lon": -76.94998716666667, "is_reserved": 0}, {"name": "5cbd83f9067fa1654acd424559fc64cd", "fusion_lat": 0.0, "fusion_lon": 0.0, "bike_id": "5cbd83f9067fa1654acd424559fc64cd", "rental_uris": {"ios": "https://dc.lft.to/lastmile_qr_scan", "android": "https://dc.lft.to/lastmile_qr_scan"}, "type": "electric_scooter", "lat": 38.918262666666664, "is_disabled": 0, "lon": -77.02539533333334, "is_reserved": 0}, {"name": "a109e5e2ac916fe10683921918cc1608", "fusion_lat": 0.0, "fusion_lon": 0.0, "bike_id": "a109e5e2ac916fe10683921918cc1608", "rental_uris": {"ios": "https://dc.lft.to/lastmile_qr_scan", "android": "https://dc.lft.to/lastmile_qr_scan"}, "type": "electric_scooter", "lat": 38.9183055, "is_disabled": 0, "lon": -76.965509, "is_reserved": 0}, {"name": "b96d975a4ff175afd50d455fa978f667", "fusion_lat": 0.0, "fusion_lon": 0.0, "bike_id": "b96d975a4ff175afd50d455fa978f667", "rental_uris": {"ios": "https://dc.lft.to/lastmile_qr_scan", "android": "https://dc.lft.to/lastmile_qr_scan"}, "type": "electric_scooter", "lat": 38.87696233333333, "is_disabled": 0, "lon": -77.01784466666666, "is_reserved": 0}, {"name": "afcacede73355f93524f944b2938464d", "fusion_lat": 0.0, "fusion_lon": 0.0, "bike_id": "afcacede73355f93524f944b2938464d", "rental_uris": {"ios": "https://dc.lft.to/lastmile_qr_scan", "android": "https://dc.lft.to/lastmile_qr_scan"}, "type": "electric_scooter", "lat": 38.90127066666667, "is_disabled": 0, "lon": -77.03058583333333, "is_reserved": 0}, {"name": "bf556eae9dbb19d3ef207ef0772802cc", "fusion_lat": 0.0, "fusion_lon": 0.0, "bike_id": "bf556eae9dbb19d3ef207ef0772802cc", "rental_uris": {"ios": "https://dc.lft.to/lastmile_qr_scan", "android": "https://dc.lft.to/lastmile_qr_scan"}, "type": "electric_scooter", "lat": 38.8615535, "is_disabled": 0, "lon": -76.98579816666667, "is_reserved": 0}, {"name": "6806e185f6161233873dcc38879b66f7", "fusion_lat": 0.0, "fusion_lon": 0.0, "bike_id": "6806e185f6161233873dcc38879b66f7", "rental_uris": {"ios": "https://dc.lft.to/lastmile_qr_scan", "android": "https://dc.lft.to/lastmile_qr_scan"}, "type": "electric_scooter", "lat": 38.930226166666664, "is_disabled": 0, "lon": -77.0380335, "is_reserved": 0}, {"name": "b14ec8a8009007a3950c40c3edb5b04b", "fusion_lat": 0.0, "fusion_lon": 0.0, "bike_id": "b14ec8a8009007a3950c40c3edb5b04b", "rental_uris": {"ios": "https://dc.lft.to/lastmile_qr_scan", "android": "https://dc.lft.to/lastmile_qr_scan"}, "type": "electric_scooter", "lat": 38.905398166666664, "is_disabled": 0, "lon": -77.05056333333333, "is_reserved": 0}, {"name": "9c36c5428c8ebe2612d4e52488305e95", "fusion_lat": 0.0, "fusion_lon": 0.0, "bike_id": "9c36c5428c8ebe2612d4e52488305e95", "rental_uris": {"ios": "https://dc.lft.to/lastmile_qr_scan", "android": "https://dc.lft.to/lastmile_qr_scan"}, "type": "electric_bike", "lat": 38.85428516666666, "is_disabled": 0, "lon": -76.90958133333334, "is_reserved": 0}, {"name": "20a52a450bda1fd9d65d6e43f3afef59", "fusion_lat": 0.0, "fusion_lon": 0.0, "bike_id": "20a52a450bda1fd9d65d6e43f3afef59", "rental_uris": {"ios": "https://dc.lft.to/lastmile_qr_scan", "android": "https://dc.lft.to/lastmile_qr_scan"}, "type": "electric_scooter", "lat": 38.9428005, "is_disabled": 0, "lon": -77.0363105, "is_reserved": 0}, {"name": "24480007a580c5bf36f6d98f0bb1fd9e", "fusion_lat": 0.0, "fusion_lon": 0.0, "bike_id": "24480007a580c5bf36f6d98f0bb1fd9e", "rental_uris": {"ios": "https://dc.lft.to/lastmile_qr_scan", "android": "https://dc.lft.to/lastmile_qr_scan"}, "type": "electric_scooter", "lat": 38.907985, "is_disabled": 0, "lon": -76.9970445, "is_reserved": 0}, {"name": "94b37ef7c622a7ebf343547ccf5ff4ae", "fusion_lat": 0.0, "fusion_lon": 0.0, "bike_id": "94b37ef7c622a7ebf343547ccf5ff4ae", "rental_uris": {"ios": "https://dc.lft.to/lastmile_qr_scan", "android": "https://dc.lft.to/lastmile_qr_scan"}, "type": "electric_scooter", "lat": 38.9013905, "is_disabled": 0, "lon": -77.01645383333333, "is_reserved": 0}, {"name": "fae1e9d9105b6a3d3a9e27bbfd618609", "fusion_lat": 0.0, "fusion_lon": 0.0, "bike_id": "fae1e9d9105b6a3d3a9e27bbfd618609", "rental_uris": {"ios": "https://dc.lft.to/lastmile_qr_scan", "android": "https://dc.lft.to/lastmile_qr_scan"}, "type": "electric_scooter", "lat": 38.899013833333335, "is_disabled": 0, "lon": -77.03294483333333, "is_reserved": 0}, {"name": "65516d59a1d985dceb7a53c9d9fff88c", "fusion_lat": 0.0, "fusion_lon": 0.0, "bike_id": "65516d59a1d985dceb7a53c9d9fff88c", "rental_uris": {"ios": "https://dc.lft.to/lastmile_qr_scan", "android": "https://dc.lft.to/lastmile_qr_scan"}, "type": "electric_scooter", "lat": 38.89330983333333, "is_disabled": 0, "lon": -77.02116316666667, "is_reserved": 0}, {"name": "8b45f7ec71b2d1659214d58c97656d1d", "fusion_lat": 0.0, "fusion_lon": 0.0, "bike_id": "8b45f7ec71b2d1659214d58c97656d1d", "rental_uris": {"ios": "https://dc.lft.to/lastmile_qr_scan", "android": "https://dc.lft.to/lastmile_qr_scan"}, "type": "electric_scooter", "lat": 38.8581105, "is_disabled": 0, "lon": -76.9896675, "is_reserved": 0}, {"name": "b2ec7f7bfadbc4f872d89a691725651d", "fusion_lat": 0.0, "fusion_lon": 0.0, "bike_id": "b2ec7f7bfadbc4f872d89a691725651d", "rental_uris": {"ios": "https://dc.lft.to/lastmile_qr_scan", "android": "https://dc.lft.to/lastmile_qr_scan"}, "type": "electric_scooter", "lat": 38.901461, "is_disabled": 0, "lon": -77.02909766666667, "is_reserved": 0}, {"name": "04b6f8f0a5d8d1ce0d9dee8a64419710", "fusion_lat": 0.0, "fusion_lon": 0.0, "bike_id": "04b6f8f0a5d8d1ce0d9dee8a64419710", "rental_uris": {"ios": "https://dc.lft.to/lastmile_qr_scan", "android": "https://dc.lft.to/lastmile_qr_scan"}, "type": "electric_scooter", "lat": 38.949846, "is_disabled": 0, "lon": -77.0270575, "is_reserved": 0}, {"name": "4ab71ac36734cc6f53746f6f4cffd895", "fusion_lat": 0.0, "fusion_lon": 0.0, "bike_id": "4ab71ac36734cc6f53746f6f4cffd895", "rental_uris": {"ios": "https://dc.lft.to/lastmile_qr_scan", "android": "https://dc.lft.to/lastmile_qr_scan"}, "type": "electric_scooter", "lat": 38.9375375, "is_disabled": 0, "lon": -77.02490783333333, "is_reserved": 0}, {"name": "88d63a7c6f52bf462a81b901e0e07074", "fusion_lat": 0.0, "fusion_lon": 0.0, "bike_id": "88d63a7c6f52bf462a81b901e0e07074", "rental_uris": {"ios": "https://dc.lft.to/lastmile_qr_scan", "android": "https://dc.lft.to/lastmile_qr_scan"}, "type": "electric_scooter", "lat": 38.938463, "is_disabled": 0, "lon": -77.024682, "is_reserved": 0}, {"name": "c427f401b84c4a489107816270dbf2e2", "fusion_lat": 0.0, "fusion_lon": 0.0, "bike_id": "c427f401b84c4a489107816270dbf2e2", "rental_uris": {"ios": "https://dc.lft.to/lastmile_qr_scan", "android": "https://dc.lft.to/lastmile_qr_scan"}, "type": "electric_scooter", "lat": 38.847951333333334, "is_disabled": 0, "lon": -76.96716, "is_reserved": 0}, {"name": "8c8a9b45732948bf336d5e3b51d1d722", "fusion_lat": 0.0, "fusion_lon": 0.0, "bike_id": "8c8a9b45732948bf336d5e3b51d1d722", "rental_uris": {"ios": "https://dc.lft.to/lastmile_qr_scan", "android": "https://dc.lft.to/lastmile_qr_scan"}, "type": "electric_scooter", "lat": 38.89738116666667, "is_disabled": 0, "lon": -77.04709516666667, "is_reserved": 0}, {"name": "754c74f37ede013a50d21f7b29dddad5", "fusion_lat": 0.0, "fusion_lon": 0.0, "bike_id": "754c74f37ede013a50d21f7b29dddad5", "rental_uris": {"ios": "https://dc.lft.to/lastmile_qr_scan", "android": "https://dc.lft.to/lastmile_qr_scan"}, "type": "electric_scooter", "lat": 38.904934, "is_disabled": 0, "lon": -77.02954766666667, "is_reserved": 0}, {"name": "31faf9b2bda5651d1aef42f18e36bd11", "fusion_lat": 0.0, "fusion_lon": 0.0, "bike_id": "31faf9b2bda5651d1aef42f18e36bd11", "rental_uris": {"ios": "https://dc.lft.to/lastmile_qr_scan", "android": "https://dc.lft.to/lastmile_qr_scan"}, "type": "electric_scooter", "lat": 38.928607166666666, "is_disabled": 0, "lon": -77.0344645, "is_reserved": 0}, {"name": "ab6afba61b410a35e96744651690eb6d", "fusion_lat": 0.0, "fusion_lon": 0.0, "bike_id": "ab6afba61b410a35e96744651690eb6d", "rental_uris": {"ios": "https://dc.lft.to/lastmile_qr_scan", "android": "https://dc.lft.to/lastmile_qr_scan"}, "type": "electric_scooter", "lat": 38.86659616666667, "is_disabled": 0, "lon": -76.98886916666666, "is_reserved": 0}, {"name": "a1265593b6fbdb551ffa84ba5414a32e", "fusion_lat": 0.0, "fusion_lon": 0.0, "bike_id": "a1265593b6fbdb551ffa84ba5414a32e", "rental_uris": {"ios": "https://dc.lft.to/lastmile_qr_scan", "android": "https://dc.lft.to/lastmile_qr_scan"}, "type": "electric_scooter", "lat": 38.962122, "is_disabled": 0, "lon": -77.028058, "is_reserved": 0}, {"name": "4504ef07105c75407ea133614d117e20", "fusion_lat": 0.0, "fusion_lon": 0.0, "bike_id": "4504ef07105c75407ea133614d117e20", "rental_uris": {"ios": "https://dc.lft.to/lastmile_qr_scan", "android": "https://dc.lft.to/lastmile_qr_scan"}, "type": "electric_bike", "lat": 38.94151516666667, "is_disabled": 0, "lon": -77.00197433333334, "is_reserved": 0}, {"name": "583a57dd7c9f0239236ac611c1f16ea7", "fusion_lat": 0.0, "fusion_lon": 0.0, "bike_id": "583a57dd7c9f0239236ac611c1f16ea7", "rental_uris": {"ios": "https://dc.lft.to/lastmile_qr_scan", "android": "https://dc.lft.to/lastmile_qr_scan"}, "type": "electric_scooter", "lat": 38.920761666666664, "is_disabled": 0, "lon": -77.02394216666667, "is_reserved": 0}, {"name": "2d3624cd4370f6d1bce2bb93faf57959", "fusion_lat": 0.0, "fusion_lon": 0.0, "bike_id": "2d3624cd4370f6d1bce2bb93faf57959", "rental_uris": {"ios": "https://dc.lft.to/lastmile_qr_scan", "android": "https://dc.lft.to/lastmile_qr_scan"}, "type": "electric_scooter", "lat": 38.918119833333336, "is_disabled": 0, "lon": -77.04158816666667, "is_reserved": 0}, {"name": "129e6eb24a5369fd46826197b3ee8471", "fusion_lat": 0.0, "fusion_lon": 0.0, "bike_id": "129e6eb24a5369fd46826197b3ee8471", "rental_uris": {"ios": "https://dc.lft.to/lastmile_qr_scan", "android": "https://dc.lft.to/lastmile_qr_scan"}, "type": "electric_scooter", "lat": 38.915365666666666, "is_disabled": 0, "lon": -77.0220205, "is_reserved": 0}, {"name": "2bfe9e0ae3ed4d1a6a177fc2607cc154", "fusion_lat": 0.0, "fusion_lon": 0.0, "bike_id": "2bfe9e0ae3ed4d1a6a177fc2607cc154", "rental_uris": {"ios": "https://dc.lft.to/lastmile_qr_scan", "android": "https://dc.lft.to/lastmile_qr_scan"}, "type": "electric_scooter", "lat": 38.8849455, "is_disabled": 0, "lon": -77.00716116666666, "is_reserved": 0}, {"name": "be1579af660fc940dffb21aa57ee192a", "fusion_lat": 0.0, "fusion_lon": 0.0, "bike_id": "be1579af660fc940dffb21aa57ee192a", "rental_uris": {"ios": "https://dc.lft.to/lastmile_qr_scan", "android": "https://dc.lft.to/lastmile_qr_scan"}, "type": "electric_scooter", "lat": 38.926012166666666, "is_disabled": 0, "lon": -77.02152083333333, "is_reserved": 0}, {"name": "963552ecd51eb387ed2ad5ccc43083c6", "fusion_lat": 0.0, "fusion_lon": 0.0, "bike_id": "963552ecd51eb387ed2ad5ccc43083c6", "rental_uris": {"ios": "https://dc.lft.to/lastmile_qr_scan", "android": "https://dc.lft.to/lastmile_qr_scan"}, "type": "electric_scooter", "lat": 38.87774366666667, "is_disabled": 0, "lon": -77.01437333333334, "is_reserved": 0}, {"name": "50bcc704837ffcf178e94f3731ab9549", "fusion_lat": 0.0, "fusion_lon": 0.0, "bike_id": "50bcc704837ffcf178e94f3731ab9549", "rental_uris": {"ios": "https://dc.lft.to/lastmile_qr_scan", "android": "https://dc.lft.to/lastmile_qr_scan"}, "type": "electric_scooter", "lat": 38.84881766666667, "is_disabled": 0, "lon": -77.00518833333334, "is_reserved": 0}, {"name": "22949dbcf23bdae74f30ab25a382e844", "fusion_lat": 0.0, "fusion_lon": 0.0, "bike_id": "22949dbcf23bdae74f30ab25a382e844", "rental_uris": {"ios": "https://dc.lft.to/lastmile_qr_scan", "android": "https://dc.lft.to/lastmile_qr_scan"}, "type": "electric_bike", "lat": 38.902407333333336, "is_disabled": 0, "lon": -77.06181883333333, "is_reserved": 0}, {"name": "5fe2fb8547b4d034238b5c8fe63c184d", "fusion_lat": 0.0, "fusion_lon": 0.0, "bike_id": "5fe2fb8547b4d034238b5c8fe63c184d", "rental_uris": {"ios": "https://dc.lft.to/lastmile_qr_scan", "android": "https://dc.lft.to/lastmile_qr_scan"}, "type": "electric_scooter", "lat": 38.900596666666665, "is_disabled": 0, "lon": -77.00746716666667, "is_reserved": 0}, {"name": "b5042df4604bfb4cc0897605fc8f0250", "fusion_lat": 0.0, "fusion_lon": 0.0, "bike_id": "b5042df4604bfb4cc0897605fc8f0250", "rental_uris": {"ios": "https://dc.lft.to/lastmile_qr_scan", "android": "https://dc.lft.to/lastmile_qr_scan"}, "type": "electric_scooter", "lat": 38.900306666666665, "is_disabled": 0, "lon": -76.99960266666666, "is_reserved": 0}, {"name": "9b34fa7ce7cf8de0e2011acb980937d8", "fusion_lat": 0.0, "fusion_lon": 0.0, "bike_id": "9b34fa7ce7cf8de0e2011acb980937d8", "rental_uris": {"ios": "https://dc.lft.to/lastmile_qr_scan", "android": "https://dc.lft.to/lastmile_qr_scan"}, "type": "electric_bike", "lat": 38.93688816666667, "is_disabled": 0, "lon": -77.0269985, "is_reserved": 0}, {"name": "a12d3ad022c8b79afb112a5b6dc287aa", "fusion_lat": 0.0, "fusion_lon": 0.0, "bike_id": "a12d3ad022c8b79afb112a5b6dc287aa", "rental_uris": {"ios": "https://dc.lft.to/lastmile_qr_scan", "android": "https://dc.lft.to/lastmile_qr_scan"}, "type": "electric_bike", "lat": 38.90281816666667, "is_disabled": 0, "lon": -76.92938533333333, "is_reserved": 0}, {"name": "dc91749697f2c4f245d4037b4c857304", "fusion_lat": 0.0, "fusion_lon": 0.0, "bike_id": "dc91749697f2c4f245d4037b4c857304", "rental_uris": {"ios": "https://dc.lft.to/lastmile_qr_scan", "android": "https://dc.lft.to/lastmile_qr_scan"}, "type": "electric_scooter", "lat": 38.9097005, "is_disabled": 0, "lon": -77.03148566666667, "is_reserved": 0}, {"name": "f27bc58198ec88d97dfd9f9fa3e0df03", "fusion_lat": 0.0, "fusion_lon": 0.0, "bike_id": "f27bc58198ec88d97dfd9f9fa3e0df03", "rental_uris": {"ios": "https://dc.lft.to/lastmile_qr_scan", "android": "https://dc.lft.to/lastmile_qr_scan"}, "type": "electric_scooter", "lat": 38.8873645, "is_disabled": 0, "lon": -77.015325, "is_reserved": 0}, {"name": "a7faeb4d51cf37084abffcb680a0558f", "fusion_lat": 0.0, "fusion_lon": 0.0, "bike_id": "a7faeb4d51cf37084abffcb680a0558f", "rental_uris": {"ios": "https://dc.lft.to/lastmile_qr_scan", "android": "https://dc.lft.to/lastmile_qr_scan"}, "type": "electric_scooter", "lat": 38.9760835, "is_disabled": 0, "lon": -77.02669866666666, "is_reserved": 0}, {"name": "e60538f2594d0e3f019b2fbd714bcf4f", "fusion_lat": 0.0, "fusion_lon": 0.0, "bike_id": "e60538f2594d0e3f019b2fbd714bcf4f", "rental_uris": {"ios": "https://dc.lft.to/lastmile_qr_scan", "android": "https://dc.lft.to/lastmile_qr_scan"}, "type": "electric_scooter", "lat": 38.8714505, "is_disabled": 0, "lon": -76.97899483333333, "is_reserved": 0}, {"name": "6137e9a525ad68524516d2c7fa1cde6a", "fusion_lat": 0.0, "fusion_lon": 0.0, "bike_id": "6137e9a525ad68524516d2c7fa1cde6a", "rental_uris": {"ios": "https://dc.lft.to/lastmile_qr_scan", "android": "https://dc.lft.to/lastmile_qr_scan"}, "type": "electric_scooter", "lat": 38.935429666666664, "is_disabled": 0, "lon": -77.03097316666667, "is_reserved": 0}, {"name": "2d095a44fb502e236934af64a664fa31", "fusion_lat": 0.0, "fusion_lon": 0.0, "bike_id": "2d095a44fb502e236934af64a664fa31", "rental_uris": {"ios": "https://dc.lft.to/lastmile_qr_scan", "android": "https://dc.lft.to/lastmile_qr_scan"}, "type": "electric_scooter", "lat": 38.938776, "is_disabled": 0, "lon": -77.02484816666667, "is_reserved": 0}, {"name": "5e25b8b21f3b0f1adfb6699ad6ca88c2", "fusion_lat": 0.0, "fusion_lon": 0.0, "bike_id": "5e25b8b21f3b0f1adfb6699ad6ca88c2", "rental_uris": {"ios": "https://dc.lft.to/lastmile_qr_scan", "android": "https://dc.lft.to/lastmile_qr_scan"}, "type": "electric_bike", "lat": 38.918546166666665, "is_disabled": 0, "lon": -76.961776, "is_reserved": 0}, {"name": "49dd5c7facb8a7b339d9e8b6c66a5c62", "fusion_lat": 0.0, "fusion_lon": 0.0, "bike_id": "49dd5c7facb8a7b339d9e8b6c66a5c62", "rental_uris": {"ios": "https://dc.lft.to/lastmile_qr_scan", "android": "https://dc.lft.to/lastmile_qr_scan"}, "type": "electric_scooter", "lat": 38.92371416666667, "is_disabled": 0, "lon": -77.03137116666667, "is_reserved": 0}, {"name": "c48c8415d6733cb8792fcf6dd4767859", "fusion_lat": 0.0, "fusion_lon": 0.0, "bike_id": "c48c8415d6733cb8792fcf6dd4767859", "rental_uris": {"ios": "https://dc.lft.to/lastmile_qr_scan", "android": "https://dc.lft.to/lastmile_qr_scan"}, "type": "electric_scooter", "lat": 38.90381266666667, "is_disabled": 0, "lon": -77.03794133333334, "is_reserved": 0}, {"name": "f7865d20e26d7d5a8ca8438864c41292", "fusion_lat": 0.0, "fusion_lon": 0.0, "bike_id": "f7865d20e26d7d5a8ca8438864c41292", "rental_uris": {"ios": "https://dc.lft.to/lastmile_qr_scan", "android": "https://dc.lft.to/lastmile_qr_scan"}, "type": "electric_scooter", "lat": 38.924205, "is_disabled": 0, "lon": -77.056228, "is_reserved": 0}, {"name": "15ec314a791b47f8a1b72d768af0df63", "fusion_lat": 0.0, "fusion_lon": 0.0, "bike_id": "15ec314a791b47f8a1b72d768af0df63", "rental_uris": {"ios": "https://dc.lft.to/lastmile_qr_scan", "android": "https://dc.lft.to/lastmile_qr_scan"}, "type": "electric_scooter", "lat": 38.899076666666666, "is_disabled": 0, "lon": -76.93391233333334, "is_reserved": 0}, {"name": "65258bb7e9807bb627553c09618fd0d4", "fusion_lat": 0.0, "fusion_lon": 0.0, "bike_id": "65258bb7e9807bb627553c09618fd0d4", "rental_uris": {"ios": "https://dc.lft.to/lastmile_qr_scan", "android": "https://dc.lft.to/lastmile_qr_scan"}, "type": "electric_scooter", "lat": 38.886542166666665, "is_disabled": 0, "lon": -77.03393866666667, "is_reserved": 0}, {"name": "3a9b7db0dbd00759951ad2f085c6738f", "fusion_lat": 0.0, "fusion_lon": 0.0, "bike_id": "3a9b7db0dbd00759951ad2f085c6738f", "rental_uris": {"ios": "https://dc.lft.to/lastmile_qr_scan", "android": "https://dc.lft.to/lastmile_qr_scan"}, "type": "electric_scooter", "lat": 38.92053533333333, "is_disabled": 0, "lon": -76.99875916666667, "is_reserved": 0}, {"name": "ca42f630d85931d5b5fb6d149f818682", "fusion_lat": 0.0, "fusion_lon": 0.0, "bike_id": "ca42f630d85931d5b5fb6d149f818682", "rental_uris": {"ios": "https://dc.lft.to/lastmile_qr_scan", "android": "https://dc.lft.to/lastmile_qr_scan"}, "type": "electric_bike", "lat": 38.836858666666664, "is_disabled": 0, "lon": -77.00597833333333, "is_reserved": 0}, {"name": "5a15eeacf0f55b538486eee87932e58f", "fusion_lat": 0.0, "fusion_lon": 0.0, "bike_id": "5a15eeacf0f55b538486eee87932e58f", "rental_uris": {"ios": "https://dc.lft.to/lastmile_qr_scan", "android": "https://dc.lft.to/lastmile_qr_scan"}, "type": "electric_scooter", "lat": 38.915137333333334, "is_disabled": 0, "lon": -77.04613383333333, "is_reserved": 0}, {"name": "779611a3c999f8e504c2f580f4afcab7", "fusion_lat": 0.0, "fusion_lon": 0.0, "bike_id": "779611a3c999f8e504c2f580f4afcab7", "rental_uris": {"ios": "https://dc.lft.to/lastmile_qr_scan", "android": "https://dc.lft.to/lastmile_qr_scan"}, "type": "electric_scooter", "lat": 38.92756933333333, "is_disabled": 0, "lon": -77.032648, "is_reserved": 0}, {"name": "06c48cd802eb2adf54b1007a7d84ceea", "fusion_lat": 0.0, "fusion_lon": 0.0, "bike_id": "06c48cd802eb2adf54b1007a7d84ceea", "rental_uris": {"ios": "https://dc.lft.to/lastmile_qr_scan", "android": "https://dc.lft.to/lastmile_qr_scan"}, "type": "electric_scooter", "lat": 38.9082895, "is_disabled": 0, "lon": -76.997153, "is_reserved": 0}, {"name": "42da73fb4996ba3134064f78768b42c1", "fusion_lat": 0.0, "fusion_lon": 0.0, "bike_id": "42da73fb4996ba3134064f78768b42c1", "rental_uris": {"ios": "https://dc.lft.to/lastmile_qr_scan", "android": "https://dc.lft.to/lastmile_qr_scan"}, "type": "electric_scooter", "lat": 38.90136416666667, "is_disabled": 0, "lon": -77.0323585, "is_reserved": 0}, {"name": "aa2527c07ae1d3ed85767a45e7993548", "fusion_lat": 0.0, "fusion_lon": 0.0, "bike_id": "aa2527c07ae1d3ed85767a45e7993548", "rental_uris": {"ios": "https://dc.lft.to/lastmile_qr_scan", "android": "https://dc.lft.to/lastmile_qr_scan"}, "type": "electric_scooter", "lat": 38.914125, "is_disabled": 0, "lon": -77.04182083333333, "is_reserved": 0}, {"name": "c8e5ecfa8970bdabeb274534be469220", "fusion_lat": 0.0, "fusion_lon": 0.0, "bike_id": "c8e5ecfa8970bdabeb274534be469220", "rental_uris": {"ios": "https://dc.lft.to/lastmile_qr_scan", "android": "https://dc.lft.to/lastmile_qr_scan"}, "type": "electric_scooter", "lat": 38.9274055, "is_disabled": 0, "lon": -77.01203566666666, "is_reserved": 0}, {"name": "307c52c0d7efcdccca10a16f240f22a6", "fusion_lat": 0.0, "fusion_lon": 0.0, "bike_id": "307c52c0d7efcdccca10a16f240f22a6", "rental_uris": {"ios": "https://dc.lft.to/lastmile_qr_scan", "android": "https://dc.lft.to/lastmile_qr_scan"}, "type": "electric_scooter", "lat": 38.905173, "is_disabled": 0, "lon": -77.05778883333333, "is_reserved": 0}, {"name": "7bfc2bf8bf8a8f1e8214ffd045901353", "fusion_lat": 0.0, "fusion_lon": 0.0, "bike_id": "7bfc2bf8bf8a8f1e8214ffd045901353", "rental_uris": {"ios": "https://dc.lft.to/lastmile_qr_scan", "android": "https://dc.lft.to/lastmile_qr_scan"}, "type": "electric_scooter", "lat": 38.9101205, "is_disabled": 0, "lon": -76.99392616666667, "is_reserved": 0}, {"name": "75289780b2321c8e2d9082ef858b002f", "fusion_lat": 0.0, "fusion_lon": 0.0, "bike_id": "75289780b2321c8e2d9082ef858b002f", "rental_uris": {"ios": "https://dc.lft.to/lastmile_qr_scan", "android": "https://dc.lft.to/lastmile_qr_scan"}, "type": "electric_scooter", "lat": 38.8443025, "is_disabled": 0, "lon": -76.99779233333334, "is_reserved": 0}, {"name": "53fbab27badb04b93f106bca8edc67ff", "fusion_lat": 0.0, "fusion_lon": 0.0, "bike_id": "53fbab27badb04b93f106bca8edc67ff", "rental_uris": {"ios": "https://dc.lft.to/lastmile_qr_scan", "android": "https://dc.lft.to/lastmile_qr_scan"}, "type": "electric_scooter", "lat": 38.8936205, "is_disabled": 0, "lon": -76.94021533333333, "is_reserved": 0}, {"name": "ae58ae7b00f31518211b3562bc507de2", "fusion_lat": 0.0, "fusion_lon": 0.0, "bike_id": "ae58ae7b00f31518211b3562bc507de2", "rental_uris": {"ios": "https://dc.lft.to/lastmile_qr_scan", "android": "https://dc.lft.to/lastmile_qr_scan"}, "type": "electric_scooter", "lat": 38.885802166666664, "is_disabled": 0, "lon": -77.01544416666667, "is_reserved": 0}, {"name": "67f1b28006d8e573de1e65e3a972c3c7", "fusion_lat": 0.0, "fusion_lon": 0.0, "bike_id": "67f1b28006d8e573de1e65e3a972c3c7", "rental_uris": {"ios": "https://dc.lft.to/lastmile_qr_scan", "android": "https://dc.lft.to/lastmile_qr_scan"}, "type": "electric_scooter", "lat": 38.933435333333335, "is_disabled": 0, "lon": -77.03367083333333, "is_reserved": 0}, {"name": "29a43b17240375e8fa368f55f153b141", "fusion_lat": 0.0, "fusion_lon": 0.0, "bike_id": "29a43b17240375e8fa368f55f153b141", "rental_uris": {"ios": "https://dc.lft.to/lastmile_qr_scan", "android": "https://dc.lft.to/lastmile_qr_scan"}, "type": "electric_scooter", "lat": 38.9052925, "is_disabled": 0, "lon": -77.0570225, "is_reserved": 0}, {"name": "8ea18810da283a2ab79008bbe4467011", "fusion_lat": 0.0, "fusion_lon": 0.0, "bike_id": "8ea18810da283a2ab79008bbe4467011", "rental_uris": {"ios": "https://dc.lft.to/lastmile_qr_scan", "android": "https://dc.lft.to/lastmile_qr_scan"}, "type": "electric_bike", "lat": 38.89356816666667, "is_disabled": 0, "lon": -76.94763, "is_reserved": 0}, {"name": "28a0bbed6219ce1620bbf562e3646265", "fusion_lat": 0.0, "fusion_lon": 0.0, "bike_id": "28a0bbed6219ce1620bbf562e3646265", "rental_uris": {"ios": "https://dc.lft.to/lastmile_qr_scan", "android": "https://dc.lft.to/lastmile_qr_scan"}, "type": "electric_scooter", "lat": 38.90865383333333, "is_disabled": 0, "lon": -77.0269665, "is_reserved": 0}, {"name": "f22b3840dde3ceb7b4f059450f9c0a01", "fusion_lat": 0.0, "fusion_lon": 0.0, "bike_id": "f22b3840dde3ceb7b4f059450f9c0a01", "rental_uris": {"ios": "https://dc.lft.to/lastmile_qr_scan", "android": "https://dc.lft.to/lastmile_qr_scan"}, "type": "electric_scooter", "lat": 38.925815666666665, "is_disabled": 0, "lon": -77.0321165, "is_reserved": 0}, {"name": "f895f70301b4e8bcc8dc85294b1b57a5", "fusion_lat": 0.0, "fusion_lon": 0.0, "bike_id": "f895f70301b4e8bcc8dc85294b1b57a5", "rental_uris": {"ios": "https://dc.lft.to/lastmile_qr_scan", "android": "https://dc.lft.to/lastmile_qr_scan"}, "type": "electric_scooter", "lat": 38.8838025, "is_disabled": 0, "lon": -76.99493083333333, "is_reserved": 0}, {"name": "2b1df3ad90fe54ea01a71a33c2486755", "fusion_lat": 0.0, "fusion_lon": 0.0, "bike_id": "2b1df3ad90fe54ea01a71a33c2486755", "rental_uris": {"ios": "https://dc.lft.to/lastmile_qr_scan", "android": "https://dc.lft.to/lastmile_qr_scan"}, "type": "electric_bike", "lat": 38.906881166666665, "is_disabled": 0, "lon": -76.95195016666666, "is_reserved": 0}, {"name": "cd026cda58614a66b17c32ab817bf1ae", "fusion_lat": 0.0, "fusion_lon": 0.0, "bike_id": "cd026cda58614a66b17c32ab817bf1ae", "rental_uris": {"ios": "https://dc.lft.to/lastmile_qr_scan", "android": "https://dc.lft.to/lastmile_qr_scan"}, "type": "electric_scooter", "lat": 38.91759016666666, "is_disabled": 0, "lon": -77.02407783333334, "is_reserved": 0}, {"name": "c3fc4783fb7bea3ecabfadf1f97041df", "fusion_lat": 0.0, "fusion_lon": 0.0, "bike_id": "c3fc4783fb7bea3ecabfadf1f97041df", "rental_uris": {"ios": "https://dc.lft.to/lastmile_qr_scan", "android": "https://dc.lft.to/lastmile_qr_scan"}, "type": "electric_scooter", "lat": 38.91428283333333, "is_disabled": 0, "lon": -77.03216483333334, "is_reserved": 0}, {"name": "847d1f57c2a05c11a2428ca94712f353", "fusion_lat": 0.0, "fusion_lon": 0.0, "bike_id": "847d1f57c2a05c11a2428ca94712f353", "rental_uris": {"ios": "https://dc.lft.to/lastmile_qr_scan", "android": "https://dc.lft.to/lastmile_qr_scan"}, "type": "electric_scooter", "lat": 38.92547033333334, "is_disabled": 0, "lon": -77.0270995, "is_reserved": 0}, {"name": "fe10564d52f4e0e858ea6ba09187762b", "fusion_lat": 0.0, "fusion_lon": 0.0, "bike_id": "fe10564d52f4e0e858ea6ba09187762b", "rental_uris": {"ios": "https://dc.lft.to/lastmile_qr_scan", "android": "https://dc.lft.to/lastmile_qr_scan"}, "type": "electric_scooter", "lat": 38.87596716666667, "is_disabled": 0, "lon": -77.00585666666667, "is_reserved": 0}, {"name": "e1d101a1c511d1447cc74164631dad91", "fusion_lat": 0.0, "fusion_lon": 0.0, "bike_id": "e1d101a1c511d1447cc74164631dad91", "rental_uris": {"ios": "https://dc.lft.to/lastmile_qr_scan", "android": "https://dc.lft.to/lastmile_qr_scan"}, "type": "electric_scooter", "lat": 38.915726, "is_disabled": 0, "lon": -77.047022, "is_reserved": 0}, {"name": "069f97a0e1729d7e9416d2068890c972", "fusion_lat": 0.0, "fusion_lon": 0.0, "bike_id": "069f97a0e1729d7e9416d2068890c972", "rental_uris": {"ios": "https://dc.lft.to/lastmile_qr_scan", "android": "https://dc.lft.to/lastmile_qr_scan"}, "type": "electric_scooter", "lat": 38.918152666666664, "is_disabled": 0, "lon": -77.04173833333333, "is_reserved": 0}, {"name": "2cef52c45b8664bcfbd064dd9055f416", "fusion_lat": 0.0, "fusion_lon": 0.0, "bike_id": "2cef52c45b8664bcfbd064dd9055f416", "rental_uris": {"ios": "https://dc.lft.to/lastmile_qr_scan", "android": "https://dc.lft.to/lastmile_qr_scan"}, "type": "electric_scooter", "lat": 38.918961333333336, "is_disabled": 0, "lon": -77.01767116666667, "is_reserved": 0}, {"name": "e2b6ae0dddfb71bc92397bc7158996c7", "fusion_lat": 0.0, "fusion_lon": 0.0, "bike_id": "e2b6ae0dddfb71bc92397bc7158996c7", "rental_uris": {"ios": "https://dc.lft.to/lastmile_qr_scan", "android": "https://dc.lft.to/lastmile_qr_scan"}, "type": "electric_scooter", "lat": 38.91272416666666, "is_disabled": 0, "lon": -77.041579, "is_reserved": 0}, {"name": "029b3a800319c3d3757c107ddfe4b903", "fusion_lat": 0.0, "fusion_lon": 0.0, "bike_id": "029b3a800319c3d3757c107ddfe4b903", "rental_uris": {"ios": "https://dc.lft.to/lastmile_qr_scan", "android": "https://dc.lft.to/lastmile_qr_scan"}, "type": "electric_scooter", "lat": 38.899957, "is_disabled": 0, "lon": -77.05026333333333, "is_reserved": 0}, {"name": "088f2d97d690cdccd5bb2cbb83ba8895", "fusion_lat": 0.0, "fusion_lon": 0.0, "bike_id": "088f2d97d690cdccd5bb2cbb83ba8895", "rental_uris": {"ios": "https://dc.lft.to/lastmile_qr_scan", "android": "https://dc.lft.to/lastmile_qr_scan"}, "type": "electric_scooter", "lat": 38.92610083333334, "is_disabled": 0, "lon": -77.0241525, "is_reserved": 0}, {"name": "3cbd256a1ccb25c199f8409856621147", "fusion_lat": 0.0, "fusion_lon": 0.0, "bike_id": "3cbd256a1ccb25c199f8409856621147", "rental_uris": {"ios": "https://dc.lft.to/lastmile_qr_scan", "android": "https://dc.lft.to/lastmile_qr_scan"}, "type": "electric_scooter", "lat": 38.90024583333334, "is_disabled": 0, "lon": -77.0335365, "is_reserved": 0}, {"name": "c8d3c95e1f9d180f9c8f1ef4caf71769", "fusion_lat": 0.0, "fusion_lon": 0.0, "bike_id": "c8d3c95e1f9d180f9c8f1ef4caf71769", "rental_uris": {"ios": "https://dc.lft.to/lastmile_qr_scan", "android": "https://dc.lft.to/lastmile_qr_scan"}, "type": "electric_scooter", "lat": 38.896734333333335, "is_disabled": 0, "lon": -76.93531083333333, "is_reserved": 0}, {"name": "76446ab16be77dcd5887817c0bc497a4", "fusion_lat": 0.0, "fusion_lon": 0.0, "bike_id": "76446ab16be77dcd5887817c0bc497a4", "rental_uris": {"ios": "https://dc.lft.to/lastmile_qr_scan", "android": "https://dc.lft.to/lastmile_qr_scan"}, "type": "electric_scooter", "lat": 38.924206166666664, "is_disabled": 0, "lon": -77.02015783333333, "is_reserved": 0}, {"name": "28d899e91f457032483300234da53d08", "fusion_lat": 0.0, "fusion_lon": 0.0, "bike_id": "28d899e91f457032483300234da53d08", "rental_uris": {"ios": "https://dc.lft.to/lastmile_qr_scan", "android": "https://dc.lft.to/lastmile_qr_scan"}, "type": "electric_scooter", "lat": 38.897887, "is_disabled": 0, "lon": -77.03947316666667, "is_reserved": 0}, {"name": "79093bfaea5d3de5904280a2241e2c9f", "fusion_lat": 0.0, "fusion_lon": 0.0, "bike_id": "79093bfaea5d3de5904280a2241e2c9f", "rental_uris": {"ios": "https://dc.lft.to/lastmile_qr_scan", "android": "https://dc.lft.to/lastmile_qr_scan"}, "type": "electric_scooter", "lat": 38.91733466666667, "is_disabled": 0, "lon": -77.03645616666667, "is_reserved": 0}, {"name": "2faab74718c950db2fe9a699580e78d7", "fusion_lat": 0.0, "fusion_lon": 0.0, "bike_id": "2faab74718c950db2fe9a699580e78d7", "rental_uris": {"ios": "https://dc.lft.to/lastmile_qr_scan", "android": "https://dc.lft.to/lastmile_qr_scan"}, "type": "electric_scooter", "lat": 38.8982925, "is_disabled": 0, "lon": -77.00747983333333, "is_reserved": 0}, {"name": "96839526a5ea3a571ad4d334814bc3cb", "fusion_lat": 0.0, "fusion_lon": 0.0, "bike_id": "96839526a5ea3a571ad4d334814bc3cb", "rental_uris": {"ios": "https://dc.lft.to/lastmile_qr_scan", "android": "https://dc.lft.to/lastmile_qr_scan"}, "type": "electric_scooter", "lat": 38.89220666666667, "is_disabled": 0, "lon": -77.04190266666667, "is_reserved": 0}, {"name": "42a7f9b0305f201b969e727806a16384", "fusion_lat": 0.0, "fusion_lon": 0.0, "bike_id": "42a7f9b0305f201b969e727806a16384", "rental_uris": {"ios": "https://dc.lft.to/lastmile_qr_scan", "android": "https://dc.lft.to/lastmile_qr_scan"}, "type": "electric_scooter", "lat": 38.901307833333334, "is_disabled": 0, "lon": -77.0305185, "is_reserved": 0}, {"name": "7b61d838ee303671aebe936371dbf7d8", "fusion_lat": 0.0, "fusion_lon": 0.0, "bike_id": "7b61d838ee303671aebe936371dbf7d8", "rental_uris": {"ios": "https://dc.lft.to/lastmile_qr_scan", "android": "https://dc.lft.to/lastmile_qr_scan"}, "type": "electric_bike", "lat": 38.96307183333333, "is_disabled": 0, "lon": -77.05762216666666, "is_reserved": 0}, {"name": "5ad11cf7c2cdee3c18ac9a32545028e5", "fusion_lat": 0.0, "fusion_lon": 0.0, "bike_id": "5ad11cf7c2cdee3c18ac9a32545028e5", "rental_uris": {"ios": "https://dc.lft.to/lastmile_qr_scan", "android": "https://dc.lft.to/lastmile_qr_scan"}, "type": "electric_scooter", "lat": 38.891938, "is_disabled": 0, "lon": -77.00293966666666, "is_reserved": 0}, {"name": "57b70398498b24d66d6e545a751b4e54", "fusion_lat": 0.0, "fusion_lon": 0.0, "bike_id": "57b70398498b24d66d6e545a751b4e54", "rental_uris": {"ios": "https://dc.lft.to/lastmile_qr_scan", "android": "https://dc.lft.to/lastmile_qr_scan"}, "type": "electric_bike", "lat": 38.8334615, "is_disabled": 0, "lon": -76.9655615, "is_reserved": 0}, {"name": "2f4acde06da7386f5648467e32c07368", "fusion_lat": 0.0, "fusion_lon": 0.0, "bike_id": "2f4acde06da7386f5648467e32c07368", "rental_uris": {"ios": "https://dc.lft.to/lastmile_qr_scan", "android": "https://dc.lft.to/lastmile_qr_scan"}, "type": "electric_bike", "lat": 38.9186105, "is_disabled": 0, "lon": -76.96089616666667, "is_reserved": 0}, {"name": "c3868b0bd74087a9718f7727d1d068ab", "fusion_lat": 0.0, "fusion_lon": 0.0, "bike_id": "c3868b0bd74087a9718f7727d1d068ab", "rental_uris": {"ios": "https://dc.lft.to/lastmile_qr_scan", "android": "https://dc.lft.to/lastmile_qr_scan"}, "type": "electric_scooter", "lat": 38.922502, "is_disabled": 0, "lon": -77.03086483333334, "is_reserved": 0}, {"name": "cd830b723e92e734d1e1358046686fea", "fusion_lat": 0.0, "fusion_lon": 0.0, "bike_id": "cd830b723e92e734d1e1358046686fea", "rental_uris": {"ios": "https://dc.lft.to/lastmile_qr_scan", "android": "https://dc.lft.to/lastmile_qr_scan"}, "type": "electric_scooter", "lat": 38.88249316666667, "is_disabled": 0, "lon": -77.00346033333334, "is_reserved": 0}, {"name": "952726927e81f92731e54f275af5a6bd", "fusion_lat": 0.0, "fusion_lon": 0.0, "bike_id": "952726927e81f92731e54f275af5a6bd", "rental_uris": {"ios": "https://dc.lft.to/lastmile_qr_scan", "android": "https://dc.lft.to/lastmile_qr_scan"}, "type": "electric_scooter", "lat": 38.91191, "is_disabled": 0, "lon": -77.03145966666666, "is_reserved": 0}, {"name": "b354d4d45eeea0314d823a3b84dc43c1", "fusion_lat": 0.0, "fusion_lon": 0.0, "bike_id": "b354d4d45eeea0314d823a3b84dc43c1", "rental_uris": {"ios": "https://dc.lft.to/lastmile_qr_scan", "android": "https://dc.lft.to/lastmile_qr_scan"}, "type": "electric_bike", "lat": 38.950590166666665, "is_disabled": 0, "lon": -76.96736316666667, "is_reserved": 0}, {"name": "4d1c21449de7570a2bb108a13061167d", "fusion_lat": 0.0, "fusion_lon": 0.0, "bike_id": "4d1c21449de7570a2bb108a13061167d", "rental_uris": {"ios": "https://dc.lft.to/lastmile_qr_scan", "android": "https://dc.lft.to/lastmile_qr_scan"}, "type": "electric_scooter", "lat": 38.904884833333334, "is_disabled": 0, "lon": -77.02959666666666, "is_reserved": 0}, {"name": "b72e367d239e42b036891d61e0b6b8d7", "fusion_lat": 0.0, "fusion_lon": 0.0, "bike_id": "b72e367d239e42b036891d61e0b6b8d7", "rental_uris": {"ios": "https://dc.lft.to/lastmile_qr_scan", "android": "https://dc.lft.to/lastmile_qr_scan"}, "type": "electric_scooter", "lat": 38.8658375, "is_disabled": 0, "lon": -76.989481, "is_reserved": 0}, {"name": "e2adeac6573e8e78872d3dd788a1af59", "fusion_lat": 0.0, "fusion_lon": 0.0, "bike_id": "e2adeac6573e8e78872d3dd788a1af59", "rental_uris": {"ios": "https://dc.lft.to/lastmile_qr_scan", "android": "https://dc.lft.to/lastmile_qr_scan"}, "type": "electric_scooter", "lat": 38.93606883333333, "is_disabled": 0, "lon": -77.0586475, "is_reserved": 0}, {"name": "663b4a41d694f90a77e4031bb113a5a6", "fusion_lat": 0.0, "fusion_lon": 0.0, "bike_id": "663b4a41d694f90a77e4031bb113a5a6", "rental_uris": {"ios": "https://dc.lft.to/lastmile_qr_scan", "android": "https://dc.lft.to/lastmile_qr_scan"}, "type": "electric_scooter", "lat": 38.897969333333336, "is_disabled": 0, "lon": -77.05217283333333, "is_reserved": 0}, {"name": "e3a256e8c632d7af88c6a208b0b45566", "fusion_lat": 0.0, "fusion_lon": 0.0, "bike_id": "e3a256e8c632d7af88c6a208b0b45566", "rental_uris": {"ios": "https://dc.lft.to/lastmile_qr_scan", "android": "https://dc.lft.to/lastmile_qr_scan"}, "type": "electric_bike", "lat": 39.0173155, "is_disabled": 0, "lon": -77.0638065, "is_reserved": 0}, {"name": "6b24d06569e3a4cfcd87504255c55dda", "fusion_lat": 0.0, "fusion_lon": 0.0, "bike_id": "6b24d06569e3a4cfcd87504255c55dda", "rental_uris": {"ios": "https://dc.lft.to/lastmile_qr_scan", "android": "https://dc.lft.to/lastmile_qr_scan"}, "type": "electric_scooter", "lat": 38.86670316666667, "is_disabled": 0, "lon": -76.988862, "is_reserved": 0}, {"name": "9d284bd807e7f51382dfde4d80ea42b0", "fusion_lat": 0.0, "fusion_lon": 0.0, "bike_id": "9d284bd807e7f51382dfde4d80ea42b0", "rental_uris": {"ios": "https://dc.lft.to/lastmile_qr_scan", "android": "https://dc.lft.to/lastmile_qr_scan"}, "type": "electric_scooter", "lat": 38.90032133333333, "is_disabled": 0, "lon": -76.99644983333333, "is_reserved": 0}, {"name": "9b38d18ca585e59d96478c9b0a14710b", "fusion_lat": 0.0, "fusion_lon": 0.0, "bike_id": "9b38d18ca585e59d96478c9b0a14710b", "rental_uris": {"ios": "https://dc.lft.to/lastmile_qr_scan", "android": "https://dc.lft.to/lastmile_qr_scan"}, "type": "electric_bike", "lat": 38.8744475, "is_disabled": 0, "lon": -77.00891516666667, "is_reserved": 0}, {"name": "c591ae286c4cdb31ac43689e32eb907b", "fusion_lat": 0.0, "fusion_lon": 0.0, "bike_id": "c591ae286c4cdb31ac43689e32eb907b", "rental_uris": {"ios": "https://dc.lft.to/lastmile_qr_scan", "android": "https://dc.lft.to/lastmile_qr_scan"}, "type": "electric_scooter", "lat": 38.92108833333333, "is_disabled": 0, "lon": -77.04225866666667, "is_reserved": 0}, {"name": "f2ebeb8463ad214b4cbdd57e1c7dcb85", "fusion_lat": 0.0, "fusion_lon": 0.0, "bike_id": "f2ebeb8463ad214b4cbdd57e1c7dcb85", "rental_uris": {"ios": "https://dc.lft.to/lastmile_qr_scan", "android": "https://dc.lft.to/lastmile_qr_scan"}, "type": "electric_scooter", "lat": 38.904050166666664, "is_disabled": 0, "lon": -77.03484616666667, "is_reserved": 0}, {"name": "5dab18d5a441b4920bb865c1efdf3055", "fusion_lat": 0.0, "fusion_lon": 0.0, "bike_id": "5dab18d5a441b4920bb865c1efdf3055", "rental_uris": {"ios": "https://dc.lft.to/lastmile_qr_scan", "android": "https://dc.lft.to/lastmile_qr_scan"}, "type": "electric_scooter", "lat": 38.918131833333334, "is_disabled": 0, "lon": -77.01020066666666, "is_reserved": 0}, {"name": "5d46cd0620d5cc5fab417ffeae8aa697", "fusion_lat": 0.0, "fusion_lon": 0.0, "bike_id": "5d46cd0620d5cc5fab417ffeae8aa697", "rental_uris": {"ios": "https://dc.lft.to/lastmile_qr_scan", "android": "https://dc.lft.to/lastmile_qr_scan"}, "type": "electric_scooter", "lat": 38.884277833333336, "is_disabled": 0, "lon": -77.02485883333334, "is_reserved": 0}, {"name": "2067a19a0b9e949723ad6e64ee95f94a", "fusion_lat": 0.0, "fusion_lon": 0.0, "bike_id": "2067a19a0b9e949723ad6e64ee95f94a", "rental_uris": {"ios": "https://dc.lft.to/lastmile_qr_scan", "android": "https://dc.lft.to/lastmile_qr_scan"}, "type": "electric_scooter", "lat": 38.93080033333333, "is_disabled": 0, "lon": -77.027958, "is_reserved": 0}, {"name": "32d23006d7376b7ce835add7d362b61d", "fusion_lat": 0.0, "fusion_lon": 0.0, "bike_id": "32d23006d7376b7ce835add7d362b61d", "rental_uris": {"ios": "https://dc.lft.to/lastmile_qr_scan", "android": "https://dc.lft.to/lastmile_qr_scan"}, "type": "electric_scooter", "lat": 38.895444833333336, "is_disabled": 0, "lon": -77.01536316666666, "is_reserved": 0}, {"name": "a639f73d25e7333b6e037a105fd3f87e", "fusion_lat": 0.0, "fusion_lon": 0.0, "bike_id": "a639f73d25e7333b6e037a105fd3f87e", "rental_uris": {"ios": "https://dc.lft.to/lastmile_qr_scan", "android": "https://dc.lft.to/lastmile_qr_scan"}, "type": "electric_scooter", "lat": 38.88321966666667, "is_disabled": 0, "lon": -76.94946883333333, "is_reserved": 0}, {"name": "d6e2cfea38b4dffbe6de16ad2f58d361", "fusion_lat": 0.0, "fusion_lon": 0.0, "bike_id": "d6e2cfea38b4dffbe6de16ad2f58d361", "rental_uris": {"ios": "https://dc.lft.to/lastmile_qr_scan", "android": "https://dc.lft.to/lastmile_qr_scan"}, "type": "electric_scooter", "lat": 38.90247266666667, "is_disabled": 0, "lon": -77.05404533333333, "is_reserved": 0}, {"name": "fc6677dcbf30115bd0d5042b3bca70da", "fusion_lat": 0.0, "fusion_lon": 0.0, "bike_id": "fc6677dcbf30115bd0d5042b3bca70da", "rental_uris": {"ios": "https://dc.lft.to/lastmile_qr_scan", "android": "https://dc.lft.to/lastmile_qr_scan"}, "type": "electric_scooter", "lat": 38.907179, "is_disabled": 0, "lon": -77.03862483333333, "is_reserved": 0}, {"name": "7f434a55bfd4ef0413447fa2b7f9d2f2", "fusion_lat": 0.0, "fusion_lon": 0.0, "bike_id": "7f434a55bfd4ef0413447fa2b7f9d2f2", "rental_uris": {"ios": "https://dc.lft.to/lastmile_qr_scan", "android": "https://dc.lft.to/lastmile_qr_scan"}, "type": "electric_scooter", "lat": 38.894222166666665, "is_disabled": 0, "lon": -76.91222633333334, "is_reserved": 0}, {"name": "5dd7f6032a00b1611737d949362cf9ce", "fusion_lat": 0.0, "fusion_lon": 0.0, "bike_id": "5dd7f6032a00b1611737d949362cf9ce", "rental_uris": {"ios": "https://dc.lft.to/lastmile_qr_scan", "android": "https://dc.lft.to/lastmile_qr_scan"}, "type": "electric_scooter", "lat": 38.8380575, "is_disabled": 0, "lon": -77.00435466666667, "is_reserved": 0}, {"name": "7b969e599c1969bf7db2bb860882f158", "fusion_lat": 0.0, "fusion_lon": 0.0, "bike_id": "7b969e599c1969bf7db2bb860882f158", "rental_uris": {"ios": "https://dc.lft.to/lastmile_qr_scan", "android": "https://dc.lft.to/lastmile_qr_scan"}, "type": "electric_scooter", "lat": 38.920921, "is_disabled": 0, "lon": -77.01788083333334, "is_reserved": 0}, {"name": "5c107e03d1dd14301396691e34b9e784", "fusion_lat": 0.0, "fusion_lon": 0.0, "bike_id": "5c107e03d1dd14301396691e34b9e784", "rental_uris": {"ios": "https://dc.lft.to/lastmile_qr_scan", "android": "https://dc.lft.to/lastmile_qr_scan"}, "type": "electric_scooter", "lat": 38.904913666666666, "is_disabled": 0, "lon": -77.02954366666667, "is_reserved": 0}, {"name": "4c5e9b484a3ece2a462decd0c0f782ab", "fusion_lat": 0.0, "fusion_lon": 0.0, "bike_id": "4c5e9b484a3ece2a462decd0c0f782ab", "rental_uris": {"ios": "https://dc.lft.to/lastmile_qr_scan", "android": "https://dc.lft.to/lastmile_qr_scan"}, "type": "electric_scooter", "lat": 38.89634866666667, "is_disabled": 0, "lon": -77.05032483333333, "is_reserved": 0}, {"name": "177aaf52ab2d0c054fb003f2c9a0039d", "fusion_lat": 0.0, "fusion_lon": 0.0, "bike_id": "177aaf52ab2d0c054fb003f2c9a0039d", "rental_uris": {"ios": "https://dc.lft.to/lastmile_qr_scan", "android": "https://dc.lft.to/lastmile_qr_scan"}, "type": "electric_scooter", "lat": 38.909875166666666, "is_disabled": 0, "lon": -76.98492266666666, "is_reserved": 0}, {"name": "f7c572d830d78887b7e5d75704817ad9", "fusion_lat": 0.0, "fusion_lon": 0.0, "bike_id": "f7c572d830d78887b7e5d75704817ad9", "rental_uris": {"ios": "https://dc.lft.to/lastmile_qr_scan", "android": "https://dc.lft.to/lastmile_qr_scan"}, "type": "electric_scooter", "lat": 38.8828805, "is_disabled": 0, "lon": -77.01742316666666, "is_reserved": 0}, {"name": "8fd43c839a0321e522a724dc23444559", "fusion_lat": 0.0, "fusion_lon": 0.0, "bike_id": "8fd43c839a0321e522a724dc23444559", "rental_uris": {"ios": "https://dc.lft.to/lastmile_qr_scan", "android": "https://dc.lft.to/lastmile_qr_scan"}, "type": "electric_scooter", "lat": 38.904730666666666, "is_disabled": 0, "lon": -77.02802283333334, "is_reserved": 0}, {"name": "86f49438b5332e362066af1a8b57f358", "fusion_lat": 0.0, "fusion_lon": 0.0, "bike_id": "86f49438b5332e362066af1a8b57f358", "rental_uris": {"ios": "https://dc.lft.to/lastmile_qr_scan", "android": "https://dc.lft.to/lastmile_qr_scan"}, "type": "electric_scooter", "lat": 38.911839666666665, "is_disabled": 0, "lon": -77.0416065, "is_reserved": 0}, {"name": "7d3b63b26d414f0bb37cdd072bcfccbd", "fusion_lat": 0.0, "fusion_lon": 0.0, "bike_id": "7d3b63b26d414f0bb37cdd072bcfccbd", "rental_uris": {"ios": "https://dc.lft.to/lastmile_qr_scan", "android": "https://dc.lft.to/lastmile_qr_scan"}, "type": "electric_scooter", "lat": 38.937011, "is_disabled": 0, "lon": -77.0240015, "is_reserved": 0}, {"name": "55b22ecc58910c7ac825a3f40db6c8d4", "fusion_lat": 0.0, "fusion_lon": 0.0, "bike_id": "55b22ecc58910c7ac825a3f40db6c8d4", "rental_uris": {"ios": "https://dc.lft.to/lastmile_qr_scan", "android": "https://dc.lft.to/lastmile_qr_scan"}, "type": "electric_scooter", "lat": 38.93706683333333, "is_disabled": 0, "lon": -77.06108133333333, "is_reserved": 0}, {"name": "69b3aaa93fe1c7b8e949244029fce649", "fusion_lat": 0.0, "fusion_lon": 0.0, "bike_id": "69b3aaa93fe1c7b8e949244029fce649", "rental_uris": {"ios": "https://dc.lft.to/lastmile_qr_scan", "android": "https://dc.lft.to/lastmile_qr_scan"}, "type": "electric_scooter", "lat": 38.887438, "is_disabled": 0, "lon": -77.02126983333333, "is_reserved": 0}, {"name": "c85d6d6cfb0e8e095992a9c2c67da67b", "fusion_lat": 0.0, "fusion_lon": 0.0, "bike_id": "c85d6d6cfb0e8e095992a9c2c67da67b", "rental_uris": {"ios": "https://dc.lft.to/lastmile_qr_scan", "android": "https://dc.lft.to/lastmile_qr_scan"}, "type": "electric_scooter", "lat": 38.90412166666667, "is_disabled": 0, "lon": -76.99065733333333, "is_reserved": 0}, {"name": "fc013b41f354da9806f2ad7f52219d78", "fusion_lat": 0.0, "fusion_lon": 0.0, "bike_id": "fc013b41f354da9806f2ad7f52219d78", "rental_uris": {"ios": "https://dc.lft.to/lastmile_qr_scan", "android": "https://dc.lft.to/lastmile_qr_scan"}, "type": "electric_scooter", "lat": 38.911142, "is_disabled": 0, "lon": -77.02246316666667, "is_reserved": 0}, {"name": "55b8d7d22ffb43e5221a3b7584ec217f", "fusion_lat": 0.0, "fusion_lon": 0.0, "bike_id": "55b8d7d22ffb43e5221a3b7584ec217f", "rental_uris": {"ios": "https://dc.lft.to/lastmile_qr_scan", "android": "https://dc.lft.to/lastmile_qr_scan"}, "type": "electric_scooter", "lat": 38.92197633333333, "is_disabled": 0, "lon": -76.9971295, "is_reserved": 0}, {"name": "7a9fc22b934f9fb17e1fa23f70a2d540", "fusion_lat": 0.0, "fusion_lon": 0.0, "bike_id": "7a9fc22b934f9fb17e1fa23f70a2d540", "rental_uris": {"ios": "https://dc.lft.to/lastmile_qr_scan", "android": "https://dc.lft.to/lastmile_qr_scan"}, "type": "electric_scooter", "lat": 38.914727, "is_disabled": 0, "lon": -77.003416, "is_reserved": 0}, {"name": "43f4ae5b7ee13d585233ab9e581978c5", "fusion_lat": 0.0, "fusion_lon": 0.0, "bike_id": "43f4ae5b7ee13d585233ab9e581978c5", "rental_uris": {"ios": "https://dc.lft.to/lastmile_qr_scan", "android": "https://dc.lft.to/lastmile_qr_scan"}, "type": "electric_scooter", "lat": 38.87587416666667, "is_disabled": 0, "lon": -77.0060315, "is_reserved": 0}, {"name": "d8fbe53b62ab34f584dea09ed3e5a19e", "fusion_lat": 0.0, "fusion_lon": 0.0, "bike_id": "d8fbe53b62ab34f584dea09ed3e5a19e", "rental_uris": {"ios": "https://dc.lft.to/lastmile_qr_scan", "android": "https://dc.lft.to/lastmile_qr_scan"}, "type": "electric_scooter", "lat": 38.91821383333333, "is_disabled": 0, "lon": -77.0267115, "is_reserved": 0}, {"name": "196d3dd8b6b58aa386129f9eea56ecc9", "fusion_lat": 0.0, "fusion_lon": 0.0, "bike_id": "196d3dd8b6b58aa386129f9eea56ecc9", "rental_uris": {"ios": "https://dc.lft.to/lastmile_qr_scan", "android": "https://dc.lft.to/lastmile_qr_scan"}, "type": "electric_scooter", "lat": 38.931262833333335, "is_disabled": 0, "lon": -77.0237055, "is_reserved": 0}, {"name": "bd7f682243caf36b11d12270ec67a193", "fusion_lat": 0.0, "fusion_lon": 0.0, "bike_id": "bd7f682243caf36b11d12270ec67a193", "rental_uris": {"ios": "https://dc.lft.to/lastmile_qr_scan", "android": "https://dc.lft.to/lastmile_qr_scan"}, "type": "electric_bike", "lat": 38.906785666666664, "is_disabled": 0, "lon": -77.03466983333334, "is_reserved": 0}, {"name": "43f50dc7936659f97aa5a0871d928d05", "fusion_lat": 0.0, "fusion_lon": 0.0, "bike_id": "43f50dc7936659f97aa5a0871d928d05", "rental_uris": {"ios": "https://dc.lft.to/lastmile_qr_scan", "android": "https://dc.lft.to/lastmile_qr_scan"}, "type": "electric_scooter", "lat": 38.919849166666665, "is_disabled": 0, "lon": -77.03316166666667, "is_reserved": 0}, {"name": "85bae22b7386c4631d21353d698dd55d", "fusion_lat": 0.0, "fusion_lon": 0.0, "bike_id": "85bae22b7386c4631d21353d698dd55d", "rental_uris": {"ios": "https://dc.lft.to/lastmile_qr_scan", "android": "https://dc.lft.to/lastmile_qr_scan"}, "type": "electric_scooter", "lat": 38.9049625, "is_disabled": 0, "lon": -77.05119466666666, "is_reserved": 0}, {"name": "ca4457a79ab5388273ff12b76f67684f", "fusion_lat": 0.0, "fusion_lon": 0.0, "bike_id": "ca4457a79ab5388273ff12b76f67684f", "rental_uris": {"ios": "https://dc.lft.to/lastmile_qr_scan", "android": "https://dc.lft.to/lastmile_qr_scan"}, "type": "electric_scooter", "lat": 38.941967, "is_disabled": 0, "lon": -77.0258065, "is_reserved": 0}, {"name": "e8b15614d2a5a23fb9c6c192c7afbfe8", "fusion_lat": 0.0, "fusion_lon": 0.0, "bike_id": "e8b15614d2a5a23fb9c6c192c7afbfe8", "rental_uris": {"ios": "https://dc.lft.to/lastmile_qr_scan", "android": "https://dc.lft.to/lastmile_qr_scan"}, "type": "electric_bike", "lat": 39.01015683333333, "is_disabled": 0, "lon": -76.91137816666667, "is_reserved": 0}, {"name": "3f46357dd77ddfbdcaf4d4c87be595b7", "fusion_lat": 0.0, "fusion_lon": 0.0, "bike_id": "3f46357dd77ddfbdcaf4d4c87be595b7", "rental_uris": {"ios": "https://dc.lft.to/lastmile_qr_scan", "android": "https://dc.lft.to/lastmile_qr_scan"}, "type": "electric_scooter", "lat": 38.89888583333333, "is_disabled": 0, "lon": -77.03284283333333, "is_reserved": 0}, {"name": "b6f7e1867cdd2effa633353fab864131", "fusion_lat": 0.0, "fusion_lon": 0.0, "bike_id": "b6f7e1867cdd2effa633353fab864131", "rental_uris": {"ios": "https://dc.lft.to/lastmile_qr_scan", "android": "https://dc.lft.to/lastmile_qr_scan"}, "type": "electric_scooter", "lat": 38.92845583333333, "is_disabled": 0, "lon": -77.03304716666666, "is_reserved": 0}, {"name": "0e68a5c5d628d23fbfe434984618a918", "fusion_lat": 0.0, "fusion_lon": 0.0, "bike_id": "0e68a5c5d628d23fbfe434984618a918", "rental_uris": {"ios": "https://dc.lft.to/lastmile_qr_scan", "android": "https://dc.lft.to/lastmile_qr_scan"}, "type": "electric_scooter", "lat": 38.90144566666667, "is_disabled": 0, "lon": -77.03228933333334, "is_reserved": 0}, {"name": "821313e764598bf91f3c86ea88ca2211", "fusion_lat": 0.0, "fusion_lon": 0.0, "bike_id": "821313e764598bf91f3c86ea88ca2211", "rental_uris": {"ios": "https://dc.lft.to/lastmile_qr_scan", "android": "https://dc.lft.to/lastmile_qr_scan"}, "type": "electric_scooter", "lat": 38.9234065, "is_disabled": 0, "lon": -77.0351335, "is_reserved": 0}, {"name": "cd6d26ae2bd357a18bb711067fb05cee", "fusion_lat": 0.0, "fusion_lon": 0.0, "bike_id": "cd6d26ae2bd357a18bb711067fb05cee", "rental_uris": {"ios": "https://dc.lft.to/lastmile_qr_scan", "android": "https://dc.lft.to/lastmile_qr_scan"}, "type": "electric_scooter", "lat": 38.901823, "is_disabled": 0, "lon": -77.04738983333333, "is_reserved": 0}, {"name": "b20b7e1737bedd7bc28c69097dde5889", "fusion_lat": 0.0, "fusion_lon": 0.0, "bike_id": "b20b7e1737bedd7bc28c69097dde5889", "rental_uris": {"ios": "https://dc.lft.to/lastmile_qr_scan", "android": "https://dc.lft.to/lastmile_qr_scan"}, "type": "electric_scooter", "lat": 38.884895, "is_disabled": 0, "lon": -77.007126, "is_reserved": 0}, {"name": "a94f55fa5f33436951c675a3e8699073", "fusion_lat": 0.0, "fusion_lon": 0.0, "bike_id": "a94f55fa5f33436951c675a3e8699073", "rental_uris": {"ios": "https://dc.lft.to/lastmile_qr_scan", "android": "https://dc.lft.to/lastmile_qr_scan"}, "type": "electric_scooter", "lat": 38.897727833333335, "is_disabled": 0, "lon": -77.024667, "is_reserved": 0}, {"name": "797f501a7a03f30095a7af580aa85572", "fusion_lat": 0.0, "fusion_lon": 0.0, "bike_id": "797f501a7a03f30095a7af580aa85572", "rental_uris": {"ios": "https://dc.lft.to/lastmile_qr_scan", "android": "https://dc.lft.to/lastmile_qr_scan"}, "type": "electric_scooter", "lat": 38.8948625, "is_disabled": 0, "lon": -77.0021485, "is_reserved": 0}, {"name": "6df7789898b33b972048686dba549341", "fusion_lat": 0.0, "fusion_lon": 0.0, "bike_id": "6df7789898b33b972048686dba549341", "rental_uris": {"ios": "https://dc.lft.to/lastmile_qr_scan", "android": "https://dc.lft.to/lastmile_qr_scan"}, "type": "electric_scooter", "lat": 38.918481, "is_disabled": 0, "lon": -77.02604866666667, "is_reserved": 0}, {"name": "98e3d74ca82291e4ea614cc68192c98e", "fusion_lat": 0.0, "fusion_lon": 0.0, "bike_id": "98e3d74ca82291e4ea614cc68192c98e", "rental_uris": {"ios": "https://dc.lft.to/lastmile_qr_scan", "android": "https://dc.lft.to/lastmile_qr_scan"}, "type": "electric_scooter", "lat": 38.925655666666664, "is_disabled": 0, "lon": -77.031032, "is_reserved": 0}, {"name": "b4513ab004c5165290eacf7f306e93fb", "fusion_lat": 0.0, "fusion_lon": 0.0, "bike_id": "b4513ab004c5165290eacf7f306e93fb", "rental_uris": {"ios": "https://dc.lft.to/lastmile_qr_scan", "android": "https://dc.lft.to/lastmile_qr_scan"}, "type": "electric_scooter", "lat": 38.956467, "is_disabled": 0, "lon": -77.01499533333333, "is_reserved": 0}, {"name": "949ba120587c06dabc8643f3dcd47069", "fusion_lat": 0.0, "fusion_lon": 0.0, "bike_id": "949ba120587c06dabc8643f3dcd47069", "rental_uris": {"ios": "https://dc.lft.to/lastmile_qr_scan", "android": "https://dc.lft.to/lastmile_qr_scan"}, "type": "electric_scooter", "lat": 38.91548916666667, "is_disabled": 0, "lon": -77.0463195, "is_reserved": 0}, {"name": "50e2ed6d49e54a2ac884cae4060a17a9", "fusion_lat": 0.0, "fusion_lon": 0.0, "bike_id": "50e2ed6d49e54a2ac884cae4060a17a9", "rental_uris": {"ios": "https://dc.lft.to/lastmile_qr_scan", "android": "https://dc.lft.to/lastmile_qr_scan"}, "type": "electric_scooter", "lat": 38.924574, "is_disabled": 0, "lon": -76.997393, "is_reserved": 0}, {"name": "0a3c7719d996dd5d237cbf284bc45e3b", "fusion_lat": 0.0, "fusion_lon": 0.0, "bike_id": "0a3c7719d996dd5d237cbf284bc45e3b", "rental_uris": {"ios": "https://dc.lft.to/lastmile_qr_scan", "android": "https://dc.lft.to/lastmile_qr_scan"}, "type": "electric_scooter", "lat": 38.91581766666667, "is_disabled": 0, "lon": -77.0467595, "is_reserved": 0}, {"name": "229d953f95c40bc45683d8919d3dbbaa", "fusion_lat": 0.0, "fusion_lon": 0.0, "bike_id": "229d953f95c40bc45683d8919d3dbbaa", "rental_uris": {"ios": "https://dc.lft.to/lastmile_qr_scan", "android": "https://dc.lft.to/lastmile_qr_scan"}, "type": "electric_scooter", "lat": 38.8985495, "is_disabled": 0, "lon": -77.01615766666667, "is_reserved": 0}, {"name": "2ed8b6d01d74ffcf5f3190ca19052c56", "fusion_lat": 0.0, "fusion_lon": 0.0, "bike_id": "2ed8b6d01d74ffcf5f3190ca19052c56", "rental_uris": {"ios": "https://dc.lft.to/lastmile_qr_scan", "android": "https://dc.lft.to/lastmile_qr_scan"}, "type": "electric_scooter", "lat": 38.901533666666666, "is_disabled": 0, "lon": -77.04401183333333, "is_reserved": 0}, {"name": "8bb7e321322d5638f5e1337ed224adb3", "fusion_lat": 0.0, "fusion_lon": 0.0, "bike_id": "8bb7e321322d5638f5e1337ed224adb3", "rental_uris": {"ios": "https://dc.lft.to/lastmile_qr_scan", "android": "https://dc.lft.to/lastmile_qr_scan"}, "type": "electric_scooter", "lat": 38.908160333333335, "is_disabled": 0, "lon": -77.03853783333334, "is_reserved": 0}, {"name": "a8f4167cb548ed788036e451865fea80", "fusion_lat": 0.0, "fusion_lon": 0.0, "bike_id": "a8f4167cb548ed788036e451865fea80", "rental_uris": {"ios": "https://dc.lft.to/lastmile_qr_scan", "android": "https://dc.lft.to/lastmile_qr_scan"}, "type": "electric_scooter", "lat": 38.9389715, "is_disabled": 0, "lon": -77.0246495, "is_reserved": 0}, {"name": "daa6199cec58fa090f45531343093383", "fusion_lat": 0.0, "fusion_lon": 0.0, "bike_id": "daa6199cec58fa090f45531343093383", "rental_uris": {"ios": "https://dc.lft.to/lastmile_qr_scan", "android": "https://dc.lft.to/lastmile_qr_scan"}, "type": "electric_bike", "lat": 38.9500155, "is_disabled": 0, "lon": -77.3531565, "is_reserved": 0}, {"name": "8604fc80b6f6b726157b6b320dc3f185", "fusion_lat": 0.0, "fusion_lon": 0.0, "bike_id": "8604fc80b6f6b726157b6b320dc3f185", "rental_uris": {"ios": "https://dc.lft.to/lastmile_qr_scan", "android": "https://dc.lft.to/lastmile_qr_scan"}, "type": "electric_scooter", "lat": 38.918249333333335, "is_disabled": 0, "lon": -77.01210183333333, "is_reserved": 0}, {"name": "81b4d556cf4ca84bd20ee5d3bf5cd8b5", "fusion_lat": 0.0, "fusion_lon": 0.0, "bike_id": "81b4d556cf4ca84bd20ee5d3bf5cd8b5", "rental_uris": {"ios": "https://dc.lft.to/lastmile_qr_scan", "android": "https://dc.lft.to/lastmile_qr_scan"}, "type": "electric_scooter", "lat": 38.899058, "is_disabled": 0, "lon": -77.0133255, "is_reserved": 0}, {"name": "7a1695f793f6b1729885e030835af5f7", "fusion_lat": 0.0, "fusion_lon": 0.0, "bike_id": "7a1695f793f6b1729885e030835af5f7", "rental_uris": {"ios": "https://dc.lft.to/lastmile_qr_scan", "android": "https://dc.lft.to/lastmile_qr_scan"}, "type": "electric_scooter", "lat": 38.89995483333333, "is_disabled": 0, "lon": -76.922294, "is_reserved": 0}, {"name": "593e1edb176065e7ee315e80a369c381", "fusion_lat": 0.0, "fusion_lon": 0.0, "bike_id": "593e1edb176065e7ee315e80a369c381", "rental_uris": {"ios": "https://dc.lft.to/lastmile_qr_scan", "android": "https://dc.lft.to/lastmile_qr_scan"}, "type": "electric_scooter", "lat": 38.92574616666667, "is_disabled": 0, "lon": -76.99499866666666, "is_reserved": 0}, {"name": "09faae7f4785ab10cce108bc4c4528dd", "fusion_lat": 0.0, "fusion_lon": 0.0, "bike_id": "09faae7f4785ab10cce108bc4c4528dd", "rental_uris": {"ios": "https://dc.lft.to/lastmile_qr_scan", "android": "https://dc.lft.to/lastmile_qr_scan"}, "type": "electric_scooter", "lat": 38.906174666666665, "is_disabled": 0, "lon": -77.0059325, "is_reserved": 0}, {"name": "ab926da82fd3ca5dcb75b3a18cc4725d", "fusion_lat": 0.0, "fusion_lon": 0.0, "bike_id": "ab926da82fd3ca5dcb75b3a18cc4725d", "rental_uris": {"ios": "https://dc.lft.to/lastmile_qr_scan", "android": "https://dc.lft.to/lastmile_qr_scan"}, "type": "electric_scooter", "lat": 38.919728666666664, "is_disabled": 0, "lon": -77.04430516666666, "is_reserved": 0}, {"name": "31094a63633622b7c7dcd174504d6d8d", "fusion_lat": 0.0, "fusion_lon": 0.0, "bike_id": "31094a63633622b7c7dcd174504d6d8d", "rental_uris": {"ios": "https://dc.lft.to/lastmile_qr_scan", "android": "https://dc.lft.to/lastmile_qr_scan"}, "type": "electric_scooter", "lat": 38.8991895, "is_disabled": 0, "lon": -77.0403615, "is_reserved": 0}, {"name": "12123e32babf213a3d72caf33c4301f0", "fusion_lat": 0.0, "fusion_lon": 0.0, "bike_id": "12123e32babf213a3d72caf33c4301f0", "rental_uris": {"ios": "https://dc.lft.to/lastmile_qr_scan", "android": "https://dc.lft.to/lastmile_qr_scan"}, "type": "electric_scooter", "lat": 38.883024, "is_disabled": 0, "lon": -76.94285616666667, "is_reserved": 0}, {"name": "098bf72e2ce8080ad783f3d0d0a01ee6", "fusion_lat": 0.0, "fusion_lon": 0.0, "bike_id": "098bf72e2ce8080ad783f3d0d0a01ee6", "rental_uris": {"ios": "https://dc.lft.to/lastmile_qr_scan", "android": "https://dc.lft.to/lastmile_qr_scan"}, "type": "electric_scooter", "lat": 38.9050225, "is_disabled": 0, "lon": -77.05789833333333, "is_reserved": 0}, {"name": "7b81581a2dae82209d07503f66cfdaac", "fusion_lat": 0.0, "fusion_lon": 0.0, "bike_id": "7b81581a2dae82209d07503f66cfdaac", "rental_uris": {"ios": "https://dc.lft.to/lastmile_qr_scan", "android": "https://dc.lft.to/lastmile_qr_scan"}, "type": "electric_scooter", "lat": 38.90716783333333, "is_disabled": 0, "lon": -77.03868183333333, "is_reserved": 0}, {"name": "70af9b8fcc53afa90b387a93fb651a47", "fusion_lat": 0.0, "fusion_lon": 0.0, "bike_id": "70af9b8fcc53afa90b387a93fb651a47", "rental_uris": {"ios": "https://dc.lft.to/lastmile_qr_scan", "android": "https://dc.lft.to/lastmile_qr_scan"},