{"data": {"bikes": [{"is_disabled": 0, "rental_uris": {"android": "https://dc.lft.to/lastmile_qr_scan", "ios": "https://dc.lft.to/lastmile_qr_scan"}, "is_reserved": 0, "name": "d206fff2c7aa31f183050340d81b3d51", "lon": -77.078473, "type": "electric_scooter", "bike_id": "d206fff2c7aa31f183050340d81b3d51", "fusion_lon": 0.0, "lat": 38.93116883333333, "fusion_lat": 0.0}, {"is_disabled": 0, "rental_uris": {"android": "https://dc.lft.to/lastmile_qr_scan", "ios": "https://dc.lft.to/lastmile_qr_scan"}, "is_reserved": 0, "name": "718a166e05000604d6b2d75261e1a3cd", "lon": -77.12258866666667, "type": "electric_bike", "bike_id": "718a166e05000604d6b2d75261e1a3cd", "fusion_lon": 0.0, "lat": 38.88765433333333, "fusion_lat": 0.0}, {"is_disabled": 0, "rental_uris": {"android": "https://dc.lft.to/lastmile_qr_scan", "ios": "https://dc.lft.to/lastmile_qr_scan"}, "is_reserved": 0, "name": "e1960bb847ef159a0c6808f407793a5b", "lon": -77.03349266666666, "type": "electric_scooter", "bike_id": "e1960bb847ef159a0c6808f407793a5b", "fusion_lon": 0.0, "lat": 38.892468666666666, "fusion_lat": 0.0}, {"is_disabled": 0, "rental_uris": {"android": "https://dc.lft.to/lastmile_qr_scan", "ios": "https://dc.lft.to/lastmile_qr_scan"}, "is_reserved": 0, "name": "80db52dad6cdf47fae36cf718aa36d36", "lon": -76.9353735, "type": "electric_bike", "bike_id": "80db52dad6cdf47fae36cf718aa36d36", "fusion_lon": 0.0, "lat": 38.95556083333334, "fusion_lat": 0.0}, {"is_disabled": 0, "rental_uris": {"android": "https://dc.lft.to/lastmile_qr_scan", "ios": "https://dc.lft.to/lastmile_qr_scan"}, "is_reserved": 0, "name": "fb784d41dac45e6610eda92ce12e5067", "lon": -77.07683183333333, "type": "electric_bike", "bike_id": "fb784d41dac45e6610eda92ce12e5067", "fusion_lon": 0.0, "lat": 38.831907333333334, "fusion_lat": 0.0}, {"is_disabled": 0, "rental_uris": {"android": "https://dc.lft.to/lastmile_qr_scan", "ios": "https://dc.lft.to/lastmile_qr_scan"}, "is_reserved": 0, "name": "362d90ce19e4dc28682b997fb3884077", "lon": -77.0241345, "type": "electric_scooter", "bike_id": "362d90ce19e4dc28682b997fb3884077", "fusion_lon": 0.0, "lat": 38.911047333333336, "fusion_lat": 0.0}, {"is_disabled": 0, "rental_uris": {"android": "https://dc.lft.to/lastmile_qr_scan", "ios": "https://dc.lft.to/lastmile_qr_scan"}, "is_reserved": 0, "name": "a96b968128780bae08f2c2247446325b", "lon": -77.01093116666667, "type": "electric_scooter", "bike_id": "a96b968128780bae08f2c2247446325b", "fusion_lon": 0.0, "lat": 38.905597666666665, "fusion_lat": 0.0}, {"is_disabled": 0, "rental_uris": {"android": "https://dc.lft.to/lastmile_qr_scan", "ios": "https://dc.lft.to/lastmile_qr_scan"}, "is_reserved": 0, "name": "52f460e9bb4144756d367f6de3cc0edf", "lon": -77.11224383333334, "type": "electric_bike", "bike_id": "52f460e9bb4144756d367f6de3cc0edf", "fusion_lon": 0.0, "lat": 38.8287285, "fusion_lat": 0.0}, {"is_disabled": 0, "rental_uris": {"android": "https://dc.lft.to/lastmile_qr_scan", "ios": "https://dc.lft.to/lastmile_qr_scan"}, "is_reserved": 0, "name": "97b9a7eacc07a6d051ed23b24cfeaf1f", "lon": -77.04864633333334, "type": "electric_scooter", "bike_id": "97b9a7eacc07a6d051ed23b24cfeaf1f", "fusion_lon": 0.0, "lat": 38.91339033333333, "fusion_lat": 0.0}, {"is_disabled": 0, "rental_uris": {"android": "https://dc.lft.to/lastmile_qr_scan", "ios": "https://dc.lft.to/lastmile_qr_scan"}, "is_reserved": 0, "name": "f550cae2d407cbf28fb41620f2414507", "lon": -77.01964316666667, "type": "electric_scooter", "bike_id": "f550cae2d407cbf28fb41620f2414507", "fusion_lon": 0.0, "lat": 38.896238, "fusion_lat": 0.0}, {"is_disabled": 0, "rental_uris": {"android": "https://dc.lft.to/lastmile_qr_scan", "ios": "https://dc.lft.to/lastmile_qr_scan"}, "is_reserved": 0, "name": "9db9645520479c8a292419cd9b1897dc", "lon": -76.9953075, "type": "electric_scooter", "bike_id": "9db9645520479c8a292419cd9b1897dc", "fusion_lon": 0.0, "lat": 38.920534, "fusion_lat": 0.0}, {"is_disabled": 0, "rental_uris": {"android": "https://dc.lft.to/lastmile_qr_scan", "ios": "https://dc.lft.to/lastmile_qr_scan"}, "is_reserved": 0, "name": "606c19caac3abd44802ef646b59db11d", "lon": -76.99648133333334, "type": "electric_scooter", "bike_id": "606c19caac3abd44802ef646b59db11d", "fusion_lon": 0.0, "lat": 38.8871895, "fusion_lat": 0.0}, {"is_disabled": 0, "rental_uris": {"android": "https://dc.lft.to/lastmile_qr_scan", "ios": "https://dc.lft.to/lastmile_qr_scan"}, "is_reserved": 0, "name": "51fa8a4c421b63f33130ca4715088a84", "lon": -77.02682683333333, "type": "electric_bike", "bike_id": "51fa8a4c421b63f33130ca4715088a84", "fusion_lon": 0.0, "lat": 38.94833083333333, "fusion_lat": 0.0}, {"is_disabled": 0, "rental_uris": {"android": "https://dc.lft.to/lastmile_qr_scan", "ios": "https://dc.lft.to/lastmile_qr_scan"}, "is_reserved": 0, "name": "fe457fd73dff578f228febf73e5228c9", "lon": -77.03186866666667, "type": "electric_scooter", "bike_id": "fe457fd73dff578f228febf73e5228c9", "fusion_lon": 0.0, "lat": 38.914584166666664, "fusion_lat": 0.0}, {"is_disabled": 0, "rental_uris": {"android": "https://dc.lft.to/lastmile_qr_scan", "ios": "https://dc.lft.to/lastmile_qr_scan"}, "is_reserved": 0, "name": "dd005621f12c7a07b60c74dd0acab66b", "lon": -77.03470833333333, "type": "electric_scooter", "bike_id": "dd005621f12c7a07b60c74dd0acab66b", "fusion_lon": 0.0, "lat": 38.921548, "fusion_lat": 0.0}, {"is_disabled": 0, "rental_uris": {"android": "https://dc.lft.to/lastmile_qr_scan", "ios": "https://dc.lft.to/lastmile_qr_scan"}, "is_reserved": 0, "name": "0cc5b2c9a47c269dad8f1bcc6820d070", "lon": -77.042005, "type": "electric_scooter", "bike_id": "0cc5b2c9a47c269dad8f1bcc6820d070", "fusion_lon": 0.0, "lat": 38.911213333333336, "fusion_lat": 0.0}, {"is_disabled": 0, "rental_uris": {"android": "https://dc.lft.to/lastmile_qr_scan", "ios": "https://dc.lft.to/lastmile_qr_scan"}, "is_reserved": 0, "name": "4f84d0301c0b22a46849b8e186b6d7e9", "lon": -77.07100233333334, "type": "electric_scooter", "bike_id": "4f84d0301c0b22a46849b8e186b6d7e9", "fusion_lon": 0.0, "lat": 38.92692483333333, "fusion_lat": 0.0}, {"is_disabled": 0, "rental_uris": {"android": "https://dc.lft.to/lastmile_qr_scan", "ios": "https://dc.lft.to/lastmile_qr_scan"}, "is_reserved": 0, "name": "6496c0d3eadb2dd5b9612f0a7fc6fc15", "lon": -77.024307, "type": "electric_scooter", "bike_id": "6496c0d3eadb2dd5b9612f0a7fc6fc15", "fusion_lon": 0.0, "lat": 38.91697416666667, "fusion_lat": 0.0}, {"is_disabled": 0, "rental_uris": {"android": "https://dc.lft.to/lastmile_qr_scan", "ios": "https://dc.lft.to/lastmile_qr_scan"}, "is_reserved": 0, "name": "8616d68dd01598941f82b3506feed304", "lon": -76.96685066666667, "type": "electric_bike", "bike_id": "8616d68dd01598941f82b3506feed304", "fusion_lon": 0.0, "lat": 38.95888216666667, "fusion_lat": 0.0}, {"is_disabled": 0, "rental_uris": {"android": "https://dc.lft.to/lastmile_qr_scan", "ios": "https://dc.lft.to/lastmile_qr_scan"}, "is_reserved": 0, "name": "16d47194639a1a4818e55a6ce6f81a5c", "lon": -77.00208783333333, "type": "electric_scooter", "bike_id": "16d47194639a1a4818e55a6ce6f81a5c", "fusion_lon": 0.0, "lat": 38.900363666666664, "fusion_lat": 0.0}, {"is_disabled": 0, "rental_uris": {"android": "https://dc.lft.to/lastmile_qr_scan", "ios": "https://dc.lft.to/lastmile_qr_scan"}, "is_reserved": 0, "name": "69a205b6c0087d8d5f7bb92cc14659d8", "lon": -77.0199085, "type": "electric_scooter", "bike_id": "69a205b6c0087d8d5f7bb92cc14659d8", "fusion_lon": 0.0, "lat": 38.87574, "fusion_lat": 0.0}, {"is_disabled": 0, "rental_uris": {"android": "https://dc.lft.to/lastmile_qr_scan", "ios": "https://dc.lft.to/lastmile_qr_scan"}, "is_reserved": 0, "name": "16f460767f8640aa4040b593c89dc86e", "lon": -77.04656716666666, "type": "electric_scooter", "bike_id": "16f460767f8640aa4040b593c89dc86e", "fusion_lon": 0.0, "lat": 38.89339983333333, "fusion_lat": 0.0}, {"is_disabled": 0, "rental_uris": {"android": "https://dc.lft.to/lastmile_qr_scan", "ios": "https://dc.lft.to/lastmile_qr_scan"}, "is_reserved": 0, "name": "f48a546b05c60e970f541680e0001302", "lon": -77.06532433333334, "type": "electric_scooter", "bike_id": "f48a546b05c60e970f541680e0001302", "fusion_lon": 0.0, "lat": 38.90520816666667, "fusion_lat": 0.0}, {"is_disabled": 0, "rental_uris": {"android": "https://dc.lft.to/lastmile_qr_scan", "ios": "https://dc.lft.to/lastmile_qr_scan"}, "is_reserved": 0, "name": "edcd597b85396ef613a1ab487f92b819", "lon": -77.05192116666667, "type": "electric_scooter", "bike_id": "edcd597b85396ef613a1ab487f92b819", "fusion_lon": 0.0, "lat": 38.925485333333334, "fusion_lat": 0.0}, {"is_disabled": 0, "rental_uris": {"android": "https://dc.lft.to/lastmile_qr_scan", "ios": "https://dc.lft.to/lastmile_qr_scan"}, "is_reserved": 0, "name": "d20a4d6d0b4c5bb7f03db3e8d63abe60", "lon": -77.02691366666667, "type": "electric_scooter", "bike_id": "d20a4d6d0b4c5bb7f03db3e8d63abe60", "fusion_lon": 0.0, "lat": 38.90733733333333, "fusion_lat": 0.0}, {"is_disabled": 0, "rental_uris": {"android": "https://dc.lft.to/lastmile_qr_scan", "ios": "https://dc.lft.to/lastmile_qr_scan"}, "is_reserved": 0, "name": "131787e641104be4ba8d8ef5fa276846", "lon": -77.08050416666667, "type": "electric_bike", "bike_id": "131787e641104be4ba8d8ef5fa276846", "fusion_lon": 0.0, "lat": 38.84843033333333, "fusion_lat": 0.0}, {"is_disabled": 0, "rental_uris": {"android": "https://dc.lft.to/lastmile_qr_scan", "ios": "https://dc.lft.to/lastmile_qr_scan"}, "is_reserved": 0, "name": "fe9ef192e3792bd5d26c8215432cab07", "lon": -77.0415785, "type": "electric_scooter", "bike_id": "fe9ef192e3792bd5d26c8215432cab07", "fusion_lon": 0.0, "lat": 38.91418916666667, "fusion_lat": 0.0}, {"is_disabled": 0, "rental_uris": {"android": "https://dc.lft.to/lastmile_qr_scan", "ios": "https://dc.lft.to/lastmile_qr_scan"}, "is_reserved": 0, "name": "62429ac9599c979e62b6c4fd4ef63d15", "lon": -77.02036916666667, "type": "electric_scooter", "bike_id": "62429ac9599c979e62b6c4fd4ef63d15", "fusion_lon": 0.0, "lat": 38.915512, "fusion_lat": 0.0}, {"is_disabled": 0, "rental_uris": {"android": "https://dc.lft.to/lastmile_qr_scan", "ios": "https://dc.lft.to/lastmile_qr_scan"}, "is_reserved": 0, "name": "e63dc3fa3801f23638aebc082cf04515", "lon": -77.02415483333333, "type": "electric_scooter", "bike_id": "e63dc3fa3801f23638aebc082cf04515", "fusion_lon": 0.0, "lat": 38.9096555, "fusion_lat": 0.0}, {"is_disabled": 0, "rental_uris": {"android": "https://dc.lft.to/lastmile_qr_scan", "ios": "https://dc.lft.to/lastmile_qr_scan"}, "is_reserved": 0, "name": "acacf0fdd284fde527e4d6160796d65a", "lon": -77.0541405, "type": "electric_scooter", "bike_id": "acacf0fdd284fde527e4d6160796d65a", "fusion_lon": 0.0, "lat": 38.928283, "fusion_lat": 0.0}, {"is_disabled": 0, "rental_uris": {"android": "https://dc.lft.to/lastmile_qr_scan", "ios": "https://dc.lft.to/lastmile_qr_scan"}, "is_reserved": 0, "name": "61d67d2e4abe53e9ba3dafd00b496361", "lon": -77.01223616666667, "type": "electric_scooter", "bike_id": "61d67d2e4abe53e9ba3dafd00b496361", "fusion_lon": 0.0, "lat": 38.916929, "fusion_lat": 0.0}, {"is_disabled": 0, "rental_uris": {"android": "https://dc.lft.to/lastmile_qr_scan", "ios": "https://dc.lft.to/lastmile_qr_scan"}, "is_reserved": 0, "name": "6541dc535944b96a2c9828ba4e134af7", "lon": -76.9656855, "type": "electric_scooter", "bike_id": "6541dc535944b96a2c9828ba4e134af7", "fusion_lon": 0.0, "lat": 38.9183145, "fusion_lat": 0.0}, {"is_disabled": 0, "rental_uris": {"android": "https://dc.lft.to/lastmile_qr_scan", "ios": "https://dc.lft.to/lastmile_qr_scan"}, "is_reserved": 0, "name": "727f78f21d8c3b1f6a3fc11be4736631", "lon": -77.04352216666666, "type": "electric_scooter", "bike_id": "727f78f21d8c3b1f6a3fc11be4736631", "fusion_lon": 0.0, "lat": 38.911817, "fusion_lat": 0.0}, {"is_disabled": 0, "rental_uris": {"android": "https://dc.lft.to/lastmile_qr_scan", "ios": "https://dc.lft.to/lastmile_qr_scan"}, "is_reserved": 0, "name": "53a641ce90079ad28e750ba47cf50650", "lon": -76.94722883333333, "type": "electric_scooter", "bike_id": "53a641ce90079ad28e750ba47cf50650", "fusion_lon": 0.0, "lat": 38.8966965, "fusion_lat": 0.0}, {"is_disabled": 0, "rental_uris": {"android": "https://dc.lft.to/lastmile_qr_scan", "ios": "https://dc.lft.to/lastmile_qr_scan"}, "is_reserved": 0, "name": "fefaf224a23842884205bc75e6798a4d", "lon": -77.02227633333334, "type": "electric_scooter", "bike_id": "fefaf224a23842884205bc75e6798a4d", "fusion_lon": 0.0, "lat": 38.88745133333333, "fusion_lat": 0.0}, {"is_disabled": 0, "rental_uris": {"android": "https://dc.lft.to/lastmile_qr_scan", "ios": "https://dc.lft.to/lastmile_qr_scan"}, "is_reserved": 0, "name": "48ab22ba695dc19eafc736a801a5cfda", "lon": -77.04890616666667, "type": "electric_scooter", "bike_id": "48ab22ba695dc19eafc736a801a5cfda", "fusion_lon": 0.0, "lat": 38.90393066666667, "fusion_lat": 0.0}, {"is_disabled": 0, "rental_uris": {"android": "https://dc.lft.to/lastmile_qr_scan", "ios": "https://dc.lft.to/lastmile_qr_scan"}, "is_reserved": 0, "name": "9accb7dac9c4223ca795f8a89a36a8e4", "lon": -77.042007, "type": "electric_scooter", "bike_id": "9accb7dac9c4223ca795f8a89a36a8e4", "fusion_lon": 0.0, "lat": 38.91673483333334, "fusion_lat": 0.0}, {"is_disabled": 0, "rental_uris": {"android": "https://dc.lft.to/lastmile_qr_scan", "ios": "https://dc.lft.to/lastmile_qr_scan"}, "is_reserved": 0, "name": "7031094762baf39e90c007d22673be1a", "lon": -77.03470383333334, "type": "electric_scooter", "bike_id": "7031094762baf39e90c007d22673be1a", "fusion_lon": 0.0, "lat": 38.911112, "fusion_lat": 0.0}, {"is_disabled": 0, "rental_uris": {"android": "https://dc.lft.to/lastmile_qr_scan", "ios": "https://dc.lft.to/lastmile_qr_scan"}, "is_reserved": 0, "name": "4cc1b1375da15681aa410d96c11aa113", "lon": -76.98459183333334, "type": "electric_scooter", "bike_id": "4cc1b1375da15681aa410d96c11aa113", "fusion_lon": 0.0, "lat": 38.89368183333333, "fusion_lat": 0.0}, {"is_disabled": 0, "rental_uris": {"android": "https://dc.lft.to/lastmile_qr_scan", "ios": "https://dc.lft.to/lastmile_qr_scan"}, "is_reserved": 0, "name": "71d19cf33db25467de66ce83cd4ca585", "lon": -77.0366715, "type": "electric_scooter", "bike_id": "71d19cf33db25467de66ce83cd4ca585", "fusion_lon": 0.0, "lat": 38.936504, "fusion_lat": 0.0}, {"is_disabled": 0, "rental_uris": {"android": "https://dc.lft.to/lastmile_qr_scan", "ios": "https://dc.lft.to/lastmile_qr_scan"}, "is_reserved": 0, "name": "89c5ec8299265b2be53237c8c4889448", "lon": -77.032441, "type": "electric_scooter", "bike_id": "89c5ec8299265b2be53237c8c4889448", "fusion_lon": 0.0, "lat": 38.9097165, "fusion_lat": 0.0}, {"is_disabled": 0, "rental_uris": {"android": "https://dc.lft.to/lastmile_qr_scan", "ios": "https://dc.lft.to/lastmile_qr_scan"}, "is_reserved": 0, "name": "e444bc8c66a351418c4f9600223d4964", "lon": -77.0120215, "type": "electric_scooter", "bike_id": "e444bc8c66a351418c4f9600223d4964", "fusion_lon": 0.0, "lat": 38.927397, "fusion_lat": 0.0}, {"is_disabled": 0, "rental_uris": {"android": "https://dc.lft.to/lastmile_qr_scan", "ios": "https://dc.lft.to/lastmile_qr_scan"}, "is_reserved": 0, "name": "d7db2ca69f71b7752aeb25dc70af3ba8", "lon": -77.02909016666666, "type": "electric_scooter", "bike_id": "d7db2ca69f71b7752aeb25dc70af3ba8", "fusion_lon": 0.0, "lat": 38.93967583333333, "fusion_lat": 0.0}, {"is_disabled": 0, "rental_uris": {"android": "https://dc.lft.to/lastmile_qr_scan", "ios": "https://dc.lft.to/lastmile_qr_scan"}, "is_reserved": 0, "name": "6ccb2cc7e5dabfa0d067bcc90d544828", "lon": -76.935524, "type": "electric_scooter", "bike_id": "6ccb2cc7e5dabfa0d067bcc90d544828", "fusion_lon": 0.0, "lat": 38.901558, "fusion_lat": 0.0}, {"is_disabled": 0, "rental_uris": {"android": "https://dc.lft.to/lastmile_qr_scan", "ios": "https://dc.lft.to/lastmile_qr_scan"}, "is_reserved": 0, "name": "31aade7a30d089a098c35cb5e799a288", "lon": -77.05781783333333, "type": "electric_scooter", "bike_id": "31aade7a30d089a098c35cb5e799a288", "fusion_lon": 0.0, "lat": 38.905108166666665, "fusion_lat": 0.0}, {"is_disabled": 0, "rental_uris": {"android": "https://dc.lft.to/lastmile_qr_scan", "ios": "https://dc.lft.to/lastmile_qr_scan"}, "is_reserved": 0, "name": "8712c49a948c46d37aebdd18c9f09ff7", "lon": -76.95192933333334, "type": "electric_bike", "bike_id": "8712c49a948c46d37aebdd18c9f09ff7", "fusion_lon": 0.0, "lat": 38.90679433333333, "fusion_lat": 0.0}, {"is_disabled": 0, "rental_uris": {"android": "https://dc.lft.to/lastmile_qr_scan", "ios": "https://dc.lft.to/lastmile_qr_scan"}, "is_reserved": 0, "name": "f60e6c239ecb15ca00bbfc48b5272a8b", "lon": -76.98548183333334, "type": "electric_scooter", "bike_id": "f60e6c239ecb15ca00bbfc48b5272a8b", "fusion_lon": 0.0, "lat": 38.904195, "fusion_lat": 0.0}, {"is_disabled": 0, "rental_uris": {"android": "https://dc.lft.to/lastmile_qr_scan", "ios": "https://dc.lft.to/lastmile_qr_scan"}, "is_reserved": 0, "name": "cbf55a9ddd5b5da7f628197fbcf4a2c1", "lon": -77.02170133333334, "type": "electric_scooter", "bike_id": "cbf55a9ddd5b5da7f628197fbcf4a2c1", "fusion_lon": 0.0, "lat": 38.905175166666666, "fusion_lat": 0.0}, {"is_disabled": 0, "rental_uris": {"android": "https://dc.lft.to/lastmile_qr_scan", "ios": "https://dc.lft.to/lastmile_qr_scan"}, "is_reserved": 0, "name": "53ad879f686b2c2a7978654e13667a13", "lon": -77.0545905, "type": "electric_scooter", "bike_id": "53ad879f686b2c2a7978654e13667a13", "fusion_lon": 0.0, "lat": 38.9289655, "fusion_lat": 0.0}, {"is_disabled": 0, "rental_uris": {"android": "https://dc.lft.to/lastmile_qr_scan", "ios": "https://dc.lft.to/lastmile_qr_scan"}, "is_reserved": 0, "name": "aabbb2b9b504e0ee6efa47d37150fe83", "lon": -77.0378765, "type": "electric_scooter", "bike_id": "aabbb2b9b504e0ee6efa47d37150fe83", "fusion_lon": 0.0, "lat": 38.930232, "fusion_lat": 0.0}, {"is_disabled": 0, "rental_uris": {"android": "https://dc.lft.to/lastmile_qr_scan", "ios": "https://dc.lft.to/lastmile_qr_scan"}, "is_reserved": 0, "name": "907549440b06a9abd4e12e44c9fcb52c", "lon": -77.02918083333333, "type": "electric_scooter", "bike_id": "907549440b06a9abd4e12e44c9fcb52c", "fusion_lon": 0.0, "lat": 38.92483683333333, "fusion_lat": 0.0}, {"is_disabled": 0, "rental_uris": {"android": "https://dc.lft.to/lastmile_qr_scan", "ios": "https://dc.lft.to/lastmile_qr_scan"}, "is_reserved": 0, "name": "c94d9a73e9dcdb8508cda792a7aedd9f", "lon": -77.0320895, "type": "electric_scooter", "bike_id": "c94d9a73e9dcdb8508cda792a7aedd9f", "fusion_lon": 0.0, "lat": 38.9258315, "fusion_lat": 0.0}, {"is_disabled": 0, "rental_uris": {"android": "https://dc.lft.to/lastmile_qr_scan", "ios": "https://dc.lft.to/lastmile_qr_scan"}, "is_reserved": 0, "name": "bd63baed1d52130c85530f3d5a8bc8c4", "lon": -76.98768283333334, "type": "electric_scooter", "bike_id": "bd63baed1d52130c85530f3d5a8bc8c4", "fusion_lon": 0.0, "lat": 38.844536166666664, "fusion_lat": 0.0}, {"is_disabled": 0, "rental_uris": {"android": "https://dc.lft.to/lastmile_qr_scan", "ios": "https://dc.lft.to/lastmile_qr_scan"}, "is_reserved": 0, "name": "c2a186ac33b3020bbb928be81432f158", "lon": -77.02936066666666, "type": "electric_scooter", "bike_id": "c2a186ac33b3020bbb928be81432f158", "fusion_lon": 0.0, "lat": 38.89974183333333, "fusion_lat": 0.0}, {"is_disabled": 0, "rental_uris": {"android": "https://dc.lft.to/lastmile_qr_scan", "ios": "https://dc.lft.to/lastmile_qr_scan"}, "is_reserved": 0, "name": "fc56273b702b4d484ee6d9f1bd08d6ca", "lon": -77.02727366666667, "type": "electric_scooter", "bike_id": "fc56273b702b4d484ee6d9f1bd08d6ca", "fusion_lon": 0.0, "lat": 38.940890333333336, "fusion_lat": 0.0}, {"is_disabled": 0, "rental_uris": {"android": "https://dc.lft.to/lastmile_qr_scan", "ios": "https://dc.lft.to/lastmile_qr_scan"}, "is_reserved": 0, "name": "66f03fcc23aef8493fbbb67a90f8ab3d", "lon": -76.99514566666667, "type": "electric_scooter", "bike_id": "66f03fcc23aef8493fbbb67a90f8ab3d", "fusion_lon": 0.0, "lat": 38.894844166666665, "fusion_lat": 0.0}, {"is_disabled": 0, "rental_uris": {"android": "https://dc.lft.to/lastmile_qr_scan", "ios": "https://dc.lft.to/lastmile_qr_scan"}, "is_reserved": 0, "name": "561f4949f35690e68a0f583ea9ceab90", "lon": -77.0408565, "type": "electric_scooter", "bike_id": "561f4949f35690e68a0f583ea9ceab90", "fusion_lon": 0.0, "lat": 38.9110345, "fusion_lat": 0.0}, {"is_disabled": 0, "rental_uris": {"android": "https://dc.lft.to/lastmile_qr_scan", "ios": "https://dc.lft.to/lastmile_qr_scan"}, "is_reserved": 0, "name": "459ce04d1295f4a14011499e55cb0dcc", "lon": -77.03070433333333, "type": "electric_scooter", "bike_id": "459ce04d1295f4a14011499e55cb0dcc", "fusion_lon": 0.0, "lat": 38.923869333333336, "fusion_lat": 0.0}, {"is_disabled": 0, "rental_uris": {"android": "https://dc.lft.to/lastmile_qr_scan", "ios": "https://dc.lft.to/lastmile_qr_scan"}, "is_reserved": 0, "name": "bcbaaab408c2e5f14830fd57b488f286", "lon": -77.03198416666666, "type": "electric_scooter", "bike_id": "bcbaaab408c2e5f14830fd57b488f286", "fusion_lon": 0.0, "lat": 38.919216166666665, "fusion_lat": 0.0}, {"is_disabled": 0, "rental_uris": {"android": "https://dc.lft.to/lastmile_qr_scan", "ios": "https://dc.lft.to/lastmile_qr_scan"}, "is_reserved": 0, "name": "b6cd889cb6d53cc001df3ff3fe1b0c25", "lon": -76.9970765, "type": "electric_scooter", "bike_id": "b6cd889cb6d53cc001df3ff3fe1b0c25", "fusion_lon": 0.0, "lat": 38.838668166666665, "fusion_lat": 0.0}, {"is_disabled": 0, "rental_uris": {"android": "https://dc.lft.to/lastmile_qr_scan", "ios": "https://dc.lft.to/lastmile_qr_scan"}, "is_reserved": 0, "name": "c5fbed24ef210080a85c497f29ca8b30", "lon": -77.0915835, "type": "electric_bike", "bike_id": "c5fbed24ef210080a85c497f29ca8b30", "fusion_lon": 0.0, "lat": 38.96760366666667, "fusion_lat": 0.0}, {"is_disabled": 0, "rental_uris": {"android": "https://dc.lft.to/lastmile_qr_scan", "ios": "https://dc.lft.to/lastmile_qr_scan"}, "is_reserved": 0, "name": "2cdaa3c8393d944860fe565f3010d29e", "lon": -76.98674583333333, "type": "electric_scooter", "bike_id": "2cdaa3c8393d944860fe565f3010d29e", "fusion_lon": 0.0, "lat": 38.85814666666667, "fusion_lat": 0.0}, {"is_disabled": 0, "rental_uris": {"android": "https://dc.lft.to/lastmile_qr_scan", "ios": "https://dc.lft.to/lastmile_qr_scan"}, "is_reserved": 0, "name": "8d79690b2c41ac1f2884583c7f9578de", "lon": -77.0349315, "type": "electric_scooter", "bike_id": "8d79690b2c41ac1f2884583c7f9578de", "fusion_lon": 0.0, "lat": 38.932709833333334, "fusion_lat": 0.0}, {"is_disabled": 0, "rental_uris": {"android": "https://dc.lft.to/lastmile_qr_scan", "ios": "https://dc.lft.to/lastmile_qr_scan"}, "is_reserved": 0, "name": "970b6dac14f79aca0679ec23d78ef634", "lon": -77.04655233333334, "type": "electric_scooter", "bike_id": "970b6dac14f79aca0679ec23d78ef634", "fusion_lon": 0.0, "lat": 38.89294316666667, "fusion_lat": 0.0}, {"is_disabled": 0, "rental_uris": {"android": "https://dc.lft.to/lastmile_qr_scan", "ios": "https://dc.lft.to/lastmile_qr_scan"}, "is_reserved": 0, "name": "69ca690bef59f29dde155369f79331f9", "lon": -77.03184166666666, "type": "electric_scooter", "bike_id": "69ca690bef59f29dde155369f79331f9", "fusion_lon": 0.0, "lat": 38.914035166666665, "fusion_lat": 0.0}, {"is_disabled": 0, "rental_uris": {"android": "https://dc.lft.to/lastmile_qr_scan", "ios": "https://dc.lft.to/lastmile_qr_scan"}, "is_reserved": 0, "name": "0dfdcd60d93590f1a085f15821a5710e", "lon": -77.03224583333333, "type": "electric_scooter", "bike_id": "0dfdcd60d93590f1a085f15821a5710e", "fusion_lon": 0.0, "lat": 38.90969883333333, "fusion_lat": 0.0}, {"is_disabled": 0, "rental_uris": {"android": "https://dc.lft.to/lastmile_qr_scan", "ios": "https://dc.lft.to/lastmile_qr_scan"}, "is_reserved": 0, "name": "d46c46e55ae7b528c0ede0dff05187e9", "lon": -76.94619016666667, "type": "electric_bike", "bike_id": "d46c46e55ae7b528c0ede0dff05187e9", "fusion_lon": 0.0, "lat": 38.832331, "fusion_lat": 0.0}, {"is_disabled": 0, "rental_uris": {"android": "https://dc.lft.to/lastmile_qr_scan", "ios": "https://dc.lft.to/lastmile_qr_scan"}, "is_reserved": 0, "name": "574123f82522156e43c1ed71ad2f924c", "lon": -77.0319585, "type": "electric_scooter", "bike_id": "574123f82522156e43c1ed71ad2f924c", "fusion_lon": 0.0, "lat": 38.915617166666664, "fusion_lat": 0.0}, {"is_disabled": 0, "rental_uris": {"android": "https://dc.lft.to/lastmile_qr_scan", "ios": "https://dc.lft.to/lastmile_qr_scan"}, "is_reserved": 0, "name": "6f050018b41dd29e2c41a8cd8b1559a8", "lon": -77.04173783333333, "type": "electric_scooter", "bike_id": "6f050018b41dd29e2c41a8cd8b1559a8", "fusion_lon": 0.0, "lat": 38.91552866666667, "fusion_lat": 0.0}, {"is_disabled": 0, "rental_uris": {"android": "https://dc.lft.to/lastmile_qr_scan", "ios": "https://dc.lft.to/lastmile_qr_scan"}, "is_reserved": 0, "name": "bcefa0eaec8eb934503e3535cfc7add8", "lon": -77.04167566666666, "type": "electric_scooter", "bike_id": "bcefa0eaec8eb934503e3535cfc7add8", "fusion_lon": 0.0, "lat": 38.910335833333335, "fusion_lat": 0.0}, {"is_disabled": 0, "rental_uris": {"android": "https://dc.lft.to/lastmile_qr_scan", "ios": "https://dc.lft.to/lastmile_qr_scan"}, "is_reserved": 0, "name": "3c98a22bcc002f39add8e747a9993355", "lon": -77.03519483333334, "type": "electric_scooter", "bike_id": "3c98a22bcc002f39add8e747a9993355", "fusion_lon": 0.0, "lat": 38.92731033333333, "fusion_lat": 0.0}, {"is_disabled": 0, "rental_uris": {"android": "https://dc.lft.to/lastmile_qr_scan", "ios": "https://dc.lft.to/lastmile_qr_scan"}, "is_reserved": 0, "name": "7039d5087987fce14e0385cb7aa77321", "lon": -77.12631766666667, "type": "electric_bike", "bike_id": "7039d5087987fce14e0385cb7aa77321", "fusion_lon": 0.0, "lat": 39.05812266666667, "fusion_lat": 0.0}, {"is_disabled": 0, "rental_uris": {"android": "https://dc.lft.to/lastmile_qr_scan", "ios": "https://dc.lft.to/lastmile_qr_scan"}, "is_reserved": 0, "name": "be62e51d1e083b3b707f1d22effd32b9", "lon": -77.003378, "type": "electric_scooter", "bike_id": "be62e51d1e083b3b707f1d22effd32b9", "fusion_lon": 0.0, "lat": 38.8935605, "fusion_lat": 0.0}, {"is_disabled": 0, "rental_uris": {"android": "https://dc.lft.to/lastmile_qr_scan", "ios": "https://dc.lft.to/lastmile_qr_scan"}, "is_reserved": 0, "name": "15bbb7cac9ed60b80c66deec163876ff", "lon": -77.005393, "type": "electric_scooter", "bike_id": "15bbb7cac9ed60b80c66deec163876ff", "fusion_lon": 0.0, "lat": 38.9297015, "fusion_lat": 0.0}, {"is_disabled": 0, "rental_uris": {"android": "https://dc.lft.to/lastmile_qr_scan", "ios": "https://dc.lft.to/lastmile_qr_scan"}, "is_reserved": 0, "name": "76034a82fbbc10b15e5a4f6f8e1ed161", "lon": -77.00741933333333, "type": "electric_scooter", "bike_id": "76034a82fbbc10b15e5a4f6f8e1ed161", "fusion_lon": 0.0, "lat": 38.9156255, "fusion_lat": 0.0}, {"is_disabled": 0, "rental_uris": {"android": "https://dc.lft.to/lastmile_qr_scan", "ios": "https://dc.lft.to/lastmile_qr_scan"}, "is_reserved": 0, "name": "fa25af528d84f5a5dcb19da61f8deb3c", "lon": -77.04874033333333, "type": "electric_scooter", "bike_id": "fa25af528d84f5a5dcb19da61f8deb3c", "fusion_lon": 0.0, "lat": 38.90951533333333, "fusion_lat": 0.0}, {"is_disabled": 0, "rental_uris": {"android": "https://dc.lft.to/lastmile_qr_scan", "ios": "https://dc.lft.to/lastmile_qr_scan"}, "is_reserved": 0, "name": "2159dc8270b9ac8d9c073b0162fed095", "lon": -77.0295995, "type": "electric_scooter", "bike_id": "2159dc8270b9ac8d9c073b0162fed095", "fusion_lon": 0.0, "lat": 38.89224433333333, "fusion_lat": 0.0}, {"is_disabled": 0, "rental_uris": {"android": "https://dc.lft.to/lastmile_qr_scan", "ios": "https://dc.lft.to/lastmile_qr_scan"}, "is_reserved": 0, "name": "e0cc52222a50f7bec0ef17fa3df3bd5a", "lon": -77.0265685, "type": "electric_bike", "bike_id": "e0cc52222a50f7bec0ef17fa3df3bd5a", "fusion_lon": 0.0, "lat": 38.9881815, "fusion_lat": 0.0}, {"is_disabled": 0, "rental_uris": {"android": "https://dc.lft.to/lastmile_qr_scan", "ios": "https://dc.lft.to/lastmile_qr_scan"}, "is_reserved": 0, "name": "9273fffe6066d8041cfe4bbdb3254562", "lon": -77.175329, "type": "electric_bike", "bike_id": "9273fffe6066d8041cfe4bbdb3254562", "fusion_lon": 0.0, "lat": 39.096037, "fusion_lat": 0.0}, {"is_disabled": 0, "rental_uris": {"android": "https://dc.lft.to/lastmile_qr_scan", "ios": "https://dc.lft.to/lastmile_qr_scan"}, "is_reserved": 0, "name": "5f30d7545a34ed5710c39ce3d8dd694b", "lon": -77.02123966666667, "type": "electric_scooter", "bike_id": "5f30d7545a34ed5710c39ce3d8dd694b", "fusion_lon": 0.0, "lat": 38.8874035, "fusion_lat": 0.0}, {"is_disabled": 0, "rental_uris": {"android": "https://dc.lft.to/lastmile_qr_scan", "ios": "https://dc.lft.to/lastmile_qr_scan"}, "is_reserved": 0, "name": "2e14648cbb44fb08e4cda0f1e9c0005a", "lon": -77.0222425, "type": "electric_scooter", "bike_id": "2e14648cbb44fb08e4cda0f1e9c0005a", "fusion_lon": 0.0, "lat": 38.88742516666667, "fusion_lat": 0.0}, {"is_disabled": 0, "rental_uris": {"android": "https://dc.lft.to/lastmile_qr_scan", "ios": "https://dc.lft.to/lastmile_qr_scan"}, "is_reserved": 0, "name": "bfdd51b27487bf0ca9b82e7ca63dfc26", "lon": -77.06151966666667, "type": "electric_scooter", "bike_id": "bfdd51b27487bf0ca9b82e7ca63dfc26", "fusion_lon": 0.0, "lat": 38.90520083333333, "fusion_lat": 0.0}, {"is_disabled": 0, "rental_uris": {"android": "https://dc.lft.to/lastmile_qr_scan", "ios": "https://dc.lft.to/lastmile_qr_scan"}, "is_reserved": 0, "name": "9a89fcf5f948ce23f22c49f2fee51ade", "lon": -77.032022, "type": "electric_scooter", "bike_id": "9a89fcf5f948ce23f22c49f2fee51ade", "fusion_lon": 0.0, "lat": 38.9200175, "fusion_lat": 0.0}, {"is_disabled": 0, "rental_uris": {"android": "https://dc.lft.to/lastmile_qr_scan", "ios": "https://dc.lft.to/lastmile_qr_scan"}, "is_reserved": 0, "name": "fa2c5bf8b338f2c653b1b97787d363e8", "lon": -77.0146935, "type": "electric_scooter", "bike_id": "fa2c5bf8b338f2c653b1b97787d363e8", "fusion_lon": 0.0, "lat": 38.91769033333333, "fusion_lat": 0.0}, {"is_disabled": 0, "rental_uris": {"android": "https://dc.lft.to/lastmile_qr_scan", "ios": "https://dc.lft.to/lastmile_qr_scan"}, "is_reserved": 0, "name": "f43dbda4a1138043daf1a6f7d0261f87", "lon": -77.04370166666666, "type": "electric_scooter", "bike_id": "f43dbda4a1138043daf1a6f7d0261f87", "fusion_lon": 0.0, "lat": 38.9025465, "fusion_lat": 0.0}, {"is_disabled": 0, "rental_uris": {"android": "https://dc.lft.to/lastmile_qr_scan", "ios": "https://dc.lft.to/lastmile_qr_scan"}, "is_reserved": 0, "name": "faca2b6fd946f34b0499be993de20645", "lon": -77.01536, "type": "electric_scooter", "bike_id": "faca2b6fd946f34b0499be993de20645", "fusion_lon": 0.0, "lat": 38.887387333333336, "fusion_lat": 0.0}, {"is_disabled": 0, "rental_uris": {"android": "https://dc.lft.to/lastmile_qr_scan", "ios": "https://dc.lft.to/lastmile_qr_scan"}, "is_reserved": 0, "name": "10031eb331a1fc282e69362e03122ff9", "lon": -77.0071515, "type": "electric_scooter", "bike_id": "10031eb331a1fc282e69362e03122ff9", "fusion_lon": 0.0, "lat": 38.88493866666666, "fusion_lat": 0.0}, {"is_disabled": 0, "rental_uris": {"android": "https://dc.lft.to/lastmile_qr_scan", "ios": "https://dc.lft.to/lastmile_qr_scan"}, "is_reserved": 0, "name": "ced8492e213e43a8fa41687832835a23", "lon": -77.01508166666666, "type": "electric_scooter", "bike_id": "ced8492e213e43a8fa41687832835a23", "fusion_lon": 0.0, "lat": 38.87265466666667, "fusion_lat": 0.0}, {"is_disabled": 0, "rental_uris": {"android": "https://dc.lft.to/lastmile_qr_scan", "ios": "https://dc.lft.to/lastmile_qr_scan"}, "is_reserved": 0, "name": "30dd38ea84abd7718f57fc43c2d67bcf", "lon": -77.01109016666666, "type": "electric_scooter", "bike_id": "30dd38ea84abd7718f57fc43c2d67bcf", "fusion_lon": 0.0, "lat": 38.909701166666665, "fusion_lat": 0.0}, {"is_disabled": 0, "rental_uris": {"android": "https://dc.lft.to/lastmile_qr_scan", "ios": "https://dc.lft.to/lastmile_qr_scan"}, "is_reserved": 0, "name": "f9221e31afe1cfda7cada6b301e20e71", "lon": -76.983607, "type": "electric_scooter", "bike_id": "f9221e31afe1cfda7cada6b301e20e71", "fusion_lon": 0.0, "lat": 38.9155185, "fusion_lat": 0.0}, {"is_disabled": 0, "rental_uris": {"android": "https://dc.lft.to/lastmile_qr_scan", "ios": "https://dc.lft.to/lastmile_qr_scan"}, "is_reserved": 0, "name": "d38776fb11016d1b061d3564c41342eb", "lon": -77.03987433333333, "type": "electric_bike", "bike_id": "d38776fb11016d1b061d3564c41342eb", "fusion_lon": 0.0, "lat": 38.80295316666667, "fusion_lat": 0.0}, {"is_disabled": 0, "rental_uris": {"android": "https://dc.lft.to/lastmile_qr_scan", "ios": "https://dc.lft.to/lastmile_qr_scan"}, "is_reserved": 0, "name": "9d3c69413a0b92a45d8d1fa3069d5bfc", "lon": -77.0314965, "type": "electric_scooter", "bike_id": "9d3c69413a0b92a45d8d1fa3069d5bfc", "fusion_lon": 0.0, "lat": 38.92488183333333, "fusion_lat": 0.0}, {"is_disabled": 0, "rental_uris": {"android": "https://dc.lft.to/lastmile_qr_scan", "ios": "https://dc.lft.to/lastmile_qr_scan"}, "is_reserved": 0, "name": "9ff44f508ca415019171de2a09636793", "lon": -77.04071066666667, "type": "electric_scooter", "bike_id": "9ff44f508ca415019171de2a09636793", "fusion_lon": 0.0, "lat": 38.900218833333334, "fusion_lat": 0.0}, {"is_disabled": 0, "rental_uris": {"android": "https://dc.lft.to/lastmile_qr_scan", "ios": "https://dc.lft.to/lastmile_qr_scan"}, "is_reserved": 0, "name": "4a6449a0dd80e9cd31da776c3b65995c", "lon": -77.03661983333333, "type": "electric_scooter", "bike_id": "4a6449a0dd80e9cd31da776c3b65995c", "fusion_lon": 0.0, "lat": 38.912438333333334, "fusion_lat": 0.0}, {"is_disabled": 0, "rental_uris": {"android": "https://dc.lft.to/lastmile_qr_scan", "ios": "https://dc.lft.to/lastmile_qr_scan"}, "is_reserved": 0, "name": "f80518b6b125fa3193467f26673f5bcb", "lon": -76.99535116666667, "type": "electric_scooter", "bike_id": "f80518b6b125fa3193467f26673f5bcb", "fusion_lon": 0.0, "lat": 38.8625435, "fusion_lat": 0.0}, {"is_disabled": 0, "rental_uris": {"android": "https://dc.lft.to/lastmile_qr_scan", "ios": "https://dc.lft.to/lastmile_qr_scan"}, "is_reserved": 0, "name": "2ebc7388240ede84b91e3fb30ce74fb0", "lon": -77.039929, "type": "electric_scooter", "bike_id": "2ebc7388240ede84b91e3fb30ce74fb0", "fusion_lon": 0.0, "lat": 38.907299, "fusion_lat": 0.0}, {"is_disabled": 0, "rental_uris": {"android": "https://dc.lft.to/lastmile_qr_scan", "ios": "https://dc.lft.to/lastmile_qr_scan"}, "is_reserved": 0, "name": "afd1b5b8f29ce07c3d56303f6b488fef", "lon": -77.02222433333333, "type": "electric_scooter", "bike_id": "afd1b5b8f29ce07c3d56303f6b488fef", "fusion_lon": 0.0, "lat": 38.912705, "fusion_lat": 0.0}, {"is_disabled": 0, "rental_uris": {"android": "https://dc.lft.to/lastmile_qr_scan", "ios": "https://dc.lft.to/lastmile_qr_scan"}, "is_reserved": 0, "name": "52fac3eaacda245c230036f8fdf75b8a", "lon": -77.0957845, "type": "electric_bike", "bike_id": "52fac3eaacda245c230036f8fdf75b8a", "fusion_lon": 0.0, "lat": 38.91675016666667, "fusion_lat": 0.0}, {"is_disabled": 0, "rental_uris": {"android": "https://dc.lft.to/lastmile_qr_scan", "ios": "https://dc.lft.to/lastmile_qr_scan"}, "is_reserved": 0, "name": "9c0d03c5d60ec3482526bc580637825e", "lon": -77.0299545, "type": "electric_scooter", "bike_id": "9c0d03c5d60ec3482526bc580637825e", "fusion_lon": 0.0, "lat": 38.924767, "fusion_lat": 0.0}, {"is_disabled": 0, "rental_uris": {"android": "https://dc.lft.to/lastmile_qr_scan", "ios": "https://dc.lft.to/lastmile_qr_scan"}, "is_reserved": 0, "name": "c793424ac39a32cb64b5e4b566631fa1", "lon": -77.0177465, "type": "electric_scooter", "bike_id": "c793424ac39a32cb64b5e4b566631fa1", "fusion_lon": 0.0, "lat": 38.883207666666664, "fusion_lat": 0.0}, {"is_disabled": 0, "rental_uris": {"android": "https://dc.lft.to/lastmile_qr_scan", "ios": "https://dc.lft.to/lastmile_qr_scan"}, "is_reserved": 0, "name": "c31819f518a27b91f8f80321ffde9272", "lon": -77.02206333333334, "type": "electric_scooter", "bike_id": "c31819f518a27b91f8f80321ffde9272", "fusion_lon": 0.0, "lat": 38.901574, "fusion_lat": 0.0}, {"is_disabled": 0, "rental_uris": {"android": "https://dc.lft.to/lastmile_qr_scan", "ios": "https://dc.lft.to/lastmile_qr_scan"}, "is_reserved": 0, "name": "87c38e00c2207e23531cbef46fff3ed1", "lon": -77.04144116666667, "type": "electric_scooter", "bike_id": "87c38e00c2207e23531cbef46fff3ed1", "fusion_lon": 0.0, "lat": 38.9065005, "fusion_lat": 0.0}, {"is_disabled": 0, "rental_uris": {"android": "https://dc.lft.to/lastmile_qr_scan", "ios": "https://dc.lft.to/lastmile_qr_scan"}, "is_reserved": 0, "name": "35a70e412d3a63e5e5e7f8f121cf3af5", "lon": -77.070838, "type": "electric_scooter", "bike_id": "35a70e412d3a63e5e5e7f8f121cf3af5", "fusion_lon": 0.0, "lat": 38.939062, "fusion_lat": 0.0}, {"is_disabled": 0, "rental_uris": {"android": "https://dc.lft.to/lastmile_qr_scan", "ios": "https://dc.lft.to/lastmile_qr_scan"}, "is_reserved": 0, "name": "18797793a173872be2eb1f1689ea5ed2", "lon": -76.99609583333333, "type": "electric_scooter", "bike_id": "18797793a173872be2eb1f1689ea5ed2", "fusion_lon": 0.0, "lat": 38.8646175, "fusion_lat": 0.0}, {"is_disabled": 0, "rental_uris": {"android": "https://dc.lft.to/lastmile_qr_scan", "ios": "https://dc.lft.to/lastmile_qr_scan"}, "is_reserved": 0, "name": "bf44f924dc77241146643c20f920636b", "lon": -77.042789, "type": "electric_scooter", "bike_id": "bf44f924dc77241146643c20f920636b", "fusion_lon": 0.0, "lat": 38.91033633333333, "fusion_lat": 0.0}, {"is_disabled": 0, "rental_uris": {"android": "https://dc.lft.to/lastmile_qr_scan", "ios": "https://dc.lft.to/lastmile_qr_scan"}, "is_reserved": 0, "name": "952b84cd4d8e4876e09e498a6cf5db59", "lon": -77.02059933333334, "type": "electric_scooter", "bike_id": "952b84cd4d8e4876e09e498a6cf5db59", "fusion_lon": 0.0, "lat": 38.8848505, "fusion_lat": 0.0}, {"is_disabled": 0, "rental_uris": {"android": "https://dc.lft.to/lastmile_qr_scan", "ios": "https://dc.lft.to/lastmile_qr_scan"}, "is_reserved": 0, "name": "efcfe6c16690f91c7886924e3ff2e2f8", "lon": -77.0052885, "type": "electric_scooter", "bike_id": "efcfe6c16690f91c7886924e3ff2e2f8", "fusion_lon": 0.0, "lat": 38.874689000000004, "fusion_lat": 0.0}, {"is_disabled": 0, "rental_uris": {"android": "https://dc.lft.to/lastmile_qr_scan", "ios": "https://dc.lft.to/lastmile_qr_scan"}, "is_reserved": 0, "name": "c0b88b11824a5452dda4551555ac08f9", "lon": -76.9811365, "type": "electric_scooter", "bike_id": "c0b88b11824a5452dda4551555ac08f9", "fusion_lon": 0.0, "lat": 38.89609816666667, "fusion_lat": 0.0}, {"is_disabled": 0, "rental_uris": {"android": "https://dc.lft.to/lastmile_qr_scan", "ios": "https://dc.lft.to/lastmile_qr_scan"}, "is_reserved": 0, "name": "e1a2ef70b8557486d53003985c38c3c9", "lon": -77.00333883333333, "type": "electric_scooter", "bike_id": "e1a2ef70b8557486d53003985c38c3c9", "fusion_lon": 0.0, "lat": 38.8898395, "fusion_lat": 0.0}, {"is_disabled": 0, "rental_uris": {"android": "https://dc.lft.to/lastmile_qr_scan", "ios": "https://dc.lft.to/lastmile_qr_scan"}, "is_reserved": 0, "name": "f4b8232e7995ac8f3cb013b9b4dc6a0e", "lon": -77.0317935, "type": "electric_scooter", "bike_id": "f4b8232e7995ac8f3cb013b9b4dc6a0e", "fusion_lon": 0.0, "lat": 38.910005, "fusion_lat": 0.0}, {"is_disabled": 0, "rental_uris": {"android": "https://dc.lft.to/lastmile_qr_scan", "ios": "https://dc.lft.to/lastmile_qr_scan"}, "is_reserved": 0, "name": "3f959a279398a00096ddcd11c67d4679", "lon": -77.01392533333333, "type": "electric_scooter", "bike_id": "3f959a279398a00096ddcd11c67d4679", "fusion_lon": 0.0, "lat": 38.88032716666667, "fusion_lat": 0.0}, {"is_disabled": 0, "rental_uris": {"android": "https://dc.lft.to/lastmile_qr_scan", "ios": "https://dc.lft.to/lastmile_qr_scan"}, "is_reserved": 0, "name": "6d989b07c85235623b44f6771ebe9adb", "lon": -77.01902566666666, "type": "electric_scooter", "bike_id": "6d989b07c85235623b44f6771ebe9adb", "fusion_lon": 0.0, "lat": 38.91195583333333, "fusion_lat": 0.0}, {"is_disabled": 0, "rental_uris": {"android": "https://dc.lft.to/lastmile_qr_scan", "ios": "https://dc.lft.to/lastmile_qr_scan"}, "is_reserved": 0, "name": "032213d4d28c1bb08cb389c47f5d498e", "lon": -77.03814916666667, "type": "electric_scooter", "bike_id": "032213d4d28c1bb08cb389c47f5d498e", "fusion_lon": 0.0, "lat": 38.915032, "fusion_lat": 0.0}, {"is_disabled": 0, "rental_uris": {"android": "https://dc.lft.to/lastmile_qr_scan", "ios": "https://dc.lft.to/lastmile_qr_scan"}, "is_reserved": 0, "name": "faa05b19db1be703ba05209222cec15c", "lon": -77.03515283333333, "type": "electric_scooter", "bike_id": "faa05b19db1be703ba05209222cec15c", "fusion_lon": 0.0, "lat": 38.921409, "fusion_lat": 0.0}, {"is_disabled": 0, "rental_uris": {"android": "https://dc.lft.to/lastmile_qr_scan", "ios": "https://dc.lft.to/lastmile_qr_scan"}, "is_reserved": 0, "name": "de991d2a3ef91c6a4d5449c33051500f", "lon": -77.01769183333333, "type": "electric_scooter", "bike_id": "de991d2a3ef91c6a4d5449c33051500f", "fusion_lon": 0.0, "lat": 38.877164, "fusion_lat": 0.0}, {"is_disabled": 0, "rental_uris": {"android": "https://dc.lft.to/lastmile_qr_scan", "ios": "https://dc.lft.to/lastmile_qr_scan"}, "is_reserved": 0, "name": "584460ac8535f3d4156bb76cdba939ce", "lon": -77.02793016666666, "type": "electric_scooter", "bike_id": "584460ac8535f3d4156bb76cdba939ce", "fusion_lon": 0.0, "lat": 38.9620105, "fusion_lat": 0.0}, {"is_disabled": 0, "rental_uris": {"android": "https://dc.lft.to/lastmile_qr_scan", "ios": "https://dc.lft.to/lastmile_qr_scan"}, "is_reserved": 0, "name": "e3491c5b29c4eea722209acb25b7aecc", "lon": -77.0489985, "type": "electric_bike", "bike_id": "e3491c5b29c4eea722209acb25b7aecc", "fusion_lon": 0.0, "lat": 38.874941666666665, "fusion_lat": 0.0}, {"is_disabled": 0, "rental_uris": {"android": "https://dc.lft.to/lastmile_qr_scan", "ios": "https://dc.lft.to/lastmile_qr_scan"}, "is_reserved": 0, "name": "f9a8185e754fad5e81fc2846864d86b4", "lon": -77.04207166666667, "type": "electric_scooter", "bike_id": "f9a8185e754fad5e81fc2846864d86b4", "fusion_lon": 0.0, "lat": 38.9112095, "fusion_lat": 0.0}, {"is_disabled": 0, "rental_uris": {"android": "https://dc.lft.to/lastmile_qr_scan", "ios": "https://dc.lft.to/lastmile_qr_scan"}, "is_reserved": 0, "name": "5c94796b026b3304f8d02173722d87d7", "lon": -77.01411566666667, "type": "electric_scooter", "bike_id": "5c94796b026b3304f8d02173722d87d7", "fusion_lon": 0.0, "lat": 38.92822, "fusion_lat": 0.0}, {"is_disabled": 0, "rental_uris": {"android": "https://dc.lft.to/lastmile_qr_scan", "ios": "https://dc.lft.to/lastmile_qr_scan"}, "is_reserved": 0, "name": "01246e598968bf182ef19023edeb2995", "lon": -77.04176733333334, "type": "electric_scooter", "bike_id": "01246e598968bf182ef19023edeb2995", "fusion_lon": 0.0, "lat": 38.915558833333336, "fusion_lat": 0.0}, {"is_disabled": 0, "rental_uris": {"android": "https://dc.lft.to/lastmile_qr_scan", "ios": "https://dc.lft.to/lastmile_qr_scan"}, "is_reserved": 0, "name": "e247e97312d962e830add5d4b98033be", "lon": -76.87496716666666, "type": "electric_bike", "bike_id": "e247e97312d962e830add5d4b98033be", "fusion_lon": 0.0, "lat": 38.99088916666667, "fusion_lat": 0.0}, {"is_disabled": 0, "rental_uris": {"android": "https://dc.lft.to/lastmile_qr_scan", "ios": "https://dc.lft.to/lastmile_qr_scan"}, "is_reserved": 0, "name": "a39936c08d332d530558a24dcb6d5c9f", "lon": -77.03875533333333, "type": "electric_scooter", "bike_id": "a39936c08d332d530558a24dcb6d5c9f", "fusion_lon": 0.0, "lat": 38.92153116666667, "fusion_lat": 0.0}, {"is_disabled": 0, "rental_uris": {"android": "https://dc.lft.to/lastmile_qr_scan", "ios": "https://dc.lft.to/lastmile_qr_scan"}, "is_reserved": 0, "name": "c2a60ef186fe961391c84e95649621f6", "lon": -77.00524666666666, "type": "electric_scooter", "bike_id": "c2a60ef186fe961391c84e95649621f6", "fusion_lon": 0.0, "lat": 38.8804845, "fusion_lat": 0.0}, {"is_disabled": 0, "rental_uris": {"android": "https://dc.lft.to/lastmile_qr_scan", "ios": "https://dc.lft.to/lastmile_qr_scan"}, "is_reserved": 0, "name": "7bbcb07c7758650c5df0cf435cd802d6", "lon": -77.03206083333333, "type": "electric_scooter", "bike_id": "7bbcb07c7758650c5df0cf435cd802d6", "fusion_lon": 0.0, "lat": 38.918102, "fusion_lat": 0.0}, {"is_disabled": 0, "rental_uris": {"android": "https://dc.lft.to/lastmile_qr_scan", "ios": "https://dc.lft.to/lastmile_qr_scan"}, "is_reserved": 0, "name": "1074ec8e0fb630afe4170b487a74d8a2", "lon": -77.027256, "type": "electric_scooter", "bike_id": "1074ec8e0fb630afe4170b487a74d8a2", "fusion_lon": 0.0, "lat": 38.903485, "fusion_lat": 0.0}, {"is_disabled": 0, "rental_uris": {"android": "https://dc.lft.to/lastmile_qr_scan", "ios": "https://dc.lft.to/lastmile_qr_scan"}, "is_reserved": 0, "name": "8405b4d0bc30be0a5d08867193d4cd42", "lon": -77.04876866666666, "type": "electric_scooter", "bike_id": "8405b4d0bc30be0a5d08867193d4cd42", "fusion_lon": 0.0, "lat": 38.91022433333333, "fusion_lat": 0.0}, {"is_disabled": 0, "rental_uris": {"android": "https://dc.lft.to/lastmile_qr_scan", "ios": "https://dc.lft.to/lastmile_qr_scan"}, "is_reserved": 0, "name": "bc58bd3a5151a9fb379a8ede72aa22dd", "lon": -77.100289, "type": "electric_bike", "bike_id": "bc58bd3a5151a9fb379a8ede72aa22dd", "fusion_lon": 0.0, "lat": 38.99062966666666, "fusion_lat": 0.0}, {"is_disabled": 0, "rental_uris": {"android": "https://dc.lft.to/lastmile_qr_scan", "ios": "https://dc.lft.to/lastmile_qr_scan"}, "is_reserved": 0, "name": "7f3171722b8aee92cf9e0d8ce6d8a449", "lon": -77.05502866666667, "type": "electric_scooter", "bike_id": "7f3171722b8aee92cf9e0d8ce6d8a449", "fusion_lon": 0.0, "lat": 38.92979866666667, "fusion_lat": 0.0}, {"is_disabled": 0, "rental_uris": {"android": "https://dc.lft.to/lastmile_qr_scan", "ios": "https://dc.lft.to/lastmile_qr_scan"}, "is_reserved": 0, "name": "2f3c1fa1c4338ee9c4190f7d38abf259", "lon": -77.02816633333333, "type": "electric_scooter", "bike_id": "2f3c1fa1c4338ee9c4190f7d38abf259", "fusion_lon": 0.0, "lat": 38.904628333333335, "fusion_lat": 0.0}, {"is_disabled": 0, "rental_uris": {"android": "https://dc.lft.to/lastmile_qr_scan", "ios": "https://dc.lft.to/lastmile_qr_scan"}, "is_reserved": 0, "name": "b2df56f9a3c3023c4d29d75dcb2f88c4", "lon": -77.02158316666667, "type": "electric_scooter", "bike_id": "b2df56f9a3c3023c4d29d75dcb2f88c4", "fusion_lon": 0.0, "lat": 38.926046166666666, "fusion_lat": 0.0}, {"is_disabled": 0, "rental_uris": {"android": "https://dc.lft.to/lastmile_qr_scan", "ios": "https://dc.lft.to/lastmile_qr_scan"}, "is_reserved": 0, "name": "4a2769cf7f1a88940f2de8f61da5aded", "lon": -77.00328866666666, "type": "electric_scooter", "bike_id": "4a2769cf7f1a88940f2de8f61da5aded", "fusion_lon": 0.0, "lat": 38.889889833333335, "fusion_lat": 0.0}, {"is_disabled": 0, "rental_uris": {"android": "https://dc.lft.to/lastmile_qr_scan", "ios": "https://dc.lft.to/lastmile_qr_scan"}, "is_reserved": 0, "name": "84c51dc960aa9d246cb99e7667fcd576", "lon": -77.04179066666667, "type": "electric_scooter", "bike_id": "84c51dc960aa9d246cb99e7667fcd576", "fusion_lon": 0.0, "lat": 38.9141345, "fusion_lat": 0.0}, {"is_disabled": 0, "rental_uris": {"android": "https://dc.lft.to/lastmile_qr_scan", "ios": "https://dc.lft.to/lastmile_qr_scan"}, "is_reserved": 0, "name": "90096fd49818d4feb05b754de4b49b0f", "lon": -76.9750265, "type": "electric_bike", "bike_id": "90096fd49818d4feb05b754de4b49b0f", "fusion_lon": 0.0, "lat": 38.919366, "fusion_lat": 0.0}, {"is_disabled": 0, "rental_uris": {"android": "https://dc.lft.to/lastmile_qr_scan", "ios": "https://dc.lft.to/lastmile_qr_scan"}, "is_reserved": 0, "name": "d9ec076b5831e0e1f39abd6be1b31210", "lon": -77.00944316666667, "type": "electric_scooter", "bike_id": "d9ec076b5831e0e1f39abd6be1b31210", "fusion_lon": 0.0, "lat": 38.894984666666666, "fusion_lat": 0.0}, {"is_disabled": 0, "rental_uris": {"android": "https://dc.lft.to/lastmile_qr_scan", "ios": "https://dc.lft.to/lastmile_qr_scan"}, "is_reserved": 0, "name": "3a96c25bc0d171dcd5383c4293fe4338", "lon": -76.9482645, "type": "electric_scooter", "bike_id": "3a96c25bc0d171dcd5383c4293fe4338", "fusion_lon": 0.0, "lat": 38.88517566666667, "fusion_lat": 0.0}, {"is_disabled": 0, "rental_uris": {"android": "https://dc.lft.to/lastmile_qr_scan", "ios": "https://dc.lft.to/lastmile_qr_scan"}, "is_reserved": 0, "name": "11175f1402895eff4976b2740c135331", "lon": -77.04282933333333, "type": "electric_scooter", "bike_id": "11175f1402895eff4976b2740c135331", "fusion_lon": 0.0, "lat": 38.91711516666667, "fusion_lat": 0.0}, {"is_disabled": 0, "rental_uris": {"android": "https://dc.lft.to/lastmile_qr_scan", "ios": "https://dc.lft.to/lastmile_qr_scan"}, "is_reserved": 0, "name": "ea2eb2a3c876c22e3e96b6c47173a8e2", "lon": -76.97905883333334, "type": "electric_scooter", "bike_id": "ea2eb2a3c876c22e3e96b6c47173a8e2", "fusion_lon": 0.0, "lat": 38.90427066666667, "fusion_lat": 0.0}, {"is_disabled": 0, "rental_uris": {"android": "https://dc.lft.to/lastmile_qr_scan", "ios": "https://dc.lft.to/lastmile_qr_scan"}, "is_reserved": 0, "name": "fbd5e2aa49ad3f0170e6a6dd0bf6466e", "lon": -77.0843425, "type": "electric_bike", "bike_id": "fbd5e2aa49ad3f0170e6a6dd0bf6466e", "fusion_lon": 0.0, "lat": 38.8102425, "fusion_lat": 0.0}, {"is_disabled": 0, "rental_uris": {"android": "https://dc.lft.to/lastmile_qr_scan", "ios": "https://dc.lft.to/lastmile_qr_scan"}, "is_reserved": 0, "name": "288f0780178ff1acc924e0159e37e48d", "lon": -77.027629, "type": "electric_scooter", "bike_id": "288f0780178ff1acc924e0159e37e48d", "fusion_lon": 0.0, "lat": 38.9429545, "fusion_lat": 0.0}, {"is_disabled": 0, "rental_uris": {"android": "https://dc.lft.to/lastmile_qr_scan", "ios": "https://dc.lft.to/lastmile_qr_scan"}, "is_reserved": 0, "name": "e9d360a370b4344e9f3cf2b97ccd5ba3", "lon": -77.00221316666666, "type": "electric_scooter", "bike_id": "e9d360a370b4344e9f3cf2b97ccd5ba3", "fusion_lon": 0.0, "lat": 38.91337033333333, "fusion_lat": 0.0}, {"is_disabled": 0, "rental_uris": {"android": "https://dc.lft.to/lastmile_qr_scan", "ios": "https://dc.lft.to/lastmile_qr_scan"}, "is_reserved": 0, "name": "300502473c9936beb8535f4bf6e24517", "lon": -77.02334683333333, "type": "electric_scooter", "bike_id": "300502473c9936beb8535f4bf6e24517", "fusion_lon": 0.0, "lat": 38.922308666666666, "fusion_lat": 0.0}, {"is_disabled": 0, "rental_uris": {"android": "https://dc.lft.to/lastmile_qr_scan", "ios": "https://dc.lft.to/lastmile_qr_scan"}, "is_reserved": 0, "name": "1bcf30035c4169022ed54e55a10b2ac3", "lon": -77.03735083333333, "type": "electric_scooter", "bike_id": "1bcf30035c4169022ed54e55a10b2ac3", "fusion_lon": 0.0, "lat": 38.90671183333333, "fusion_lat": 0.0}, {"is_disabled": 0, "rental_uris": {"android": "https://dc.lft.to/lastmile_qr_scan", "ios": "https://dc.lft.to/lastmile_qr_scan"}, "is_reserved": 0, "name": "69308d62c4c90fb36c6b911b4d9c635e", "lon": -76.99028416666667, "type": "electric_scooter", "bike_id": "69308d62c4c90fb36c6b911b4d9c635e", "fusion_lon": 0.0, "lat": 38.8987625, "fusion_lat": 0.0}, {"is_disabled": 0, "rental_uris": {"android": "https://dc.lft.to/lastmile_qr_scan", "ios": "https://dc.lft.to/lastmile_qr_scan"}, "is_reserved": 0, "name": "e87a09e2904762f1ede1a51080d9d1af", "lon": -77.05510166666667, "type": "electric_scooter", "bike_id": "e87a09e2904762f1ede1a51080d9d1af", "fusion_lon": 0.0, "lat": 38.900004333333335, "fusion_lat": 0.0}, {"is_disabled": 0, "rental_uris": {"android": "https://dc.lft.to/lastmile_qr_scan", "ios": "https://dc.lft.to/lastmile_qr_scan"}, "is_reserved": 0, "name": "c98196601a344e7ebaa8ca017121c0ce", "lon": -77.0385645, "type": "electric_scooter", "bike_id": "c98196601a344e7ebaa8ca017121c0ce", "fusion_lon": 0.0, "lat": 38.92652416666667, "fusion_lat": 0.0}, {"is_disabled": 0, "rental_uris": {"android": "https://dc.lft.to/lastmile_qr_scan", "ios": "https://dc.lft.to/lastmile_qr_scan"}, "is_reserved": 0, "name": "58cf18b10df9d97675189c817944c181", "lon": -77.00911383333333, "type": "electric_scooter", "bike_id": "58cf18b10df9d97675189c817944c181", "fusion_lon": 0.0, "lat": 38.895568833333336, "fusion_lat": 0.0}, {"is_disabled": 0, "rental_uris": {"android": "https://dc.lft.to/lastmile_qr_scan", "ios": "https://dc.lft.to/lastmile_qr_scan"}, "is_reserved": 0, "name": "98d1a2c1a7ed166e1f9e3498cf1497bf", "lon": -76.96530216666666, "type": "electric_scooter", "bike_id": "98d1a2c1a7ed166e1f9e3498cf1497bf", "fusion_lon": 0.0, "lat": 38.8763215, "fusion_lat": 0.0}, {"is_disabled": 0, "rental_uris": {"android": "https://dc.lft.to/lastmile_qr_scan", "ios": "https://dc.lft.to/lastmile_qr_scan"}, "is_reserved": 0, "name": "8a2cc8bb562dead81fa8db6a1d1988ee", "lon": -77.02498116666666, "type": "electric_scooter", "bike_id": "8a2cc8bb562dead81fa8db6a1d1988ee", "fusion_lon": 0.0, "lat": 38.91940133333333, "fusion_lat": 0.0}, {"is_disabled": 0, "rental_uris": {"android": "https://dc.lft.to/lastmile_qr_scan", "ios": "https://dc.lft.to/lastmile_qr_scan"}, "is_reserved": 0, "name": "7f2036a7a7530c8510d5afdd0a8d0980", "lon": -77.03201566666667, "type": "electric_bike", "bike_id": "7f2036a7a7530c8510d5afdd0a8d0980", "fusion_lon": 0.0, "lat": 38.920072, "fusion_lat": 0.0}, {"is_disabled": 0, "rental_uris": {"android": "https://dc.lft.to/lastmile_qr_scan", "ios": "https://dc.lft.to/lastmile_qr_scan"}, "is_reserved": 0, "name": "115877e471c591ae8c8082f36e779b42", "lon": -76.99003516666667, "type": "electric_scooter", "bike_id": "115877e471c591ae8c8082f36e779b42", "fusion_lon": 0.0, "lat": 38.86505533333333, "fusion_lat": 0.0}, {"is_disabled": 0, "rental_uris": {"android": "https://dc.lft.to/lastmile_qr_scan", "ios": "https://dc.lft.to/lastmile_qr_scan"}, "is_reserved": 0, "name": "b0619ccd71b149e97de86e855d5ed330", "lon": -77.02843133333333, "type": "electric_scooter", "bike_id": "b0619ccd71b149e97de86e855d5ed330", "fusion_lon": 0.0, "lat": 38.922422166666664, "fusion_lat": 0.0}, {"is_disabled": 0, "rental_uris": {"android": "https://dc.lft.to/lastmile_qr_scan", "ios": "https://dc.lft.to/lastmile_qr_scan"}, "is_reserved": 0, "name": "9a4a08617a488948bbd73feddc2d2e62", "lon": -77.01250466666667, "type": "electric_scooter", "bike_id": "9a4a08617a488948bbd73feddc2d2e62", "fusion_lon": 0.0, "lat": 38.9085115, "fusion_lat": 0.0}, {"is_disabled": 0, "rental_uris": {"android": "https://dc.lft.to/lastmile_qr_scan", "ios": "https://dc.lft.to/lastmile_qr_scan"}, "is_reserved": 0, "name": "a7a8aff5ac1a21e56288d4ddc4a02ca2", "lon": -77.02970333333333, "type": "electric_scooter", "bike_id": "a7a8aff5ac1a21e56288d4ddc4a02ca2", "fusion_lon": 0.0, "lat": 38.9072445, "fusion_lat": 0.0}, {"is_disabled": 0, "rental_uris": {"android": "https://dc.lft.to/lastmile_qr_scan", "ios": "https://dc.lft.to/lastmile_qr_scan"}, "is_reserved": 0, "name": "ccc019af1d958c9f6709800b116aafab", "lon": -77.0305455, "type": "electric_scooter", "bike_id": "ccc019af1d958c9f6709800b116aafab", "fusion_lon": 0.0, "lat": 38.89968366666667, "fusion_lat": 0.0}, {"is_disabled": 0, "rental_uris": {"android": "https://dc.lft.to/lastmile_qr_scan", "ios": "https://dc.lft.to/lastmile_qr_scan"}, "is_reserved": 0, "name": "d1a448c3baee8bcbf9d5653cd5dc6599", "lon": -77.0237145, "type": "electric_scooter", "bike_id": "d1a448c3baee8bcbf9d5653cd5dc6599", "fusion_lon": 0.0, "lat": 38.932555666666666, "fusion_lat": 0.0}, {"is_disabled": 0, "rental_uris": {"android": "https://dc.lft.to/lastmile_qr_scan", "ios": "https://dc.lft.to/lastmile_qr_scan"}, "is_reserved": 0, "name": "cc8f7e7612f46518041bdf4f662944e8", "lon": -76.98332683333334, "type": "electric_bike", "bike_id": "cc8f7e7612f46518041bdf4f662944e8", "fusion_lon": 0.0, "lat": 38.96601966666667, "fusion_lat": 0.0}, {"is_disabled": 0, "rental_uris": {"android": "https://dc.lft.to/lastmile_qr_scan", "ios": "https://dc.lft.to/lastmile_qr_scan"}, "is_reserved": 0, "name": "0fa939e17717d2e93f217223be0673c3", "lon": -76.93359433333333, "type": "electric_scooter", "bike_id": "0fa939e17717d2e93f217223be0673c3", "fusion_lon": 0.0, "lat": 38.8992645, "fusion_lat": 0.0}, {"is_disabled": 0, "rental_uris": {"android": "https://dc.lft.to/lastmile_qr_scan", "ios": "https://dc.lft.to/lastmile_qr_scan"}, "is_reserved": 0, "name": "6d14c1ce44737ad67c58bc9f07728431", "lon": -77.00882533333333, "type": "electric_scooter", "bike_id": "6d14c1ce44737ad67c58bc9f07728431", "fusion_lon": 0.0, "lat": 38.90581133333333, "fusion_lat": 0.0}, {"is_disabled": 0, "rental_uris": {"android": "https://dc.lft.to/lastmile_qr_scan", "ios": "https://dc.lft.to/lastmile_qr_scan"}, "is_reserved": 0, "name": "a43f9b7e950b84eee388a8ced9822174", "lon": -77.0150745, "type": "electric_scooter", "bike_id": "a43f9b7e950b84eee388a8ced9822174", "fusion_lon": 0.0, "lat": 38.910015666666666, "fusion_lat": 0.0}, {"is_disabled": 0, "rental_uris": {"android": "https://dc.lft.to/lastmile_qr_scan", "ios": "https://dc.lft.to/lastmile_qr_scan"}, "is_reserved": 0, "name": "bcce634e7a882e11c69271d7961b8f9b", "lon": -77.04581333333333, "type": "electric_scooter", "bike_id": "bcce634e7a882e11c69271d7961b8f9b", "fusion_lon": 0.0, "lat": 38.92416466666667, "fusion_lat": 0.0}, {"is_disabled": 0, "rental_uris": {"android": "https://dc.lft.to/lastmile_qr_scan", "ios": "https://dc.lft.to/lastmile_qr_scan"}, "is_reserved": 0, "name": "ee7bf88cfe343f19f2dbaeb254298da8", "lon": -77.03850033333333, "type": "electric_scooter", "bike_id": "ee7bf88cfe343f19f2dbaeb254298da8", "fusion_lon": 0.0, "lat": 38.9146955, "fusion_lat": 0.0}, {"is_disabled": 0, "rental_uris": {"android": "https://dc.lft.to/lastmile_qr_scan", "ios": "https://dc.lft.to/lastmile_qr_scan"}, "is_reserved": 0, "name": "75b9973455e4cd239e1c164658550f00", "lon": -77.03438983333334, "type": "electric_scooter", "bike_id": "75b9973455e4cd239e1c164658550f00", "fusion_lon": 0.0, "lat": 38.909750833333334, "fusion_lat": 0.0}, {"is_disabled": 0, "rental_uris": {"android": "https://dc.lft.to/lastmile_qr_scan", "ios": "https://dc.lft.to/lastmile_qr_scan"}, "is_reserved": 0, "name": "e0adcb70b64d93033f21681ac8f1b53d", "lon": -77.0413195, "type": "electric_bike", "bike_id": "e0adcb70b64d93033f21681ac8f1b53d", "fusion_lon": 0.0, "lat": 38.943965166666665, "fusion_lat": 0.0}, {"is_disabled": 0, "rental_uris": {"android": "https://dc.lft.to/lastmile_qr_scan", "ios": "https://dc.lft.to/lastmile_qr_scan"}, "is_reserved": 0, "name": "4874399b2e44956097a8e26e5887f864", "lon": -77.033618, "type": "electric_scooter", "bike_id": "4874399b2e44956097a8e26e5887f864", "fusion_lon": 0.0, "lat": 38.92166016666667, "fusion_lat": 0.0}, {"is_disabled": 0, "rental_uris": {"android": "https://dc.lft.to/lastmile_qr_scan", "ios": "https://dc.lft.to/lastmile_qr_scan"}, "is_reserved": 0, "name": "4c9c17edd0571338d19b1670e98ffeac", "lon": -77.028395, "type": "electric_scooter", "bike_id": "4c9c17edd0571338d19b1670e98ffeac", "fusion_lon": 0.0, "lat": 38.925786333333335, "fusion_lat": 0.0}, {"is_disabled": 0, "rental_uris": {"android": "https://dc.lft.to/lastmile_qr_scan", "ios": "https://dc.lft.to/lastmile_qr_scan"}, "is_reserved": 0, "name": "76426a07836c7030df8d4b66f448f20f", "lon": -77.02389716666667, "type": "electric_scooter", "bike_id": "76426a07836c7030df8d4b66f448f20f", "fusion_lon": 0.0, "lat": 38.927945, "fusion_lat": 0.0}, {"is_disabled": 0, "rental_uris": {"android": "https://dc.lft.to/lastmile_qr_scan", "ios": "https://dc.lft.to/lastmile_qr_scan"}, "is_reserved": 0, "name": "84072f12e5ea10a324f3cf49f959979f", "lon": -77.03199016666667, "type": "electric_scooter", "bike_id": "84072f12e5ea10a324f3cf49f959979f", "fusion_lon": 0.0, "lat": 38.903634, "fusion_lat": 0.0}, {"is_disabled": 0, "rental_uris": {"android": "https://dc.lft.to/lastmile_qr_scan", "ios": "https://dc.lft.to/lastmile_qr_scan"}, "is_reserved": 0, "name": "13439393673fc4b7e2a0228fa34dd8e0", "lon": -77.03372683333333, "type": "electric_scooter", "bike_id": "13439393673fc4b7e2a0228fa34dd8e0", "fusion_lon": 0.0, "lat": 38.916936, "fusion_lat": 0.0}, {"is_disabled": 0, "rental_uris": {"android": "https://dc.lft.to/lastmile_qr_scan", "ios": "https://dc.lft.to/lastmile_qr_scan"}, "is_reserved": 0, "name": "13671508f5427a72dd294cabf428b21f", "lon": -76.94868116666666, "type": "electric_bike", "bike_id": "13671508f5427a72dd294cabf428b21f", "fusion_lon": 0.0, "lat": 38.88971433333333, "fusion_lat": 0.0}, {"is_disabled": 0, "rental_uris": {"android": "https://dc.lft.to/lastmile_qr_scan", "ios": "https://dc.lft.to/lastmile_qr_scan"}, "is_reserved": 0, "name": "1f56f7a62b2fbdeb54378784b30f8b4f", "lon": -76.9837655, "type": "electric_scooter", "bike_id": "1f56f7a62b2fbdeb54378784b30f8b4f", "fusion_lon": 0.0, "lat": 38.84439666666667, "fusion_lat": 0.0}, {"is_disabled": 0, "rental_uris": {"android": "https://dc.lft.to/lastmile_qr_scan", "ios": "https://dc.lft.to/lastmile_qr_scan"}, "is_reserved": 0, "name": "3544f0b195b347229512be1efd654d99", "lon": -77.01617016666667, "type": "electric_scooter", "bike_id": "3544f0b195b347229512be1efd654d99", "fusion_lon": 0.0, "lat": 38.9289, "fusion_lat": 0.0}, {"is_disabled": 0, "rental_uris": {"android": "https://dc.lft.to/lastmile_qr_scan", "ios": "https://dc.lft.to/lastmile_qr_scan"}, "is_reserved": 0, "name": "68814fbf634f1c9b67cbc1f2c9224861", "lon": -77.01476466666666, "type": "electric_scooter", "bike_id": "68814fbf634f1c9b67cbc1f2c9224861", "fusion_lon": 0.0, "lat": 38.876374, "fusion_lat": 0.0}, {"is_disabled": 0, "rental_uris": {"android": "https://dc.lft.to/lastmile_qr_scan", "ios": "https://dc.lft.to/lastmile_qr_scan"}, "is_reserved": 0, "name": "6662fc367541a04455b24ce5833de8b6", "lon": -76.87763533333333, "type": "electric_bike", "bike_id": "6662fc367541a04455b24ce5833de8b6", "fusion_lon": 0.0, "lat": 38.99222616666667, "fusion_lat": 0.0}, {"is_disabled": 0, "rental_uris": {"android": "https://dc.lft.to/lastmile_qr_scan", "ios": "https://dc.lft.to/lastmile_qr_scan"}, "is_reserved": 0, "name": "da9751e3d224c1b1338f7e3e86f3d4cf", "lon": -77.10738183333333, "type": "electric_bike", "bike_id": "da9751e3d224c1b1338f7e3e86f3d4cf", "fusion_lon": 0.0, "lat": 38.85518716666667, "fusion_lat": 0.0}, {"is_disabled": 0, "rental_uris": {"android": "https://dc.lft.to/lastmile_qr_scan", "ios": "https://dc.lft.to/lastmile_qr_scan"}, "is_reserved": 0, "name": "ce7cc9807cdd5d4b78cc25cdf449a12a", "lon": -77.00781966666666, "type": "electric_bike", "bike_id": "ce7cc9807cdd5d4b78cc25cdf449a12a", "fusion_lon": 0.0, "lat": 38.981289833333335, "fusion_lat": 0.0}, {"is_disabled": 0, "rental_uris": {"android": "https://dc.lft.to/lastmile_qr_scan", "ios": "https://dc.lft.to/lastmile_qr_scan"}, "is_reserved": 0, "name": "cd726694cfb95188118356a115632681", "lon": -77.013101, "type": "electric_scooter", "bike_id": "cd726694cfb95188118356a115632681", "fusion_lon": 0.0, "lat": 38.9013585, "fusion_lat": 0.0}, {"is_disabled": 0, "rental_uris": {"android": "https://dc.lft.to/lastmile_qr_scan", "ios": "https://dc.lft.to/lastmile_qr_scan"}, "is_reserved": 0, "name": "f872da67c2dc87cb280638043d926e25", "lon": -77.029619, "type": "electric_scooter", "bike_id": "f872da67c2dc87cb280638043d926e25", "fusion_lon": 0.0, "lat": 38.9247205, "fusion_lat": 0.0}, {"is_disabled": 0, "rental_uris": {"android": "https://dc.lft.to/lastmile_qr_scan", "ios": "https://dc.lft.to/lastmile_qr_scan"}, "is_reserved": 0, "name": "ad528de43643476afc0104a41adff6f6", "lon": -76.96388766666666, "type": "electric_bike", "bike_id": "ad528de43643476afc0104a41adff6f6", "fusion_lon": 0.0, "lat": 38.975755666666664, "fusion_lat": 0.0}, {"is_disabled": 0, "rental_uris": {"android": "https://dc.lft.to/lastmile_qr_scan", "ios": "https://dc.lft.to/lastmile_qr_scan"}, "is_reserved": 0, "name": "8c88674674f5fa92c71a9f47d1d22deb", "lon": -77.03994983333334, "type": "electric_scooter", "bike_id": "8c88674674f5fa92c71a9f47d1d22deb", "fusion_lon": 0.0, "lat": 38.91416483333333, "fusion_lat": 0.0}, {"is_disabled": 0, "rental_uris": {"android": "https://dc.lft.to/lastmile_qr_scan", "ios": "https://dc.lft.to/lastmile_qr_scan"}, "is_reserved": 0, "name": "29e47299e1ef8f89dba87d6e689a8f1a", "lon": -77.02413233333333, "type": "electric_scooter", "bike_id": "29e47299e1ef8f89dba87d6e689a8f1a", "fusion_lon": 0.0, "lat": 38.892505666666665, "fusion_lat": 0.0}, {"is_disabled": 0, "rental_uris": {"android": "https://dc.lft.to/lastmile_qr_scan", "ios": "https://dc.lft.to/lastmile_qr_scan"}, "is_reserved": 0, "name": "788b9fa896fedebee682ec1681799617", "lon": -77.0469185, "type": "electric_scooter", "bike_id": "788b9fa896fedebee682ec1681799617", "fusion_lon": 0.0, "lat": 38.921648166666664, "fusion_lat": 0.0}, {"is_disabled": 0, "rental_uris": {"android": "https://dc.lft.to/lastmile_qr_scan", "ios": "https://dc.lft.to/lastmile_qr_scan"}, "is_reserved": 0, "name": "47e3cec04228c83f87f2c830fba39b7c", "lon": -76.9806435, "type": "electric_scooter", "bike_id": "47e3cec04228c83f87f2c830fba39b7c", "fusion_lon": 0.0, "lat": 38.901537833333336, "fusion_lat": 0.0}, {"is_disabled": 0, "rental_uris": {"android": "https://dc.lft.to/lastmile_qr_scan", "ios": "https://dc.lft.to/lastmile_qr_scan"}, "is_reserved": 0, "name": "59f89903b08188172bac886e12d4b8a8", "lon": -76.93755433333334, "type": "electric_scooter", "bike_id": "59f89903b08188172bac886e12d4b8a8", "fusion_lon": 0.0, "lat": 38.89031666666666, "fusion_lat": 0.0}, {"is_disabled": 0, "rental_uris": {"android": "https://dc.lft.to/lastmile_qr_scan", "ios": "https://dc.lft.to/lastmile_qr_scan"}, "is_reserved": 0, "name": "50125052834757421255d98a3c3927d5", "lon": -77.0357795, "type": "electric_scooter", "bike_id": "50125052834757421255d98a3c3927d5", "fusion_lon": 0.0, "lat": 38.90475133333333, "fusion_lat": 0.0}, {"is_disabled": 0, "rental_uris": {"android": "https://dc.lft.to/lastmile_qr_scan", "ios": "https://dc.lft.to/lastmile_qr_scan"}, "is_reserved": 0, "name": "fe958def910884e99c8de706ee6b02d4", "lon": -77.03212516666666, "type": "electric_scooter", "bike_id": "fe958def910884e99c8de706ee6b02d4", "fusion_lon": 0.0, "lat": 38.917985333333334, "fusion_lat": 0.0}, {"is_disabled": 0, "rental_uris": {"android": "https://dc.lft.to/lastmile_qr_scan", "ios": "https://dc.lft.to/lastmile_qr_scan"}, "is_reserved": 0, "name": "472f1874bfc6565928070d0b3e027484", "lon": -77.03640216666666, "type": "electric_scooter", "bike_id": "472f1874bfc6565928070d0b3e027484", "fusion_lon": 0.0, "lat": 38.93173483333333, "fusion_lat": 0.0}, {"is_disabled": 0, "rental_uris": {"android": "https://dc.lft.to/lastmile_qr_scan", "ios": "https://dc.lft.to/lastmile_qr_scan"}, "is_reserved": 0, "name": "b2981983ebd99d57ba86d5416846e54e", "lon": -76.92890316666667, "type": "electric_bike", "bike_id": "b2981983ebd99d57ba86d5416846e54e", "fusion_lon": 0.0, "lat": 38.97842383333333, "fusion_lat": 0.0}, {"is_disabled": 0, "rental_uris": {"android": "https://dc.lft.to/lastmile_qr_scan", "ios": "https://dc.lft.to/lastmile_qr_scan"}, "is_reserved": 0, "name": "eba7d947be2c99e98847e5e392ee1791", "lon": -77.022924, "type": "electric_scooter", "bike_id": "eba7d947be2c99e98847e5e392ee1791", "fusion_lon": 0.0, "lat": 38.9086105, "fusion_lat": 0.0}, {"is_disabled": 0, "rental_uris": {"android": "https://dc.lft.to/lastmile_qr_scan", "ios": "https://dc.lft.to/lastmile_qr_scan"}, "is_reserved": 0, "name": "1f438ded374482f249ad0b484f0e4e40", "lon": -76.99629016666667, "type": "electric_scooter", "bike_id": "1f438ded374482f249ad0b484f0e4e40", "fusion_lon": 0.0, "lat": 38.846204, "fusion_lat": 0.0}, {"is_disabled": 0, "rental_uris": {"android": "https://dc.lft.to/lastmile_qr_scan", "ios": "https://dc.lft.to/lastmile_qr_scan"}, "is_reserved": 0, "name": "426d97ea66471622fd845920308b00a3", "lon": -77.04999716666667, "type": "electric_scooter", "bike_id": "426d97ea66471622fd845920308b00a3", "fusion_lon": 0.0, "lat": 38.9156975, "fusion_lat": 0.0}, {"is_disabled": 0, "rental_uris": {"android": "https://dc.lft.to/lastmile_qr_scan", "ios": "https://dc.lft.to/lastmile_qr_scan"}, "is_reserved": 0, "name": "489572eed4c4bb3a1eb8f37c9178c465", "lon": -77.01773, "type": "electric_scooter", "bike_id": "489572eed4c4bb3a1eb8f37c9178c465", "fusion_lon": 0.0, "lat": 38.90043166666667, "fusion_lat": 0.0}, {"is_disabled": 0, "rental_uris": {"android": "https://dc.lft.to/lastmile_qr_scan", "ios": "https://dc.lft.to/lastmile_qr_scan"}, "is_reserved": 0, "name": "25659e50a60301f7fbd4d43450069305", "lon": -77.00535566666667, "type": "electric_scooter", "bike_id": "25659e50a60301f7fbd4d43450069305", "fusion_lon": 0.0, "lat": 38.874709833333334, "fusion_lat": 0.0}, {"is_disabled": 0, "rental_uris": {"android": "https://dc.lft.to/lastmile_qr_scan", "ios": "https://dc.lft.to/lastmile_qr_scan"}, "is_reserved": 0, "name": "0fdce92fa0d0467755fe3e1ecd436411", "lon": -77.03227333333334, "type": "electric_scooter", "bike_id": "0fdce92fa0d0467755fe3e1ecd436411", "fusion_lon": 0.0, "lat": 38.920523, "fusion_lat": 0.0}, {"is_disabled": 0, "rental_uris": {"android": "https://dc.lft.to/lastmile_qr_scan", "ios": "https://dc.lft.to/lastmile_qr_scan"}, "is_reserved": 0, "name": "f95839c4cc121b626006a2f5316d7a1f", "lon": -77.05002166666667, "type": "electric_scooter", "bike_id": "f95839c4cc121b626006a2f5316d7a1f", "fusion_lon": 0.0, "lat": 38.90561266666667, "fusion_lat": 0.0}, {"is_disabled": 0, "rental_uris": {"android": "https://dc.lft.to/lastmile_qr_scan", "ios": "https://dc.lft.to/lastmile_qr_scan"}, "is_reserved": 0, "name": "ecf00fa0015fa9d969731dfcb90317db", "lon": -77.02489133333333, "type": "electric_scooter", "bike_id": "ecf00fa0015fa9d969731dfcb90317db", "fusion_lon": 0.0, "lat": 38.90392466666667, "fusion_lat": 0.0}, {"is_disabled": 0, "rental_uris": {"android": "https://dc.lft.to/lastmile_qr_scan", "ios": "https://dc.lft.to/lastmile_qr_scan"}, "is_reserved": 0, "name": "64a72a4b4a98b8dbca99b6e114f269e2", "lon": -77.02166816666667, "type": "electric_scooter", "bike_id": "64a72a4b4a98b8dbca99b6e114f269e2", "fusion_lon": 0.0, "lat": 38.9261105, "fusion_lat": 0.0}, {"is_disabled": 0, "rental_uris": {"android": "https://dc.lft.to/lastmile_qr_scan", "ios": "https://dc.lft.to/lastmile_qr_scan"}, "is_reserved": 0, "name": "a88891e20f0a282c28abd46dc3ac0f76", "lon": -77.04050283333333, "type": "electric_scooter", "bike_id": "a88891e20f0a282c28abd46dc3ac0f76", "fusion_lon": 0.0, "lat": 38.90587633333333, "fusion_lat": 0.0}, {"is_disabled": 0, "rental_uris": {"android": "https://dc.lft.to/lastmile_qr_scan", "ios": "https://dc.lft.to/lastmile_qr_scan"}, "is_reserved": 0, "name": "832569ec2add4b630aef0e303bf2a54f", "lon": -76.97534316666666, "type": "electric_scooter", "bike_id": "832569ec2add4b630aef0e303bf2a54f", "fusion_lon": 0.0, "lat": 38.922304833333335, "fusion_lat": 0.0}, {"is_disabled": 0, "rental_uris": {"android": "https://dc.lft.to/lastmile_qr_scan", "ios": "https://dc.lft.to/lastmile_qr_scan"}, "is_reserved": 0, "name": "149efbef18a41c41fdd8f233d0fda02e", "lon": -77.031748, "type": "electric_scooter", "bike_id": "149efbef18a41c41fdd8f233d0fda02e", "fusion_lon": 0.0, "lat": 38.91419666666667, "fusion_lat": 0.0}, {"is_disabled": 0, "rental_uris": {"android": "https://dc.lft.to/lastmile_qr_scan", "ios": "https://dc.lft.to/lastmile_qr_scan"}, "is_reserved": 0, "name": "db4a9302dba21a3f5c9129bf47f1fe28", "lon": -77.05786633333334, "type": "electric_scooter", "bike_id": "db4a9302dba21a3f5c9129bf47f1fe28", "fusion_lon": 0.0, "lat": 38.90510483333333, "fusion_lat": 0.0}, {"is_disabled": 0, "rental_uris": {"android": "https://dc.lft.to/lastmile_qr_scan", "ios": "https://dc.lft.to/lastmile_qr_scan"}, "is_reserved": 0, "name": "5e6acba0de576dc7312713214f643719", "lon": -77.05743666666666, "type": "electric_scooter", "bike_id": "5e6acba0de576dc7312713214f643719", "fusion_lon": 0.0, "lat": 38.933513166666664, "fusion_lat": 0.0}, {"is_disabled": 0, "rental_uris": {"android": "https://dc.lft.to/lastmile_qr_scan", "ios": "https://dc.lft.to/lastmile_qr_scan"}, "is_reserved": 0, "name": "803beeee48d04af8be7d44d4cd3b51b7", "lon": -77.01530983333333, "type": "electric_scooter", "bike_id": "803beeee48d04af8be7d44d4cd3b51b7", "fusion_lon": 0.0, "lat": 38.88490933333333, "fusion_lat": 0.0}, {"is_disabled": 0, "rental_uris": {"android": "https://dc.lft.to/lastmile_qr_scan", "ios": "https://dc.lft.to/lastmile_qr_scan"}, "is_reserved": 0, "name": "48b69407ad9008275bdca1e7edd03a30", "lon": -77.031548, "type": "electric_scooter", "bike_id": "48b69407ad9008275bdca1e7edd03a30", "fusion_lon": 0.0, "lat": 38.916754166666664, "fusion_lat": 0.0}, {"is_disabled": 0, "rental_uris": {"android": "https://dc.lft.to/lastmile_qr_scan", "ios": "https://dc.lft.to/lastmile_qr_scan"}, "is_reserved": 0, "name": "b7b04373aa88a934e8254e4796e1368a", "lon": -77.042386, "type": "electric_scooter", "bike_id": "b7b04373aa88a934e8254e4796e1368a", "fusion_lon": 0.0, "lat": 38.91923233333333, "fusion_lat": 0.0}, {"is_disabled": 0, "rental_uris": {"android": "https://dc.lft.to/lastmile_qr_scan", "ios": "https://dc.lft.to/lastmile_qr_scan"}, "is_reserved": 0, "name": "1cdc700a3c1c0da520c23081964eeaff", "lon": -77.018764, "type": "electric_scooter", "bike_id": "1cdc700a3c1c0da520c23081964eeaff", "fusion_lon": 0.0, "lat": 38.900478, "fusion_lat": 0.0}, {"is_disabled": 0, "rental_uris": {"android": "https://dc.lft.to/lastmile_qr_scan", "ios": "https://dc.lft.to/lastmile_qr_scan"}, "is_reserved": 0, "name": "00e860ce2cc2bf3f677159a49d3cd987", "lon": -77.03837583333333, "type": "electric_scooter", "bike_id": "00e860ce2cc2bf3f677159a49d3cd987", "fusion_lon": 0.0, "lat": 38.9011865, "fusion_lat": 0.0}, {"is_disabled": 0, "rental_uris": {"android": "https://dc.lft.to/lastmile_qr_scan", "ios": "https://dc.lft.to/lastmile_qr_scan"}, "is_reserved": 0, "name": "a909ee01d5e615f95820d910c9cc166a", "lon": -77.04169133333333, "type": "electric_scooter", "bike_id": "a909ee01d5e615f95820d910c9cc166a", "fusion_lon": 0.0, "lat": 38.913568166666664, "fusion_lat": 0.0}, {"is_disabled": 0, "rental_uris": {"android": "https://dc.lft.to/lastmile_qr_scan", "ios": "https://dc.lft.to/lastmile_qr_scan"}, "is_reserved": 0, "name": "49b247a3a680486b092fa23901bad22f", "lon": -77.03805666666666, "type": "electric_scooter", "bike_id": "49b247a3a680486b092fa23901bad22f", "fusion_lon": 0.0, "lat": 38.91554, "fusion_lat": 0.0}, {"is_disabled": 0, "rental_uris": {"android": "https://dc.lft.to/lastmile_qr_scan", "ios": "https://dc.lft.to/lastmile_qr_scan"}, "is_reserved": 0, "name": "c994194e919200e3119fecd007d3cc97", "lon": -76.9964635, "type": "electric_scooter", "bike_id": "c994194e919200e3119fecd007d3cc97", "fusion_lon": 0.0, "lat": 38.88718466666667, "fusion_lat": 0.0}, {"is_disabled": 0, "rental_uris": {"android": "https://dc.lft.to/lastmile_qr_scan", "ios": "https://dc.lft.to/lastmile_qr_scan"}, "is_reserved": 0, "name": "97c556cd3b83dbf40ca1966a6d475ea1", "lon": -77.03419916666667, "type": "electric_scooter", "bike_id": "97c556cd3b83dbf40ca1966a6d475ea1", "fusion_lon": 0.0, "lat": 38.911933833333336, "fusion_lat": 0.0}, {"is_disabled": 0, "rental_uris": {"android": "https://dc.lft.to/lastmile_qr_scan", "ios": "https://dc.lft.to/lastmile_qr_scan"}, "is_reserved": 0, "name": "b6215896aa6ee52ce20dfd7d4e66e6bc", "lon": -77.03863433333333, "type": "electric_scooter", "bike_id": "b6215896aa6ee52ce20dfd7d4e66e6bc", "fusion_lon": 0.0, "lat": 38.91687816666666, "fusion_lat": 0.0}, {"is_disabled": 0, "rental_uris": {"android": "https://dc.lft.to/lastmile_qr_scan", "ios": "https://dc.lft.to/lastmile_qr_scan"}, "is_reserved": 0, "name": "172221488f0f7ac861f756e2c0144f45", "lon": -77.01750816666667, "type": "electric_scooter", "bike_id": "172221488f0f7ac861f756e2c0144f45", "fusion_lon": 0.0, "lat": 38.90389583333334, "fusion_lat": 0.0}, {"is_disabled": 0, "rental_uris": {"android": "https://dc.lft.to/lastmile_qr_scan", "ios": "https://dc.lft.to/lastmile_qr_scan"}, "is_reserved": 0, "name": "2d382a7c6a4d2a5e3b9b0e86146e541a", "lon": -77.03275733333334, "type": "electric_scooter", "bike_id": "2d382a7c6a4d2a5e3b9b0e86146e541a", "fusion_lon": 0.0, "lat": 38.90460233333334, "fusion_lat": 0.0}, {"is_disabled": 0, "rental_uris": {"android": "https://dc.lft.to/lastmile_qr_scan", "ios": "https://dc.lft.to/lastmile_qr_scan"}, "is_reserved": 0, "name": "1b17324bad83e9721b2a05b5ef511af3", "lon": -76.95672816666666, "type": "electric_scooter", "bike_id": "1b17324bad83e9721b2a05b5ef511af3", "fusion_lon": 0.0, "lat": 38.887647666666666, "fusion_lat": 0.0}, {"is_disabled": 0, "rental_uris": {"android": "https://dc.lft.to/lastmile_qr_scan", "ios": "https://dc.lft.to/lastmile_qr_scan"}, "is_reserved": 0, "name": "1a88e25d4ccbcaff5c912be78e2daed5", "lon": -77.04155733333333, "type": "electric_scooter", "bike_id": "1a88e25d4ccbcaff5c912be78e2daed5", "fusion_lon": 0.0, "lat": 38.912659, "fusion_lat": 0.0}, {"is_disabled": 0, "rental_uris": {"android": "https://dc.lft.to/lastmile_qr_scan", "ios": "https://dc.lft.to/lastmile_qr_scan"}, "is_reserved": 0, "name": "5f78644e35b32c76babf80e81d1c7749", "lon": -77.04621816666666, "type": "electric_scooter", "bike_id": "5f78644e35b32c76babf80e81d1c7749", "fusion_lon": 0.0, "lat": 38.9054075, "fusion_lat": 0.0}, {"is_disabled": 0, "rental_uris": {"android": "https://dc.lft.to/lastmile_qr_scan", "ios": "https://dc.lft.to/lastmile_qr_scan"}, "is_reserved": 0, "name": "7362321aabeef1e3af5fb7f6181c1d7f", "lon": -77.04052816666666, "type": "electric_scooter", "bike_id": "7362321aabeef1e3af5fb7f6181c1d7f", "fusion_lon": 0.0, "lat": 38.910366333333336, "fusion_lat": 0.0}, {"is_disabled": 0, "rental_uris": {"android": "https://dc.lft.to/lastmile_qr_scan", "ios": "https://dc.lft.to/lastmile_qr_scan"}, "is_reserved": 0, "name": "ce3c6b3108d49d37239537ff5cd8954e", "lon": -76.93187016666667, "type": "electric_scooter", "bike_id": "ce3c6b3108d49d37239537ff5cd8954e", "fusion_lon": 0.0, "lat": 38.89876966666667, "fusion_lat": 0.0}, {"is_disabled": 0, "rental_uris": {"android": "https://dc.lft.to/lastmile_qr_scan", "ios": "https://dc.lft.to/lastmile_qr_scan"}, "is_reserved": 0, "name": "7936a393b55b71a81e0b4d594c15416e", "lon": -77.0278655, "type": "electric_scooter", "bike_id": "7936a393b55b71a81e0b4d594c15416e", "fusion_lon": 0.0, "lat": 38.961281166666666, "fusion_lat": 0.0}, {"is_disabled": 0, "rental_uris": {"android": "https://dc.lft.to/lastmile_qr_scan", "ios": "https://dc.lft.to/lastmile_qr_scan"}, "is_reserved": 0, "name": "428b53dcfc4c51bc7a4d40ad1b0956d0", "lon": -76.98163716666667, "type": "electric_bike", "bike_id": "428b53dcfc4c51bc7a4d40ad1b0956d0", "fusion_lon": 0.0, "lat": 38.95957683333334, "fusion_lat": 0.0}, {"is_disabled": 0, "rental_uris": {"android": "https://dc.lft.to/lastmile_qr_scan", "ios": "https://dc.lft.to/lastmile_qr_scan"}, "is_reserved": 0, "name": "c367c76441fdbedb583397af4d050ea5", "lon": -77.05707583333333, "type": "electric_scooter", "bike_id": "c367c76441fdbedb583397af4d050ea5", "fusion_lon": 0.0, "lat": 38.92625866666667, "fusion_lat": 0.0}, {"is_disabled": 0, "rental_uris": {"android": "https://dc.lft.to/lastmile_qr_scan", "ios": "https://dc.lft.to/lastmile_qr_scan"}, "is_reserved": 0, "name": "58bd8c588f9553c751f5aa7c0fe0b608", "lon": -77.01982566666666, "type": "electric_scooter", "bike_id": "58bd8c588f9553c751f5aa7c0fe0b608", "fusion_lon": 0.0, "lat": 38.91192483333333, "fusion_lat": 0.0}, {"is_disabled": 0, "rental_uris": {"android": "https://dc.lft.to/lastmile_qr_scan", "ios": "https://dc.lft.to/lastmile_qr_scan"}, "is_reserved": 0, "name": "1ced1207d246126ffb1603c714dc496b", "lon": -77.02466116666666, "type": "electric_bike", "bike_id": "1ced1207d246126ffb1603c714dc496b", "fusion_lon": 0.0, "lat": 38.95578183333333, "fusion_lat": 0.0}, {"is_disabled": 0, "rental_uris": {"android": "https://dc.lft.to/lastmile_qr_scan", "ios": "https://dc.lft.to/lastmile_qr_scan"}, "is_reserved": 0, "name": "52964d75122ed825726dfe86a39db845", "lon": -77.02395166666666, "type": "electric_scooter", "bike_id": "52964d75122ed825726dfe86a39db845", "fusion_lon": 0.0, "lat": 38.905678, "fusion_lat": 0.0}, {"is_disabled": 0, "rental_uris": {"android": "https://dc.lft.to/lastmile_qr_scan", "ios": "https://dc.lft.to/lastmile_qr_scan"}, "is_reserved": 0, "name": "a5d4fa6ac9b647eb84f862ea73241a66", "lon": -77.03012583333333, "type": "electric_scooter", "bike_id": "a5d4fa6ac9b647eb84f862ea73241a66", "fusion_lon": 0.0, "lat": 38.92250966666667, "fusion_lat": 0.0}, {"is_disabled": 0, "rental_uris": {"android": "https://dc.lft.to/lastmile_qr_scan", "ios": "https://dc.lft.to/lastmile_qr_scan"}, "is_reserved": 0, "name": "82ba55e2edc4f2ee619085c1bb020460", "lon": -77.012258, "type": "electric_scooter", "bike_id": "82ba55e2edc4f2ee619085c1bb020460", "fusion_lon": 0.0, "lat": 38.8858115, "fusion_lat": 0.0}, {"is_disabled": 0, "rental_uris": {"android": "https://dc.lft.to/lastmile_qr_scan", "ios": "https://dc.lft.to/lastmile_qr_scan"}, "is_reserved": 0, "name": "8bb41d6135d8fe8715a324b88da88dc5", "lon": -77.00209, "type": "electric_scooter", "bike_id": "8bb41d6135d8fe8715a324b88da88dc5", "fusion_lon": 0.0, "lat": 38.91567716666667, "fusion_lat": 0.0}, {"is_disabled": 0, "rental_uris": {"android": "https://dc.lft.to/lastmile_qr_scan", "ios": "https://dc.lft.to/lastmile_qr_scan"}, "is_reserved": 0, "name": "22dac3c3d3c92ad8335d32bacfdcacbc", "lon": -76.92160633333333, "type": "electric_bike", "bike_id": "22dac3c3d3c92ad8335d32bacfdcacbc", "fusion_lon": 0.0, "lat": 39.01039933333333, "fusion_lat": 0.0}, {"is_disabled": 0, "rental_uris": {"android": "https://dc.lft.to/lastmile_qr_scan", "ios": "https://dc.lft.to/lastmile_qr_scan"}, "is_reserved": 0, "name": "b62f66a5abd4ae6bbe0d9f745f919658", "lon": -77.02365483333334, "type": "electric_scooter", "bike_id": "b62f66a5abd4ae6bbe0d9f745f919658", "fusion_lon": 0.0, "lat": 38.93130583333333, "fusion_lat": 0.0}, {"is_disabled": 0, "rental_uris": {"android": "https://dc.lft.to/lastmile_qr_scan", "ios": "https://dc.lft.to/lastmile_qr_scan"}, "is_reserved": 0, "name": "00be28f65a1b1723d80f028043dd67a8", "lon": -77.0487335, "type": "electric_scooter", "bike_id": "00be28f65a1b1723d80f028043dd67a8", "fusion_lon": 0.0, "lat": 38.90951366666667, "fusion_lat": 0.0}, {"is_disabled": 0, "rental_uris": {"android": "https://dc.lft.to/lastmile_qr_scan", "ios": "https://dc.lft.to/lastmile_qr_scan"}, "is_reserved": 0, "name": "338bee677ad2cfc31126c8341db3f3aa", "lon": -77.00611066666667, "type": "electric_scooter", "bike_id": "338bee677ad2cfc31126c8341db3f3aa", "fusion_lon": 0.0, "lat": 38.875945333333334, "fusion_lat": 0.0}, {"is_disabled": 0, "rental_uris": {"android": "https://dc.lft.to/lastmile_qr_scan", "ios": "https://dc.lft.to/lastmile_qr_scan"}, "is_reserved": 0, "name": "885204589d7d7d3ba913f628c458ed7d", "lon": -77.02231833333333, "type": "electric_scooter", "bike_id": "885204589d7d7d3ba913f628c458ed7d", "fusion_lon": 0.0, "lat": 38.9111805, "fusion_lat": 0.0}, {"is_disabled": 0, "rental_uris": {"android": "https://dc.lft.to/lastmile_qr_scan", "ios": "https://dc.lft.to/lastmile_qr_scan"}, "is_reserved": 0, "name": "47e3182ed9b39d182fc637c04c9e4ff2", "lon": -77.03989433333334, "type": "electric_scooter", "bike_id": "47e3182ed9b39d182fc637c04c9e4ff2", "fusion_lon": 0.0, "lat": 38.91822033333333, "fusion_lat": 0.0}, {"is_disabled": 0, "rental_uris": {"android": "https://dc.lft.to/lastmile_qr_scan", "ios": "https://dc.lft.to/lastmile_qr_scan"}, "is_reserved": 0, "name": "2087204e4a2f38011fd002ed1b23b4b4", "lon": -77.03653966666667, "type": "electric_scooter", "bike_id": "2087204e4a2f38011fd002ed1b23b4b4", "fusion_lon": 0.0, "lat": 38.9220035, "fusion_lat": 0.0}, {"is_disabled": 0, "rental_uris": {"android": "https://dc.lft.to/lastmile_qr_scan", "ios": "https://dc.lft.to/lastmile_qr_scan"}, "is_reserved": 0, "name": "c94bd4bc6d097c1aab0bb186740122f2", "lon": -77.02398533333333, "type": "electric_scooter", "bike_id": "c94bd4bc6d097c1aab0bb186740122f2", "fusion_lon": 0.0, "lat": 38.93095016666667, "fusion_lat": 0.0}, {"is_disabled": 0, "rental_uris": {"android": "https://dc.lft.to/lastmile_qr_scan", "ios": "https://dc.lft.to/lastmile_qr_scan"}, "is_reserved": 0, "name": "dcde42bdbd8cca56bfe9a44ffce452e2", "lon": -77.05925783333333, "type": "electric_scooter", "bike_id": "dcde42bdbd8cca56bfe9a44ffce452e2", "fusion_lon": 0.0, "lat": 38.93668366666667, "fusion_lat": 0.0}, {"is_disabled": 0, "rental_uris": {"android": "https://dc.lft.to/lastmile_qr_scan", "ios": "https://dc.lft.to/lastmile_qr_scan"}, "is_reserved": 0, "name": "a6057ed017a3ee6d58cb8b752d2bc702", "lon": -76.93113866666667, "type": "electric_scooter", "bike_id": "a6057ed017a3ee6d58cb8b752d2bc702", "fusion_lon": 0.0, "lat": 38.880176, "fusion_lat": 0.0}, {"is_disabled": 0, "rental_uris": {"android": "https://dc.lft.to/lastmile_qr_scan", "ios": "https://dc.lft.to/lastmile_qr_scan"}, "is_reserved": 0, "name": "7a17b47cc493f40116de45b837910290", "lon": -77.0284555, "type": "electric_scooter", "bike_id": "7a17b47cc493f40116de45b837910290", "fusion_lon": 0.0, "lat": 38.895453, "fusion_lat": 0.0}, {"is_disabled": 0, "rental_uris": {"android": "https://dc.lft.to/lastmile_qr_scan", "ios": "https://dc.lft.to/lastmile_qr_scan"}, "is_reserved": 0, "name": "65070401c20e633e3f6968b913aa4a5f", "lon": -77.050952, "type": "electric_scooter", "bike_id": "65070401c20e633e3f6968b913aa4a5f", "fusion_lon": 0.0, "lat": 38.9234045, "fusion_lat": 0.0}, {"is_disabled": 0, "rental_uris": {"android": "https://dc.lft.to/lastmile_qr_scan", "ios": "https://dc.lft.to/lastmile_qr_scan"}, "is_reserved": 0, "name": "45461eaa9ab84614b0c8949c490ef424", "lon": -77.01210966666666, "type": "electric_scooter", "bike_id": "45461eaa9ab84614b0c8949c490ef424", "fusion_lon": 0.0, "lat": 38.918203, "fusion_lat": 0.0}, {"is_disabled": 0, "rental_uris": {"android": "https://dc.lft.to/lastmile_qr_scan", "ios": "https://dc.lft.to/lastmile_qr_scan"}, "is_reserved": 0, "name": "05cba82847bc7c798940f37fad869aba", "lon": -76.98089816666666, "type": "electric_scooter", "bike_id": "05cba82847bc7c798940f37fad869aba", "fusion_lon": 0.0, "lat": 38.857185666666666, "fusion_lat": 0.0}, {"is_disabled": 0, "rental_uris": {"android": "https://dc.lft.to/lastmile_qr_scan", "ios": "https://dc.lft.to/lastmile_qr_scan"}, "is_reserved": 0, "name": "74bab6d49471c54bb64bbf306de33d52", "lon": -77.01694583333334, "type": "electric_scooter", "bike_id": "74bab6d49471c54bb64bbf306de33d52", "fusion_lon": 0.0, "lat": 38.9749735, "fusion_lat": 0.0}, {"is_disabled": 0, "rental_uris": {"android": "https://dc.lft.to/lastmile_qr_scan", "ios": "https://dc.lft.to/lastmile_qr_scan"}, "is_reserved": 0, "name": "195cfa9908c06d838bc27c3f8219787a", "lon": -77.0328415, "type": "electric_scooter", "bike_id": "195cfa9908c06d838bc27c3f8219787a", "fusion_lon": 0.0, "lat": 38.9184425, "fusion_lat": 0.0}, {"is_disabled": 0, "rental_uris": {"android": "https://dc.lft.to/lastmile_qr_scan", "ios": "https://dc.lft.to/lastmile_qr_scan"}, "is_reserved": 0, "name": "f884e677909ea58bb5c2d513f75d3abe", "lon": -77.015812, "type": "electric_bike", "bike_id": "f884e677909ea58bb5c2d513f75d3abe", "fusion_lon": 0.0, "lat": 39.04636033333333, "fusion_lat": 0.0}, {"is_disabled": 0, "rental_uris": {"android": "https://dc.lft.to/lastmile_qr_scan", "ios": "https://dc.lft.to/lastmile_qr_scan"}, "is_reserved": 0, "name": "77cb4cdb682c2306f339d18621bacd27", "lon": -77.04326683333333, "type": "electric_scooter", "bike_id": "77cb4cdb682c2306f339d18621bacd27", "fusion_lon": 0.0, "lat": 38.8966845, "fusion_lat": 0.0}, {"is_disabled": 0, "rental_uris": {"android": "https://dc.lft.to/lastmile_qr_scan", "ios": "https://dc.lft.to/lastmile_qr_scan"}, "is_reserved": 0, "name": "63955b3a49474b3c4c17101c407d23d3", "lon": -77.024705, "type": "electric_scooter", "bike_id": "63955b3a49474b3c4c17101c407d23d3", "fusion_lon": 0.0, "lat": 38.93909216666667, "fusion_lat": 0.0}, {"is_disabled": 0, "rental_uris": {"android": "https://dc.lft.to/lastmile_qr_scan", "ios": "https://dc.lft.to/lastmile_qr_scan"}, "is_reserved": 0, "name": "d50ecb5fc05376afa0adf1f6c362d577", "lon": -77.18290016666667, "type": "electric_bike", "bike_id": "d50ecb5fc05376afa0adf1f6c362d577", "fusion_lon": 0.0, "lat": 38.88341883333333, "fusion_lat": 0.0}, {"is_disabled": 0, "rental_uris": {"android": "https://dc.lft.to/lastmile_qr_scan", "ios": "https://dc.lft.to/lastmile_qr_scan"}, "is_reserved": 0, "name": "cbe3f752923569327a0f0ad7043ee71d", "lon": -76.98521883333333, "type": "electric_scooter", "bike_id": "cbe3f752923569327a0f0ad7043ee71d", "fusion_lon": 0.0, "lat": 38.8600305, "fusion_lat": 0.0}, {"is_disabled": 0, "rental_uris": {"android": "https://dc.lft.to/lastmile_qr_scan", "ios": "https://dc.lft.to/lastmile_qr_scan"}, "is_reserved": 0, "name": "ac7d4a30dafb79d343cd818c3fc4092c", "lon": -76.96918833333334, "type": "electric_scooter", "bike_id": "ac7d4a30dafb79d343cd818c3fc4092c", "fusion_lon": 0.0, "lat": 38.855251333333335, "fusion_lat": 0.0}, {"is_disabled": 0, "rental_uris": {"android": "https://dc.lft.to/lastmile_qr_scan", "ios": "https://dc.lft.to/lastmile_qr_scan"}, "is_reserved": 0, "name": "d0914ee565187371d3dc3afaea0d10ef", "lon": -77.0355245, "type": "electric_scooter", "bike_id": "d0914ee565187371d3dc3afaea0d10ef", "fusion_lon": 0.0, "lat": 38.906649333333334, "fusion_lat": 0.0}, {"is_disabled": 0, "rental_uris": {"android": "https://dc.lft.to/lastmile_qr_scan", "ios": "https://dc.lft.to/lastmile_qr_scan"}, "is_reserved": 0, "name": "4289da81b45cc4aa02f575ac44595ab9", "lon": -77.0732855, "type": "electric_scooter", "bike_id": "4289da81b45cc4aa02f575ac44595ab9", "fusion_lon": 0.0, "lat": 38.9248415, "fusion_lat": 0.0}, {"is_disabled": 0, "rental_uris": {"android": "https://dc.lft.to/lastmile_qr_scan", "ios": "https://dc.lft.to/lastmile_qr_scan"}, "is_reserved": 0, "name": "46d0a3bb76606de19eb882a16368fd39", "lon": -77.0560035, "type": "electric_scooter", "bike_id": "46d0a3bb76606de19eb882a16368fd39", "fusion_lon": 0.0, "lat": 38.937027, "fusion_lat": 0.0}, {"is_disabled": 0, "rental_uris": {"android": "https://dc.lft.to/lastmile_qr_scan", "ios": "https://dc.lft.to/lastmile_qr_scan"}, "is_reserved": 0, "name": "ac11c2daa28f7ce15c44fff9c4fd3b23", "lon": -77.0254495, "type": "electric_scooter", "bike_id": "ac11c2daa28f7ce15c44fff9c4fd3b23", "fusion_lon": 0.0, "lat": 38.984145166666664, "fusion_lat": 0.0}, {"is_disabled": 0, "rental_uris": {"android": "https://dc.lft.to/lastmile_qr_scan", "ios": "https://dc.lft.to/lastmile_qr_scan"}, "is_reserved": 0, "name": "45f750418d23d555ea1a20086cf7b323", "lon": -77.02946183333333, "type": "electric_scooter", "bike_id": "45f750418d23d555ea1a20086cf7b323", "fusion_lon": 0.0, "lat": 38.9170855, "fusion_lat": 0.0}, {"is_disabled": 0, "rental_uris": {"android": "https://dc.lft.to/lastmile_qr_scan", "ios": "https://dc.lft.to/lastmile_qr_scan"}, "is_reserved": 0, "name": "f31d4533dac3b9c5892574a70b6c13a4", "lon": -77.03225866666666, "type": "electric_scooter", "bike_id": "f31d4533dac3b9c5892574a70b6c13a4", "fusion_lon": 0.0, "lat": 38.915828, "fusion_lat": 0.0}, {"is_disabled": 0, "rental_uris": {"android": "https://dc.lft.to/lastmile_qr_scan", "ios": "https://dc.lft.to/lastmile_qr_scan"}, "is_reserved": 0, "name": "079868e4f77fc4a61c63c7706c75fe55", "lon": -76.93838183333334, "type": "electric_scooter", "bike_id": "079868e4f77fc4a61c63c7706c75fe55", "fusion_lon": 0.0, "lat": 38.89015033333333, "fusion_lat": 0.0}, {"is_disabled": 0, "rental_uris": {"android": "https://dc.lft.to/lastmile_qr_scan", "ios": "https://dc.lft.to/lastmile_qr_scan"}, "is_reserved": 0, "name": "56dad72c2f9c7e15613842303750ec13", "lon": -77.05132, "type": "electric_scooter", "bike_id": "56dad72c2f9c7e15613842303750ec13", "fusion_lon": 0.0, "lat": 38.9061415, "fusion_lat": 0.0}, {"is_disabled": 0, "rental_uris": {"android": "https://dc.lft.to/lastmile_qr_scan", "ios": "https://dc.lft.to/lastmile_qr_scan"}, "is_reserved": 0, "name": "9015eae53f457b3463dfcf427b05ea96", "lon": -77.02313333333333, "type": "electric_scooter", "bike_id": "9015eae53f457b3463dfcf427b05ea96", "fusion_lon": 0.0, "lat": 38.92663783333333, "fusion_lat": 0.0}, {"is_disabled": 0, "rental_uris": {"android": "https://dc.lft.to/lastmile_qr_scan", "ios": "https://dc.lft.to/lastmile_qr_scan"}, "is_reserved": 0, "name": "03eeec596255f1a1774f6e610e73a04a", "lon": -77.12505766666666, "type": "electric_bike", "bike_id": "03eeec596255f1a1774f6e610e73a04a", "fusion_lon": 0.0, "lat": 39.02425483333333, "fusion_lat": 0.0}, {"is_disabled": 0, "rental_uris": {"android": "https://dc.lft.to/lastmile_qr_scan", "ios": "https://dc.lft.to/lastmile_qr_scan"}, "is_reserved": 0, "name": "349f69869fc4df0533253688be887b43", "lon": -77.02718366666667, "type": "electric_scooter", "bike_id": "349f69869fc4df0533253688be887b43", "fusion_lon": 0.0, "lat": 38.9107305, "fusion_lat": 0.0}, {"is_disabled": 0, "rental_uris": {"android": "https://dc.lft.to/lastmile_qr_scan", "ios": "https://dc.lft.to/lastmile_qr_scan"}, "is_reserved": 0, "name": "0b90fbf38b4fb2e983f7f0c664b2c0fd", "lon": -77.05758516666667, "type": "electric_bike", "bike_id": "0b90fbf38b4fb2e983f7f0c664b2c0fd", "fusion_lon": 0.0, "lat": 38.92431283333333, "fusion_lat": 0.0}, {"is_disabled": 0, "rental_uris": {"android": "https://dc.lft.to/lastmile_qr_scan", "ios": "https://dc.lft.to/lastmile_qr_scan"}, "is_reserved": 0, "name": "85dae689ae38cc23abd9abf7f7472d7d", "lon": -77.024141, "type": "electric_scooter", "bike_id": "85dae689ae38cc23abd9abf7f7472d7d", "fusion_lon": 0.0, "lat": 38.912548, "fusion_lat": 0.0}, {"is_disabled": 0, "rental_uris": {"android": "https://dc.lft.to/lastmile_qr_scan", "ios": "https://dc.lft.to/lastmile_qr_scan"}, "is_reserved": 0, "name": "e72a2a4bfbfed9990fc0ff3671e10721", "lon": -76.94633683333333, "type": "electric_scooter", "bike_id": "e72a2a4bfbfed9990fc0ff3671e10721", "fusion_lon": 0.0, "lat": 38.89843966666667, "fusion_lat": 0.0}, {"is_disabled": 0, "rental_uris": {"android": "https://dc.lft.to/lastmile_qr_scan", "ios": "https://dc.lft.to/lastmile_qr_scan"}, "is_reserved": 0, "name": "f29d78705276b08639234326cfa8feb2", "lon": -77.0499545, "type": "electric_scooter", "bike_id": "f29d78705276b08639234326cfa8feb2", "fusion_lon": 0.0, "lat": 38.89727933333333, "fusion_lat": 0.0}, {"is_disabled": 0, "rental_uris": {"android": "https://dc.lft.to/lastmile_qr_scan", "ios": "https://dc.lft.to/lastmile_qr_scan"}, "is_reserved": 0, "name": "a94ebf1efe888a382058f9aa89874f22", "lon": -77.0505015, "type": "electric_scooter", "bike_id": "a94ebf1efe888a382058f9aa89874f22", "fusion_lon": 0.0, "lat": 38.916673, "fusion_lat": 0.0}, {"is_disabled": 0, "rental_uris": {"android": "https://dc.lft.to/lastmile_qr_scan", "ios": "https://dc.lft.to/lastmile_qr_scan"}, "is_reserved": 0, "name": "e20427d001790def4c8aba3ff9904bd9", "lon": -77.009272, "type": "electric_bike", "bike_id": "e20427d001790def4c8aba3ff9904bd9", "fusion_lon": 0.0, "lat": 38.9784945, "fusion_lat": 0.0}, {"is_disabled": 0, "rental_uris": {"android": "https://dc.lft.to/lastmile_qr_scan", "ios": "https://dc.lft.to/lastmile_qr_scan"}, "is_reserved": 0, "name": "64f15bc4461d91a3a2aae2ee43765900", "lon": -77.03309516666667, "type": "electric_scooter", "bike_id": "64f15bc4461d91a3a2aae2ee43765900", "fusion_lon": 0.0, "lat": 38.91806183333333, "fusion_lat": 0.0}, {"is_disabled": 0, "rental_uris": {"android": "https://dc.lft.to/lastmile_qr_scan", "ios": "https://dc.lft.to/lastmile_qr_scan"}, "is_reserved": 0, "name": "0372bbf7be1f8f82ef19464be9d96a3d", "lon": -77.02697466666666, "type": "electric_scooter", "bike_id": "0372bbf7be1f8f82ef19464be9d96a3d", "fusion_lon": 0.0, "lat": 38.936330166666664, "fusion_lat": 0.0}, {"is_disabled": 0, "rental_uris": {"android": "https://dc.lft.to/lastmile_qr_scan", "ios": "https://dc.lft.to/lastmile_qr_scan"}, "is_reserved": 0, "name": "ceb33b371394899f52455636cb406c3a", "lon": -76.99626016666667, "type": "electric_scooter", "bike_id": "ceb33b371394899f52455636cb406c3a", "fusion_lon": 0.0, "lat": 38.900356, "fusion_lat": 0.0}, {"is_disabled": 0, "rental_uris": {"android": "https://dc.lft.to/lastmile_qr_scan", "ios": "https://dc.lft.to/lastmile_qr_scan"}, "is_reserved": 0, "name": "3d227887b673d74c3c4ebd28e3514896", "lon": -77.04502216666667, "type": "electric_scooter", "bike_id": "3d227887b673d74c3c4ebd28e3514896", "fusion_lon": 0.0, "lat": 38.921323666666666, "fusion_lat": 0.0}, {"is_disabled": 0, "rental_uris": {"android": "https://dc.lft.to/lastmile_qr_scan", "ios": "https://dc.lft.to/lastmile_qr_scan"}, "is_reserved": 0, "name": "8028a7ef6e0ce576fff78f46734dfd9b", "lon": -77.03519816666666, "type": "electric_bike", "bike_id": "8028a7ef6e0ce576fff78f46734dfd9b", "fusion_lon": 0.0, "lat": 38.9359645, "fusion_lat": 0.0}, {"is_disabled": 0, "rental_uris": {"android": "https://dc.lft.to/lastmile_qr_scan", "ios": "https://dc.lft.to/lastmile_qr_scan"}, "is_reserved": 0, "name": "a0e0b05152d26bc94de3601cc46ec10a", "lon": -76.9899605, "type": "electric_scooter", "bike_id": "a0e0b05152d26bc94de3601cc46ec10a", "fusion_lon": 0.0, "lat": 38.86431533333333, "fusion_lat": 0.0}, {"is_disabled": 0, "rental_uris": {"android": "https://dc.lft.to/lastmile_qr_scan", "ios": "https://dc.lft.to/lastmile_qr_scan"}, "is_reserved": 0, "name": "76392fe5bcf0ed911fac85b6e366f5d7", "lon": -77.03870016666667, "type": "electric_scooter", "bike_id": "76392fe5bcf0ed911fac85b6e366f5d7", "fusion_lon": 0.0, "lat": 38.921533333333336, "fusion_lat": 0.0}, {"is_disabled": 0, "rental_uris": {"android": "https://dc.lft.to/lastmile_qr_scan", "ios": "https://dc.lft.to/lastmile_qr_scan"}, "is_reserved": 0, "name": "da4f5c1df582e6ced3d32698dd530863", "lon": -77.05138583333333, "type": "electric_scooter", "bike_id": "da4f5c1df582e6ced3d32698dd530863", "fusion_lon": 0.0, "lat": 38.89770766666667, "fusion_lat": 0.0}, {"is_disabled": 0, "rental_uris": {"android": "https://dc.lft.to/lastmile_qr_scan", "ios": "https://dc.lft.to/lastmile_qr_scan"}, "is_reserved": 0, "name": "559f88a126d70acebd8928fccaddb173", "lon": -77.03156933333334, "type": "electric_scooter", "bike_id": "559f88a126d70acebd8928fccaddb173", "fusion_lon": 0.0, "lat": 38.8935375, "fusion_lat": 0.0}, {"is_disabled": 0, "rental_uris": {"android": "https://dc.lft.to/lastmile_qr_scan", "ios": "https://dc.lft.to/lastmile_qr_scan"}, "is_reserved": 0, "name": "e513cfdf64e9620a2c9ac6a4469c3a64", "lon": -77.038484, "type": "electric_scooter", "bike_id": "e513cfdf64e9620a2c9ac6a4469c3a64", "fusion_lon": 0.0, "lat": 38.92167716666667, "fusion_lat": 0.0}, {"is_disabled": 0, "rental_uris": {"android": "https://dc.lft.to/lastmile_qr_scan", "ios": "https://dc.lft.to/lastmile_qr_scan"}, "is_reserved": 0, "name": "170449cab1d47f2220e683f755a624d5", "lon": -77.04190233333334, "type": "electric_scooter", "bike_id": "170449cab1d47f2220e683f755a624d5", "fusion_lon": 0.0, "lat": 38.92619216666667, "fusion_lat": 0.0}, {"is_disabled": 0, "rental_uris": {"android": "https://dc.lft.to/lastmile_qr_scan", "ios": "https://dc.lft.to/lastmile_qr_scan"}, "is_reserved": 0, "name": "15c5048dbed328db4daae961b17973fc", "lon": -77.04312566666667, "type": "electric_scooter", "bike_id": "15c5048dbed328db4daae961b17973fc", "fusion_lon": 0.0, "lat": 38.918710833333336, "fusion_lat": 0.0}, {"is_disabled": 0, "rental_uris": {"android": "https://dc.lft.to/lastmile_qr_scan", "ios": "https://dc.lft.to/lastmile_qr_scan"}, "is_reserved": 0, "name": "feaa61c82a3b42d3208da02f6adb3411", "lon": -77.03122533333334, "type": "electric_scooter", "bike_id": "feaa61c82a3b42d3208da02f6adb3411", "fusion_lon": 0.0, "lat": 38.92390366666667, "fusion_lat": 0.0}, {"is_disabled": 0, "rental_uris": {"android": "https://dc.lft.to/lastmile_qr_scan", "ios": "https://dc.lft.to/lastmile_qr_scan"}, "is_reserved": 0, "name": "ce5b0d38ed1538f5829d9c85cdc45d41", "lon": -77.03839866666667, "type": "electric_scooter", "bike_id": "ce5b0d38ed1538f5829d9c85cdc45d41", "fusion_lon": 0.0, "lat": 38.9165135, "fusion_lat": 0.0}, {"is_disabled": 0, "rental_uris": {"android": "https://dc.lft.to/lastmile_qr_scan", "ios": "https://dc.lft.to/lastmile_qr_scan"}, "is_reserved": 0, "name": "fcfba149ef49e3eca0fbe13dc5d6e616", "lon": -77.03251666666667, "type": "electric_scooter", "bike_id": "fcfba149ef49e3eca0fbe13dc5d6e616", "fusion_lon": 0.0, "lat": 38.9111395, "fusion_lat": 0.0}, {"is_disabled": 0, "rental_uris": {"android": "https://dc.lft.to/lastmile_qr_scan", "ios": "https://dc.lft.to/lastmile_qr_scan"}, "is_reserved": 0, "name": "6a63e57812c4ed8b9c06d1a15dfb695d", "lon": -77.0153105, "type": "electric_scooter", "bike_id": "6a63e57812c4ed8b9c06d1a15dfb695d", "fusion_lon": 0.0, "lat": 38.88736683333333, "fusion_lat": 0.0}, {"is_disabled": 0, "rental_uris": {"android": "https://dc.lft.to/lastmile_qr_scan", "ios": "https://dc.lft.to/lastmile_qr_scan"},