{"data": {"bikes": [{"bike_id": "5d6bc2a3241bf21201c5f2806eaf9279", "fusion_lon": 0.0, "lon": -77.0350115, "name": "5d6bc2a3241bf21201c5f2806eaf9279", "is_disabled": 0, "rental_uris": {"android": "https://dc.lft.to/lastmile_qr_scan", "ios": "https://dc.lft.to/lastmile_qr_scan"}, "type": "electric_scooter", "lat": 38.91706716666667, "is_reserved": 0, "fusion_lat": 0.0}, {"bike_id": "5de5cba532cbf7de45cec7ca159652b1", "fusion_lon": 0.0, "lon": -77.02127883333333, "name": "5de5cba532cbf7de45cec7ca159652b1", "is_disabled": 0, "rental_uris": {"android": "https://dc.lft.to/lastmile_qr_scan", "ios": "https://dc.lft.to/lastmile_qr_scan"}, "type": "electric_scooter", "lat": 38.92329733333333, "is_reserved": 0, "fusion_lat": 0.0}, {"bike_id": "e1e48f5f8843064844ff01265047b674", "fusion_lon": 0.0, "lon": -77.02734016666666, "name": "e1e48f5f8843064844ff01265047b674", "is_disabled": 0, "rental_uris": {"android": "https://dc.lft.to/lastmile_qr_scan", "ios": "https://dc.lft.to/lastmile_qr_scan"}, "type": "electric_scooter", "lat": 38.92769716666667, "is_reserved": 0, "fusion_lat": 0.0}, {"bike_id": "74c63b32c8a546238586e8700bfddf62", "fusion_lon": 0.0, "lon": -77.01466666666667, "name": "74c63b32c8a546238586e8700bfddf62", "is_disabled": 0, "rental_uris": {"android": "https://dc.lft.to/lastmile_qr_scan", "ios": "https://dc.lft.to/lastmile_qr_scan"}, "type": "electric_scooter", "lat": 38.917708833333336, "is_reserved": 0, "fusion_lat": 0.0}, {"bike_id": "55c158b244d74d8c3da1e7a872e18de4", "fusion_lon": 0.0, "lon": -77.0533075, "name": "55c158b244d74d8c3da1e7a872e18de4", "is_disabled": 0, "rental_uris": {"android": "https://dc.lft.to/lastmile_qr_scan", "ios": "https://dc.lft.to/lastmile_qr_scan"}, "type": "electric_scooter", "lat": 38.92349633333333, "is_reserved": 0, "fusion_lat": 0.0}, {"bike_id": "2e4728c2185c26060a0668ba1a6124db", "fusion_lon": 0.0, "lon": -76.995055, "name": "2e4728c2185c26060a0668ba1a6124db", "is_disabled": 0, "rental_uris": {"android": "https://dc.lft.to/lastmile_qr_scan", "ios": "https://dc.lft.to/lastmile_qr_scan"}, "type": "electric_scooter", "lat": 38.882533, "is_reserved": 0, "fusion_lat": 0.0}, {"bike_id": "ff74261b7938fd0a2ae76aaa68e772f4", "fusion_lon": 0.0, "lon": -77.03172133333334, "name": "ff74261b7938fd0a2ae76aaa68e772f4", "is_disabled": 0, "rental_uris": {"android": "https://dc.lft.to/lastmile_qr_scan", "ios": "https://dc.lft.to/lastmile_qr_scan"}, "type": "electric_scooter", "lat": 38.919180833333336, "is_reserved": 0, "fusion_lat": 0.0}, {"bike_id": "c5d9aea465a5095b7fdd70f134a7f012", "fusion_lon": 0.0, "lon": -76.99052133333333, "name": "c5d9aea465a5095b7fdd70f134a7f012", "is_disabled": 0, "rental_uris": {"android": "https://dc.lft.to/lastmile_qr_scan", "ios": "https://dc.lft.to/lastmile_qr_scan"}, "type": "electric_scooter", "lat": 38.863594666666664, "is_reserved": 0, "fusion_lat": 0.0}, {"bike_id": "ca2ba8fa8bf9a06010eaa19cb9ad479c", "fusion_lon": 0.0, "lon": -77.04657816666666, "name": "ca2ba8fa8bf9a06010eaa19cb9ad479c", "is_disabled": 0, "rental_uris": {"android": "https://dc.lft.to/lastmile_qr_scan", "ios": "https://dc.lft.to/lastmile_qr_scan"}, "type": "electric_scooter", "lat": 38.892525666666664, "is_reserved": 0, "fusion_lat": 0.0}, {"bike_id": "8f9e29b6a5e1e64587bdccaf9554ddd7", "fusion_lon": 0.0, "lon": -77.01780516666666, "name": "8f9e29b6a5e1e64587bdccaf9554ddd7", "is_disabled": 0, "rental_uris": {"android": "https://dc.lft.to/lastmile_qr_scan", "ios": "https://dc.lft.to/lastmile_qr_scan"}, "type": "electric_scooter", "lat": 38.90085066666666, "is_reserved": 0, "fusion_lat": 0.0}, {"bike_id": "75d195a2c258327c2e1cbd95329825c9", "fusion_lon": 0.0, "lon": -77.02766516666667, "name": "75d195a2c258327c2e1cbd95329825c9", "is_disabled": 0, "rental_uris": {"android": "https://dc.lft.to/lastmile_qr_scan", "ios": "https://dc.lft.to/lastmile_qr_scan"}, "type": "electric_scooter", "lat": 38.954239333333334, "is_reserved": 0, "fusion_lat": 0.0}, {"bike_id": "8e83c073ccd0fd7ee944fa30536dccda", "fusion_lon": 0.0, "lon": -77.02193933333334, "name": "8e83c073ccd0fd7ee944fa30536dccda", "is_disabled": 0, "rental_uris": {"android": "https://dc.lft.to/lastmile_qr_scan", "ios": "https://dc.lft.to/lastmile_qr_scan"}, "type": "electric_scooter", "lat": 38.913056166666664, "is_reserved": 0, "fusion_lat": 0.0}, {"bike_id": "7288b98ebb381423d6a4841c1bf7a645", "fusion_lon": 0.0, "lon": -76.99426616666666, "name": "7288b98ebb381423d6a4841c1bf7a645", "is_disabled": 0, "rental_uris": {"android": "https://dc.lft.to/lastmile_qr_scan", "ios": "https://dc.lft.to/lastmile_qr_scan"}, "type": "electric_scooter", "lat": 38.861848, "is_reserved": 0, "fusion_lat": 0.0}, {"bike_id": "fb41c7feee04d1045830c7ab52cb5bc8", "fusion_lon": 0.0, "lon": -77.02484266666667, "name": "fb41c7feee04d1045830c7ab52cb5bc8", "is_disabled": 0, "rental_uris": {"android": "https://dc.lft.to/lastmile_qr_scan", "ios": "https://dc.lft.to/lastmile_qr_scan"}, "type": "electric_scooter", "lat": 38.91928033333333, "is_reserved": 0, "fusion_lat": 0.0}, {"bike_id": "042fe75499528723818e36043dd0b31c", "fusion_lon": 0.0, "lon": -77.057571, "name": "042fe75499528723818e36043dd0b31c", "is_disabled": 0, "rental_uris": {"android": "https://dc.lft.to/lastmile_qr_scan", "ios": "https://dc.lft.to/lastmile_qr_scan"}, "type": "electric_scooter", "lat": 38.92457566666667, "is_reserved": 0, "fusion_lat": 0.0}, {"bike_id": "63e3bf0d6d5f91d9a2a44e6c74544d73", "fusion_lon": 0.0, "lon": -77.02854866666667, "name": "63e3bf0d6d5f91d9a2a44e6c74544d73", "is_disabled": 0, "rental_uris": {"android": "https://dc.lft.to/lastmile_qr_scan", "ios": "https://dc.lft.to/lastmile_qr_scan"}, "type": "electric_scooter", "lat": 38.88872533333333, "is_reserved": 0, "fusion_lat": 0.0}, {"bike_id": "41092126ae41c295cbe6595e60c8630f", "fusion_lon": 0.0, "lon": -77.049005, "name": "41092126ae41c295cbe6595e60c8630f", "is_disabled": 0, "rental_uris": {"android": "https://dc.lft.to/lastmile_qr_scan", "ios": "https://dc.lft.to/lastmile_qr_scan"}, "type": "electric_scooter", "lat": 38.8900055, "is_reserved": 0, "fusion_lat": 0.0}, {"bike_id": "6889be99cecc34f502762f92dfda1e3c", "fusion_lon": 0.0, "lon": -77.04488616666667, "name": "6889be99cecc34f502762f92dfda1e3c", "is_disabled": 0, "rental_uris": {"android": "https://dc.lft.to/lastmile_qr_scan", "ios": "https://dc.lft.to/lastmile_qr_scan"}, "type": "electric_scooter", "lat": 38.90070866666667, "is_reserved": 0, "fusion_lat": 0.0}, {"bike_id": "3be7a2a9e91fc5988e75bdd1a45214c0", "fusion_lon": 0.0, "lon": -77.04805133333333, "name": "3be7a2a9e91fc5988e75bdd1a45214c0", "is_disabled": 0, "rental_uris": {"android": "https://dc.lft.to/lastmile_qr_scan", "ios": "https://dc.lft.to/lastmile_qr_scan"}, "type": "electric_scooter", "lat": 38.892251, "is_reserved": 0, "fusion_lat": 0.0}, {"bike_id": "ee9f09af6ce24bd9a410670826ac1a6a", "fusion_lon": 0.0, "lon": -77.0500035, "name": "ee9f09af6ce24bd9a410670826ac1a6a", "is_disabled": 0, "rental_uris": {"android": "https://dc.lft.to/lastmile_qr_scan", "ios": "https://dc.lft.to/lastmile_qr_scan"}, "type": "electric_scooter", "lat": 38.892339166666666, "is_reserved": 0, "fusion_lat": 0.0}, {"bike_id": "be933dabf227452a755d54a974344a1f", "fusion_lon": 0.0, "lon": -77.0330105, "name": "be933dabf227452a755d54a974344a1f", "is_disabled": 0, "rental_uris": {"android": "https://dc.lft.to/lastmile_qr_scan", "ios": "https://dc.lft.to/lastmile_qr_scan"}, "type": "electric_scooter", "lat": 38.9215955, "is_reserved": 0, "fusion_lat": 0.0}, {"bike_id": "bbd5d8bcd1c4c00f601aebf2627c8c33", "fusion_lon": 0.0, "lon": -77.050382, "name": "bbd5d8bcd1c4c00f601aebf2627c8c33", "is_disabled": 0, "rental_uris": {"android": "https://dc.lft.to/lastmile_qr_scan", "ios": "https://dc.lft.to/lastmile_qr_scan"}, "type": "electric_scooter", "lat": 38.892838, "is_reserved": 0, "fusion_lat": 0.0}, {"bike_id": "5e62b27e9ab40eb5333d5e804a612c19", "fusion_lon": 0.0, "lon": -77.1062095, "name": "5e62b27e9ab40eb5333d5e804a612c19", "is_disabled": 0, "rental_uris": {"android": "https://dc.lft.to/lastmile_qr_scan", "ios": "https://dc.lft.to/lastmile_qr_scan"}, "type": "electric_bike", "lat": 38.87321716666667, "is_reserved": 0, "fusion_lat": 0.0}, {"bike_id": "a009a462c7bbffa078797f44a8f0711a", "fusion_lon": 0.0, "lon": -77.05080716666667, "name": "a009a462c7bbffa078797f44a8f0711a", "is_disabled": 0, "rental_uris": {"android": "https://dc.lft.to/lastmile_qr_scan", "ios": "https://dc.lft.to/lastmile_qr_scan"}, "type": "electric_scooter", "lat": 38.92345983333333, "is_reserved": 0, "fusion_lat": 0.0}, {"bike_id": "ddaccd7656e74c6a36ade70b6ad7d649", "fusion_lon": 0.0, "lon": -77.00199283333333, "name": "ddaccd7656e74c6a36ade70b6ad7d649", "is_disabled": 0, "rental_uris": {"android": "https://dc.lft.to/lastmile_qr_scan", "ios": "https://dc.lft.to/lastmile_qr_scan"}, "type": "electric_scooter", "lat": 38.902409, "is_reserved": 0, "fusion_lat": 0.0}, {"bike_id": "7942f445a71af41a38623f1529c17019", "fusion_lon": 0.0, "lon": -77.0256115, "name": "7942f445a71af41a38623f1529c17019", "is_disabled": 0, "rental_uris": {"android": "https://dc.lft.to/lastmile_qr_scan", "ios": "https://dc.lft.to/lastmile_qr_scan"}, "type": "electric_scooter", "lat": 38.92431216666667, "is_reserved": 0, "fusion_lat": 0.0}, {"bike_id": "4d2dc471c814a06dafa0b2ad7f9b749a", "fusion_lon": 0.0, "lon": -77.02388, "name": "4d2dc471c814a06dafa0b2ad7f9b749a", "is_disabled": 0, "rental_uris": {"android": "https://dc.lft.to/lastmile_qr_scan", "ios": "https://dc.lft.to/lastmile_qr_scan"}, "type": "electric_scooter", "lat": 38.907145, "is_reserved": 0, "fusion_lat": 0.0}, {"bike_id": "62b1c541241bf4803f08fef411f8f891", "fusion_lon": 0.0, "lon": -77.02430433333333, "name": "62b1c541241bf4803f08fef411f8f891", "is_disabled": 0, "rental_uris": {"android": "https://dc.lft.to/lastmile_qr_scan", "ios": "https://dc.lft.to/lastmile_qr_scan"}, "type": "electric_scooter", "lat": 38.920868666666664, "is_reserved": 0, "fusion_lat": 0.0}, {"bike_id": "83857ed82a7e43bcc6b1cdc28a1aac65", "fusion_lon": 0.0, "lon": -77.01767633333333, "name": "83857ed82a7e43bcc6b1cdc28a1aac65", "is_disabled": 0, "rental_uris": {"android": "https://dc.lft.to/lastmile_qr_scan", "ios": "https://dc.lft.to/lastmile_qr_scan"}, "type": "electric_scooter", "lat": 38.881395, "is_reserved": 0, "fusion_lat": 0.0}, {"bike_id": "92aff4bb33d917a54f2ea6dae3211733", "fusion_lon": 0.0, "lon": -77.02080416666666, "name": "92aff4bb33d917a54f2ea6dae3211733", "is_disabled": 0, "rental_uris": {"android": "https://dc.lft.to/lastmile_qr_scan", "ios": "https://dc.lft.to/lastmile_qr_scan"}, "type": "electric_scooter", "lat": 38.927007, "is_reserved": 0, "fusion_lat": 0.0}, {"bike_id": "973250617f3649614e826f164797eed6", "fusion_lon": 0.0, "lon": -77.0247895, "name": "973250617f3649614e826f164797eed6", "is_disabled": 0, "rental_uris": {"android": "https://dc.lft.to/lastmile_qr_scan", "ios": "https://dc.lft.to/lastmile_qr_scan"}, "type": "electric_scooter", "lat": 38.880115, "is_reserved": 0, "fusion_lat": 0.0}, {"bike_id": "ef028609bb52c2147a1538b0f30c8200", "fusion_lon": 0.0, "lon": -77.03537366666667, "name": "ef028609bb52c2147a1538b0f30c8200", "is_disabled": 0, "rental_uris": {"android": "https://dc.lft.to/lastmile_qr_scan", "ios": "https://dc.lft.to/lastmile_qr_scan"}, "type": "electric_scooter", "lat": 38.92632, "is_reserved": 0, "fusion_lat": 0.0}, {"bike_id": "9d6c16172aca81d5bebc2fa14254b84e", "fusion_lon": 0.0, "lon": -77.022753, "name": "9d6c16172aca81d5bebc2fa14254b84e", "is_disabled": 0, "rental_uris": {"android": "https://dc.lft.to/lastmile_qr_scan", "ios": "https://dc.lft.to/lastmile_qr_scan"}, "type": "electric_scooter", "lat": 38.917013833333336, "is_reserved": 0, "fusion_lat": 0.0}, {"bike_id": "493098f36e6857666d69de707a568d58", "fusion_lon": 0.0, "lon": -77.0466325, "name": "493098f36e6857666d69de707a568d58", "is_disabled": 0, "rental_uris": {"android": "https://dc.lft.to/lastmile_qr_scan", "ios": "https://dc.lft.to/lastmile_qr_scan"}, "type": "electric_scooter", "lat": 38.892436000000004, "is_reserved": 0, "fusion_lat": 0.0}, {"bike_id": "1c29fb14f10a96d12987f407e72c69fd", "fusion_lon": 0.0, "lon": -77.05854733333334, "name": "1c29fb14f10a96d12987f407e72c69fd", "is_disabled": 0, "rental_uris": {"android": "https://dc.lft.to/lastmile_qr_scan", "ios": "https://dc.lft.to/lastmile_qr_scan"}, "type": "electric_scooter", "lat": 38.93607516666667, "is_reserved": 0, "fusion_lat": 0.0}, {"bike_id": "303d77445dc6af9edaafc1362de12f85", "fusion_lon": 0.0, "lon": -77.02714883333333, "name": "303d77445dc6af9edaafc1362de12f85", "is_disabled": 0, "rental_uris": {"android": "https://dc.lft.to/lastmile_qr_scan", "ios": "https://dc.lft.to/lastmile_qr_scan"}, "type": "electric_scooter", "lat": 38.91565583333333, "is_reserved": 0, "fusion_lat": 0.0}, {"bike_id": "a31797cdae900abff7bedb03682c53bc", "fusion_lon": 0.0, "lon": -77.055363, "name": "a31797cdae900abff7bedb03682c53bc", "is_disabled": 0, "rental_uris": {"android": "https://dc.lft.to/lastmile_qr_scan", "ios": "https://dc.lft.to/lastmile_qr_scan"}, "type": "electric_scooter", "lat": 38.9301425, "is_reserved": 0, "fusion_lat": 0.0}, {"bike_id": "a91feef652e9cc45aad5fa8754e9a6d6", "fusion_lon": 0.0, "lon": -77.02722016666667, "name": "a91feef652e9cc45aad5fa8754e9a6d6", "is_disabled": 0, "rental_uris": {"android": "https://dc.lft.to/lastmile_qr_scan", "ios": "https://dc.lft.to/lastmile_qr_scan"}, "type": "electric_scooter", "lat": 38.949609, "is_reserved": 0, "fusion_lat": 0.0}, {"bike_id": "2169650b40791b0ad350b3d140c5d586", "fusion_lon": 0.0, "lon": -77.0296475, "name": "2169650b40791b0ad350b3d140c5d586", "is_disabled": 0, "rental_uris": {"android": "https://dc.lft.to/lastmile_qr_scan", "ios": "https://dc.lft.to/lastmile_qr_scan"}, "type": "electric_scooter", "lat": 38.923685, "is_reserved": 0, "fusion_lat": 0.0}, {"bike_id": "09bb5be61483d67fe89883747b037a46", "fusion_lon": 0.0, "lon": -77.02346316666667, "name": "09bb5be61483d67fe89883747b037a46", "is_disabled": 0, "rental_uris": {"android": "https://dc.lft.to/lastmile_qr_scan", "ios": "https://dc.lft.to/lastmile_qr_scan"}, "type": "electric_scooter", "lat": 38.93125466666667, "is_reserved": 0, "fusion_lat": 0.0}, {"bike_id": "6ab0f963af6070320de4ae07120a084d", "fusion_lon": 0.0, "lon": -77.027236, "name": "6ab0f963af6070320de4ae07120a084d", "is_disabled": 0, "rental_uris": {"android": "https://dc.lft.to/lastmile_qr_scan", "ios": "https://dc.lft.to/lastmile_qr_scan"}, "type": "electric_scooter", "lat": 38.9496, "is_reserved": 0, "fusion_lat": 0.0}, {"bike_id": "e78dfa8497b9a1af0a3198185a912c41", "fusion_lon": 0.0, "lon": -77.04601033333333, "name": "e78dfa8497b9a1af0a3198185a912c41", "is_disabled": 0, "rental_uris": {"android": "https://dc.lft.to/lastmile_qr_scan", "ios": "https://dc.lft.to/lastmile_qr_scan"}, "type": "electric_scooter", "lat": 38.91918283333333, "is_reserved": 0, "fusion_lat": 0.0}, {"bike_id": "2cf5515f7f44e4fcaec55eaf7eaf6726", "fusion_lon": 0.0, "lon": -77.02742516666666, "name": "2cf5515f7f44e4fcaec55eaf7eaf6726", "is_disabled": 0, "rental_uris": {"android": "https://dc.lft.to/lastmile_qr_scan", "ios": "https://dc.lft.to/lastmile_qr_scan"}, "type": "electric_scooter", "lat": 38.933613, "is_reserved": 0, "fusion_lat": 0.0}, {"bike_id": "dd1573edebd7f00175aeda0e27c31ce7", "fusion_lon": 0.0, "lon": -76.99348983333333, "name": "dd1573edebd7f00175aeda0e27c31ce7", "is_disabled": 0, "rental_uris": {"android": "https://dc.lft.to/lastmile_qr_scan", "ios": "https://dc.lft.to/lastmile_qr_scan"}, "type": "electric_scooter", "lat": 38.914820666666664, "is_reserved": 0, "fusion_lat": 0.0}, {"bike_id": "c0c2298e223d4a8369925404a10d7017", "fusion_lon": 0.0, "lon": -76.98109766666667, "name": "c0c2298e223d4a8369925404a10d7017", "is_disabled": 0, "rental_uris": {"android": "https://dc.lft.to/lastmile_qr_scan", "ios": "https://dc.lft.to/lastmile_qr_scan"}, "type": "electric_bike", "lat": 38.877309333333336, "is_reserved": 0, "fusion_lat": 0.0}, {"bike_id": "e773f57d97f01922aa31938e008c16f7", "fusion_lon": 0.0, "lon": -77.03901833333333, "name": "e773f57d97f01922aa31938e008c16f7", "is_disabled": 0, "rental_uris": {"android": "https://dc.lft.to/lastmile_qr_scan", "ios": "https://dc.lft.to/lastmile_qr_scan"}, "type": "electric_scooter", "lat": 38.92238916666667, "is_reserved": 0, "fusion_lat": 0.0}, {"bike_id": "e4876c4693612eca880f3215d45b430f", "fusion_lon": 0.0, "lon": -77.03163316666667, "name": "e4876c4693612eca880f3215d45b430f", "is_disabled": 0, "rental_uris": {"android": "https://dc.lft.to/lastmile_qr_scan", "ios": "https://dc.lft.to/lastmile_qr_scan"}, "type": "electric_scooter", "lat": 38.892257, "is_reserved": 0, "fusion_lat": 0.0}, {"bike_id": "0ecc179d914adab0cd32bec71371084c", "fusion_lon": 0.0, "lon": -77.02420683333334, "name": "0ecc179d914adab0cd32bec71371084c", "is_disabled": 0, "rental_uris": {"android": "https://dc.lft.to/lastmile_qr_scan", "ios": "https://dc.lft.to/lastmile_qr_scan"}, "type": "electric_scooter", "lat": 38.937126666666664, "is_reserved": 0, "fusion_lat": 0.0}, {"bike_id": "e7796d977117850f39a372e104663d91", "fusion_lon": 0.0, "lon": -76.99607966666667, "name": "e7796d977117850f39a372e104663d91", "is_disabled": 0, "rental_uris": {"android": "https://dc.lft.to/lastmile_qr_scan", "ios": "https://dc.lft.to/lastmile_qr_scan"}, "type": "electric_scooter", "lat": 38.88495566666667, "is_reserved": 0, "fusion_lat": 0.0}, {"bike_id": "d3fad88121e060bc797554ab4a64df06", "fusion_lon": 0.0, "lon": -77.03198316666666, "name": "d3fad88121e060bc797554ab4a64df06", "is_disabled": 0, "rental_uris": {"android": "https://dc.lft.to/lastmile_qr_scan", "ios": "https://dc.lft.to/lastmile_qr_scan"}, "type": "electric_scooter", "lat": 38.9083005, "is_reserved": 0, "fusion_lat": 0.0}, {"bike_id": "552874ba84b1a1213167533c7b851b91", "fusion_lon": 0.0, "lon": -77.04575983333334, "name": "552874ba84b1a1213167533c7b851b91", "is_disabled": 0, "rental_uris": {"android": "https://dc.lft.to/lastmile_qr_scan", "ios": "https://dc.lft.to/lastmile_qr_scan"}, "type": "electric_scooter", "lat": 38.9211905, "is_reserved": 0, "fusion_lat": 0.0}, {"bike_id": "451d1f21fc0baf64aa4df3e1d30d4e99", "fusion_lon": 0.0, "lon": -77.03871833333334, "name": "451d1f21fc0baf64aa4df3e1d30d4e99", "is_disabled": 0, "rental_uris": {"android": "https://dc.lft.to/lastmile_qr_scan", "ios": "https://dc.lft.to/lastmile_qr_scan"}, "type": "electric_scooter", "lat": 38.915513833333335, "is_reserved": 0, "fusion_lat": 0.0}, {"bike_id": "3ea14f692e97cad39703c12f34a47061", "fusion_lon": 0.0, "lon": -77.0362275, "name": "3ea14f692e97cad39703c12f34a47061", "is_disabled": 0, "rental_uris": {"android": "https://dc.lft.to/lastmile_qr_scan", "ios": "https://dc.lft.to/lastmile_qr_scan"}, "type": "electric_scooter", "lat": 38.916929833333334, "is_reserved": 0, "fusion_lat": 0.0}, {"bike_id": "9387629901d9ec958450547d04c1c1c9", "fusion_lon": 0.0, "lon": -77.01622433333333, "name": "9387629901d9ec958450547d04c1c1c9", "is_disabled": 0, "rental_uris": {"android": "https://dc.lft.to/lastmile_qr_scan", "ios": "https://dc.lft.to/lastmile_qr_scan"}, "type": "electric_scooter", "lat": 38.901378333333334, "is_reserved": 0, "fusion_lat": 0.0}, {"bike_id": "7a1f4bc1748739e99e323130d0dce5e3", "fusion_lon": 0.0, "lon": -77.032535, "name": "7a1f4bc1748739e99e323130d0dce5e3", "is_disabled": 0, "rental_uris": {"android": "https://dc.lft.to/lastmile_qr_scan", "ios": "https://dc.lft.to/lastmile_qr_scan"}, "type": "electric_bike", "lat": 38.919877, "is_reserved": 0, "fusion_lat": 0.0}, {"bike_id": "478023922352ddc73f8b3c5457ec069d", "fusion_lon": 0.0, "lon": -77.095216, "name": "478023922352ddc73f8b3c5457ec069d", "is_disabled": 0, "rental_uris": {"android": "https://dc.lft.to/lastmile_qr_scan", "ios": "https://dc.lft.to/lastmile_qr_scan"}, "type": "electric_bike", "lat": 38.83811733333334, "is_reserved": 0, "fusion_lat": 0.0}, {"bike_id": "5e114d317b17c213e4b8cce10c55e92f", "fusion_lon": 0.0, "lon": -76.9386425, "name": "5e114d317b17c213e4b8cce10c55e92f", "is_disabled": 0, "rental_uris": {"android": "https://dc.lft.to/lastmile_qr_scan", "ios": "https://dc.lft.to/lastmile_qr_scan"}, "type": "electric_scooter", "lat": 38.89899, "is_reserved": 0, "fusion_lat": 0.0}, {"bike_id": "9e96515a2cd9d1fa7cd4cd5a35f74dc3", "fusion_lon": 0.0, "lon": -77.22346883333333, "name": "9e96515a2cd9d1fa7cd4cd5a35f74dc3", "is_disabled": 0, "rental_uris": {"android": "https://dc.lft.to/lastmile_qr_scan", "ios": "https://dc.lft.to/lastmile_qr_scan"}, "type": "electric_bike", "lat": 38.91799966666667, "is_reserved": 0, "fusion_lat": 0.0}, {"bike_id": "1c434e44cb3579eb27fc0bca9837171b", "fusion_lon": 0.0, "lon": -77.03662983333334, "name": "1c434e44cb3579eb27fc0bca9837171b", "is_disabled": 0, "rental_uris": {"android": "https://dc.lft.to/lastmile_qr_scan", "ios": "https://dc.lft.to/lastmile_qr_scan"}, "type": "electric_scooter", "lat": 38.917998, "is_reserved": 0, "fusion_lat": 0.0}, {"bike_id": "8d52d80070a862da904c1c0795c49060", "fusion_lon": 0.0, "lon": -77.02462383333334, "name": "8d52d80070a862da904c1c0795c49060", "is_disabled": 0, "rental_uris": {"android": "https://dc.lft.to/lastmile_qr_scan", "ios": "https://dc.lft.to/lastmile_qr_scan"}, "type": "electric_scooter", "lat": 38.91696616666667, "is_reserved": 0, "fusion_lat": 0.0}, {"bike_id": "9cd2c3b7775c13fd74ad5a4e1f8b86c4", "fusion_lon": 0.0, "lon": -77.02373366666667, "name": "9cd2c3b7775c13fd74ad5a4e1f8b86c4", "is_disabled": 0, "rental_uris": {"android": "https://dc.lft.to/lastmile_qr_scan", "ios": "https://dc.lft.to/lastmile_qr_scan"}, "type": "electric_scooter", "lat": 38.91785216666667, "is_reserved": 0, "fusion_lat": 0.0}, {"bike_id": "e959f01df4e0cc85606d36f09e0b22a7", "fusion_lon": 0.0, "lon": -77.04861, "name": "e959f01df4e0cc85606d36f09e0b22a7", "is_disabled": 0, "rental_uris": {"android": "https://dc.lft.to/lastmile_qr_scan", "ios": "https://dc.lft.to/lastmile_qr_scan"}, "type": "electric_scooter", "lat": 38.90494483333333, "is_reserved": 0, "fusion_lat": 0.0}, {"bike_id": "fea82b075a65fcf0bc97b3bb4998d598", "fusion_lon": 0.0, "lon": -77.06216616666667, "name": "fea82b075a65fcf0bc97b3bb4998d598", "is_disabled": 0, "rental_uris": {"android": "https://dc.lft.to/lastmile_qr_scan", "ios": "https://dc.lft.to/lastmile_qr_scan"}, "type": "electric_scooter", "lat": 38.90528666666667, "is_reserved": 0, "fusion_lat": 0.0}, {"bike_id": "2c6868dd312a172a2e8aa55b1c3dff4c", "fusion_lon": 0.0, "lon": -77.02374816666666, "name": "2c6868dd312a172a2e8aa55b1c3dff4c", "is_disabled": 0, "rental_uris": {"android": "https://dc.lft.to/lastmile_qr_scan", "ios": "https://dc.lft.to/lastmile_qr_scan"}, "type": "electric_scooter", "lat": 38.93239533333333, "is_reserved": 0, "fusion_lat": 0.0}, {"bike_id": "df23d5940b0cf36918262a64c6b47b9e", "fusion_lon": 0.0, "lon": -77.01806, "name": "df23d5940b0cf36918262a64c6b47b9e", "is_disabled": 0, "rental_uris": {"android": "https://dc.lft.to/lastmile_qr_scan", "ios": "https://dc.lft.to/lastmile_qr_scan"}, "type": "electric_scooter", "lat": 38.921372166666664, "is_reserved": 0, "fusion_lat": 0.0}, {"bike_id": "83fd1017628683974082ac32f87a6acf", "fusion_lon": 0.0, "lon": -77.06008516666667, "name": "83fd1017628683974082ac32f87a6acf", "is_disabled": 0, "rental_uris": {"android": "https://dc.lft.to/lastmile_qr_scan", "ios": "https://dc.lft.to/lastmile_qr_scan"}, "type": "electric_scooter", "lat": 38.9051095, "is_reserved": 0, "fusion_lat": 0.0}, {"bike_id": "d9ccda4d28ff9961ee8c3f45747e0891", "fusion_lon": 0.0, "lon": -76.9977915, "name": "d9ccda4d28ff9961ee8c3f45747e0891", "is_disabled": 0, "rental_uris": {"android": "https://dc.lft.to/lastmile_qr_scan", "ios": "https://dc.lft.to/lastmile_qr_scan"}, "type": "electric_bike", "lat": 38.862128, "is_reserved": 0, "fusion_lat": 0.0}, {"bike_id": "4eaebc9dfddf9aef2cc0ed689390b5fd", "fusion_lon": 0.0, "lon": -77.021861, "name": "4eaebc9dfddf9aef2cc0ed689390b5fd", "is_disabled": 0, "rental_uris": {"android": "https://dc.lft.to/lastmile_qr_scan", "ios": "https://dc.lft.to/lastmile_qr_scan"}, "type": "electric_scooter", "lat": 38.91508183333333, "is_reserved": 0, "fusion_lat": 0.0}, {"bike_id": "bbee454da65e2cd0bb01755c70780559", "fusion_lon": 0.0, "lon": -77.04324266666667, "name": "bbee454da65e2cd0bb01755c70780559", "is_disabled": 0, "rental_uris": {"android": "https://dc.lft.to/lastmile_qr_scan", "ios": "https://dc.lft.to/lastmile_qr_scan"}, "type": "electric_scooter", "lat": 38.923806, "is_reserved": 0, "fusion_lat": 0.0}, {"bike_id": "cb0b5cb1e6445e016472642fea2d1f67", "fusion_lon": 0.0, "lon": -77.03023933333333, "name": "cb0b5cb1e6445e016472642fea2d1f67", "is_disabled": 0, "rental_uris": {"android": "https://dc.lft.to/lastmile_qr_scan", "ios": "https://dc.lft.to/lastmile_qr_scan"}, "type": "electric_scooter", "lat": 38.89616683333333, "is_reserved": 0, "fusion_lat": 0.0}, {"bike_id": "493c54d65fa844e6802a593aada957b2", "fusion_lon": 0.0, "lon": -77.05007433333333, "name": "493c54d65fa844e6802a593aada957b2", "is_disabled": 0, "rental_uris": {"android": "https://dc.lft.to/lastmile_qr_scan", "ios": "https://dc.lft.to/lastmile_qr_scan"}, "type": "electric_scooter", "lat": 38.89229816666667, "is_reserved": 0, "fusion_lat": 0.0}, {"bike_id": "673a53167a2e66f3c176a09017630e0c", "fusion_lon": 0.0, "lon": -76.9317855, "name": "673a53167a2e66f3c176a09017630e0c", "is_disabled": 0, "rental_uris": {"android": "https://dc.lft.to/lastmile_qr_scan", "ios": "https://dc.lft.to/lastmile_qr_scan"}, "type": "electric_scooter", "lat": 38.8988375, "is_reserved": 0, "fusion_lat": 0.0}, {"bike_id": "5913d0f8465d27c32ff23232081dcb5e", "fusion_lon": 0.0, "lon": -77.0359465, "name": "5913d0f8465d27c32ff23232081dcb5e", "is_disabled": 0, "rental_uris": {"android": "https://dc.lft.to/lastmile_qr_scan", "ios": "https://dc.lft.to/lastmile_qr_scan"}, "type": "electric_scooter", "lat": 38.9187195, "is_reserved": 0, "fusion_lat": 0.0}, {"bike_id": "c003018f69f14139fd3627f1be49b5d9", "fusion_lon": 0.0, "lon": -76.98509583333333, "name": "c003018f69f14139fd3627f1be49b5d9", "is_disabled": 0, "rental_uris": {"android": "https://dc.lft.to/lastmile_qr_scan", "ios": "https://dc.lft.to/lastmile_qr_scan"}, "type": "electric_scooter", "lat": 38.866588166666666, "is_reserved": 0, "fusion_lat": 0.0}, {"bike_id": "f7741f8b4884d4b11abe4ecafa5f196a", "fusion_lon": 0.0, "lon": -77.04584416666667, "name": "f7741f8b4884d4b11abe4ecafa5f196a", "is_disabled": 0, "rental_uris": {"android": "https://dc.lft.to/lastmile_qr_scan", "ios": "https://dc.lft.to/lastmile_qr_scan"}, "type": "electric_scooter", "lat": 38.908742, "is_reserved": 0, "fusion_lat": 0.0}, {"bike_id": "e8823a6f3cdef84178a666c9958191df", "fusion_lon": 0.0, "lon": -76.97595483333333, "name": "e8823a6f3cdef84178a666c9958191df", "is_disabled": 0, "rental_uris": {"android": "https://dc.lft.to/lastmile_qr_scan", "ios": "https://dc.lft.to/lastmile_qr_scan"}, "type": "electric_scooter", "lat": 38.903326666666665, "is_reserved": 0, "fusion_lat": 0.0}, {"bike_id": "26a6c49a12ad72f4a8fdf1200ed000cf", "fusion_lon": 0.0, "lon": -77.01309133333334, "name": "26a6c49a12ad72f4a8fdf1200ed000cf", "is_disabled": 0, "rental_uris": {"android": "https://dc.lft.to/lastmile_qr_scan", "ios": "https://dc.lft.to/lastmile_qr_scan"}, "type": "electric_scooter", "lat": 38.914046, "is_reserved": 0, "fusion_lat": 0.0}, {"bike_id": "8baaec5cd92573568f8b779b1d77f878", "fusion_lon": 0.0, "lon": -77.05063633333333, "name": "8baaec5cd92573568f8b779b1d77f878", "is_disabled": 0, "rental_uris": {"android": "https://dc.lft.to/lastmile_qr_scan", "ios": "https://dc.lft.to/lastmile_qr_scan"}, "type": "electric_scooter", "lat": 38.923441833333335, "is_reserved": 0, "fusion_lat": 0.0}, {"bike_id": "f2600659cd8a4ef4c091624bdf2b91a5", "fusion_lon": 0.0, "lon": -77.03475483333334, "name": "f2600659cd8a4ef4c091624bdf2b91a5", "is_disabled": 0, "rental_uris": {"android": "https://dc.lft.to/lastmile_qr_scan", "ios": "https://dc.lft.to/lastmile_qr_scan"}, "type": "electric_scooter", "lat": 38.917050833333334, "is_reserved": 0, "fusion_lat": 0.0}, {"bike_id": "d2ff500f6fd3ea37f02e07ecdf9304da", "fusion_lon": 0.0, "lon": -77.07823, "name": "d2ff500f6fd3ea37f02e07ecdf9304da", "is_disabled": 0, "rental_uris": {"android": "https://dc.lft.to/lastmile_qr_scan", "ios": "https://dc.lft.to/lastmile_qr_scan"}, "type": "electric_scooter", "lat": 38.91274416666667, "is_reserved": 0, "fusion_lat": 0.0}, {"bike_id": "0777290444ce22594317ac391eae428d", "fusion_lon": 0.0, "lon": -77.046591, "name": "0777290444ce22594317ac391eae428d", "is_disabled": 0, "rental_uris": {"android": "https://dc.lft.to/lastmile_qr_scan", "ios": "https://dc.lft.to/lastmile_qr_scan"}, "type": "electric_scooter", "lat": 38.908485166666665, "is_reserved": 0, "fusion_lat": 0.0}, {"bike_id": "28fe125ea1af2b5971d8dd4375499952", "fusion_lon": 0.0, "lon": -77.0034745, "name": "28fe125ea1af2b5971d8dd4375499952", "is_disabled": 0, "rental_uris": {"android": "https://dc.lft.to/lastmile_qr_scan", "ios": "https://dc.lft.to/lastmile_qr_scan"}, "type": "electric_scooter", "lat": 38.884429, "is_reserved": 0, "fusion_lat": 0.0}, {"bike_id": "bfb528bb6b8304cca55522f136c686ad", "fusion_lon": 0.0, "lon": -77.03352466666666, "name": "bfb528bb6b8304cca55522f136c686ad", "is_disabled": 0, "rental_uris": {"android": "https://dc.lft.to/lastmile_qr_scan", "ios": "https://dc.lft.to/lastmile_qr_scan"}, "type": "electric_scooter", "lat": 38.931469666666665, "is_reserved": 0, "fusion_lat": 0.0}, {"bike_id": "f1db487df29fab24413b4598cba6045a", "fusion_lon": 0.0, "lon": -77.03193866666666, "name": "f1db487df29fab24413b4598cba6045a", "is_disabled": 0, "rental_uris": {"android": "https://dc.lft.to/lastmile_qr_scan", "ios": "https://dc.lft.to/lastmile_qr_scan"}, "type": "electric_scooter", "lat": 38.9174185, "is_reserved": 0, "fusion_lat": 0.0}, {"bike_id": "8bcf0a16026044611683a7ba3ad6aaa3", "fusion_lon": 0.0, "lon": -77.02580716666667, "name": "8bcf0a16026044611683a7ba3ad6aaa3", "is_disabled": 0, "rental_uris": {"android": "https://dc.lft.to/lastmile_qr_scan", "ios": "https://dc.lft.to/lastmile_qr_scan"}, "type": "electric_scooter", "lat": 38.92053683333334, "is_reserved": 0, "fusion_lat": 0.0}, {"bike_id": "d7c56965d981d4e2ace6508ca4cb9a03", "fusion_lon": 0.0, "lon": -77.068639, "name": "d7c56965d981d4e2ace6508ca4cb9a03", "is_disabled": 0, "rental_uris": {"android": "https://dc.lft.to/lastmile_qr_scan", "ios": "https://dc.lft.to/lastmile_qr_scan"}, "type": "electric_bike", "lat": 38.93699016666667, "is_reserved": 0, "fusion_lat": 0.0}, {"bike_id": "02ac8a7681e165cc79b6f5c8a3a2c847", "fusion_lon": 0.0, "lon": -77.0468785, "name": "02ac8a7681e165cc79b6f5c8a3a2c847", "is_disabled": 0, "rental_uris": {"android": "https://dc.lft.to/lastmile_qr_scan", "ios": "https://dc.lft.to/lastmile_qr_scan"}, "type": "electric_scooter", "lat": 38.89223966666667, "is_reserved": 0, "fusion_lat": 0.0}, {"bike_id": "f6ef6bddf89f877ed54cc47c788a232e", "fusion_lon": 0.0, "lon": -77.01310666666667, "name": "f6ef6bddf89f877ed54cc47c788a232e", "is_disabled": 0, "rental_uris": {"android": "https://dc.lft.to/lastmile_qr_scan", "ios": "https://dc.lft.to/lastmile_qr_scan"}, "type": "electric_scooter", "lat": 38.907369333333335, "is_reserved": 0, "fusion_lat": 0.0}, {"bike_id": "7061b4978cd772dd0877fdd37386aa81", "fusion_lon": 0.0, "lon": -77.12526, "name": "7061b4978cd772dd0877fdd37386aa81", "is_disabled": 0, "rental_uris": {"android": "https://dc.lft.to/lastmile_qr_scan", "ios": "https://dc.lft.to/lastmile_qr_scan"}, "type": "electric_bike", "lat": 39.0563395, "is_reserved": 0, "fusion_lat": 0.0}, {"bike_id": "8838e6a585beeb2bb7823d26840f65eb", "fusion_lon": 0.0, "lon": -77.0384645, "name": "8838e6a585beeb2bb7823d26840f65eb", "is_disabled": 0, "rental_uris": {"android": "https://dc.lft.to/lastmile_qr_scan", "ios": "https://dc.lft.to/lastmile_qr_scan"}, "type": "electric_scooter", "lat": 38.92165, "is_reserved": 0, "fusion_lat": 0.0}, {"bike_id": "da6a4aca237efb79c112ed10c80b7c3d", "fusion_lon": 0.0, "lon": -77.04357, "name": "da6a4aca237efb79c112ed10c80b7c3d", "is_disabled": 0, "rental_uris": {"android": "https://dc.lft.to/lastmile_qr_scan", "ios": "https://dc.lft.to/lastmile_qr_scan"}, "type": "electric_scooter", "lat": 38.902560333333334, "is_reserved": 0, "fusion_lat": 0.0}, {"bike_id": "abc3f7dfcf431e88f26532b5a4a613ad", "fusion_lon": 0.0, "lon": -77.02794283333333, "name": "abc3f7dfcf431e88f26532b5a4a613ad", "is_disabled": 0, "rental_uris": {"android": "https://dc.lft.to/lastmile_qr_scan", "ios": "https://dc.lft.to/lastmile_qr_scan"}, "type": "electric_scooter", "lat": 38.963431166666666, "is_reserved": 0, "fusion_lat": 0.0}, {"bike_id": "fc3ec96931c105c7f4630ba066c5232a", "fusion_lon": 0.0, "lon": -77.02318183333334, "name": "fc3ec96931c105c7f4630ba066c5232a", "is_disabled": 0, "rental_uris": {"android": "https://dc.lft.to/lastmile_qr_scan", "ios": "https://dc.lft.to/lastmile_qr_scan"}, "type": "electric_scooter", "lat": 38.89603866666667, "is_reserved": 0, "fusion_lat": 0.0}, {"bike_id": "44f5e0b6eea27d3f20abb5b8e27568eb", "fusion_lon": 0.0, "lon": -76.99499716666666, "name": "44f5e0b6eea27d3f20abb5b8e27568eb", "is_disabled": 0, "rental_uris": {"android": "https://dc.lft.to/lastmile_qr_scan", "ios": "https://dc.lft.to/lastmile_qr_scan"}, "type": "electric_scooter", "lat": 38.899095, "is_reserved": 0, "fusion_lat": 0.0}, {"bike_id": "ed61b05a96b022edbf55d09a642ef62b", "fusion_lon": 0.0, "lon": -76.94638766666667, "name": "ed61b05a96b022edbf55d09a642ef62b", "is_disabled": 0, "rental_uris": {"android": "https://dc.lft.to/lastmile_qr_scan", "ios": "https://dc.lft.to/lastmile_qr_scan"}, "type": "electric_scooter", "lat": 38.8984305, "is_reserved": 0, "fusion_lat": 0.0}, {"bike_id": "511dfd9c6089dd167022f28abc2fd14c", "fusion_lon": 0.0, "lon": -76.9972875, "name": "511dfd9c6089dd167022f28abc2fd14c", "is_disabled": 0, "rental_uris": {"android": "https://dc.lft.to/lastmile_qr_scan", "ios": "https://dc.lft.to/lastmile_qr_scan"}, "type": "electric_scooter", "lat": 38.907943833333334, "is_reserved": 0, "fusion_lat": 0.0}, {"bike_id": "08ed3f2fab2a4b7470b690feb8bd6ebb", "fusion_lon": 0.0, "lon": -77.02102683333334, "name": "08ed3f2fab2a4b7470b690feb8bd6ebb", "is_disabled": 0, "rental_uris": {"android": "https://dc.lft.to/lastmile_qr_scan", "ios": "https://dc.lft.to/lastmile_qr_scan"}, "type": "electric_scooter", "lat": 38.92715316666666, "is_reserved": 0, "fusion_lat": 0.0}, {"bike_id": "39488c4f52fb41938c54a99c39b7dfd0", "fusion_lon": 0.0, "lon": -77.04556083333334, "name": "39488c4f52fb41938c54a99c39b7dfd0", "is_disabled": 0, "rental_uris": {"android": "https://dc.lft.to/lastmile_qr_scan", "ios": "https://dc.lft.to/lastmile_qr_scan"}, "type": "electric_scooter", "lat": 38.919434333333335, "is_reserved": 0, "fusion_lat": 0.0}, {"bike_id": "ac7d561cdfa54ac78c0dc0bec4d2f011", "fusion_lon": 0.0, "lon": -76.946553, "name": "ac7d561cdfa54ac78c0dc0bec4d2f011", "is_disabled": 0, "rental_uris": {"android": "https://dc.lft.to/lastmile_qr_scan", "ios": "https://dc.lft.to/lastmile_qr_scan"}, "type": "electric_scooter", "lat": 38.89824816666667, "is_reserved": 0, "fusion_lat": 0.0}, {"bike_id": "aa1719c1878e42a63ffd7cdf5743c1cd", "fusion_lon": 0.0, "lon": -76.98490516666666, "name": "aa1719c1878e42a63ffd7cdf5743c1cd", "is_disabled": 0, "rental_uris": {"android": "https://dc.lft.to/lastmile_qr_scan", "ios": "https://dc.lft.to/lastmile_qr_scan"}, "type": "electric_scooter", "lat": 38.86674033333333, "is_reserved": 0, "fusion_lat": 0.0}, {"bike_id": "1a4fd8b180c015b3d7786142ac8d3725", "fusion_lon": 0.0, "lon": -77.02994683333333, "name": "1a4fd8b180c015b3d7786142ac8d3725", "is_disabled": 0, "rental_uris": {"android": "https://dc.lft.to/lastmile_qr_scan", "ios": "https://dc.lft.to/lastmile_qr_scan"}, "type": "electric_scooter", "lat": 38.938700833333336, "is_reserved": 0, "fusion_lat": 0.0}, {"bike_id": "c656ab4203d1f5bd21ad761a458592f8", "fusion_lon": 0.0, "lon": -77.0320725, "name": "c656ab4203d1f5bd21ad761a458592f8", "is_disabled": 0, "rental_uris": {"android": "https://dc.lft.to/lastmile_qr_scan", "ios": "https://dc.lft.to/lastmile_qr_scan"}, "type": "electric_scooter", "lat": 38.916974833333335, "is_reserved": 0, "fusion_lat": 0.0}, {"bike_id": "f15ebb11843a4ed4f52ba0c79a691f15", "fusion_lon": 0.0, "lon": -77.0153115, "name": "f15ebb11843a4ed4f52ba0c79a691f15", "is_disabled": 0, "rental_uris": {"android": "https://dc.lft.to/lastmile_qr_scan", "ios": "https://dc.lft.to/lastmile_qr_scan"}, "type": "electric_scooter", "lat": 38.88742966666667, "is_reserved": 0, "fusion_lat": 0.0}, {"bike_id": "389d09bc4fc813cbbb4a2892659476cb", "fusion_lon": 0.0, "lon": -77.026869, "name": "389d09bc4fc813cbbb4a2892659476cb", "is_disabled": 0, "rental_uris": {"android": "https://dc.lft.to/lastmile_qr_scan", "ios": "https://dc.lft.to/lastmile_qr_scan"}, "type": "electric_scooter", "lat": 38.9067185, "is_reserved": 0, "fusion_lat": 0.0}, {"bike_id": "cd4ed9ad02d4b44357256d6d3e8f2685", "fusion_lon": 0.0, "lon": -77.022801, "name": "cd4ed9ad02d4b44357256d6d3e8f2685", "is_disabled": 0, "rental_uris": {"android": "https://dc.lft.to/lastmile_qr_scan", "ios": "https://dc.lft.to/lastmile_qr_scan"}, "type": "electric_scooter", "lat": 38.915633666666665, "is_reserved": 0, "fusion_lat": 0.0}, {"bike_id": "73a6b8fbdd9cc621e91f23db56924422", "fusion_lon": 0.0, "lon": -77.0298385, "name": "73a6b8fbdd9cc621e91f23db56924422", "is_disabled": 0, "rental_uris": {"android": "https://dc.lft.to/lastmile_qr_scan", "ios": "https://dc.lft.to/lastmile_qr_scan"}, "type": "electric_scooter", "lat": 38.93448266666667, "is_reserved": 0, "fusion_lat": 0.0}, {"bike_id": "79e1106c34b602181a4e3859102f6832", "fusion_lon": 0.0, "lon": -76.98837783333333, "name": "79e1106c34b602181a4e3859102f6832", "is_disabled": 0, "rental_uris": {"android": "https://dc.lft.to/lastmile_qr_scan", "ios": "https://dc.lft.to/lastmile_qr_scan"}, "type": "electric_scooter", "lat": 38.892608833333334, "is_reserved": 0, "fusion_lat": 0.0}, {"bike_id": "59f1310909fe9d1dcec453ded5fa6e9a", "fusion_lon": 0.0, "lon": -77.03188966666667, "name": "59f1310909fe9d1dcec453ded5fa6e9a", "is_disabled": 0, "rental_uris": {"android": "https://dc.lft.to/lastmile_qr_scan", "ios": "https://dc.lft.to/lastmile_qr_scan"}, "type": "electric_scooter", "lat": 38.9133745, "is_reserved": 0, "fusion_lat": 0.0}, {"bike_id": "c06a331ffab74d7d80b61137842b3837", "fusion_lon": 0.0, "lon": -77.0772395, "name": "c06a331ffab74d7d80b61137842b3837", "is_disabled": 0, "rental_uris": {"android": "https://dc.lft.to/lastmile_qr_scan", "ios": "https://dc.lft.to/lastmile_qr_scan"}, "type": "electric_scooter", "lat": 38.957677833333335, "is_reserved": 0, "fusion_lat": 0.0}, {"bike_id": "cb14b479910a25474f7e92810ec94306", "fusion_lon": 0.0, "lon": -77.0366335, "name": "cb14b479910a25474f7e92810ec94306", "is_disabled": 0, "rental_uris": {"android": "https://dc.lft.to/lastmile_qr_scan", "ios": "https://dc.lft.to/lastmile_qr_scan"}, "type": "electric_scooter", "lat": 38.9172275, "is_reserved": 0, "fusion_lat": 0.0}, {"bike_id": "c7880975be46e0958bc60cd881d9e301", "fusion_lon": 0.0, "lon": -77.0624035, "name": "c7880975be46e0958bc60cd881d9e301", "is_disabled": 0, "rental_uris": {"android": "https://dc.lft.to/lastmile_qr_scan", "ios": "https://dc.lft.to/lastmile_qr_scan"}, "type": "electric_scooter", "lat": 38.90518483333334, "is_reserved": 0, "fusion_lat": 0.0}, {"bike_id": "f565f14c5747ec1da2c450ccd974f121", "fusion_lon": 0.0, "lon": -76.987106, "name": "f565f14c5747ec1da2c450ccd974f121", "is_disabled": 0, "rental_uris": {"android": "https://dc.lft.to/lastmile_qr_scan", "ios": "https://dc.lft.to/lastmile_qr_scan"}, "type": "electric_scooter", "lat": 38.86701133333333, "is_reserved": 0, "fusion_lat": 0.0}, {"bike_id": "0681a0295d89322b9b7c50e2b2f9ff60", "fusion_lon": 0.0, "lon": -77.02049166666667, "name": "0681a0295d89322b9b7c50e2b2f9ff60", "is_disabled": 0, "rental_uris": {"android": "https://dc.lft.to/lastmile_qr_scan", "ios": "https://dc.lft.to/lastmile_qr_scan"}, "type": "electric_scooter", "lat": 38.9141605, "is_reserved": 0, "fusion_lat": 0.0}, {"bike_id": "e269d3e795fed09890062bc6ca43a489", "fusion_lon": 0.0, "lon": -77.040488, "name": "e269d3e795fed09890062bc6ca43a489", "is_disabled": 0, "rental_uris": {"android": "https://dc.lft.to/lastmile_qr_scan", "ios": "https://dc.lft.to/lastmile_qr_scan"}, "type": "electric_scooter", "lat": 38.898928166666664, "is_reserved": 0, "fusion_lat": 0.0}, {"bike_id": "3ba450dcfbbd621e821bf433aa6c44b0", "fusion_lon": 0.0, "lon": -77.015073, "name": "3ba450dcfbbd621e821bf433aa6c44b0", "is_disabled": 0, "rental_uris": {"android": "https://dc.lft.to/lastmile_qr_scan", "ios": "https://dc.lft.to/lastmile_qr_scan"}, "type": "electric_scooter", "lat": 38.888067666666664, "is_reserved": 0, "fusion_lat": 0.0}, {"bike_id": "9a81d687437118374f7b818282a408db", "fusion_lon": 0.0, "lon": -77.04167983333333, "name": "9a81d687437118374f7b818282a408db", "is_disabled": 0, "rental_uris": {"android": "https://dc.lft.to/lastmile_qr_scan", "ios": "https://dc.lft.to/lastmile_qr_scan"}, "type": "electric_scooter", "lat": 38.91644516666667, "is_reserved": 0, "fusion_lat": 0.0}, {"bike_id": "0f0d0e80bf577a9c5b5bb3c4a55558a0", "fusion_lon": 0.0, "lon": -77.07269066666667, "name": "0f0d0e80bf577a9c5b5bb3c4a55558a0", "is_disabled": 0, "rental_uris": {"android": "https://dc.lft.to/lastmile_qr_scan", "ios": "https://dc.lft.to/lastmile_qr_scan"}, "type": "electric_bike", "lat": 38.922438666666665, "is_reserved": 0, "fusion_lat": 0.0}, {"bike_id": "fcbbbd1165ef2e3218ba26895620e178", "fusion_lon": 0.0, "lon": -76.98315016666666, "name": "fcbbbd1165ef2e3218ba26895620e178", "is_disabled": 0, "rental_uris": {"android": "https://dc.lft.to/lastmile_qr_scan", "ios": "https://dc.lft.to/lastmile_qr_scan"}, "type": "electric_scooter", "lat": 38.86889583333333, "is_reserved": 0, "fusion_lat": 0.0}, {"bike_id": "c06335857e9efad618be13d616da4817", "fusion_lon": 0.0, "lon": -77.03233, "name": "c06335857e9efad618be13d616da4817", "is_disabled": 0, "rental_uris": {"android": "https://dc.lft.to/lastmile_qr_scan", "ios": "https://dc.lft.to/lastmile_qr_scan"}, "type": "electric_scooter", "lat": 38.916953166666666, "is_reserved": 0, "fusion_lat": 0.0}, {"bike_id": "8f18e6ec918af81e4914ab520b21fae0", "fusion_lon": 0.0, "lon": -77.02990366666667, "name": "8f18e6ec918af81e4914ab520b21fae0", "is_disabled": 0, "rental_uris": {"android": "https://dc.lft.to/lastmile_qr_scan", "ios": "https://dc.lft.to/lastmile_qr_scan"}, "type": "electric_scooter", "lat": 38.92044416666667, "is_reserved": 0, "fusion_lat": 0.0}, {"bike_id": "7066385f7673038daf2f129f6a69f3ad", "fusion_lon": 0.0, "lon": -77.04180683333334, "name": "7066385f7673038daf2f129f6a69f3ad", "is_disabled": 0, "rental_uris": {"android": "https://dc.lft.to/lastmile_qr_scan", "ios": "https://dc.lft.to/lastmile_qr_scan"}, "type": "electric_scooter", "lat": 38.91651366666667, "is_reserved": 0, "fusion_lat": 0.0}, {"bike_id": "d0588c69f72d8503a7110b6f5e2f5299", "fusion_lon": 0.0, "lon": -77.0276255, "name": "d0588c69f72d8503a7110b6f5e2f5299", "is_disabled": 0, "rental_uris": {"android": "https://dc.lft.to/lastmile_qr_scan", "ios": "https://dc.lft.to/lastmile_qr_scan"}, "type": "electric_scooter", "lat": 38.95617816666667, "is_reserved": 0, "fusion_lat": 0.0}, {"bike_id": "518889916d8d9bb0da0d78e04495b190", "fusion_lon": 0.0, "lon": -76.98519966666667, "name": "518889916d8d9bb0da0d78e04495b190", "is_disabled": 0, "rental_uris": {"android": "https://dc.lft.to/lastmile_qr_scan", "ios": "https://dc.lft.to/lastmile_qr_scan"}, "type": "electric_scooter", "lat": 38.86670016666667, "is_reserved": 0, "fusion_lat": 0.0}, {"bike_id": "79611dc1196ec4eb7b4e5433bd0a1735", "fusion_lon": 0.0, "lon": -77.05128583333334, "name": "79611dc1196ec4eb7b4e5433bd0a1735", "is_disabled": 0, "rental_uris": {"android": "https://dc.lft.to/lastmile_qr_scan", "ios": "https://dc.lft.to/lastmile_qr_scan"}, "type": "electric_scooter", "lat": 38.923632, "is_reserved": 0, "fusion_lat": 0.0}, {"bike_id": "bf29fe263cc478116ed0bde9bc3d48f1", "fusion_lon": 0.0, "lon": -77.02824933333333, "name": "bf29fe263cc478116ed0bde9bc3d48f1", "is_disabled": 0, "rental_uris": {"android": "https://dc.lft.to/lastmile_qr_scan", "ios": "https://dc.lft.to/lastmile_qr_scan"}, "type": "electric_scooter", "lat": 38.887336166666664, "is_reserved": 0, "fusion_lat": 0.0}, {"bike_id": "f683a27670fbd36f1edf996bcbe6d540", "fusion_lon": 0.0, "lon": -77.0210305, "name": "f683a27670fbd36f1edf996bcbe6d540", "is_disabled": 0, "rental_uris": {"android": "https://dc.lft.to/lastmile_qr_scan", "ios": "https://dc.lft.to/lastmile_qr_scan"}, "type": "electric_scooter", "lat": 38.9270965, "is_reserved": 0, "fusion_lat": 0.0}, {"bike_id": "592ed0f5004446fff7f5b62ed7412c8f", "fusion_lon": 0.0, "lon": -77.043583, "name": "592ed0f5004446fff7f5b62ed7412c8f", "is_disabled": 0, "rental_uris": {"android": "https://dc.lft.to/lastmile_qr_scan", "ios": "https://dc.lft.to/lastmile_qr_scan"}, "type": "electric_scooter", "lat": 38.921481666666665, "is_reserved": 0, "fusion_lat": 0.0}, {"bike_id": "3d104db872cd1c765815d405437b1860", "fusion_lon": 0.0, "lon": -76.93176583333333, "name": "3d104db872cd1c765815d405437b1860", "is_disabled": 0, "rental_uris": {"android": "https://dc.lft.to/lastmile_qr_scan", "ios": "https://dc.lft.to/lastmile_qr_scan"}, "type": "electric_scooter", "lat": 38.89882333333333, "is_reserved": 0, "fusion_lat": 0.0}, {"bike_id": "8ed1c93f33ae0cfbf59c70494c1c1133", "fusion_lon": 0.0, "lon": -77.01545366666667, "name": "8ed1c93f33ae0cfbf59c70494c1c1133", "is_disabled": 0, "rental_uris": {"android": "https://dc.lft.to/lastmile_qr_scan", "ios": "https://dc.lft.to/lastmile_qr_scan"}, "type": "electric_scooter", "lat": 38.88328833333333, "is_reserved": 0, "fusion_lat": 0.0}, {"bike_id": "7b671aa3272b6e833c451ddd85041536", "fusion_lon": 0.0, "lon": -76.99777866666666, "name": "7b671aa3272b6e833c451ddd85041536", "is_disabled": 0, "rental_uris": {"android": "https://dc.lft.to/lastmile_qr_scan", "ios": "https://dc.lft.to/lastmile_qr_scan"}, "type": "electric_scooter", "lat": 38.844284, "is_reserved": 0, "fusion_lat": 0.0}, {"bike_id": "a0fd5b1e29beccce3e365d306d40502b", "fusion_lon": 0.0, "lon": -77.112436, "name": "a0fd5b1e29beccce3e365d306d40502b", "is_disabled": 0, "rental_uris": {"android": "https://dc.lft.to/lastmile_qr_scan", "ios": "https://dc.lft.to/lastmile_qr_scan"}, "type": "electric_bike", "lat": 38.856052166666665, "is_reserved": 0, "fusion_lat": 0.0}, {"bike_id": "36982a8e4ab277de8e5526bab1db9023", "fusion_lon": 0.0, "lon": -77.00360566666667, "name": "36982a8e4ab277de8e5526bab1db9023", "is_disabled": 0, "rental_uris": {"android": "https://dc.lft.to/lastmile_qr_scan", "ios": "https://dc.lft.to/lastmile_qr_scan"}, "type": "electric_scooter", "lat": 38.9013075, "is_reserved": 0, "fusion_lat": 0.0}, {"bike_id": "592a9c1bfa936d1aaf01104cf0fed3c2", "fusion_lon": 0.0, "lon": -77.01746433333334, "name": "592a9c1bfa936d1aaf01104cf0fed3c2", "is_disabled": 0, "rental_uris": {"android": "https://dc.lft.to/lastmile_qr_scan", "ios": "https://dc.lft.to/lastmile_qr_scan"}, "type": "electric_scooter", "lat": 38.91117716666667, "is_reserved": 0, "fusion_lat": 0.0}, {"bike_id": "4b83a1e67a158d8ed4c6ce50956f9f40", "fusion_lon": 0.0, "lon": -77.04157, "name": "4b83a1e67a158d8ed4c6ce50956f9f40", "is_disabled": 0, "rental_uris": {"android": "https://dc.lft.to/lastmile_qr_scan", "ios": "https://dc.lft.to/lastmile_qr_scan"}, "type": "electric_scooter", "lat": 38.93419933333333, "is_reserved": 0, "fusion_lat": 0.0}, {"bike_id": "b275c2db7612bbaca8980a7291fbb048", "fusion_lon": 0.0, "lon": -77.03285533333333, "name": "b275c2db7612bbaca8980a7291fbb048", "is_disabled": 0, "rental_uris": {"android": "https://dc.lft.to/lastmile_qr_scan", "ios": "https://dc.lft.to/lastmile_qr_scan"}, "type": "electric_scooter", "lat": 38.938827833333335, "is_reserved": 0, "fusion_lat": 0.0}, {"bike_id": "71506b3512126951c6c962db582262f8", "fusion_lon": 0.0, "lon": -77.12075683333333, "name": "71506b3512126951c6c962db582262f8", "is_disabled": 0, "rental_uris": {"android": "https://dc.lft.to/lastmile_qr_scan", "ios": "https://dc.lft.to/lastmile_qr_scan"}, "type": "electric_bike", "lat": 38.854161166666664, "is_reserved": 0, "fusion_lat": 0.0}, {"bike_id": "aaa4474c2b42acb3e84dc50be4484dde", "fusion_lon": 0.0, "lon": -77.0334015, "name": "aaa4474c2b42acb3e84dc50be4484dde", "is_disabled": 0, "rental_uris": {"android": "https://dc.lft.to/lastmile_qr_scan", "ios": "https://dc.lft.to/lastmile_qr_scan"}, "type": "electric_scooter", "lat": 38.9118795, "is_reserved": 0, "fusion_lat": 0.0}, {"bike_id": "ca3c9894139da66a067a78e28223098d", "fusion_lon": 0.0, "lon": -77.03290366666667, "name": "ca3c9894139da66a067a78e28223098d", "is_disabled": 0, "rental_uris": {"android": "https://dc.lft.to/lastmile_qr_scan", "ios": "https://dc.lft.to/lastmile_qr_scan"}, "type": "electric_scooter", "lat": 38.9199385, "is_reserved": 0, "fusion_lat": 0.0}, {"bike_id": "c82a18149c481331c2fdbc71c3325265", "fusion_lon": 0.0, "lon": -77.05397433333333, "name": "c82a18149c481331c2fdbc71c3325265", "is_disabled": 0, "rental_uris": {"android": "https://dc.lft.to/lastmile_qr_scan", "ios": "https://dc.lft.to/lastmile_qr_scan"}, "type": "electric_scooter", "lat": 38.928106666666665, "is_reserved": 0, "fusion_lat": 0.0}, {"bike_id": "9a720ab8a1004af7c43759c96425ab68", "fusion_lon": 0.0, "lon": -77.04095933333333, "name": "9a720ab8a1004af7c43759c96425ab68", "is_disabled": 0, "rental_uris": {"android": "https://dc.lft.to/lastmile_qr_scan", "ios": "https://dc.lft.to/lastmile_qr_scan"}, "type": "electric_scooter", "lat": 38.90587416666666, "is_reserved": 0, "fusion_lat": 0.0}, {"bike_id": "20a5ef6de1eebea2e479e4a7bbbb4ade", "fusion_lon": 0.0, "lon": -77.03063216666666, "name": "20a5ef6de1eebea2e479e4a7bbbb4ade", "is_disabled": 0, "rental_uris": {"android": "https://dc.lft.to/lastmile_qr_scan", "ios": "https://dc.lft.to/lastmile_qr_scan"}, "type": "electric_scooter", "lat": 38.92251066666667, "is_reserved": 0, "fusion_lat": 0.0}, {"bike_id": "6134db1fb81c8fd5c7328e7a696bfe6e", "fusion_lon": 0.0, "lon": -77.0234795, "name": "6134db1fb81c8fd5c7328e7a696bfe6e", "is_disabled": 0, "rental_uris": {"android": "https://dc.lft.to/lastmile_qr_scan", "ios": "https://dc.lft.to/lastmile_qr_scan"}, "type": "electric_scooter", "lat": 38.931783, "is_reserved": 0, "fusion_lat": 0.0}, {"bike_id": "ec4afe902b0ffdb5d389326188407736", "fusion_lon": 0.0, "lon": -77.07254316666666, "name": "ec4afe902b0ffdb5d389326188407736", "is_disabled": 0, "rental_uris": {"android": "https://dc.lft.to/lastmile_qr_scan", "ios": "https://dc.lft.to/lastmile_qr_scan"}, "type": "electric_scooter", "lat": 38.9126415, "is_reserved": 0, "fusion_lat": 0.0}, {"bike_id": "6a56de4e917a9f055ae919f337de14d1", "fusion_lon": 0.0, "lon": -77.00049533333333, "name": "6a56de4e917a9f055ae919f337de14d1", "is_disabled": 0, "rental_uris": {"android": "https://dc.lft.to/lastmile_qr_scan", "ios": "https://dc.lft.to/lastmile_qr_scan"}, "type": "electric_scooter", "lat": 38.87402516666667, "is_reserved": 0, "fusion_lat": 0.0}, {"bike_id": "a1094361fbf2a81d99d8df34b71b283d", "fusion_lon": 0.0, "lon": -77.02754816666666, "name": "a1094361fbf2a81d99d8df34b71b283d", "is_disabled": 0, "rental_uris": {"android": "https://dc.lft.to/lastmile_qr_scan", "ios": "https://dc.lft.to/lastmile_qr_scan"}, "type": "electric_scooter", "lat": 38.939604333333335, "is_reserved": 0, "fusion_lat": 0.0}, {"bike_id": "f0d447e08dad150654d6fff182bf5188", "fusion_lon": 0.0, "lon": -77.0086345, "name": "f0d447e08dad150654d6fff182bf5188", "is_disabled": 0, "rental_uris": {"android": "https://dc.lft.to/lastmile_qr_scan", "ios": "https://dc.lft.to/lastmile_qr_scan"}, "type": "electric_scooter", "lat": 38.87836866666667, "is_reserved": 0, "fusion_lat": 0.0}, {"bike_id": "59558f7fef3564f39e0a00d0c97fd257", "fusion_lon": 0.0, "lon": -77.04377883333333, "name": "59558f7fef3564f39e0a00d0c97fd257", "is_disabled": 0, "rental_uris": {"android": "https://dc.lft.to/lastmile_qr_scan", "ios": "https://dc.lft.to/lastmile_qr_scan"}, "type": "electric_scooter", "lat": 38.920697833333335, "is_reserved": 0, "fusion_lat": 0.0}, {"bike_id": "10b734df78cfb2e45241ef2d3c9400bd", "fusion_lon": 0.0, "lon": -77.05756766666667, "name": "10b734df78cfb2e45241ef2d3c9400bd", "is_disabled": 0, "rental_uris": {"android": "https://dc.lft.to/lastmile_qr_scan", "ios": "https://dc.lft.to/lastmile_qr_scan"}, "type": "electric_scooter", "lat": 38.9256865, "is_reserved": 0, "fusion_lat": 0.0}, {"bike_id": "d6883230a9538bddaa84c89a0db5b34e", "fusion_lon": 0.0, "lon": -76.98177966666667, "name": "d6883230a9538bddaa84c89a0db5b34e", "is_disabled": 0, "rental_uris": {"android": "https://dc.lft.to/lastmile_qr_scan", "ios": "https://dc.lft.to/lastmile_qr_scan"}, "type": "electric_bike", "lat": 38.84627833333333, "is_reserved": 0, "fusion_lat": 0.0}, {"bike_id": "9ddd1197ee5f3e1cf9411528cf5c704d", "fusion_lon": 0.0, "lon": -77.02218766666667, "name": "9ddd1197ee5f3e1cf9411528cf5c704d", "is_disabled": 0, "rental_uris": {"android": "https://dc.lft.to/lastmile_qr_scan", "ios": "https://dc.lft.to/lastmile_qr_scan"}, "type": "electric_scooter", "lat": 38.892209333333334, "is_reserved": 0, "fusion_lat": 0.0}, {"bike_id": "df61cfe7bb5bcd8839cd5cbadc56c3d0", "fusion_lon": 0.0, "lon": -77.04391783333334, "name": "df61cfe7bb5bcd8839cd5cbadc56c3d0", "is_disabled": 0, "rental_uris": {"android": "https://dc.lft.to/lastmile_qr_scan", "ios": "https://dc.lft.to/lastmile_qr_scan"}, "type": "electric_scooter", "lat": 38.901263666666665, "is_reserved": 0, "fusion_lat": 0.0}, {"bike_id": "28ce2441d4f4453604ba397ae5506aab", "fusion_lon": 0.0, "lon": -77.02097366666666, "name": "28ce2441d4f4453604ba397ae5506aab", "is_disabled": 0, "rental_uris": {"android": "https://dc.lft.to/lastmile_qr_scan", "ios": "https://dc.lft.to/lastmile_qr_scan"}, "type": "electric_scooter", "lat": 38.922045, "is_reserved": 0, "fusion_lat": 0.0}, {"bike_id": "97ccd09de5149979fe53a20acebba86f", "fusion_lon": 0.0, "lon": -77.0140585, "name": "97ccd09de5149979fe53a20acebba86f", "is_disabled": 0, "rental_uris": {"android": "https://dc.lft.to/lastmile_qr_scan", "ios": "https://dc.lft.to/lastmile_qr_scan"}, "type": "electric_scooter", "lat": 38.881237166666665, "is_reserved": 0, "fusion_lat": 0.0}, {"bike_id": "93c17d5c2536a74c70ee39f5129e4f2b", "fusion_lon": 0.0, "lon": -77.02183, "name": "93c17d5c2536a74c70ee39f5129e4f2b", "is_disabled": 0, "rental_uris": {"android": "https://dc.lft.to/lastmile_qr_scan", "ios": "https://dc.lft.to/lastmile_qr_scan"}, "type": "electric_scooter", "lat": 38.91481816666667, "is_reserved": 0, "fusion_lat": 0.0}, {"bike_id": "1a682a263dac650c4011b57806d9c230", "fusion_lon": 0.0, "lon": -77.0469065, "name": "1a682a263dac650c4011b57806d9c230", "is_disabled": 0, "rental_uris": {"android": "https://dc.lft.to/lastmile_qr_scan", "ios": "https://dc.lft.to/lastmile_qr_scan"}, "type": "electric_scooter", "lat": 38.921056, "is_reserved": 0, "fusion_lat": 0.0}, {"bike_id": "1b17a5ebc0ab34e4b53321eb0950286b", "fusion_lon": 0.0, "lon": -77.03190166666667, "name": "1b17a5ebc0ab34e4b53321eb0950286b", "is_disabled": 0, "rental_uris": {"android": "https://dc.lft.to/lastmile_qr_scan", "ios": "https://dc.lft.to/lastmile_qr_scan"}, "type": "electric_scooter", "lat": 38.91480983333334, "is_reserved": 0, "fusion_lat": 0.0}, {"bike_id": "85ea0ec7b3a33ac532000782ff3dbfc6", "fusion_lon": 0.0, "lon": -77.0615385, "name": "85ea0ec7b3a33ac532000782ff3dbfc6", "is_disabled": 0, "rental_uris": {"android": "https://dc.lft.to/lastmile_qr_scan", "ios": "https://dc.lft.to/lastmile_qr_scan"}, "type": "electric_scooter", "lat": 38.905172, "is_reserved": 0, "fusion_lat": 0.0}, {"bike_id": "f3f3ff7df606c01e3613f6f6a5fd8a1a", "fusion_lon": 0.0, "lon": -77.01948516666667, "name": "f3f3ff7df606c01e3613f6f6a5fd8a1a", "is_disabled": 0, "rental_uris": {"android": "https://dc.lft.to/lastmile_qr_scan", "ios": "https://dc.lft.to/lastmile_qr_scan"}, "type": "electric_scooter", "lat": 38.924206, "is_reserved": 0, "fusion_lat": 0.0}, {"bike_id": "49a0da1b026f3169725b1279139a913d", "fusion_lon": 0.0, "lon": -77.02332283333334, "name": "49a0da1b026f3169725b1279139a913d", "is_disabled": 0, "rental_uris": {"android": "https://dc.lft.to/lastmile_qr_scan", "ios": "https://dc.lft.to/lastmile_qr_scan"}, "type": "electric_scooter", "lat": 38.89225033333334, "is_reserved": 0, "fusion_lat": 0.0}, {"bike_id": "cd55dad4b82bbe031df323885c1eab83", "fusion_lon": 0.0, "lon": -77.034569, "name": "cd55dad4b82bbe031df323885c1eab83", "is_disabled": 0, "rental_uris": {"android": "https://dc.lft.to/lastmile_qr_scan", "ios": "https://dc.lft.to/lastmile_qr_scan"}, "type": "electric_scooter", "lat": 38.906404, "is_reserved": 0, "fusion_lat": 0.0}, {"bike_id": "7ea94ca6c61e426efe317521e9d24c3e", "fusion_lon": 0.0, "lon": -77.0317585, "name": "7ea94ca6c61e426efe317521e9d24c3e", "is_disabled": 0, "rental_uris": {"android": "https://dc.lft.to/lastmile_qr_scan", "ios": "https://dc.lft.to/lastmile_qr_scan"}, "type": "electric_scooter", "lat": 38.916044166666666, "is_reserved": 0, "fusion_lat": 0.0}, {"bike_id": "404aaa093285f28b17e67764ada3f4ee", "fusion_lon": 0.0, "lon": -76.996996, "name": "404aaa093285f28b17e67764ada3f4ee", "is_disabled": 0, "rental_uris": {"android": "https://dc.lft.to/lastmile_qr_scan", "ios": "https://dc.lft.to/lastmile_qr_scan"}, "type": "electric_scooter", "lat": 38.90829166666666, "is_reserved": 0, "fusion_lat": 0.0}, {"bike_id": "f4a465f92fc1da1def7a9c07e357cba7", "fusion_lon": 0.0, "lon": -77.01456333333333, "name": "f4a465f92fc1da1def7a9c07e357cba7", "is_disabled": 0, "rental_uris": {"android": "https://dc.lft.to/lastmile_qr_scan", "ios": "https://dc.lft.to/lastmile_qr_scan"}, "type": "electric_scooter", "lat": 38.91765616666667, "is_reserved": 0, "fusion_lat": 0.0}, {"bike_id": "06aff990929a9ffa531f21bc181e5e72", "fusion_lon": 0.0, "lon": -76.99706466666666, "name": "06aff990929a9ffa531f21bc181e5e72", "is_disabled": 0, "rental_uris": {"android": "https://dc.lft.to/lastmile_qr_scan", "ios": "https://dc.lft.to/lastmile_qr_scan"}, "type": "electric_scooter", "lat": 38.921882333333336, "is_reserved": 0, "fusion_lat": 0.0}, {"bike_id": "81e6b4832d02652af66d7aa850c4e7a6", "fusion_lon": 0.0, "lon": -76.98006866666667, "name": "81e6b4832d02652af66d7aa850c4e7a6", "is_disabled": 0, "rental_uris": {"android": "https://dc.lft.to/lastmile_qr_scan", "ios": "https://dc.lft.to/lastmile_qr_scan"}, "type": "electric_scooter", "lat": 38.8532285, "is_reserved": 0, "fusion_lat": 0.0}, {"bike_id": "18a63f4b5c91e8ecf8d924aba594751a", "fusion_lon": 0.0, "lon": -77.01075533333334, "name": "18a63f4b5c91e8ecf8d924aba594751a", "is_disabled": 0, "rental_uris": {"android": "https://dc.lft.to/lastmile_qr_scan", "ios": "https://dc.lft.to/lastmile_qr_scan"}, "type": "electric_scooter", "lat": 38.907848666666666, "is_reserved": 0, "fusion_lat": 0.0}, {"bike_id": "cd9ef414beb53c037170ec77ab4a3a5f", "fusion_lon": 0.0, "lon": -77.048705, "name": "cd9ef414beb53c037170ec77ab4a3a5f", "is_disabled": 0, "rental_uris": {"android": "https://dc.lft.to/lastmile_qr_scan", "ios": "https://dc.lft.to/lastmile_qr_scan"}, "type": "electric_scooter", "lat": 38.892198666666665, "is_reserved": 0, "fusion_lat": 0.0}, {"bike_id": "06aed988f626f786e217445a07818a9b", "fusion_lon": 0.0, "lon": -77.11317966666667, "name": "06aed988f626f786e217445a07818a9b", "is_disabled": 0, "rental_uris": {"android": "https://dc.lft.to/lastmile_qr_scan", "ios": "https://dc.lft.to/lastmile_qr_scan"}, "type": "electric_bike", "lat": 38.831677, "is_reserved": 0, "fusion_lat": 0.0}, {"bike_id": "793e7966348c33761b1457d280ae038a", "fusion_lon": 0.0, "lon": -77.02395516666667, "name": "793e7966348c33761b1457d280ae038a", "is_disabled": 0, "rental_uris": {"android": "https://dc.lft.to/lastmile_qr_scan", "ios": "https://dc.lft.to/lastmile_qr_scan"}, "type": "electric_scooter", "lat": 38.91082316666667, "is_reserved": 0, "fusion_lat": 0.0}, {"bike_id": "a14cdb44e569cf1452408343aa85e2ff", "fusion_lon": 0.0, "lon": -77.0281375, "name": "a14cdb44e569cf1452408343aa85e2ff", "is_disabled": 0, "rental_uris": {"android": "https://dc.lft.to/lastmile_qr_scan", "ios": "https://dc.lft.to/lastmile_qr_scan"}, "type": "electric_scooter", "lat": 38.928747333333334, "is_reserved": 0, "fusion_lat": 0.0}, {"bike_id": "836d841eb5756bd0fb1aee65b0a167c7", "fusion_lon": 0.0, "lon": -76.92683166666667, "name": "836d841eb5756bd0fb1aee65b0a167c7", "is_disabled": 0, "rental_uris": {"android": "https://dc.lft.to/lastmile_qr_scan", "ios": "https://dc.lft.to/lastmile_qr_scan"}, "type": "electric_scooter", "lat": 38.893642166666666, "is_reserved": 0, "fusion_lat": 0.0}, {"bike_id": "c65a8f5459595ad2a72471fac38bb88f", "fusion_lon": 0.0, "lon": -77.0223665, "name": "c65a8f5459595ad2a72471fac38bb88f", "is_disabled": 0, "rental_uris": {"android": "https://dc.lft.to/lastmile_qr_scan", "ios": "https://dc.lft.to/lastmile_qr_scan"}, "type": "electric_scooter", "lat": 38.96136933333333, "is_reserved": 0, "fusion_lat": 0.0}, {"bike_id": "6a64715387465c32bea8e6d70e80bfa7", "fusion_lon": 0.0, "lon": -76.99776416666667, "name": "6a64715387465c32bea8e6d70e80bfa7", "is_disabled": 0, "rental_uris": {"android": "https://dc.lft.to/lastmile_qr_scan", "ios": "https://dc.lft.to/lastmile_qr_scan"}, "type": "electric_scooter", "lat": 38.844285, "is_reserved": 0, "fusion_lat": 0.0}, {"bike_id": "e77c369bffd63dd7f824ac61c3a6498e", "fusion_lon": 0.0, "lon": -77.05119333333333, "name": "e77c369bffd63dd7f824ac61c3a6498e", "is_disabled": 0, "rental_uris": {"android": "https://dc.lft.to/lastmile_qr_scan", "ios": "https://dc.lft.to/lastmile_qr_scan"}, "type": "electric_scooter", "lat": 38.90224583333333, "is_reserved": 0, "fusion_lat": 0.0}, {"bike_id": "1d46dce3befdb1b6aaa7ec129e1d919d", "fusion_lon": 0.0, "lon": -76.9463625, "name": "1d46dce3befdb1b6aaa7ec129e1d919d", "is_disabled": 0, "rental_uris": {"android": "https://dc.lft.to/lastmile_qr_scan", "ios": "https://dc.lft.to/lastmile_qr_scan"}, "type": "electric_scooter", "lat": 38.89846083333333, "is_reserved": 0, "fusion_lat": 0.0}, {"bike_id": "76ad84c9c6bcf08d89077fbbb7318a05", "fusion_lon": 0.0, "lon": -76.9575315, "name": "76ad84c9c6bcf08d89077fbbb7318a05", "is_disabled": 0, "rental_uris": {"android": "https://dc.lft.to/lastmile_qr_scan", "ios": "https://dc.lft.to/lastmile_qr_scan"}, "type": "electric_scooter", "lat": 38.884334, "is_reserved": 0, "fusion_lat": 0.0}, {"bike_id": "5868aa8c79143f1b5cd27cefd6300d96", "fusion_lon": 0.0, "lon": -77.055116, "name": "5868aa8c79143f1b5cd27cefd6300d96", "is_disabled": 0, "rental_uris": {"android": "https://dc.lft.to/lastmile_qr_scan", "ios": "https://dc.lft.to/lastmile_qr_scan"}, "type": "electric_bike", "lat": 38.85331816666667, "is_reserved": 0, "fusion_lat": 0.0}, {"bike_id": "f0ad72cfe39ef472c0b0bc6d9202cfd5", "fusion_lon": 0.0, "lon": -77.02385283333334, "name": "f0ad72cfe39ef472c0b0bc6d9202cfd5", "is_disabled": 0, "rental_uris": {"android": "https://dc.lft.to/lastmile_qr_scan", "ios": "https://dc.lft.to/lastmile_qr_scan"}, "type": "electric_scooter", "lat": 38.920765333333335, "is_reserved": 0, "fusion_lat": 0.0}, {"bike_id": "498312f627c131eee9fbd5e6a46bb37a", "fusion_lon": 0.0, "lon": -77.04657933333333, "name": "498312f627c131eee9fbd5e6a46bb37a", "is_disabled": 0, "rental_uris": {"android": "https://dc.lft.to/lastmile_qr_scan", "ios": "https://dc.lft.to/lastmile_qr_scan"}, "type": "electric_scooter", "lat": 38.90143966666667, "is_reserved": 0, "fusion_lat": 0.0}, {"bike_id": "7a212db8ec937009a202c0ceb7e3c37f", "fusion_lon": 0.0, "lon": -76.93705516666667, "name": "7a212db8ec937009a202c0ceb7e3c37f", "is_disabled": 0, "rental_uris": {"android": "https://dc.lft.to/lastmile_qr_scan", "ios": "https://dc.lft.to/lastmile_qr_scan"}, "type": "electric_bike", "lat": 38.871457166666666, "is_reserved": 0, "fusion_lat": 0.0}, {"bike_id": "25ce0a38b8de7ef81d9ec7cee6d6fdf2", "fusion_lon": 0.0, "lon": -76.997755, "name": "25ce0a38b8de7ef81d9ec7cee6d6fdf2", "is_disabled": 0, "rental_uris": {"android": "https://dc.lft.to/lastmile_qr_scan", "ios": "https://dc.lft.to/lastmile_qr_scan"}, "type": "electric_scooter", "lat": 38.844342, "is_reserved": 0, "fusion_lat": 0.0}, {"bike_id": "feae1898b7da02aaab423a6dd00230fb", "fusion_lon": 0.0, "lon": -76.97098366666667, "name": "feae1898b7da02aaab423a6dd00230fb", "is_disabled": 0, "rental_uris": {"android": "https://dc.lft.to/lastmile_qr_scan", "ios": "https://dc.lft.to/lastmile_qr_scan"}, "type": "electric_bike", "lat": 38.857121666666664, "is_reserved": 0, "fusion_lat": 0.0}, {"bike_id": "6c5a7b02f59b08624def07d8b31a974a", "fusion_lon": 0.0, "lon": -77.0079645, "name": "6c5a7b02f59b08624def07d8b31a974a", "is_disabled": 0, "rental_uris": {"android": "https://dc.lft.to/lastmile_qr_scan", "ios": "https://dc.lft.to/lastmile_qr_scan"}, "type": "electric_scooter", "lat": 38.89716883333333, "is_reserved": 0, "fusion_lat": 0.0}, {"bike_id": "c6eff193b22c0d81281542b74e0fc42c", "fusion_lon": 0.0, "lon": -76.95741166666667, "name": "c6eff193b22c0d81281542b74e0fc42c", "is_disabled": 0, "rental_uris": {"android": "https://dc.lft.to/lastmile_qr_scan", "ios": "https://dc.lft.to/lastmile_qr_scan"}, "type": "electric_scooter", "lat": 38.89633633333333, "is_reserved": 0, "fusion_lat": 0.0}, {"bike_id": "f2607ddfb218cc8f0a3c00f8b78a2998", "fusion_lon": 0.0, "lon": -77.05129516666666, "name": "f2607ddfb218cc8f0a3c00f8b78a2998", "is_disabled": 0, "rental_uris": {"android": "https://dc.lft.to/lastmile_qr_scan", "ios": "https://dc.lft.to/lastmile_qr_scan"}, "type": "electric_scooter", "lat": 38.9236235, "is_reserved": 0, "fusion_lat": 0.0}, {"bike_id": "4c0f43142c92716c64e6fb581acfeef2", "fusion_lon": 0.0, "lon": -76.9901415, "name": "4c0f43142c92716c64e6fb581acfeef2", "is_disabled": 0, "rental_uris": {"android": "https://dc.lft.to/lastmile_qr_scan", "ios": "https://dc.lft.to/lastmile_qr_scan"}, "type": "electric_scooter", "lat": 38.858804666666664, "is_reserved": 0, "fusion_lat": 0.0}, {"bike_id": "5a4c0afa7ae7682baa71709dc67f10c1", "fusion_lon": 0.0, "lon": -77.00298833333333, "name": "5a4c0afa7ae7682baa71709dc67f10c1", "is_disabled": 0, "rental_uris": {"android": "https://dc.lft.to/lastmile_qr_scan", "ios": "https://dc.lft.to/lastmile_qr_scan"}, "type": "electric_scooter", "lat": 38.901304833333334, "is_reserved": 0, "fusion_lat": 0.0}, {"bike_id": "a98334f533e466131bccca5eaf45aceb", "fusion_lon": 0.0, "lon": -77.03323116666667, "name": "a98334f533e466131bccca5eaf45aceb", "is_disabled": 0, "rental_uris": {"android": "https://dc.lft.to/lastmile_qr_scan", "ios": "https://dc.lft.to/lastmile_qr_scan"}, "type": "electric_scooter", "lat": 38.9156305, "is_reserved": 0, "fusion_lat": 0.0}, {"bike_id": "62f3b1fdf66607eec3d7b696aca2acfc", "fusion_lon": 0.0, "lon": -77.04347, "name": "62f3b1fdf66607eec3d7b696aca2acfc", "is_disabled": 0, "rental_uris": {"android": "https://dc.lft.to/lastmile_qr_scan", "ios": "https://dc.lft.to/lastmile_qr_scan"}, "type": "electric_scooter", "lat": 38.91260183333333, "is_reserved": 0, "fusion_lat": 0.0}, {"bike_id": "68f69176a7e0ec24c47858f883ccef84", "fusion_lon": 0.0, "lon": -77.02696233333333, "name": "68f69176a7e0ec24c47858f883ccef84", "is_disabled": 0, "rental_uris": {"android": "https://dc.lft.to/lastmile_qr_scan", "ios": "https://dc.lft.to/lastmile_qr_scan"}, "type": "electric_scooter", "lat": 38.923997, "is_reserved": 0, "fusion_lat": 0.0}, {"bike_id": "4264370bd49ac04adc89862c1e623bae", "fusion_lon": 0.0, "lon": -77.02381316666667, "name": "4264370bd49ac04adc89862c1e623bae", "is_disabled": 0, "rental_uris": {"android": "https://dc.lft.to/lastmile_qr_scan", "ios": "https://dc.lft.to/lastmile_qr_scan"}, "type": "electric_scooter", "lat": 38.9168135, "is_reserved": 0, "fusion_lat": 0.0}, {"bike_id": "fc5483d0c4530909c28bacbd10c2537f", "fusion_lon": 0.0, "lon": -77.011802, "name": "fc5483d0c4530909c28bacbd10c2537f", "is_disabled": 0, "rental_uris": {"android": "https://dc.lft.to/lastmile_qr_scan", "ios": "https://dc.lft.to/lastmile_qr_scan"}, "type": "electric_scooter", "lat": 38.90330266666667, "is_reserved": 0, "fusion_lat": 0.0}, {"bike_id": "45655e88bba32eda90e1de872bd3df76", "fusion_lon": 0.0, "lon": -77.031783, "name": "45655e88bba32eda90e1de872bd3df76", "is_disabled": 0, "rental_uris": {"android": "https://dc.lft.to/lastmile_qr_scan", "ios": "https://dc.lft.to/lastmile_qr_scan"}, "type": "electric_scooter", "lat": 38.912543166666666, "is_reserved": 0, "fusion_lat": 0.0}, {"bike_id": "6c3087878f822c6750a61ea2584223e1", "fusion_lon": 0.0, "lon": -76.99515333333333, "name": "6c3087878f822c6750a61ea2584223e1", "is_disabled": 0, "rental_uris": {"android": "https://dc.lft.to/lastmile_qr_scan", "ios": "https://dc.lft.to/lastmile_qr_scan"}, "type": "electric_scooter", "lat": 38.86257283333333, "is_reserved": 0, "fusion_lat": 0.0}, {"bike_id": "e19081c67527099f85f343c1ac61b490", "fusion_lon": 0.0, "lon": -76.98652816666667, "name": "e19081c67527099f85f343c1ac61b490", "is_disabled": 0, "rental_uris": {"android": "https://dc.lft.to/lastmile_qr_scan", "ios": "https://dc.lft.to/lastmile_qr_scan"}, "type": "electric_scooter", "lat": 38.86734916666666, "is_reserved": 0, "fusion_lat": 0.0}, {"bike_id": "c9c87aeb5e724d5aeadaf74f81df41ba", "fusion_lon": 0.0, "lon": -77.03184766666666, "name": "c9c87aeb5e724d5aeadaf74f81df41ba", "is_disabled": 0, "rental_uris": {"android": "https://dc.lft.to/lastmile_qr_scan", "ios": "https://dc.lft.to/lastmile_qr_scan"}, "type": "electric_scooter", "lat": 38.91746716666667, "is_reserved": 0, "fusion_lat": 0.0}, {"bike_id": "da56e7ca59a210e98bd5c3e0a6c2d280", "fusion_lon": 0.0, "lon": -77.07304033333334, "name": "da56e7ca59a210e98bd5c3e0a6c2d280", "is_disabled": 0, "rental_uris": {"android": "https://dc.lft.to/lastmile_qr_scan", "ios": "https://dc.lft.to/lastmile_qr_scan"}, "type": "electric_scooter", "lat": 38.9288135, "is_reserved": 0, "fusion_lat": 0.0}, {"bike_id": "3e9c53f98b5f68afdd5c43d22bdcc507", "fusion_lon": 0.0, "lon": -77.028088, "name": "3e9c53f98b5f68afdd5c43d22bdcc507", "is_disabled": 0, "rental_uris": {"android": "https://dc.lft.to/lastmile_qr_scan", "ios": "https://dc.lft.to/lastmile_qr_scan"}, "type": "electric_scooter", "lat": 38.91688033333333, "is_reserved": 0, "fusion_lat": 0.0}, {"bike_id": "d0de2b1c6408d4b1c402152e43e4329d", "fusion_lon": 0.0, "lon": -76.9994485, "name": "d0de2b1c6408d4b1c402152e43e4329d", "is_disabled": 0, "rental_uris": {"android": "https://dc.lft.to/lastmile_qr_scan", "ios": "https://dc.lft.to/lastmile_qr_scan"}, "type": "electric_scooter", "lat": 38.842964333333335, "is_reserved": 0, "fusion_lat": 0.0}, {"bike_id": "4ff3e48ffd77dc465cb2b8e0f21bad4a", "fusion_lon": 0.0, "lon": -77.00742433333333, "name": "4ff3e48ffd77dc465cb2b8e0f21bad4a", "is_disabled": 0, "rental_uris": {"android": "https://dc.lft.to/lastmile_qr_scan", "ios": "https://dc.lft.to/lastmile_qr_scan"}, "type": "electric_scooter", "lat": 38.87749, "is_reserved": 0, "fusion_lat": 0.0}, {"bike_id": "68c1ef8a958a438d24ed1e1787e742ef", "fusion_lon": 0.0, "lon": -77.06758233333333, "name": "68c1ef8a958a438d24ed1e1787e742ef", "is_disabled": 0, "rental_uris": {"android": "https://dc.lft.to/lastmile_qr_scan", "ios": "https://dc.lft.to/lastmile_qr_scan"}, "type": "electric_scooter", "lat": 38.906779, "is_reserved": 0, "fusion_lat": 0.0}, {"bike_id": "027bf82f41ad4c7ba76019a613f62e5b", "fusion_lon": 0.0, "lon": -77.02213016666667, "name": "027bf82f41ad4c7ba76019a613f62e5b", "is_disabled": 0, "rental_uris": {"android": "https://dc.lft.to/lastmile_qr_scan", "ios": "https://dc.lft.to/lastmile_qr_scan"}, "type": "electric_scooter", "lat": 38.91560583333333, "is_reserved": 0, "fusion_lat": 0.0}, {"bike_id": "23e79a1ddafbaf2e5a9ea38cd9c8f939", "fusion_lon": 0.0, "lon": -77.03689733333333, "name": "23e79a1ddafbaf2e5a9ea38cd9c8f939", "is_disabled": 0, "rental_uris": {"android": "https://dc.lft.to/lastmile_qr_scan", "ios": "https://dc.lft.to/lastmile_qr_scan"}, "type": "electric_scooter", "lat": 38.9167965, "is_reserved": 0, "fusion_lat": 0.0}, {"bike_id": "95f62a14af0656d11ac8b3d23049d595", "fusion_lon": 0.0, "lon": -76.99796783333333, "name": "95f62a14af0656d11ac8b3d23049d595", "is_disabled": 0, "rental_uris": {"android": "https://dc.lft.to/lastmile_qr_scan", "ios": "https://dc.lft.to/lastmile_qr_scan"}, "type": "electric_bike", "lat": 38.95641616666666, "is_reserved": 0, "fusion_lat": 0.0}, {"bike_id": "7acedd38506050b21aba4376083f9383", "fusion_lon": 0.0, "lon": -77.017614, "name": "7acedd38506050b21aba4376083f9383", "is_disabled": 0, "rental_uris": {"android": "https://dc.lft.to/lastmile_qr_scan", "ios": "https://dc.lft.to/lastmile_qr_scan"}, "type": "electric_scooter", "lat": 38.877743333333335, "is_reserved": 0, "fusion_lat": 0.0}, {"bike_id": "a06e3321a119a95ab6b8f04d56e63e2a", "fusion_lon": 0.0, "lon": -77.04452583333334, "name": "a06e3321a119a95ab6b8f04d56e63e2a", "is_disabled": 0, "rental_uris": {"android": "https://dc.lft.to/lastmile_qr_scan", "ios": "https://dc.lft.to/lastmile_qr_scan"}, "type": "electric_scooter", "lat": 38.91188183333333, "is_reserved": 0, "fusion_lat": 0.0}, {"bike_id": "bd1739df06acb0d9dabef9aca2779079", "fusion_lon": 0.0, "lon": -77.04334, "name": "bd1739df06acb0d9dabef9aca2779079", "is_disabled": 0, "rental_uris": {"android": "https://dc.lft.to/lastmile_qr_scan", "ios": "https://dc.lft.to/lastmile_qr_scan"}, "type": "electric_scooter", "lat": 38.8952865, "is_reserved": 0, "fusion_lat": 0.0}, {"bike_id": "cbb472e83e19625a0027f23c59721de5", "fusion_lon": 0.0, "lon": -77.03755483333333, "name": "cbb472e83e19625a0027f23c59721de5", "is_disabled": 0, "rental_uris": {"android": "https://dc.lft.to/lastmile_qr_scan", "ios": "https://dc.lft.to/lastmile_qr_scan"}, "type": "electric_scooter", "lat": 38.9359735, "is_reserved": 0, "fusion_lat": 0.0}, {"bike_id": "b8b9670a1889a32cbd515b6189f04914", "fusion_lon": 0.0, "lon": -76.99542383333333, "name": "b8b9670a1889a32cbd515b6189f04914", "is_disabled": 0, "rental_uris": {"android": "https://dc.lft.to/lastmile_qr_scan", "ios": "https://dc.lft.to/lastmile_qr_scan"}, "type": "electric_scooter", "lat": 38.9208645, "is_reserved": 0, "fusion_lat": 0.0}, {"bike_id": "ba5a665c9efda2f4092f59ea6a6cc819", "fusion_lon": 0.0, "lon": -77.02824433333333, "name": "ba5a665c9efda2f4092f59ea6a6cc819", "is_disabled": 0, "rental_uris": {"android": "https://dc.lft.to/lastmile_qr_scan", "ios": "https://dc.lft.to/lastmile_qr_scan"}, "type": "electric_scooter", "lat": 38.88734516666667, "is_reserved": 0, "fusion_lat": 0.0}, {"bike_id": "542520e743045d74ab965b42b9388740", "fusion_lon": 0.0, "lon": -77.02696, "name": "542520e743045d74ab965b42b9388740", "is_disabled": 0, "rental_uris": {"android": "https://dc.lft.to/lastmile_qr_scan", "ios": "https://dc.lft.to/lastmile_qr_scan"}, "type": "electric_scooter", "lat": 38.906814, "is_reserved": 0, "fusion_lat": 0.0}, {"bike_id": "26978f37ffbff521ac83c18f8d7049ca", "fusion_lon": 0.0, "lon": -76.96683633333333, "name": "26978f37ffbff521ac83c18f8d7049ca", "is_disabled": 0, "rental_uris": {"android": "https://dc.lft.to/lastmile_qr_scan", "ios": "https://dc.lft.to/lastmile_qr_scan"}, "type": "electric_scooter", "lat": 38.869548, "is_reserved": 0, "fusion_lat": 0.0}, {"bike_id": "63371782d7565bb69a7d56e82bcc4567", "fusion_lon": 0.0, "lon": -77.022259, "name": "63371782d7565bb69a7d56e82bcc4567", "is_disabled": 0, "rental_uris": {"android": "https://dc.lft.to/lastmile_qr_scan", "ios": "https://dc.lft.to/lastmile_qr_scan"}, "type": "electric_scooter", "lat": 38.93545816666666, "is_reserved": 0, "fusion_lat": 0.0}, {"bike_id": "cea281737c39a4d3c9d5e84f809be847", "fusion_lon": 0.0, "lon": -77.058562, "name": "cea281737c39a4d3c9d5e84f809be847", "is_disabled": 0, "rental_uris": {"android": "https://dc.lft.to/lastmile_qr_scan", "ios": "https://dc.lft.to/lastmile_qr_scan"}, "type": "electric_scooter", "lat": 38.93607933333333, "is_reserved": 0, "fusion_lat": 0.0}, {"bike_id": "a4c79663b19c4d60433f1fa8fee51be7", "fusion_lon": 0.0, "lon": -76.98304483333334, "name": "a4c79663b19c4d60433f1fa8fee51be7", "is_disabled": 0, "rental_uris": {"android": "https://dc.lft.to/lastmile_qr_scan", "ios": "https://dc.lft.to/lastmile_qr_scan"}, "type": "electric_bike", "lat": 38.9627955, "is_reserved": 0, "fusion_lat": 0.0}, {"bike_id": "f3f6da90b48ea195db1756a35743d668", "fusion_lon": 0.0, "lon": -76.989908, "name": "f3f6da90b48ea195db1756a35743d668", "is_disabled": 0, "rental_uris": {"android": "https://dc.lft.to/lastmile_qr_scan", "ios": "https://dc.lft.to/lastmile_qr_scan"}, "type": "electric_bike", "lat": 38.863891333333335, "is_reserved": 0, "fusion_lat": 0.0}, {"bike_id": "7c074277cf111f282667acabe318719a", "fusion_lon": 0.0, "lon": -77.027676, "name": "7c074277cf111f282667acabe318719a", "is_disabled": 0, "rental_uris": {"android": "https://dc.lft.to/lastmile_qr_scan", "ios": "https://dc.lft.to/lastmile_qr_scan"}, "type": "electric_scooter", "lat": 38.95423616666667, "is_reserved": 0, "fusion_lat": 0.0}, {"bike_id": "e6e541f02fc431bb08bdca392b4019fd", "fusion_lon": 0.0, "lon": -77.0554055, "name": "e6e541f02fc431bb08bdca392b4019fd", "is_disabled": 0, "rental_uris": {"android": "https://dc.lft.to/lastmile_qr_scan", "ios": "https://dc.lft.to/lastmile_qr_scan"}, "type": "electric_scooter", "lat": 38.930171666666666, "is_reserved": 0, "fusion_lat": 0.0}, {"bike_id": "e17cc6a7c14ad81db509c828613d3a33", "fusion_lon": 0.0, "lon": -77.03308733333333, "name": "e17cc6a7c14ad81db509c828613d3a33", "is_disabled": 0, "rental_uris": {"android": "https://dc.lft.to/lastmile_qr_scan", "ios": "https://dc.lft.to/lastmile_qr_scan"}, "type": "electric_scooter", "lat": 38.931946833333335, "is_reserved": 0, "fusion_lat": 0.0}, {"bike_id": "e5bcb732edb35208695a90fd61747532", "fusion_lon": 0.0, "lon": -76.99698133333334, "name": "e5bcb732edb35208695a90fd61747532", "is_disabled": 0, "rental_uris": {"android": "https://dc.lft.to/lastmile_qr_scan", "ios": "https://dc.lft.to/lastmile_qr_scan"}, "type": "electric_bike", "lat": 38.83865216666667, "is_reserved": 0, "fusion_lat": 0.0}, {"bike_id": "157b95449f495da0d41fadca307b9193", "fusion_lon": 0.0, "lon": -77.032917, "name": "157b95449f495da0d41fadca307b9193", "is_disabled": 0, "rental_uris": {"android": "https://dc.lft.to/lastmile_qr_scan", "ios": "https://dc.lft.to/lastmile_qr_scan"}, "type": "electric_scooter", "lat": 38.91986816666667, "is_reserved": 0, "fusion_lat": 0.0}, {"bike_id": "d5cb2e78db37d4de6da78b6a410b5897", "fusion_lon": 0.0, "lon": -76.9487665, "name": "d5cb2e78db37d4de6da78b6a410b5897", "is_disabled": 0, "rental_uris": {"android": "https://dc.lft.to/lastmile_qr_scan", "ios": "https://dc.lft.to/lastmile_qr_scan"}, "type": "electric_scooter", "lat": 38.89502133333333, "is_reserved": 0, "fusion_lat": 0.0}, {"bike_id": "2e1823b8f8f806a30fea8f74eacc492a", "fusion_lon": 0.0, "lon": -77.07267216666666, "name": "2e1823b8f8f806a30fea8f74eacc492a", "is_disabled": 0, "rental_uris": {"android": "https://dc.lft.to/lastmile_qr_scan", "ios": "https://dc.lft.to/lastmile_qr_scan"}, "type": "electric_scooter", "lat": 38.9345835, "is_reserved": 0, "fusion_lat": 0.0}, {"bike_id": "6732602098f1c731f239dc6e424cfd55", "fusion_lon": 0.0, "lon": -77.03947866666667, "name": "6732602098f1c731f239dc6e424cfd55", "is_disabled": 0, "rental_uris": {"android": "https://dc.lft.to/lastmile_qr_scan", "ios": "https://dc.lft.to/lastmile_qr_scan"}, "type": "electric_scooter", "lat": 38.8985565, "is_reserved": 0, "fusion_lat": 0.0}, {"bike_id": "ae3224921879a0d2ddfc38d5d59d953d", "fusion_lon": 0.0, "lon": -77.0389405, "name": "ae3224921879a0d2ddfc38d5d59d953d", "is_disabled": 0, "rental_uris": {"android": "https://dc.lft.to/lastmile_qr_scan", "ios": "https://dc.lft.to/lastmile_qr_scan"}, "type": "electric_scooter", "lat": 38.922020333333336, "is_reserved": 0, "fusion_lat": 0.0}, {"bike_id": "144136504322ef39ac26765c9c6da28a", "fusion_lon": 0.0, "lon": -77.01612916666667, "name": "144136504322ef39ac26765c9c6da28a", "is_disabled": 0, "rental_uris": {"android": "https://dc.lft.to/lastmile_qr_scan", "ios": "https://dc.lft.to/lastmile_qr_scan"}, "type": "electric_scooter", "lat": 38.91280233333333, "is_reserved": 0, "fusion_lat": 0.0}, {"bike_id": "0a9a31b1248d808f043b7eebc88dacc3", "fusion_lon": 0.0, "lon": -77.034578, "name": "0a9a31b1248d808f043b7eebc88dacc3", "is_disabled": 0, "rental_uris": {"android": "https://dc.lft.to/lastmile_qr_scan", "ios": "https://dc.lft.to/lastmile_qr_scan"}, "type": "electric_scooter", "lat": 38.914931, "is_reserved": 0, "fusion_lat": 0.0}, {"bike_id": "a3c7c440a49c663522e920ade220c7a4", "fusion_lon": 0.0, "lon": -77.04207833333334, "name": "a3c7c440a49c663522e920ade220c7a4", "is_disabled": 0, "rental_uris": {"android": "https://dc.lft.to/lastmile_qr_scan", "ios": "https://dc.lft.to/lastmile_qr_scan"}, "type": "electric_scooter", "lat": 38.9206805, "is_reserved": 0, "fusion_lat": 0.0}, {"bike_id": "d15c31235311afa4723a0ab980547ceb", "fusion_lon": 0.0, "lon": -77.021579, "name": "d15c31235311afa4723a0ab980547ceb", "is_disabled": 0, "rental_uris": {"android": "https://dc.lft.to/lastmile_qr_scan", "ios": "https://dc.lft.to/lastmile_qr_scan"}, "type": "electric_scooter", "lat": 38.9096065, "is_reserved": 0, "fusion_lat": 0.0}, {"bike_id": "e56c1d885c93f659b29dc6705a0fe032", "fusion_lon": 0.0, "lon": -76.98178716666666, "name": "e56c1d885c93f659b29dc6705a0fe032", "is_disabled": 0, "rental_uris": {"android": "https://dc.lft.to/lastmile_qr_scan", "ios": "https://dc.lft.to/lastmile_qr_scan"}, "type": "electric_scooter", "lat": 38.856653, "is_reserved": 0, "fusion_lat": 0.0}, {"bike_id": "b87057237fcdacef74330e7e42345082", "fusion_lon": 0.0, "lon": -77.02387383333334, "name": "b87057237fcdacef74330e7e42345082", "is_disabled": 0, "rental_uris": {"android": "https://dc.lft.to/lastmile_qr_scan", "ios": "https://dc.lft.to/lastmile_qr_scan"}, "type": "electric_scooter", "lat": 38.9112325, "is_reserved": 0, "fusion_lat": 0.0}, {"bike_id": "9a18720aaea0e224de5c25ec12b9d684", "fusion_lon": 0.0, "lon": -77.026508, "name": "9a18720aaea0e224de5c25ec12b9d684", "is_disabled": 0, "rental_uris": {"android": "https://dc.lft.to/lastmile_qr_scan", "ios": "https://dc.lft.to/lastmile_qr_scan"}, "type": "electric_scooter", "lat": 38.945398, "is_reserved": 0, "fusion_lat": 0.0}, {"bike_id": "f0ddf9b5f4e34d3886a1bdb2dba703a5", "fusion_lon": 0.0, "lon": -77.04195983333334, "name": "f0ddf9b5f4e34d3886a1bdb2dba703a5", "is_disabled": 0, "rental_uris": {"android": "https://dc.lft.to/lastmile_qr_scan", "ios": "https://dc.lft.to/lastmile_qr_scan"}, "type": "electric_scooter", "lat": 38.920466833333336, "is_reserved": 0, "fusion_lat": 0.0}, {"bike_id": "f12c5ef1abdde1e253fb88489aaf511d", "fusion_lon": 0.0, "lon": -77.0271595, "name": "f12c5ef1abdde1e253fb88489aaf511d", "is_disabled": 0, "rental_uris": {"android": "https://dc.lft.to/lastmile_qr_scan", "ios": "https://dc.lft.to/lastmile_qr_scan"}, "type": "electric_scooter", "lat": 38.9068915, "is_reserved": 0, "fusion_lat": 0.0}, {"bike_id": "29f6003e4dd700d8275ae5821dce7a54", "fusion_lon": 0.0, "lon": -77.02378483333334, "name": "29f6003e4dd700d8275ae5821dce7a54", "is_disabled": 0, "rental_uris": {"android": "https://dc.lft.to/lastmile_qr_scan", "ios": "https://dc.lft.to/lastmile_qr_scan"}, "type": "electric_scooter", "lat": 38.917533166666665, "is_reserved": 0, "fusion_lat": 0.0}, {"bike_id": "dd232e7913efcaa837ab4eed73f5eb59", "fusion_lon": 0.0, "lon": -77.04002816666667, "name": "dd232e7913efcaa837ab4eed73f5eb59", "is_disabled": 0, "rental_uris": {"android": "https://dc.lft.to/lastmile_qr_scan", "ios": "https://dc.lft.to/lastmile_qr_scan"}, "type": "electric_scooter", "lat": 38.9342905, "is_reserved": 0, "fusion_lat": 0.0}, {"bike_id": "a6a76be9e7b8d540de6ea040978d543c", "fusion_lon": 0.0, "lon": -77.031164, "name": "a6a76be9e7b8d540de6ea040978d543c", "is_disabled": 0, "rental_uris": {"android": "https://dc.lft.to/lastmile_qr_scan", "ios": "https://dc.lft.to/lastmile_qr_scan"}, "type": "electric_scooter", "lat": 38.91697966666667, "is_reserved": 0, "fusion_lat": 0.0}, {"bike_id": "2b224b88da2ba6eac2f69287462c8043", "fusion_lon": 0.0, "lon": -77.01472816666667, "name": "2b224b88da2ba6eac2f69287462c8043", "is_disabled": 0, "rental_uris": {"android": "https://dc.lft.to/lastmile_qr_scan", "ios": "https://dc.lft.to/lastmile_qr_scan"}, "type": "electric_scooter", "lat": 38.876407666666665, "is_reserved": 0, "fusion_lat": 0.0}, {"bike_id": "ed9567eb9b8e7b4ccd791b3b6c595eac", "fusion_lon": 0.0, "lon": -77.0628135, "name": "ed9567eb9b8e7b4ccd791b3b6c595eac", "is_disabled": 0, "rental_uris": {"android": "https://dc.lft.to/lastmile_qr_scan", "ios": "https://dc.lft.to/lastmile_qr_scan"}, "type": "electric_scooter", "lat": 38.90587216666667, "is_reserved": 0, "fusion_lat": 0.0}, {"bike_id": "9b9bdd98644284524650ce87596f59d2", "fusion_lon": 0.0, "lon": -76.990329, "name": "9b9bdd98644284524650ce87596f59d2", "is_disabled": 0, "rental_uris": {"android": "https://dc.lft.to/lastmile_qr_scan", "ios": "https://dc.lft.to/lastmile_qr_scan"}, "type": "electric_scooter", "lat": 38.865177, "is_reserved": 0, "fusion_lat": 0.0}, {"bike_id": "87d95413c78978882f0cd329bfabd62d", "fusion_lon": 0.0, "lon": -77.1295555, "name": "87d95413c78978882f0cd329bfabd62d", "is_disabled": 0, "rental_uris": {"android": "https://dc.lft.to/lastmile_qr_scan", "ios": "https://dc.lft.to/lastmile_qr_scan"}, "type": "electric_bike", "lat": 38.852242333333336, "is_reserved": 0, "fusion_lat": 0.0}, {"bike_id": "762861d467e9bf8ccba3a5bf9fda158e", "fusion_lon": 0.0, "lon": -77.03880266666667, "name": "762861d467e9bf8ccba3a5bf9fda158e", "is_disabled": 0, "rental_uris": {"android": "https://dc.lft.to/lastmile_qr_scan", "ios": "https://dc.lft.to/lastmile_qr_scan"}, "type": "electric_scooter", "lat": 38.917070333333335, "is_reserved": 0, "fusion_lat": 0.0}, {"bike_id": "d610dd1560d3d8b87536da29f10426af", "fusion_lon": 0.0, "lon": -77.0402075, "name": "d610dd1560d3d8b87536da29f10426af", "is_disabled": 0, "rental_uris": {"android": "https://dc.lft.to/lastmile_qr_scan", "ios": "https://dc.lft.to/lastmile_qr_scan"}, "type": "electric_scooter", "lat": 38.924505, "is_reserved": 0, "fusion_lat": 0.0}, {"bike_id": "13c8481581bffcdaa3780a43b431e3e2", "fusion_lon": 0.0, "lon": -77.02497383333333, "name": "13c8481581bffcdaa3780a43b431e3e2", "is_disabled": 0, "rental_uris": {"android": "https://dc.lft.to/lastmile_qr_scan", "ios": "https://dc.lft.to/lastmile_qr_scan"}, "type": "electric_scooter", "lat": 38.90254733333333, "is_reserved": 0, "fusion_lat": 0.0}, {"bike_id": "995443312fd98cee8f18fab49472dfd4", "fusion_lon": 0.0, "lon": -77.02344116666667, "name": "995443312fd98cee8f18fab49472dfd4", "is_disabled": 0, "rental_uris": {"android": "https://dc.lft.to/lastmile_qr_scan", "ios": "https://dc.lft.to/lastmile_qr_scan"}, "type": "electric_scooter", "lat": 38.9073165, "is_reserved": 0, "fusion_lat": 0.0}, {"bike_id": "df9b5a07d6ce1f68dea2a855ba2837a2", "fusion_lon": 0.0, "lon": -77.03473633333333, "name": "df9b5a07d6ce1f68dea2a855ba2837a2", "is_disabled": 0, "rental_uris": {"android": "https://dc.lft.to/lastmile_qr_scan", "ios": "https://dc.lft.to/lastmile_qr_scan"}, "type": "electric_bike", "lat": 38.93539483333333, "is_reserved": 0, "fusion_lat": 0.0}, {"bike_id": "de23cb82f5224a4e12fb3714e7cea1b9", "fusion_lon": 0.0, "lon": -77.03672716666667, "name": "de23cb82f5224a4e12fb3714e7cea1b9", "is_disabled": 0, "rental_uris": {"android": "https://dc.lft.to/lastmile_qr_scan", "ios": "https://dc.lft.to/lastmile_qr_scan"}, "type": "electric_scooter", "lat": 38.91710966666667, "is_reserved": 0, "fusion_lat": 0.0}, {"bike_id": "ba43929a849bdbe95b9c2e3c26897b8b", "fusion_lon": 0.0, "lon": -76.93228433333333, "name": "ba43929a849bdbe95b9c2e3c26897b8b", "is_disabled": 0, "rental_uris": {"android": "https://dc.lft.to/lastmile_qr_scan", "ios": "https://dc.lft.to/lastmile_qr_scan"}, "type": "electric_bike", "lat": 38.865967833333336, "is_reserved": 0, "fusion_lat": 0.0}, {"bike_id": "cc024f00da5648ac2140ea9acb9ee878", "fusion_lon": 0.0, "lon": -77.03194366666666, "name": "cc024f00da5648ac2140ea9acb9ee878", "is_disabled": 0, "rental_uris": {"android": "https://dc.lft.to/lastmile_qr_scan", "ios": "https://dc.lft.to/lastmile_qr_scan"}, "type": "electric_scooter", "lat": 38.897237833333335, "is_reserved": 0, "fusion_lat": 0.0}, {"bike_id": "67e38699066bab5885ce233c6c3a0ab3", "fusion_lon": 0.0, "lon": -77.01879616666666, "name": "67e38699066bab5885ce233c6c3a0ab3", "is_disabled": 0, "rental_uris": {"android": "https://dc.lft.to/lastmile_qr_scan", "ios": "https://dc.lft.to/lastmile_qr_scan"}, "type": "electric_scooter", "lat": 38.91772266666667, "is_reserved": 0, "fusion_lat": 0.0}, {"bike_id": "fe0832faf930dfea608e6a8c54dcbb0c", "fusion_lon": 0.0, "lon": -77.0400795, "name": "fe0832faf930dfea608e6a8c54dcbb0c", "is_disabled": 0, "rental_uris": {"android": "https://dc.lft.to/lastmile_qr_scan", "ios": "https://dc.lft.to/lastmile_qr_scan"}, "type": "electric_scooter", "lat": 38.90999633333333, "is_reserved": 0, "fusion_lat": 0.0}, {"bike_id": "ee34cab0a5bf239882bf46256aec932e", "fusion_lon": 0.0, "lon": -77.03985183333333, "name": "ee34cab0a5bf239882bf46256aec932e", "is_disabled": 0, "rental_uris": {"android": "https://dc.lft.to/lastmile_qr_scan", "ios": "https://dc.lft.to/lastmile_qr_scan"}, "type": "electric_scooter", "lat": 38.925849, "is_reserved": 0, "fusion_lat": 0.0}, {"bike_id": "5b625868b9af7b1e4eab3e1178df6dbb", "fusion_lon": 0.0, "lon": -77.0461505, "name": "5b625868b9af7b1e4eab3e1178df6dbb", "is_disabled": 0, "rental_uris": {"android": "https://dc.lft.to/lastmile_qr_scan", "ios": "https://dc.lft.to/lastmile_qr_scan"}, "type": "electric_scooter", "lat": 38.91462583333333, "is_reserved": 0, "fusion_lat": 0.0}, {"bike_id": "60a33419f0ee561f379e8f3b5b51ef56", "fusion_lon": 0.0, "lon": -77.02962033333333, "name": "60a33419f0ee561f379e8f3b5b51ef56", "is_disabled": 0, "rental_uris": {"android": "https://dc.lft.to/lastmile_qr_scan", "ios": "https://dc.lft.to/lastmile_qr_scan"}, "type": "electric_scooter", "lat": 38.915981, "is_reserved": 0, "fusion_lat": 0.0}, {"bike_id": "acf323898c7c37d7e63004fd76d9568f", "fusion_lon": 0.0, "lon": -77.0364705, "name": "acf323898c7c37d7e63004fd76d9568f", "is_disabled": 0, "rental_uris": {"android": "https://dc.lft.to/lastmile_qr_scan", "ios": "https://dc.lft.to/lastmile_qr_scan"}, "type": "electric_scooter", "lat": 38.9233965, "is_reserved": 0, "fusion_lat": 0.0}, {"bike_id": "a98ee18f0f0736f7c8c3252aaa5307b0", "fusion_lon": 0.0, "lon": -77.02530483333334, "name": "a98ee18f0f0736f7c8c3252aaa5307b0", "is_disabled": 0, "rental_uris": {"android": "https://dc.lft.to/lastmile_qr_scan", "ios": "https://dc.lft.to/lastmile_qr_scan"}, "type": "electric_scooter", "lat": 38.909663333333334, "is_reserved": 0, "fusion_lat": 0.0}, {"bike_id": "f3b4bb00b87d9e1ac22def13c6f4307e", "fusion_lon": 0.0, "lon": -77.0153375, "name": "f3b4bb00b87d9e1ac22def13c6f4307e", "is_disabled": 0, "rental_uris": {"android": "https://dc.lft.to/lastmile_qr_scan", "ios": "https://dc.lft.to/lastmile_qr_scan"}, "type": "electric_scooter", "lat": 38.884066, "is_reserved": 0, "fusion_lat": 0.0}, {"bike_id": "4e1632fb9d33ac0c17ce42f6fca2cab4", "fusion_lon": 0.0, "lon": -77.00595366666667, "name": "4e1632fb9d33ac0c17ce42f6fca2cab4", "is_disabled": 0, "rental_uris": {"android": "https://dc.lft.to/lastmile_qr_scan", "ios": "https://dc.lft.to/lastmile_qr_scan"}, "type": "electric_scooter", "lat": 38.90606183333333, "is_reserved": 0, "fusion_lat": 0.0}, {"bike_id": "106dd014a59e429c11c88f8c62eb9cc5", "fusion_lon": 0.0, "lon": -77.00795883333333, "name": "106dd014a59e429c11c88f8c62eb9cc5", "is_disabled": 0, "rental_uris": {"android": "https://dc.lft.to/lastmile_qr_scan", "ios": "https://dc.lft.to/lastmile_qr_scan"}, "type": "electric_bike", "lat": 38.94922733333333, "is_reserved": 0, "fusion_lat": 0.0}, {"bike_id": "bc5ebdd541e365f9d63518ee0a166880", "fusion_lon": 0.0, "lon": -77.0137195, "name": "bc5ebdd541e365f9d63518ee0a166880", "is_disabled": 0, "rental_uris": {"android": "https://dc.lft.to/lastmile_qr_scan", "ios": "https://dc.lft.to/lastmile_qr_scan"}, "type": "electric_scooter", "lat": 38.887079166666666, "is_reserved": 0, "fusion_lat": 0.0}, {"bike_id": "75a92cff61528492df97e99a42f0f78a", "fusion_lon": 0.0, "lon": -77.04668483333333, "name": "75a92cff61528492df97e99a42f0f78a", "is_disabled": 0, "rental_uris": {"android": "https://dc.lft.to/lastmile_qr_scan", "ios": "https://dc.lft.to/lastmile_qr_scan"}, "type": "electric_scooter", "lat": 38.902552166666666, "is_reserved": 0, "fusion_lat": 0.0}, {"bike_id": "fe75545407bff1094ce90c15f15ee5cc", "fusion_lon": 0.0, "lon": -77.03659766666667, "name": "fe75545407bff1094ce90c15f15ee5cc", "is_disabled": 0, "rental_uris": {"android": "https://dc.lft.to/lastmile_qr_scan", "ios": "https://dc.lft.to/lastmile_qr_scan"}, "type": "electric_scooter", "lat": 38.9180085, "is_reserved": 0, "fusion_lat": 0.0}, {"bike_id": "aa9d0cc9365d5d929c2fc43ba4aa120e", "fusion_lon": 0.0, "lon": -77.03164866666667, "name": "aa9d0cc9365d5d929c2fc43ba4aa120e", "is_disabled": 0, "rental_uris": {"android": "https://dc.lft.to/lastmile_qr_scan", "ios": "https://dc.lft.to/lastmile_qr_scan"}, "type": "electric_scooter", "lat": 38.892200333333335, "is_reserved": 0, "fusion_lat": 0.0}, {"bike_id": "3884ac0fd314adc76599291532742ccc", "fusion_lon": 0.0, "lon": -77.04422216666667, "name": "3884ac0fd314adc76599291532742ccc", "is_disabled": 0, "rental_uris": {"android": "https://dc.lft.to/lastmile_qr_scan", "ios": "https://dc.lft.to/lastmile_qr_scan"}, "type": "electric_scooter", "lat": 38.91008733333334, "is_reserved": 0, "fusion_lat": 0.0}, {"bike_id": "758fe6d8c3c593e26035a087fad14b09", "fusion_lon": 0.0, "lon": -76.981096, "name": "758fe6d8c3c593e26035a087fad14b09", "is_disabled": 0, "rental_uris": {"android": "https://dc.lft.to/lastmile_qr_scan", "ios": "https://dc.lft.to/lastmile_qr_scan"}, "type": "electric_bike", "lat": 38.9147565, "is_reserved": 0, "fusion_lat": 0.0}, {"bike_id": "2ff379229c366dd250424bcc73f3d6dd", "fusion_lon": 0.0, "lon": -77.02172133333333, "name": "2ff379229c366dd250424bcc73f3d6dd", "is_disabled": 0, "rental_uris": {"android": "https://dc.lft.to/lastmile_qr_scan", "ios": "https://dc.lft.to/lastmile_qr_scan"}, "type": "electric_scooter", "lat": 38.90619616666667, "is_reserved": 0, "fusion_lat": 0.0}, {"bike_id": "686b2f32f8035bd08edefd248ed8e83e", "fusion_lon": 0.0, "lon": -77.02231216666667, "name": "686b2f32f8035bd08edefd248ed8e83e", "is_disabled": 0, "rental_uris": {"android": "https://dc.lft.to/lastmile_qr_scan", "ios": "https://dc.lft.to/lastmile_qr_scan"}, "type": "electric_scooter", "lat": 38.91008083333333, "is_reserved": 0, "fusion_lat": 0.0}, {"bike_id": "4c09dee871dddaa1a250974d9f47ed0a", "fusion_lon": 0.0, "lon": -77.0425705, "name": "4c09dee871dddaa1a250974d9f47ed0a", "is_disabled": 0, "rental_uris": {"android": "https://dc.lft.to/lastmile_qr_scan", "ios": "https://dc.lft.to/lastmile_qr_scan"}, "type": "electric_scooter", "lat": 38.92201983333333, "is_reserved": 0, "fusion_lat": 0.0}, {"bike_id": "71ff80588b1a6a40cdf78010daef3e43", "fusion_lon": 0.0, "lon": -77.02969366666666, "name": "71ff80588b1a6a40cdf78010daef3e43", "is_disabled": 0, "rental_uris": {"android": "https://dc.lft.to/lastmile_qr_scan", "ios": "https://dc.lft.to/lastmile_qr_scan"}, "type": "electric_scooter", "lat": 38.915975833333334, "is_reserved": 0, "fusion_lat": 0.0}, {"bike_id": "1c77d7688e093d0356f20d4660bb87e5", "fusion_lon": 0.0, "lon": -76.9994635, "name": "1c77d7688e093d0356f20d4660bb87e5", "is_disabled": 0, "rental_uris": {"android": "https://dc.lft.to/lastmile_qr_scan", "ios": "https://dc.lft.to/lastmile_qr_scan"}, "type": "electric_scooter", "lat": 38.842968666666664, "is_reserved": 0, "fusion_lat": 0.0}, {"bike_id": "7d4f4e44ac7d236be7537cda22f638ff", "fusion_lon": 0.0, "lon": -77.029672, "name": "7d4f4e44ac7d236be7537cda22f638ff", "is_disabled": 0, "rental_uris": {"android": "https://dc.lft.to/lastmile_qr_scan", "ios": "https://dc.lft.to/lastmile_qr_scan"}, "type": "electric_scooter", "lat": 38.91683166666667, "is_reserved": 0, "fusion_lat": 0.0}, {"bike_id": "0846371969e45c15c8479ff260b8b693", "fusion_lon": 0.0, "lon": -77.02976216666667, "name": "0846371969e45c15c8479ff260b8b693", "is_disabled": 0, "rental_uris": {"android": "https://dc.lft.to/lastmile_qr_scan", "ios": "https://dc.lft.to/lastmile_qr_scan"}, "type": "electric_scooter", "lat": 38.9169275, "is_reserved": 0, "fusion_lat": 0.0}, {"bike_id": "0d3874d1d045d3dcb98d664e4346c601", "fusion_lon": 0.0, "lon": -77.0331815, "name": "0d3874d1d045d3dcb98d664e4346c601", "is_disabled": 0, "rental_uris": {"android": "https://dc.lft.to/lastmile_qr_scan", "ios": "https://dc.lft.to/lastmile_qr_scan"}, "type": "electric_scooter", "lat": 38.90339783333334, "is_reserved": 0, "fusion_lat": 0.0}, {"bike_id": "734579ca4fcb5f8ba48be619929d84f3", "fusion_lon": 0.0, "lon": -77.03335416666667, "name": "734579ca4fcb5f8ba48be619929d84f3", "is_disabled": 0, "rental_uris": {"android": "https://dc.lft.to/lastmile_qr_scan", "ios": "https://dc.lft.to/lastmile_qr_scan"}, "type": "electric_scooter", "lat": 38.902505166666664, "is_reserved": 0, "fusion_lat": 0.0}, {"bike_id": "5cb03b88d424db2b785ea1f7d38af185", "fusion_lon": 0.0, "lon": -77.04470083333334, "name": "5cb03b88d424db2b785ea1f7d38af185", "is_disabled": 0, "rental_uris": {"android": "https://dc.lft.to/lastmile_qr_scan", "ios": "https://dc.lft.to/lastmile_qr_scan"}, "type": "electric_scooter", "lat": 38.911086, "is_reserved": 0, "fusion_lat": 0.0}, {"bike_id": "ede569e1c043d02d9191e20b296c4e74", "fusion_lon": 0.0, "lon": -77.06352233333334, "name": "ede569e1c043d02d9191e20b296c4e74", "is_disabled": 0, "rental_uris": {"android": "https://dc.lft.to/lastmile_qr_scan", "ios": "https://dc.lft.to/lastmile_qr_scan"}, "type": "electric_scooter", "lat": 38.9443875, "is_reserved": 0, "fusion_lat": 0.0}, {"bike_id": "201ee3825140c61f46f832892f363585", "fusion_lon": 0.0, "lon": -77.02300316666667, "name": "201ee3825140c61f46f832892f363585", "is_disabled": 0, "rental_uris": {"android": "https://dc.lft.to/lastmile_qr_scan", "ios": "https://dc.lft.to/lastmile_qr_scan"}, "type": "electric_scooter", "lat": 38.9161415, "is_reserved": 0, "fusion_lat": 0.0}, {"bike_id": "3d122ace936c20058c2c3d80db78e9c8", "fusion_lon": 0.0, "lon": -77.05829416666667, "name": "3d122ace936c20058c2c3d80db78e9c8", "is_disabled": 0, "rental_uris": {"android": "https://dc.lft.to/lastmile_qr_scan", "ios": "https://dc.lft.to/lastmile_qr_scan"}, "type": "electric_scooter", "lat": 38.9052715, "is_reserved": 0, "fusion_lat": 0.0}, {"bike_id": "7f452e1a6eab11ed696142a6a4518d48", "fusion_lon": 0.0, "lon": -77.00389966666667, "name": "7f452e1a6eab11ed696142a6a4518d48", "is_disabled": 0, "rental_uris": {"android": "https://dc.lft.to/lastmile_qr_scan", "ios": "https://dc.lft.to/lastmile_qr_scan"}, "type": "electric_scooter", "lat": 38.9220405, "is_reserved": 0, "fusion_lat": 0.0}, {"bike_id": "5e28703b548a143185a353d1e276c91e", "fusion_lon": 0.0, "lon": -77.04135683333334, "name": "5e28703b548a143185a353d1e276c91e", "is_disabled": 0, "rental_uris": {"android": "https://dc.lft.to/lastmile_qr_scan", "ios": "https://dc.lft.to/lastmile_qr_scan"}, "type": "electric_bike", "lat": 38.80502533333333, "is_reserved": 0, "fusion_lat": 0.0}, {"bike_id": "6552dcdc55e5b9b9ec378d06dd4486c5", "fusion_lon": 0.0, "lon": -77.02391916666667, "name": "6552dcdc55e5b9b9ec378d06dd4486c5", "is_disabled": 0, "rental_uris": {"android": "https://dc.lft.to/lastmile_qr_scan", "ios": "https://dc.lft.to/lastmile_qr_scan"}, "type": "electric_scooter", "lat": 38.917534833333335, "is_reserved": 0, "fusion_lat": 0.0}, {"bike_id": "307b903467966c1850e82868b877381c", "fusion_lon": 0.0, "lon": -77.02301966666667, "name": "307b903467966c1850e82868b877381c", "is_disabled": 0, "rental_uris": {"android": "https://dc.lft.to/lastmile_qr_scan", "ios": "https://dc.lft.to/lastmile_qr_scan"}, "type": "electric_scooter", "lat": 38.91550866666667, "is_reserved": 0, "fusion_lat": 0.0}, {"bike_id": "670c085d6397d3089e6c3afcac02022d", "fusion_lon": 0.0, "lon": -77.04848983333333, "name": "670c085d6397d3089e6c3afcac02022d", "is_disabled": 0, "rental_uris": {"android": "https://dc.lft.to/lastmile_qr_scan", "ios": "https://dc.lft.to/lastmile_qr_scan"},