{"data": {"bikes": [{"is_reserved": 0, "type": "electric_scooter", "bike_id": "eed6ee78b86bfdf6fc574a8ad37ad87d", "lat": 38.900303666666666, "lon": -76.98772816666667, "rental_uris": {"android": "https://dc.lft.to/lastmile_qr_scan", "ios": "https://dc.lft.to/lastmile_qr_scan"}, "is_disabled": 0, "fusion_lat": 0.0, "name": "eed6ee78b86bfdf6fc574a8ad37ad87d", "fusion_lon": 0.0}, {"is_reserved": 0, "type": "electric_scooter", "bike_id": "1b9f9c49d11ca1820f9ba785cffc8580", "lat": 38.93454466666667, "lon": -77.02106583333334, "rental_uris": {"android": "https://dc.lft.to/lastmile_qr_scan", "ios": "https://dc.lft.to/lastmile_qr_scan"}, "is_disabled": 0, "fusion_lat": 0.0, "name": "1b9f9c49d11ca1820f9ba785cffc8580", "fusion_lon": 0.0}, {"is_reserved": 0, "type": "electric_scooter", "bike_id": "b7a58c81fafd07c17e69c39e4b410b8e", "lat": 38.88987383333333, "lon": -76.9929725, "rental_uris": {"android": "https://dc.lft.to/lastmile_qr_scan", "ios": "https://dc.lft.to/lastmile_qr_scan"}, "is_disabled": 0, "fusion_lat": 0.0, "name": "b7a58c81fafd07c17e69c39e4b410b8e", "fusion_lon": 0.0}, {"is_reserved": 0, "type": "electric_scooter", "bike_id": "6bca4b5971c82777009dfcb47aec4f13", "lat": 38.900198833333334, "lon": -76.996274, "rental_uris": {"android": "https://dc.lft.to/lastmile_qr_scan", "ios": "https://dc.lft.to/lastmile_qr_scan"}, "is_disabled": 0, "fusion_lat": 0.0, "name": "6bca4b5971c82777009dfcb47aec4f13", "fusion_lon": 0.0}, {"is_reserved": 0, "type": "electric_scooter", "bike_id": "719d5d9ebadddfed842ff73223b07c56", "lat": 38.917615, "lon": -77.0231435, "rental_uris": {"android": "https://dc.lft.to/lastmile_qr_scan", "ios": "https://dc.lft.to/lastmile_qr_scan"}, "is_disabled": 0, "fusion_lat": 0.0, "name": "719d5d9ebadddfed842ff73223b07c56", "fusion_lon": 0.0}, {"is_reserved": 0, "type": "electric_scooter", "bike_id": "70fcdece5d4f67f576fce8e1efbd57ca", "lat": 38.92314866666667, "lon": -77.0381005, "rental_uris": {"android": "https://dc.lft.to/lastmile_qr_scan", "ios": "https://dc.lft.to/lastmile_qr_scan"}, "is_disabled": 0, "fusion_lat": 0.0, "name": "70fcdece5d4f67f576fce8e1efbd57ca", "fusion_lon": 0.0}, {"is_reserved": 0, "type": "electric_bike", "bike_id": "ca70a4ae530f75716129ad542f31743d", "lat": 38.8305095, "lon": -77.0125295, "rental_uris": {"android": "https://dc.lft.to/lastmile_qr_scan", "ios": "https://dc.lft.to/lastmile_qr_scan"}, "is_disabled": 0, "fusion_lat": 0.0, "name": "ca70a4ae530f75716129ad542f31743d", "fusion_lon": 0.0}, {"is_reserved": 0, "type": "electric_scooter", "bike_id": "97f1157ef600f554e7a9f3131c8ad5dc", "lat": 38.88280916666667, "lon": -76.99492916666667, "rental_uris": {"android": "https://dc.lft.to/lastmile_qr_scan", "ios": "https://dc.lft.to/lastmile_qr_scan"}, "is_disabled": 0, "fusion_lat": 0.0, "name": "97f1157ef600f554e7a9f3131c8ad5dc", "fusion_lon": 0.0}, {"is_reserved": 0, "type": "electric_bike", "bike_id": "9bbf9a50c40ea6a9e5b3300a49a87e76", "lat": 39.08431366666667, "lon": -76.95148733333333, "rental_uris": {"android": "https://dc.lft.to/lastmile_qr_scan", "ios": "https://dc.lft.to/lastmile_qr_scan"}, "is_disabled": 0, "fusion_lat": 0.0, "name": "9bbf9a50c40ea6a9e5b3300a49a87e76", "fusion_lon": 0.0}, {"is_reserved": 0, "type": "electric_scooter", "bike_id": "ebf439816e511249e9c3daef221e119d", "lat": 38.91265166666667, "lon": -77.03869033333334, "rental_uris": {"android": "https://dc.lft.to/lastmile_qr_scan", "ios": "https://dc.lft.to/lastmile_qr_scan"}, "is_disabled": 0, "fusion_lat": 0.0, "name": "ebf439816e511249e9c3daef221e119d", "fusion_lon": 0.0}, {"is_reserved": 0, "type": "electric_bike", "bike_id": "0673c18af3a9cae2936cfb0f598bc2b2", "lat": 38.945456166666666, "lon": -77.34450916666667, "rental_uris": {"android": "https://dc.lft.to/lastmile_qr_scan", "ios": "https://dc.lft.to/lastmile_qr_scan"}, "is_disabled": 0, "fusion_lat": 0.0, "name": "0673c18af3a9cae2936cfb0f598bc2b2", "fusion_lon": 0.0}, {"is_reserved": 0, "type": "electric_scooter", "bike_id": "2b0e68390fb2893b24677850e6200851", "lat": 38.91110533333333, "lon": -77.03836066666666, "rental_uris": {"android": "https://dc.lft.to/lastmile_qr_scan", "ios": "https://dc.lft.to/lastmile_qr_scan"}, "is_disabled": 0, "fusion_lat": 0.0, "name": "2b0e68390fb2893b24677850e6200851", "fusion_lon": 0.0}, {"is_reserved": 0, "type": "electric_scooter", "bike_id": "ee47ae16d79e9fedcafc0ed3c6d5dfd5", "lat": 38.905544, "lon": -77.0570195, "rental_uris": {"android": "https://dc.lft.to/lastmile_qr_scan", "ios": "https://dc.lft.to/lastmile_qr_scan"}, "is_disabled": 0, "fusion_lat": 0.0, "name": "ee47ae16d79e9fedcafc0ed3c6d5dfd5", "fusion_lon": 0.0}, {"is_reserved": 0, "type": "electric_scooter", "bike_id": "7779ee81bf4c196d1c9599d6b4cb734c", "lat": 38.87214383333333, "lon": -77.01353, "rental_uris": {"android": "https://dc.lft.to/lastmile_qr_scan", "ios": "https://dc.lft.to/lastmile_qr_scan"}, "is_disabled": 0, "fusion_lat": 0.0, "name": "7779ee81bf4c196d1c9599d6b4cb734c", "fusion_lon": 0.0}, {"is_reserved": 0, "type": "electric_scooter", "bike_id": "c4a2434bc3d5cf0c2cb8598c07fc31f2", "lat": 38.91421183333333, "lon": -77.01408383333333, "rental_uris": {"android": "https://dc.lft.to/lastmile_qr_scan", "ios": "https://dc.lft.to/lastmile_qr_scan"}, "is_disabled": 0, "fusion_lat": 0.0, "name": "c4a2434bc3d5cf0c2cb8598c07fc31f2", "fusion_lon": 0.0}, {"is_reserved": 0, "type": "electric_scooter", "bike_id": "262d37506340415e6cf9a4df31690837", "lat": 38.935263, "lon": -77.019398, "rental_uris": {"android": "https://dc.lft.to/lastmile_qr_scan", "ios": "https://dc.lft.to/lastmile_qr_scan"}, "is_disabled": 0, "fusion_lat": 0.0, "name": "262d37506340415e6cf9a4df31690837", "fusion_lon": 0.0}, {"is_reserved": 0, "type": "electric_scooter", "bike_id": "1adc095b9cc303a541182f77845a1889", "lat": 38.90692216666667, "lon": -76.98355216666667, "rental_uris": {"android": "https://dc.lft.to/lastmile_qr_scan", "ios": "https://dc.lft.to/lastmile_qr_scan"}, "is_disabled": 0, "fusion_lat": 0.0, "name": "1adc095b9cc303a541182f77845a1889", "fusion_lon": 0.0}, {"is_reserved": 0, "type": "electric_scooter", "bike_id": "133a38cfc8c37546b5715fb7a8a17664", "lat": 38.912557, "lon": -77.03511066666667, "rental_uris": {"android": "https://dc.lft.to/lastmile_qr_scan", "ios": "https://dc.lft.to/lastmile_qr_scan"}, "is_disabled": 0, "fusion_lat": 0.0, "name": "133a38cfc8c37546b5715fb7a8a17664", "fusion_lon": 0.0}, {"is_reserved": 0, "type": "electric_scooter", "bike_id": "50491618de823150f84fb39375baeb85", "lat": 38.908483333333336, "lon": -77.04343033333333, "rental_uris": {"android": "https://dc.lft.to/lastmile_qr_scan", "ios": "https://dc.lft.to/lastmile_qr_scan"}, "is_disabled": 0, "fusion_lat": 0.0, "name": "50491618de823150f84fb39375baeb85", "fusion_lon": 0.0}, {"is_reserved": 0, "type": "electric_scooter", "bike_id": "7df106b24dd3a78a45f31098e3861c99", "lat": 38.90557033333333, "lon": -77.01593566666666, "rental_uris": {"android": "https://dc.lft.to/lastmile_qr_scan", "ios": "https://dc.lft.to/lastmile_qr_scan"}, "is_disabled": 0, "fusion_lat": 0.0, "name": "7df106b24dd3a78a45f31098e3861c99", "fusion_lon": 0.0}, {"is_reserved": 0, "type": "electric_scooter", "bike_id": "e1465beb96dfce89743ed832cce87eeb", "lat": 38.8995155, "lon": -76.97914516666667, "rental_uris": {"android": "https://dc.lft.to/lastmile_qr_scan", "ios": "https://dc.lft.to/lastmile_qr_scan"}, "is_disabled": 0, "fusion_lat": 0.0, "name": "e1465beb96dfce89743ed832cce87eeb", "fusion_lon": 0.0}, {"is_reserved": 0, "type": "electric_scooter", "bike_id": "43a90ac21edbbd1e9b9a75a008cd9049", "lat": 38.92752733333333, "lon": -77.0327145, "rental_uris": {"android": "https://dc.lft.to/lastmile_qr_scan", "ios": "https://dc.lft.to/lastmile_qr_scan"}, "is_disabled": 0, "fusion_lat": 0.0, "name": "43a90ac21edbbd1e9b9a75a008cd9049", "fusion_lon": 0.0}, {"is_reserved": 0, "type": "electric_scooter", "bike_id": "be4d6f7ad69f39d1c0dc121df5c37c1a", "lat": 38.89725816666667, "lon": -77.021673, "rental_uris": {"android": "https://dc.lft.to/lastmile_qr_scan", "ios": "https://dc.lft.to/lastmile_qr_scan"}, "is_disabled": 0, "fusion_lat": 0.0, "name": "be4d6f7ad69f39d1c0dc121df5c37c1a", "fusion_lon": 0.0}, {"is_reserved": 0, "type": "electric_scooter", "bike_id": "9cdf7298380c390d115d6029fe53ed3f", "lat": 38.90032583333333, "lon": -77.0239385, "rental_uris": {"android": "https://dc.lft.to/lastmile_qr_scan", "ios": "https://dc.lft.to/lastmile_qr_scan"}, "is_disabled": 0, "fusion_lat": 0.0, "name": "9cdf7298380c390d115d6029fe53ed3f", "fusion_lon": 0.0}, {"is_reserved": 0, "type": "electric_scooter", "bike_id": "0bf49a33c5a585da51284d04f5cbd18b", "lat": 38.925839833333335, "lon": -77.02935333333333, "rental_uris": {"android": "https://dc.lft.to/lastmile_qr_scan", "ios": "https://dc.lft.to/lastmile_qr_scan"}, "is_disabled": 0, "fusion_lat": 0.0, "name": "0bf49a33c5a585da51284d04f5cbd18b", "fusion_lon": 0.0}, {"is_reserved": 0, "type": "electric_scooter", "bike_id": "c23f2274d3761c3a18fcf11196ca2bd9", "lat": 38.91406033333333, "lon": -77.027281, "rental_uris": {"android": "https://dc.lft.to/lastmile_qr_scan", "ios": "https://dc.lft.to/lastmile_qr_scan"}, "is_disabled": 0, "fusion_lat": 0.0, "name": "c23f2274d3761c3a18fcf11196ca2bd9", "fusion_lon": 0.0}, {"is_reserved": 0, "type": "electric_scooter", "bike_id": "a88129dcad78effd019950facba24597", "lat": 38.950893666666666, "lon": -77.02535516666667, "rental_uris": {"android": "https://dc.lft.to/lastmile_qr_scan", "ios": "https://dc.lft.to/lastmile_qr_scan"}, "is_disabled": 0, "fusion_lat": 0.0, "name": "a88129dcad78effd019950facba24597", "fusion_lon": 0.0}, {"is_reserved": 0, "type": "electric_scooter", "bike_id": "2c4a6b86f3a634f50e4fb99b72006c9f", "lat": 38.934634333333335, "lon": -77.02762383333334, "rental_uris": {"android": "https://dc.lft.to/lastmile_qr_scan", "ios": "https://dc.lft.to/lastmile_qr_scan"}, "is_disabled": 0, "fusion_lat": 0.0, "name": "2c4a6b86f3a634f50e4fb99b72006c9f", "fusion_lon": 0.0}, {"is_reserved": 0, "type": "electric_scooter", "bike_id": "b27f04499be716217d4d0e8019c21872", "lat": 38.91659633333333, "lon": -77.0239675, "rental_uris": {"android": "https://dc.lft.to/lastmile_qr_scan", "ios": "https://dc.lft.to/lastmile_qr_scan"}, "is_disabled": 0, "fusion_lat": 0.0, "name": "b27f04499be716217d4d0e8019c21872", "fusion_lon": 0.0}, {"is_reserved": 0, "type": "electric_scooter", "bike_id": "d6808f80df19fa9a456e6dbf1df467d9", "lat": 38.89763883333333, "lon": -77.02711983333333, "rental_uris": {"android": "https://dc.lft.to/lastmile_qr_scan", "ios": "https://dc.lft.to/lastmile_qr_scan"}, "is_disabled": 0, "fusion_lat": 0.0, "name": "d6808f80df19fa9a456e6dbf1df467d9", "fusion_lon": 0.0}, {"is_reserved": 0, "type": "electric_scooter", "bike_id": "94c57ddad3a8f34351c884c1018605bb", "lat": 38.8991515, "lon": -77.03371283333334, "rental_uris": {"android": "https://dc.lft.to/lastmile_qr_scan", "ios": "https://dc.lft.to/lastmile_qr_scan"}, "is_disabled": 0, "fusion_lat": 0.0, "name": "94c57ddad3a8f34351c884c1018605bb", "fusion_lon": 0.0}, {"is_reserved": 0, "type": "electric_scooter", "bike_id": "4c68de42b6fdcf93b035bc0adf5c1299", "lat": 38.9233725, "lon": -77.035057, "rental_uris": {"android": "https://dc.lft.to/lastmile_qr_scan", "ios": "https://dc.lft.to/lastmile_qr_scan"}, "is_disabled": 0, "fusion_lat": 0.0, "name": "4c68de42b6fdcf93b035bc0adf5c1299", "fusion_lon": 0.0}, {"is_reserved": 0, "type": "electric_scooter", "bike_id": "96f63dfe8df0f741044ee195c3d2797c", "lat": 38.921513, "lon": -77.038718, "rental_uris": {"android": "https://dc.lft.to/lastmile_qr_scan", "ios": "https://dc.lft.to/lastmile_qr_scan"}, "is_disabled": 0, "fusion_lat": 0.0, "name": "96f63dfe8df0f741044ee195c3d2797c", "fusion_lon": 0.0}, {"is_reserved": 0, "type": "electric_scooter", "bike_id": "a9a9e5f12f60db8c3bfeced506ff08f5", "lat": 38.914139166666665, "lon": -77.02212166666666, "rental_uris": {"android": "https://dc.lft.to/lastmile_qr_scan", "ios": "https://dc.lft.to/lastmile_qr_scan"}, "is_disabled": 0, "fusion_lat": 0.0, "name": "a9a9e5f12f60db8c3bfeced506ff08f5", "fusion_lon": 0.0}, {"is_reserved": 0, "type": "electric_scooter", "bike_id": "d1b26dc75c5c4228443b8fc0cf0acb5e", "lat": 38.931844166666664, "lon": -77.0384725, "rental_uris": {"android": "https://dc.lft.to/lastmile_qr_scan", "ios": "https://dc.lft.to/lastmile_qr_scan"}, "is_disabled": 0, "fusion_lat": 0.0, "name": "d1b26dc75c5c4228443b8fc0cf0acb5e", "fusion_lon": 0.0}, {"is_reserved": 0, "type": "electric_bike", "bike_id": "d9215cbb1cb5e22397657670c5e51774", "lat": 38.9051015, "lon": -77.04820016666666, "rental_uris": {"android": "https://dc.lft.to/lastmile_qr_scan", "ios": "https://dc.lft.to/lastmile_qr_scan"}, "is_disabled": 0, "fusion_lat": 0.0, "name": "d9215cbb1cb5e22397657670c5e51774", "fusion_lon": 0.0}, {"is_reserved": 0, "type": "electric_scooter", "bike_id": "786b485c5df31331ac8536cb834e94ce", "lat": 38.91032033333333, "lon": -77.03688133333333, "rental_uris": {"android": "https://dc.lft.to/lastmile_qr_scan", "ios": "https://dc.lft.to/lastmile_qr_scan"}, "is_disabled": 0, "fusion_lat": 0.0, "name": "786b485c5df31331ac8536cb834e94ce", "fusion_lon": 0.0}, {"is_reserved": 0, "type": "electric_scooter", "bike_id": "cc6d96b574396bb18df23f653b12d21e", "lat": 38.900490166666664, "lon": -76.998522, "rental_uris": {"android": "https://dc.lft.to/lastmile_qr_scan", "ios": "https://dc.lft.to/lastmile_qr_scan"}, "is_disabled": 0, "fusion_lat": 0.0, "name": "cc6d96b574396bb18df23f653b12d21e", "fusion_lon": 0.0}, {"is_reserved": 0, "type": "electric_scooter", "bike_id": "0c8f1438791f00d55f6fb142318ef076", "lat": 38.929298333333335, "lon": -77.03763533333333, "rental_uris": {"android": "https://dc.lft.to/lastmile_qr_scan", "ios": "https://dc.lft.to/lastmile_qr_scan"}, "is_disabled": 0, "fusion_lat": 0.0, "name": "0c8f1438791f00d55f6fb142318ef076", "fusion_lon": 0.0}, {"is_reserved": 0, "type": "electric_scooter", "bike_id": "cc7b3b9461a47a304ef80ff499551cbc", "lat": 38.90038833333333, "lon": -76.99152633333334, "rental_uris": {"android": "https://dc.lft.to/lastmile_qr_scan", "ios": "https://dc.lft.to/lastmile_qr_scan"}, "is_disabled": 0, "fusion_lat": 0.0, "name": "cc7b3b9461a47a304ef80ff499551cbc", "fusion_lon": 0.0}, {"is_reserved": 0, "type": "electric_scooter", "bike_id": "82c117d48fc9704dbd57a6ff23cb72d3", "lat": 38.92245466666667, "lon": -76.99737333333333, "rental_uris": {"android": "https://dc.lft.to/lastmile_qr_scan", "ios": "https://dc.lft.to/lastmile_qr_scan"}, "is_disabled": 0, "fusion_lat": 0.0, "name": "82c117d48fc9704dbd57a6ff23cb72d3", "fusion_lon": 0.0}, {"is_reserved": 0, "type": "electric_scooter", "bike_id": "292fb2c04d24f83cac76de7b733eab22", "lat": 38.89923783333333, "lon": -77.0318445, "rental_uris": {"android": "https://dc.lft.to/lastmile_qr_scan", "ios": "https://dc.lft.to/lastmile_qr_scan"}, "is_disabled": 0, "fusion_lat": 0.0, "name": "292fb2c04d24f83cac76de7b733eab22", "fusion_lon": 0.0}, {"is_reserved": 0, "type": "electric_scooter", "bike_id": "8a85eb5bca1b69fa09714ef9c8e0e506", "lat": 38.8935795, "lon": -76.94106266666667, "rental_uris": {"android": "https://dc.lft.to/lastmile_qr_scan", "ios": "https://dc.lft.to/lastmile_qr_scan"}, "is_disabled": 0, "fusion_lat": 0.0, "name": "8a85eb5bca1b69fa09714ef9c8e0e506", "fusion_lon": 0.0}, {"is_reserved": 0, "type": "electric_scooter", "bike_id": "827aaeaf781cc42f928939f4a5721355", "lat": 38.911216, "lon": -77.02197033333333, "rental_uris": {"android": "https://dc.lft.to/lastmile_qr_scan", "ios": "https://dc.lft.to/lastmile_qr_scan"}, "is_disabled": 0, "fusion_lat": 0.0, "name": "827aaeaf781cc42f928939f4a5721355", "fusion_lon": 0.0}, {"is_reserved": 0, "type": "electric_scooter", "bike_id": "1c4f154ff964ff920c42922dcf850c68", "lat": 38.94730716666667, "lon": -77.02459066666667, "rental_uris": {"android": "https://dc.lft.to/lastmile_qr_scan", "ios": "https://dc.lft.to/lastmile_qr_scan"}, "is_disabled": 0, "fusion_lat": 0.0, "name": "1c4f154ff964ff920c42922dcf850c68", "fusion_lon": 0.0}, {"is_reserved": 0, "type": "electric_scooter", "bike_id": "4cd7419509f5c76e956a9786dca362d2", "lat": 38.9336755, "lon": -77.05734116666666, "rental_uris": {"android": "https://dc.lft.to/lastmile_qr_scan", "ios": "https://dc.lft.to/lastmile_qr_scan"}, "is_disabled": 0, "fusion_lat": 0.0, "name": "4cd7419509f5c76e956a9786dca362d2", "fusion_lon": 0.0}, {"is_reserved": 0, "type": "electric_scooter", "bike_id": "d72a46e813fa1cac89b3b28276a96634", "lat": 38.92565666666667, "lon": -76.97006233333333, "rental_uris": {"android": "https://dc.lft.to/lastmile_qr_scan", "ios": "https://dc.lft.to/lastmile_qr_scan"}, "is_disabled": 0, "fusion_lat": 0.0, "name": "d72a46e813fa1cac89b3b28276a96634", "fusion_lon": 0.0}, {"is_reserved": 0, "type": "electric_bike", "bike_id": "304e8a47730358be56e636d41d71e9c3", "lat": 38.9512985, "lon": -76.96589033333333, "rental_uris": {"android": "https://dc.lft.to/lastmile_qr_scan", "ios": "https://dc.lft.to/lastmile_qr_scan"}, "is_disabled": 0, "fusion_lat": 0.0, "name": "304e8a47730358be56e636d41d71e9c3", "fusion_lon": 0.0}, {"is_reserved": 0, "type": "electric_scooter", "bike_id": "ea1419ce0f66b01c4e7b68e923594cb6", "lat": 38.89227616666667, "lon": -77.02176433333334, "rental_uris": {"android": "https://dc.lft.to/lastmile_qr_scan", "ios": "https://dc.lft.to/lastmile_qr_scan"}, "is_disabled": 0, "fusion_lat": 0.0, "name": "ea1419ce0f66b01c4e7b68e923594cb6", "fusion_lon": 0.0}, {"is_reserved": 0, "type": "electric_scooter", "bike_id": "88871ebb11eb41a0555a743c8a97aa02", "lat": 38.90828316666666, "lon": -77.03473833333334, "rental_uris": {"android": "https://dc.lft.to/lastmile_qr_scan", "ios": "https://dc.lft.to/lastmile_qr_scan"}, "is_disabled": 0, "fusion_lat": 0.0, "name": "88871ebb11eb41a0555a743c8a97aa02", "fusion_lon": 0.0}, {"is_reserved": 0, "type": "electric_scooter", "bike_id": "e83d4339d4f844d535f3ea2fc471fdbb", "lat": 38.8921875, "lon": -77.023136, "rental_uris": {"android": "https://dc.lft.to/lastmile_qr_scan", "ios": "https://dc.lft.to/lastmile_qr_scan"}, "is_disabled": 0, "fusion_lat": 0.0, "name": "e83d4339d4f844d535f3ea2fc471fdbb", "fusion_lon": 0.0}, {"is_reserved": 0, "type": "electric_scooter", "bike_id": "fce43caed2dff8fe607911089ac58d45", "lat": 38.92051716666667, "lon": -77.021984, "rental_uris": {"android": "https://dc.lft.to/lastmile_qr_scan", "ios": "https://dc.lft.to/lastmile_qr_scan"}, "is_disabled": 0, "fusion_lat": 0.0, "name": "fce43caed2dff8fe607911089ac58d45", "fusion_lon": 0.0}, {"is_reserved": 0, "type": "electric_scooter", "bike_id": "cc18d4d3ebeed12c1c268540b9becec8", "lat": 38.89477183333333, "lon": -77.04993233333333, "rental_uris": {"android": "https://dc.lft.to/lastmile_qr_scan", "ios": "https://dc.lft.to/lastmile_qr_scan"}, "is_disabled": 0, "fusion_lat": 0.0, "name": "cc18d4d3ebeed12c1c268540b9becec8", "fusion_lon": 0.0}, {"is_reserved": 0, "type": "electric_scooter", "bike_id": "206c3a90e6f75711ad71423d454b1b06", "lat": 38.885045, "lon": -77.0218995, "rental_uris": {"android": "https://dc.lft.to/lastmile_qr_scan", "ios": "https://dc.lft.to/lastmile_qr_scan"}, "is_disabled": 0, "fusion_lat": 0.0, "name": "206c3a90e6f75711ad71423d454b1b06", "fusion_lon": 0.0}, {"is_reserved": 0, "type": "electric_scooter", "bike_id": "73fc1b877c7406205aa36031fa36987a", "lat": 38.92581333333333, "lon": -77.0294475, "rental_uris": {"android": "https://dc.lft.to/lastmile_qr_scan", "ios": "https://dc.lft.to/lastmile_qr_scan"}, "is_disabled": 0, "fusion_lat": 0.0, "name": "73fc1b877c7406205aa36031fa36987a", "fusion_lon": 0.0}, {"is_reserved": 0, "type": "electric_scooter", "bike_id": "df3f3dd5e730c8a2fa168bd34b8186c7", "lat": 38.916239833333336, "lon": -77.00759833333333, "rental_uris": {"android": "https://dc.lft.to/lastmile_qr_scan", "ios": "https://dc.lft.to/lastmile_qr_scan"}, "is_disabled": 0, "fusion_lat": 0.0, "name": "df3f3dd5e730c8a2fa168bd34b8186c7", "fusion_lon": 0.0}, {"is_reserved": 0, "type": "electric_scooter", "bike_id": "83be77466f2b741e73a85548f5551726", "lat": 38.8939055, "lon": -77.02253933333333, "rental_uris": {"android": "https://dc.lft.to/lastmile_qr_scan", "ios": "https://dc.lft.to/lastmile_qr_scan"}, "is_disabled": 0, "fusion_lat": 0.0, "name": "83be77466f2b741e73a85548f5551726", "fusion_lon": 0.0}, {"is_reserved": 0, "type": "electric_scooter", "bike_id": "05f552057c79f54cbf11baa585496d68", "lat": 38.916583833333334, "lon": -77.0385395, "rental_uris": {"android": "https://dc.lft.to/lastmile_qr_scan", "ios": "https://dc.lft.to/lastmile_qr_scan"}, "is_disabled": 0, "fusion_lat": 0.0, "name": "05f552057c79f54cbf11baa585496d68", "fusion_lon": 0.0}, {"is_reserved": 0, "type": "electric_scooter", "bike_id": "91552fc95fba9df7b04d04698d36fab2", "lat": 38.922687333333336, "lon": -77.03667216666666, "rental_uris": {"android": "https://dc.lft.to/lastmile_qr_scan", "ios": "https://dc.lft.to/lastmile_qr_scan"}, "is_disabled": 0, "fusion_lat": 0.0, "name": "91552fc95fba9df7b04d04698d36fab2", "fusion_lon": 0.0}, {"is_reserved": 0, "type": "electric_scooter", "bike_id": "29a50a637dac11f08f6b994a0fd9d9c1", "lat": 38.90028133333333, "lon": -76.98859983333334, "rental_uris": {"android": "https://dc.lft.to/lastmile_qr_scan", "ios": "https://dc.lft.to/lastmile_qr_scan"}, "is_disabled": 0, "fusion_lat": 0.0, "name": "29a50a637dac11f08f6b994a0fd9d9c1", "fusion_lon": 0.0}, {"is_reserved": 0, "type": "electric_scooter", "bike_id": "2e327f2035cd97591a83d088d25b16f1", "lat": 38.897107, "lon": -77.05362233333334, "rental_uris": {"android": "https://dc.lft.to/lastmile_qr_scan", "ios": "https://dc.lft.to/lastmile_qr_scan"}, "is_disabled": 0, "fusion_lat": 0.0, "name": "2e327f2035cd97591a83d088d25b16f1", "fusion_lon": 0.0}, {"is_reserved": 0, "type": "electric_scooter", "bike_id": "11c6c65cb2629a00b17612e969f349df", "lat": 38.9224765, "lon": -77.02882016666666, "rental_uris": {"android": "https://dc.lft.to/lastmile_qr_scan", "ios": "https://dc.lft.to/lastmile_qr_scan"}, "is_disabled": 0, "fusion_lat": 0.0, "name": "11c6c65cb2629a00b17612e969f349df", "fusion_lon": 0.0}, {"is_reserved": 0, "type": "electric_scooter", "bike_id": "a56eda988674a302c151c9b3aff9d7a8", "lat": 38.899049166666664, "lon": -77.0036305, "rental_uris": {"android": "https://dc.lft.to/lastmile_qr_scan", "ios": "https://dc.lft.to/lastmile_qr_scan"}, "is_disabled": 0, "fusion_lat": 0.0, "name": "a56eda988674a302c151c9b3aff9d7a8", "fusion_lon": 0.0}, {"is_reserved": 0, "type": "electric_scooter", "bike_id": "de3cf400a03847a5ef9e6c9d4a502ae6", "lat": 38.87211416666667, "lon": -77.01553016666666, "rental_uris": {"android": "https://dc.lft.to/lastmile_qr_scan", "ios": "https://dc.lft.to/lastmile_qr_scan"}, "is_disabled": 0, "fusion_lat": 0.0, "name": "de3cf400a03847a5ef9e6c9d4a502ae6", "fusion_lon": 0.0}, {"is_reserved": 0, "type": "electric_scooter", "bike_id": "e5fa2afe1b5aa02d4f6fd4f1c5761441", "lat": 38.906829333333334, "lon": -77.062807, "rental_uris": {"android": "https://dc.lft.to/lastmile_qr_scan", "ios": "https://dc.lft.to/lastmile_qr_scan"}, "is_disabled": 0, "fusion_lat": 0.0, "name": "e5fa2afe1b5aa02d4f6fd4f1c5761441", "fusion_lon": 0.0}, {"is_reserved": 0, "type": "electric_scooter", "bike_id": "56ae0439291716ae3fe7fa01f1be48a4", "lat": 38.90177883333333, "lon": -76.92889583333333, "rental_uris": {"android": "https://dc.lft.to/lastmile_qr_scan", "ios": "https://dc.lft.to/lastmile_qr_scan"}, "is_disabled": 0, "fusion_lat": 0.0, "name": "56ae0439291716ae3fe7fa01f1be48a4", "fusion_lon": 0.0}, {"is_reserved": 0, "type": "electric_scooter", "bike_id": "f428923fa7b10f098966bd89e2501fed", "lat": 38.900248833333336, "lon": -76.99605166666667, "rental_uris": {"android": "https://dc.lft.to/lastmile_qr_scan", "ios": "https://dc.lft.to/lastmile_qr_scan"}, "is_disabled": 0, "fusion_lat": 0.0, "name": "f428923fa7b10f098966bd89e2501fed", "fusion_lon": 0.0}, {"is_reserved": 0, "type": "electric_bike", "bike_id": "4c4955e02eebe25172a148586c298e2c", "lat": 38.8073345, "lon": -76.99253366666667, "rental_uris": {"android": "https://dc.lft.to/lastmile_qr_scan", "ios": "https://dc.lft.to/lastmile_qr_scan"}, "is_disabled": 0, "fusion_lat": 0.0, "name": "4c4955e02eebe25172a148586c298e2c", "fusion_lon": 0.0}, {"is_reserved": 0, "type": "electric_scooter", "bike_id": "7f8fde39b94672edd2a6700a304cf40b", "lat": 38.90554133333333, "lon": -77.057035, "rental_uris": {"android": "https://dc.lft.to/lastmile_qr_scan", "ios": "https://dc.lft.to/lastmile_qr_scan"}, "is_disabled": 0, "fusion_lat": 0.0, "name": "7f8fde39b94672edd2a6700a304cf40b", "fusion_lon": 0.0}, {"is_reserved": 0, "type": "electric_scooter", "bike_id": "5d044a889bb5b036f9743f3a2efad3ad", "lat": 38.9243295, "lon": -77.02238633333333, "rental_uris": {"android": "https://dc.lft.to/lastmile_qr_scan", "ios": "https://dc.lft.to/lastmile_qr_scan"}, "is_disabled": 0, "fusion_lat": 0.0, "name": "5d044a889bb5b036f9743f3a2efad3ad", "fusion_lon": 0.0}, {"is_reserved": 0, "type": "electric_scooter", "bike_id": "91275177c85555d8aaac3a480860b243", "lat": 38.919162, "lon": -77.04810016666667, "rental_uris": {"android": "https://dc.lft.to/lastmile_qr_scan", "ios": "https://dc.lft.to/lastmile_qr_scan"}, "is_disabled": 0, "fusion_lat": 0.0, "name": "91275177c85555d8aaac3a480860b243", "fusion_lon": 0.0}, {"is_reserved": 0, "type": "electric_scooter", "bike_id": "19b1a0aa543a24e46679efec7042f868", "lat": 38.89830583333333, "lon": -77.02203683333333, "rental_uris": {"android": "https://dc.lft.to/lastmile_qr_scan", "ios": "https://dc.lft.to/lastmile_qr_scan"}, "is_disabled": 0, "fusion_lat": 0.0, "name": "19b1a0aa543a24e46679efec7042f868", "fusion_lon": 0.0}, {"is_reserved": 0, "type": "electric_scooter", "bike_id": "dedb61740a21ea466481cbbc85ff000b", "lat": 38.9065125, "lon": -77.041366, "rental_uris": {"android": "https://dc.lft.to/lastmile_qr_scan", "ios": "https://dc.lft.to/lastmile_qr_scan"}, "is_disabled": 0, "fusion_lat": 0.0, "name": "dedb61740a21ea466481cbbc85ff000b", "fusion_lon": 0.0}, {"is_reserved": 0, "type": "electric_scooter", "bike_id": "b3f4743521a8f20a10d7014a304c34b1", "lat": 38.923675, "lon": -77.05133533333333, "rental_uris": {"android": "https://dc.lft.to/lastmile_qr_scan", "ios": "https://dc.lft.to/lastmile_qr_scan"}, "is_disabled": 0, "fusion_lat": 0.0, "name": "b3f4743521a8f20a10d7014a304c34b1", "fusion_lon": 0.0}, {"is_reserved": 0, "type": "electric_scooter", "bike_id": "fab066e3ba8b73631c876368c9e2f968", "lat": 38.908781166666664, "lon": -77.07631566666667, "rental_uris": {"android": "https://dc.lft.to/lastmile_qr_scan", "ios": "https://dc.lft.to/lastmile_qr_scan"}, "is_disabled": 0, "fusion_lat": 0.0, "name": "fab066e3ba8b73631c876368c9e2f968", "fusion_lon": 0.0}, {"is_reserved": 0, "type": "electric_scooter", "bike_id": "0d32c321a4527db520018422e41f240d", "lat": 38.90720016666667, "lon": -77.04793383333333, "rental_uris": {"android": "https://dc.lft.to/lastmile_qr_scan", "ios": "https://dc.lft.to/lastmile_qr_scan"}, "is_disabled": 0, "fusion_lat": 0.0, "name": "0d32c321a4527db520018422e41f240d", "fusion_lon": 0.0}, {"is_reserved": 0, "type": "electric_scooter", "bike_id": "7c9e590c9cc0c9f2c14ac824fe717166", "lat": 38.924475666666666, "lon": -77.0203845, "rental_uris": {"android": "https://dc.lft.to/lastmile_qr_scan", "ios": "https://dc.lft.to/lastmile_qr_scan"}, "is_disabled": 0, "fusion_lat": 0.0, "name": "7c9e590c9cc0c9f2c14ac824fe717166", "fusion_lon": 0.0}, {"is_reserved": 0, "type": "electric_scooter", "bike_id": "550d4c0d66071f71a3732fbcb72595ec", "lat": 38.91641766666667, "lon": -77.00197216666666, "rental_uris": {"android": "https://dc.lft.to/lastmile_qr_scan", "ios": "https://dc.lft.to/lastmile_qr_scan"}, "is_disabled": 0, "fusion_lat": 0.0, "name": "550d4c0d66071f71a3732fbcb72595ec", "fusion_lon": 0.0}, {"is_reserved": 0, "type": "electric_scooter", "bike_id": "bb89a24ec149ff8a41ca658e90dc0c3a", "lat": 38.93013883333333, "lon": -77.02341, "rental_uris": {"android": "https://dc.lft.to/lastmile_qr_scan", "ios": "https://dc.lft.to/lastmile_qr_scan"}, "is_disabled": 0, "fusion_lat": 0.0, "name": "bb89a24ec149ff8a41ca658e90dc0c3a", "fusion_lon": 0.0}, {"is_reserved": 0, "type": "electric_scooter", "bike_id": "e5108ae50f3d7f6356137ad013047627", "lat": 38.933271833333336, "lon": -77.02916366666666, "rental_uris": {"android": "https://dc.lft.to/lastmile_qr_scan", "ios": "https://dc.lft.to/lastmile_qr_scan"}, "is_disabled": 0, "fusion_lat": 0.0, "name": "e5108ae50f3d7f6356137ad013047627", "fusion_lon": 0.0}, {"is_reserved": 0, "type": "electric_scooter", "bike_id": "b81122ab76cd717a950195a3be52ae6b", "lat": 38.9038235, "lon": -77.05343433333333, "rental_uris": {"android": "https://dc.lft.to/lastmile_qr_scan", "ios": "https://dc.lft.to/lastmile_qr_scan"}, "is_disabled": 0, "fusion_lat": 0.0, "name": "b81122ab76cd717a950195a3be52ae6b", "fusion_lon": 0.0}, {"is_reserved": 0, "type": "electric_scooter", "bike_id": "fa8eab9c9bd89012bf53c26aea8f9406", "lat": 38.897127833333336, "lon": -77.0079705, "rental_uris": {"android": "https://dc.lft.to/lastmile_qr_scan", "ios": "https://dc.lft.to/lastmile_qr_scan"}, "is_disabled": 0, "fusion_lat": 0.0, "name": "fa8eab9c9bd89012bf53c26aea8f9406", "fusion_lon": 0.0}, {"is_reserved": 0, "type": "electric_scooter", "bike_id": "2e14df1ab521f002aac4a06851bdb280", "lat": 38.940420833333334, "lon": -77.0292005, "rental_uris": {"android": "https://dc.lft.to/lastmile_qr_scan", "ios": "https://dc.lft.to/lastmile_qr_scan"}, "is_disabled": 0, "fusion_lat": 0.0, "name": "2e14df1ab521f002aac4a06851bdb280", "fusion_lon": 0.0}, {"is_reserved": 0, "type": "electric_scooter", "bike_id": "9ad3181f67dd938c473fa518644fed71", "lat": 38.916327, "lon": -77.032144, "rental_uris": {"android": "https://dc.lft.to/lastmile_qr_scan", "ios": "https://dc.lft.to/lastmile_qr_scan"}, "is_disabled": 0, "fusion_lat": 0.0, "name": "9ad3181f67dd938c473fa518644fed71", "fusion_lon": 0.0}, {"is_reserved": 0, "type": "electric_scooter", "bike_id": "170ce0ee473ddbf0f83109edb6400973", "lat": 38.92273483333334, "lon": -77.0402405, "rental_uris": {"android": "https://dc.lft.to/lastmile_qr_scan", "ios": "https://dc.lft.to/lastmile_qr_scan"}, "is_disabled": 0, "fusion_lat": 0.0, "name": "170ce0ee473ddbf0f83109edb6400973", "fusion_lon": 0.0}, {"is_reserved": 0, "type": "electric_scooter", "bike_id": "8ca32a0a2f669860af5c1898de7baac6", "lat": 38.878482166666664, "lon": -76.99555716666667, "rental_uris": {"android": "https://dc.lft.to/lastmile_qr_scan", "ios": "https://dc.lft.to/lastmile_qr_scan"}, "is_disabled": 0, "fusion_lat": 0.0, "name": "8ca32a0a2f669860af5c1898de7baac6", "fusion_lon": 0.0}, {"is_reserved": 0, "type": "electric_scooter", "bike_id": "017eab9bb8653700e5d519c95efde644", "lat": 38.90009716666667, "lon": -77.04017566666667, "rental_uris": {"android": "https://dc.lft.to/lastmile_qr_scan", "ios": "https://dc.lft.to/lastmile_qr_scan"}, "is_disabled": 0, "fusion_lat": 0.0, "name": "017eab9bb8653700e5d519c95efde644", "fusion_lon": 0.0}, {"is_reserved": 0, "type": "electric_scooter", "bike_id": "089d714f01341dfbefb86f434d9b1437", "lat": 38.904693, "lon": -77.02607766666667, "rental_uris": {"android": "https://dc.lft.to/lastmile_qr_scan", "ios": "https://dc.lft.to/lastmile_qr_scan"}, "is_disabled": 0, "fusion_lat": 0.0, "name": "089d714f01341dfbefb86f434d9b1437", "fusion_lon": 0.0}, {"is_reserved": 0, "type": "electric_scooter", "bike_id": "ab4127451dd9afa7d9d9205df1108f4a", "lat": 38.930848166666664, "lon": -77.0237945, "rental_uris": {"android": "https://dc.lft.to/lastmile_qr_scan", "ios": "https://dc.lft.to/lastmile_qr_scan"}, "is_disabled": 0, "fusion_lat": 0.0, "name": "ab4127451dd9afa7d9d9205df1108f4a", "fusion_lon": 0.0}, {"is_reserved": 0, "type": "electric_scooter", "bike_id": "b1dc3b3ca8b55a289c84b7cf8cb02e3a", "lat": 38.91185383333333, "lon": -77.00461383333334, "rental_uris": {"android": "https://dc.lft.to/lastmile_qr_scan", "ios": "https://dc.lft.to/lastmile_qr_scan"}, "is_disabled": 0, "fusion_lat": 0.0, "name": "b1dc3b3ca8b55a289c84b7cf8cb02e3a", "fusion_lon": 0.0}, {"is_reserved": 0, "type": "electric_scooter", "bike_id": "1e116467f4096f7ff615f4d2f1c3ae69", "lat": 38.952641166666666, "lon": -77.0239925, "rental_uris": {"android": "https://dc.lft.to/lastmile_qr_scan", "ios": "https://dc.lft.to/lastmile_qr_scan"}, "is_disabled": 0, "fusion_lat": 0.0, "name": "1e116467f4096f7ff615f4d2f1c3ae69", "fusion_lon": 0.0}, {"is_reserved": 0, "type": "electric_scooter", "bike_id": "0b93a5881095c25c6c7442a7476bb8a7", "lat": 38.92393033333333, "lon": -77.05062533333333, "rental_uris": {"android": "https://dc.lft.to/lastmile_qr_scan", "ios": "https://dc.lft.to/lastmile_qr_scan"}, "is_disabled": 0, "fusion_lat": 0.0, "name": "0b93a5881095c25c6c7442a7476bb8a7", "fusion_lon": 0.0}, {"is_reserved": 0, "type": "electric_scooter", "bike_id": "29f5d0c17d1aaaa99be9b666872c2a14", "lat": 38.92607016666667, "lon": -77.03967933333334, "rental_uris": {"android": "https://dc.lft.to/lastmile_qr_scan", "ios": "https://dc.lft.to/lastmile_qr_scan"}, "is_disabled": 0, "fusion_lat": 0.0, "name": "29f5d0c17d1aaaa99be9b666872c2a14", "fusion_lon": 0.0}, {"is_reserved": 0, "type": "electric_bike", "bike_id": "9a72908a1423c70951d64615a96bfd68", "lat": 38.949208, "lon": -77.007965, "rental_uris": {"android": "https://dc.lft.to/lastmile_qr_scan", "ios": "https://dc.lft.to/lastmile_qr_scan"}, "is_disabled": 0, "fusion_lat": 0.0, "name": "9a72908a1423c70951d64615a96bfd68", "fusion_lon": 0.0}, {"is_reserved": 0, "type": "electric_scooter", "bike_id": "ccb5b93204cfa6faf5401087d1c7b92b", "lat": 38.95184483333333, "lon": -77.02617183333334, "rental_uris": {"android": "https://dc.lft.to/lastmile_qr_scan", "ios": "https://dc.lft.to/lastmile_qr_scan"}, "is_disabled": 0, "fusion_lat": 0.0, "name": "ccb5b93204cfa6faf5401087d1c7b92b", "fusion_lon": 0.0}, {"is_reserved": 0, "type": "electric_scooter", "bike_id": "a98641b188a8e02859d5ad6f90857462", "lat": 38.91116316666667, "lon": -77.0224085, "rental_uris": {"android": "https://dc.lft.to/lastmile_qr_scan", "ios": "https://dc.lft.to/lastmile_qr_scan"}, "is_disabled": 0, "fusion_lat": 0.0, "name": "a98641b188a8e02859d5ad6f90857462", "fusion_lon": 0.0}, {"is_reserved": 0, "type": "electric_bike", "bike_id": "9845d016319826bcf7b62acb135a46f6", "lat": 38.99556583333333, "lon": -77.07448566666666, "rental_uris": {"android": "https://dc.lft.to/lastmile_qr_scan", "ios": "https://dc.lft.to/lastmile_qr_scan"}, "is_disabled": 0, "fusion_lat": 0.0, "name": "9845d016319826bcf7b62acb135a46f6", "fusion_lon": 0.0}, {"is_reserved": 0, "type": "electric_scooter", "bike_id": "6b5190d95b6a82705b59384cb48feab5", "lat": 38.90568316666667, "lon": -77.00588383333333, "rental_uris": {"android": "https://dc.lft.to/lastmile_qr_scan", "ios": "https://dc.lft.to/lastmile_qr_scan"}, "is_disabled": 0, "fusion_lat": 0.0, "name": "6b5190d95b6a82705b59384cb48feab5", "fusion_lon": 0.0}, {"is_reserved": 0, "type": "electric_scooter", "bike_id": "f70e600e7712654f62caaf3af3e6c973", "lat": 38.88058566666667, "lon": -77.0255685, "rental_uris": {"android": "https://dc.lft.to/lastmile_qr_scan", "ios": "https://dc.lft.to/lastmile_qr_scan"}, "is_disabled": 0, "fusion_lat": 0.0, "name": "f70e600e7712654f62caaf3af3e6c973", "fusion_lon": 0.0}, {"is_reserved": 0, "type": "electric_scooter", "bike_id": "4d2d9085c9b42b785e818827b1fa852a", "lat": 38.894862833333335, "lon": -76.995558, "rental_uris": {"android": "https://dc.lft.to/lastmile_qr_scan", "ios": "https://dc.lft.to/lastmile_qr_scan"}, "is_disabled": 0, "fusion_lat": 0.0, "name": "4d2d9085c9b42b785e818827b1fa852a", "fusion_lon": 0.0}, {"is_reserved": 0, "type": "electric_scooter", "bike_id": "aa05df4cea8cd9eef5af26942f029f5f", "lat": 38.91914666666667, "lon": -77.02455216666667, "rental_uris": {"android": "https://dc.lft.to/lastmile_qr_scan", "ios": "https://dc.lft.to/lastmile_qr_scan"}, "is_disabled": 0, "fusion_lat": 0.0, "name": "aa05df4cea8cd9eef5af26942f029f5f", "fusion_lon": 0.0}, {"is_reserved": 0, "type": "electric_scooter", "bike_id": "01069acc5a7238deba6954536357946f", "lat": 38.903570333333334, "lon": -77.02809566666667, "rental_uris": {"android": "https://dc.lft.to/lastmile_qr_scan", "ios": "https://dc.lft.to/lastmile_qr_scan"}, "is_disabled": 0, "fusion_lat": 0.0, "name": "01069acc5a7238deba6954536357946f", "fusion_lon": 0.0}, {"is_reserved": 0, "type": "electric_bike", "bike_id": "32c598825942503ef24c4455fdf1c5f2", "lat": 38.91564616666667, "lon": -77.03815866666666, "rental_uris": {"android": "https://dc.lft.to/lastmile_qr_scan", "ios": "https://dc.lft.to/lastmile_qr_scan"}, "is_disabled": 0, "fusion_lat": 0.0, "name": "32c598825942503ef24c4455fdf1c5f2", "fusion_lon": 0.0}, {"is_reserved": 0, "type": "electric_scooter", "bike_id": "c7aadb3bff3796f010b32c37936392ef", "lat": 38.903650666666664, "lon": -77.04005483333333, "rental_uris": {"android": "https://dc.lft.to/lastmile_qr_scan", "ios": "https://dc.lft.to/lastmile_qr_scan"}, "is_disabled": 0, "fusion_lat": 0.0, "name": "c7aadb3bff3796f010b32c37936392ef", "fusion_lon": 0.0}, {"is_reserved": 0, "type": "electric_scooter", "bike_id": "b413c169798a5a6d3ce23f595fcac036", "lat": 38.89838966666667, "lon": -77.0283245, "rental_uris": {"android": "https://dc.lft.to/lastmile_qr_scan", "ios": "https://dc.lft.to/lastmile_qr_scan"}, "is_disabled": 0, "fusion_lat": 0.0, "name": "b413c169798a5a6d3ce23f595fcac036", "fusion_lon": 0.0}, {"is_reserved": 0, "type": "electric_scooter", "bike_id": "1029d4618b997d88b1da1f0c0a35306f", "lat": 38.9099905, "lon": -77.04009283333333, "rental_uris": {"android": "https://dc.lft.to/lastmile_qr_scan", "ios": "https://dc.lft.to/lastmile_qr_scan"}, "is_disabled": 0, "fusion_lat": 0.0, "name": "1029d4618b997d88b1da1f0c0a35306f", "fusion_lon": 0.0}, {"is_reserved": 0, "type": "electric_scooter", "bike_id": "8f5809a04f87b0001b406b3da814d196", "lat": 38.9006695, "lon": -77.0442405, "rental_uris": {"android": "https://dc.lft.to/lastmile_qr_scan", "ios": "https://dc.lft.to/lastmile_qr_scan"}, "is_disabled": 0, "fusion_lat": 0.0, "name": "8f5809a04f87b0001b406b3da814d196", "fusion_lon": 0.0}, {"is_reserved": 0, "type": "electric_scooter", "bike_id": "edb37b65b379c706c33cdbd7dff6fcd8", "lat": 38.89752133333333, "lon": -77.00192266666667, "rental_uris": {"android": "https://dc.lft.to/lastmile_qr_scan", "ios": "https://dc.lft.to/lastmile_qr_scan"}, "is_disabled": 0, "fusion_lat": 0.0, "name": "edb37b65b379c706c33cdbd7dff6fcd8", "fusion_lon": 0.0}, {"is_reserved": 0, "type": "electric_scooter", "bike_id": "4f33ac2bdebd2e91326b5d509d01a228", "lat": 38.9015415, "lon": -77.02202166666666, "rental_uris": {"android": "https://dc.lft.to/lastmile_qr_scan", "ios": "https://dc.lft.to/lastmile_qr_scan"}, "is_disabled": 0, "fusion_lat": 0.0, "name": "4f33ac2bdebd2e91326b5d509d01a228", "fusion_lon": 0.0}, {"is_reserved": 0, "type": "electric_scooter", "bike_id": "6a35c4e60d46900b3623a30b57562781", "lat": 38.899542, "lon": -77.02627066666666, "rental_uris": {"android": "https://dc.lft.to/lastmile_qr_scan", "ios": "https://dc.lft.to/lastmile_qr_scan"}, "is_disabled": 0, "fusion_lat": 0.0, "name": "6a35c4e60d46900b3623a30b57562781", "fusion_lon": 0.0}, {"is_reserved": 0, "type": "electric_scooter", "bike_id": "91e1e6a8b8b8477d5c1024580fae1e03", "lat": 38.915921833333336, "lon": -77.0121895, "rental_uris": {"android": "https://dc.lft.to/lastmile_qr_scan", "ios": "https://dc.lft.to/lastmile_qr_scan"}, "is_disabled": 0, "fusion_lat": 0.0, "name": "91e1e6a8b8b8477d5c1024580fae1e03", "fusion_lon": 0.0}, {"is_reserved": 0, "type": "electric_scooter", "bike_id": "2380bc74ae1d2eb64126c6807b28e1ed", "lat": 38.89828933333333, "lon": -77.04914916666667, "rental_uris": {"android": "https://dc.lft.to/lastmile_qr_scan", "ios": "https://dc.lft.to/lastmile_qr_scan"}, "is_disabled": 0, "fusion_lat": 0.0, "name": "2380bc74ae1d2eb64126c6807b28e1ed", "fusion_lon": 0.0}, {"is_reserved": 0, "type": "electric_scooter", "bike_id": "7af52b1564e0b0bae8f0d3308480a346", "lat": 38.893499166666665, "lon": -77.02838816666667, "rental_uris": {"android": "https://dc.lft.to/lastmile_qr_scan", "ios": "https://dc.lft.to/lastmile_qr_scan"}, "is_disabled": 0, "fusion_lat": 0.0, "name": "7af52b1564e0b0bae8f0d3308480a346", "fusion_lon": 0.0}, {"is_reserved": 0, "type": "electric_scooter", "bike_id": "6264e789b99a0231f25bf11b3f960bf1", "lat": 38.931311, "lon": -77.078594, "rental_uris": {"android": "https://dc.lft.to/lastmile_qr_scan", "ios": "https://dc.lft.to/lastmile_qr_scan"}, "is_disabled": 0, "fusion_lat": 0.0, "name": "6264e789b99a0231f25bf11b3f960bf1", "fusion_lon": 0.0}, {"is_reserved": 0, "type": "electric_scooter", "bike_id": "b3d54ff8e6d217fa604133c0c355e8aa", "lat": 38.908487, "lon": -77.04336433333333, "rental_uris": {"android": "https://dc.lft.to/lastmile_qr_scan", "ios": "https://dc.lft.to/lastmile_qr_scan"}, "is_disabled": 0, "fusion_lat": 0.0, "name": "b3d54ff8e6d217fa604133c0c355e8aa", "fusion_lon": 0.0}, {"is_reserved": 0, "type": "electric_bike", "bike_id": "37f272750806354177bb6c95e59ebd2f", "lat": 38.8233435, "lon": -77.05820883333334, "rental_uris": {"android": "https://dc.lft.to/lastmile_qr_scan", "ios": "https://dc.lft.to/lastmile_qr_scan"}, "is_disabled": 0, "fusion_lat": 0.0, "name": "37f272750806354177bb6c95e59ebd2f", "fusion_lon": 0.0}, {"is_reserved": 0, "type": "electric_scooter", "bike_id": "09cdbdc0de276d09107d82420bcc7c99", "lat": 38.91051733333333, "lon": -77.034477, "rental_uris": {"android": "https://dc.lft.to/lastmile_qr_scan", "ios": "https://dc.lft.to/lastmile_qr_scan"}, "is_disabled": 0, "fusion_lat": 0.0, "name": "09cdbdc0de276d09107d82420bcc7c99", "fusion_lon": 0.0}, {"is_reserved": 0, "type": "electric_scooter", "bike_id": "b99cc2bb81e6bb5ab9ebdc7e16bda39c", "lat": 38.8932265, "lon": -77.02229166666666, "rental_uris": {"android": "https://dc.lft.to/lastmile_qr_scan", "ios": "https://dc.lft.to/lastmile_qr_scan"}, "is_disabled": 0, "fusion_lat": 0.0, "name": "b99cc2bb81e6bb5ab9ebdc7e16bda39c", "fusion_lon": 0.0}, {"is_reserved": 0, "type": "electric_scooter", "bike_id": "d5a80a0ef76a00d5962c732d3e5bc37e", "lat": 38.90502883333333, "lon": -77.05843033333333, "rental_uris": {"android": "https://dc.lft.to/lastmile_qr_scan", "ios": "https://dc.lft.to/lastmile_qr_scan"}, "is_disabled": 0, "fusion_lat": 0.0, "name": "d5a80a0ef76a00d5962c732d3e5bc37e", "fusion_lon": 0.0}, {"is_reserved": 0, "type": "electric_bike", "bike_id": "8b8d67baf0fdb42ac0b38878610ee858", "lat": 38.914844333333335, "lon": -77.04160466666667, "rental_uris": {"android": "https://dc.lft.to/lastmile_qr_scan", "ios": "https://dc.lft.to/lastmile_qr_scan"}, "is_disabled": 0, "fusion_lat": 0.0, "name": "8b8d67baf0fdb42ac0b38878610ee858", "fusion_lon": 0.0}, {"is_reserved": 0, "type": "electric_bike", "bike_id": "7e76ae0778a2f0e7dcc86321743b650c", "lat": 38.88387766666666, "lon": -76.95450683333334, "rental_uris": {"android": "https://dc.lft.to/lastmile_qr_scan", "ios": "https://dc.lft.to/lastmile_qr_scan"}, "is_disabled": 0, "fusion_lat": 0.0, "name": "7e76ae0778a2f0e7dcc86321743b650c", "fusion_lon": 0.0}, {"is_reserved": 0, "type": "electric_scooter", "bike_id": "077d3356a77b838d54a5f41338d14cc6", "lat": 38.900309, "lon": -77.01225733333334, "rental_uris": {"android": "https://dc.lft.to/lastmile_qr_scan", "ios": "https://dc.lft.to/lastmile_qr_scan"}, "is_disabled": 0, "fusion_lat": 0.0, "name": "077d3356a77b838d54a5f41338d14cc6", "fusion_lon": 0.0}, {"is_reserved": 0, "type": "electric_scooter", "bike_id": "06c94cb6de991baad5f5effba97963e2", "lat": 38.93204016666667, "lon": -77.02740966666667, "rental_uris": {"android": "https://dc.lft.to/lastmile_qr_scan", "ios": "https://dc.lft.to/lastmile_qr_scan"}, "is_disabled": 0, "fusion_lat": 0.0, "name": "06c94cb6de991baad5f5effba97963e2", "fusion_lon": 0.0}, {"is_reserved": 0, "type": "electric_scooter", "bike_id": "defa23eb7b14f8484a85438030f77365", "lat": 38.907335, "lon": -77.0041465, "rental_uris": {"android": "https://dc.lft.to/lastmile_qr_scan", "ios": "https://dc.lft.to/lastmile_qr_scan"}, "is_disabled": 0, "fusion_lat": 0.0, "name": "defa23eb7b14f8484a85438030f77365", "fusion_lon": 0.0}, {"is_reserved": 0, "type": "electric_bike", "bike_id": "9cafd131b63d770c1b5ac13b4cc0b1be", "lat": 38.832260166666664, "lon": -76.9461895, "rental_uris": {"android": "https://dc.lft.to/lastmile_qr_scan", "ios": "https://dc.lft.to/lastmile_qr_scan"}, "is_disabled": 0, "fusion_lat": 0.0, "name": "9cafd131b63d770c1b5ac13b4cc0b1be", "fusion_lon": 0.0}, {"is_reserved": 0, "type": "electric_scooter", "bike_id": "d49766427e22ed900bcd6acf66b7f905", "lat": 38.91096983333333, "lon": -76.99724383333333, "rental_uris": {"android": "https://dc.lft.to/lastmile_qr_scan", "ios": "https://dc.lft.to/lastmile_qr_scan"}, "is_disabled": 0, "fusion_lat": 0.0, "name": "d49766427e22ed900bcd6acf66b7f905", "fusion_lon": 0.0}, {"is_reserved": 0, "type": "electric_scooter", "bike_id": "1faf49949658552368130fe18bf8a809", "lat": 38.927773333333334, "lon": -77.0278315, "rental_uris": {"android": "https://dc.lft.to/lastmile_qr_scan", "ios": "https://dc.lft.to/lastmile_qr_scan"}, "is_disabled": 0, "fusion_lat": 0.0, "name": "1faf49949658552368130fe18bf8a809", "fusion_lon": 0.0}, {"is_reserved": 0, "type": "electric_scooter", "bike_id": "895cb8678c0a0f99527a530a5eb818d1", "lat": 38.897292666666665, "lon": -77.0031965, "rental_uris": {"android": "https://dc.lft.to/lastmile_qr_scan", "ios": "https://dc.lft.to/lastmile_qr_scan"}, "is_disabled": 0, "fusion_lat": 0.0, "name": "895cb8678c0a0f99527a530a5eb818d1", "fusion_lon": 0.0}, {"is_reserved": 0, "type": "electric_bike", "bike_id": "aa2013eac902593b6538ba905e891e66", "lat": 39.00026316666667, "lon": -77.047411, "rental_uris": {"android": "https://dc.lft.to/lastmile_qr_scan", "ios": "https://dc.lft.to/lastmile_qr_scan"}, "is_disabled": 0, "fusion_lat": 0.0, "name": "aa2013eac902593b6538ba905e891e66", "fusion_lon": 0.0}, {"is_reserved": 0, "type": "electric_scooter", "bike_id": "6d39385025d4982ad8438b10c270c1e6", "lat": 38.91107483333333, "lon": -77.04904266666667, "rental_uris": {"android": "https://dc.lft.to/lastmile_qr_scan", "ios": "https://dc.lft.to/lastmile_qr_scan"}, "is_disabled": 0, "fusion_lat": 0.0, "name": "6d39385025d4982ad8438b10c270c1e6", "fusion_lon": 0.0}, {"is_reserved": 0, "type": "electric_scooter", "bike_id": "93a5de982f6ecbdf47e7d1af163269ad", "lat": 38.92166666666667, "lon": -77.0340505, "rental_uris": {"android": "https://dc.lft.to/lastmile_qr_scan", "ios": "https://dc.lft.to/lastmile_qr_scan"}, "is_disabled": 0, "fusion_lat": 0.0, "name": "93a5de982f6ecbdf47e7d1af163269ad", "fusion_lon": 0.0}, {"is_reserved": 0, "type": "electric_scooter", "bike_id": "863e291304222c923999b1061c3fe765", "lat": 38.93411416666667, "lon": -77.042189, "rental_uris": {"android": "https://dc.lft.to/lastmile_qr_scan", "ios": "https://dc.lft.to/lastmile_qr_scan"}, "is_disabled": 0, "fusion_lat": 0.0, "name": "863e291304222c923999b1061c3fe765", "fusion_lon": 0.0}, {"is_reserved": 0, "type": "electric_scooter", "bike_id": "e0839fd5880824b410e06a13bce7f185", "lat": 38.89705033333333, "lon": -77.00661783333334, "rental_uris": {"android": "https://dc.lft.to/lastmile_qr_scan", "ios": "https://dc.lft.to/lastmile_qr_scan"}, "is_disabled": 0, "fusion_lat": 0.0, "name": "e0839fd5880824b410e06a13bce7f185", "fusion_lon": 0.0}, {"is_reserved": 0, "type": "electric_scooter", "bike_id": "d13876366435023ece8cb5e90d167baf", "lat": 38.8825535, "lon": -77.00639516666666, "rental_uris": {"android": "https://dc.lft.to/lastmile_qr_scan", "ios": "https://dc.lft.to/lastmile_qr_scan"}, "is_disabled": 0, "fusion_lat": 0.0, "name": "d13876366435023ece8cb5e90d167baf", "fusion_lon": 0.0}, {"is_reserved": 0, "type": "electric_scooter", "bike_id": "595dc50f63750b84699305808bfd41e9", "lat": 38.9141405, "lon": -77.03168516666666, "rental_uris": {"android": "https://dc.lft.to/lastmile_qr_scan", "ios": "https://dc.lft.to/lastmile_qr_scan"}, "is_disabled": 0, "fusion_lat": 0.0, "name": "595dc50f63750b84699305808bfd41e9", "fusion_lon": 0.0}, {"is_reserved": 0, "type": "electric_scooter", "bike_id": "887050f7f0c7785dc6e082dc682f4e4f", "lat": 38.932365, "lon": -76.99502866666667, "rental_uris": {"android": "https://dc.lft.to/lastmile_qr_scan", "ios": "https://dc.lft.to/lastmile_qr_scan"}, "is_disabled": 0, "fusion_lat": 0.0, "name": "887050f7f0c7785dc6e082dc682f4e4f", "fusion_lon": 0.0}, {"is_reserved": 0, "type": "electric_scooter", "bike_id": "b877e47a1fe15e295c098cf0873acd50", "lat": 38.908501, "lon": -77.01017866666666, "rental_uris": {"android": "https://dc.lft.to/lastmile_qr_scan", "ios": "https://dc.lft.to/lastmile_qr_scan"}, "is_disabled": 0, "fusion_lat": 0.0, "name": "b877e47a1fe15e295c098cf0873acd50", "fusion_lon": 0.0}, {"is_reserved": 0, "type": "electric_scooter", "bike_id": "5fd764317d48b05cd236839e3bdacf8d", "lat": 38.92483716666667, "lon": -77.02144183333333, "rental_uris": {"android": "https://dc.lft.to/lastmile_qr_scan", "ios": "https://dc.lft.to/lastmile_qr_scan"}, "is_disabled": 0, "fusion_lat": 0.0, "name": "5fd764317d48b05cd236839e3bdacf8d", "fusion_lon": 0.0}, {"is_reserved": 0, "type": "electric_scooter", "bike_id": "507afef58947909ab5fb900967824173", "lat": 38.904414, "lon": -77.03089983333334, "rental_uris": {"android": "https://dc.lft.to/lastmile_qr_scan", "ios": "https://dc.lft.to/lastmile_qr_scan"}, "is_disabled": 0, "fusion_lat": 0.0, "name": "507afef58947909ab5fb900967824173", "fusion_lon": 0.0}, {"is_reserved": 0, "type": "electric_scooter", "bike_id": "03c111c2228ca64e353355caa6a24080", "lat": 38.903710833333335, "lon": -77.010958, "rental_uris": {"android": "https://dc.lft.to/lastmile_qr_scan", "ios": "https://dc.lft.to/lastmile_qr_scan"}, "is_disabled": 0, "fusion_lat": 0.0, "name": "03c111c2228ca64e353355caa6a24080", "fusion_lon": 0.0}, {"is_reserved": 0, "type": "electric_scooter", "bike_id": "2630c2925ccd84d02e0cfa11b6dbe1fe", "lat": 38.896493166666666, "lon": -77.02609016666666, "rental_uris": {"android": "https://dc.lft.to/lastmile_qr_scan", "ios": "https://dc.lft.to/lastmile_qr_scan"}, "is_disabled": 0, "fusion_lat": 0.0, "name": "2630c2925ccd84d02e0cfa11b6dbe1fe", "fusion_lon": 0.0}, {"is_reserved": 0, "type": "electric_scooter", "bike_id": "51b8bee7edf02da9d9554754c1628fe1", "lat": 38.909662, "lon": -77.045026, "rental_uris": {"android": "https://dc.lft.to/lastmile_qr_scan", "ios": "https://dc.lft.to/lastmile_qr_scan"}, "is_disabled": 0, "fusion_lat": 0.0, "name": "51b8bee7edf02da9d9554754c1628fe1", "fusion_lon": 0.0}, {"is_reserved": 0, "type": "electric_scooter", "bike_id": "6eb51230617d0c7a4e2b2f5ba2a81c87", "lat": 38.9170275, "lon": -77.031436, "rental_uris": {"android": "https://dc.lft.to/lastmile_qr_scan", "ios": "https://dc.lft.to/lastmile_qr_scan"}, "is_disabled": 0, "fusion_lat": 0.0, "name": "6eb51230617d0c7a4e2b2f5ba2a81c87", "fusion_lon": 0.0}, {"is_reserved": 0, "type": "electric_scooter", "bike_id": "2e05fa6b5fe75fd3e4a4763ace382fd6", "lat": 38.92103783333334, "lon": -77.017984, "rental_uris": {"android": "https://dc.lft.to/lastmile_qr_scan", "ios": "https://dc.lft.to/lastmile_qr_scan"}, "is_disabled": 0, "fusion_lat": 0.0, "name": "2e05fa6b5fe75fd3e4a4763ace382fd6", "fusion_lon": 0.0}, {"is_reserved": 0, "type": "electric_scooter", "bike_id": "64ccb080af3cbb978b06a86052bc382c", "lat": 38.906296166666664, "lon": -77.05155666666667, "rental_uris": {"android": "https://dc.lft.to/lastmile_qr_scan", "ios": "https://dc.lft.to/lastmile_qr_scan"}, "is_disabled": 0, "fusion_lat": 0.0, "name": "64ccb080af3cbb978b06a86052bc382c", "fusion_lon": 0.0}, {"is_reserved": 0, "type": "electric_scooter", "bike_id": "c79be78998ea5882d5e6f85fc99494fc", "lat": 38.940309666666664, "lon": -77.02652666666667, "rental_uris": {"android": "https://dc.lft.to/lastmile_qr_scan", "ios": "https://dc.lft.to/lastmile_qr_scan"}, "is_disabled": 0, "fusion_lat": 0.0, "name": "c79be78998ea5882d5e6f85fc99494fc", "fusion_lon": 0.0}, {"is_reserved": 0, "type": "electric_bike", "bike_id": "9ecf73d8fb05d226ec67e9827ab8ef3b", "lat": 38.895663, "lon": -77.12738, "rental_uris": {"android": "https://dc.lft.to/lastmile_qr_scan", "ios": "https://dc.lft.to/lastmile_qr_scan"}, "is_disabled": 0, "fusion_lat": 0.0, "name": "9ecf73d8fb05d226ec67e9827ab8ef3b", "fusion_lon": 0.0}, {"is_reserved": 0, "type": "electric_scooter", "bike_id": "d455ca9d7d330829996944ca069fdc7b", "lat": 38.92189066666667, "lon": -77.04345116666667, "rental_uris": {"android": "https://dc.lft.to/lastmile_qr_scan", "ios": "https://dc.lft.to/lastmile_qr_scan"}, "is_disabled": 0, "fusion_lat": 0.0, "name": "d455ca9d7d330829996944ca069fdc7b", "fusion_lon": 0.0}, {"is_reserved": 0, "type": "electric_scooter", "bike_id": "bb1f4550977b25d441b73e6cb91ca06e", "lat": 38.892156666666665, "lon": -77.02315216666666, "rental_uris": {"android": "https://dc.lft.to/lastmile_qr_scan", "ios": "https://dc.lft.to/lastmile_qr_scan"}, "is_disabled": 0, "fusion_lat": 0.0, "name": "bb1f4550977b25d441b73e6cb91ca06e", "fusion_lon": 0.0}, {"is_reserved": 0, "type": "electric_scooter", "bike_id": "3027225a19d3cd1640ce92447941940a", "lat": 38.9101295, "lon": -76.9936955, "rental_uris": {"android": "https://dc.lft.to/lastmile_qr_scan", "ios": "https://dc.lft.to/lastmile_qr_scan"}, "is_disabled": 0, "fusion_lat": 0.0, "name": "3027225a19d3cd1640ce92447941940a", "fusion_lon": 0.0}, {"is_reserved": 0, "type": "electric_scooter", "bike_id": "50f74eb6f51da8ea64ffb30da9497893", "lat": 38.9168555, "lon": -77.03041116666667, "rental_uris": {"android": "https://dc.lft.to/lastmile_qr_scan", "ios": "https://dc.lft.to/lastmile_qr_scan"}, "is_disabled": 0, "fusion_lat": 0.0, "name": "50f74eb6f51da8ea64ffb30da9497893", "fusion_lon": 0.0}, {"is_reserved": 0, "type": "electric_scooter", "bike_id": "7bbb9a98bd9dd833c3cd5c737a628705", "lat": 38.89407466666667, "lon": -77.0214865, "rental_uris": {"android": "https://dc.lft.to/lastmile_qr_scan", "ios": "https://dc.lft.to/lastmile_qr_scan"}, "is_disabled": 0, "fusion_lat": 0.0, "name": "7bbb9a98bd9dd833c3cd5c737a628705", "fusion_lon": 0.0}, {"is_reserved": 0, "type": "electric_scooter", "bike_id": "5c40a8d643d2f956acc96b8304af951f", "lat": 38.910064166666665, "lon": -77.04416683333334, "rental_uris": {"android": "https://dc.lft.to/lastmile_qr_scan", "ios": "https://dc.lft.to/lastmile_qr_scan"}, "is_disabled": 0, "fusion_lat": 0.0, "name": "5c40a8d643d2f956acc96b8304af951f", "fusion_lon": 0.0}, {"is_reserved": 0, "type": "electric_scooter", "bike_id": "dafba4d936a99b4a708091422a99eda5", "lat": 38.87470866666666, "lon": -77.00341466666667, "rental_uris": {"android": "https://dc.lft.to/lastmile_qr_scan", "ios": "https://dc.lft.to/lastmile_qr_scan"}, "is_disabled": 0, "fusion_lat": 0.0, "name": "dafba4d936a99b4a708091422a99eda5", "fusion_lon": 0.0}, {"is_reserved": 0, "type": "electric_scooter", "bike_id": "3bcb5fd84dda90c5f6e4f9f8c771bec3", "lat": 38.9001225, "lon": -77.0004315, "rental_uris": {"android": "https://dc.lft.to/lastmile_qr_scan", "ios": "https://dc.lft.to/lastmile_qr_scan"}, "is_disabled": 0, "fusion_lat": 0.0, "name": "3bcb5fd84dda90c5f6e4f9f8c771bec3", "fusion_lon": 0.0}, {"is_reserved": 0, "type": "electric_scooter", "bike_id": "e81fc341fd22f3d816794c491bc16716", "lat": 38.909065166666664, "lon": -77.04205716666667, "rental_uris": {"android": "https://dc.lft.to/lastmile_qr_scan", "ios": "https://dc.lft.to/lastmile_qr_scan"}, "is_disabled": 0, "fusion_lat": 0.0, "name": "e81fc341fd22f3d816794c491bc16716", "fusion_lon": 0.0}, {"is_reserved": 0, "type": "electric_scooter", "bike_id": "b508a948d9a089294a2a5af1af93dfdf", "lat": 38.917037666666666, "lon": -77.04148783333333, "rental_uris": {"android": "https://dc.lft.to/lastmile_qr_scan", "ios": "https://dc.lft.to/lastmile_qr_scan"}, "is_disabled": 0, "fusion_lat": 0.0, "name": "b508a948d9a089294a2a5af1af93dfdf", "fusion_lon": 0.0}, {"is_reserved": 0, "type": "electric_scooter", "bike_id": "0d8f1dd6cb8b6d9ee27dfcecda8b8781", "lat": 38.897731666666665, "lon": -77.04782966666667, "rental_uris": {"android": "https://dc.lft.to/lastmile_qr_scan", "ios": "https://dc.lft.to/lastmile_qr_scan"}, "is_disabled": 0, "fusion_lat": 0.0, "name": "0d8f1dd6cb8b6d9ee27dfcecda8b8781", "fusion_lon": 0.0}, {"is_reserved": 0, "type": "electric_scooter", "bike_id": "d654ee6bdc3de3e5b3a17193e68efd2b", "lat": 38.9220445, "lon": -77.0203425, "rental_uris": {"android": "https://dc.lft.to/lastmile_qr_scan", "ios": "https://dc.lft.to/lastmile_qr_scan"}, "is_disabled": 0, "fusion_lat": 0.0, "name": "d654ee6bdc3de3e5b3a17193e68efd2b", "fusion_lon": 0.0}, {"is_reserved": 0, "type": "electric_scooter", "bike_id": "0425bb1d70f679bb27e4923d7326ef31", "lat": 38.929222833333334, "lon": -77.020102, "rental_uris": {"android": "https://dc.lft.to/lastmile_qr_scan", "ios": "https://dc.lft.to/lastmile_qr_scan"}, "is_disabled": 0, "fusion_lat": 0.0, "name": "0425bb1d70f679bb27e4923d7326ef31", "fusion_lon": 0.0}, {"is_reserved": 0, "type": "electric_scooter", "bike_id": "2982e7a0b0a2f2010246f9e4f44f88b9", "lat": 38.92576483333333, "lon": -77.07865866666667, "rental_uris": {"android": "https://dc.lft.to/lastmile_qr_scan", "ios": "https://dc.lft.to/lastmile_qr_scan"}, "is_disabled": 0, "fusion_lat": 0.0, "name": "2982e7a0b0a2f2010246f9e4f44f88b9", "fusion_lon": 0.0}, {"is_reserved": 0, "type": "electric_scooter", "bike_id": "a536c5391122d3fea2dea4c257f2861a", "lat": 38.92382966666667, "lon": -77.03660333333333, "rental_uris": {"android": "https://dc.lft.to/lastmile_qr_scan", "ios": "https://dc.lft.to/lastmile_qr_scan"}, "is_disabled": 0, "fusion_lat": 0.0, "name": "a536c5391122d3fea2dea4c257f2861a", "fusion_lon": 0.0}, {"is_reserved": 0, "type": "electric_scooter", "bike_id": "9260d19b5b0bedaf40d87a26b70c8e99", "lat": 38.88733516666667, "lon": -77.01354, "rental_uris": {"android": "https://dc.lft.to/lastmile_qr_scan", "ios": "https://dc.lft.to/lastmile_qr_scan"}, "is_disabled": 0, "fusion_lat": 0.0, "name": "9260d19b5b0bedaf40d87a26b70c8e99", "fusion_lon": 0.0}, {"is_reserved": 0, "type": "electric_scooter", "bike_id": "79b88067ab3bedb9b8310c8edaf03a08", "lat": 38.94441416666667, "lon": -77.0291485, "rental_uris": {"android": "https://dc.lft.to/lastmile_qr_scan", "ios": "https://dc.lft.to/lastmile_qr_scan"}, "is_disabled": 0, "fusion_lat": 0.0, "name": "79b88067ab3bedb9b8310c8edaf03a08", "fusion_lon": 0.0}, {"is_reserved": 0, "type": "electric_scooter", "bike_id": "128d4473c13291870e825978c503b66a", "lat": 38.90043, "lon": -76.98288033333333, "rental_uris": {"android": "https://dc.lft.to/lastmile_qr_scan", "ios": "https://dc.lft.to/lastmile_qr_scan"}, "is_disabled": 0, "fusion_lat": 0.0, "name": "128d4473c13291870e825978c503b66a", "fusion_lon": 0.0}, {"is_reserved": 0, "type": "electric_scooter", "bike_id": "90b9dc5947bb9d7bef055ad46f77d47f", "lat": 38.90336933333333, "lon": -77.02596233333334, "rental_uris": {"android": "https://dc.lft.to/lastmile_qr_scan", "ios": "https://dc.lft.to/lastmile_qr_scan"}, "is_disabled": 0, "fusion_lat": 0.0, "name": "90b9dc5947bb9d7bef055ad46f77d47f", "fusion_lon": 0.0}, {"is_reserved": 0, "type": "electric_scooter", "bike_id": "b41e2743d3f2cda66b4800e81b106d7e", "lat": 38.905154333333336, "lon": -77.04781616666666, "rental_uris": {"android": "https://dc.lft.to/lastmile_qr_scan", "ios": "https://dc.lft.to/lastmile_qr_scan"}, "is_disabled": 0, "fusion_lat": 0.0, "name": "b41e2743d3f2cda66b4800e81b106d7e", "fusion_lon": 0.0}, {"is_reserved": 0, "type": "electric_scooter", "bike_id": "6bc734281b511706e5aefd3da53e6969", "lat": 38.915534, "lon": -77.0310435, "rental_uris": {"android": "https://dc.lft.to/lastmile_qr_scan", "ios": "https://dc.lft.to/lastmile_qr_scan"}, "is_disabled": 0, "fusion_lat": 0.0, "name": "6bc734281b511706e5aefd3da53e6969", "fusion_lon": 0.0}, {"is_reserved": 0, "type": "electric_scooter", "bike_id": "4864336c673b71051a6db1c757f1a1ae", "lat": 38.90011166666667, "lon": -77.00693316666667, "rental_uris": {"android": "https://dc.lft.to/lastmile_qr_scan", "ios": "https://dc.lft.to/lastmile_qr_scan"}, "is_disabled": 0, "fusion_lat": 0.0, "name": "4864336c673b71051a6db1c757f1a1ae", "fusion_lon": 0.0}, {"is_reserved": 0, "type": "electric_scooter", "bike_id": "c65af7cc64e2199764bc39edb294c38f", "lat": 38.926007166666665, "lon": -77.02156216666667, "rental_uris": {"android": "https://dc.lft.to/lastmile_qr_scan", "ios": "https://dc.lft.to/lastmile_qr_scan"}, "is_disabled": 0, "fusion_lat": 0.0, "name": "c65af7cc64e2199764bc39edb294c38f", "fusion_lon": 0.0}, {"is_reserved": 0, "type": "electric_scooter", "bike_id": "c5be3da4fb63ec84e57f734ac8cd3e08", "lat": 38.881237166666665, "lon": -77.01736716666667, "rental_uris": {"android": "https://dc.lft.to/lastmile_qr_scan", "ios": "https://dc.lft.to/lastmile_qr_scan"}, "is_disabled": 0, "fusion_lat": 0.0, "name": "c5be3da4fb63ec84e57f734ac8cd3e08", "fusion_lon": 0.0}, {"is_reserved": 0, "type": "electric_scooter", "bike_id": "0e651fd000710c3bc313f313da2866ce", "lat": 38.886358333333334, "lon": -77.01287166666667, "rental_uris": {"android": "https://dc.lft.to/lastmile_qr_scan", "ios": "https://dc.lft.to/lastmile_qr_scan"}, "is_disabled": 0, "fusion_lat": 0.0, "name": "0e651fd000710c3bc313f313da2866ce", "fusion_lon": 0.0}, {"is_reserved": 0, "type": "electric_scooter", "bike_id": "bd8a624d4e916ffc1f69810b2a2f55d4", "lat": 38.884332, "lon": -76.9576735, "rental_uris": {"android": "https://dc.lft.to/lastmile_qr_scan", "ios": "https://dc.lft.to/lastmile_qr_scan"}, "is_disabled": 0, "fusion_lat": 0.0, "name": "bd8a624d4e916ffc1f69810b2a2f55d4", "fusion_lon": 0.0}, {"is_reserved": 0, "type": "electric_scooter", "bike_id": "37d1c8111eccc3d9c76ce89d69c1d973", "lat": 38.92155416666667, "lon": -77.0337835, "rental_uris": {"android": "https://dc.lft.to/lastmile_qr_scan", "ios": "https://dc.lft.to/lastmile_qr_scan"}, "is_disabled": 0, "fusion_lat": 0.0, "name": "37d1c8111eccc3d9c76ce89d69c1d973", "fusion_lon": 0.0}, {"is_reserved": 0, "type": "electric_scooter", "bike_id": "052952276666fed7bc09906a26846b56", "lat": 38.8972835, "lon": -77.02176283333333, "rental_uris": {"android": "https://dc.lft.to/lastmile_qr_scan", "ios": "https://dc.lft.to/lastmile_qr_scan"}, "is_disabled": 0, "fusion_lat": 0.0, "name": "052952276666fed7bc09906a26846b56", "fusion_lon": 0.0}, {"is_reserved": 0, "type": "electric_scooter", "bike_id": "942d9ea30028ede8d996f372228c1a4a", "lat": 38.900118, "lon": -77.04017116666667, "rental_uris": {"android": "https://dc.lft.to/lastmile_qr_scan", "ios": "https://dc.lft.to/lastmile_qr_scan"}, "is_disabled": 0, "fusion_lat": 0.0, "name": "942d9ea30028ede8d996f372228c1a4a", "fusion_lon": 0.0}, {"is_reserved": 0, "type": "electric_bike", "bike_id": "c8499a00a13437cd768d3c4fba6966f5", "lat": 38.83294683333333, "lon": -77.084149, "rental_uris": {"android": "https://dc.lft.to/lastmile_qr_scan", "ios": "https://dc.lft.to/lastmile_qr_scan"}, "is_disabled": 0, "fusion_lat": 0.0, "name": "c8499a00a13437cd768d3c4fba6966f5", "fusion_lon": 0.0}, {"is_reserved": 0, "type": "electric_scooter", "bike_id": "c8cc8dfef947be6a03556dcc3771234b", "lat": 38.92813683333333, "lon": -77.028461, "rental_uris": {"android": "https://dc.lft.to/lastmile_qr_scan", "ios": "https://dc.lft.to/lastmile_qr_scan"}, "is_disabled": 0, "fusion_lat": 0.0, "name": "c8cc8dfef947be6a03556dcc3771234b", "fusion_lon": 0.0}, {"is_reserved": 0, "type": "electric_bike", "bike_id": "99e256881080c28159a4f6d138280859", "lat": 38.959507, "lon": -77.019887, "rental_uris": {"android": "https://dc.lft.to/lastmile_qr_scan", "ios": "https://dc.lft.to/lastmile_qr_scan"}, "is_disabled": 0, "fusion_lat": 0.0, "name": "99e256881080c28159a4f6d138280859", "fusion_lon": 0.0}, {"is_reserved": 0, "type": "electric_scooter", "bike_id": "37bb0fe5bb6002ce5c2752e6f4cf68ee", "lat": 38.911093666666666, "lon": -77.04508466666667, "rental_uris": {"android": "https://dc.lft.to/lastmile_qr_scan", "ios": "https://dc.lft.to/lastmile_qr_scan"}, "is_disabled": 0, "fusion_lat": 0.0, "name": "37bb0fe5bb6002ce5c2752e6f4cf68ee", "fusion_lon": 0.0}, {"is_reserved": 0, "type": "electric_scooter", "bike_id": "b6a7119bce88956e24c5392f8910238b", "lat": 38.901577, "lon": -77.0247225, "rental_uris": {"android": "https://dc.lft.to/lastmile_qr_scan", "ios": "https://dc.lft.to/lastmile_qr_scan"}, "is_disabled": 0, "fusion_lat": 0.0, "name": "b6a7119bce88956e24c5392f8910238b", "fusion_lon": 0.0}, {"is_reserved": 0, "type": "electric_scooter", "bike_id": "9710a03db12f2adbcf1696d81c98677a", "lat": 38.92834216666667, "lon": -77.00604916666667, "rental_uris": {"android": "https://dc.lft.to/lastmile_qr_scan", "ios": "https://dc.lft.to/lastmile_qr_scan"}, "is_disabled": 0, "fusion_lat": 0.0, "name": "9710a03db12f2adbcf1696d81c98677a", "fusion_lon": 0.0}, {"is_reserved": 0, "type": "electric_scooter", "bike_id": "d9f78ed613c2e4b5fe558008c691e0f9", "lat": 38.935291166666666, "lon": -77.01937983333333, "rental_uris": {"android": "https://dc.lft.to/lastmile_qr_scan", "ios": "https://dc.lft.to/lastmile_qr_scan"}, "is_disabled": 0, "fusion_lat": 0.0, "name": "d9f78ed613c2e4b5fe558008c691e0f9", "fusion_lon": 0.0}, {"is_reserved": 0, "type": "electric_scooter", "bike_id": "e2885adca1144269a4020d39b43248aa", "lat": 38.89720633333334, "lon": -77.02012533333334, "rental_uris": {"android": "https://dc.lft.to/lastmile_qr_scan", "ios": "https://dc.lft.to/lastmile_qr_scan"}, "is_disabled": 0, "fusion_lat": 0.0, "name": "e2885adca1144269a4020d39b43248aa", "fusion_lon": 0.0}, {"is_reserved": 0, "type": "electric_scooter", "bike_id": "c8f3184301c79e4a1e8c98865a57ef32", "lat": 38.902207833333335, "lon": -77.01755666666666, "rental_uris": {"android": "https://dc.lft.to/lastmile_qr_scan", "ios": "https://dc.lft.to/lastmile_qr_scan"}, "is_disabled": 0, "fusion_lat": 0.0, "name": "c8f3184301c79e4a1e8c98865a57ef32", "fusion_lon": 0.0}, {"is_reserved": 0, "type": "electric_scooter", "bike_id": "a62f135c96dbdfe3ec4876a0ae97d045", "lat": 38.92921483333333, "lon": -77.02008983333333, "rental_uris": {"android": "https://dc.lft.to/lastmile_qr_scan", "ios": "https://dc.lft.to/lastmile_qr_scan"}, "is_disabled": 0, "fusion_lat": 0.0, "name": "a62f135c96dbdfe3ec4876a0ae97d045", "fusion_lon": 0.0}, {"is_reserved": 0, "type": "electric_bike", "bike_id": "0b5671e2da0ec2adf180cf9eb06c4744", "lat": 38.88033866666667, "lon": -76.9955415, "rental_uris": {"android": "https://dc.lft.to/lastmile_qr_scan", "ios": "https://dc.lft.to/lastmile_qr_scan"}, "is_disabled": 0, "fusion_lat": 0.0, "name": "0b5671e2da0ec2adf180cf9eb06c4744", "fusion_lon": 0.0}, {"is_reserved": 0, "type": "electric_scooter", "bike_id": "0d15bd09fffcb64a46ceb1aea67a0102", "lat": 38.8989005, "lon": -77.02183683333334, "rental_uris": {"android": "https://dc.lft.to/lastmile_qr_scan", "ios": "https://dc.lft.to/lastmile_qr_scan"}, "is_disabled": 0, "fusion_lat": 0.0, "name": "0d15bd09fffcb64a46ceb1aea67a0102", "fusion_lon": 0.0}, {"is_reserved": 0, "type": "electric_scooter", "bike_id": "2fd3dee6d0ffc3c5d5f79f2c9d299492", "lat": 38.892475166666664, "lon": -77.03954766666666, "rental_uris": {"android": "https://dc.lft.to/lastmile_qr_scan", "ios": "https://dc.lft.to/lastmile_qr_scan"}, "is_disabled": 0, "fusion_lat": 0.0, "name": "2fd3dee6d0ffc3c5d5f79f2c9d299492", "fusion_lon": 0.0}, {"is_reserved": 0, "type": "electric_scooter", "bike_id": "c8b4253c056a667a718e75f022b6d972", "lat": 38.91759783333333, "lon": -77.004533, "rental_uris": {"android": "https://dc.lft.to/lastmile_qr_scan", "ios": "https://dc.lft.to/lastmile_qr_scan"}, "is_disabled": 0, "fusion_lat": 0.0, "name": "c8b4253c056a667a718e75f022b6d972", "fusion_lon": 0.0}, {"is_reserved": 0, "type": "electric_scooter", "bike_id": "f553af9cd02cfe1c9822a7539dc996f6", "lat": 38.91744333333333, "lon": -77.00751433333333, "rental_uris": {"android": "https://dc.lft.to/lastmile_qr_scan", "ios": "https://dc.lft.to/lastmile_qr_scan"}, "is_disabled": 0, "fusion_lat": 0.0, "name": "f553af9cd02cfe1c9822a7539dc996f6", "fusion_lon": 0.0}, {"is_reserved": 0, "type": "electric_scooter", "bike_id": "a431bd80222da420594de6c1c340412c", "lat": 38.91063416666667, "lon": -77.03738283333334, "rental_uris": {"android": "https://dc.lft.to/lastmile_qr_scan", "ios": "https://dc.lft.to/lastmile_qr_scan"}, "is_disabled": 0, "fusion_lat": 0.0, "name": "a431bd80222da420594de6c1c340412c", "fusion_lon": 0.0}, {"is_reserved": 0, "type": "electric_scooter", "bike_id": "aa49fc14b3febcbdf6eb5bd753526ccc", "lat": 38.90928733333333, "lon": -77.06365133333334, "rental_uris": {"android": "https://dc.lft.to/lastmile_qr_scan", "ios": "https://dc.lft.to/lastmile_qr_scan"}, "is_disabled": 0, "fusion_lat": 0.0, "name": "aa49fc14b3febcbdf6eb5bd753526ccc", "fusion_lon": 0.0}, {"is_reserved": 0, "type": "electric_scooter", "bike_id": "b8585952fe9a4fd28fde2b54aa0be2db", "lat": 38.9170545, "lon": -77.02409933333334, "rental_uris": {"android": "https://dc.lft.to/lastmile_qr_scan", "ios": "https://dc.lft.to/lastmile_qr_scan"}, "is_disabled": 0, "fusion_lat": 0.0, "name": "b8585952fe9a4fd28fde2b54aa0be2db", "fusion_lon": 0.0}, {"is_reserved": 0, "type": "electric_scooter", "bike_id": "4b0362ceef65d225f42efa68be6c5abd", "lat": 38.9163355, "lon": -77.042617, "rental_uris": {"android": "https://dc.lft.to/lastmile_qr_scan", "ios": "https://dc.lft.to/lastmile_qr_scan"}, "is_disabled": 0, "fusion_lat": 0.0, "name": "4b0362ceef65d225f42efa68be6c5abd", "fusion_lon": 0.0}, {"is_reserved": 0, "type": "electric_scooter", "bike_id": "ac651613ed7b6dc8402b3725c4772d1e", "lat": 38.92018316666667, "lon": -77.031913, "rental_uris": {"android": "https://dc.lft.to/lastmile_qr_scan", "ios": "https://dc.lft.to/lastmile_qr_scan"}, "is_disabled": 0, "fusion_lat": 0.0, "name": "ac651613ed7b6dc8402b3725c4772d1e", "fusion_lon": 0.0}, {"is_reserved": 0, "type": "electric_scooter", "bike_id": "96d588c12ab1eacee6889c0306676604", "lat": 38.933302, "lon": -77.02911033333334, "rental_uris": {"android": "https://dc.lft.to/lastmile_qr_scan", "ios": "https://dc.lft.to/lastmile_qr_scan"}, "is_disabled": 0, "fusion_lat": 0.0, "name": "96d588c12ab1eacee6889c0306676604", "fusion_lon": 0.0}, {"is_reserved": 0, "type": "electric_scooter", "bike_id": "1c70e096545aedfb6cc2c52d19fb57c6", "lat": 38.893189, "lon": -77.0223625, "rental_uris": {"android": "https://dc.lft.to/lastmile_qr_scan", "ios": "https://dc.lft.to/lastmile_qr_scan"}, "is_disabled": 0, "fusion_lat": 0.0, "name": "1c70e096545aedfb6cc2c52d19fb57c6", "fusion_lon": 0.0}, {"is_reserved": 0, "type": "electric_scooter", "bike_id": "cf4c0379adda49feb28e1ae3a503f443", "lat": 38.87992416666667, "lon": -77.00843683333333, "rental_uris": {"android": "https://dc.lft.to/lastmile_qr_scan", "ios": "https://dc.lft.to/lastmile_qr_scan"}, "is_disabled": 0, "fusion_lat": 0.0, "name": "cf4c0379adda49feb28e1ae3a503f443", "fusion_lon": 0.0}, {"is_reserved": 0, "type": "electric_scooter", "bike_id": "43ff792b4264721c6e087f845e996043", "lat": 38.892202166666664, "lon": -77.02181366666667, "rental_uris": {"android": "https://dc.lft.to/lastmile_qr_scan", "ios": "https://dc.lft.to/lastmile_qr_scan"}, "is_disabled": 0, "fusion_lat": 0.0, "name": "43ff792b4264721c6e087f845e996043", "fusion_lon": 0.0}, {"is_reserved": 0, "type": "electric_scooter", "bike_id": "faf615a660c96a8f7ede7767572fc34e", "lat": 38.983014, "lon": -77.02667633333333, "rental_uris": {"android": "https://dc.lft.to/lastmile_qr_scan", "ios": "https://dc.lft.to/lastmile_qr_scan"}, "is_disabled": 0, "fusion_lat": 0.0, "name": "faf615a660c96a8f7ede7767572fc34e", "fusion_lon": 0.0}, {"is_reserved": 0, "type": "electric_scooter", "bike_id": "edd5a4fd25f4996a7d2132bc7cc04ebc", "lat": 38.91059516666667, "lon": -77.04406566666667, "rental_uris": {"android": "https://dc.lft.to/lastmile_qr_scan", "ios": "https://dc.lft.to/lastmile_qr_scan"}, "is_disabled": 0, "fusion_lat": 0.0, "name": "edd5a4fd25f4996a7d2132bc7cc04ebc", "fusion_lon": 0.0}, {"is_reserved": 0, "type": "electric_scooter", "bike_id": "094c8fd78ae3889bc6a09e0003a8a0f9", "lat": 38.91039216666667, "lon": -77.03940916666667, "rental_uris": {"android": "https://dc.lft.to/lastmile_qr_scan", "ios": "https://dc.lft.to/lastmile_qr_scan"}, "is_disabled": 0, "fusion_lat": 0.0, "name": "094c8fd78ae3889bc6a09e0003a8a0f9", "fusion_lon": 0.0}, {"is_reserved": 0, "type": "electric_scooter", "bike_id": "b2d36e78b641f6e2663bce717d4bc6d7", "lat": 38.897306666666665, "lon": -77.02168216666666, "rental_uris": {"android": "https://dc.lft.to/lastmile_qr_scan", "ios": "https://dc.lft.to/lastmile_qr_scan"}, "is_disabled": 0, "fusion_lat": 0.0, "name": "b2d36e78b641f6e2663bce717d4bc6d7", "fusion_lon": 0.0}, {"is_reserved": 0, "type": "electric_scooter", "bike_id": "9752786473acb83a16a3ffe83967dea5", "lat": 38.9258155, "lon": -77.04107766666667, "rental_uris": {"android": "https://dc.lft.to/lastmile_qr_scan", "ios": "https://dc.lft.to/lastmile_qr_scan"}, "is_disabled": 0, "fusion_lat": 0.0, "name": "9752786473acb83a16a3ffe83967dea5", "fusion_lon": 0.0}, {"is_reserved": 0, "type": "electric_scooter", "bike_id": "bbc66d128443b2d34a80b6d16c64336a", "lat": 38.92477366666667, "lon": -77.02720866666667, "rental_uris": {"android": "https://dc.lft.to/lastmile_qr_scan", "ios": "https://dc.lft.to/lastmile_qr_scan"}, "is_disabled": 0, "fusion_lat": 0.0, "name": "bbc66d128443b2d34a80b6d16c64336a", "fusion_lon": 0.0}, {"is_reserved": 0, "type": "electric_scooter", "bike_id": "8b5b92f497781ea9ac1ec3dc5fd34fac", "lat": 38.918140666666666, "lon": -77.02554466666666, "rental_uris": {"android": "https://dc.lft.to/lastmile_qr_scan", "ios": "https://dc.lft.to/lastmile_qr_scan"}, "is_disabled": 0, "fusion_lat": 0.0, "name": "8b5b92f497781ea9ac1ec3dc5fd34fac", "fusion_lon": 0.0}, {"is_reserved": 0, "type": "electric_scooter", "bike_id": "5c55246865c1d05e4c4ca3712eff58aa", "lat": 38.915512166666666, "lon": -77.03102566666666, "rental_uris": {"android": "https://dc.lft.to/lastmile_qr_scan", "ios": "https://dc.lft.to/lastmile_qr_scan"}, "is_disabled": 0, "fusion_lat": 0.0, "name": "5c55246865c1d05e4c4ca3712eff58aa", "fusion_lon": 0.0}, {"is_reserved": 0, "type": "electric_scooter", "bike_id": "e9ef5c0d8c8105461de9ed4b44dc323e", "lat": 38.909510833333336, "lon": -77.04776316666667, "rental_uris": {"android": "https://dc.lft.to/lastmile_qr_scan", "ios": "https://dc.lft.to/lastmile_qr_scan"}, "is_disabled": 0, "fusion_lat": 0.0, "name": "e9ef5c0d8c8105461de9ed4b44dc323e", "fusion_lon": 0.0}, {"is_reserved": 0, "type": "electric_scooter", "bike_id": "449a445c1972666a2eb242bce9cf43d3", "lat": 38.8990485, "lon": -77.00363816666666, "rental_uris": {"android": "https://dc.lft.to/lastmile_qr_scan", "ios": "https://dc.lft.to/lastmile_qr_scan"}, "is_disabled": 0, "fusion_lat": 0.0, "name": "449a445c1972666a2eb242bce9cf43d3", "fusion_lon": 0.0}, {"is_reserved": 0, "type": "electric_scooter", "bike_id": "f14c15f9cb04e9b7b77a9309aaaeacee", "lat": 38.8832675, "lon": -76.99326316666667, "rental_uris": {"android": "https://dc.lft.to/lastmile_qr_scan", "ios": "https://dc.lft.to/lastmile_qr_scan"}, "is_disabled": 0, "fusion_lat": 0.0, "name": "f14c15f9cb04e9b7b77a9309aaaeacee", "fusion_lon": 0.0}, {"is_reserved": 0, "type": "electric_scooter", "bike_id": "aba17e368e2f4e3b47f566aab5c6a4cf", "lat": 38.915737, "lon": -77.0364055, "rental_uris": {"android": "https://dc.lft.to/lastmile_qr_scan", "ios": "https://dc.lft.to/lastmile_qr_scan"}, "is_disabled": 0, "fusion_lat": 0.0, "name": "aba17e368e2f4e3b47f566aab5c6a4cf", "fusion_lon": 0.0}, {"is_reserved": 0, "type": "electric_scooter", "bike_id": "ecaf517a9bbf542882aed63d10cfc3b0", "lat": 38.88454, "lon": -76.92622433333334, "rental_uris": {"android": "https://dc.lft.to/lastmile_qr_scan", "ios": "https://dc.lft.to/lastmile_qr_scan"}, "is_disabled": 0, "fusion_lat": 0.0, "name": "ecaf517a9bbf542882aed63d10cfc3b0", "fusion_lon": 0.0}, {"is_reserved": 0, "type": "electric_scooter", "bike_id": "a6ee374e5f12e6206b8085e886408eb1", "lat": 38.97295733333333, "lon": -77.036243, "rental_uris": {"android": "https://dc.lft.to/lastmile_qr_scan", "ios": "https://dc.lft.to/lastmile_qr_scan"}, "is_disabled": 0, "fusion_lat": 0.0, "name": "a6ee374e5f12e6206b8085e886408eb1", "fusion_lon": 0.0}, {"is_reserved": 0, "type": "electric_scooter", "bike_id": "b61d27753d62d650f25191dc15d03f9f", "lat": 38.92601583333333, "lon": -77.02155833333333, "rental_uris": {"android": "https://dc.lft.to/lastmile_qr_scan", "ios": "https://dc.lft.to/lastmile_qr_scan"}, "is_disabled": 0, "fusion_lat": 0.0, "name": "b61d27753d62d650f25191dc15d03f9f", "fusion_lon": 0.0}, {"is_reserved": 0, "type": "electric_scooter", "bike_id": "06a82028ba17aad55ef7aede368fb54f", "lat": 38.9105245, "lon": -77.05517416666666, "rental_uris": {"android": "https://dc.lft.to/lastmile_qr_scan", "ios": "https://dc.lft.to/lastmile_qr_scan"}, "is_disabled": 0, "fusion_lat": 0.0, "name": "06a82028ba17aad55ef7aede368fb54f", "fusion_lon": 0.0}, {"is_reserved": 0, "type": "electric_scooter", "bike_id": "9345cccfbd50267a407aab900aa5b5e5", "lat": 38.91928, "lon": -77.01976266666667, "rental_uris": {"android": "https://dc.lft.to/lastmile_qr_scan", "ios": "https://dc.lft.to/lastmile_qr_scan"}, "is_disabled": 0, "fusion_lat": 0.0, "name": "9345cccfbd50267a407aab900aa5b5e5", "fusion_lon": 0.0}, {"is_reserved": 0, "type": "electric_scooter", "bike_id": "991343a69d0dbd0255257eab24fbed50", "lat": 38.9182475, "lon": -77.03214383333334, "rental_uris": {"android": "https://dc.lft.to/lastmile_qr_scan", "ios": "https://dc.lft.to/lastmile_qr_scan"}, "is_disabled": 0, "fusion_lat": 0.0, "name": "991343a69d0dbd0255257eab24fbed50", "fusion_lon": 0.0}, {"is_reserved": 0, "type": "electric_bike", "bike_id": "5b27c10469be1f69518893a8bfd64d2d", "lat": 39.094403166666666, "lon": -77.13460133333334, "rental_uris": {"android": "https://dc.lft.to/lastmile_qr_scan", "ios": "https://dc.lft.to/lastmile_qr_scan"}, "is_disabled": 0, "fusion_lat": 0.0, "name": "5b27c10469be1f69518893a8bfd64d2d", "fusion_lon": 0.0}, {"is_reserved": 0, "type": "electric_scooter", "bike_id": "831cd43b7f404a576290691349aa78c4", "lat": 38.9279165, "lon": -77.03601266666666, "rental_uris": {"android": "https://dc.lft.to/lastmile_qr_scan", "ios": "https://dc.lft.to/lastmile_qr_scan"}, "is_disabled": 0, "fusion_lat": 0.0, "name": "831cd43b7f404a576290691349aa78c4", "fusion_lon": 0.0}, {"is_reserved": 0, "type": "electric_scooter", "bike_id": "0053f881b8c9f8da19e2d44e556be8a4", "lat": 38.9306205, "lon": -77.04220566666666, "rental_uris": {"android": "https://dc.lft.to/lastmile_qr_scan", "ios": "https://dc.lft.to/lastmile_qr_scan"}, "is_disabled": 0, "fusion_lat": 0.0, "name": "0053f881b8c9f8da19e2d44e556be8a4", "fusion_lon": 0.0}, {"is_reserved": 0, "type": "electric_scooter", "bike_id": "a65383338cf09ad1d9799cc85442c18f", "lat": 38.908920333333334, "lon": -77.0438235, "rental_uris": {"android": "https://dc.lft.to/lastmile_qr_scan", "ios": "https://dc.lft.to/lastmile_qr_scan"}, "is_disabled": 0, "fusion_lat": 0.0, "name": "a65383338cf09ad1d9799cc85442c18f", "fusion_lon": 0.0}, {"is_reserved": 0, "type": "electric_scooter", "bike_id": "ebf82f640b521a8b03d78a582f3e99f5", "lat": 38.900835666666666, "lon": -77.0253235, "rental_uris": {"android": "https://dc.lft.to/lastmile_qr_scan", "ios": "https://dc.lft.to/lastmile_qr_scan"}, "is_disabled": 0, "fusion_lat": 0.0, "name": "ebf82f640b521a8b03d78a582f3e99f5", "fusion_lon": 0.0}, {"is_reserved": 0, "type": "electric_scooter", "bike_id": "fc1c3fb3dcf5b13fc165a989723bf839", "lat": 38.926443666666664, "lon": -77.02143733333334, "rental_uris": {"android": "https://dc.lft.to/lastmile_qr_scan", "ios": "https://dc.lft.to/lastmile_qr_scan"}, "is_disabled": 0, "fusion_lat": 0.0, "name": "fc1c3fb3dcf5b13fc165a989723bf839", "fusion_lon": 0.0}, {"is_reserved": 0, "type": "electric_scooter", "bike_id": "cad6472a7ef43aa7c6a4b6e5d015cde3", "lat": 38.88404166666667, "lon": -76.99531533333334, "rental_uris": {"android": "https://dc.lft.to/lastmile_qr_scan", "ios": "https://dc.lft.to/lastmile_qr_scan"}, "is_disabled": 0, "fusion_lat": 0.0, "name": "cad6472a7ef43aa7c6a4b6e5d015cde3", "fusion_lon": 0.0}, {"is_reserved": 0, "type": "electric_scooter", "bike_id": "e84f8bcea5cc7af68b815b6d9ee93684", "lat": 38.923883333333336, "lon": -77.02966866666667, "rental_uris": {"android": "https://dc.lft.to/lastmile_qr_scan", "ios": "https://dc.lft.to/lastmile_qr_scan"}, "is_disabled": 0, "fusion_lat": 0.0, "name": "e84f8bcea5cc7af68b815b6d9ee93684", "fusion_lon": 0.0}, {"is_reserved": 0, "type": "electric_scooter", "bike_id": "71dde3ded36af4135eccda2f574b3578", "lat": 38.90136733333333, "lon": -76.997937, "rental_uris": {"android": "https://dc.lft.to/lastmile_qr_scan", "ios": "https://dc.lft.to/lastmile_qr_scan"}, "is_disabled": 0, "fusion_lat": 0.0, "name": "71dde3ded36af4135eccda2f574b3578", "fusion_lon": 0.0}, {"is_reserved": 0, "type": "electric_scooter", "bike_id": "172fe7907c5f0362886465ff3fb1236b", "lat": 38.895686, "lon": -77.02163783333333, "rental_uris": {"android": "https://dc.lft.to/lastmile_qr_scan", "ios": "https://dc.lft.to/lastmile_qr_scan"}, "is_disabled": 0, "fusion_lat": 0.0, "name": "172fe7907c5f0362886465ff3fb1236b", "fusion_lon": 0.0}, {"is_reserved": 0, "type": "electric_bike", "bike_id": "36f1349aa5cdf4d57f0486653df97412", "lat": 38.92437433333333, "lon": -77.019229, "rental_uris": {"android": "https://dc.lft.to/lastmile_qr_scan", "ios": "https://dc.lft.to/lastmile_qr_scan"}, "is_disabled": 0, "fusion_lat": 0.0, "name": "36f1349aa5cdf4d57f0486653df97412", "fusion_lon": 0.0}, {"is_reserved": 0, "type": "electric_bike", "bike_id": "7a169a1e882c17813dccbbb5c241a6c7", "lat": 38.81329183333333, "lon": -77.0511875, "rental_uris": {"android": "https://dc.lft.to/lastmile_qr_scan", "ios": "https://dc.lft.to/lastmile_qr_scan"}, "is_disabled": 0, "fusion_lat": 0.0, "name": "7a169a1e882c17813dccbbb5c241a6c7", "fusion_lon": 0.0}, {"is_reserved": 0, "type": "electric_scooter", "bike_id": "823d1d19c43fb8871ed6a5cae9f56a88", "lat": 38.92745983333333, "lon": -77.03308933333334, "rental_uris": {"android": "https://dc.lft.to/lastmile_qr_scan", "ios": "https://dc.lft.to/lastmile_qr_scan"}, "is_disabled": 0, "fusion_lat": 0.0, "name": "823d1d19c43fb8871ed6a5cae9f56a88", "fusion_lon": 0.0}, {"is_reserved": 0, "type": "electric_scooter", "bike_id": "787ad3b79475a2e424a8bca6fa7fa193", "lat": 38.91334916666667, "lon": -77.0219805, "rental_uris": {"android": "https://dc.lft.to/lastmile_qr_scan", "ios": "https://dc.lft.to/lastmile_qr_scan"}, "is_disabled": 0, "fusion_lat": 0.0, "name": "787ad3b79475a2e424a8bca6fa7fa193", "fusion_lon": 0.0}, {"is_reserved": 0, "type": "electric_scooter", "bike_id": "7ad0aa6b5c15c3d9002d49a236741490", "lat": 38.91693133333333, "lon": -77.02691566666667, "rental_uris": {"android": "https://dc.lft.to/lastmile_qr_scan", "ios": "https://dc.lft.to/lastmile_qr_scan"}, "is_disabled": 0, "fusion_lat": 0.0, "name": "7ad0aa6b5c15c3d9002d49a236741490", "fusion_lon": 0.0}, {"is_reserved": 0, "type": "electric_scooter", "bike_id": "2abd575f5efd91d7b489f6e700750b59", "lat": 38.9323045, "lon": -77.0386075, "rental_uris": {"android": "https://dc.lft.to/lastmile_qr_scan", "ios": "https://dc.lft.to/lastmile_qr_scan"}, "is_disabled": 0, "fusion_lat": 0.0, "name": "2abd575f5efd91d7b489f6e700750b59", "fusion_lon": 0.0}, {"is_reserved": 0, "type": "electric_scooter", "bike_id": "9dd933607e5d287dba9ea26aff86f7f2", "lat": 38.903855, "lon": -77.032966, "rental_uris": {"android": "https://dc.lft.to/lastmile_qr_scan", "ios": "https://dc.lft.to/lastmile_qr_scan"}, "is_disabled": 0, "fusion_lat": 0.0, "name": "9dd933607e5d287dba9ea26aff86f7f2", "fusion_lon": 0.0}, {"is_reserved": 0, "type": "electric_scooter", "bike_id": "afb00c818fa0ac8c1b0275c929073955", "lat": 38.895866166666664, "lon": -77.03952133333334, "rental_uris": {"android": "https://dc.lft.to/lastmile_qr_scan", "ios": "https://dc.lft.to/lastmile_qr_scan"}, "is_disabled": 0, "fusion_lat": 0.0, "name": "afb00c818fa0ac8c1b0275c929073955", "fusion_lon": 0.0}, {"is_reserved": 0, "type": "electric_scooter", "bike_id": "de003bc39f3fe945b93cbc3ff12a8c74", "lat": 38.89410266666667, "lon": -77.02148633333333, "rental_uris": {"android": "https://dc.lft.to/lastmile_qr_scan", "ios": "https://dc.lft.to/lastmile_qr_scan"}, "is_disabled": 0, "fusion_lat": 0.0, "name": "de003bc39f3fe945b93cbc3ff12a8c74", "fusion_lon": 0.0}, {"is_reserved": 0, "type": "electric_scooter", "bike_id": "36c4a0dabb8704ac8bf682efbc793091", "lat": 38.9303065, "lon": -77.08320016666667, "rental_uris": {"android": "https://dc.lft.to/lastmile_qr_scan", "ios": "https://dc.lft.to/lastmile_qr_scan"}, "is_disabled": 0, "fusion_lat": 0.0, "name": "36c4a0dabb8704ac8bf682efbc793091", "fusion_lon": 0.0}, {"is_reserved": 0, "type": "electric_scooter", "bike_id": "6c49d27d6cfb3c66b88bb39730704daa", "lat": 38.923822333333334, "lon": -77.02741166666667, "rental_uris": {"android": "https://dc.lft.to/lastmile_qr_scan", "ios": "https://dc.lft.to/lastmile_qr_scan"}, "is_disabled": 0, "fusion_lat": 0.0, "name": "6c49d27d6cfb3c66b88bb39730704daa", "fusion_lon": 0.0}, {"is_reserved": 0, "type": "electric_scooter", "bike_id": "b8365f533d216c32c0b6521eb9a24e5e", "lat": 38.89826866666667, "lon": -77.04827916666666, "rental_uris": {"android": "https://dc.lft.to/lastmile_qr_scan", "ios": "https://dc.lft.to/lastmile_qr_scan"}, "is_disabled": 0, "fusion_lat": 0.0, "name": "b8365f533d216c32c0b6521eb9a24e5e", "fusion_lon": 0.0}, {"is_reserved": 0, "type": "electric_scooter", "bike_id": "2aa092e793edd6e414996cc0a195a745", "lat": 38.906149166666665, "lon": -77.0330125, "rental_uris": {"android": "https://dc.lft.to/lastmile_qr_scan", "ios": "https://dc.lft.to/lastmile_qr_scan"}, "is_disabled": 0, "fusion_lat": 0.0, "name": "2aa092e793edd6e414996cc0a195a745", "fusion_lon": 0.0}, {"is_reserved": 0, "type": "electric_scooter", "bike_id": "a2ec9301a13ba21e7b7007161a4197cb", "lat": 38.90479883333333, "lon": -77.0486, "rental_uris": {"android": "https://dc.lft.to/lastmile_qr_scan", "ios": "https://dc.lft.to/lastmile_qr_scan"}, "is_disabled": 0, "fusion_lat": 0.0, "name": "a2ec9301a13ba21e7b7007161a4197cb", "fusion_lon": 0.0}, {"is_reserved": 0, "type": "electric_scooter", "bike_id": "5c135bd4c8f8aff34ab96282d119f855", "lat": 38.89525283333333, "lon": -77.02958266666667, "rental_uris": {"android": "https://dc.lft.to/lastmile_qr_scan", "ios": "https://dc.lft.to/lastmile_qr_scan"}, "is_disabled": 0, "fusion_lat": 0.0, "name": "5c135bd4c8f8aff34ab96282d119f855", "fusion_lon": 0.0}, {"is_reserved": 0, "type": "electric_scooter", "bike_id": "6b9c7dda4dcb9f3f6d687458ad426b0f", "lat": 38.89802433333333, "lon": -77.02788666666666, "rental_uris": {"android": "https://dc.lft.to/lastmile_qr_scan", "ios": "https://dc.lft.to/lastmile_qr_scan"}, "is_disabled": 0, "fusion_lat": 0.0, "name": "6b9c7dda4dcb9f3f6d687458ad426b0f", "fusion_lon": 0.0}, {"is_reserved": 0, "type": "electric_scooter", "bike_id": "bce8f87dffaa86a1adfb9beb1cdb1c2f", "lat": 38.89714716666667, "lon": -77.00796516666666, "rental_uris": {"android": "https://dc.lft.to/lastmile_qr_scan", "ios": "https://dc.lft.to/lastmile_qr_scan"}, "is_disabled": 0, "fusion_lat": 0.0, "name": "bce8f87dffaa86a1adfb9beb1cdb1c2f", "fusion_lon": 0.0}, {"is_reserved": 0, "type": "electric_scooter", "bike_id": "dbefba1fca36d8c32b3413f50a624c3b", "lat": 38.881788, "lon": -77.0176725, "rental_uris": {"android": "https://dc.lft.to/lastmile_qr_scan", "ios": "https://dc.lft.to/lastmile_qr_scan"}, "is_disabled": 0, "fusion_lat": 0.0, "name": "dbefba1fca36d8c32b3413f50a624c3b", "fusion_lon": 0.0}, {"is_reserved": 0, "type": "electric_scooter", "bike_id": "67e6b99dc936b2588b64a37e39f326e1", "lat": 38.90618, "lon": -77.070234, "rental_uris": {"android": "https://dc.lft.to/lastmile_qr_scan", "ios": "https://dc.lft.to/lastmile_qr_scan"}, "is_disabled": 0, "fusion_lat": 0.0, "name": "67e6b99dc936b2588b64a37e39f326e1", "fusion_lon": 0.0}, {"is_reserved": 0, "type": "electric_scooter", "bike_id": "fa3747db52339fe7082b34ba14052a05", "lat": 38.92029633333333, "lon": -77.010318, "rental_uris": {"android": "https://dc.lft.to/lastmile_qr_scan", "ios": "https://dc.lft.to/lastmile_qr_scan"}, "is_disabled": 0, "fusion_lat": 0.0, "name": "fa3747db52339fe7082b34ba14052a05", "fusion_lon": 0.0}, {"is_reserved": 0, "type": "electric_scooter", "bike_id": "10b0e4679cd5bb9eb6f9b0362c316f88", "lat": 38.920705, "lon": -77.07463166666666, "rental_uris": {"android": "https://dc.lft.to/lastmile_qr_scan", "ios": "https://dc.lft.to/lastmile_qr_scan"}, "is_disabled": 0, "fusion_lat": 0.0, "name": "10b0e4679cd5bb9eb6f9b0362c316f88", "fusion_lon": 0.0}, {"is_reserved": 0, "type": "electric_scooter", "bike_id": "62a71d2ee44d40cc7d15db76c4f2d890", "lat": 38.9210115, "lon": -77.03011, "rental_uris": {"android": "https://dc.lft.to/lastmile_qr_scan", "ios": "https://dc.lft.to/lastmile_qr_scan"}, "is_disabled": 0, "fusion_lat": 0.0, "name": "62a71d2ee44d40cc7d15db76c4f2d890", "fusion_lon": 0.0}, {"is_reserved": 0, "type": "electric_scooter", "bike_id": "02f7213dc17f3c63c128dfaf8dc49792", "lat": 38.895278, "lon": -77.01117883333333, "rental_uris": {"android": "https://dc.lft.to/lastmile_qr_scan", "ios": "https://dc.lft.to/lastmile_qr_scan"}, "is_disabled": 0, "fusion_lat": 0.0, "name": "02f7213dc17f3c63c128dfaf8dc49792", "fusion_lon": 0.0}, {"is_reserved": 0, "type": "electric_scooter", "bike_id": "7b950055d512fe2da64ab671f46f44ac", "lat": 38.92405466666666, "lon": -77.02984133333334, "rental_uris": {"android": "https://dc.lft.to/lastmile_qr_scan", "ios": "https://dc.lft.to/lastmile_qr_scan"}, "is_disabled": 0, "fusion_lat": 0.0, "name": "7b950055d512fe2da64ab671f46f44ac", "fusion_lon": 0.0}, {"is_reserved": 0, "type": "electric_scooter", "bike_id": "761a2ff422d24593f23f3c67d3417e20", "lat": 38.89717, "lon": -77.02023783333334, "rental_uris": {"android": "https://dc.lft.to/lastmile_qr_scan", "ios": "https://dc.lft.to/lastmile_qr_scan"}, "is_disabled": 0, "fusion_lat": 0.0, "name": "761a2ff422d24593f23f3c67d3417e20", "fusion_lon": 0.0}, {"is_reserved": 0, "type": "electric_scooter", "bike_id": "78b57097358e3ec14fcbe4f075a54423", "lat": 38.90034383333333, "lon": -77.00216333333333, "rental_uris": {"android": "https://dc.lft.to/lastmile_qr_scan", "ios": "https://dc.lft.to/lastmile_qr_scan"}, "is_disabled": 0, "fusion_lat": 0.0, "name": "78b57097358e3ec14fcbe4f075a54423", "fusion_lon": 0.0}, {"is_reserved": 0, "type": "electric_scooter", "bike_id": "8b95f63f888a24dcb3fc2e43bf29c794", "lat": 38.9167635, "lon": -77.02720316666667, "rental_uris": {"android": "https://dc.lft.to/lastmile_qr_scan", "ios": "https://dc.lft.to/lastmile_qr_scan"}, "is_disabled": 0, "fusion_lat": 0.0, "name": "8b95f63f888a24dcb3fc2e43bf29c794", "fusion_lon": 0.0}, {"is_reserved": 0, "type": "electric_scooter", "bike_id": "e329edf502e91170d3f30c5c062f2703", "lat": 38.91330416666667, "lon": -77.05004766666667, "rental_uris": {"android": "https://dc.lft.to/lastmile_qr_scan", "ios": "https://dc.lft.to/lastmile_qr_scan"}, "is_disabled": 0, "fusion_lat": 0.0, "name": "e329edf502e91170d3f30c5c062f2703", "fusion_lon": 0.0}, {"is_reserved": 0, "type": "electric_scooter", "bike_id": "5f260a3730db1a1e707513fa1c2fcb32", "lat": 38.883954, "lon": -76.985855, "rental_uris": {"android": "https://dc.lft.to/lastmile_qr_scan", "ios": "https://dc.lft.to/lastmile_qr_scan"}, "is_disabled": 0, "fusion_lat": 0.0, "name": "5f260a3730db1a1e707513fa1c2fcb32", "fusion_lon": 0.0}, {"is_reserved": 0, "type": "electric_scooter", "bike_id": "18a0dd0e1e3e3bab9f3a0b1a99620939", "lat": 38.91763983333333, "lon": -77.02313833333334, "rental_uris": {"android": "https://dc.lft.to/lastmile_qr_scan", "ios": "https://dc.lft.to/lastmile_qr_scan"}, "is_disabled": 0, "fusion_lat": 0.0, "name": "18a0dd0e1e3e3bab9f3a0b1a99620939", "fusion_lon": 0.0}, {"is_reserved": 0, "type": "electric_scooter", "bike_id": "c8b4652f057a4f2de7697e3cf394c53e", "lat": 38.899316666666664, "lon": -77.02691633333333, "rental_uris": {"android": "https://dc.lft.to/lastmile_qr_scan", "ios": "https://dc.lft.to/lastmile_qr_scan"}, "is_disabled": 0, "fusion_lat": 0.0, "name": "c8b4652f057a4f2de7697e3cf394c53e", "fusion_lon": 0.0}, {"is_reserved": 0, "type": "electric_scooter", "bike_id": "1bdfeece26eb356f18e7671b329d5a2d", "lat": 38.934423, "lon": -77.07238516666666, "rental_uris": {"android": "https://dc.lft.to/lastmile_qr_scan", "ios": "https://dc.lft.to/lastmile_qr_scan"}, "is_disabled": 0, "fusion_lat": 0.0, "name": "1bdfeece26eb356f18e7671b329d5a2d", "fusion_lon": 0.0}, {"is_reserved": 0, "type": "electric_scooter", "bike_id": "6d4dd7f73f36c181cfb6ed2d369f566a", "lat": 38.9102775, "lon": -77.03454416666666, "rental_uris": {"android": "https://dc.lft.to/lastmile_qr_scan", "ios": "https://dc.lft.to/lastmile_qr_scan"}, "is_disabled": 0, "fusion_lat": 0.0, "name": "6d4dd7f73f36c181cfb6ed2d369f566a", "fusion_lon": 0.0}, {"is_reserved": 0, "type": "electric_scooter", "bike_id": "fa2fef166a8f686ae5b8398ae0d2969a", "lat": 38.9182585, "lon": -77.041695, "rental_uris": {"android": "https://dc.lft.to/lastmile_qr_scan", "ios": "https://dc.lft.to/lastmile_qr_scan"}, "is_disabled": 0, "fusion_lat": 0.0, "name": "fa2fef166a8f686ae5b8398ae0d2969a", "fusion_lon": 0.0}, {"is_reserved": 0, "type": "electric_scooter", "bike_id": "874026ec821ca2e947eb071b6e695fb9", "lat": 38.92442416666667, "lon": -77.0202875, "rental_uris": {"android": "https://dc.lft.to/lastmile_qr_scan", "ios": "https://dc.lft.to/lastmile_qr_scan"}, "is_disabled": 0, "fusion_lat": 0.0, "name": "874026ec821ca2e947eb071b6e695fb9", "fusion_lon": 0.0}, {"is_reserved": 0, "type": "electric_bike", "bike_id": "e694a9e2269a72a8fd26a01f7da15db4", "lat": 38.958469, "lon": -76.986164, "rental_uris": {"android": "https://dc.lft.to/lastmile_qr_scan", "ios": "https://dc.lft.to/lastmile_qr_scan"}, "is_disabled": 0, "fusion_lat": 0.0, "name": "e694a9e2269a72a8fd26a01f7da15db4", "fusion_lon": 0.0}, {"is_reserved": 0, "type": "electric_scooter", "bike_id": "4825e04ee394cf68c191f6aa486cd62c", "lat": 38.91088716666667, "lon": -77.03847483333334, "rental_uris": {"android": "https://dc.lft.to/lastmile_qr_scan", "ios": "https://dc.lft.to/lastmile_qr_scan"}, "is_disabled": 0, "fusion_lat": 0.0, "name": "4825e04ee394cf68c191f6aa486cd62c", "fusion_lon": 0.0}, {"is_reserved": 0, "type": "electric_scooter", "bike_id": "8cb6443b8811afbc7efac4234e324972", "lat": 38.89803233333333, "lon": -76.99505183333333, "rental_uris": {"android": "https://dc.lft.to/lastmile_qr_scan", "ios": "https://dc.lft.to/lastmile_qr_scan"}, "is_disabled": 0, "fusion_lat": 0.0, "name": "8cb6443b8811afbc7efac4234e324972", "fusion_lon": 0.0}, {"is_reserved": 0, "type": "electric_scooter", "bike_id": "97ff36e9b075e636595f30fef632d30b", "lat": 38.903569833333336, "lon": -77.0349745, "rental_uris": {"android": "https://dc.lft.to/lastmile_qr_scan", "ios": "https://dc.lft.to/lastmile_qr_scan"}, "is_disabled": 0, "fusion_lat": 0.0, "name": "97ff36e9b075e636595f30fef632d30b", "fusion_lon": 0.0}, {"is_reserved": 0, "type": "electric_scooter", "bike_id": "8a614cc902f283b9478a03129011976e", "lat": 38.93908166666667, "lon": -77.0331075, "rental_uris": {"android": "https://dc.lft.to/lastmile_qr_scan", "ios": "https://dc.lft.to/lastmile_qr_scan"}, "is_disabled": 0, "fusion_lat": 0.0, "name": "8a614cc902f283b9478a03129011976e", "fusion_lon": 0.0}, {"is_reserved": 0, "type": "electric_scooter", "bike_id": "de7d524a39d03e1000b9e64daba2bcac", "lat": 38.902975, "lon": -77.00215216666666, "rental_uris": {"android": "https://dc.lft.to/lastmile_qr_scan", "ios": "https://dc.lft.to/lastmile_qr_scan"}, "is_disabled": 0, "fusion_lat": 0.0, "name": "de7d524a39d03e1000b9e64daba2bcac", "fusion_lon": 0.0}, {"is_reserved": 0, "type": "electric_scooter", "bike_id": "12051ef4976ba4f138199689d221ed51", "lat": 38.927598, "lon": -77.06888466666666, "rental_uris": {"android": "https://dc.lft.to/lastmile_qr_scan", "ios": "https://dc.lft.to/lastmile_qr_scan"}, "is_disabled": 0, "fusion_lat": 0.0, "name": "12051ef4976ba4f138199689d221ed51", "fusion_lon": 0.0}, {"is_reserved": 0, "type": "electric_scooter", "bike_id": "7c1bd46931803d91907cf8d78d41f34b", "lat": 38.915906, "lon": -77.02196216666667, "rental_uris": {"android": "https://dc.lft.to/lastmile_qr_scan", "ios": "https://dc.lft.to/lastmile_qr_scan"}, "is_disabled": 0, "fusion_lat": 0.0, "name": "7c1bd46931803d91907cf8d78d41f34b", "fusion_lon": 0.0}, {"is_reserved": 0, "type": "electric_scooter", "bike_id": "ad9b9ada9942a0a214a01be5090f5e51", "lat": 38.917025, "lon": -77.03161833333333, "rental_uris": {"android": "https://dc.lft.to/lastmile_qr_scan", "ios": "https://dc.lft.to/lastmile_qr_scan"}, "is_disabled": 0, "fusion_lat": 0.0, "name": "ad9b9ada9942a0a214a01be5090f5e51", "fusion_lon": 0.0}, {"is_reserved": 0, "type": "electric_scooter", "bike_id": "8696ca0a6bedb2750d9ea76f30ec6793", "lat": 38.89912433333333, "lon": -76.93362833333333, "rental_uris": {"android": "https://dc.lft.to/lastmile_qr_scan", "ios": "https://dc.lft.to/lastmile_qr_scan"}, "is_disabled": 0, "fusion_lat": 0.0, "name": "8696ca0a6bedb2750d9ea76f30ec6793", "fusion_lon": 0.0}, {"is_reserved": 0, "type": "electric_scooter", "bike_id": "c82d82644cd3e2d49af5c9d5650d461b", "lat": 38.9003485, "lon": -76.99153416666667, "rental_uris": {"android": "https://dc.lft.to/lastmile_qr_scan", "ios": "https://dc.lft.to/lastmile_qr_scan"}, "is_disabled": 0, "fusion_lat": 0.0, "name": "c82d82644cd3e2d49af5c9d5650d461b", "fusion_lon": 0.0}, {"is_reserved": 0, "type": "electric_scooter", "bike_id": "ac4ad49ab91f8301dbb5986f4a65e789", "lat": 38.912191666666665, "lon": -77.04580583333333, "rental_uris": {"android": "https://dc.lft.to/lastmile_qr_scan", "ios": "https://dc.lft.to/lastmile_qr_scan"}, "is_disabled": 0, "fusion_lat": 0.0, "name": "ac4ad49ab91f8301dbb5986f4a65e789", "fusion_lon": 0.0}, {"is_reserved": 0, "type": "electric_scooter", "bike_id": "8ff6ac1dedf3b033963c45bf5bea6b74", "lat": 38.9465785, "lon": -77.03282566666667, "rental_uris": {"android": "https://dc.lft.to/lastmile_qr_scan", "ios": "https://dc.lft.to/lastmile_qr_scan"}, "is_disabled": 0, "fusion_lat": 0.0, "name": "8ff6ac1dedf3b033963c45bf5bea6b74", "fusion_lon": 0.0}, {"is_reserved": 0, "type": "electric_scooter", "bike_id": "3c51367d2925ee7d34bc4127a44c04d4", "lat": 38.896175666666664, "lon": -76.9967055, "rental_uris": {"android": "https://dc.lft.to/lastmile_qr_scan", "ios": "https://dc.lft.to/lastmile_qr_scan"}, "is_disabled": 0, "fusion_lat": 0.0, "name": "3c51367d2925ee7d34bc4127a44c04d4", "fusion_lon": 0.0}, {"is_reserved": 0, "type": "electric_scooter", "bike_id": "6496217c35d557bde651ea33b7a37df4", "lat": 38.902286833333335, "lon": -77.04134533333334, "rental_uris": {"android": "https://dc.lft.to/lastmile_qr_scan", "ios": "https://dc.lft.to/lastmile_qr_scan"}, "is_disabled": 0, "fusion_lat": 0.0, "name": "6496217c35d557bde651ea33b7a37df4", "fusion_lon": 0.0}, {"is_reserved": 0, "type": "electric_bike", "bike_id": "e0ad543876066d3935eea11e3e5fe1d9", "lat": 38.84102816666667, "lon": -77.08946466666667, "rental_uris": {"android": "https://dc.lft.to/lastmile_qr_scan", "ios": "https://dc.lft.to/lastmile_qr_scan"}, "is_disabled": 0, "fusion_lat": 0.0, "name": "e0ad543876066d3935eea11e3e5fe1d9", "fusion_lon": 0.0}, {"is_reserved": 0, "type": "electric_scooter", "bike_id": "4b1c3fc57268f65ca40d21ba00faeefe", "lat": 38.93117566666667, "lon": -77.02317916666667, "rental_uris": {"android": "https://dc.lft.to/lastmile_qr_scan", "ios": "https://dc.lft.to/lastmile_qr_scan"}, "is_disabled": 0, "fusion_lat": 0.0, "name": "4b1c3fc57268f65ca40d21ba00faeefe", "fusion_lon": 0.0}, {"is_reserved": 0, "type": "electric_scooter", "bike_id": "77f82c9ba53a0d626d59ee167bcfedc0", "lat": 38.924322833333335, "lon": -77.05213633333334, "rental_uris": {"android": "https://dc.lft.to/lastmile_qr_scan", "ios": "https://dc.lft.to/lastmile_qr_scan"}, "is_disabled": 0, "fusion_lat": 0.0, "name": "77f82c9ba53a0d626d59ee167bcfedc0", "fusion_lon": 0.0}, {"is_reserved": 0, "type": "electric_scooter", "bike_id": "f2827f10ab7329f0e860e2dbddbfa18d", "lat": 38.90776733333333, "lon": -77.0282005, "rental_uris": {"android": "https://dc.lft.to/lastmile_qr_scan", "ios": "https://dc.lft.to/lastmile_qr_scan"}, "is_disabled": 0, "fusion_lat": 0.0, "name": "f2827f10ab7329f0e860e2dbddbfa18d", "fusion_lon": 0.0},