{"data": {"bikes": [{"bike_id": "c59b56c92e2b7cca38bc6710bc1fe61c", "is_reserved": 0, "fusion_lon": 0.0, "lat": 38.900779, "is_disabled": 0, "name": "c59b56c92e2b7cca38bc6710bc1fe61c", "fusion_lat": 0.0, "rental_uris": {"ios": "https://dc.lft.to/lastmile_qr_scan", "android": "https://dc.lft.to/lastmile_qr_scan"}, "lon": -76.9387045, "type": "electric_scooter"}, {"bike_id": "fec8fba76a5e870f7831e3906debe261", "is_reserved": 0, "fusion_lon": 0.0, "lat": 38.919559666666665, "is_disabled": 0, "name": "fec8fba76a5e870f7831e3906debe261", "fusion_lat": 0.0, "rental_uris": {"ios": "https://dc.lft.to/lastmile_qr_scan", "android": "https://dc.lft.to/lastmile_qr_scan"}, "lon": -77.03196883333334, "type": "electric_scooter"}, {"bike_id": "fae9d26bb4a9e23c4ea20d399cefa8fa", "is_reserved": 0, "fusion_lon": 0.0, "lat": 38.949738833333335, "is_disabled": 0, "name": "fae9d26bb4a9e23c4ea20d399cefa8fa", "fusion_lat": 0.0, "rental_uris": {"ios": "https://dc.lft.to/lastmile_qr_scan", "android": "https://dc.lft.to/lastmile_qr_scan"}, "lon": -76.97280516666666, "type": "electric_bike"}, {"bike_id": "2bfaaa2640a60c0136a2ccbc7b0425da", "is_reserved": 0, "fusion_lon": 0.0, "lat": 38.896826, "is_disabled": 0, "name": "2bfaaa2640a60c0136a2ccbc7b0425da", "fusion_lat": 0.0, "rental_uris": {"ios": "https://dc.lft.to/lastmile_qr_scan", "android": "https://dc.lft.to/lastmile_qr_scan"}, "lon": -76.99617666666667, "type": "electric_scooter"}, {"bike_id": "9ec40d32a0c8d0324d064b8555152b2a", "is_reserved": 0, "fusion_lon": 0.0, "lat": 38.9079415, "is_disabled": 0, "name": "9ec40d32a0c8d0324d064b8555152b2a", "fusion_lat": 0.0, "rental_uris": {"ios": "https://dc.lft.to/lastmile_qr_scan", "android": "https://dc.lft.to/lastmile_qr_scan"}, "lon": -76.99695333333334, "type": "electric_scooter"}, {"bike_id": "f8e65cf018773507d6662bffad6cc698", "is_reserved": 0, "fusion_lon": 0.0, "lat": 38.897332, "is_disabled": 0, "name": "f8e65cf018773507d6662bffad6cc698", "fusion_lat": 0.0, "rental_uris": {"ios": "https://dc.lft.to/lastmile_qr_scan", "android": "https://dc.lft.to/lastmile_qr_scan"}, "lon": -77.0557265, "type": "electric_scooter"}, {"bike_id": "710433fe2a4ec28f7a4cb1bfeefbba11", "is_reserved": 0, "fusion_lon": 0.0, "lat": 38.86620166666667, "is_disabled": 0, "name": "710433fe2a4ec28f7a4cb1bfeefbba11", "fusion_lat": 0.0, "rental_uris": {"ios": "https://dc.lft.to/lastmile_qr_scan", "android": "https://dc.lft.to/lastmile_qr_scan"}, "lon": -76.9457045, "type": "electric_bike"}, {"bike_id": "4b28d4ea969c93e9dafd8d2e4cc4a47d", "is_reserved": 0, "fusion_lon": 0.0, "lat": 38.86023183333333, "is_disabled": 0, "name": "4b28d4ea969c93e9dafd8d2e4cc4a47d", "fusion_lat": 0.0, "rental_uris": {"ios": "https://dc.lft.to/lastmile_qr_scan", "android": "https://dc.lft.to/lastmile_qr_scan"}, "lon": -77.05757866666667, "type": "electric_bike"}, {"bike_id": "3f1e11b6cdd5f60bc0b632d9576fe0a4", "is_reserved": 0, "fusion_lon": 0.0, "lat": 38.88848216666667, "is_disabled": 0, "name": "3f1e11b6cdd5f60bc0b632d9576fe0a4", "fusion_lat": 0.0, "rental_uris": {"ios": "https://dc.lft.to/lastmile_qr_scan", "android": "https://dc.lft.to/lastmile_qr_scan"}, "lon": -76.9267985, "type": "electric_scooter"}, {"bike_id": "c7d3e5f733feeb9ed01e09454078fc87", "is_reserved": 0, "fusion_lon": 0.0, "lat": 38.903776666666666, "is_disabled": 0, "name": "c7d3e5f733feeb9ed01e09454078fc87", "fusion_lat": 0.0, "rental_uris": {"ios": "https://dc.lft.to/lastmile_qr_scan", "android": "https://dc.lft.to/lastmile_qr_scan"}, "lon": -77.04491033333333, "type": "electric_scooter"}, {"bike_id": "20f3c3df642de109d3b810b8fb773b2c", "is_reserved": 0, "fusion_lon": 0.0, "lat": 38.90376533333333, "is_disabled": 0, "name": "20f3c3df642de109d3b810b8fb773b2c", "fusion_lat": 0.0, "rental_uris": {"ios": "https://dc.lft.to/lastmile_qr_scan", "android": "https://dc.lft.to/lastmile_qr_scan"}, "lon": -76.99560733333334, "type": "electric_scooter"}, {"bike_id": "f2956874ed3195a346cd9e56e2e8ea54", "is_reserved": 0, "fusion_lon": 0.0, "lat": 38.94802116666666, "is_disabled": 0, "name": "f2956874ed3195a346cd9e56e2e8ea54", "fusion_lat": 0.0, "rental_uris": {"ios": "https://dc.lft.to/lastmile_qr_scan", "android": "https://dc.lft.to/lastmile_qr_scan"}, "lon": -77.07904016666667, "type": "electric_scooter"}, {"bike_id": "634a242fc1f1a3b401ddbf89000d9652", "is_reserved": 0, "fusion_lon": 0.0, "lat": 38.90530583333334, "is_disabled": 0, "name": "634a242fc1f1a3b401ddbf89000d9652", "fusion_lat": 0.0, "rental_uris": {"ios": "https://dc.lft.to/lastmile_qr_scan", "android": "https://dc.lft.to/lastmile_qr_scan"}, "lon": -77.05114483333334, "type": "electric_scooter"}, {"bike_id": "b918ce8e37933c96087bc4ded78dc428", "is_reserved": 0, "fusion_lon": 0.0, "lat": 38.88747133333333, "is_disabled": 0, "name": "b918ce8e37933c96087bc4ded78dc428", "fusion_lat": 0.0, "rental_uris": {"ios": "https://dc.lft.to/lastmile_qr_scan", "android": "https://dc.lft.to/lastmile_qr_scan"}, "lon": -77.02971433333333, "type": "electric_scooter"}, {"bike_id": "fae47e1d256af518d2fce8ed01718f99", "is_reserved": 0, "fusion_lon": 0.0, "lat": 38.897699, "is_disabled": 0, "name": "fae47e1d256af518d2fce8ed01718f99", "fusion_lat": 0.0, "rental_uris": {"ios": "https://dc.lft.to/lastmile_qr_scan", "android": "https://dc.lft.to/lastmile_qr_scan"}, "lon": -77.03174566666667, "type": "electric_scooter"}, {"bike_id": "1fbd1254398ffc0041f676d955c361ea", "is_reserved": 0, "fusion_lon": 0.0, "lat": 38.93100966666667, "is_disabled": 0, "name": "1fbd1254398ffc0041f676d955c361ea", "fusion_lat": 0.0, "rental_uris": {"ios": "https://dc.lft.to/lastmile_qr_scan", "android": "https://dc.lft.to/lastmile_qr_scan"}, "lon": -77.0246845, "type": "electric_scooter"}, {"bike_id": "c8ca99a70530dc865816df7099919d5e", "is_reserved": 0, "fusion_lon": 0.0, "lat": 38.918844, "is_disabled": 0, "name": "c8ca99a70530dc865816df7099919d5e", "fusion_lat": 0.0, "rental_uris": {"ios": "https://dc.lft.to/lastmile_qr_scan", "android": "https://dc.lft.to/lastmile_qr_scan"}, "lon": -77.02302933333333, "type": "electric_scooter"}, {"bike_id": "3da64e9912055f4c65f25051b3d5c32f", "is_reserved": 0, "fusion_lon": 0.0, "lat": 38.90015866666667, "is_disabled": 0, "name": "3da64e9912055f4c65f25051b3d5c32f", "fusion_lat": 0.0, "rental_uris": {"ios": "https://dc.lft.to/lastmile_qr_scan", "android": "https://dc.lft.to/lastmile_qr_scan"}, "lon": -77.03016416666667, "type": "electric_scooter"}, {"bike_id": "352aad52061d996266014aacfd5a013b", "is_reserved": 0, "fusion_lon": 0.0, "lat": 38.930817833333336, "is_disabled": 0, "name": "352aad52061d996266014aacfd5a013b", "fusion_lat": 0.0, "rental_uris": {"ios": "https://dc.lft.to/lastmile_qr_scan", "android": "https://dc.lft.to/lastmile_qr_scan"}, "lon": -77.02791816666667, "type": "electric_scooter"}, {"bike_id": "e49b6820575362a8fa11007cebcd3aa9", "is_reserved": 0, "fusion_lon": 0.0, "lat": 38.941816333333335, "is_disabled": 0, "name": "e49b6820575362a8fa11007cebcd3aa9", "fusion_lat": 0.0, "rental_uris": {"ios": "https://dc.lft.to/lastmile_qr_scan", "android": "https://dc.lft.to/lastmile_qr_scan"}, "lon": -77.0252895, "type": "electric_scooter"}, {"bike_id": "c62c7c6503011a067521ec9cfc02a92e", "is_reserved": 0, "fusion_lon": 0.0, "lat": 38.92354783333333, "is_disabled": 0, "name": "c62c7c6503011a067521ec9cfc02a92e", "fusion_lat": 0.0, "rental_uris": {"ios": "https://dc.lft.to/lastmile_qr_scan", "android": "https://dc.lft.to/lastmile_qr_scan"}, "lon": -77.05238883333334, "type": "electric_scooter"}, {"bike_id": "0b093d6a3dad471a2df987db81996f61", "is_reserved": 0, "fusion_lon": 0.0, "lat": 38.894715, "is_disabled": 0, "name": "0b093d6a3dad471a2df987db81996f61", "fusion_lat": 0.0, "rental_uris": {"ios": "https://dc.lft.to/lastmile_qr_scan", "android": "https://dc.lft.to/lastmile_qr_scan"}, "lon": -76.99532333333333, "type": "electric_scooter"}, {"bike_id": "b75f0359ee370466717e77596f91b95e", "is_reserved": 0, "fusion_lon": 0.0, "lat": 38.9346175, "is_disabled": 0, "name": "b75f0359ee370466717e77596f91b95e", "fusion_lat": 0.0, "rental_uris": {"ios": "https://dc.lft.to/lastmile_qr_scan", "android": "https://dc.lft.to/lastmile_qr_scan"}, "lon": -77.0234215, "type": "electric_scooter"}, {"bike_id": "3df565f122c39565fa82582eb39834b7", "is_reserved": 0, "fusion_lon": 0.0, "lat": 38.88408716666667, "is_disabled": 0, "name": "3df565f122c39565fa82582eb39834b7", "fusion_lat": 0.0, "rental_uris": {"ios": "https://dc.lft.to/lastmile_qr_scan", "android": "https://dc.lft.to/lastmile_qr_scan"}, "lon": -77.0177335, "type": "electric_scooter"}, {"bike_id": "60ef6d7aed003e3d09d8327564a51c78", "is_reserved": 0, "fusion_lon": 0.0, "lat": 38.92475566666667, "is_disabled": 0, "name": "60ef6d7aed003e3d09d8327564a51c78", "fusion_lat": 0.0, "rental_uris": {"ios": "https://dc.lft.to/lastmile_qr_scan", "android": "https://dc.lft.to/lastmile_qr_scan"}, "lon": -77.02832933333333, "type": "electric_scooter"}, {"bike_id": "52acfc2b887da8038e042bce0883d314", "is_reserved": 0, "fusion_lon": 0.0, "lat": 38.945096666666664, "is_disabled": 0, "name": "52acfc2b887da8038e042bce0883d314", "fusion_lat": 0.0, "rental_uris": {"ios": "https://dc.lft.to/lastmile_qr_scan", "android": "https://dc.lft.to/lastmile_qr_scan"}, "lon": -77.00672016666667, "type": "electric_bike"}, {"bike_id": "2f8887c59a9bc401c197eaad12f23369", "is_reserved": 0, "fusion_lon": 0.0, "lat": 38.91961333333333, "is_disabled": 0, "name": "2f8887c59a9bc401c197eaad12f23369", "fusion_lat": 0.0, "rental_uris": {"ios": "https://dc.lft.to/lastmile_qr_scan", "android": "https://dc.lft.to/lastmile_qr_scan"}, "lon": -77.03186983333333, "type": "electric_scooter"}, {"bike_id": "52e4695f5b113473bed307002bddef10", "is_reserved": 0, "fusion_lon": 0.0, "lat": 38.8858885, "is_disabled": 0, "name": "52e4695f5b113473bed307002bddef10", "fusion_lat": 0.0, "rental_uris": {"ios": "https://dc.lft.to/lastmile_qr_scan", "android": "https://dc.lft.to/lastmile_qr_scan"}, "lon": -76.95256433333333, "type": "electric_scooter"}, {"bike_id": "95396488871f376088ca0b735c557178", "is_reserved": 0, "fusion_lon": 0.0, "lat": 38.86412766666667, "is_disabled": 0, "name": "95396488871f376088ca0b735c557178", "fusion_lat": 0.0, "rental_uris": {"ios": "https://dc.lft.to/lastmile_qr_scan", "android": "https://dc.lft.to/lastmile_qr_scan"}, "lon": -76.9804765, "type": "electric_scooter"}, {"bike_id": "116fc5b3a513843df3a4fd0a50fff341", "is_reserved": 0, "fusion_lon": 0.0, "lat": 38.83237333333334, "is_disabled": 0, "name": "116fc5b3a513843df3a4fd0a50fff341", "fusion_lat": 0.0, "rental_uris": {"ios": "https://dc.lft.to/lastmile_qr_scan", "android": "https://dc.lft.to/lastmile_qr_scan"}, "lon": -76.94621166666667, "type": "electric_bike"}, {"bike_id": "33e27d2f90b7ab65d4edf5ac2a2716f8", "is_reserved": 0, "fusion_lon": 0.0, "lat": 38.899898666666665, "is_disabled": 0, "name": "33e27d2f90b7ab65d4edf5ac2a2716f8", "fusion_lat": 0.0, "rental_uris": {"ios": "https://dc.lft.to/lastmile_qr_scan", "android": "https://dc.lft.to/lastmile_qr_scan"}, "lon": -76.99496533333334, "type": "electric_scooter"}, {"bike_id": "8cfbc4e78d7b1e1272e6cdfb0ef32ced", "is_reserved": 0, "fusion_lon": 0.0, "lat": 38.89530333333333, "is_disabled": 0, "name": "8cfbc4e78d7b1e1272e6cdfb0ef32ced", "fusion_lat": 0.0, "rental_uris": {"ios": "https://dc.lft.to/lastmile_qr_scan", "android": "https://dc.lft.to/lastmile_qr_scan"}, "lon": -77.0334895, "type": "electric_scooter"}, {"bike_id": "1d5da36c4b218657b73abf8f90eefbf0", "is_reserved": 0, "fusion_lon": 0.0, "lat": 38.924479833333336, "is_disabled": 0, "name": "1d5da36c4b218657b73abf8f90eefbf0", "fusion_lat": 0.0, "rental_uris": {"ios": "https://dc.lft.to/lastmile_qr_scan", "android": "https://dc.lft.to/lastmile_qr_scan"}, "lon": -77.0203245, "type": "electric_scooter"}, {"bike_id": "6cf1ba8679afc37cd78e862368f4ab65", "is_reserved": 0, "fusion_lon": 0.0, "lat": 38.91402433333333, "is_disabled": 0, "name": "6cf1ba8679afc37cd78e862368f4ab65", "fusion_lat": 0.0, "rental_uris": {"ios": "https://dc.lft.to/lastmile_qr_scan", "android": "https://dc.lft.to/lastmile_qr_scan"}, "lon": -77.045684, "type": "electric_scooter"}, {"bike_id": "d9381997a3b171c327e23a4311cf5d6c", "is_reserved": 0, "fusion_lon": 0.0, "lat": 38.9105205, "is_disabled": 0, "name": "d9381997a3b171c327e23a4311cf5d6c", "fusion_lat": 0.0, "rental_uris": {"ios": "https://dc.lft.to/lastmile_qr_scan", "android": "https://dc.lft.to/lastmile_qr_scan"}, "lon": -77.015113, "type": "electric_scooter"}, {"bike_id": "4e31e460b2d93bf8b999e9806439eb30", "is_reserved": 0, "fusion_lon": 0.0, "lat": 38.9244795, "is_disabled": 0, "name": "4e31e460b2d93bf8b999e9806439eb30", "fusion_lat": 0.0, "rental_uris": {"ios": "https://dc.lft.to/lastmile_qr_scan", "android": "https://dc.lft.to/lastmile_qr_scan"}, "lon": -77.03368016666667, "type": "electric_scooter"}, {"bike_id": "b1a130e5369369c6edd412456884a0b7", "is_reserved": 0, "fusion_lon": 0.0, "lat": 38.940951, "is_disabled": 0, "name": "b1a130e5369369c6edd412456884a0b7", "fusion_lat": 0.0, "rental_uris": {"ios": "https://dc.lft.to/lastmile_qr_scan", "android": "https://dc.lft.to/lastmile_qr_scan"}, "lon": -77.0327855, "type": "electric_scooter"}, {"bike_id": "6210fdcc9e15b8cf1566bc615bd1ae4c", "is_reserved": 0, "fusion_lon": 0.0, "lat": 38.97233683333333, "is_disabled": 0, "name": "6210fdcc9e15b8cf1566bc615bd1ae4c", "fusion_lat": 0.0, "rental_uris": {"ios": "https://dc.lft.to/lastmile_qr_scan", "android": "https://dc.lft.to/lastmile_qr_scan"}, "lon": -77.02711633333334, "type": "electric_scooter"}, {"bike_id": "e1b4b9e0cc6ed311ac515f778344673d", "is_reserved": 0, "fusion_lon": 0.0, "lat": 38.864247166666665, "is_disabled": 0, "name": "e1b4b9e0cc6ed311ac515f778344673d", "fusion_lat": 0.0, "rental_uris": {"ios": "https://dc.lft.to/lastmile_qr_scan", "android": "https://dc.lft.to/lastmile_qr_scan"}, "lon": -76.97441716666667, "type": "electric_scooter"}, {"bike_id": "b82fbeb79aae9c054233659e246b2d46", "is_reserved": 0, "fusion_lon": 0.0, "lat": 38.90827066666667, "is_disabled": 0, "name": "b82fbeb79aae9c054233659e246b2d46", "fusion_lat": 0.0, "rental_uris": {"ios": "https://dc.lft.to/lastmile_qr_scan", "android": "https://dc.lft.to/lastmile_qr_scan"}, "lon": -77.04470866666666, "type": "electric_scooter"}, {"bike_id": "52e6606814828d2a919c821cdf751ba4", "is_reserved": 0, "fusion_lon": 0.0, "lat": 38.932007166666665, "is_disabled": 0, "name": "52e6606814828d2a919c821cdf751ba4", "fusion_lat": 0.0, "rental_uris": {"ios": "https://dc.lft.to/lastmile_qr_scan", "android": "https://dc.lft.to/lastmile_qr_scan"}, "lon": -77.03853716666667, "type": "electric_scooter"}, {"bike_id": "347a0e9a594452b8c6f092ca0153e84d", "is_reserved": 0, "fusion_lon": 0.0, "lat": 38.90795116666666, "is_disabled": 0, "name": "347a0e9a594452b8c6f092ca0153e84d", "fusion_lat": 0.0, "rental_uris": {"ios": "https://dc.lft.to/lastmile_qr_scan", "android": "https://dc.lft.to/lastmile_qr_scan"}, "lon": -77.04867033333333, "type": "electric_scooter"}, {"bike_id": "163ab924d9e7a9b0ced629b6342c3d78", "is_reserved": 0, "fusion_lon": 0.0, "lat": 38.905744166666665, "is_disabled": 0, "name": "163ab924d9e7a9b0ced629b6342c3d78", "fusion_lat": 0.0, "rental_uris": {"ios": "https://dc.lft.to/lastmile_qr_scan", "android": "https://dc.lft.to/lastmile_qr_scan"}, "lon": -77.03625266666667, "type": "electric_scooter"}, {"bike_id": "d4103b5f1855df47982d193f295f3f99", "is_reserved": 0, "fusion_lon": 0.0, "lat": 38.923143, "is_disabled": 0, "name": "d4103b5f1855df47982d193f295f3f99", "fusion_lat": 0.0, "rental_uris": {"ios": "https://dc.lft.to/lastmile_qr_scan", "android": "https://dc.lft.to/lastmile_qr_scan"}, "lon": -77.03860666666667, "type": "electric_scooter"}, {"bike_id": "07b7d91a7406ed4ab2897b1b1304756f", "is_reserved": 0, "fusion_lon": 0.0, "lat": 38.919702, "is_disabled": 0, "name": "07b7d91a7406ed4ab2897b1b1304756f", "fusion_lat": 0.0, "rental_uris": {"ios": "https://dc.lft.to/lastmile_qr_scan", "android": "https://dc.lft.to/lastmile_qr_scan"}, "lon": -77.0010365, "type": "electric_scooter"}, {"bike_id": "ac0d3de70071f772175f06beedbb5d8f", "is_reserved": 0, "fusion_lon": 0.0, "lat": 38.896670666666665, "is_disabled": 0, "name": "ac0d3de70071f772175f06beedbb5d8f", "fusion_lat": 0.0, "rental_uris": {"ios": "https://dc.lft.to/lastmile_qr_scan", "android": "https://dc.lft.to/lastmile_qr_scan"}, "lon": -77.0294935, "type": "electric_scooter"}, {"bike_id": "be33b9608877c91a4a4c9fd1869313a2", "is_reserved": 0, "fusion_lon": 0.0, "lat": 38.92340316666667, "is_disabled": 0, "name": "be33b9608877c91a4a4c9fd1869313a2", "fusion_lat": 0.0, "rental_uris": {"ios": "https://dc.lft.to/lastmile_qr_scan", "android": "https://dc.lft.to/lastmile_qr_scan"}, "lon": -77.01903933333334, "type": "electric_scooter"}, {"bike_id": "21ac4aa17c73bb7e76df3b6f2376e05b", "is_reserved": 0, "fusion_lon": 0.0, "lat": 38.95778166666667, "is_disabled": 0, "name": "21ac4aa17c73bb7e76df3b6f2376e05b", "fusion_lat": 0.0, "rental_uris": {"ios": "https://dc.lft.to/lastmile_qr_scan", "android": "https://dc.lft.to/lastmile_qr_scan"}, "lon": -77.027503, "type": "electric_bike"}, {"bike_id": "62d193c2e057ab2c95b9f0ffa886041f", "is_reserved": 0, "fusion_lon": 0.0, "lat": 38.92324083333333, "is_disabled": 0, "name": "62d193c2e057ab2c95b9f0ffa886041f", "fusion_lat": 0.0, "rental_uris": {"ios": "https://dc.lft.to/lastmile_qr_scan", "android": "https://dc.lft.to/lastmile_qr_scan"}, "lon": -77.04389283333333, "type": "electric_scooter"}, {"bike_id": "1e70f539444113333e31b52c858f3156", "is_reserved": 0, "fusion_lon": 0.0, "lat": 38.920658, "is_disabled": 0, "name": "1e70f539444113333e31b52c858f3156", "fusion_lat": 0.0, "rental_uris": {"ios": "https://dc.lft.to/lastmile_qr_scan", "android": "https://dc.lft.to/lastmile_qr_scan"}, "lon": -76.97798883333333, "type": "electric_scooter"}, {"bike_id": "4a9b780eb472992ad35aec449c09bc8c", "is_reserved": 0, "fusion_lon": 0.0, "lat": 38.90588416666667, "is_disabled": 0, "name": "4a9b780eb472992ad35aec449c09bc8c", "fusion_lat": 0.0, "rental_uris": {"ios": "https://dc.lft.to/lastmile_qr_scan", "android": "https://dc.lft.to/lastmile_qr_scan"}, "lon": -77.0651785, "type": "electric_scooter"}, {"bike_id": "909dda0e32e997e45f58e2262f97b79d", "is_reserved": 0, "fusion_lon": 0.0, "lat": 38.920531, "is_disabled": 0, "name": "909dda0e32e997e45f58e2262f97b79d", "fusion_lat": 0.0, "rental_uris": {"ios": "https://dc.lft.to/lastmile_qr_scan", "android": "https://dc.lft.to/lastmile_qr_scan"}, "lon": -77.03396216666667, "type": "electric_scooter"}, {"bike_id": "370ca56346c80526a7f21c8584616dce", "is_reserved": 0, "fusion_lon": 0.0, "lat": 38.9050485, "is_disabled": 0, "name": "370ca56346c80526a7f21c8584616dce", "fusion_lat": 0.0, "rental_uris": {"ios": "https://dc.lft.to/lastmile_qr_scan", "android": "https://dc.lft.to/lastmile_qr_scan"}, "lon": -77.06383516666666, "type": "electric_scooter"}, {"bike_id": "bab7417e99c55412d897912276e4aba1", "is_reserved": 0, "fusion_lon": 0.0, "lat": 38.911182833333335, "is_disabled": 0, "name": "bab7417e99c55412d897912276e4aba1", "fusion_lat": 0.0, "rental_uris": {"ios": "https://dc.lft.to/lastmile_qr_scan", "android": "https://dc.lft.to/lastmile_qr_scan"}, "lon": -77.0465595, "type": "electric_scooter"}, {"bike_id": "3f3ac1b44b861762759582d8dace76c5", "is_reserved": 0, "fusion_lon": 0.0, "lat": 38.920525, "is_disabled": 0, "name": "3f3ac1b44b861762759582d8dace76c5", "fusion_lat": 0.0, "rental_uris": {"ios": "https://dc.lft.to/lastmile_qr_scan", "android": "https://dc.lft.to/lastmile_qr_scan"}, "lon": -77.03316316666667, "type": "electric_bike"}, {"bike_id": "47ce321723254383d31c7a8bb7d3c7f8", "is_reserved": 0, "fusion_lon": 0.0, "lat": 38.914182333333336, "is_disabled": 0, "name": "47ce321723254383d31c7a8bb7d3c7f8", "fusion_lat": 0.0, "rental_uris": {"ios": "https://dc.lft.to/lastmile_qr_scan", "android": "https://dc.lft.to/lastmile_qr_scan"}, "lon": -77.0381355, "type": "electric_scooter"}, {"bike_id": "b8f5fec4cf80744299652f04eedb8f4a", "is_reserved": 0, "fusion_lon": 0.0, "lat": 38.89488983333333, "is_disabled": 0, "name": "b8f5fec4cf80744299652f04eedb8f4a", "fusion_lat": 0.0, "rental_uris": {"ios": "https://dc.lft.to/lastmile_qr_scan", "android": "https://dc.lft.to/lastmile_qr_scan"}, "lon": -77.02290283333333, "type": "electric_scooter"}, {"bike_id": "d31ec9bffb06bca61162c7132a43d9af", "is_reserved": 0, "fusion_lon": 0.0, "lat": 38.93081333333333, "is_disabled": 0, "name": "d31ec9bffb06bca61162c7132a43d9af", "fusion_lat": 0.0, "rental_uris": {"ios": "https://dc.lft.to/lastmile_qr_scan", "android": "https://dc.lft.to/lastmile_qr_scan"}, "lon": -77.02790966666667, "type": "electric_scooter"}, {"bike_id": "17b3c8652f5fa09a5d266c35a3a63fab", "is_reserved": 0, "fusion_lon": 0.0, "lat": 38.83988083333333, "is_disabled": 0, "name": "17b3c8652f5fa09a5d266c35a3a63fab", "fusion_lat": 0.0, "rental_uris": {"ios": "https://dc.lft.to/lastmile_qr_scan", "android": "https://dc.lft.to/lastmile_qr_scan"}, "lon": -77.00566966666666, "type": "electric_bike"}, {"bike_id": "b97fe0784cd681ae50a4c7f756d28965", "is_reserved": 0, "fusion_lon": 0.0, "lat": 38.901447833333336, "is_disabled": 0, "name": "b97fe0784cd681ae50a4c7f756d28965", "fusion_lat": 0.0, "rental_uris": {"ios": "https://dc.lft.to/lastmile_qr_scan", "android": "https://dc.lft.to/lastmile_qr_scan"}, "lon": -77.02846716666667, "type": "electric_scooter"}, {"bike_id": "3d86563370a693146d271b9b2b7a8c37", "is_reserved": 0, "fusion_lon": 0.0, "lat": 38.866582333333334, "is_disabled": 0, "name": "3d86563370a693146d271b9b2b7a8c37", "fusion_lat": 0.0, "rental_uris": {"ios": "https://dc.lft.to/lastmile_qr_scan", "android": "https://dc.lft.to/lastmile_qr_scan"}, "lon": -76.99014266666667, "type": "electric_scooter"}, {"bike_id": "148f0ea43a74e87d366688acddcfcc3d", "is_reserved": 0, "fusion_lon": 0.0, "lat": 38.9167165, "is_disabled": 0, "name": "148f0ea43a74e87d366688acddcfcc3d", "fusion_lat": 0.0, "rental_uris": {"ios": "https://dc.lft.to/lastmile_qr_scan", "android": "https://dc.lft.to/lastmile_qr_scan"}, "lon": -77.02941016666666, "type": "electric_scooter"}, {"bike_id": "8a5094523fa080a266a98b128886c757", "is_reserved": 0, "fusion_lon": 0.0, "lat": 38.88133533333333, "is_disabled": 0, "name": "8a5094523fa080a266a98b128886c757", "fusion_lat": 0.0, "rental_uris": {"ios": "https://dc.lft.to/lastmile_qr_scan", "android": "https://dc.lft.to/lastmile_qr_scan"}, "lon": -76.98086616666667, "type": "electric_bike"}, {"bike_id": "4ac1f573cba5b443fe6670807b2112ed", "is_reserved": 0, "fusion_lon": 0.0, "lat": 38.898261, "is_disabled": 0, "name": "4ac1f573cba5b443fe6670807b2112ed", "fusion_lat": 0.0, "rental_uris": {"ios": "https://dc.lft.to/lastmile_qr_scan", "android": "https://dc.lft.to/lastmile_qr_scan"}, "lon": -76.94648466666666, "type": "electric_scooter"}, {"bike_id": "07e143b711ade9bbe6a8d746e9d08875", "is_reserved": 0, "fusion_lon": 0.0, "lat": 38.90096966666667, "is_disabled": 0, "name": "07e143b711ade9bbe6a8d746e9d08875", "fusion_lat": 0.0, "rental_uris": {"ios": "https://dc.lft.to/lastmile_qr_scan", "android": "https://dc.lft.to/lastmile_qr_scan"}, "lon": -77.0510235, "type": "electric_scooter"}, {"bike_id": "faa6d830c1d5b9a5167f8a577e2dfdf3", "is_reserved": 0, "fusion_lon": 0.0, "lat": 38.9049295, "is_disabled": 0, "name": "faa6d830c1d5b9a5167f8a577e2dfdf3", "fusion_lat": 0.0, "rental_uris": {"ios": "https://dc.lft.to/lastmile_qr_scan", "android": "https://dc.lft.to/lastmile_qr_scan"}, "lon": -77.05747183333334, "type": "electric_scooter"}, {"bike_id": "a9af49e0082aa6adbe3e1c8a416d399d", "is_reserved": 0, "fusion_lon": 0.0, "lat": 38.914213833333335, "is_disabled": 0, "name": "a9af49e0082aa6adbe3e1c8a416d399d", "fusion_lat": 0.0, "rental_uris": {"ios": "https://dc.lft.to/lastmile_qr_scan", "android": "https://dc.lft.to/lastmile_qr_scan"}, "lon": -77.0415535, "type": "electric_scooter"}, {"bike_id": "3c6ff53a69e09aa1f2da814c29c1060a", "is_reserved": 0, "fusion_lon": 0.0, "lat": 38.919963, "is_disabled": 0, "name": "3c6ff53a69e09aa1f2da814c29c1060a", "fusion_lat": 0.0, "rental_uris": {"ios": "https://dc.lft.to/lastmile_qr_scan", "android": "https://dc.lft.to/lastmile_qr_scan"}, "lon": -77.034709, "type": "electric_scooter"}, {"bike_id": "c312e06b707f9c6158041d600c711873", "is_reserved": 0, "fusion_lon": 0.0, "lat": 38.900555, "is_disabled": 0, "name": "c312e06b707f9c6158041d600c711873", "fusion_lat": 0.0, "rental_uris": {"ios": "https://dc.lft.to/lastmile_qr_scan", "android": "https://dc.lft.to/lastmile_qr_scan"}, "lon": -77.05140766666666, "type": "electric_scooter"}, {"bike_id": "f92825d30e1086d34e9723803f2d5394", "is_reserved": 0, "fusion_lon": 0.0, "lat": 38.90333116666667, "is_disabled": 0, "name": "f92825d30e1086d34e9723803f2d5394", "fusion_lat": 0.0, "rental_uris": {"ios": "https://dc.lft.to/lastmile_qr_scan", "android": "https://dc.lft.to/lastmile_qr_scan"}, "lon": -77.06585683333333, "type": "electric_scooter"}, {"bike_id": "bd33f3b7d942c41762e8c4ba9a0d8e09", "is_reserved": 0, "fusion_lon": 0.0, "lat": 38.898255166666665, "is_disabled": 0, "name": "bd33f3b7d942c41762e8c4ba9a0d8e09", "fusion_lat": 0.0, "rental_uris": {"ios": "https://dc.lft.to/lastmile_qr_scan", "android": "https://dc.lft.to/lastmile_qr_scan"}, "lon": -77.0073215, "type": "electric_scooter"}, {"bike_id": "aadfcc3e3fa434bcedf91f27369e8dc7", "is_reserved": 0, "fusion_lon": 0.0, "lat": 38.913846666666664, "is_disabled": 0, "name": "aadfcc3e3fa434bcedf91f27369e8dc7", "fusion_lat": 0.0, "rental_uris": {"ios": "https://dc.lft.to/lastmile_qr_scan", "android": "https://dc.lft.to/lastmile_qr_scan"}, "lon": -77.017952, "type": "electric_scooter"}, {"bike_id": "66ce0065f5b153e79e9493314f3feeee", "is_reserved": 0, "fusion_lon": 0.0, "lat": 38.9180845, "is_disabled": 0, "name": "66ce0065f5b153e79e9493314f3feeee", "fusion_lat": 0.0, "rental_uris": {"ios": "https://dc.lft.to/lastmile_qr_scan", "android": "https://dc.lft.to/lastmile_qr_scan"}, "lon": -77.03439766666666, "type": "electric_scooter"}, {"bike_id": "5fca7ec95dc247558d6669d0deaaa5c5", "is_reserved": 0, "fusion_lon": 0.0, "lat": 38.914033, "is_disabled": 0, "name": "5fca7ec95dc247558d6669d0deaaa5c5", "fusion_lat": 0.0, "rental_uris": {"ios": "https://dc.lft.to/lastmile_qr_scan", "android": "https://dc.lft.to/lastmile_qr_scan"}, "lon": -77.04137066666667, "type": "electric_scooter"}, {"bike_id": "36b7381ceabbfacf7c545b83c7dc793b", "is_reserved": 0, "fusion_lon": 0.0, "lat": 38.9086545, "is_disabled": 0, "name": "36b7381ceabbfacf7c545b83c7dc793b", "fusion_lat": 0.0, "rental_uris": {"ios": "https://dc.lft.to/lastmile_qr_scan", "android": "https://dc.lft.to/lastmile_qr_scan"}, "lon": -77.00628533333334, "type": "electric_scooter"}, {"bike_id": "830660d4e569330afd63eb0ce9a58597", "is_reserved": 0, "fusion_lon": 0.0, "lat": 38.924142333333336, "is_disabled": 0, "name": "830660d4e569330afd63eb0ce9a58597", "fusion_lat": 0.0, "rental_uris": {"ios": "https://dc.lft.to/lastmile_qr_scan", "android": "https://dc.lft.to/lastmile_qr_scan"}, "lon": -76.99735016666666, "type": "electric_bike"}, {"bike_id": "a28e13f8c71a73087c09c60852fffaad", "is_reserved": 0, "fusion_lon": 0.0, "lat": 38.91771833333333, "is_disabled": 0, "name": "a28e13f8c71a73087c09c60852fffaad", "fusion_lat": 0.0, "rental_uris": {"ios": "https://dc.lft.to/lastmile_qr_scan", "android": "https://dc.lft.to/lastmile_qr_scan"}, "lon": -77.04053583333334, "type": "electric_scooter"}, {"bike_id": "303b49cb2b6289908f922409abb968b5", "is_reserved": 0, "fusion_lon": 0.0, "lat": 38.842955, "is_disabled": 0, "name": "303b49cb2b6289908f922409abb968b5", "fusion_lat": 0.0, "rental_uris": {"ios": "https://dc.lft.to/lastmile_qr_scan", "android": "https://dc.lft.to/lastmile_qr_scan"}, "lon": -76.9994925, "type": "electric_scooter"}, {"bike_id": "20cba4b4c8394ad9769cb4ca98578891", "is_reserved": 0, "fusion_lon": 0.0, "lat": 38.93671883333333, "is_disabled": 0, "name": "20cba4b4c8394ad9769cb4ca98578891", "fusion_lat": 0.0, "rental_uris": {"ios": "https://dc.lft.to/lastmile_qr_scan", "android": "https://dc.lft.to/lastmile_qr_scan"}, "lon": -77.03590533333333, "type": "electric_scooter"}, {"bike_id": "a56aaceb9b83e4df1394a3fc66f73b3c", "is_reserved": 0, "fusion_lon": 0.0, "lat": 38.88311683333333, "is_disabled": 0, "name": "a56aaceb9b83e4df1394a3fc66f73b3c", "fusion_lat": 0.0, "rental_uris": {"ios": "https://dc.lft.to/lastmile_qr_scan", "android": "https://dc.lft.to/lastmile_qr_scan"}, "lon": -77.00595666666666, "type": "electric_scooter"}, {"bike_id": "6ba2ce1c690c6ec3698a3617737b471d", "is_reserved": 0, "fusion_lon": 0.0, "lat": 38.91091983333333, "is_disabled": 0, "name": "6ba2ce1c690c6ec3698a3617737b471d", "fusion_lat": 0.0, "rental_uris": {"ios": "https://dc.lft.to/lastmile_qr_scan", "android": "https://dc.lft.to/lastmile_qr_scan"}, "lon": -77.03855183333333, "type": "electric_scooter"}, {"bike_id": "e5021303431d77b8558f3bb7f34c9dcd", "is_reserved": 0, "fusion_lon": 0.0, "lat": 38.8848665, "is_disabled": 0, "name": "e5021303431d77b8558f3bb7f34c9dcd", "fusion_lat": 0.0, "rental_uris": {"ios": "https://dc.lft.to/lastmile_qr_scan", "android": "https://dc.lft.to/lastmile_qr_scan"}, "lon": -77.007196, "type": "electric_scooter"}, {"bike_id": "2ee20dba0cf1182ecf03287b96a286e7", "is_reserved": 0, "fusion_lon": 0.0, "lat": 38.9264985, "is_disabled": 0, "name": "2ee20dba0cf1182ecf03287b96a286e7", "fusion_lat": 0.0, "rental_uris": {"ios": "https://dc.lft.to/lastmile_qr_scan", "android": "https://dc.lft.to/lastmile_qr_scan"}, "lon": -77.037031, "type": "electric_scooter"}, {"bike_id": "10e09cdd3468ab96d1619f7ce7586c70", "is_reserved": 0, "fusion_lon": 0.0, "lat": 38.918121, "is_disabled": 0, "name": "10e09cdd3468ab96d1619f7ce7586c70", "fusion_lat": 0.0, "rental_uris": {"ios": "https://dc.lft.to/lastmile_qr_scan", "android": "https://dc.lft.to/lastmile_qr_scan"}, "lon": -77.034384, "type": "electric_scooter"}, {"bike_id": "0d099af1436ca5e701f4da80fbed450b", "is_reserved": 0, "fusion_lon": 0.0, "lat": 38.93398366666667, "is_disabled": 0, "name": "0d099af1436ca5e701f4da80fbed450b", "fusion_lat": 0.0, "rental_uris": {"ios": "https://dc.lft.to/lastmile_qr_scan", "android": "https://dc.lft.to/lastmile_qr_scan"}, "lon": -77.03882333333334, "type": "electric_scooter"}, {"bike_id": "cac3672d6573609f09afd0bbb05ade82", "is_reserved": 0, "fusion_lon": 0.0, "lat": 38.95911533333334, "is_disabled": 0, "name": "cac3672d6573609f09afd0bbb05ade82", "fusion_lat": 0.0, "rental_uris": {"ios": "https://dc.lft.to/lastmile_qr_scan", "android": "https://dc.lft.to/lastmile_qr_scan"}, "lon": -77.08074033333334, "type": "electric_scooter"}, {"bike_id": "a39c132d2a0f13eda99bb78b24fc6166", "is_reserved": 0, "fusion_lon": 0.0, "lat": 38.944130333333334, "is_disabled": 0, "name": "a39c132d2a0f13eda99bb78b24fc6166", "fusion_lat": 0.0, "rental_uris": {"ios": "https://dc.lft.to/lastmile_qr_scan", "android": "https://dc.lft.to/lastmile_qr_scan"}, "lon": -77.055131, "type": "electric_scooter"}, {"bike_id": "be022aa6ada638dc58c231f223d93474", "is_reserved": 0, "fusion_lon": 0.0, "lat": 38.904568, "is_disabled": 0, "name": "be022aa6ada638dc58c231f223d93474", "fusion_lat": 0.0, "rental_uris": {"ios": "https://dc.lft.to/lastmile_qr_scan", "android": "https://dc.lft.to/lastmile_qr_scan"}, "lon": -77.03213133333334, "type": "electric_scooter"}, {"bike_id": "b6942cf784350e81913c5747d2bc3db5", "is_reserved": 0, "fusion_lon": 0.0, "lat": 38.894858166666666, "is_disabled": 0, "name": "b6942cf784350e81913c5747d2bc3db5", "fusion_lat": 0.0, "rental_uris": {"ios": "https://dc.lft.to/lastmile_qr_scan", "android": "https://dc.lft.to/lastmile_qr_scan"}, "lon": -77.02285183333333, "type": "electric_scooter"}, {"bike_id": "97719e3ce1891aae6a7ee9636ea9608c", "is_reserved": 0, "fusion_lon": 0.0, "lat": 38.91715466666667, "is_disabled": 0, "name": "97719e3ce1891aae6a7ee9636ea9608c", "fusion_lat": 0.0, "rental_uris": {"ios": "https://dc.lft.to/lastmile_qr_scan", "android": "https://dc.lft.to/lastmile_qr_scan"}, "lon": -77.01204383333334, "type": "electric_scooter"}, {"bike_id": "ef7af94a4adc1fbb481195f9afb05089", "is_reserved": 0, "fusion_lon": 0.0, "lat": 38.929475333333336, "is_disabled": 0, "name": "ef7af94a4adc1fbb481195f9afb05089", "fusion_lat": 0.0, "rental_uris": {"ios": "https://dc.lft.to/lastmile_qr_scan", "android": "https://dc.lft.to/lastmile_qr_scan"}, "lon": -77.043952, "type": "electric_scooter"}, {"bike_id": "b9eee7bc6090d43800d4e95ebac8ade2", "is_reserved": 0, "fusion_lon": 0.0, "lat": 38.80225, "is_disabled": 0, "name": "b9eee7bc6090d43800d4e95ebac8ade2", "fusion_lat": 0.0, "rental_uris": {"ios": "https://dc.lft.to/lastmile_qr_scan", "android": "https://dc.lft.to/lastmile_qr_scan"}, "lon": -77.07912716666667, "type": "electric_bike"}, {"bike_id": "723988b8908b384138863ca9e70394df", "is_reserved": 0, "fusion_lon": 0.0, "lat": 38.9014395, "is_disabled": 0, "name": "723988b8908b384138863ca9e70394df", "fusion_lat": 0.0, "rental_uris": {"ios": "https://dc.lft.to/lastmile_qr_scan", "android": "https://dc.lft.to/lastmile_qr_scan"}, "lon": -77.03330233333334, "type": "electric_scooter"}, {"bike_id": "db2f1e7fb2cfd1886599f9efb22c1589", "is_reserved": 0, "fusion_lon": 0.0, "lat": 38.9069395, "is_disabled": 0, "name": "db2f1e7fb2cfd1886599f9efb22c1589", "fusion_lat": 0.0, "rental_uris": {"ios": "https://dc.lft.to/lastmile_qr_scan", "android": "https://dc.lft.to/lastmile_qr_scan"}, "lon": -76.9518895, "type": "electric_bike"}, {"bike_id": "791cb0cac64408d8fbabfccbdecf0a3c", "is_reserved": 0, "fusion_lon": 0.0, "lat": 38.95879683333333, "is_disabled": 0, "name": "791cb0cac64408d8fbabfccbdecf0a3c", "fusion_lat": 0.0, "rental_uris": {"ios": "https://dc.lft.to/lastmile_qr_scan", "android": "https://dc.lft.to/lastmile_qr_scan"}, "lon": -77.01030883333334, "type": "electric_bike"}, {"bike_id": "f161bc5b9084234d3462a0a5797a16c2", "is_reserved": 0, "fusion_lon": 0.0, "lat": 38.93201466666667, "is_disabled": 0, "name": "f161bc5b9084234d3462a0a5797a16c2", "fusion_lat": 0.0, "rental_uris": {"ios": "https://dc.lft.to/lastmile_qr_scan", "android": "https://dc.lft.to/lastmile_qr_scan"}, "lon": -77.03875, "type": "electric_scooter"}, {"bike_id": "5c8a2554e8373382bd238c22e8f005a7", "is_reserved": 0, "fusion_lon": 0.0, "lat": 38.915652, "is_disabled": 0, "name": "5c8a2554e8373382bd238c22e8f005a7", "fusion_lat": 0.0, "rental_uris": {"ios": "https://dc.lft.to/lastmile_qr_scan", "android": "https://dc.lft.to/lastmile_qr_scan"}, "lon": -77.03840933333333, "type": "electric_scooter"}, {"bike_id": "f52e317734ccc616ffc073097b35f820", "is_reserved": 0, "fusion_lon": 0.0, "lat": 38.905737333333335, "is_disabled": 0, "name": "f52e317734ccc616ffc073097b35f820", "fusion_lat": 0.0, "rental_uris": {"ios": "https://dc.lft.to/lastmile_qr_scan", "android": "https://dc.lft.to/lastmile_qr_scan"}, "lon": -77.02204516666667, "type": "electric_scooter"}, {"bike_id": "64ed31eac33d6c13a1e5a8df849be47b", "is_reserved": 0, "fusion_lon": 0.0, "lat": 38.936232, "is_disabled": 0, "name": "64ed31eac33d6c13a1e5a8df849be47b", "fusion_lat": 0.0, "rental_uris": {"ios": "https://dc.lft.to/lastmile_qr_scan", "android": "https://dc.lft.to/lastmile_qr_scan"}, "lon": -77.05570616666667, "type": "electric_scooter"}, {"bike_id": "327807676cc3e292b64d31fb9ae9097a", "is_reserved": 0, "fusion_lon": 0.0, "lat": 38.9014995, "is_disabled": 0, "name": "327807676cc3e292b64d31fb9ae9097a", "fusion_lat": 0.0, "rental_uris": {"ios": "https://dc.lft.to/lastmile_qr_scan", "android": "https://dc.lft.to/lastmile_qr_scan"}, "lon": -76.9306485, "type": "electric_scooter"}, {"bike_id": "260c477b1f4c6d8df461f2392d05aa5d", "is_reserved": 0, "fusion_lon": 0.0, "lat": 38.900359333333334, "is_disabled": 0, "name": "260c477b1f4c6d8df461f2392d05aa5d", "fusion_lat": 0.0, "rental_uris": {"ios": "https://dc.lft.to/lastmile_qr_scan", "android": "https://dc.lft.to/lastmile_qr_scan"}, "lon": -77.011896, "type": "electric_scooter"}, {"bike_id": "39f2c90e8628b67ef128a1e928a70798", "is_reserved": 0, "fusion_lon": 0.0, "lat": 38.92232333333333, "is_disabled": 0, "name": "39f2c90e8628b67ef128a1e928a70798", "fusion_lat": 0.0, "rental_uris": {"ios": "https://dc.lft.to/lastmile_qr_scan", "android": "https://dc.lft.to/lastmile_qr_scan"}, "lon": -77.0333685, "type": "electric_scooter"}, {"bike_id": "35c359827f411b99fb13b778c45828c7", "is_reserved": 0, "fusion_lon": 0.0, "lat": 38.91874083333333, "is_disabled": 0, "name": "35c359827f411b99fb13b778c45828c7", "fusion_lat": 0.0, "rental_uris": {"ios": "https://dc.lft.to/lastmile_qr_scan", "android": "https://dc.lft.to/lastmile_qr_scan"}, "lon": -77.04377116666667, "type": "electric_scooter"}, {"bike_id": "cf7704c0ba823cb9dbbcfcff9294fb03", "is_reserved": 0, "fusion_lon": 0.0, "lat": 38.914195166666666, "is_disabled": 0, "name": "cf7704c0ba823cb9dbbcfcff9294fb03", "fusion_lat": 0.0, "rental_uris": {"ios": "https://dc.lft.to/lastmile_qr_scan", "android": "https://dc.lft.to/lastmile_qr_scan"}, "lon": -77.03906466666666, "type": "electric_scooter"}, {"bike_id": "ef289f69d1156d180a33978ba1f7bbc6", "is_reserved": 0, "fusion_lon": 0.0, "lat": 38.92682033333333, "is_disabled": 0, "name": "ef289f69d1156d180a33978ba1f7bbc6", "fusion_lat": 0.0, "rental_uris": {"ios": "https://dc.lft.to/lastmile_qr_scan", "android": "https://dc.lft.to/lastmile_qr_scan"}, "lon": -77.09545966666667, "type": "electric_scooter"}, {"bike_id": "0a34268bad1a0ba53a4613359e2ef855", "is_reserved": 0, "fusion_lon": 0.0, "lat": 38.91149333333333, "is_disabled": 0, "name": "0a34268bad1a0ba53a4613359e2ef855", "fusion_lat": 0.0, "rental_uris": {"ios": "https://dc.lft.to/lastmile_qr_scan", "android": "https://dc.lft.to/lastmile_qr_scan"}, "lon": -77.0416965, "type": "electric_scooter"}, {"bike_id": "a4ff666826ac8d4023aaee4ce7d64a08", "is_reserved": 0, "fusion_lon": 0.0, "lat": 38.915955, "is_disabled": 0, "name": "a4ff666826ac8d4023aaee4ce7d64a08", "fusion_lat": 0.0, "rental_uris": {"ios": "https://dc.lft.to/lastmile_qr_scan", "android": "https://dc.lft.to/lastmile_qr_scan"}, "lon": -77.04476266666667, "type": "electric_scooter"}, {"bike_id": "02cf1c11413b3d2dd969a68df889288a", "is_reserved": 0, "fusion_lon": 0.0, "lat": 38.91818466666667, "is_disabled": 0, "name": "02cf1c11413b3d2dd969a68df889288a", "fusion_lat": 0.0, "rental_uris": {"ios": "https://dc.lft.to/lastmile_qr_scan", "android": "https://dc.lft.to/lastmile_qr_scan"}, "lon": -77.041671, "type": "electric_scooter"}, {"bike_id": "7873494bc6275d3d5e52e5937c8fa68f", "is_reserved": 0, "fusion_lon": 0.0, "lat": 38.879803833333334, "is_disabled": 0, "name": "7873494bc6275d3d5e52e5937c8fa68f", "fusion_lat": 0.0, "rental_uris": {"ios": "https://dc.lft.to/lastmile_qr_scan", "android": "https://dc.lft.to/lastmile_qr_scan"}, "lon": -76.91599866666667, "type": "electric_bike"}, {"bike_id": "4972adaea3f19513ba1a4fed510dab24", "is_reserved": 0, "fusion_lon": 0.0, "lat": 38.909596, "is_disabled": 0, "name": "4972adaea3f19513ba1a4fed510dab24", "fusion_lat": 0.0, "rental_uris": {"ios": "https://dc.lft.to/lastmile_qr_scan", "android": "https://dc.lft.to/lastmile_qr_scan"}, "lon": -77.03165233333333, "type": "electric_scooter"}, {"bike_id": "db0b412dd91a59f7e915055e267c36cd", "is_reserved": 0, "fusion_lon": 0.0, "lat": 38.940660666666666, "is_disabled": 0, "name": "db0b412dd91a59f7e915055e267c36cd", "fusion_lat": 0.0, "rental_uris": {"ios": "https://dc.lft.to/lastmile_qr_scan", "android": "https://dc.lft.to/lastmile_qr_scan"}, "lon": -76.99458866666667, "type": "electric_scooter"}, {"bike_id": "df8f93b88d28d0be2c5c201f9aaf1076", "is_reserved": 0, "fusion_lon": 0.0, "lat": 38.9255175, "is_disabled": 0, "name": "df8f93b88d28d0be2c5c201f9aaf1076", "fusion_lat": 0.0, "rental_uris": {"ios": "https://dc.lft.to/lastmile_qr_scan", "android": "https://dc.lft.to/lastmile_qr_scan"}, "lon": -77.07326783333333, "type": "electric_bike"}, {"bike_id": "01ae99888f3a251d538238afe1734f20", "is_reserved": 0, "fusion_lon": 0.0, "lat": 38.87135416666667, "is_disabled": 0, "name": "01ae99888f3a251d538238afe1734f20", "fusion_lat": 0.0, "rental_uris": {"ios": "https://dc.lft.to/lastmile_qr_scan", "android": "https://dc.lft.to/lastmile_qr_scan"}, "lon": -76.97729766666667, "type": "electric_scooter"}, {"bike_id": "3b4f73f47c9a866a21d53f9bdc25b0c9", "is_reserved": 0, "fusion_lon": 0.0, "lat": 38.9248025, "is_disabled": 0, "name": "3b4f73f47c9a866a21d53f9bdc25b0c9", "fusion_lat": 0.0, "rental_uris": {"ios": "https://dc.lft.to/lastmile_qr_scan", "android": "https://dc.lft.to/lastmile_qr_scan"}, "lon": -77.0521205, "type": "electric_scooter"}, {"bike_id": "3b5c95983b58222145f48f4b3d8cef38", "is_reserved": 0, "fusion_lon": 0.0, "lat": 38.919919666666665, "is_disabled": 0, "name": "3b5c95983b58222145f48f4b3d8cef38", "fusion_lat": 0.0, "rental_uris": {"ios": "https://dc.lft.to/lastmile_qr_scan", "android": "https://dc.lft.to/lastmile_qr_scan"}, "lon": -77.03877433333334, "type": "electric_scooter"}, {"bike_id": "e78365b1f9ec9c773ddf8be8b134bccb", "is_reserved": 0, "fusion_lon": 0.0, "lat": 38.925117666666665, "is_disabled": 0, "name": "e78365b1f9ec9c773ddf8be8b134bccb", "fusion_lat": 0.0, "rental_uris": {"ios": "https://dc.lft.to/lastmile_qr_scan", "android": "https://dc.lft.to/lastmile_qr_scan"}, "lon": -77.01929983333333, "type": "electric_scooter"}, {"bike_id": "dc91f869632467e91939e09d4cc75026", "is_reserved": 0, "fusion_lon": 0.0, "lat": 38.858769, "is_disabled": 0, "name": "dc91f869632467e91939e09d4cc75026", "fusion_lat": 0.0, "rental_uris": {"ios": "https://dc.lft.to/lastmile_qr_scan", "android": "https://dc.lft.to/lastmile_qr_scan"}, "lon": -77.09556266666667, "type": "electric_bike"}, {"bike_id": "3e96178158aa136dd3090db9b6500bef", "is_reserved": 0, "fusion_lon": 0.0, "lat": 38.865220666666666, "is_disabled": 0, "name": "3e96178158aa136dd3090db9b6500bef", "fusion_lat": 0.0, "rental_uris": {"ios": "https://dc.lft.to/lastmile_qr_scan", "android": "https://dc.lft.to/lastmile_qr_scan"}, "lon": -76.99029133333333, "type": "electric_scooter"}, {"bike_id": "2f6e2a3148bb0993a32c9c3b9e676a90", "is_reserved": 0, "fusion_lon": 0.0, "lat": 38.920804333333336, "is_disabled": 0, "name": "2f6e2a3148bb0993a32c9c3b9e676a90", "fusion_lat": 0.0, "rental_uris": {"ios": "https://dc.lft.to/lastmile_qr_scan", "android": "https://dc.lft.to/lastmile_qr_scan"}, "lon": -77.02399216666667, "type": "electric_scooter"}, {"bike_id": "4c8ce22064295f72e50753b1004bcb74", "is_reserved": 0, "fusion_lon": 0.0, "lat": 38.90568483333333, "is_disabled": 0, "name": "4c8ce22064295f72e50753b1004bcb74", "fusion_lat": 0.0, "rental_uris": {"ios": "https://dc.lft.to/lastmile_qr_scan", "android": "https://dc.lft.to/lastmile_qr_scan"}, "lon": -77.03078, "type": "electric_scooter"}, {"bike_id": "45d757afd8b905f6737d283a62f7a65a", "is_reserved": 0, "fusion_lon": 0.0, "lat": 38.91119183333333, "is_disabled": 0, "name": "45d757afd8b905f6737d283a62f7a65a", "fusion_lat": 0.0, "rental_uris": {"ios": "https://dc.lft.to/lastmile_qr_scan", "android": "https://dc.lft.to/lastmile_qr_scan"}, "lon": -77.03839283333333, "type": "electric_scooter"}, {"bike_id": "4570eca0214232c81d635bd17930869d", "is_reserved": 0, "fusion_lon": 0.0, "lat": 38.89849683333333, "is_disabled": 0, "name": "4570eca0214232c81d635bd17930869d", "fusion_lat": 0.0, "rental_uris": {"ios": "https://dc.lft.to/lastmile_qr_scan", "android": "https://dc.lft.to/lastmile_qr_scan"}, "lon": -76.99026516666666, "type": "electric_scooter"}, {"bike_id": "8e6d2e02755a5f15489f567e856926b9", "is_reserved": 0, "fusion_lon": 0.0, "lat": 38.90112233333333, "is_disabled": 0, "name": "8e6d2e02755a5f15489f567e856926b9", "fusion_lat": 0.0, "rental_uris": {"ios": "https://dc.lft.to/lastmile_qr_scan", "android": "https://dc.lft.to/lastmile_qr_scan"}, "lon": -77.03171566666667, "type": "electric_scooter"}, {"bike_id": "a3d84fcfa7d3368f0b44098992173f57", "is_reserved": 0, "fusion_lon": 0.0, "lat": 38.85288116666667, "is_disabled": 0, "name": "a3d84fcfa7d3368f0b44098992173f57", "fusion_lat": 0.0, "rental_uris": {"ios": "https://dc.lft.to/lastmile_qr_scan", "android": "https://dc.lft.to/lastmile_qr_scan"}, "lon": -77.0526945, "type": "electric_bike"}, {"bike_id": "059a38a70468eed47951010d017fb2bd", "is_reserved": 0, "fusion_lon": 0.0, "lat": 38.901817, "is_disabled": 0, "name": "059a38a70468eed47951010d017fb2bd", "fusion_lat": 0.0, "rental_uris": {"ios": "https://dc.lft.to/lastmile_qr_scan", "android": "https://dc.lft.to/lastmile_qr_scan"}, "lon": -77.02155583333334, "type": "electric_scooter"}, {"bike_id": "c9d14bafe2131aa5c7e9a378b059d349", "is_reserved": 0, "fusion_lon": 0.0, "lat": 38.863719, "is_disabled": 0, "name": "c9d14bafe2131aa5c7e9a378b059d349", "fusion_lat": 0.0, "rental_uris": {"ios": "https://dc.lft.to/lastmile_qr_scan", "android": "https://dc.lft.to/lastmile_qr_scan"}, "lon": -76.9905925, "type": "electric_scooter"}, {"bike_id": "6a7621ed87550c8bca67dd2c706e24ad", "is_reserved": 0, "fusion_lon": 0.0, "lat": 38.88724283333333, "is_disabled": 0, "name": "6a7621ed87550c8bca67dd2c706e24ad", "fusion_lat": 0.0, "rental_uris": {"ios": "https://dc.lft.to/lastmile_qr_scan", "android": "https://dc.lft.to/lastmile_qr_scan"}, "lon": -77.025781, "type": "electric_scooter"}, {"bike_id": "d89363eaa2f420119c68d8b4c3b862f9", "is_reserved": 0, "fusion_lon": 0.0, "lat": 38.911252833333336, "is_disabled": 0, "name": "d89363eaa2f420119c68d8b4c3b862f9", "fusion_lat": 0.0, "rental_uris": {"ios": "https://dc.lft.to/lastmile_qr_scan", "android": "https://dc.lft.to/lastmile_qr_scan"}, "lon": -77.0218875, "type": "electric_scooter"}, {"bike_id": "245b0d3054cc9087d77d333069b10b64", "is_reserved": 0, "fusion_lon": 0.0, "lat": 38.8870465, "is_disabled": 0, "name": "245b0d3054cc9087d77d333069b10b64", "fusion_lat": 0.0, "rental_uris": {"ios": "https://dc.lft.to/lastmile_qr_scan", "android": "https://dc.lft.to/lastmile_qr_scan"}, "lon": -77.001488, "type": "electric_scooter"}, {"bike_id": "ab8b80ebc547c7f07be248b908796129", "is_reserved": 0, "fusion_lon": 0.0, "lat": 38.918803833333335, "is_disabled": 0, "name": "ab8b80ebc547c7f07be248b908796129", "fusion_lat": 0.0, "rental_uris": {"ios": "https://dc.lft.to/lastmile_qr_scan", "android": "https://dc.lft.to/lastmile_qr_scan"}, "lon": -77.04466133333334, "type": "electric_scooter"}, {"bike_id": "a07c6435914cb398897f084276450463", "is_reserved": 0, "fusion_lon": 0.0, "lat": 38.879968, "is_disabled": 0, "name": "a07c6435914cb398897f084276450463", "fusion_lat": 0.0, "rental_uris": {"ios": "https://dc.lft.to/lastmile_qr_scan", "android": "https://dc.lft.to/lastmile_qr_scan"}, "lon": -76.985414, "type": "electric_scooter"}, {"bike_id": "ee4ff61e06da68e4fcff322d017681ee", "is_reserved": 0, "fusion_lon": 0.0, "lat": 38.895414, "is_disabled": 0, "name": "ee4ff61e06da68e4fcff322d017681ee", "fusion_lat": 0.0, "rental_uris": {"ios": "https://dc.lft.to/lastmile_qr_scan", "android": "https://dc.lft.to/lastmile_qr_scan"}, "lon": -77.02559966666666, "type": "electric_scooter"}, {"bike_id": "589e7a500f8d33247fcb8baa77659c22", "is_reserved": 0, "fusion_lon": 0.0, "lat": 38.8982875, "is_disabled": 0, "name": "589e7a500f8d33247fcb8baa77659c22", "fusion_lat": 0.0, "rental_uris": {"ios": "https://dc.lft.to/lastmile_qr_scan", "android": "https://dc.lft.to/lastmile_qr_scan"}, "lon": -76.98026183333333, "type": "electric_scooter"}, {"bike_id": "df8d3ddfeb88cce8dd60745688db2ae6", "is_reserved": 0, "fusion_lon": 0.0, "lat": 38.908296, "is_disabled": 0, "name": "df8d3ddfeb88cce8dd60745688db2ae6", "fusion_lat": 0.0, "rental_uris": {"ios": "https://dc.lft.to/lastmile_qr_scan", "android": "https://dc.lft.to/lastmile_qr_scan"}, "lon": -76.996932, "type": "electric_scooter"}, {"bike_id": "e89084e37a58e46b7583302ce38877f1", "is_reserved": 0, "fusion_lon": 0.0, "lat": 38.933477333333336, "is_disabled": 0, "name": "e89084e37a58e46b7583302ce38877f1", "fusion_lat": 0.0, "rental_uris": {"ios": "https://dc.lft.to/lastmile_qr_scan", "android": "https://dc.lft.to/lastmile_qr_scan"}, "lon": -77.05707983333333, "type": "electric_scooter"}, {"bike_id": "fc1520110604de670becbed151a31de9", "is_reserved": 0, "fusion_lon": 0.0, "lat": 39.030486833333335, "is_disabled": 0, "name": "fc1520110604de670becbed151a31de9", "fusion_lat": 0.0, "rental_uris": {"ios": "https://dc.lft.to/lastmile_qr_scan", "android": "https://dc.lft.to/lastmile_qr_scan"}, "lon": -77.09479016666667, "type": "electric_bike"}, {"bike_id": "e9719a60594b8be8e7b781723542a64b", "is_reserved": 0, "fusion_lon": 0.0, "lat": 38.94415816666667, "is_disabled": 0, "name": "e9719a60594b8be8e7b781723542a64b", "fusion_lat": 0.0, "rental_uris": {"ios": "https://dc.lft.to/lastmile_qr_scan", "android": "https://dc.lft.to/lastmile_qr_scan"}, "lon": -77.06257566666666, "type": "electric_scooter"}, {"bike_id": "8ad118e97ba94c3b73ac631769670ad8", "is_reserved": 0, "fusion_lon": 0.0, "lat": 38.897209, "is_disabled": 0, "name": "8ad118e97ba94c3b73ac631769670ad8", "fusion_lat": 0.0, "rental_uris": {"ios": "https://dc.lft.to/lastmile_qr_scan", "android": "https://dc.lft.to/lastmile_qr_scan"}, "lon": -77.026855, "type": "electric_scooter"}, {"bike_id": "a36c6022fcf7e64bc8c862b027deff95", "is_reserved": 0, "fusion_lon": 0.0, "lat": 38.90027, "is_disabled": 0, "name": "a36c6022fcf7e64bc8c862b027deff95", "fusion_lat": 0.0, "rental_uris": {"ios": "https://dc.lft.to/lastmile_qr_scan", "android": "https://dc.lft.to/lastmile_qr_scan"}, "lon": -76.99768216666666, "type": "electric_scooter"}, {"bike_id": "916a7e737606259c9043394a05bfc1f9", "is_reserved": 0, "fusion_lon": 0.0, "lat": 38.891952, "is_disabled": 0, "name": "916a7e737606259c9043394a05bfc1f9", "fusion_lat": 0.0, "rental_uris": {"ios": "https://dc.lft.to/lastmile_qr_scan", "android": "https://dc.lft.to/lastmile_qr_scan"}, "lon": -77.0154595, "type": "electric_scooter"}, {"bike_id": "c52c7dfbd20eb5fd9696db78360ce911", "is_reserved": 0, "fusion_lon": 0.0, "lat": 38.919235666666665, "is_disabled": 0, "name": "c52c7dfbd20eb5fd9696db78360ce911", "fusion_lat": 0.0, "rental_uris": {"ios": "https://dc.lft.to/lastmile_qr_scan", "android": "https://dc.lft.to/lastmile_qr_scan"}, "lon": -77.00070816666667, "type": "electric_scooter"}, {"bike_id": "f9f699693bc80c311aca3de44935e122", "is_reserved": 0, "fusion_lon": 0.0, "lat": 38.9024805, "is_disabled": 0, "name": "f9f699693bc80c311aca3de44935e122", "fusion_lat": 0.0, "rental_uris": {"ios": "https://dc.lft.to/lastmile_qr_scan", "android": "https://dc.lft.to/lastmile_qr_scan"}, "lon": -77.03471583333334, "type": "electric_scooter"}, {"bike_id": "ef99723bb0de905435a51152a104c540", "is_reserved": 0, "fusion_lon": 0.0, "lat": 38.9076755, "is_disabled": 0, "name": "ef99723bb0de905435a51152a104c540", "fusion_lat": 0.0, "rental_uris": {"ios": "https://dc.lft.to/lastmile_qr_scan", "android": "https://dc.lft.to/lastmile_qr_scan"}, "lon": -77.0320865, "type": "electric_scooter"}, {"bike_id": "0ce75ad3d7879bfefdeda0227e349cd1", "is_reserved": 0, "fusion_lon": 0.0, "lat": 38.90681816666667, "is_disabled": 0, "name": "0ce75ad3d7879bfefdeda0227e349cd1", "fusion_lat": 0.0, "rental_uris": {"ios": "https://dc.lft.to/lastmile_qr_scan", "android": "https://dc.lft.to/lastmile_qr_scan"}, "lon": -77.07567266666666, "type": "electric_scooter"}, {"bike_id": "f905df41c36ae6e2313b254d7b4e2b52", "is_reserved": 0, "fusion_lon": 0.0, "lat": 38.91556933333333, "is_disabled": 0, "name": "f905df41c36ae6e2313b254d7b4e2b52", "fusion_lat": 0.0, "rental_uris": {"ios": "https://dc.lft.to/lastmile_qr_scan", "android": "https://dc.lft.to/lastmile_qr_scan"}, "lon": -77.0393965, "type": "electric_scooter"}, {"bike_id": "ec8faa97a4c3976bc3de16ff351ac088", "is_reserved": 0, "fusion_lon": 0.0, "lat": 38.9221085, "is_disabled": 0, "name": "ec8faa97a4c3976bc3de16ff351ac088", "fusion_lat": 0.0, "rental_uris": {"ios": "https://dc.lft.to/lastmile_qr_scan", "android": "https://dc.lft.to/lastmile_qr_scan"}, "lon": -77.03660866666667, "type": "electric_scooter"}, {"bike_id": "cf21328b9e8c810f3da2682bcebad5a0", "is_reserved": 0, "fusion_lon": 0.0, "lat": 38.9146025, "is_disabled": 0, "name": "cf21328b9e8c810f3da2682bcebad5a0", "fusion_lat": 0.0, "rental_uris": {"ios": "https://dc.lft.to/lastmile_qr_scan", "android": "https://dc.lft.to/lastmile_qr_scan"}, "lon": -77.03195016666666, "type": "electric_scooter"}, {"bike_id": "a4906ba6dfe6b06d082e5fe7ff7d8634", "is_reserved": 0, "fusion_lon": 0.0, "lat": 38.88206533333334, "is_disabled": 0, "name": "a4906ba6dfe6b06d082e5fe7ff7d8634", "fusion_lat": 0.0, "rental_uris": {"ios": "https://dc.lft.to/lastmile_qr_scan", "android": "https://dc.lft.to/lastmile_qr_scan"}, "lon": -76.92695783333333, "type": "electric_scooter"}, {"bike_id": "b20e8449b11fdfd02f699e7bf6a80f25", "is_reserved": 0, "fusion_lon": 0.0, "lat": 38.89226216666667, "is_disabled": 0, "name": "b20e8449b11fdfd02f699e7bf6a80f25", "fusion_lat": 0.0, "rental_uris": {"ios": "https://dc.lft.to/lastmile_qr_scan", "android": "https://dc.lft.to/lastmile_qr_scan"}, "lon": -77.04334633333333, "type": "electric_scooter"}, {"bike_id": "e8c186dedee275bdcf44dfe2f2ba1daa", "is_reserved": 0, "fusion_lon": 0.0, "lat": 38.93428816666667, "is_disabled": 0, "name": "e8c186dedee275bdcf44dfe2f2ba1daa", "fusion_lat": 0.0, "rental_uris": {"ios": "https://dc.lft.to/lastmile_qr_scan", "android": "https://dc.lft.to/lastmile_qr_scan"}, "lon": -77.0431605, "type": "electric_scooter"}, {"bike_id": "503c7fd96f1dac9c7adba2253faea1ac", "is_reserved": 0, "fusion_lon": 0.0, "lat": 38.93327, "is_disabled": 0, "name": "503c7fd96f1dac9c7adba2253faea1ac", "fusion_lat": 0.0, "rental_uris": {"ios": "https://dc.lft.to/lastmile_qr_scan", "android": "https://dc.lft.to/lastmile_qr_scan"}, "lon": -77.03255566666667, "type": "electric_scooter"}, {"bike_id": "b6ae7c9a7bef4a58f8e0917c70b2faa1", "is_reserved": 0, "fusion_lon": 0.0, "lat": 38.91549416666667, "is_disabled": 0, "name": "b6ae7c9a7bef4a58f8e0917c70b2faa1", "fusion_lat": 0.0, "rental_uris": {"ios": "https://dc.lft.to/lastmile_qr_scan", "android": "https://dc.lft.to/lastmile_qr_scan"}, "lon": -77.038551, "type": "electric_scooter"}, {"bike_id": "c0b6b4a46af469a95baea67f5990784e", "is_reserved": 0, "fusion_lon": 0.0, "lat": 38.905533166666665, "is_disabled": 0, "name": "c0b6b4a46af469a95baea67f5990784e", "fusion_lat": 0.0, "rental_uris": {"ios": "https://dc.lft.to/lastmile_qr_scan", "android": "https://dc.lft.to/lastmile_qr_scan"}, "lon": -77.00576, "type": "electric_scooter"}, {"bike_id": "94bea25e2285e35ee0131dce5d1e1155", "is_reserved": 0, "fusion_lon": 0.0, "lat": 38.896038, "is_disabled": 0, "name": "94bea25e2285e35ee0131dce5d1e1155", "fusion_lat": 0.0, "rental_uris": {"ios": "https://dc.lft.to/lastmile_qr_scan", "android": "https://dc.lft.to/lastmile_qr_scan"}, "lon": -77.00922083333333, "type": "electric_scooter"}, {"bike_id": "a513ed52e6e4b3959c148c38d903f030", "is_reserved": 0, "fusion_lon": 0.0, "lat": 39.052074833333336, "is_disabled": 0, "name": "a513ed52e6e4b3959c148c38d903f030", "fusion_lat": 0.0, "rental_uris": {"ios": "https://dc.lft.to/lastmile_qr_scan", "android": "https://dc.lft.to/lastmile_qr_scan"}, "lon": -77.10908216666667, "type": "electric_bike"}, {"bike_id": "65ba12d01145f164c4420867db0b2287", "is_reserved": 0, "fusion_lon": 0.0, "lat": 38.9013545, "is_disabled": 0, "name": "65ba12d01145f164c4420867db0b2287", "fusion_lat": 0.0, "rental_uris": {"ios": "https://dc.lft.to/lastmile_qr_scan", "android": "https://dc.lft.to/lastmile_qr_scan"}, "lon": -77.04236066666667, "type": "electric_scooter"}, {"bike_id": "09831b011ac85ad6ed788d4cfb642a80", "is_reserved": 0, "fusion_lon": 0.0, "lat": 38.92020183333333, "is_disabled": 0, "name": "09831b011ac85ad6ed788d4cfb642a80", "fusion_lat": 0.0, "rental_uris": {"ios": "https://dc.lft.to/lastmile_qr_scan", "android": "https://dc.lft.to/lastmile_qr_scan"}, "lon": -77.03856366666666, "type": "electric_scooter"}, {"bike_id": "33d28b44c016327271207acc7317dfc0", "is_reserved": 0, "fusion_lon": 0.0, "lat": 38.900206833333336, "is_disabled": 0, "name": "33d28b44c016327271207acc7317dfc0", "fusion_lat": 0.0, "rental_uris": {"ios": "https://dc.lft.to/lastmile_qr_scan", "android": "https://dc.lft.to/lastmile_qr_scan"}, "lon": -76.9977815, "type": "electric_scooter"}, {"bike_id": "f551773e9cd172ff1783bfcd05832877", "is_reserved": 0, "fusion_lon": 0.0, "lat": 38.92668666666667, "is_disabled": 0, "name": "f551773e9cd172ff1783bfcd05832877", "fusion_lat": 0.0, "rental_uris": {"ios": "https://dc.lft.to/lastmile_qr_scan", "android": "https://dc.lft.to/lastmile_qr_scan"}, "lon": -77.03117916666666, "type": "electric_scooter"}, {"bike_id": "d13a32ef70395e107c405e7c5a865dc3", "is_reserved": 0, "fusion_lon": 0.0, "lat": 38.90487616666667, "is_disabled": 0, "name": "d13a32ef70395e107c405e7c5a865dc3", "fusion_lat": 0.0, "rental_uris": {"ios": "https://dc.lft.to/lastmile_qr_scan", "android": "https://dc.lft.to/lastmile_qr_scan"}, "lon": -77.007426, "type": "electric_scooter"}, {"bike_id": "accb10989eca3db76a8ad06209928229", "is_reserved": 0, "fusion_lon": 0.0, "lat": 38.973287166666665, "is_disabled": 0, "name": "accb10989eca3db76a8ad06209928229", "fusion_lat": 0.0, "rental_uris": {"ios": "https://dc.lft.to/lastmile_qr_scan", "android": "https://dc.lft.to/lastmile_qr_scan"}, "lon": -77.02146683333333, "type": "electric_bike"}, {"bike_id": "1b4569638a40ed767844d9fdb9d75cd0", "is_reserved": 0, "fusion_lon": 0.0, "lat": 38.92868216666667, "is_disabled": 0, "name": "1b4569638a40ed767844d9fdb9d75cd0", "fusion_lat": 0.0, "rental_uris": {"ios": "https://dc.lft.to/lastmile_qr_scan", "android": "https://dc.lft.to/lastmile_qr_scan"}, "lon": -77.02731283333334, "type": "electric_scooter"}, {"bike_id": "15be4f8160e44b58da170fec7d6ba570", "is_reserved": 0, "fusion_lon": 0.0, "lat": 38.90330016666667, "is_disabled": 0, "name": "15be4f8160e44b58da170fec7d6ba570", "fusion_lat": 0.0, "rental_uris": {"ios": "https://dc.lft.to/lastmile_qr_scan", "android": "https://dc.lft.to/lastmile_qr_scan"}, "lon": -77.03842716666666, "type": "electric_scooter"}, {"bike_id": "b965d5a5f58af82e38d4d0c7dde9458d", "is_reserved": 0, "fusion_lon": 0.0, "lat": 38.9170935, "is_disabled": 0, "name": "b965d5a5f58af82e38d4d0c7dde9458d", "fusion_lat": 0.0, "rental_uris": {"ios": "https://dc.lft.to/lastmile_qr_scan", "android": "https://dc.lft.to/lastmile_qr_scan"}, "lon": -77.0324355, "type": "electric_scooter"}, {"bike_id": "2bfc5f7a55fe21002052670c76fa0324", "is_reserved": 0, "fusion_lon": 0.0, "lat": 38.9110225, "is_disabled": 0, "name": "2bfc5f7a55fe21002052670c76fa0324", "fusion_lat": 0.0, "rental_uris": {"ios": "https://dc.lft.to/lastmile_qr_scan", "android": "https://dc.lft.to/lastmile_qr_scan"}, "lon": -77.00212733333333, "type": "electric_scooter"}, {"bike_id": "1fdb724d4f06315e0b6cf97d0542182a", "is_reserved": 0, "fusion_lon": 0.0, "lat": 38.900155166666664, "is_disabled": 0, "name": "1fdb724d4f06315e0b6cf97d0542182a", "fusion_lat": 0.0, "rental_uris": {"ios": "https://dc.lft.to/lastmile_qr_scan", "android": "https://dc.lft.to/lastmile_qr_scan"}, "lon": -76.99783483333333, "type": "electric_scooter"}, {"bike_id": "58bae2b76deecb75db0cfc981fdf0810", "is_reserved": 0, "fusion_lon": 0.0, "lat": 38.83855366666667, "is_disabled": 0, "name": "58bae2b76deecb75db0cfc981fdf0810", "fusion_lat": 0.0, "rental_uris": {"ios": "https://dc.lft.to/lastmile_qr_scan", "android": "https://dc.lft.to/lastmile_qr_scan"}, "lon": -77.0885625, "type": "electric_bike"}, {"bike_id": "5aedc87086a6dcdaa3a440cdc8ca1306", "is_reserved": 0, "fusion_lon": 0.0, "lat": 38.892306, "is_disabled": 0, "name": "5aedc87086a6dcdaa3a440cdc8ca1306", "fusion_lat": 0.0, "rental_uris": {"ios": "https://dc.lft.to/lastmile_qr_scan", "android": "https://dc.lft.to/lastmile_qr_scan"}, "lon": -77.021694, "type": "electric_scooter"}, {"bike_id": "483c6cf64397d5b5163bbac244174dfc", "is_reserved": 0, "fusion_lon": 0.0, "lat": 38.92179183333333, "is_disabled": 0, "name": "483c6cf64397d5b5163bbac244174dfc", "fusion_lat": 0.0, "rental_uris": {"ios": "https://dc.lft.to/lastmile_qr_scan", "android": "https://dc.lft.to/lastmile_qr_scan"}, "lon": -77.04275233333334, "type": "electric_scooter"}, {"bike_id": "9b46dec1f6164313acc8fd5605293c0e", "is_reserved": 0, "fusion_lon": 0.0, "lat": 38.89885866666667, "is_disabled": 0, "name": "9b46dec1f6164313acc8fd5605293c0e", "fusion_lat": 0.0, "rental_uris": {"ios": "https://dc.lft.to/lastmile_qr_scan", "android": "https://dc.lft.to/lastmile_qr_scan"}, "lon": -77.04476016666666, "type": "electric_scooter"}, {"bike_id": "c415ed76c29bc26eae639abeace7956e", "is_reserved": 0, "fusion_lon": 0.0, "lat": 38.9257775, "is_disabled": 0, "name": "c415ed76c29bc26eae639abeace7956e", "fusion_lat": 0.0, "rental_uris": {"ios": "https://dc.lft.to/lastmile_qr_scan", "android": "https://dc.lft.to/lastmile_qr_scan"}, "lon": -77.07309066666667, "type": "electric_scooter"}, {"bike_id": "5fe8dc0ce30249fe43a0fbbc542be567", "is_reserved": 0, "fusion_lon": 0.0, "lat": 38.934848, "is_disabled": 0, "name": "5fe8dc0ce30249fe43a0fbbc542be567", "fusion_lat": 0.0, "rental_uris": {"ios": "https://dc.lft.to/lastmile_qr_scan", "android": "https://dc.lft.to/lastmile_qr_scan"}, "lon": -77.0351455, "type": "electric_scooter"}, {"bike_id": "777c86778bc68d1f81c52cdbff351546", "is_reserved": 0, "fusion_lon": 0.0, "lat": 38.90268183333333, "is_disabled": 0, "name": "777c86778bc68d1f81c52cdbff351546", "fusion_lat": 0.0, "rental_uris": {"ios": "https://dc.lft.to/lastmile_qr_scan", "android": "https://dc.lft.to/lastmile_qr_scan"}, "lon": -77.01756416666667, "type": "electric_scooter"}, {"bike_id": "16022771a48134b8fd9c815a5a07a802", "is_reserved": 0, "fusion_lon": 0.0, "lat": 38.9309465, "is_disabled": 0, "name": "16022771a48134b8fd9c815a5a07a802", "fusion_lat": 0.0, "rental_uris": {"ios": "https://dc.lft.to/lastmile_qr_scan", "android": "https://dc.lft.to/lastmile_qr_scan"}, "lon": -77.02384983333333, "type": "electric_scooter"}, {"bike_id": "f96f0e75b1f86f125c456ae3446fdfcd", "is_reserved": 0, "fusion_lon": 0.0, "lat": 38.95086116666667, "is_disabled": 0, "name": "f96f0e75b1f86f125c456ae3446fdfcd", "fusion_lat": 0.0, "rental_uris": {"ios": "https://dc.lft.to/lastmile_qr_scan", "android": "https://dc.lft.to/lastmile_qr_scan"}, "lon": -77.0282245, "type": "electric_scooter"}, {"bike_id": "4b4e4e5dc95b6b7df499efd43fade209", "is_reserved": 0, "fusion_lon": 0.0, "lat": 38.915653666666664, "is_disabled": 0, "name": "4b4e4e5dc95b6b7df499efd43fade209", "fusion_lat": 0.0, "rental_uris": {"ios": "https://dc.lft.to/lastmile_qr_scan", "android": "https://dc.lft.to/lastmile_qr_scan"}, "lon": -77.03904316666667, "type": "electric_scooter"}, {"bike_id": "d888323e5eb2029ac15a47b1648ece8e", "is_reserved": 0, "fusion_lon": 0.0, "lat": 38.93063816666667, "is_disabled": 0, "name": "d888323e5eb2029ac15a47b1648ece8e", "fusion_lat": 0.0, "rental_uris": {"ios": "https://dc.lft.to/lastmile_qr_scan", "android": "https://dc.lft.to/lastmile_qr_scan"}, "lon": -77.02979383333333, "type": "electric_scooter"}, {"bike_id": "21d1586d7acb08ca7c112293c6867a92", "is_reserved": 0, "fusion_lon": 0.0, "lat": 38.92181333333333, "is_disabled": 0, "name": "21d1586d7acb08ca7c112293c6867a92", "fusion_lat": 0.0, "rental_uris": {"ios": "https://dc.lft.to/lastmile_qr_scan", "android": "https://dc.lft.to/lastmile_qr_scan"}, "lon": -77.04223616666667, "type": "electric_scooter"}, {"bike_id": "382489e57e90cd6a18ad224afaf43942", "is_reserved": 0, "fusion_lon": 0.0, "lat": 38.90910733333333, "is_disabled": 0, "name": "382489e57e90cd6a18ad224afaf43942", "fusion_lat": 0.0, "rental_uris": {"ios": "https://dc.lft.to/lastmile_qr_scan", "android": "https://dc.lft.to/lastmile_qr_scan"}, "lon": -77.03125366666667, "type": "electric_scooter"}, {"bike_id": "5d68210ec7523cd59d8bc3544bcc7501", "is_reserved": 0, "fusion_lon": 0.0, "lat": 38.90950683333333, "is_disabled": 0, "name": "5d68210ec7523cd59d8bc3544bcc7501", "fusion_lat": 0.0, "rental_uris": {"ios": "https://dc.lft.to/lastmile_qr_scan", "android": "https://dc.lft.to/lastmile_qr_scan"}, "lon": -77.01983966666667, "type": "electric_scooter"}, {"bike_id": "297127f91b8def7e48bb04088408317b", "is_reserved": 0, "fusion_lon": 0.0, "lat": 38.878373, "is_disabled": 0, "name": "297127f91b8def7e48bb04088408317b", "fusion_lat": 0.0, "rental_uris": {"ios": "https://dc.lft.to/lastmile_qr_scan", "android": "https://dc.lft.to/lastmile_qr_scan"}, "lon": -76.9903605, "type": "electric_scooter"}, {"bike_id": "df7e509b1b6d53f74205da107296932b", "is_reserved": 0, "fusion_lon": 0.0, "lat": 38.9417415, "is_disabled": 0, "name": "df7e509b1b6d53f74205da107296932b", "fusion_lat": 0.0, "rental_uris": {"ios": "https://dc.lft.to/lastmile_qr_scan", "android": "https://dc.lft.to/lastmile_qr_scan"}, "lon": -77.02498983333334, "type": "electric_scooter"}, {"bike_id": "d19955b91c73717f99dc24ad8f96297f", "is_reserved": 0, "fusion_lon": 0.0, "lat": 38.842947333333335, "is_disabled": 0, "name": "d19955b91c73717f99dc24ad8f96297f", "fusion_lat": 0.0, "rental_uris": {"ios": "https://dc.lft.to/lastmile_qr_scan", "android": "https://dc.lft.to/lastmile_qr_scan"}, "lon": -76.999495, "type": "electric_scooter"}, {"bike_id": "65b984191e87aaabf6ec277e2ebfaec2", "is_reserved": 0, "fusion_lon": 0.0, "lat": 38.90575116666667, "is_disabled": 0, "name": "65b984191e87aaabf6ec277e2ebfaec2", "fusion_lat": 0.0, "rental_uris": {"ios": "https://dc.lft.to/lastmile_qr_scan", "android": "https://dc.lft.to/lastmile_qr_scan"}, "lon": -77.0220545, "type": "electric_scooter"}, {"bike_id": "c84bb87a6d663273bc9cf15304bba6bb", "is_reserved": 0, "fusion_lon": 0.0, "lat": 38.91925716666667, "is_disabled": 0, "name": "c84bb87a6d663273bc9cf15304bba6bb", "fusion_lat": 0.0, "rental_uris": {"ios": "https://dc.lft.to/lastmile_qr_scan", "android": "https://dc.lft.to/lastmile_qr_scan"}, "lon": -77.0320835, "type": "electric_scooter"}, {"bike_id": "75b5f2a33ce063cc51e5eaa755f50085", "is_reserved": 0, "fusion_lon": 0.0, "lat": 38.876306166666666, "is_disabled": 0, "name": "75b5f2a33ce063cc51e5eaa755f50085", "fusion_lat": 0.0, "rental_uris": {"ios": "https://dc.lft.to/lastmile_qr_scan", "android": "https://dc.lft.to/lastmile_qr_scan"}, "lon": -76.96523933333333, "type": "electric_scooter"}, {"bike_id": "a431ec54d34afd4a43880a96bbe6ff2d", "is_reserved": 0, "fusion_lon": 0.0, "lat": 38.90777933333333, "is_disabled": 0, "name": "a431ec54d34afd4a43880a96bbe6ff2d", "fusion_lat": 0.0, "rental_uris": {"ios": "https://dc.lft.to/lastmile_qr_scan", "android": "https://dc.lft.to/lastmile_qr_scan"}, "lon": -77.06927016666667, "type": "electric_scooter"}, {"bike_id": "712d9df240ea499a2909689a88488b5d", "is_reserved": 0, "fusion_lon": 0.0, "lat": 38.922601, "is_disabled": 0, "name": "712d9df240ea499a2909689a88488b5d", "fusion_lat": 0.0, "rental_uris": {"ios": "https://dc.lft.to/lastmile_qr_scan", "android": "https://dc.lft.to/lastmile_qr_scan"}, "lon": -77.01824, "type": "electric_scooter"}, {"bike_id": "f7b9925c23ae216f2a5a9f148d274070", "is_reserved": 0, "fusion_lon": 0.0, "lat": 38.904481833333335, "is_disabled": 0, "name": "f7b9925c23ae216f2a5a9f148d274070", "fusion_lat": 0.0, "rental_uris": {"ios": "https://dc.lft.to/lastmile_qr_scan", "android": "https://dc.lft.to/lastmile_qr_scan"}, "lon": -76.996198, "type": "electric_scooter"}, {"bike_id": "9c771e882b645a964c65539439b3aad3", "is_reserved": 0, "fusion_lon": 0.0, "lat": 38.9162435, "is_disabled": 0, "name": "9c771e882b645a964c65539439b3aad3", "fusion_lat": 0.0, "rental_uris": {"ios": "https://dc.lft.to/lastmile_qr_scan", "android": "https://dc.lft.to/lastmile_qr_scan"}, "lon": -77.03168166666667, "type": "electric_scooter"}, {"bike_id": "2a9e0551a677b9b69cc582e01d6e63df", "is_reserved": 0, "fusion_lon": 0.0, "lat": 38.902918166666666, "is_disabled": 0, "name": "2a9e0551a677b9b69cc582e01d6e63df", "fusion_lat": 0.0, "rental_uris": {"ios": "https://dc.lft.to/lastmile_qr_scan", "android": "https://dc.lft.to/lastmile_qr_scan"}, "lon": -76.99849066666667, "type": "electric_scooter"}, {"bike_id": "a3dfab1ab68a0ad5397e4fbf00da2f26", "is_reserved": 0, "fusion_lon": 0.0, "lat": 38.86347933333333, "is_disabled": 0, "name": "a3dfab1ab68a0ad5397e4fbf00da2f26", "fusion_lat": 0.0, "rental_uris": {"ios": "https://dc.lft.to/lastmile_qr_scan", "android": "https://dc.lft.to/lastmile_qr_scan"}, "lon": -76.99062533333333, "type": "electric_scooter"}, {"bike_id": "2402d45ce309404dbfb47a011c5d25a9", "is_reserved": 0, "fusion_lon": 0.0, "lat": 38.9062535, "is_disabled": 0, "name": "2402d45ce309404dbfb47a011c5d25a9", "fusion_lat": 0.0, "rental_uris": {"ios": "https://dc.lft.to/lastmile_qr_scan", "android": "https://dc.lft.to/lastmile_qr_scan"}, "lon": -77.04116966666666, "type": "electric_scooter"}, {"bike_id": "ab6504669e8608f45e1519d14f131b39", "is_reserved": 0, "fusion_lon": 0.0, "lat": 38.90388883333333, "is_disabled": 0, "name": "ab6504669e8608f45e1519d14f131b39", "fusion_lat": 0.0, "rental_uris": {"ios": "https://dc.lft.to/lastmile_qr_scan", "android": "https://dc.lft.to/lastmile_qr_scan"}, "lon": -77.03991816666667, "type": "electric_scooter"}, {"bike_id": "d86381e8aeea90d19d25ec2ebc617558", "is_reserved": 0, "fusion_lon": 0.0, "lat": 38.915648166666664, "is_disabled": 0, "name": "d86381e8aeea90d19d25ec2ebc617558", "fusion_lat": 0.0, "rental_uris": {"ios": "https://dc.lft.to/lastmile_qr_scan", "android": "https://dc.lft.to/lastmile_qr_scan"}, "lon": -77.0376405, "type": "electric_scooter"}, {"bike_id": "a94c1da39fafa2d37074570e9d30c2bb", "is_reserved": 0, "fusion_lon": 0.0, "lat": 38.940125333333334, "is_disabled": 0, "name": "a94c1da39fafa2d37074570e9d30c2bb", "fusion_lat": 0.0, "rental_uris": {"ios": "https://dc.lft.to/lastmile_qr_scan", "android": "https://dc.lft.to/lastmile_qr_scan"}, "lon": -77.0716995, "type": "electric_scooter"}, {"bike_id": "6e9494fa750885467eb86c9b75ae085e", "is_reserved": 0, "fusion_lon": 0.0, "lat": 38.9248465, "is_disabled": 0, "name": "6e9494fa750885467eb86c9b75ae085e", "fusion_lat": 0.0, "rental_uris": {"ios": "https://dc.lft.to/lastmile_qr_scan", "android": "https://dc.lft.to/lastmile_qr_scan"}, "lon": -77.03764233333334, "type": "electric_scooter"}, {"bike_id": "9e5f7f695bf3a8e855650b559f78bc55", "is_reserved": 0, "fusion_lon": 0.0, "lat": 38.850688, "is_disabled": 0, "name": "9e5f7f695bf3a8e855650b559f78bc55", "fusion_lat": 0.0, "rental_uris": {"ios": "https://dc.lft.to/lastmile_qr_scan", "android": "https://dc.lft.to/lastmile_qr_scan"}, "lon": -76.97329133333334, "type": "electric_bike"}, {"bike_id": "8814570c1da260a34184863538113f87", "is_reserved": 0, "fusion_lon": 0.0, "lat": 38.9309505, "is_disabled": 0, "name": "8814570c1da260a34184863538113f87", "fusion_lat": 0.0, "rental_uris": {"ios": "https://dc.lft.to/lastmile_qr_scan", "android": "https://dc.lft.to/lastmile_qr_scan"}, "lon": -77.025087, "type": "electric_scooter"}, {"bike_id": "4bd8ef346533d723b3024ddfd73d2cce", "is_reserved": 0, "fusion_lon": 0.0, "lat": 38.898228333333336, "is_disabled": 0, "name": "4bd8ef346533d723b3024ddfd73d2cce", "fusion_lat": 0.0, "rental_uris": {"ios": "https://dc.lft.to/lastmile_qr_scan", "android": "https://dc.lft.to/lastmile_qr_scan"}, "lon": -77.005943, "type": "electric_bike"}, {"bike_id": "6d7342c288ed1df488c5dae427c35c57", "is_reserved": 0, "fusion_lon": 0.0, "lat": 38.879314, "is_disabled": 0, "name": "6d7342c288ed1df488c5dae427c35c57", "fusion_lat": 0.0, "rental_uris": {"ios": "https://dc.lft.to/lastmile_qr_scan", "android": "https://dc.lft.to/lastmile_qr_scan"}, "lon": -77.0040495, "type": "electric_scooter"}, {"bike_id": "4ac9cc9ac050e65544c25486e905a28e", "is_reserved": 0, "fusion_lon": 0.0, "lat": 38.89474083333333, "is_disabled": 0, "name": "4ac9cc9ac050e65544c25486e905a28e", "fusion_lat": 0.0, "rental_uris": {"ios": "https://dc.lft.to/lastmile_qr_scan", "android": "https://dc.lft.to/lastmile_qr_scan"}, "lon": -76.9839975, "type": "electric_scooter"}, {"bike_id": "5d178724e6bee2707744bb09b898d2e0", "is_reserved": 0, "fusion_lon": 0.0, "lat": 38.900610666666665, "is_disabled": 0, "name": "5d178724e6bee2707744bb09b898d2e0", "fusion_lat": 0.0, "rental_uris": {"ios": "https://dc.lft.to/lastmile_qr_scan", "android": "https://dc.lft.to/lastmile_qr_scan"}, "lon": -77.0501135, "type": "electric_scooter"}, {"bike_id": "caeeb3c261726b6683c86f8eb0515e6b", "is_reserved": 0, "fusion_lon": 0.0, "lat": 38.89621666666667, "is_disabled": 0, "name": "caeeb3c261726b6683c86f8eb0515e6b", "fusion_lat": 0.0, "rental_uris": {"ios": "https://dc.lft.to/lastmile_qr_scan", "android": "https://dc.lft.to/lastmile_qr_scan"}, "lon": -76.98121933333333, "type": "electric_scooter"}, {"bike_id": "e068361166dd6e06c46ef48f8ac6f2f4", "is_reserved": 0, "fusion_lon": 0.0, "lat": 38.87928483333334, "is_disabled": 0, "name": "e068361166dd6e06c46ef48f8ac6f2f4", "fusion_lat": 0.0, "rental_uris": {"ios": "https://dc.lft.to/lastmile_qr_scan", "android": "https://dc.lft.to/lastmile_qr_scan"}, "lon": -77.00735116666667, "type": "electric_scooter"}, {"bike_id": "af8fca24b0d3dbb3889dc03aa6e59efe", "is_reserved": 0, "fusion_lon": 0.0, "lat": 38.89728683333333, "is_disabled": 0, "name": "af8fca24b0d3dbb3889dc03aa6e59efe", "fusion_lat": 0.0, "rental_uris": {"ios": "https://dc.lft.to/lastmile_qr_scan", "android": "https://dc.lft.to/lastmile_qr_scan"}, "lon": -76.92585933333334, "type": "electric_scooter"}, {"bike_id": "93555964856dccff7cad0894209e0843", "is_reserved": 0, "fusion_lon": 0.0, "lat": 38.917042333333335, "is_disabled": 0, "name": "93555964856dccff7cad0894209e0843", "fusion_lat": 0.0, "rental_uris": {"ios": "https://dc.lft.to/lastmile_qr_scan", "android": "https://dc.lft.to/lastmile_qr_scan"}, "lon": -77.034745, "type": "electric_scooter"}, {"bike_id": "d6ca66d19f40033b86ba753ce2c08299", "is_reserved": 0, "fusion_lon": 0.0, "lat": 38.85155983333333, "is_disabled": 0, "name": "d6ca66d19f40033b86ba753ce2c08299", "fusion_lat": 0.0, "rental_uris": {"ios": "https://dc.lft.to/lastmile_qr_scan", "android": "https://dc.lft.to/lastmile_qr_scan"}, "lon": -77.1288075, "type": "electric_bike"}, {"bike_id": "e0e42f43177d3e3c6cced7d5c34a84ab", "is_reserved": 0, "fusion_lon": 0.0, "lat": 38.900221333333334, "is_disabled": 0, "name": "e0e42f43177d3e3c6cced7d5c34a84ab", "fusion_lat": 0.0, "rental_uris": {"ios": "https://dc.lft.to/lastmile_qr_scan", "android": "https://dc.lft.to/lastmile_qr_scan"}, "lon": -76.98295983333334, "type": "electric_scooter"}, {"bike_id": "40c7482ac2a32462765c96545d50e4aa", "is_reserved": 0, "fusion_lon": 0.0, "lat": 38.8656715, "is_disabled": 0, "name": "40c7482ac2a32462765c96545d50e4aa", "fusion_lat": 0.0, "rental_uris": {"ios": "https://dc.lft.to/lastmile_qr_scan", "android": "https://dc.lft.to/lastmile_qr_scan"}, "lon": -76.98944516666667, "type": "electric_scooter"}, {"bike_id": "24e91ed029675cf11e526ca615bf6936", "is_reserved": 0, "fusion_lon": 0.0, "lat": 38.95731283333333, "is_disabled": 0, "name": "24e91ed029675cf11e526ca615bf6936", "fusion_lat": 0.0, "rental_uris": {"ios": "https://dc.lft.to/lastmile_qr_scan", "android": "https://dc.lft.to/lastmile_qr_scan"}, "lon": -77.0240315, "type": "electric_scooter"}, {"bike_id": "9c8b707f037716ee690b909a71b6f82a", "is_reserved": 0, "fusion_lon": 0.0, "lat": 38.903300333333334, "is_disabled": 0, "name": "9c8b707f037716ee690b909a71b6f82a", "fusion_lat": 0.0, "rental_uris": {"ios": "https://dc.lft.to/lastmile_qr_scan", "android": "https://dc.lft.to/lastmile_qr_scan"}, "lon": -77.03836216666667, "type": "electric_scooter"}, {"bike_id": "f31090ab006d0e890d60fc09612a229a", "is_reserved": 0, "fusion_lon": 0.0, "lat": 38.901324333333335, "is_disabled": 0, "name": "f31090ab006d0e890d60fc09612a229a", "fusion_lat": 0.0, "rental_uris": {"ios": "https://dc.lft.to/lastmile_qr_scan", "android": "https://dc.lft.to/lastmile_qr_scan"}, "lon": -77.0448485, "type": "electric_scooter"}, {"bike_id": "890e153f49259d3dace3e43531f5092c", "is_reserved": 0, "fusion_lon": 0.0, "lat": 38.915708333333335, "is_disabled": 0, "name": "890e153f49259d3dace3e43531f5092c", "fusion_lat": 0.0, "rental_uris": {"ios": "https://dc.lft.to/lastmile_qr_scan", "android": "https://dc.lft.to/lastmile_qr_scan"}, "lon": -77.039326, "type": "electric_scooter"}, {"bike_id": "93e02aaf322c59bd7096bab314a4b7ac", "is_reserved": 0, "fusion_lon": 0.0, "lat": 38.903720666666665, "is_disabled": 0, "name": "93e02aaf322c59bd7096bab314a4b7ac", "fusion_lat": 0.0, "rental_uris": {"ios": "https://dc.lft.to/lastmile_qr_scan", "android": "https://dc.lft.to/lastmile_qr_scan"}, "lon": -77.02990383333334, "type": "electric_scooter"}, {"bike_id": "0125154b4deefac1ec4f8681b1baa239", "is_reserved": 0, "fusion_lon": 0.0, "lat": 38.90988483333334, "is_disabled": 0, "name": "0125154b4deefac1ec4f8681b1baa239", "fusion_lat": 0.0, "rental_uris": {"ios": "https://dc.lft.to/lastmile_qr_scan", "android": "https://dc.lft.to/lastmile_qr_scan"}, "lon": -77.03457766666666, "type": "electric_scooter"}, {"bike_id": "f5ab75692caa50122ec8c4d1785ce2db", "is_reserved": 0, "fusion_lon": 0.0, "lat": 38.91414833333333, "is_disabled": 0, "name": "f5ab75692caa50122ec8c4d1785ce2db", "fusion_lat": 0.0, "rental_uris": {"ios": "https://dc.lft.to/lastmile_qr_scan", "android": "https://dc.lft.to/lastmile_qr_scan"}, "lon": -77.02677166666666, "type": "electric_scooter"}, {"bike_id": "290c47a27a53b32b5d5940dcf18b5b9f", "is_reserved": 0, "fusion_lon": 0.0, "lat": 38.916504, "is_disabled": 0, "name": "290c47a27a53b32b5d5940dcf18b5b9f", "fusion_lat": 0.0, "rental_uris": {"ios": "https://dc.lft.to/lastmile_qr_scan", "android": "https://dc.lft.to/lastmile_qr_scan"}, "lon": -77.03208083333334, "type": "electric_scooter"}, {"bike_id": "131ae23b4f4f83a5a4ed8890da34430e", "is_reserved": 0, "fusion_lon": 0.0, "lat": 38.9166395, "is_disabled": 0, "name": "131ae23b4f4f83a5a4ed8890da34430e", "fusion_lat": 0.0, "rental_uris": {"ios": "https://dc.lft.to/lastmile_qr_scan", "android": "https://dc.lft.to/lastmile_qr_scan"}, "lon": -77.00504433333333, "type": "electric_scooter"}, {"bike_id": "9c6803ca049295d12a5f00b032d79013", "is_reserved": 0, "fusion_lon": 0.0, "lat": 38.94630033333333, "is_disabled": 0, "name": "9c6803ca049295d12a5f00b032d79013", "fusion_lat": 0.0, "rental_uris": {"ios": "https://dc.lft.to/lastmile_qr_scan", "android": "https://dc.lft.to/lastmile_qr_scan"}, "lon": -77.018421, "type": "electric_scooter"}, {"bike_id": "005eebdd452ddde290e9feb5ea2ab028", "is_reserved": 0, "fusion_lon": 0.0, "lat": 38.9288065, "is_disabled": 0, "name": "005eebdd452ddde290e9feb5ea2ab028", "fusion_lat": 0.0, "rental_uris": {"ios": "https://dc.lft.to/lastmile_qr_scan", "android": "https://dc.lft.to/lastmile_qr_scan"}, "lon": -77.01365466666667, "type": "electric_scooter"}, {"bike_id": "c8c3b6db15e68ce539d5743fedb4e931", "is_reserved": 0, "fusion_lon": 0.0, "lat": 38.92769116666667, "is_disabled": 0, "name": "c8c3b6db15e68ce539d5743fedb4e931", "fusion_lat": 0.0, "rental_uris": {"ios": "https://dc.lft.to/lastmile_qr_scan", "android": "https://dc.lft.to/lastmile_qr_scan"}, "lon": -77.07307933333334, "type": "electric_scooter"}, {"bike_id": "e49b4d48f5e2ef9f4d17d346e4d0a03c", "is_reserved": 0, "fusion_lon": 0.0, "lat": 38.865262333333334, "is_disabled": 0, "name": "e49b4d48f5e2ef9f4d17d346e4d0a03c", "fusion_lat": 0.0, "rental_uris": {"ios": "https://dc.lft.to/lastmile_qr_scan", "android": "https://dc.lft.to/lastmile_qr_scan"}, "lon": -76.99025383333333, "type": "electric_scooter"}, {"bike_id": "23a583b88967da99b29378f2e83f877f", "is_reserved": 0, "fusion_lon": 0.0, "lat": 38.896105, "is_disabled": 0, "name": "23a583b88967da99b29378f2e83f877f", "fusion_lat": 0.0, "rental_uris": {"ios": "https://dc.lft.to/lastmile_qr_scan", "android": "https://dc.lft.to/lastmile_qr_scan"}, "lon": -77.04447533333334, "type": "electric_scooter"}, {"bike_id": "8ca2e15a8e85ba30daa7d924ef561640", "is_reserved": 0, "fusion_lon": 0.0, "lat": 38.866668833333335, "is_disabled": 0, "name": "8ca2e15a8e85ba30daa7d924ef561640", "fusion_lat": 0.0, "rental_uris": {"ios": "https://dc.lft.to/lastmile_qr_scan", "android": "https://dc.lft.to/lastmile_qr_scan"}, "lon": -76.98907883333334, "type": "electric_scooter"}, {"bike_id": "98e8ba4eefba6fa237fa514876819972", "is_reserved": 0, "fusion_lon": 0.0, "lat": 38.80012083333333, "is_disabled": 0, "name": "98e8ba4eefba6fa237fa514876819972", "fusion_lat": 0.0, "rental_uris": {"ios": "https://dc.lft.to/lastmile_qr_scan", "android": "https://dc.lft.to/lastmile_qr_scan"}, "lon": -77.130048, "type": "electric_bike"}, {"bike_id": "a12a773cdd38b30e238ff19f2d99a416", "is_reserved": 0, "fusion_lon": 0.0, "lat": 38.93346916666667, "is_disabled": 0, "name": "a12a773cdd38b30e238ff19f2d99a416", "fusion_lat": 0.0, "rental_uris": {"ios": "https://dc.lft.to/lastmile_qr_scan", "android": "https://dc.lft.to/lastmile_qr_scan"}, "lon": -77.03279633333334, "type": "electric_scooter"}, {"bike_id": "8c6956ea0107e816fd32c2a0066d2c06", "is_reserved": 0, "fusion_lon": 0.0, "lat": 38.9329285, "is_disabled": 0, "name": "8c6956ea0107e816fd32c2a0066d2c06", "fusion_lat": 0.0, "rental_uris": {"ios": "https://dc.lft.to/lastmile_qr_scan", "android": "https://dc.lft.to/lastmile_qr_scan"}, "lon": -77.03983483333333, "type": "electric_scooter"}, {"bike_id": "46af91a5f7832736b007d0ff62efafc4", "is_reserved": 0, "fusion_lon": 0.0, "lat": 38.8382615, "is_disabled": 0, "name": "46af91a5f7832736b007d0ff62efafc4", "fusion_lat": 0.0, "rental_uris": {"ios": "https://dc.lft.to/lastmile_qr_scan", "android": "https://dc.lft.to/lastmile_qr_scan"}, "lon": -76.996832, "type": "electric_bike"}, {"bike_id": "6ac268f77aa289a3eccc86032ac0e8d6", "is_reserved": 0, "fusion_lon": 0.0, "lat": 38.886851, "is_disabled": 0, "name": "6ac268f77aa289a3eccc86032ac0e8d6", "fusion_lat": 0.0, "rental_uris": {"ios": "https://dc.lft.to/lastmile_qr_scan", "android": "https://dc.lft.to/lastmile_qr_scan"}, "lon": -76.95761316666666, "type": "electric_scooter"}, {"bike_id": "5757eba82e031ade7b2d7d5f87d07f61", "is_reserved": 0, "fusion_lon": 0.0, "lat": 38.876298166666665, "is_disabled": 0, "name": "5757eba82e031ade7b2d7d5f87d07f61", "fusion_lat": 0.0, "rental_uris": {"ios": "https://dc.lft.to/lastmile_qr_scan", "android": "https://dc.lft.to/lastmile_qr_scan"}, "lon": -76.96525516666667, "type": "electric_scooter"}, {"bike_id": "0a7420b3030fa49bbb43e145a4b283f4", "is_reserved": 0, "fusion_lon": 0.0, "lat": 38.8973805, "is_disabled": 0, "name": "0a7420b3030fa49bbb43e145a4b283f4", "fusion_lat": 0.0, "rental_uris": {"ios": "https://dc.lft.to/lastmile_qr_scan", "android": "https://dc.lft.to/lastmile_qr_scan"}, "lon": -76.93839966666667, "type": "electric_scooter"}, {"bike_id": "2ade957ec543c4943d6223fec71ccfb2", "is_reserved": 0, "fusion_lon": 0.0, "lat": 38.903329166666666, "is_disabled": 0, "name": "2ade957ec543c4943d6223fec71ccfb2", "fusion_lat": 0.0, "rental_uris": {"ios": "https://dc.lft.to/lastmile_qr_scan", "android": "https://dc.lft.to/lastmile_qr_scan"}, "lon": -76.97589983333333, "type": "electric_scooter"}, {"bike_id": "978b41baa3995fe40693a857fe5518c8", "is_reserved": 0, "fusion_lon": 0.0, "lat": 38.90468383333334, "is_disabled": 0, "name": "978b41baa3995fe40693a857fe5518c8", "fusion_lat": 0.0, "rental_uris": {"ios": "https://dc.lft.to/lastmile_qr_scan", "android": "https://dc.lft.to/lastmile_qr_scan"}, "lon": -77.0298085, "type": "electric_scooter"}, {"bike_id": "fb126cf6129d55aa2f804dbfe4b4d1ce", "is_reserved": 0, "fusion_lon": 0.0, "lat": 38.838134833333335, "is_disabled": 0, "name": "fb126cf6129d55aa2f804dbfe4b4d1ce", "fusion_lat": 0.0, "rental_uris": {"ios": "https://dc.lft.to/lastmile_qr_scan", "android": "https://dc.lft.to/lastmile_qr_scan"}, "lon": -77.09523716666666, "type": "electric_bike"}, {"bike_id": "e9a7d4ad7534cf7de8c72cb8d0ebeb4d", "is_reserved": 0, "fusion_lon": 0.0, "lat": 38.9045625, "is_disabled": 0, "name": "e9a7d4ad7534cf7de8c72cb8d0ebeb4d", "fusion_lat": 0.0, "rental_uris": {"ios": "https://dc.lft.to/lastmile_qr_scan", "android": "https://dc.lft.to/lastmile_qr_scan"}, "lon": -77.01700266666667, "type": "electric_scooter"}, {"bike_id": "f11310c9ffdb3550df99901d744b9926", "is_reserved": 0, "fusion_lon": 0.0, "lat": 38.842937666666664, "is_disabled": 0, "name": "f11310c9ffdb3550df99901d744b9926", "fusion_lat": 0.0, "rental_uris": {"ios": "https://dc.lft.to/lastmile_qr_scan", "android": "https://dc.lft.to/lastmile_qr_scan"}, "lon": -76.99948066666667, "type": "electric_scooter"}, {"bike_id": "e6681bfb3f4077146c9c1635bd10f020", "is_reserved": 0, "fusion_lon": 0.0, "lat": 38.906239666666664, "is_disabled": 0, "name": "e6681bfb3f4077146c9c1635bd10f020", "fusion_lat": 0.0, "rental_uris": {"ios": "https://dc.lft.to/lastmile_qr_scan", "android": "https://dc.lft.to/lastmile_qr_scan"}, "lon": -77.05138833333334, "type": "electric_scooter"}, {"bike_id": "cc77268f4ae22f5c781f36dcf9e6ec62", "is_reserved": 0, "fusion_lon": 0.0, "lat": 38.917447333333335, "is_disabled": 0, "name": "cc77268f4ae22f5c781f36dcf9e6ec62", "fusion_lat": 0.0, "rental_uris": {"ios": "https://dc.lft.to/lastmile_qr_scan", "android": "https://dc.lft.to/lastmile_qr_scan"}, "lon": -77.00752516666667, "type": "electric_scooter"}, {"bike_id": "016a360e56715b14f1cf15abf744f231", "is_reserved": 0, "fusion_lon": 0.0, "lat": 38.90367483333333, "is_disabled": 0, "name": "016a360e56715b14f1cf15abf744f231", "fusion_lat": 0.0, "rental_uris": {"ios": "https://dc.lft.to/lastmile_qr_scan", "android": "https://dc.lft.to/lastmile_qr_scan"}, "lon": -77.0190535, "type": "electric_scooter"}, {"bike_id": "eeb66b6e8a0447663f9b7293bcc8a8c8", "is_reserved": 0, "fusion_lon": 0.0, "lat": 38.90766583333333, "is_disabled": 0, "name": "eeb66b6e8a0447663f9b7293bcc8a8c8", "fusion_lat": 0.0, "rental_uris": {"ios": "https://dc.lft.to/lastmile_qr_scan", "android": "https://dc.lft.to/lastmile_qr_scan"}, "lon": -77.0010295, "type": "electric_scooter"}, {"bike_id": "1d11e104015af0e08d59240bbb7f5472", "is_reserved": 0, "fusion_lon": 0.0, "lat": 38.866976, "is_disabled": 0, "name": "1d11e104015af0e08d59240bbb7f5472", "fusion_lat": 0.0, "rental_uris": {"ios": "https://dc.lft.to/lastmile_qr_scan", "android": "https://dc.lft.to/lastmile_qr_scan"}, "lon": -76.987088, "type": "electric_scooter"}, {"bike_id": "68a42d3a10369506208e76d47b084a3b", "is_reserved": 0, "fusion_lon": 0.0, "lat": 38.940496, "is_disabled": 0, "name": "68a42d3a10369506208e76d47b084a3b", "fusion_lat": 0.0, "rental_uris": {"ios": "https://dc.lft.to/lastmile_qr_scan", "android": "https://dc.lft.to/lastmile_qr_scan"}, "lon": -77.09266166666667, "type": "electric_scooter"}, {"bike_id": "b4633a1bde1b32f2c80bc1f234bd9d81", "is_reserved": 0, "fusion_lon": 0.0, "lat": 38.903144833333336, "is_disabled": 0, "name": "b4633a1bde1b32f2c80bc1f234bd9d81", "fusion_lat": 0.0, "rental_uris": {"ios": "https://dc.lft.to/lastmile_qr_scan", "android": "https://dc.lft.to/lastmile_qr_scan"}, "lon": -77.03824333333333, "type": "electric_scooter"}, {"bike_id": "c5a74bd490664c857ef4af7cee0042ce", "is_reserved": 0, "fusion_lon": 0.0, "lat": 38.9742155, "is_disabled": 0, "name": "c5a74bd490664c857ef4af7cee0042ce", "fusion_lat": 0.0, "rental_uris": {"ios": "https://dc.lft.to/lastmile_qr_scan", "android": "https://dc.lft.to/lastmile_qr_scan"}, "lon": -77.01517766666667, "type": "electric_scooter"}, {"bike_id": "d5ccd25c1996f744c634108b1b3fa746", "is_reserved": 0, "fusion_lon": 0.0, "lat": 38.92743133333333, "is_disabled": 0, "name": "d5ccd25c1996f744c634108b1b3fa746", "fusion_lat": 0.0, "rental_uris": {"ios": "https://dc.lft.to/lastmile_qr_scan", "android": "https://dc.lft.to/lastmile_qr_scan"}, "lon": -77.01201033333334, "type": "electric_scooter"}, {"bike_id": "a653106739c360e3fd969cd652adb37f", "is_reserved": 0, "fusion_lon": 0.0, "lat": 38.91415833333333, "is_disabled": 0, "name": "a653106739c360e3fd969cd652adb37f", "fusion_lat": 0.0, "rental_uris": {"ios": "https://dc.lft.to/lastmile_qr_scan", "android": "https://dc.lft.to/lastmile_qr_scan"}, "lon": -77.04142033333333, "type": "electric_scooter"}, {"bike_id": "c856f6b58f6f6d6847a9a556ea40a035", "is_reserved": 0, "fusion_lon": 0.0, "lat": 38.913328166666666, "is_disabled": 0, "name": "c856f6b58f6f6d6847a9a556ea40a035", "fusion_lat": 0.0, "rental_uris": {"ios": "https://dc.lft.to/lastmile_qr_scan", "android": "https://dc.lft.to/lastmile_qr_scan"}, "lon": -77.03117983333334, "type": "electric_scooter"}, {"bike_id": "db4100758a53a2b6d56634d3f73080ce", "is_reserved": 0, "fusion_lon": 0.0, "lat": 38.90862933333333, "is_disabled": 0, "name": "db4100758a53a2b6d56634d3f73080ce", "fusion_lat": 0.0, "rental_uris": {"ios": "https://dc.lft.to/lastmile_qr_scan", "android": "https://dc.lft.to/lastmile_qr_scan"}, "lon": -76.99939383333333, "type": "electric_scooter"}, {"bike_id": "a36e31ae043d26c24f67cc191b14a284", "is_reserved": 0, "fusion_lon": 0.0, "lat": 38.90037866666667, "is_disabled": 0, "name": "a36e31ae043d26c24f67cc191b14a284", "fusion_lat": 0.0, "rental_uris": {"ios": "https://dc.lft.to/lastmile_qr_scan", "android": "https://dc.lft.to/lastmile_qr_scan"}, "lon": -77.0018945, "type": "electric_scooter"}, {"bike_id": "73be886276a6f9eeb7f83a47035aeccb", "is_reserved": 0, "fusion_lon": 0.0, "lat": 38.896769, "is_disabled": 0, "name": "73be886276a6f9eeb7f83a47035aeccb", "fusion_lat": 0.0, "rental_uris": {"ios": "https://dc.lft.to/lastmile_qr_scan", "android": "https://dc.lft.to/lastmile_qr_scan"}, "lon": -76.99618766666667, "type": "electric_scooter"}, {"bike_id": "39652c958525cc2fb02455a15761c251", "is_reserved": 0, "fusion_lon": 0.0, "lat": 38.8929995, "is_disabled": 0, "name": "39652c958525cc2fb02455a15761c251", "fusion_lat": 0.0, "rental_uris": {"ios": "https://dc.lft.to/lastmile_qr_scan", "android": "https://dc.lft.to/lastmile_qr_scan"}, "lon": -77.01230566666666, "type": "electric_scooter"}, {"bike_id": "2161f0f034e6499a2b0d950ba880a616", "is_reserved": 0, "fusion_lon": 0.0, "lat": 38.96820833333334, "is_disabled": 0, "name": "2161f0f034e6499a2b0d950ba880a616", "fusion_lat": 0.0, "rental_uris": {"ios": "https://dc.lft.to/lastmile_qr_scan", "android": "https://dc.lft.to/lastmile_qr_scan"}, "lon": -77.017873, "type": "electric_scooter"}, {"bike_id": "a0b9e0dad046ac262edd434a34452e8d", "is_reserved": 0, "fusion_lon": 0.0, "lat": 38.9223565, "is_disabled": 0, "name": "a0b9e0dad046ac262edd434a34452e8d", "fusion_lat": 0.0, "rental_uris": {"ios": "https://dc.lft.to/lastmile_qr_scan", "android": "https://dc.lft.to/lastmile_qr_scan"}, "lon": -77.03517883333333, "type": "electric_scooter"}, {"bike_id": "6c4e7a466ca8f7bfe607ab66f028e66b", "is_reserved": 0, "fusion_lon": 0.0, "lat": 38.90520933333333, "is_disabled": 0, "name": "6c4e7a466ca8f7bfe607ab66f028e66b", "fusion_lat": 0.0, "rental_uris": {"ios": "https://dc.lft.to/lastmile_qr_scan", "android": "https://dc.lft.to/lastmile_qr_scan"}, "lon": -77.048499, "type": "electric_scooter"}, {"bike_id": "554ae25914862c2c9ac5b19a57d5c572", "is_reserved": 0, "fusion_lon": 0.0, "lat": 38.90456533333333, "is_disabled": 0, "name": "554ae25914862c2c9ac5b19a57d5c572", "fusion_lat": 0.0, "rental_uris": {"ios": "https://dc.lft.to/lastmile_qr_scan", "android": "https://dc.lft.to/lastmile_qr_scan"}, "lon": -76.995048, "type": "electric_scooter"}, {"bike_id": "ce07febaa55a2deb4beea2b5b2cdafa6", "is_reserved": 0, "fusion_lon": 0.0, "lat": 38.896022333333335, "is_disabled": 0, "name": "ce07febaa55a2deb4beea2b5b2cdafa6", "fusion_lat": 0.0, "rental_uris": {"ios": "https://dc.lft.to/lastmile_qr_scan", "android": "https://dc.lft.to/lastmile_qr_scan"}, "lon": -77.04500016666667, "type": "electric_scooter"}, {"bike_id": "95bbfbd744ad8f46c4a3133213c52d75", "is_reserved": 0, "fusion_lon": 0.0, "lat": 38.86960233333333, "is_disabled": 0, "name": "95bbfbd744ad8f46c4a3133213c52d75", "fusion_lat": 0.0, "rental_uris": {"ios": "https://dc.lft.to/lastmile_qr_scan", "android": "https://dc.lft.to/lastmile_qr_scan"}, "lon": -77.01372466666666, "type": "electric_scooter"}, {"bike_id": "0911cd8ed5f89e1287b20785e48197fb", "is_reserved": 0, "fusion_lon": 0.0, "lat": 38.89834583333333, "is_disabled": 0, "name": "0911cd8ed5f89e1287b20785e48197fb", "fusion_lat": 0.0, "rental_uris": {"ios": "https://dc.lft.to/lastmile_qr_scan", "android": "https://dc.lft.to/lastmile_qr_scan"}, "lon": -77.050294, "type": "electric_scooter"}, {"bike_id": "9e1118662f7985779ba1b80b46f480e9", "is_reserved": 0, "fusion_lon": 0.0, "lat": 38.922725666666665, "is_disabled": 0, "name": "9e1118662f7985779ba1b80b46f480e9", "fusion_lat": 0.0, "rental_uris": {"ios": "https://dc.lft.to/lastmile_qr_scan", "android": "https://dc.lft.to/lastmile_qr_scan"}, "lon": -77.02523416666666, "type": "electric_scooter"}, {"bike_id": "707d855b82927df7b41656c562f7cbeb", "is_reserved": 0, "fusion_lon": 0.0, "lat": 38.901306166666664, "is_disabled": 0, "name": "707d855b82927df7b41656c562f7cbeb", "fusion_lat": 0.0, "rental_uris": {"ios": "https://dc.lft.to/lastmile_qr_scan", "android": "https://dc.lft.to/lastmile_qr_scan"}, "lon": -77.04328183333334, "type": "electric_scooter"}, {"bike_id": "ffd19ada0fced640af17c9b071beca05", "is_reserved": 0, "fusion_lon": 0.0, "lat": 38.90572516666667, "is_disabled": 0, "name": "ffd19ada0fced640af17c9b071beca05", "fusion_lat": 0.0, "rental_uris": {"ios": "https://dc.lft.to/lastmile_qr_scan", "android": "https://dc.lft.to/lastmile_qr_scan"}, "lon": -77.03608916666667, "type": "electric_scooter"}, {"bike_id": "169ee02b455c56d5ff82a11f5be96eb5", "is_reserved": 0, "fusion_lon": 0.0, "lat": 38.90794666666667, "is_disabled": 0, "name": "169ee02b455c56d5ff82a11f5be96eb5", "fusion_lat": 0.0, "rental_uris": {"ios": "https://dc.lft.to/lastmile_qr_scan", "android": "https://dc.lft.to/lastmile_qr_scan"}, "lon": -77.04819616666667, "type": "electric_scooter"}, {"bike_id": "0c4c5f4dcc8b5e7f328ce0a49f48e576", "is_reserved": 0, "fusion_lon": 0.0, "lat": 38.8956175, "is_disabled": 0, "name": "0c4c5f4dcc8b5e7f328ce0a49f48e576", "fusion_lat": 0.0, "rental_uris": {"ios": "https://dc.lft.to/lastmile_qr_scan", "android": "https://dc.lft.to/lastmile_qr_scan"}, "lon": -77.1272975, "type": "electric_bike"}, {"bike_id": "38a82197ac519ee8a2d11eac671ba95d", "is_reserved": 0, "fusion_lon": 0.0, "lat": 38.89909383333333, "is_disabled": 0, "name": "38a82197ac519ee8a2d11eac671ba95d", "fusion_lat": 0.0, "rental_uris": {"ios": "https://dc.lft.to/lastmile_qr_scan", "android": "https://dc.lft.to/lastmile_qr_scan"}, "lon": -77.04057916666666, "type": "electric_scooter"}, {"bike_id": "e67574c342f90a2ab646409683511aa0", "is_reserved": 0, "fusion_lon": 0.0, "lat": 38.90214683333333, "is_disabled": 0, "name": "e67574c342f90a2ab646409683511aa0", "fusion_lat": 0.0, "rental_uris": {"ios": "https://dc.lft.to/lastmile_qr_scan", "android": "https://dc.lft.to/lastmile_qr_scan"}, "lon": -76.95048566666667, "type": "electric_bike"}, {"bike_id": "2e6220ca8cd5e462ce2ebc5afb1300ee", "is_reserved": 0, "fusion_lon": 0.0, "lat": 38.9225315, "is_disabled": 0, "name": "2e6220ca8cd5e462ce2ebc5afb1300ee", "fusion_lat": 0.0, "rental_uris": {"ios": "https://dc.lft.to/lastmile_qr_scan", "android": "https://dc.lft.to/lastmile_qr_scan"}, "lon": -77.04123116666666, "type": "electric_scooter"}, {"bike_id": "36020bf9a21a6116f45b4dde0de52c2a", "is_reserved": 0, "fusion_lon": 0.0, "lat": 38.916733666666666, "is_disabled": 0, "name": "36020bf9a21a6116f45b4dde0de52c2a", "fusion_lat": 0.0, "rental_uris": {"ios": "https://dc.lft.to/lastmile_qr_scan", "android": "https://dc.lft.to/lastmile_qr_scan"}, "lon": -77.036893, "type": "electric_scooter"}, {"bike_id": "3183bc2c1fc008ad3b87a18a65c5a80c", "is_reserved": 0, "fusion_lon": 0.0, "lat": 38.9045325, "is_disabled": 0, "name": "3183bc2c1fc008ad3b87a18a65c5a80c", "fusion_lat": 0.0, "rental_uris": {"ios": "https://dc.lft.to/lastmile_qr_scan", "android": "https://dc.lft.to/lastmile_qr_scan"}, "lon": -77.04885733333333, "type": "electric_scooter"}, {"bike_id": "e040f383cd1d31bb89a994000f88eb84", "is_reserved": 0, "fusion_lon": 0.0, "lat": 38.884295333333334, "is_disabled": 0, "name": "e040f383cd1d31bb89a994000f88eb84", "fusion_lat": 0.0, "rental_uris": {"ios": "https://dc.lft.to/lastmile_qr_scan", "android": "https://dc.lft.to/lastmile_qr_scan"}, "lon": -76.95745333333333, "type": "electric_scooter"}, {"bike_id": "2a82f3b732d205e2de09128d78105c2b", "is_reserved": 0, "fusion_lon": 0.0, "lat": 38.85706716666667, "is_disabled": 0, "name": "2a82f3b732d205e2de09128d78105c2b", "fusion_lat": 0.0, "rental_uris": {"ios": "https://dc.lft.to/lastmile_qr_scan", "android": "https://dc.lft.to/lastmile_qr_scan"}, "lon": -76.98161616666667, "type": "electric_scooter"}, {"bike_id": "f194838aba1a0ce508972be8ca735afd", "is_reserved": 0, "fusion_lon": 0.0, "lat": 38.912729, "is_disabled": 0, "name": "f194838aba1a0ce508972be8ca735afd", "fusion_lat": 0.0, "rental_uris": {"ios": "https://dc.lft.to/lastmile_qr_scan", "android": "https://dc.lft.to/lastmile_qr_scan"}, "lon": -77.03133966666667, "type": "electric_scooter"}, {"bike_id": "88de329c94e66a91c9d418b2642e158d", "is_reserved": 0, "fusion_lon": 0.0, "lat": 38.916797, "is_disabled": 0, "name": "88de329c94e66a91c9d418b2642e158d", "fusion_lat": 0.0, "rental_uris": {"ios": "https://dc.lft.to/lastmile_qr_scan", "android": "https://dc.lft.to/lastmile_qr_scan"}, "lon": -77.0271795, "type": "electric_scooter"}, {"bike_id": "37b5c59c31ade494e2c50b0cc938b004", "is_reserved": 0, "fusion_lon": 0.0, "lat": 38.90553383333334, "is_disabled": 0, "name": "37b5c59c31ade494e2c50b0cc938b004", "fusion_lat": 0.0, "rental_uris": {"ios": "https://dc.lft.to/lastmile_qr_scan", "android": "https://dc.lft.to/lastmile_qr_scan"}, "lon": -77.0058255, "type": "electric_scooter"}, {"bike_id": "7e97f584b01bc4dfc71559296e8765de", "is_reserved": 0, "fusion_lon": 0.0, "lat": 38.9132925, "is_disabled": 0, "name": "7e97f584b01bc4dfc71559296e8765de", "fusion_lat": 0.0, "rental_uris": {"ios": "https://dc.lft.to/lastmile_qr_scan", "android": "https://dc.lft.to/lastmile_qr_scan"}, "lon": -77.00225066666667, "type": "electric_scooter"}, {"bike_id": "f5d83652e5c188ab89b77e355c655f88", "is_reserved": 0, "fusion_lon": 0.0, "lat": 38.95483616666667, "is_disabled": 0, "name": "f5d83652e5c188ab89b77e355c655f88", "fusion_lat": 0.0, "rental_uris": {"ios": "https://dc.lft.to/lastmile_qr_scan", "android": "https://dc.lft.to/lastmile_qr_scan"}, "lon": -77.0824235, "type": "electric_bike"}, {"bike_id": "8dbdb9ab57d9273eb70f6f3d5d5b87b4", "is_reserved": 0, "fusion_lon": 0.0, "lat": 38.92066416666667, "is_disabled": 0, "name": "8dbdb9ab57d9273eb70f6f3d5d5b87b4", "fusion_lat": 0.0, "rental_uris": {"ios": "https://dc.lft.to/lastmile_qr_scan", "android": "https://dc.lft.to/lastmile_qr_scan"}, "lon": -77.042511, "type": "electric_scooter"}, {"bike_id": "3081d057e2cb132e4df852518e41604a", "is_reserved": 0, "fusion_lon": 0.0, "lat": 38.920637166666666, "is_disabled": 0, "name": "3081d057e2cb132e4df852518e41604a", "fusion_lat": 0.0, "rental_uris": {"ios": "https://dc.lft.to/lastmile_qr_scan", "android": "https://dc.lft.to/lastmile_qr_scan"}, "lon": -77.04246283333333, "type": "electric_scooter"}, {"bike_id": "143bfb5104f03988d0c290ddfea1ed79", "is_reserved": 0, "fusion_lon": 0.0, "lat": 38.924745333333334, "is_disabled": 0, "name": "143bfb5104f03988d0c290ddfea1ed79", "fusion_lat": 0.0, "rental_uris": {"ios": "https://dc.lft.to/lastmile_qr_scan", "android": "https://dc.lft.to/lastmile_qr_scan"}, "lon": -77.03548633333334, "type": "electric_scooter"}, {"bike_id": "32f1952e322f5ee76a1cb8f260869ee6", "is_reserved": 0, "fusion_lon": 0.0, "lat": 38.9258795, "is_disabled": 0, "name": "32f1952e322f5ee76a1cb8f260869ee6", "fusion_lat": 0.0, "rental_uris": {"ios": "https://dc.lft.to/lastmile_qr_scan", "android": "https://dc.lft.to/lastmile_qr_scan"}, "lon": -77.0054985, "type": "electric_scooter"}, {"bike_id": "5faba23db142f5a20a13731886265b2c", "is_reserved": 0, "fusion_lon": 0.0, "lat": 38.920919833333336, "is_disabled": 0, "name": "5faba23db142f5a20a13731886265b2c", "fusion_lat": 0.0, "rental_uris": {"ios": "https://dc.lft.to/lastmile_qr_scan", "android": "https://dc.lft.to/lastmile_qr_scan"}, "lon": -77.02591833333334, "type": "electric_scooter"}, {"bike_id": "0e64f30e7dac6db51b7d814d210df7f7", "is_reserved": 0, "fusion_lon": 0.0, "lat": 38.897580833333336, "is_disabled": 0, "name": "0e64f30e7dac6db51b7d814d210df7f7", "fusion_lat": 0.0, "rental_uris": {"ios": "https://dc.lft.to/lastmile_qr_scan", "android": "https://dc.lft.to/lastmile_qr_scan"}, "lon": -76.94182966666666, "type": "electric_scooter"},