{"data": {"bikes": [{"rental_uris": {"ios": "https://dc.lft.to/lastmile_qr_scan", "android": "https://dc.lft.to/lastmile_qr_scan"}, "lat": 38.861936, "lon": -76.95949583333334, "fusion_lat": 0.0, "name": "bd1926bce495d29b3564b17ebe18c990", "is_disabled": 0, "is_reserved": 0, "bike_id": "bd1926bce495d29b3564b17ebe18c990", "fusion_lon": 0.0, "type": "electric_scooter"}, {"rental_uris": {"ios": "https://dc.lft.to/lastmile_qr_scan", "android": "https://dc.lft.to/lastmile_qr_scan"}, "lat": 38.915412, "lon": -77.0444915, "fusion_lat": 0.0, "name": "586900f410e28a3d468a6639507b96ea", "is_disabled": 0, "is_reserved": 0, "bike_id": "586900f410e28a3d468a6639507b96ea", "fusion_lon": 0.0, "type": "electric_scooter"}, {"rental_uris": {"ios": "https://dc.lft.to/lastmile_qr_scan", "android": "https://dc.lft.to/lastmile_qr_scan"}, "lat": 38.9110985, "lon": -77.0321675, "fusion_lat": 0.0, "name": "e3781d7b53767d278bf5395ff140589d", "is_disabled": 0, "is_reserved": 0, "bike_id": "e3781d7b53767d278bf5395ff140589d", "fusion_lon": 0.0, "type": "electric_scooter"}, {"rental_uris": {"ios": "https://dc.lft.to/lastmile_qr_scan", "android": "https://dc.lft.to/lastmile_qr_scan"}, "lat": 38.9245785, "lon": -77.02155966666666, "fusion_lat": 0.0, "name": "3888590bd28d7bb9ae77047eec74e0a4", "is_disabled": 0, "is_reserved": 0, "bike_id": "3888590bd28d7bb9ae77047eec74e0a4", "fusion_lon": 0.0, "type": "electric_scooter"}, {"rental_uris": {"ios": "https://dc.lft.to/lastmile_qr_scan", "android": "https://dc.lft.to/lastmile_qr_scan"}, "lat": 38.87647, "lon": -76.96506233333334, "fusion_lat": 0.0, "name": "de992641f47d92747afc678368482c59", "is_disabled": 0, "is_reserved": 0, "bike_id": "de992641f47d92747afc678368482c59", "fusion_lon": 0.0, "type": "electric_scooter"}, {"rental_uris": {"ios": "https://dc.lft.to/lastmile_qr_scan", "android": "https://dc.lft.to/lastmile_qr_scan"}, "lat": 38.928830833333336, "lon": -77.0333185, "fusion_lat": 0.0, "name": "39d2b8bbe5675c36a84b325d346a211f", "is_disabled": 0, "is_reserved": 0, "bike_id": "39d2b8bbe5675c36a84b325d346a211f", "fusion_lon": 0.0, "type": "electric_scooter"}, {"rental_uris": {"ios": "https://dc.lft.to/lastmile_qr_scan", "android": "https://dc.lft.to/lastmile_qr_scan"}, "lat": 38.9163995, "lon": -77.088559, "fusion_lat": 0.0, "name": "bcb2a119a26f59d45afdd70d34ea6765", "is_disabled": 0, "is_reserved": 0, "bike_id": "bcb2a119a26f59d45afdd70d34ea6765", "fusion_lon": 0.0, "type": "electric_scooter"}, {"rental_uris": {"ios": "https://dc.lft.to/lastmile_qr_scan", "android": "https://dc.lft.to/lastmile_qr_scan"}, "lat": 38.914179, "lon": -77.02210483333333, "fusion_lat": 0.0, "name": "ba2fd87570a44dce5548e7e6b302d1a2", "is_disabled": 0, "is_reserved": 0, "bike_id": "ba2fd87570a44dce5548e7e6b302d1a2", "fusion_lon": 0.0, "type": "electric_scooter"}, {"rental_uris": {"ios": "https://dc.lft.to/lastmile_qr_scan", "android": "https://dc.lft.to/lastmile_qr_scan"}, "lat": 38.895964166666666, "lon": -77.02216316666667, "fusion_lat": 0.0, "name": "5e9bc05cf3806202e6b75606d298141c", "is_disabled": 0, "is_reserved": 0, "bike_id": "5e9bc05cf3806202e6b75606d298141c", "fusion_lon": 0.0, "type": "electric_scooter"}, {"rental_uris": {"ios": "https://dc.lft.to/lastmile_qr_scan", "android": "https://dc.lft.to/lastmile_qr_scan"}, "lat": 38.90334583333333, "lon": -77.03997816666667, "fusion_lat": 0.0, "name": "5541061a5b43f3dab410268cbcc632d3", "is_disabled": 0, "is_reserved": 0, "bike_id": "5541061a5b43f3dab410268cbcc632d3", "fusion_lon": 0.0, "type": "electric_scooter"}, {"rental_uris": {"ios": "https://dc.lft.to/lastmile_qr_scan", "android": "https://dc.lft.to/lastmile_qr_scan"}, "lat": 38.91560033333333, "lon": -77.020435, "fusion_lat": 0.0, "name": "99cb7b21948e2fd070d3d2feb8c133c3", "is_disabled": 0, "is_reserved": 0, "bike_id": "99cb7b21948e2fd070d3d2feb8c133c3", "fusion_lon": 0.0, "type": "electric_scooter"}, {"rental_uris": {"ios": "https://dc.lft.to/lastmile_qr_scan", "android": "https://dc.lft.to/lastmile_qr_scan"}, "lat": 38.90346566666667, "lon": -77.00215916666667, "fusion_lat": 0.0, "name": "d84dbfc29cdd0f0ead64b64693d37fe6", "is_disabled": 0, "is_reserved": 0, "bike_id": "d84dbfc29cdd0f0ead64b64693d37fe6", "fusion_lon": 0.0, "type": "electric_scooter"}, {"rental_uris": {"ios": "https://dc.lft.to/lastmile_qr_scan", "android": "https://dc.lft.to/lastmile_qr_scan"}, "lat": 38.92023233333333, "lon": -76.995581, "fusion_lat": 0.0, "name": "232e36b98e0b9538fcc653b34b0ac882", "is_disabled": 0, "is_reserved": 0, "bike_id": "232e36b98e0b9538fcc653b34b0ac882", "fusion_lon": 0.0, "type": "electric_scooter"}, {"rental_uris": {"ios": "https://dc.lft.to/lastmile_qr_scan", "android": "https://dc.lft.to/lastmile_qr_scan"}, "lat": 38.89217933333333, "lon": -77.025437, "fusion_lat": 0.0, "name": "00183009fb067ebd0d91150e35507d6f", "is_disabled": 0, "is_reserved": 0, "bike_id": "00183009fb067ebd0d91150e35507d6f", "fusion_lon": 0.0, "type": "electric_scooter"}, {"rental_uris": {"ios": "https://dc.lft.to/lastmile_qr_scan", "android": "https://dc.lft.to/lastmile_qr_scan"}, "lat": 38.91797066666667, "lon": -77.02951816666666, "fusion_lat": 0.0, "name": "b1ee95706fb6ec73659c826881f2287b", "is_disabled": 0, "is_reserved": 0, "bike_id": "b1ee95706fb6ec73659c826881f2287b", "fusion_lon": 0.0, "type": "electric_scooter"}, {"rental_uris": {"ios": "https://dc.lft.to/lastmile_qr_scan", "android": "https://dc.lft.to/lastmile_qr_scan"}, "lat": 38.908836, "lon": -76.99625133333333, "fusion_lat": 0.0, "name": "4bf4380d0478f70a0b65bb2226adafb9", "is_disabled": 0, "is_reserved": 0, "bike_id": "4bf4380d0478f70a0b65bb2226adafb9", "fusion_lon": 0.0, "type": "electric_scooter"}, {"rental_uris": {"ios": "https://dc.lft.to/lastmile_qr_scan", "android": "https://dc.lft.to/lastmile_qr_scan"}, "lat": 38.924368666666666, "lon": -77.03400966666666, "fusion_lat": 0.0, "name": "d9d86402a27c0ede350c014b0d15f4a7", "is_disabled": 0, "is_reserved": 0, "bike_id": "d9d86402a27c0ede350c014b0d15f4a7", "fusion_lon": 0.0, "type": "electric_scooter"}, {"rental_uris": {"ios": "https://dc.lft.to/lastmile_qr_scan", "android": "https://dc.lft.to/lastmile_qr_scan"}, "lat": 38.900503, "lon": -77.0006525, "fusion_lat": 0.0, "name": "e76247b416d32e61a38f76570fe59a1a", "is_disabled": 0, "is_reserved": 0, "bike_id": "e76247b416d32e61a38f76570fe59a1a", "fusion_lon": 0.0, "type": "electric_scooter"}, {"rental_uris": {"ios": "https://dc.lft.to/lastmile_qr_scan", "android": "https://dc.lft.to/lastmile_qr_scan"}, "lat": 38.90954816666667, "lon": -77.04435716666667, "fusion_lat": 0.0, "name": "acd32cdcc356e86a4bb6670ed5cb4119", "is_disabled": 0, "is_reserved": 0, "bike_id": "acd32cdcc356e86a4bb6670ed5cb4119", "fusion_lon": 0.0, "type": "electric_scooter"}, {"rental_uris": {"ios": "https://dc.lft.to/lastmile_qr_scan", "android": "https://dc.lft.to/lastmile_qr_scan"}, "lat": 38.91778433333333, "lon": -77.02311966666667, "fusion_lat": 0.0, "name": "b3d19cba776c9ddd04119e678d652673", "is_disabled": 0, "is_reserved": 0, "bike_id": "b3d19cba776c9ddd04119e678d652673", "fusion_lon": 0.0, "type": "electric_scooter"}, {"rental_uris": {"ios": "https://dc.lft.to/lastmile_qr_scan", "android": "https://dc.lft.to/lastmile_qr_scan"}, "lat": 38.89607866666667, "lon": -77.02210016666666, "fusion_lat": 0.0, "name": "2de096971dc46bfda1d60112da325a2d", "is_disabled": 0, "is_reserved": 0, "bike_id": "2de096971dc46bfda1d60112da325a2d", "fusion_lon": 0.0, "type": "electric_scooter"}, {"rental_uris": {"ios": "https://dc.lft.to/lastmile_qr_scan", "android": "https://dc.lft.to/lastmile_qr_scan"}, "lat": 38.9088125, "lon": -77.0753005, "fusion_lat": 0.0, "name": "5b626dd7d03bdec7c2373e4878111afd", "is_disabled": 0, "is_reserved": 0, "bike_id": "5b626dd7d03bdec7c2373e4878111afd", "fusion_lon": 0.0, "type": "electric_scooter"}, {"rental_uris": {"ios": "https://dc.lft.to/lastmile_qr_scan", "android": "https://dc.lft.to/lastmile_qr_scan"}, "lat": 38.9284665, "lon": -77.0327915, "fusion_lat": 0.0, "name": "9bc6ad7a2bf33dc787ac70c8337bc04b", "is_disabled": 0, "is_reserved": 0, "bike_id": "9bc6ad7a2bf33dc787ac70c8337bc04b", "fusion_lon": 0.0, "type": "electric_scooter"}, {"rental_uris": {"ios": "https://dc.lft.to/lastmile_qr_scan", "android": "https://dc.lft.to/lastmile_qr_scan"}, "lat": 38.87299183333333, "lon": -77.13923483333333, "fusion_lat": 0.0, "name": "8b88a2a97efc381759349509c9f529b8", "is_disabled": 0, "is_reserved": 0, "bike_id": "8b88a2a97efc381759349509c9f529b8", "fusion_lon": 0.0, "type": "electric_bike"}, {"rental_uris": {"ios": "https://dc.lft.to/lastmile_qr_scan", "android": "https://dc.lft.to/lastmile_qr_scan"}, "lat": 38.93155683333333, "lon": -77.00112916666667, "fusion_lat": 0.0, "name": "0783875f0af1a97e64ad0459b21197b2", "is_disabled": 0, "is_reserved": 0, "bike_id": "0783875f0af1a97e64ad0459b21197b2", "fusion_lon": 0.0, "type": "electric_bike"}, {"rental_uris": {"ios": "https://dc.lft.to/lastmile_qr_scan", "android": "https://dc.lft.to/lastmile_qr_scan"}, "lat": 38.928691666666666, "lon": -77.03221216666667, "fusion_lat": 0.0, "name": "49b50e2c409e111d2f512b001d39a56c", "is_disabled": 0, "is_reserved": 0, "bike_id": "49b50e2c409e111d2f512b001d39a56c", "fusion_lon": 0.0, "type": "electric_scooter"}, {"rental_uris": {"ios": "https://dc.lft.to/lastmile_qr_scan", "android": "https://dc.lft.to/lastmile_qr_scan"}, "lat": 38.898355, "lon": -77.048331, "fusion_lat": 0.0, "name": "19f586351d1f9745053c0efdfbffabbe", "is_disabled": 0, "is_reserved": 0, "bike_id": "19f586351d1f9745053c0efdfbffabbe", "fusion_lon": 0.0, "type": "electric_scooter"}, {"rental_uris": {"ios": "https://dc.lft.to/lastmile_qr_scan", "android": "https://dc.lft.to/lastmile_qr_scan"}, "lat": 38.9113865, "lon": -76.99010083333333, "fusion_lat": 0.0, "name": "99d10d253174c708792eb74fa960e708", "is_disabled": 0, "is_reserved": 0, "bike_id": "99d10d253174c708792eb74fa960e708", "fusion_lon": 0.0, "type": "electric_scooter"}, {"rental_uris": {"ios": "https://dc.lft.to/lastmile_qr_scan", "android": "https://dc.lft.to/lastmile_qr_scan"}, "lat": 38.87170733333333, "lon": -77.006261, "fusion_lat": 0.0, "name": "4b595286b1acdcdbea288af1f6403ec8", "is_disabled": 0, "is_reserved": 0, "bike_id": "4b595286b1acdcdbea288af1f6403ec8", "fusion_lon": 0.0, "type": "electric_scooter"}, {"rental_uris": {"ios": "https://dc.lft.to/lastmile_qr_scan", "android": "https://dc.lft.to/lastmile_qr_scan"}, "lat": 38.940239166666665, "lon": -76.99216833333334, "fusion_lat": 0.0, "name": "915d9782d4ec300ae62bd5c805689dea", "is_disabled": 0, "is_reserved": 0, "bike_id": "915d9782d4ec300ae62bd5c805689dea", "fusion_lon": 0.0, "type": "electric_bike"}, {"rental_uris": {"ios": "https://dc.lft.to/lastmile_qr_scan", "android": "https://dc.lft.to/lastmile_qr_scan"}, "lat": 38.9230565, "lon": -77.0445555, "fusion_lat": 0.0, "name": "5502e64cf64bd1361a5a428076f186b3", "is_disabled": 0, "is_reserved": 0, "bike_id": "5502e64cf64bd1361a5a428076f186b3", "fusion_lon": 0.0, "type": "electric_scooter"}, {"rental_uris": {"ios": "https://dc.lft.to/lastmile_qr_scan", "android": "https://dc.lft.to/lastmile_qr_scan"}, "lat": 38.896095333333335, "lon": -77.0262745, "fusion_lat": 0.0, "name": "5e4f0690c6c818fdab70ae0158def7ed", "is_disabled": 0, "is_reserved": 0, "bike_id": "5e4f0690c6c818fdab70ae0158def7ed", "fusion_lon": 0.0, "type": "electric_scooter"}, {"rental_uris": {"ios": "https://dc.lft.to/lastmile_qr_scan", "android": "https://dc.lft.to/lastmile_qr_scan"}, "lat": 38.87418783333333, "lon": -77.08572133333334, "fusion_lat": 0.0, "name": "d50bd7c267cf7cb2f1cc1d47f6c1f16a", "is_disabled": 0, "is_reserved": 0, "bike_id": "d50bd7c267cf7cb2f1cc1d47f6c1f16a", "fusion_lon": 0.0, "type": "electric_bike"}, {"rental_uris": {"ios": "https://dc.lft.to/lastmile_qr_scan", "android": "https://dc.lft.to/lastmile_qr_scan"}, "lat": 38.894937666666664, "lon": -77.01097016666667, "fusion_lat": 0.0, "name": "d58660655e16252e895da81c41899c7e", "is_disabled": 0, "is_reserved": 0, "bike_id": "d58660655e16252e895da81c41899c7e", "fusion_lon": 0.0, "type": "electric_scooter"}, {"rental_uris": {"ios": "https://dc.lft.to/lastmile_qr_scan", "android": "https://dc.lft.to/lastmile_qr_scan"}, "lat": 38.89663383333333, "lon": -76.98841716666666, "fusion_lat": 0.0, "name": "c06545e96b84835bd3990d24dfd49fe7", "is_disabled": 0, "is_reserved": 0, "bike_id": "c06545e96b84835bd3990d24dfd49fe7", "fusion_lon": 0.0, "type": "electric_scooter"}, {"rental_uris": {"ios": "https://dc.lft.to/lastmile_qr_scan", "android": "https://dc.lft.to/lastmile_qr_scan"}, "lat": 38.90723666666667, "lon": -77.04077683333334, "fusion_lat": 0.0, "name": "4037710af1838602f0d64724c6deb83c", "is_disabled": 0, "is_reserved": 0, "bike_id": "4037710af1838602f0d64724c6deb83c", "fusion_lon": 0.0, "type": "electric_scooter"}, {"rental_uris": {"ios": "https://dc.lft.to/lastmile_qr_scan", "android": "https://dc.lft.to/lastmile_qr_scan"}, "lat": 38.88716633333333, "lon": -76.99628033333333, "fusion_lat": 0.0, "name": "87e90a7e44512b21c65e42cdfcacf666", "is_disabled": 0, "is_reserved": 0, "bike_id": "87e90a7e44512b21c65e42cdfcacf666", "fusion_lon": 0.0, "type": "electric_scooter"}, {"rental_uris": {"ios": "https://dc.lft.to/lastmile_qr_scan", "android": "https://dc.lft.to/lastmile_qr_scan"}, "lat": 38.89840566666667, "lon": -77.04439516666666, "fusion_lat": 0.0, "name": "1c2453ebce4687717e13c56db8721fd0", "is_disabled": 0, "is_reserved": 0, "bike_id": "1c2453ebce4687717e13c56db8721fd0", "fusion_lon": 0.0, "type": "electric_scooter"}, {"rental_uris": {"ios": "https://dc.lft.to/lastmile_qr_scan", "android": "https://dc.lft.to/lastmile_qr_scan"}, "lat": 38.94288983333333, "lon": -77.02173083333334, "fusion_lat": 0.0, "name": "eb5c1d6d42444838a5bfe3d94d9d3887", "is_disabled": 0, "is_reserved": 0, "bike_id": "eb5c1d6d42444838a5bfe3d94d9d3887", "fusion_lon": 0.0, "type": "electric_scooter"}, {"rental_uris": {"ios": "https://dc.lft.to/lastmile_qr_scan", "android": "https://dc.lft.to/lastmile_qr_scan"}, "lat": 38.9126855, "lon": -77.03145616666667, "fusion_lat": 0.0, "name": "1e376898ed9bdc5145606596e7936979", "is_disabled": 0, "is_reserved": 0, "bike_id": "1e376898ed9bdc5145606596e7936979", "fusion_lon": 0.0, "type": "electric_scooter"}, {"rental_uris": {"ios": "https://dc.lft.to/lastmile_qr_scan", "android": "https://dc.lft.to/lastmile_qr_scan"}, "lat": 38.9262505, "lon": -77.04213783333333, "fusion_lat": 0.0, "name": "36f040f7f175ed2835932f60b009b578", "is_disabled": 0, "is_reserved": 0, "bike_id": "36f040f7f175ed2835932f60b009b578", "fusion_lon": 0.0, "type": "electric_scooter"}, {"rental_uris": {"ios": "https://dc.lft.to/lastmile_qr_scan", "android": "https://dc.lft.to/lastmile_qr_scan"}, "lat": 38.91406083333333, "lon": -77.023796, "fusion_lat": 0.0, "name": "41283f13707ae718f704cc553221b2a6", "is_disabled": 0, "is_reserved": 0, "bike_id": "41283f13707ae718f704cc553221b2a6", "fusion_lon": 0.0, "type": "electric_scooter"}, {"rental_uris": {"ios": "https://dc.lft.to/lastmile_qr_scan", "android": "https://dc.lft.to/lastmile_qr_scan"}, "lat": 38.87419083333333, "lon": -77.0004825, "fusion_lat": 0.0, "name": "7dc9f2c67537b89491fc361f7967bbff", "is_disabled": 0, "is_reserved": 0, "bike_id": "7dc9f2c67537b89491fc361f7967bbff", "fusion_lon": 0.0, "type": "electric_scooter"}, {"rental_uris": {"ios": "https://dc.lft.to/lastmile_qr_scan", "android": "https://dc.lft.to/lastmile_qr_scan"}, "lat": 38.91122416666666, "lon": -77.0436465, "fusion_lat": 0.0, "name": "aafc38996d16e3940e30de7b30751103", "is_disabled": 0, "is_reserved": 0, "bike_id": "aafc38996d16e3940e30de7b30751103", "fusion_lon": 0.0, "type": "electric_scooter"}, {"rental_uris": {"ios": "https://dc.lft.to/lastmile_qr_scan", "android": "https://dc.lft.to/lastmile_qr_scan"}, "lat": 38.91822666666667, "lon": -77.04940933333333, "fusion_lat": 0.0, "name": "dc71f3cd3e169e1357b44a26855f520b", "is_disabled": 0, "is_reserved": 0, "bike_id": "dc71f3cd3e169e1357b44a26855f520b", "fusion_lon": 0.0, "type": "electric_scooter"}, {"rental_uris": {"ios": "https://dc.lft.to/lastmile_qr_scan", "android": "https://dc.lft.to/lastmile_qr_scan"}, "lat": 38.914819666666666, "lon": -77.02196666666667, "fusion_lat": 0.0, "name": "ca7ee7f6f33ddfd35f8dda22fb199fe5", "is_disabled": 0, "is_reserved": 0, "bike_id": "ca7ee7f6f33ddfd35f8dda22fb199fe5", "fusion_lon": 0.0, "type": "electric_scooter"}, {"rental_uris": {"ios": "https://dc.lft.to/lastmile_qr_scan", "android": "https://dc.lft.to/lastmile_qr_scan"}, "lat": 38.91711216666667, "lon": -77.04021783333333, "fusion_lat": 0.0, "name": "674f0b68d61987224e993b6a92dc6f35", "is_disabled": 0, "is_reserved": 0, "bike_id": "674f0b68d61987224e993b6a92dc6f35", "fusion_lon": 0.0, "type": "electric_scooter"}, {"rental_uris": {"ios": "https://dc.lft.to/lastmile_qr_scan", "android": "https://dc.lft.to/lastmile_qr_scan"}, "lat": 38.916715833333335, "lon": -77.02407433333333, "fusion_lat": 0.0, "name": "c2c28ff14fa26a6c790b5628d9482737", "is_disabled": 0, "is_reserved": 0, "bike_id": "c2c28ff14fa26a6c790b5628d9482737", "fusion_lon": 0.0, "type": "electric_scooter"}, {"rental_uris": {"ios": "https://dc.lft.to/lastmile_qr_scan", "android": "https://dc.lft.to/lastmile_qr_scan"}, "lat": 38.88746033333334, "lon": -77.0173095, "fusion_lat": 0.0, "name": "c5badea1de530b4576d0dd1ccdb67807", "is_disabled": 0, "is_reserved": 0, "bike_id": "c5badea1de530b4576d0dd1ccdb67807", "fusion_lon": 0.0, "type": "electric_scooter"}, {"rental_uris": {"ios": "https://dc.lft.to/lastmile_qr_scan", "android": "https://dc.lft.to/lastmile_qr_scan"}, "lat": 38.8999975, "lon": -77.0097235, "fusion_lat": 0.0, "name": "48493e03c6fcf5f50ed0808646d30f1a", "is_disabled": 0, "is_reserved": 0, "bike_id": "48493e03c6fcf5f50ed0808646d30f1a", "fusion_lon": 0.0, "type": "electric_scooter"}, {"rental_uris": {"ios": "https://dc.lft.to/lastmile_qr_scan", "android": "https://dc.lft.to/lastmile_qr_scan"}, "lat": 38.939528, "lon": -77.0723935, "fusion_lat": 0.0, "name": "f04f521817d80f9d9d055eb7ad328bcb", "is_disabled": 0, "is_reserved": 0, "bike_id": "f04f521817d80f9d9d055eb7ad328bcb", "fusion_lon": 0.0, "type": "electric_scooter"}, {"rental_uris": {"ios": "https://dc.lft.to/lastmile_qr_scan", "android": "https://dc.lft.to/lastmile_qr_scan"}, "lat": 38.900056, "lon": -76.99843716666666, "fusion_lat": 0.0, "name": "067696d81cb2c224bd853fafa9d8eed4", "is_disabled": 0, "is_reserved": 0, "bike_id": "067696d81cb2c224bd853fafa9d8eed4", "fusion_lon": 0.0, "type": "electric_scooter"}, {"rental_uris": {"ios": "https://dc.lft.to/lastmile_qr_scan", "android": "https://dc.lft.to/lastmile_qr_scan"}, "lat": 38.89250583333333, "lon": -77.03343533333333, "fusion_lat": 0.0, "name": "91ecde4de9cb452abedec156cafb20bb", "is_disabled": 0, "is_reserved": 0, "bike_id": "91ecde4de9cb452abedec156cafb20bb", "fusion_lon": 0.0, "type": "electric_scooter"}, {"rental_uris": {"ios": "https://dc.lft.to/lastmile_qr_scan", "android": "https://dc.lft.to/lastmile_qr_scan"}, "lat": 38.902288666666664, "lon": -77.06092533333333, "fusion_lat": 0.0, "name": "3fdb89459c7b64331eaec4dd65f628b9", "is_disabled": 0, "is_reserved": 0, "bike_id": "3fdb89459c7b64331eaec4dd65f628b9", "fusion_lon": 0.0, "type": "electric_scooter"}, {"rental_uris": {"ios": "https://dc.lft.to/lastmile_qr_scan", "android": "https://dc.lft.to/lastmile_qr_scan"}, "lat": 38.916730333333334, "lon": -77.0228665, "fusion_lat": 0.0, "name": "882bd9fe3d6bb27ec2466d139e08176d", "is_disabled": 0, "is_reserved": 0, "bike_id": "882bd9fe3d6bb27ec2466d139e08176d", "fusion_lon": 0.0, "type": "electric_scooter"}, {"rental_uris": {"ios": "https://dc.lft.to/lastmile_qr_scan", "android": "https://dc.lft.to/lastmile_qr_scan"}, "lat": 38.9247195, "lon": -77.0373035, "fusion_lat": 0.0, "name": "0c51017e90f068717db47b28fd0eceb2", "is_disabled": 0, "is_reserved": 0, "bike_id": "0c51017e90f068717db47b28fd0eceb2", "fusion_lon": 0.0, "type": "electric_scooter"}, {"rental_uris": {"ios": "https://dc.lft.to/lastmile_qr_scan", "android": "https://dc.lft.to/lastmile_qr_scan"}, "lat": 38.887153166666664, "lon": -77.01770266666666, "fusion_lat": 0.0, "name": "efc58da89944d85864feb8df0b4aeb1b", "is_disabled": 0, "is_reserved": 0, "bike_id": "efc58da89944d85864feb8df0b4aeb1b", "fusion_lon": 0.0, "type": "electric_scooter"}, {"rental_uris": {"ios": "https://dc.lft.to/lastmile_qr_scan", "android": "https://dc.lft.to/lastmile_qr_scan"}, "lat": 38.908339833333336, "lon": -77.033736, "fusion_lat": 0.0, "name": "0f70eaa3c061a6f37ff6cfec8779d054", "is_disabled": 0, "is_reserved": 0, "bike_id": "0f70eaa3c061a6f37ff6cfec8779d054", "fusion_lon": 0.0, "type": "electric_scooter"}, {"rental_uris": {"ios": "https://dc.lft.to/lastmile_qr_scan", "android": "https://dc.lft.to/lastmile_qr_scan"}, "lat": 38.91643216666667, "lon": -77.08858066666667, "fusion_lat": 0.0, "name": "84e071be2f860a0a153f41ccb124e31a", "is_disabled": 0, "is_reserved": 0, "bike_id": "84e071be2f860a0a153f41ccb124e31a", "fusion_lon": 0.0, "type": "electric_scooter"}, {"rental_uris": {"ios": "https://dc.lft.to/lastmile_qr_scan", "android": "https://dc.lft.to/lastmile_qr_scan"}, "lat": 38.89977183333333, "lon": -77.03203133333334, "fusion_lat": 0.0, "name": "dc077090bbbb54bbe5cd6236a0393875", "is_disabled": 0, "is_reserved": 0, "bike_id": "dc077090bbbb54bbe5cd6236a0393875", "fusion_lon": 0.0, "type": "electric_scooter"}, {"rental_uris": {"ios": "https://dc.lft.to/lastmile_qr_scan", "android": "https://dc.lft.to/lastmile_qr_scan"}, "lat": 38.874674, "lon": -77.00558166666667, "fusion_lat": 0.0, "name": "4e1e7567fed37d1645fefb3799368732", "is_disabled": 0, "is_reserved": 0, "bike_id": "4e1e7567fed37d1645fefb3799368732", "fusion_lon": 0.0, "type": "electric_scooter"}, {"rental_uris": {"ios": "https://dc.lft.to/lastmile_qr_scan", "android": "https://dc.lft.to/lastmile_qr_scan"}, "lat": 38.902857, "lon": -77.033339, "fusion_lat": 0.0, "name": "fa3c504dde026e5474a460a451b2e74b", "is_disabled": 0, "is_reserved": 0, "bike_id": "fa3c504dde026e5474a460a451b2e74b", "fusion_lon": 0.0, "type": "electric_scooter"}, {"rental_uris": {"ios": "https://dc.lft.to/lastmile_qr_scan", "android": "https://dc.lft.to/lastmile_qr_scan"}, "lat": 38.897408, "lon": -76.92043583333333, "fusion_lat": 0.0, "name": "5373216b7640c99b17344285f2190b21", "is_disabled": 0, "is_reserved": 0, "bike_id": "5373216b7640c99b17344285f2190b21", "fusion_lon": 0.0, "type": "electric_bike"}, {"rental_uris": {"ios": "https://dc.lft.to/lastmile_qr_scan", "android": "https://dc.lft.to/lastmile_qr_scan"}, "lat": 38.87658416666667, "lon": -77.00437016666666, "fusion_lat": 0.0, "name": "6b9f034b32d1964585ed56882fd9ce43", "is_disabled": 0, "is_reserved": 0, "bike_id": "6b9f034b32d1964585ed56882fd9ce43", "fusion_lon": 0.0, "type": "electric_scooter"}, {"rental_uris": {"ios": "https://dc.lft.to/lastmile_qr_scan", "android": "https://dc.lft.to/lastmile_qr_scan"}, "lat": 38.9076835, "lon": -77.034665, "fusion_lat": 0.0, "name": "023874ff263e8eaae4ad99585fb22f05", "is_disabled": 0, "is_reserved": 0, "bike_id": "023874ff263e8eaae4ad99585fb22f05", "fusion_lon": 0.0, "type": "electric_scooter"}, {"rental_uris": {"ios": "https://dc.lft.to/lastmile_qr_scan", "android": "https://dc.lft.to/lastmile_qr_scan"}, "lat": 38.93871683333333, "lon": -77.0339395, "fusion_lat": 0.0, "name": "40e35c251fcffff297f74b58fff415ea", "is_disabled": 0, "is_reserved": 0, "bike_id": "40e35c251fcffff297f74b58fff415ea", "fusion_lon": 0.0, "type": "electric_scooter"}, {"rental_uris": {"ios": "https://dc.lft.to/lastmile_qr_scan", "android": "https://dc.lft.to/lastmile_qr_scan"}, "lat": 38.8602095, "lon": -76.9968145, "fusion_lat": 0.0, "name": "82c6ff4bba07bde414be67014fe6a26d", "is_disabled": 0, "is_reserved": 0, "bike_id": "82c6ff4bba07bde414be67014fe6a26d", "fusion_lon": 0.0, "type": "electric_scooter"}, {"rental_uris": {"ios": "https://dc.lft.to/lastmile_qr_scan", "android": "https://dc.lft.to/lastmile_qr_scan"}, "lat": 38.90812433333333, "lon": -77.0344105, "fusion_lat": 0.0, "name": "1787793e77b2e76b15d3df9c18e33123", "is_disabled": 0, "is_reserved": 0, "bike_id": "1787793e77b2e76b15d3df9c18e33123", "fusion_lon": 0.0, "type": "electric_scooter"}, {"rental_uris": {"ios": "https://dc.lft.to/lastmile_qr_scan", "android": "https://dc.lft.to/lastmile_qr_scan"}, "lat": 38.8923905, "lon": -77.033478, "fusion_lat": 0.0, "name": "f5e158182f87a3008ee5d0b3f9b06290", "is_disabled": 0, "is_reserved": 0, "bike_id": "f5e158182f87a3008ee5d0b3f9b06290", "fusion_lon": 0.0, "type": "electric_scooter"}, {"rental_uris": {"ios": "https://dc.lft.to/lastmile_qr_scan", "android": "https://dc.lft.to/lastmile_qr_scan"}, "lat": 38.9249455, "lon": -77.031823, "fusion_lat": 0.0, "name": "08c99bc7aa60024f0d14bd2b006dd2c6", "is_disabled": 0, "is_reserved": 0, "bike_id": "08c99bc7aa60024f0d14bd2b006dd2c6", "fusion_lon": 0.0, "type": "electric_scooter"}, {"rental_uris": {"ios": "https://dc.lft.to/lastmile_qr_scan", "android": "https://dc.lft.to/lastmile_qr_scan"}, "lat": 38.911257, "lon": -77.04340083333334, "fusion_lat": 0.0, "name": "22d3c00af812d66a1335a4afeec43e67", "is_disabled": 0, "is_reserved": 0, "bike_id": "22d3c00af812d66a1335a4afeec43e67", "fusion_lon": 0.0, "type": "electric_scooter"}, {"rental_uris": {"ios": "https://dc.lft.to/lastmile_qr_scan", "android": "https://dc.lft.to/lastmile_qr_scan"}, "lat": 38.88853816666666, "lon": -77.00048933333333, "fusion_lat": 0.0, "name": "9fe93d51fc2dcc5f15a18172b31de541", "is_disabled": 0, "is_reserved": 0, "bike_id": "9fe93d51fc2dcc5f15a18172b31de541", "fusion_lon": 0.0, "type": "electric_scooter"}, {"rental_uris": {"ios": "https://dc.lft.to/lastmile_qr_scan", "android": "https://dc.lft.to/lastmile_qr_scan"}, "lat": 38.90859566666666, "lon": -77.05484666666666, "fusion_lat": 0.0, "name": "87a8dbd7bcbaee4db9c29507b008191f", "is_disabled": 0, "is_reserved": 0, "bike_id": "87a8dbd7bcbaee4db9c29507b008191f", "fusion_lon": 0.0, "type": "electric_scooter"}, {"rental_uris": {"ios": "https://dc.lft.to/lastmile_qr_scan", "android": "https://dc.lft.to/lastmile_qr_scan"}, "lat": 38.8961225, "lon": -77.02244983333334, "fusion_lat": 0.0, "name": "90975c5dcf4bf9b82183789b8e48402a", "is_disabled": 0, "is_reserved": 0, "bike_id": "90975c5dcf4bf9b82183789b8e48402a", "fusion_lon": 0.0, "type": "electric_scooter"}, {"rental_uris": {"ios": "https://dc.lft.to/lastmile_qr_scan", "android": "https://dc.lft.to/lastmile_qr_scan"}, "lat": 38.90424483333334, "lon": -77.043491, "fusion_lat": 0.0, "name": "6139cd4f8f09df87370df319c6cb5b1f", "is_disabled": 0, "is_reserved": 0, "bike_id": "6139cd4f8f09df87370df319c6cb5b1f", "fusion_lon": 0.0, "type": "electric_scooter"}, {"rental_uris": {"ios": "https://dc.lft.to/lastmile_qr_scan", "android": "https://dc.lft.to/lastmile_qr_scan"}, "lat": 38.90853883333333, "lon": -76.99800766666667, "fusion_lat": 0.0, "name": "fbe8d107473fae800c7eee1e42be0729", "is_disabled": 0, "is_reserved": 0, "bike_id": "fbe8d107473fae800c7eee1e42be0729", "fusion_lon": 0.0, "type": "electric_scooter"}, {"rental_uris": {"ios": "https://dc.lft.to/lastmile_qr_scan", "android": "https://dc.lft.to/lastmile_qr_scan"}, "lat": 38.9166715, "lon": -77.02327633333333, "fusion_lat": 0.0, "name": "7d3297e9e7f05df192e4a96c25dce3d8", "is_disabled": 0, "is_reserved": 0, "bike_id": "7d3297e9e7f05df192e4a96c25dce3d8", "fusion_lon": 0.0, "type": "electric_scooter"}, {"rental_uris": {"ios": "https://dc.lft.to/lastmile_qr_scan", "android": "https://dc.lft.to/lastmile_qr_scan"}, "lat": 38.950752333333334, "lon": -77.02983633333334, "fusion_lat": 0.0, "name": "225711f2e17cd10fdfe7aace6eb6524c", "is_disabled": 0, "is_reserved": 0, "bike_id": "225711f2e17cd10fdfe7aace6eb6524c", "fusion_lon": 0.0, "type": "electric_scooter"}, {"rental_uris": {"ios": "https://dc.lft.to/lastmile_qr_scan", "android": "https://dc.lft.to/lastmile_qr_scan"}, "lat": 38.87653483333333, "lon": -76.9313215, "fusion_lat": 0.0, "name": "b191252cf39f2e6e7cd9ece0e0168c17", "is_disabled": 0, "is_reserved": 0, "bike_id": "b191252cf39f2e6e7cd9ece0e0168c17", "fusion_lon": 0.0, "type": "electric_scooter"}, {"rental_uris": {"ios": "https://dc.lft.to/lastmile_qr_scan", "android": "https://dc.lft.to/lastmile_qr_scan"}, "lat": 38.907318333333336, "lon": -77.02374733333333, "fusion_lat": 0.0, "name": "ce5cd932e6123726bb3ffe10b4530972", "is_disabled": 0, "is_reserved": 0, "bike_id": "ce5cd932e6123726bb3ffe10b4530972", "fusion_lon": 0.0, "type": "electric_scooter"}, {"rental_uris": {"ios": "https://dc.lft.to/lastmile_qr_scan", "android": "https://dc.lft.to/lastmile_qr_scan"}, "lat": 38.9345825, "lon": -76.96441783333333, "fusion_lat": 0.0, "name": "9588290187fa78eb6874bc1c3273b095", "is_disabled": 0, "is_reserved": 0, "bike_id": "9588290187fa78eb6874bc1c3273b095", "fusion_lon": 0.0, "type": "electric_scooter"}, {"rental_uris": {"ios": "https://dc.lft.to/lastmile_qr_scan", "android": "https://dc.lft.to/lastmile_qr_scan"}, "lat": 38.9020115, "lon": -77.019539, "fusion_lat": 0.0, "name": "391e390f344ba7adf698f8b7ee422b74", "is_disabled": 0, "is_reserved": 0, "bike_id": "391e390f344ba7adf698f8b7ee422b74", "fusion_lon": 0.0, "type": "electric_scooter"}, {"rental_uris": {"ios": "https://dc.lft.to/lastmile_qr_scan", "android": "https://dc.lft.to/lastmile_qr_scan"}, "lat": 38.898487, "lon": -77.0530145, "fusion_lat": 0.0, "name": "2acb8fde832d8e37179e2abced11f7b4", "is_disabled": 0, "is_reserved": 0, "bike_id": "2acb8fde832d8e37179e2abced11f7b4", "fusion_lon": 0.0, "type": "electric_bike"}, {"rental_uris": {"ios": "https://dc.lft.to/lastmile_qr_scan", "android": "https://dc.lft.to/lastmile_qr_scan"}, "lat": 38.92060433333333, "lon": -77.04226766666666, "fusion_lat": 0.0, "name": "ad9ccd5f941efb5816b4b0bcf337a3da", "is_disabled": 0, "is_reserved": 0, "bike_id": "ad9ccd5f941efb5816b4b0bcf337a3da", "fusion_lon": 0.0, "type": "electric_scooter"}, {"rental_uris": {"ios": "https://dc.lft.to/lastmile_qr_scan", "android": "https://dc.lft.to/lastmile_qr_scan"}, "lat": 38.91700083333333, "lon": -77.02869133333333, "fusion_lat": 0.0, "name": "b2cd1b911103ebdaa64286ed93436657", "is_disabled": 0, "is_reserved": 0, "bike_id": "b2cd1b911103ebdaa64286ed93436657", "fusion_lon": 0.0, "type": "electric_scooter"}, {"rental_uris": {"ios": "https://dc.lft.to/lastmile_qr_scan", "android": "https://dc.lft.to/lastmile_qr_scan"}, "lat": 38.917781, "lon": -77.0231155, "fusion_lat": 0.0, "name": "c4c8d82106c4f11ad2d23f1d4f7f46d0", "is_disabled": 0, "is_reserved": 0, "bike_id": "c4c8d82106c4f11ad2d23f1d4f7f46d0", "fusion_lon": 0.0, "type": "electric_scooter"}, {"rental_uris": {"ios": "https://dc.lft.to/lastmile_qr_scan", "android": "https://dc.lft.to/lastmile_qr_scan"}, "lat": 38.914761666666664, "lon": -77.04531266666666, "fusion_lat": 0.0, "name": "5ef1898ab2a5e244919525d2fae52d65", "is_disabled": 0, "is_reserved": 0, "bike_id": "5ef1898ab2a5e244919525d2fae52d65", "fusion_lon": 0.0, "type": "electric_scooter"}, {"rental_uris": {"ios": "https://dc.lft.to/lastmile_qr_scan", "android": "https://dc.lft.to/lastmile_qr_scan"}, "lat": 38.920292, "lon": -77.040888, "fusion_lat": 0.0, "name": "7b1e7f1c05d3a73eec253332075b016e", "is_disabled": 0, "is_reserved": 0, "bike_id": "7b1e7f1c05d3a73eec253332075b016e", "fusion_lon": 0.0, "type": "electric_scooter"}, {"rental_uris": {"ios": "https://dc.lft.to/lastmile_qr_scan", "android": "https://dc.lft.to/lastmile_qr_scan"}, "lat": 38.867019666666664, "lon": -76.9871245, "fusion_lat": 0.0, "name": "119045a272233dd8529ca6f25e468d00", "is_disabled": 0, "is_reserved": 0, "bike_id": "119045a272233dd8529ca6f25e468d00", "fusion_lon": 0.0, "type": "electric_scooter"}, {"rental_uris": {"ios": "https://dc.lft.to/lastmile_qr_scan", "android": "https://dc.lft.to/lastmile_qr_scan"}, "lat": 38.93139, "lon": -77.042437, "fusion_lat": 0.0, "name": "b969e9b678acaf109bb1b5767e57237e", "is_disabled": 0, "is_reserved": 0, "bike_id": "b969e9b678acaf109bb1b5767e57237e", "fusion_lon": 0.0, "type": "electric_scooter"}, {"rental_uris": {"ios": "https://dc.lft.to/lastmile_qr_scan", "android": "https://dc.lft.to/lastmile_qr_scan"}, "lat": 38.8960705, "lon": -77.04458233333334, "fusion_lat": 0.0, "name": "9ca66586dce13d6b09fe79a829e1b29a", "is_disabled": 0, "is_reserved": 0, "bike_id": "9ca66586dce13d6b09fe79a829e1b29a", "fusion_lon": 0.0, "type": "electric_scooter"}, {"rental_uris": {"ios": "https://dc.lft.to/lastmile_qr_scan", "android": "https://dc.lft.to/lastmile_qr_scan"}, "lat": 38.9176085, "lon": -77.04766066666667, "fusion_lat": 0.0, "name": "1b277473fcb4254aac951a5ef729c501", "is_disabled": 0, "is_reserved": 0, "bike_id": "1b277473fcb4254aac951a5ef729c501", "fusion_lon": 0.0, "type": "electric_scooter"}, {"rental_uris": {"ios": "https://dc.lft.to/lastmile_qr_scan", "android": "https://dc.lft.to/lastmile_qr_scan"}, "lat": 38.922183, "lon": -77.04334366666667, "fusion_lat": 0.0, "name": "c9e39cb5da25bd203a907222c929be92", "is_disabled": 0, "is_reserved": 0, "bike_id": "c9e39cb5da25bd203a907222c929be92", "fusion_lon": 0.0, "type": "electric_scooter"}, {"rental_uris": {"ios": "https://dc.lft.to/lastmile_qr_scan", "android": "https://dc.lft.to/lastmile_qr_scan"}, "lat": 38.90425166666667, "lon": -77.04834916666667, "fusion_lat": 0.0, "name": "5063803aec9335e7d480105bc5f4c5b6", "is_disabled": 0, "is_reserved": 0, "bike_id": "5063803aec9335e7d480105bc5f4c5b6", "fusion_lon": 0.0, "type": "electric_scooter"}, {"rental_uris": {"ios": "https://dc.lft.to/lastmile_qr_scan", "android": "https://dc.lft.to/lastmile_qr_scan"}, "lat": 38.905251, "lon": -77.0622495, "fusion_lat": 0.0, "name": "ac20c682f97eb6a268cbb1288aa77ebb", "is_disabled": 0, "is_reserved": 0, "bike_id": "ac20c682f97eb6a268cbb1288aa77ebb", "fusion_lon": 0.0, "type": "electric_scooter"}, {"rental_uris": {"ios": "https://dc.lft.to/lastmile_qr_scan", "android": "https://dc.lft.to/lastmile_qr_scan"}, "lat": 39.02432833333334, "lon": -77.131016, "fusion_lat": 0.0, "name": "b7bba81abe5a4ecd9697cc15c6b0d5da", "is_disabled": 0, "is_reserved": 0, "bike_id": "b7bba81abe5a4ecd9697cc15c6b0d5da", "fusion_lon": 0.0, "type": "electric_bike"}, {"rental_uris": {"ios": "https://dc.lft.to/lastmile_qr_scan", "android": "https://dc.lft.to/lastmile_qr_scan"}, "lat": 38.89624516666667, "lon": -77.0262295, "fusion_lat": 0.0, "name": "94a3b58c6d5bd9e62e6ab498b70e7267", "is_disabled": 0, "is_reserved": 0, "bike_id": "94a3b58c6d5bd9e62e6ab498b70e7267", "fusion_lon": 0.0, "type": "electric_scooter"}, {"rental_uris": {"ios": "https://dc.lft.to/lastmile_qr_scan", "android": "https://dc.lft.to/lastmile_qr_scan"}, "lat": 38.91681483333333, "lon": -77.02312583333334, "fusion_lat": 0.0, "name": "aafa5fea3ecbd260eab8446005c65378", "is_disabled": 0, "is_reserved": 0, "bike_id": "aafa5fea3ecbd260eab8446005c65378", "fusion_lon": 0.0, "type": "electric_scooter"}, {"rental_uris": {"ios": "https://dc.lft.to/lastmile_qr_scan", "android": "https://dc.lft.to/lastmile_qr_scan"}, "lat": 38.89747633333333, "lon": -77.02989, "fusion_lat": 0.0, "name": "4c23fec75edb970f886c63d9eac71692", "is_disabled": 0, "is_reserved": 0, "bike_id": "4c23fec75edb970f886c63d9eac71692", "fusion_lon": 0.0, "type": "electric_scooter"}, {"rental_uris": {"ios": "https://dc.lft.to/lastmile_qr_scan", "android": "https://dc.lft.to/lastmile_qr_scan"}, "lat": 38.924222, "lon": -77.01952266666666, "fusion_lat": 0.0, "name": "2861f6b9eb74dd48ed198d82c44b187d", "is_disabled": 0, "is_reserved": 0, "bike_id": "2861f6b9eb74dd48ed198d82c44b187d", "fusion_lon": 0.0, "type": "electric_scooter"}, {"rental_uris": {"ios": "https://dc.lft.to/lastmile_qr_scan", "android": "https://dc.lft.to/lastmile_qr_scan"}, "lat": 38.884117, "lon": -76.94821583333334, "fusion_lat": 0.0, "name": "13aa8356782b0afb57a4a87d7910838a", "is_disabled": 0, "is_reserved": 0, "bike_id": "13aa8356782b0afb57a4a87d7910838a", "fusion_lon": 0.0, "type": "electric_scooter"}, {"rental_uris": {"ios": "https://dc.lft.to/lastmile_qr_scan", "android": "https://dc.lft.to/lastmile_qr_scan"}, "lat": 38.83095683333333, "lon": -77.04291716666667, "fusion_lat": 0.0, "name": "1b4008c761d97d7e67d01f4382d84d32", "is_disabled": 0, "is_reserved": 0, "bike_id": "1b4008c761d97d7e67d01f4382d84d32", "fusion_lon": 0.0, "type": "electric_bike"}, {"rental_uris": {"ios": "https://dc.lft.to/lastmile_qr_scan", "android": "https://dc.lft.to/lastmile_qr_scan"}, "lat": 38.9339445, "lon": -77.05742666666667, "fusion_lat": 0.0, "name": "bec29b083b47e1ba6c1b89a8a072a43f", "is_disabled": 0, "is_reserved": 0, "bike_id": "bec29b083b47e1ba6c1b89a8a072a43f", "fusion_lon": 0.0, "type": "electric_scooter"}, {"rental_uris": {"ios": "https://dc.lft.to/lastmile_qr_scan", "android": "https://dc.lft.to/lastmile_qr_scan"}, "lat": 38.90567383333333, "lon": -77.041727, "fusion_lat": 0.0, "name": "f8c9ac21dfc05993c99de24d9712d823", "is_disabled": 0, "is_reserved": 0, "bike_id": "f8c9ac21dfc05993c99de24d9712d823", "fusion_lon": 0.0, "type": "electric_scooter"}, {"rental_uris": {"ios": "https://dc.lft.to/lastmile_qr_scan", "android": "https://dc.lft.to/lastmile_qr_scan"}, "lat": 38.914871833333336, "lon": -77.0217935, "fusion_lat": 0.0, "name": "ec258e43defaa2e6e7bdad64224468c0", "is_disabled": 0, "is_reserved": 0, "bike_id": "ec258e43defaa2e6e7bdad64224468c0", "fusion_lon": 0.0, "type": "electric_scooter"}, {"rental_uris": {"ios": "https://dc.lft.to/lastmile_qr_scan", "android": "https://dc.lft.to/lastmile_qr_scan"}, "lat": 38.80708816666667, "lon": -77.06169583333333, "fusion_lat": 0.0, "name": "ddf6eb53c7f88f59d9e81d586deab18a", "is_disabled": 0, "is_reserved": 0, "bike_id": "ddf6eb53c7f88f59d9e81d586deab18a", "fusion_lon": 0.0, "type": "electric_bike"}, {"rental_uris": {"ios": "https://dc.lft.to/lastmile_qr_scan", "android": "https://dc.lft.to/lastmile_qr_scan"}, "lat": 38.90959216666667, "lon": -77.03286083333333, "fusion_lat": 0.0, "name": "83cba602c04803121618888dfcfed3a3", "is_disabled": 0, "is_reserved": 0, "bike_id": "83cba602c04803121618888dfcfed3a3", "fusion_lon": 0.0, "type": "electric_scooter"}, {"rental_uris": {"ios": "https://dc.lft.to/lastmile_qr_scan", "android": "https://dc.lft.to/lastmile_qr_scan"}, "lat": 38.873635666666665, "lon": -76.97027866666667, "fusion_lat": 0.0, "name": "f6c501bc42fa89c9ee5aa8fd10c618c4", "is_disabled": 0, "is_reserved": 0, "bike_id": "f6c501bc42fa89c9ee5aa8fd10c618c4", "fusion_lon": 0.0, "type": "electric_scooter"}, {"rental_uris": {"ios": "https://dc.lft.to/lastmile_qr_scan", "android": "https://dc.lft.to/lastmile_qr_scan"}, "lat": 38.894276833333336, "lon": -77.03961466666667, "fusion_lat": 0.0, "name": "abbef3255ae38781297031fa00b6a3b4", "is_disabled": 0, "is_reserved": 0, "bike_id": "abbef3255ae38781297031fa00b6a3b4", "fusion_lon": 0.0, "type": "electric_scooter"}, {"rental_uris": {"ios": "https://dc.lft.to/lastmile_qr_scan", "android": "https://dc.lft.to/lastmile_qr_scan"}, "lat": 38.88747016666667, "lon": -77.031627, "fusion_lat": 0.0, "name": "052b043a8df146a461dd20629115a9bd", "is_disabled": 0, "is_reserved": 0, "bike_id": "052b043a8df146a461dd20629115a9bd", "fusion_lon": 0.0, "type": "electric_scooter"}, {"rental_uris": {"ios": "https://dc.lft.to/lastmile_qr_scan", "android": "https://dc.lft.to/lastmile_qr_scan"}, "lat": 38.908733833333336, "lon": -77.041052, "fusion_lat": 0.0, "name": "4ff20e9d529ee5b21ff676fa92a56239", "is_disabled": 0, "is_reserved": 0, "bike_id": "4ff20e9d529ee5b21ff676fa92a56239", "fusion_lon": 0.0, "type": "electric_scooter"}, {"rental_uris": {"ios": "https://dc.lft.to/lastmile_qr_scan", "android": "https://dc.lft.to/lastmile_qr_scan"}, "lat": 38.90527383333333, "lon": -77.06157516666667, "fusion_lat": 0.0, "name": "399c4cfe211bb5d34448a8a6231f0e13", "is_disabled": 0, "is_reserved": 0, "bike_id": "399c4cfe211bb5d34448a8a6231f0e13", "fusion_lon": 0.0, "type": "electric_scooter"}, {"rental_uris": {"ios": "https://dc.lft.to/lastmile_qr_scan", "android": "https://dc.lft.to/lastmile_qr_scan"}, "lat": 38.9112605, "lon": -77.04403616666667, "fusion_lat": 0.0, "name": "507c2ac41fd192bcf70e020797c3fb4a", "is_disabled": 0, "is_reserved": 0, "bike_id": "507c2ac41fd192bcf70e020797c3fb4a", "fusion_lon": 0.0, "type": "electric_scooter"}, {"rental_uris": {"ios": "https://dc.lft.to/lastmile_qr_scan", "android": "https://dc.lft.to/lastmile_qr_scan"}, "lat": 38.90272866666667, "lon": -77.0616195, "fusion_lat": 0.0, "name": "81c2a6bd9043df177c69488f247b28c2", "is_disabled": 0, "is_reserved": 0, "bike_id": "81c2a6bd9043df177c69488f247b28c2", "fusion_lon": 0.0, "type": "electric_scooter"}, {"rental_uris": {"ios": "https://dc.lft.to/lastmile_qr_scan", "android": "https://dc.lft.to/lastmile_qr_scan"}, "lat": 38.8849425, "lon": -77.00723966666666, "fusion_lat": 0.0, "name": "fe18a34c0bb58db554ee00fb5b29f291", "is_disabled": 0, "is_reserved": 0, "bike_id": "fe18a34c0bb58db554ee00fb5b29f291", "fusion_lon": 0.0, "type": "electric_scooter"}, {"rental_uris": {"ios": "https://dc.lft.to/lastmile_qr_scan", "android": "https://dc.lft.to/lastmile_qr_scan"}, "lat": 38.89516916666667, "lon": -77.022863, "fusion_lat": 0.0, "name": "4e50d67c77a768d076803f938e6faac1", "is_disabled": 0, "is_reserved": 0, "bike_id": "4e50d67c77a768d076803f938e6faac1", "fusion_lon": 0.0, "type": "electric_scooter"}, {"rental_uris": {"ios": "https://dc.lft.to/lastmile_qr_scan", "android": "https://dc.lft.to/lastmile_qr_scan"}, "lat": 38.91470533333333, "lon": -77.04581783333333, "fusion_lat": 0.0, "name": "8c8d158f47b939819d1bbbe94338562a", "is_disabled": 0, "is_reserved": 0, "bike_id": "8c8d158f47b939819d1bbbe94338562a", "fusion_lon": 0.0, "type": "electric_scooter"}, {"rental_uris": {"ios": "https://dc.lft.to/lastmile_qr_scan", "android": "https://dc.lft.to/lastmile_qr_scan"}, "lat": 38.880260166666666, "lon": -77.0223165, "fusion_lat": 0.0, "name": "d7c678a6aa7e67de0a8aa08950058348", "is_disabled": 0, "is_reserved": 0, "bike_id": "d7c678a6aa7e67de0a8aa08950058348", "fusion_lon": 0.0, "type": "electric_scooter"}, {"rental_uris": {"ios": "https://dc.lft.to/lastmile_qr_scan", "android": "https://dc.lft.to/lastmile_qr_scan"}, "lat": 38.966056, "lon": -77.01978116666666, "fusion_lat": 0.0, "name": "32dd72800b17de2d7649ffa20213d833", "is_disabled": 0, "is_reserved": 0, "bike_id": "32dd72800b17de2d7649ffa20213d833", "fusion_lon": 0.0, "type": "electric_scooter"}, {"rental_uris": {"ios": "https://dc.lft.to/lastmile_qr_scan", "android": "https://dc.lft.to/lastmile_qr_scan"}, "lat": 38.906738, "lon": -77.023834, "fusion_lat": 0.0, "name": "2dcb0c5e78730b10a072abc372d82a33", "is_disabled": 0, "is_reserved": 0, "bike_id": "2dcb0c5e78730b10a072abc372d82a33", "fusion_lon": 0.0, "type": "electric_scooter"}, {"rental_uris": {"ios": "https://dc.lft.to/lastmile_qr_scan", "android": "https://dc.lft.to/lastmile_qr_scan"}, "lat": 38.8988365, "lon": -76.93174483333334, "fusion_lat": 0.0, "name": "0a5b748bd4b9e2f5de66bc39f068a611", "is_disabled": 0, "is_reserved": 0, "bike_id": "0a5b748bd4b9e2f5de66bc39f068a611", "fusion_lon": 0.0, "type": "electric_scooter"}, {"rental_uris": {"ios": "https://dc.lft.to/lastmile_qr_scan", "android": "https://dc.lft.to/lastmile_qr_scan"}, "lat": 38.896085, "lon": -77.04497833333333, "fusion_lat": 0.0, "name": "63726c07fd6beda06b839377b009b1e2", "is_disabled": 0, "is_reserved": 0, "bike_id": "63726c07fd6beda06b839377b009b1e2", "fusion_lon": 0.0, "type": "electric_scooter"}, {"rental_uris": {"ios": "https://dc.lft.to/lastmile_qr_scan", "android": "https://dc.lft.to/lastmile_qr_scan"}, "lat": 38.90159583333333, "lon": -76.97631416666667, "fusion_lat": 0.0, "name": "ed83e5afa634b08866c13a3ab430c75d", "is_disabled": 0, "is_reserved": 0, "bike_id": "ed83e5afa634b08866c13a3ab430c75d", "fusion_lon": 0.0, "type": "electric_scooter"}, {"rental_uris": {"ios": "https://dc.lft.to/lastmile_qr_scan", "android": "https://dc.lft.to/lastmile_qr_scan"}, "lat": 38.915547, "lon": -77.01987683333333, "fusion_lat": 0.0, "name": "3700626fad5c28f362dd931ea9b8ef9b", "is_disabled": 0, "is_reserved": 0, "bike_id": "3700626fad5c28f362dd931ea9b8ef9b", "fusion_lon": 0.0, "type": "electric_scooter"}, {"rental_uris": {"ios": "https://dc.lft.to/lastmile_qr_scan", "android": "https://dc.lft.to/lastmile_qr_scan"}, "lat": 38.93390933333333, "lon": -77.05743833333334, "fusion_lat": 0.0, "name": "6069d07465d9ec98661cf4d83ba20d64", "is_disabled": 0, "is_reserved": 0, "bike_id": "6069d07465d9ec98661cf4d83ba20d64", "fusion_lon": 0.0, "type": "electric_scooter"}, {"rental_uris": {"ios": "https://dc.lft.to/lastmile_qr_scan", "android": "https://dc.lft.to/lastmile_qr_scan"}, "lat": 38.903568, "lon": -77.03967016666667, "fusion_lat": 0.0, "name": "f484cc07c139e45bac13bba80aeb983f", "is_disabled": 0, "is_reserved": 0, "bike_id": "f484cc07c139e45bac13bba80aeb983f", "fusion_lon": 0.0, "type": "electric_scooter"}, {"rental_uris": {"ios": "https://dc.lft.to/lastmile_qr_scan", "android": "https://dc.lft.to/lastmile_qr_scan"}, "lat": 38.924122833333335, "lon": -77.03923366666666, "fusion_lat": 0.0, "name": "360beea22f196d52de16aa8cf8e20402", "is_disabled": 0, "is_reserved": 0, "bike_id": "360beea22f196d52de16aa8cf8e20402", "fusion_lon": 0.0, "type": "electric_scooter"}, {"rental_uris": {"ios": "https://dc.lft.to/lastmile_qr_scan", "android": "https://dc.lft.to/lastmile_qr_scan"}, "lat": 38.9067255, "lon": -77.0382605, "fusion_lat": 0.0, "name": "91e3aa5c3e62de4bfa2a42ed8caf4b39", "is_disabled": 0, "is_reserved": 0, "bike_id": "91e3aa5c3e62de4bfa2a42ed8caf4b39", "fusion_lon": 0.0, "type": "electric_scooter"}, {"rental_uris": {"ios": "https://dc.lft.to/lastmile_qr_scan", "android": "https://dc.lft.to/lastmile_qr_scan"}, "lat": 38.9424105, "lon": -77.03581433333333, "fusion_lat": 0.0, "name": "1bf8815c69948d712a190a4f466abe7d", "is_disabled": 0, "is_reserved": 0, "bike_id": "1bf8815c69948d712a190a4f466abe7d", "fusion_lon": 0.0, "type": "electric_scooter"}, {"rental_uris": {"ios": "https://dc.lft.to/lastmile_qr_scan", "android": "https://dc.lft.to/lastmile_qr_scan"}, "lat": 38.903680333333334, "lon": -77.02686816666667, "fusion_lat": 0.0, "name": "e1fda649d539187be0ba969fa1ffbe25", "is_disabled": 0, "is_reserved": 0, "bike_id": "e1fda649d539187be0ba969fa1ffbe25", "fusion_lon": 0.0, "type": "electric_scooter"}, {"rental_uris": {"ios": "https://dc.lft.to/lastmile_qr_scan", "android": "https://dc.lft.to/lastmile_qr_scan"}, "lat": 38.921505833333335, "lon": -77.03860633333333, "fusion_lat": 0.0, "name": "d25542b1339dec1d354d88528e60b0be", "is_disabled": 0, "is_reserved": 0, "bike_id": "d25542b1339dec1d354d88528e60b0be", "fusion_lon": 0.0, "type": "electric_scooter"}, {"rental_uris": {"ios": "https://dc.lft.to/lastmile_qr_scan", "android": "https://dc.lft.to/lastmile_qr_scan"}, "lat": 38.8975995, "lon": -76.94704316666666, "fusion_lat": 0.0, "name": "94f1bf178930471fdcde9052601b6e9a", "is_disabled": 0, "is_reserved": 0, "bike_id": "94f1bf178930471fdcde9052601b6e9a", "fusion_lon": 0.0, "type": "electric_scooter"}, {"rental_uris": {"ios": "https://dc.lft.to/lastmile_qr_scan", "android": "https://dc.lft.to/lastmile_qr_scan"}, "lat": 38.91623033333333, "lon": -77.022916, "fusion_lat": 0.0, "name": "294ff16a37c73b12a6fec38ff17fc9a7", "is_disabled": 0, "is_reserved": 0, "bike_id": "294ff16a37c73b12a6fec38ff17fc9a7", "fusion_lon": 0.0, "type": "electric_scooter"}, {"rental_uris": {"ios": "https://dc.lft.to/lastmile_qr_scan", "android": "https://dc.lft.to/lastmile_qr_scan"}, "lat": 38.89722483333333, "lon": -77.02458133333333, "fusion_lat": 0.0, "name": "8e6a3a5270cc2d253c5088b721dc3c25", "is_disabled": 0, "is_reserved": 0, "bike_id": "8e6a3a5270cc2d253c5088b721dc3c25", "fusion_lon": 0.0, "type": "electric_scooter"}, {"rental_uris": {"ios": "https://dc.lft.to/lastmile_qr_scan", "android": "https://dc.lft.to/lastmile_qr_scan"}, "lat": 38.88429083333333, "lon": -76.9575395, "fusion_lat": 0.0, "name": "e5f3b74e851003f26471ec6c197d2af9", "is_disabled": 0, "is_reserved": 0, "bike_id": "e5f3b74e851003f26471ec6c197d2af9", "fusion_lon": 0.0, "type": "electric_scooter"}, {"rental_uris": {"ios": "https://dc.lft.to/lastmile_qr_scan", "android": "https://dc.lft.to/lastmile_qr_scan"}, "lat": 38.95003166666667, "lon": -77.01838533333333, "fusion_lat": 0.0, "name": "061536bdca62940fbf7b1533bb6bc519", "is_disabled": 0, "is_reserved": 0, "bike_id": "061536bdca62940fbf7b1533bb6bc519", "fusion_lon": 0.0, "type": "electric_scooter"}, {"rental_uris": {"ios": "https://dc.lft.to/lastmile_qr_scan", "android": "https://dc.lft.to/lastmile_qr_scan"}, "lat": 38.8563545, "lon": -77.1127035, "fusion_lat": 0.0, "name": "3358741abee2d694456732ce66dfa74f", "is_disabled": 0, "is_reserved": 0, "bike_id": "3358741abee2d694456732ce66dfa74f", "fusion_lon": 0.0, "type": "electric_bike"}, {"rental_uris": {"ios": "https://dc.lft.to/lastmile_qr_scan", "android": "https://dc.lft.to/lastmile_qr_scan"}, "lat": 38.91216083333333, "lon": -77.0320195, "fusion_lat": 0.0, "name": "4fbfa0621e3f889b04855d9e604c0549", "is_disabled": 0, "is_reserved": 0, "bike_id": "4fbfa0621e3f889b04855d9e604c0549", "fusion_lon": 0.0, "type": "electric_scooter"}, {"rental_uris": {"ios": "https://dc.lft.to/lastmile_qr_scan", "android": "https://dc.lft.to/lastmile_qr_scan"}, "lat": 38.9173895, "lon": -77.02116033333333, "fusion_lat": 0.0, "name": "0fe913490d4d4df953360a9354b96a61", "is_disabled": 0, "is_reserved": 0, "bike_id": "0fe913490d4d4df953360a9354b96a61", "fusion_lon": 0.0, "type": "electric_scooter"}, {"rental_uris": {"ios": "https://dc.lft.to/lastmile_qr_scan", "android": "https://dc.lft.to/lastmile_qr_scan"}, "lat": 38.92697783333333, "lon": -77.03557783333333, "fusion_lat": 0.0, "name": "aeb417b980a37651a6a09f241ee54149", "is_disabled": 0, "is_reserved": 0, "bike_id": "aeb417b980a37651a6a09f241ee54149", "fusion_lon": 0.0, "type": "electric_scooter"}, {"rental_uris": {"ios": "https://dc.lft.to/lastmile_qr_scan", "android": "https://dc.lft.to/lastmile_qr_scan"}, "lat": 38.894689666666665, "lon": -77.02188116666666, "fusion_lat": 0.0, "name": "1395db9289a389d97e92c32d90c1aeab", "is_disabled": 0, "is_reserved": 0, "bike_id": "1395db9289a389d97e92c32d90c1aeab", "fusion_lon": 0.0, "type": "electric_scooter"}, {"rental_uris": {"ios": "https://dc.lft.to/lastmile_qr_scan", "android": "https://dc.lft.to/lastmile_qr_scan"}, "lat": 38.906868833333334, "lon": -77.06075133333333, "fusion_lat": 0.0, "name": "62cc1352255c824155d26337b0e4a543", "is_disabled": 0, "is_reserved": 0, "bike_id": "62cc1352255c824155d26337b0e4a543", "fusion_lon": 0.0, "type": "electric_scooter"}, {"rental_uris": {"ios": "https://dc.lft.to/lastmile_qr_scan", "android": "https://dc.lft.to/lastmile_qr_scan"}, "lat": 38.90540333333333, "lon": -77.04490433333333, "fusion_lat": 0.0, "name": "d3ba34a9b96e7e7d0575d7a3afc8d935", "is_disabled": 0, "is_reserved": 0, "bike_id": "d3ba34a9b96e7e7d0575d7a3afc8d935", "fusion_lon": 0.0, "type": "electric_scooter"}, {"rental_uris": {"ios": "https://dc.lft.to/lastmile_qr_scan", "android": "https://dc.lft.to/lastmile_qr_scan"}, "lat": 38.8935635, "lon": -77.02221766666666, "fusion_lat": 0.0, "name": "bc5b27c357b9e5ef265908fddc9290aa", "is_disabled": 0, "is_reserved": 0, "bike_id": "bc5b27c357b9e5ef265908fddc9290aa", "fusion_lon": 0.0, "type": "electric_scooter"}, {"rental_uris": {"ios": "https://dc.lft.to/lastmile_qr_scan", "android": "https://dc.lft.to/lastmile_qr_scan"}, "lat": 38.9170465, "lon": -77.03193883333333, "fusion_lat": 0.0, "name": "66e9f4f389dac48a6b592dfa4c6dbcbb", "is_disabled": 0, "is_reserved": 0, "bike_id": "66e9f4f389dac48a6b592dfa4c6dbcbb", "fusion_lon": 0.0, "type": "electric_scooter"}, {"rental_uris": {"ios": "https://dc.lft.to/lastmile_qr_scan", "android": "https://dc.lft.to/lastmile_qr_scan"}, "lat": 38.92216066666667, "lon": -77.04332033333333, "fusion_lat": 0.0, "name": "11aac92af20935ae892eaade754cfab4", "is_disabled": 0, "is_reserved": 0, "bike_id": "11aac92af20935ae892eaade754cfab4", "fusion_lon": 0.0, "type": "electric_scooter"}, {"rental_uris": {"ios": "https://dc.lft.to/lastmile_qr_scan", "android": "https://dc.lft.to/lastmile_qr_scan"}, "lat": 38.9184955, "lon": -77.03205183333333, "fusion_lat": 0.0, "name": "07115a97f604157e6a2ecf09d67ed723", "is_disabled": 0, "is_reserved": 0, "bike_id": "07115a97f604157e6a2ecf09d67ed723", "fusion_lon": 0.0, "type": "electric_bike"}, {"rental_uris": {"ios": "https://dc.lft.to/lastmile_qr_scan", "android": "https://dc.lft.to/lastmile_qr_scan"}, "lat": 38.8800295, "lon": -77.00555316666667, "fusion_lat": 0.0, "name": "c033022273ac79a60b90cddc8e993fcc", "is_disabled": 0, "is_reserved": 0, "bike_id": "c033022273ac79a60b90cddc8e993fcc", "fusion_lon": 0.0, "type": "electric_scooter"}, {"rental_uris": {"ios": "https://dc.lft.to/lastmile_qr_scan", "android": "https://dc.lft.to/lastmile_qr_scan"}, "lat": 38.921082166666665, "lon": -77.02045083333333, "fusion_lat": 0.0, "name": "6a6f42a2fea72e413e19f273efea1b25", "is_disabled": 0, "is_reserved": 0, "bike_id": "6a6f42a2fea72e413e19f273efea1b25", "fusion_lon": 0.0, "type": "electric_scooter"}, {"rental_uris": {"ios": "https://dc.lft.to/lastmile_qr_scan", "android": "https://dc.lft.to/lastmile_qr_scan"}, "lat": 38.8923795, "lon": -77.03350816666666, "fusion_lat": 0.0, "name": "a981c9bd0f3864a621d5c3e72df13e8a", "is_disabled": 0, "is_reserved": 0, "bike_id": "a981c9bd0f3864a621d5c3e72df13e8a", "fusion_lon": 0.0, "type": "electric_scooter"}, {"rental_uris": {"ios": "https://dc.lft.to/lastmile_qr_scan", "android": "https://dc.lft.to/lastmile_qr_scan"}, "lat": 38.89916316666667, "lon": -77.04492333333333, "fusion_lat": 0.0, "name": "ad91f6e304a6bc5b629fe3770c8e1f53", "is_disabled": 0, "is_reserved": 0, "bike_id": "ad91f6e304a6bc5b629fe3770c8e1f53", "fusion_lon": 0.0, "type": "electric_scooter"}, {"rental_uris": {"ios": "https://dc.lft.to/lastmile_qr_scan", "android": "https://dc.lft.to/lastmile_qr_scan"}, "lat": 38.9178605, "lon": -77.02304183333334, "fusion_lat": 0.0, "name": "092a520d5f8b0e6d70ab4d354f8ffbd7", "is_disabled": 0, "is_reserved": 0, "bike_id": "092a520d5f8b0e6d70ab4d354f8ffbd7", "fusion_lon": 0.0, "type": "electric_scooter"}, {"rental_uris": {"ios": "https://dc.lft.to/lastmile_qr_scan", "android": "https://dc.lft.to/lastmile_qr_scan"}, "lat": 38.9062765, "lon": -77.03470116666666, "fusion_lat": 0.0, "name": "5234d4b7c205a3606d869de16293f929", "is_disabled": 0, "is_reserved": 0, "bike_id": "5234d4b7c205a3606d869de16293f929", "fusion_lon": 0.0, "type": "electric_scooter"}, {"rental_uris": {"ios": "https://dc.lft.to/lastmile_qr_scan", "android": "https://dc.lft.to/lastmile_qr_scan"}, "lat": 38.910569833333334, "lon": -77.0410145, "fusion_lat": 0.0, "name": "4f0c5125c4e6cd75c5923334b6477fde", "is_disabled": 0, "is_reserved": 0, "bike_id": "4f0c5125c4e6cd75c5923334b6477fde", "fusion_lon": 0.0, "type": "electric_scooter"}, {"rental_uris": {"ios": "https://dc.lft.to/lastmile_qr_scan", "android": "https://dc.lft.to/lastmile_qr_scan"}, "lat": 38.88390533333333, "lon": -77.09988033333333, "fusion_lat": 0.0, "name": "1d2ca2a96b4f2502aba4b44e8336d56a", "is_disabled": 0, "is_reserved": 0, "bike_id": "1d2ca2a96b4f2502aba4b44e8336d56a", "fusion_lon": 0.0, "type": "electric_bike"}, {"rental_uris": {"ios": "https://dc.lft.to/lastmile_qr_scan", "android": "https://dc.lft.to/lastmile_qr_scan"}, "lat": 38.901176166666666, "lon": -77.03000166666666, "fusion_lat": 0.0, "name": "c6fa1f363d88b3e1b7ebe9059b354134", "is_disabled": 0, "is_reserved": 0, "bike_id": "c6fa1f363d88b3e1b7ebe9059b354134", "fusion_lon": 0.0, "type": "electric_scooter"}, {"rental_uris": {"ios": "https://dc.lft.to/lastmile_qr_scan", "android": "https://dc.lft.to/lastmile_qr_scan"}, "lat": 38.9227925, "lon": -77.03660133333334, "fusion_lat": 0.0, "name": "c05a16a01eb00bf0dd6d9de254f9e942", "is_disabled": 0, "is_reserved": 0, "bike_id": "c05a16a01eb00bf0dd6d9de254f9e942", "fusion_lon": 0.0, "type": "electric_scooter"}, {"rental_uris": {"ios": "https://dc.lft.to/lastmile_qr_scan", "android": "https://dc.lft.to/lastmile_qr_scan"}, "lat": 38.908007, "lon": -77.03063033333333, "fusion_lat": 0.0, "name": "87ee4baa0e52fc8bccf30c283df88712", "is_disabled": 0, "is_reserved": 0, "bike_id": "87ee4baa0e52fc8bccf30c283df88712", "fusion_lon": 0.0, "type": "electric_scooter"}, {"rental_uris": {"ios": "https://dc.lft.to/lastmile_qr_scan", "android": "https://dc.lft.to/lastmile_qr_scan"}, "lat": 38.89325183333333, "lon": -77.04673866666667, "fusion_lat": 0.0, "name": "ab1be92acc4bc8473087ba80a5cd9957", "is_disabled": 0, "is_reserved": 0, "bike_id": "ab1be92acc4bc8473087ba80a5cd9957", "fusion_lon": 0.0, "type": "electric_scooter"}, {"rental_uris": {"ios": "https://dc.lft.to/lastmile_qr_scan", "android": "https://dc.lft.to/lastmile_qr_scan"}, "lat": 38.90270016666667, "lon": -77.0581975, "fusion_lat": 0.0, "name": "16f7fb9822ebc2e50945746a8570db53", "is_disabled": 0, "is_reserved": 0, "bike_id": "16f7fb9822ebc2e50945746a8570db53", "fusion_lon": 0.0, "type": "electric_scooter"}, {"rental_uris": {"ios": "https://dc.lft.to/lastmile_qr_scan", "android": "https://dc.lft.to/lastmile_qr_scan"}, "lat": 38.870607166666666, "lon": -76.97098483333333, "fusion_lat": 0.0, "name": "34da85150e9dbc37111602feb3dea5c7", "is_disabled": 0, "is_reserved": 0, "bike_id": "34da85150e9dbc37111602feb3dea5c7", "fusion_lon": 0.0, "type": "electric_scooter"}, {"rental_uris": {"ios": "https://dc.lft.to/lastmile_qr_scan", "android": "https://dc.lft.to/lastmile_qr_scan"}, "lat": 38.90726866666667, "lon": -77.02376166666667, "fusion_lat": 0.0, "name": "c3fe527b7171becbf2edfc44b4229c88", "is_disabled": 0, "is_reserved": 0, "bike_id": "c3fe527b7171becbf2edfc44b4229c88", "fusion_lon": 0.0, "type": "electric_scooter"}, {"rental_uris": {"ios": "https://dc.lft.to/lastmile_qr_scan", "android": "https://dc.lft.to/lastmile_qr_scan"}, "lat": 38.932301, "lon": -77.038546, "fusion_lat": 0.0, "name": "5d9fb41daf7cc6b829bcc791597b1176", "is_disabled": 0, "is_reserved": 0, "bike_id": "5d9fb41daf7cc6b829bcc791597b1176", "fusion_lon": 0.0, "type": "electric_scooter"}, {"rental_uris": {"ios": "https://dc.lft.to/lastmile_qr_scan", "android": "https://dc.lft.to/lastmile_qr_scan"}, "lat": 38.934688, "lon": -77.022347, "fusion_lat": 0.0, "name": "f30671a487bc3ba3ed011cc887e9cbe1", "is_disabled": 0, "is_reserved": 0, "bike_id": "f30671a487bc3ba3ed011cc887e9cbe1", "fusion_lon": 0.0, "type": "electric_scooter"}, {"rental_uris": {"ios": "https://dc.lft.to/lastmile_qr_scan", "android": "https://dc.lft.to/lastmile_qr_scan"}, "lat": 38.898697, "lon": -76.94628916666667, "fusion_lat": 0.0, "name": "0037c9b1719873eee554712204cacba6", "is_disabled": 0, "is_reserved": 0, "bike_id": "0037c9b1719873eee554712204cacba6", "fusion_lon": 0.0, "type": "electric_scooter"}, {"rental_uris": {"ios": "https://dc.lft.to/lastmile_qr_scan", "android": "https://dc.lft.to/lastmile_qr_scan"}, "lat": 38.915614, "lon": -77.022068, "fusion_lat": 0.0, "name": "9cbdcd06d04a9a0e24457dd3b1e85215", "is_disabled": 0, "is_reserved": 0, "bike_id": "9cbdcd06d04a9a0e24457dd3b1e85215", "fusion_lon": 0.0, "type": "electric_scooter"}, {"rental_uris": {"ios": "https://dc.lft.to/lastmile_qr_scan", "android": "https://dc.lft.to/lastmile_qr_scan"}, "lat": 38.922174166666665, "lon": -77.2014105, "fusion_lat": 0.0, "name": "35c02c58ae62b56fe9b978302e44b7f4", "is_disabled": 0, "is_reserved": 0, "bike_id": "35c02c58ae62b56fe9b978302e44b7f4", "fusion_lon": 0.0, "type": "electric_bike"}, {"rental_uris": {"ios": "https://dc.lft.to/lastmile_qr_scan", "android": "https://dc.lft.to/lastmile_qr_scan"}, "lat": 38.8614605, "lon": -77.09130466666667, "fusion_lat": 0.0, "name": "f5818436b8d273a85720783bfdaafe18", "is_disabled": 0, "is_reserved": 0, "bike_id": "f5818436b8d273a85720783bfdaafe18", "fusion_lon": 0.0, "type": "electric_bike"}, {"rental_uris": {"ios": "https://dc.lft.to/lastmile_qr_scan", "android": "https://dc.lft.to/lastmile_qr_scan"}, "lat": 38.94564366666667, "lon": -76.966851, "fusion_lat": 0.0, "name": "74e322489897b0d43e634cd8ed2e925b", "is_disabled": 0, "is_reserved": 0, "bike_id": "74e322489897b0d43e634cd8ed2e925b", "fusion_lon": 0.0, "type": "electric_bike"}, {"rental_uris": {"ios": "https://dc.lft.to/lastmile_qr_scan", "android": "https://dc.lft.to/lastmile_qr_scan"}, "lat": 38.9338995, "lon": -77.05741633333334, "fusion_lat": 0.0, "name": "599685ed1671dbcee02c3c564268864a", "is_disabled": 0, "is_reserved": 0, "bike_id": "599685ed1671dbcee02c3c564268864a", "fusion_lon": 0.0, "type": "electric_scooter"}, {"rental_uris": {"ios": "https://dc.lft.to/lastmile_qr_scan", "android": "https://dc.lft.to/lastmile_qr_scan"}, "lat": 38.888396666666665, "lon": -77.04901083333333, "fusion_lat": 0.0, "name": "08e32b6d9eaa6441d510cafcaeaeef78", "is_disabled": 0, "is_reserved": 0, "bike_id": "08e32b6d9eaa6441d510cafcaeaeef78", "fusion_lon": 0.0, "type": "electric_scooter"}, {"rental_uris": {"ios": "https://dc.lft.to/lastmile_qr_scan", "android": "https://dc.lft.to/lastmile_qr_scan"}, "lat": 38.91552333333333, "lon": -77.02131683333333, "fusion_lat": 0.0, "name": "86f01ff1d39e6a513b83efaee7fa18e6", "is_disabled": 0, "is_reserved": 0, "bike_id": "86f01ff1d39e6a513b83efaee7fa18e6", "fusion_lon": 0.0, "type": "electric_scooter"}, {"rental_uris": {"ios": "https://dc.lft.to/lastmile_qr_scan", "android": "https://dc.lft.to/lastmile_qr_scan"}, "lat": 38.92353516666667, "lon": -77.05273216666667, "fusion_lat": 0.0, "name": "ddaa65ad76da9dacc5e0285e7cc99e22", "is_disabled": 0, "is_reserved": 0, "bike_id": "ddaa65ad76da9dacc5e0285e7cc99e22", "fusion_lon": 0.0, "type": "electric_scooter"}, {"rental_uris": {"ios": "https://dc.lft.to/lastmile_qr_scan", "android": "https://dc.lft.to/lastmile_qr_scan"}, "lat": 38.918375, "lon": -77.04025233333333, "fusion_lat": 0.0, "name": "425584c181487b4d14c9a56b442407b0", "is_disabled": 0, "is_reserved": 0, "bike_id": "425584c181487b4d14c9a56b442407b0", "fusion_lon": 0.0, "type": "electric_scooter"}, {"rental_uris": {"ios": "https://dc.lft.to/lastmile_qr_scan", "android": "https://dc.lft.to/lastmile_qr_scan"}, "lat": 38.9587975, "lon": -77.02802416666667, "fusion_lat": 0.0, "name": "0c6f286bedc130932e1d7934a9ac295a", "is_disabled": 0, "is_reserved": 0, "bike_id": "0c6f286bedc130932e1d7934a9ac295a", "fusion_lon": 0.0, "type": "electric_scooter"}, {"rental_uris": {"ios": "https://dc.lft.to/lastmile_qr_scan", "android": "https://dc.lft.to/lastmile_qr_scan"}, "lat": 38.866797166666665, "lon": -76.98571483333333, "fusion_lat": 0.0, "name": "47af2583f5da1cdf818c687e8ce4adcf", "is_disabled": 0, "is_reserved": 0, "bike_id": "47af2583f5da1cdf818c687e8ce4adcf", "fusion_lon": 0.0, "type": "electric_scooter"}, {"rental_uris": {"ios": "https://dc.lft.to/lastmile_qr_scan", "android": "https://dc.lft.to/lastmile_qr_scan"}, "lat": 38.936535666666664, "lon": -77.03648366666667, "fusion_lat": 0.0, "name": "4c71672881a8cf37014136e459018efd", "is_disabled": 0, "is_reserved": 0, "bike_id": "4c71672881a8cf37014136e459018efd", "fusion_lon": 0.0, "type": "electric_scooter"}, {"rental_uris": {"ios": "https://dc.lft.to/lastmile_qr_scan", "android": "https://dc.lft.to/lastmile_qr_scan"}, "lat": 38.907082333333335, "lon": -77.03199016666667, "fusion_lat": 0.0, "name": "af97d1ac08339b4c3a9ff4e2a3b4161a", "is_disabled": 0, "is_reserved": 0, "bike_id": "af97d1ac08339b4c3a9ff4e2a3b4161a", "fusion_lon": 0.0, "type": "electric_scooter"}, {"rental_uris": {"ios": "https://dc.lft.to/lastmile_qr_scan", "android": "https://dc.lft.to/lastmile_qr_scan"}, "lat": 38.94289166666667, "lon": -77.02172716666666, "fusion_lat": 0.0, "name": "bf066683a27d53773e8c82391098651d", "is_disabled": 0, "is_reserved": 0, "bike_id": "bf066683a27d53773e8c82391098651d", "fusion_lon": 0.0, "type": "electric_scooter"}, {"rental_uris": {"ios": "https://dc.lft.to/lastmile_qr_scan", "android": "https://dc.lft.to/lastmile_qr_scan"}, "lat": 38.9063475, "lon": -77.04412583333334, "fusion_lat": 0.0, "name": "3d95c6d7efc0632fc321bfe5b90d40d0", "is_disabled": 0, "is_reserved": 0, "bike_id": "3d95c6d7efc0632fc321bfe5b90d40d0", "fusion_lon": 0.0, "type": "electric_scooter"}, {"rental_uris": {"ios": "https://dc.lft.to/lastmile_qr_scan", "android": "https://dc.lft.to/lastmile_qr_scan"}, "lat": 38.92635533333333, "lon": -77.033958, "fusion_lat": 0.0, "name": "c001f368a308b7fe33de23d6d60e173e", "is_disabled": 0, "is_reserved": 0, "bike_id": "c001f368a308b7fe33de23d6d60e173e", "fusion_lon": 0.0, "type": "electric_scooter"}, {"rental_uris": {"ios": "https://dc.lft.to/lastmile_qr_scan", "android": "https://dc.lft.to/lastmile_qr_scan"}, "lat": 38.897415333333335, "lon": -76.97966316666667, "fusion_lat": 0.0, "name": "af947027206ddc56cd717773ab305676", "is_disabled": 0, "is_reserved": 0, "bike_id": "af947027206ddc56cd717773ab305676", "fusion_lon": 0.0, "type": "electric_scooter"}, {"rental_uris": {"ios": "https://dc.lft.to/lastmile_qr_scan", "android": "https://dc.lft.to/lastmile_qr_scan"}, "lat": 38.8535285, "lon": -77.13465866666667, "fusion_lat": 0.0, "name": "d18f699214653dce3df9121050056280", "is_disabled": 0, "is_reserved": 0, "bike_id": "d18f699214653dce3df9121050056280", "fusion_lon": 0.0, "type": "electric_bike"}, {"rental_uris": {"ios": "https://dc.lft.to/lastmile_qr_scan", "android": "https://dc.lft.to/lastmile_qr_scan"}, "lat": 38.9249505, "lon": -77.05115666666667, "fusion_lat": 0.0, "name": "aead2c1120fb44d7017486726f130ac4", "is_disabled": 0, "is_reserved": 0, "bike_id": "aead2c1120fb44d7017486726f130ac4", "fusion_lon": 0.0, "type": "electric_scooter"}, {"rental_uris": {"ios": "https://dc.lft.to/lastmile_qr_scan", "android": "https://dc.lft.to/lastmile_qr_scan"}, "lat": 38.89889433333333, "lon": -77.02158033333333, "fusion_lat": 0.0, "name": "cffa917b82d6898cb3d1f31637eb5df0", "is_disabled": 0, "is_reserved": 0, "bike_id": "cffa917b82d6898cb3d1f31637eb5df0", "fusion_lon": 0.0, "type": "electric_scooter"}, {"rental_uris": {"ios": "https://dc.lft.to/lastmile_qr_scan", "android": "https://dc.lft.to/lastmile_qr_scan"}, "lat": 38.91328983333333, "lon": -77.04536866666666, "fusion_lat": 0.0, "name": "7f1b621f632537f6134f7df3cea99e9a", "is_disabled": 0, "is_reserved": 0, "bike_id": "7f1b621f632537f6134f7df3cea99e9a", "fusion_lon": 0.0, "type": "electric_scooter"}, {"rental_uris": {"ios": "https://dc.lft.to/lastmile_qr_scan", "android": "https://dc.lft.to/lastmile_qr_scan"}, "lat": 38.910575, "lon": -77.030895, "fusion_lat": 0.0, "name": "54185070b2eff377aed12279577072a2", "is_disabled": 0, "is_reserved": 0, "bike_id": "54185070b2eff377aed12279577072a2", "fusion_lon": 0.0, "type": "electric_scooter"}, {"rental_uris": {"ios": "https://dc.lft.to/lastmile_qr_scan", "android": "https://dc.lft.to/lastmile_qr_scan"}, "lat": 38.903772000000004, "lon": -76.9859535, "fusion_lat": 0.0, "name": "ecbeced9c7e3a058cd95768a8a727b64", "is_disabled": 0, "is_reserved": 0, "bike_id": "ecbeced9c7e3a058cd95768a8a727b64", "fusion_lon": 0.0, "type": "electric_scooter"}, {"rental_uris": {"ios": "https://dc.lft.to/lastmile_qr_scan", "android": "https://dc.lft.to/lastmile_qr_scan"}, "lat": 38.905389166666666, "lon": -77.04175266666667, "fusion_lat": 0.0, "name": "8e11997e4756edee1608a048617c90b3", "is_disabled": 0, "is_reserved": 0, "bike_id": "8e11997e4756edee1608a048617c90b3", "fusion_lon": 0.0, "type": "electric_scooter"}, {"rental_uris": {"ios": "https://dc.lft.to/lastmile_qr_scan", "android": "https://dc.lft.to/lastmile_qr_scan"}, "lat": 38.865054, "lon": -76.99012116666667, "fusion_lat": 0.0, "name": "cc85a25c61829ecfc3e2d7e48ec8d40e", "is_disabled": 0, "is_reserved": 0, "bike_id": "cc85a25c61829ecfc3e2d7e48ec8d40e", "fusion_lon": 0.0, "type": "electric_scooter"}, {"rental_uris": {"ios": "https://dc.lft.to/lastmile_qr_scan", "android": "https://dc.lft.to/lastmile_qr_scan"}, "lat": 38.9196, "lon": -77.02394133333334, "fusion_lat": 0.0, "name": "4eba1229bb1447b57c17b78008d8ce6e", "is_disabled": 0, "is_reserved": 0, "bike_id": "4eba1229bb1447b57c17b78008d8ce6e", "fusion_lon": 0.0, "type": "electric_scooter"}, {"rental_uris": {"ios": "https://dc.lft.to/lastmile_qr_scan", "android": "https://dc.lft.to/lastmile_qr_scan"}, "lat": 38.90506083333333, "lon": -77.04067666666667, "fusion_lat": 0.0, "name": "5f75322cc5ebb658b3b62a8f46a93d8a", "is_disabled": 0, "is_reserved": 0, "bike_id": "5f75322cc5ebb658b3b62a8f46a93d8a", "fusion_lon": 0.0, "type": "electric_scooter"}, {"rental_uris": {"ios": "https://dc.lft.to/lastmile_qr_scan", "android": "https://dc.lft.to/lastmile_qr_scan"}, "lat": 38.917064833333335, "lon": -77.09579216666667, "fusion_lat": 0.0, "name": "cb47ad766a9a61717e1446386eb61d6d", "is_disabled": 0, "is_reserved": 0, "bike_id": "cb47ad766a9a61717e1446386eb61d6d", "fusion_lon": 0.0, "type": "electric_scooter"}, {"rental_uris": {"ios": "https://dc.lft.to/lastmile_qr_scan", "android": "https://dc.lft.to/lastmile_qr_scan"}, "lat": 38.88390583333333, "lon": -77.017644, "fusion_lat": 0.0, "name": "fa93fc8e5f60d3de6a9ecf13d56064c5", "is_disabled": 0, "is_reserved": 0, "bike_id": "fa93fc8e5f60d3de6a9ecf13d56064c5", "fusion_lon": 0.0, "type": "electric_scooter"}, {"rental_uris": {"ios": "https://dc.lft.to/lastmile_qr_scan", "android": "https://dc.lft.to/lastmile_qr_scan"}, "lat": 38.92956916666667, "lon": -77.02343516666667, "fusion_lat": 0.0, "name": "9afd6be0dfa466150edd27f5cf8a5257", "is_disabled": 0, "is_reserved": 0, "bike_id": "9afd6be0dfa466150edd27f5cf8a5257", "fusion_lon": 0.0, "type": "electric_scooter"}, {"rental_uris": {"ios": "https://dc.lft.to/lastmile_qr_scan", "android": "https://dc.lft.to/lastmile_qr_scan"}, "lat": 38.91734116666667, "lon": -77.06841733333333, "fusion_lat": 0.0, "name": "348046d1e9c951fa4a6a69ff77d8af06", "is_disabled": 0, "is_reserved": 0, "bike_id": "348046d1e9c951fa4a6a69ff77d8af06", "fusion_lon": 0.0, "type": "electric_scooter"}, {"rental_uris": {"ios": "https://dc.lft.to/lastmile_qr_scan", "android": "https://dc.lft.to/lastmile_qr_scan"}, "lat": 38.9024435, "lon": -77.05899966666667, "fusion_lat": 0.0, "name": "cd795be724b849e63b1ce278da3fa06d", "is_disabled": 0, "is_reserved": 0, "bike_id": "cd795be724b849e63b1ce278da3fa06d", "fusion_lon": 0.0, "type": "electric_scooter"}, {"rental_uris": {"ios": "https://dc.lft.to/lastmile_qr_scan", "android": "https://dc.lft.to/lastmile_qr_scan"}, "lat": 38.94349233333333, "lon": -77.03757416666667, "fusion_lat": 0.0, "name": "5ea1c2b79101850dc70999476fb6770e", "is_disabled": 0, "is_reserved": 0, "bike_id": "5ea1c2b79101850dc70999476fb6770e", "fusion_lon": 0.0, "type": "electric_scooter"}, {"rental_uris": {"ios": "https://dc.lft.to/lastmile_qr_scan", "android": "https://dc.lft.to/lastmile_qr_scan"}, "lat": 38.86682183333333, "lon": -76.9857475, "fusion_lat": 0.0, "name": "74c070c252c044ebe60687190affe1e5", "is_disabled": 0, "is_reserved": 0, "bike_id": "74c070c252c044ebe60687190affe1e5", "fusion_lon": 0.0, "type": "electric_scooter"}, {"rental_uris": {"ios": "https://dc.lft.to/lastmile_qr_scan", "android": "https://dc.lft.to/lastmile_qr_scan"}, "lat": 38.91682866666667, "lon": -77.023074, "fusion_lat": 0.0, "name": "58aae0122fe311c96a7da6a5e46aaaef", "is_disabled": 0, "is_reserved": 0, "bike_id": "58aae0122fe311c96a7da6a5e46aaaef", "fusion_lon": 0.0, "type": "electric_scooter"}, {"rental_uris": {"ios": "https://dc.lft.to/lastmile_qr_scan", "android": "https://dc.lft.to/lastmile_qr_scan"}, "lat": 38.915501, "lon": -77.04450033333333, "fusion_lat": 0.0, "name": "a00f588a04e5803193cd4ac853f6c238", "is_disabled": 0, "is_reserved": 0, "bike_id": "a00f588a04e5803193cd4ac853f6c238", "fusion_lon": 0.0, "type": "electric_scooter"}, {"rental_uris": {"ios": "https://dc.lft.to/lastmile_qr_scan", "android": "https://dc.lft.to/lastmile_qr_scan"}, "lat": 38.91905633333333, "lon": -77.0240745, "fusion_lat": 0.0, "name": "7c5488b3748b0384796bec12933bfb05", "is_disabled": 0, "is_reserved": 0, "bike_id": "7c5488b3748b0384796bec12933bfb05", "fusion_lon": 0.0, "type": "electric_scooter"}, {"rental_uris": {"ios": "https://dc.lft.to/lastmile_qr_scan", "android": "https://dc.lft.to/lastmile_qr_scan"}, "lat": 38.919691, "lon": -77.012151, "fusion_lat": 0.0, "name": "a72545cd520e5dd522c63685ebb72ba5", "is_disabled": 0, "is_reserved": 0, "bike_id": "a72545cd520e5dd522c63685ebb72ba5", "fusion_lon": 0.0, "type": "electric_scooter"}, {"rental_uris": {"ios": "https://dc.lft.to/lastmile_qr_scan", "android": "https://dc.lft.to/lastmile_qr_scan"}, "lat": 38.9170585, "lon": -77.034674, "fusion_lat": 0.0, "name": "080911247d518ca411373088c4043f0a", "is_disabled": 0, "is_reserved": 0, "bike_id": "080911247d518ca411373088c4043f0a", "fusion_lon": 0.0, "type": "electric_scooter"}, {"rental_uris": {"ios": "https://dc.lft.to/lastmile_qr_scan", "android": "https://dc.lft.to/lastmile_qr_scan"}, "lat": 38.87743433333333, "lon": -76.997533, "fusion_lat": 0.0, "name": "f40d71e179cb770666e76fb3b86f6d67", "is_disabled": 0, "is_reserved": 0, "bike_id": "f40d71e179cb770666e76fb3b86f6d67", "fusion_lon": 0.0, "type": "electric_scooter"}, {"rental_uris": {"ios": "https://dc.lft.to/lastmile_qr_scan", "android": "https://dc.lft.to/lastmile_qr_scan"}, "lat": 38.9206945, "lon": -77.0231405, "fusion_lat": 0.0, "name": "10268abae513bc8b13eaffb5b6dcc47b", "is_disabled": 0, "is_reserved": 0, "bike_id": "10268abae513bc8b13eaffb5b6dcc47b", "fusion_lon": 0.0, "type": "electric_scooter"}, {"rental_uris": {"ios": "https://dc.lft.to/lastmile_qr_scan", "android": "https://dc.lft.to/lastmile_qr_scan"}, "lat": 38.91473216666667, "lon": -76.98113383333333, "fusion_lat": 0.0, "name": "fb70c6e739a017941707cb9d10634829", "is_disabled": 0, "is_reserved": 0, "bike_id": "fb70c6e739a017941707cb9d10634829", "fusion_lon": 0.0, "type": "electric_scooter"}, {"rental_uris": {"ios": "https://dc.lft.to/lastmile_qr_scan", "android": "https://dc.lft.to/lastmile_qr_scan"}, "lat": 38.8783315, "lon": -77.02276366666666, "fusion_lat": 0.0, "name": "60d9307654b5f003ffa6a1d10e705b60", "is_disabled": 0, "is_reserved": 0, "bike_id": "60d9307654b5f003ffa6a1d10e705b60", "fusion_lon": 0.0, "type": "electric_scooter"}, {"rental_uris": {"ios": "https://dc.lft.to/lastmile_qr_scan", "android": "https://dc.lft.to/lastmile_qr_scan"}, "lat": 38.90895833333333, "lon": -76.9976955, "fusion_lat": 0.0, "name": "0d0dc727936150fefc71499cf0e26ae9", "is_disabled": 0, "is_reserved": 0, "bike_id": "0d0dc727936150fefc71499cf0e26ae9", "fusion_lon": 0.0, "type": "electric_scooter"}, {"rental_uris": {"ios": "https://dc.lft.to/lastmile_qr_scan", "android": "https://dc.lft.to/lastmile_qr_scan"}, "lat": 38.901055166666666, "lon": -77.051418, "fusion_lat": 0.0, "name": "02bea300828dfbba38127bb401df3535", "is_disabled": 0, "is_reserved": 0, "bike_id": "02bea300828dfbba38127bb401df3535", "fusion_lon": 0.0, "type": "electric_scooter"}, {"rental_uris": {"ios": "https://dc.lft.to/lastmile_qr_scan", "android": "https://dc.lft.to/lastmile_qr_scan"}, "lat": 38.87168716666667, "lon": -77.00680666666666, "fusion_lat": 0.0, "name": "686c79190e64ba65e04bf91715de62d1", "is_disabled": 0, "is_reserved": 0, "bike_id": "686c79190e64ba65e04bf91715de62d1", "fusion_lon": 0.0, "type": "electric_scooter"}, {"rental_uris": {"ios": "https://dc.lft.to/lastmile_qr_scan", "android": "https://dc.lft.to/lastmile_qr_scan"}, "lat": 38.906396666666666, "lon": -77.02186416666666, "fusion_lat": 0.0, "name": "f82ed41d60675a432e485b66d39b6e44", "is_disabled": 0, "is_reserved": 0, "bike_id": "f82ed41d60675a432e485b66d39b6e44", "fusion_lon": 0.0, "type": "electric_scooter"}, {"rental_uris": {"ios": "https://dc.lft.to/lastmile_qr_scan", "android": "https://dc.lft.to/lastmile_qr_scan"}, "lat": 38.900132166666666, "lon": -76.98698666666667, "fusion_lat": 0.0, "name": "07511943cf64b04594189b9411e088fe", "is_disabled": 0, "is_reserved": 0, "bike_id": "07511943cf64b04594189b9411e088fe", "fusion_lon": 0.0, "type": "electric_scooter"}, {"rental_uris": {"ios": "https://dc.lft.to/lastmile_qr_scan", "android": "https://dc.lft.to/lastmile_qr_scan"}, "lat": 38.8464055, "lon": -76.99129816666667, "fusion_lat": 0.0, "name": "74b392db9ee445dd880c4d8595952ba8", "is_disabled": 0, "is_reserved": 0, "bike_id": "74b392db9ee445dd880c4d8595952ba8", "fusion_lon": 0.0, "type": "electric_scooter"}, {"rental_uris": {"ios": "https://dc.lft.to/lastmile_qr_scan", "android": "https://dc.lft.to/lastmile_qr_scan"}, "lat": 38.9141185, "lon": -77.02113033333333, "fusion_lat": 0.0, "name": "9bd790bfecf086ef4422c9004f32b02d", "is_disabled": 0, "is_reserved": 0, "bike_id": "9bd790bfecf086ef4422c9004f32b02d", "fusion_lon": 0.0, "type": "electric_scooter"}, {"rental_uris": {"ios": "https://dc.lft.to/lastmile_qr_scan", "android": "https://dc.lft.to/lastmile_qr_scan"}, "lat": 38.916688, "lon": -77.0297135, "fusion_lat": 0.0, "name": "2ea8223b04bcf72a004e99d8f111ecd3", "is_disabled": 0, "is_reserved": 0, "bike_id": "2ea8223b04bcf72a004e99d8f111ecd3", "fusion_lon": 0.0, "type": "electric_scooter"}, {"rental_uris": {"ios": "https://dc.lft.to/lastmile_qr_scan", "android": "https://dc.lft.to/lastmile_qr_scan"}, "lat": 38.84594766666667, "lon": -77.108581, "fusion_lat": 0.0, "name": "261b2e313669d71c15215834a41a7783", "is_disabled": 0, "is_reserved": 0, "bike_id": "261b2e313669d71c15215834a41a7783", "fusion_lon": 0.0, "type": "electric_bike"}, {"rental_uris": {"ios": "https://dc.lft.to/lastmile_qr_scan", "android": "https://dc.lft.to/lastmile_qr_scan"}, "lat": 38.91480116666666, "lon": -77.0219255, "fusion_lat": 0.0, "name": "fe79559e987c07f4356a78155505577d", "is_disabled": 0, "is_reserved": 0, "bike_id": "fe79559e987c07f4356a78155505577d", "fusion_lon": 0.0, "type": "electric_scooter"}, {"rental_uris": {"ios": "https://dc.lft.to/lastmile_qr_scan", "android": "https://dc.lft.to/lastmile_qr_scan"}, "lat": 38.93531316666667, "lon": -77.023511, "fusion_lat": 0.0, "name": "cae628af7d992fd7410e75c66af9af80", "is_disabled": 0, "is_reserved": 0, "bike_id": "cae628af7d992fd7410e75c66af9af80", "fusion_lon": 0.0, "type": "electric_scooter"}, {"rental_uris": {"ios": "https://dc.lft.to/lastmile_qr_scan", "android": "https://dc.lft.to/lastmile_qr_scan"}, "lat": 38.90137083333333, "lon": -77.02938366666666, "fusion_lat": 0.0, "name": "eadb0c3610e7ddbf65602180fb522476", "is_disabled": 0, "is_reserved": 0, "bike_id": "eadb0c3610e7ddbf65602180fb522476", "fusion_lon": 0.0, "type": "electric_scooter"}, {"rental_uris": {"ios": "https://dc.lft.to/lastmile_qr_scan", "android": "https://dc.lft.to/lastmile_qr_scan"}, "lat": 38.918298, "lon": -77.03937816666667, "fusion_lat": 0.0, "name": "e7d02b1f2ceb60acd653a5c54009ed7f", "is_disabled": 0, "is_reserved": 0, "bike_id": "e7d02b1f2ceb60acd653a5c54009ed7f", "fusion_lon": 0.0, "type": "electric_scooter"}, {"rental_uris": {"ios": "https://dc.lft.to/lastmile_qr_scan", "android": "https://dc.lft.to/lastmile_qr_scan"}, "lat": 38.92057283333333, "lon": -77.0236075, "fusion_lat": 0.0, "name": "667c797d4e6d0ac947b2fc0fb08f03f6", "is_disabled": 0, "is_reserved": 0, "bike_id": "667c797d4e6d0ac947b2fc0fb08f03f6", "fusion_lon": 0.0, "type": "electric_scooter"}, {"rental_uris": {"ios": "https://dc.lft.to/lastmile_qr_scan", "android": "https://dc.lft.to/lastmile_qr_scan"}, "lat": 38.893583, "lon": -76.94933616666667, "fusion_lat": 0.0, "name": "c130421d8dc059150bce93e61b3673e4", "is_disabled": 0, "is_reserved": 0, "bike_id": "c130421d8dc059150bce93e61b3673e4", "fusion_lon": 0.0, "type": "electric_scooter"}, {"rental_uris": {"ios": "https://dc.lft.to/lastmile_qr_scan", "android": "https://dc.lft.to/lastmile_qr_scan"}, "lat": 38.821680666666666, "lon": -76.99506416666667, "fusion_lat": 0.0, "name": "52b0dd8b8feaf3678aaa10bb7a840a74", "is_disabled": 0, "is_reserved": 0, "bike_id": "52b0dd8b8feaf3678aaa10bb7a840a74", "fusion_lon": 0.0, "type": "electric_bike"}, {"rental_uris": {"ios": "https://dc.lft.to/lastmile_qr_scan", "android": "https://dc.lft.to/lastmile_qr_scan"}, "lat": 38.919712833333335, "lon": -77.03820316666666, "fusion_lat": 0.0, "name": "c771090920ec03a87e8368b7919c013f", "is_disabled": 0, "is_reserved": 0, "bike_id": "c771090920ec03a87e8368b7919c013f", "fusion_lon": 0.0, "type": "electric_scooter"}, {"rental_uris": {"ios": "https://dc.lft.to/lastmile_qr_scan", "android": "https://dc.lft.to/lastmile_qr_scan"}, "lat": 38.8853105, "lon": -76.98052233333334, "fusion_lat": 0.0, "name": "df6cfa3bbb9902c0edbbf4c2bd64502d", "is_disabled": 0, "is_reserved": 0, "bike_id": "df6cfa3bbb9902c0edbbf4c2bd64502d", "fusion_lon": 0.0, "type": "electric_scooter"}, {"rental_uris": {"ios": "https://dc.lft.to/lastmile_qr_scan", "android": "https://dc.lft.to/lastmile_qr_scan"}, "lat": 38.956822, "lon": -77.02234616666667, "fusion_lat": 0.0, "name": "acd77da129cd63180db3b51e54bd9460", "is_disabled": 0, "is_reserved": 0, "bike_id": "acd77da129cd63180db3b51e54bd9460", "fusion_lon": 0.0, "type": "electric_bike"}, {"rental_uris": {"ios": "https://dc.lft.to/lastmile_qr_scan", "android": "https://dc.lft.to/lastmile_qr_scan"}, "lat": 38.911181666666664, "lon": -77.04192466666667, "fusion_lat": 0.0, "name": "8622b3a02010ca6bdfd71fa05ceb6c04", "is_disabled": 0, "is_reserved": 0, "bike_id": "8622b3a02010ca6bdfd71fa05ceb6c04", "fusion_lon": 0.0, "type": "electric_scooter"}, {"rental_uris": {"ios": "https://dc.lft.to/lastmile_qr_scan", "android": "https://dc.lft.to/lastmile_qr_scan"}, "lat": 38.934634333333335, "lon": -77.04539283333334, "fusion_lat": 0.0, "name": "13510bdd6ab7889e6d9554503d5fb36f", "is_disabled": 0, "is_reserved": 0, "bike_id": "13510bdd6ab7889e6d9554503d5fb36f", "fusion_lon": 0.0, "type": "electric_scooter"}, {"rental_uris": {"ios": "https://dc.lft.to/lastmile_qr_scan", "android": "https://dc.lft.to/lastmile_qr_scan"}, "lat": 38.899225333333334, "lon": -76.93360683333333, "fusion_lat": 0.0, "name": "40c5da90fd5cd39cb7486f766a748c3f", "is_disabled": 0, "is_reserved": 0, "bike_id": "40c5da90fd5cd39cb7486f766a748c3f", "fusion_lon": 0.0, "type": "electric_scooter"}, {"rental_uris": {"ios": "https://dc.lft.to/lastmile_qr_scan", "android": "https://dc.lft.to/lastmile_qr_scan"}, "lat": 38.9156425, "lon": -77.02592, "fusion_lat": 0.0, "name": "543a94d8dbdd1647d48b9f9f6b4caa3c", "is_disabled": 0, "is_reserved": 0, "bike_id": "543a94d8dbdd1647d48b9f9f6b4caa3c", "fusion_lon": 0.0, "type": "electric_scooter"}, {"rental_uris": {"ios": "https://dc.lft.to/lastmile_qr_scan", "android": "https://dc.lft.to/lastmile_qr_scan"}, "lat": 38.9014085, "lon": -77.01813816666666, "fusion_lat": 0.0, "name": "0c8f7af7859934678f197bb1d3ab5835", "is_disabled": 0, "is_reserved": 0, "bike_id": "0c8f7af7859934678f197bb1d3ab5835", "fusion_lon": 0.0, "type": "electric_scooter"}, {"rental_uris": {"ios": "https://dc.lft.to/lastmile_qr_scan", "android": "https://dc.lft.to/lastmile_qr_scan"}, "lat": 38.922478166666664, "lon": -77.04219066666667, "fusion_lat": 0.0, "name": "31162de74fceb61588ea3a73d6028974", "is_disabled": 0, "is_reserved": 0, "bike_id": "31162de74fceb61588ea3a73d6028974", "fusion_lon": 0.0, "type": "electric_scooter"}, {"rental_uris": {"ios": "https://dc.lft.to/lastmile_qr_scan", "android": "https://dc.lft.to/lastmile_qr_scan"}, "lat": 38.878796666666666, "lon": -77.01749166666667, "fusion_lat": 0.0, "name": "d08b9d3dcf2060253dbb220ecf576484", "is_disabled": 0, "is_reserved": 0, "bike_id": "d08b9d3dcf2060253dbb220ecf576484", "fusion_lon": 0.0, "type": "electric_scooter"}, {"rental_uris": {"ios": "https://dc.lft.to/lastmile_qr_scan", "android": "https://dc.lft.to/lastmile_qr_scan"}, "lat": 38.92266016666667, "lon": -77.02242166666667, "fusion_lat": 0.0, "name": "20919613b2173d246480f42014b2696f", "is_disabled": 0, "is_reserved": 0, "bike_id": "20919613b2173d246480f42014b2696f", "fusion_lon": 0.0, "type": "electric_scooter"}, {"rental_uris": {"ios": "https://dc.lft.to/lastmile_qr_scan", "android": "https://dc.lft.to/lastmile_qr_scan"}, "lat": 38.92142333333334, "lon": -77.04350983333333, "fusion_lat": 0.0, "name": "4bd7a75a1b7ef31956a0b9786dff762c", "is_disabled": 0, "is_reserved": 0, "bike_id": "4bd7a75a1b7ef31956a0b9786dff762c", "fusion_lon": 0.0, "type": "electric_scooter"}, {"rental_uris": {"ios": "https://dc.lft.to/lastmile_qr_scan", "android": "https://dc.lft.to/lastmile_qr_scan"}, "lat": 38.91819183333333, "lon": -77.03163966666666, "fusion_lat": 0.0, "name": "3911c5ca4906b49a4a16dc4f4b7a298c", "is_disabled": 0, "is_reserved": 0, "bike_id": "3911c5ca4906b49a4a16dc4f4b7a298c", "fusion_lon": 0.0, "type": "electric_scooter"}, {"rental_uris": {"ios": "https://dc.lft.to/lastmile_qr_scan", "android": "https://dc.lft.to/lastmile_qr_scan"}, "lat": 38.903868333333335, "lon": -77.04194583333333, "fusion_lat": 0.0, "name": "6597943ef2d68db97abd8055bab9ee48", "is_disabled": 0, "is_reserved": 0, "bike_id": "6597943ef2d68db97abd8055bab9ee48", "fusion_lon": 0.0, "type": "electric_scooter"}, {"rental_uris": {"ios": "https://dc.lft.to/lastmile_qr_scan", "android": "https://dc.lft.to/lastmile_qr_scan"}, "lat": 38.921361833333336, "lon": -76.99558833333333, "fusion_lat": 0.0, "name": "c15029a5ccb258ba4c776aeff799834e", "is_disabled": 0, "is_reserved": 0, "bike_id": "c15029a5ccb258ba4c776aeff799834e", "fusion_lon": 0.0, "type": "electric_scooter"}, {"rental_uris": {"ios": "https://dc.lft.to/lastmile_qr_scan", "android": "https://dc.lft.to/lastmile_qr_scan"}, "lat": 38.953276333333335, "lon": -76.98251116666667, "fusion_lat": 0.0, "name": "1631f67388049460756dcfb80b8ee209", "is_disabled": 0, "is_reserved": 0, "bike_id": "1631f67388049460756dcfb80b8ee209", "fusion_lon": 0.0, "type": "electric_bike"}, {"rental_uris": {"ios": "https://dc.lft.to/lastmile_qr_scan", "android": "https://dc.lft.to/lastmile_qr_scan"}, "lat": 38.903557, "lon": -77.06027416666667, "fusion_lat": 0.0, "name": "b73b67d51c4c9ba69feb51ac1261f7e6", "is_disabled": 0, "is_reserved": 0, "bike_id": "b73b67d51c4c9ba69feb51ac1261f7e6", "fusion_lon": 0.0, "type": "electric_scooter"}, {"rental_uris": {"ios": "https://dc.lft.to/lastmile_qr_scan", "android": "https://dc.lft.to/lastmile_qr_scan"}, "lat": 38.925437333333335, "lon": -77.0427055, "fusion_lat": 0.0, "name": "0536a78b8fe95cf03045dd7baa1ac9d5", "is_disabled": 0, "is_reserved": 0, "bike_id": "0536a78b8fe95cf03045dd7baa1ac9d5", "fusion_lon": 0.0, "type": "electric_scooter"}, {"rental_uris": {"ios": "https://dc.lft.to/lastmile_qr_scan", "android": "https://dc.lft.to/lastmile_qr_scan"}, "lat": 38.902613833333334, "lon": -77.05382166666666, "fusion_lat": 0.0, "name": "ab232f0e462999005abe53d2808238ec", "is_disabled": 0, "is_reserved": 0, "bike_id": "ab232f0e462999005abe53d2808238ec", "fusion_lon": 0.0, "type": "electric_scooter"}, {"rental_uris": {"ios": "https://dc.lft.to/lastmile_qr_scan", "android": "https://dc.lft.to/lastmile_qr_scan"}, "lat": 38.9160885, "lon": -77.04152833333333, "fusion_lat": 0.0, "name": "25d6194b758df3bbaa85fe509fcef559", "is_disabled": 0, "is_reserved": 0, "bike_id": "25d6194b758df3bbaa85fe509fcef559", "fusion_lon": 0.0, "type": "electric_scooter"}, {"rental_uris": {"ios": "https://dc.lft.to/lastmile_qr_scan", "android": "https://dc.lft.to/lastmile_qr_scan"}, "lat": 38.89864933333333, "lon": -77.0410315, "fusion_lat": 0.0, "name": "c97ade119e9a7b299f3c0922ee7661ef", "is_disabled": 0, "is_reserved": 0, "bike_id": "c97ade119e9a7b299f3c0922ee7661ef", "fusion_lon": 0.0, "type": "electric_scooter"}, {"rental_uris": {"ios": "https://dc.lft.to/lastmile_qr_scan", "android": "https://dc.lft.to/lastmile_qr_scan"}, "lat": 38.87622283333333, "lon": -76.96518, "fusion_lat": 0.0, "name": "234bbbe707061577907b53c6e48aa2d2", "is_disabled": 0, "is_reserved": 0, "bike_id": "234bbbe707061577907b53c6e48aa2d2", "fusion_lon": 0.0, "type": "electric_scooter"}, {"rental_uris": {"ios": "https://dc.lft.to/lastmile_qr_scan", "android": "https://dc.lft.to/lastmile_qr_scan"}, "lat": 38.87669283333334, "lon": -77.00810666666666, "fusion_lat": 0.0, "name": "6e74b6dc729ff4df501e56cf6a26295e", "is_disabled": 0, "is_reserved": 0, "bike_id": "6e74b6dc729ff4df501e56cf6a26295e", "fusion_lon": 0.0, "type": "electric_scooter"}, {"rental_uris": {"ios": "https://dc.lft.to/lastmile_qr_scan", "android": "https://dc.lft.to/lastmile_qr_scan"}, "lat": 38.90671366666667, "lon": -77.0105875, "fusion_lat": 0.0, "name": "2c75fdd436606f90a44272723a07e431", "is_disabled": 0, "is_reserved": 0, "bike_id": "2c75fdd436606f90a44272723a07e431", "fusion_lon": 0.0, "type": "electric_scooter"}, {"rental_uris": {"ios": "https://dc.lft.to/lastmile_qr_scan", "android": "https://dc.lft.to/lastmile_qr_scan"}, "lat": 38.897201, "lon": -77.008003, "fusion_lat": 0.0, "name": "fc1a7972bf178a327328ee94a378578f", "is_disabled": 0, "is_reserved": 0, "bike_id": "fc1a7972bf178a327328ee94a378578f", "fusion_lon": 0.0, "type": "electric_scooter"}, {"rental_uris": {"ios": "https://dc.lft.to/lastmile_qr_scan", "android": "https://dc.lft.to/lastmile_qr_scan"}, "lat": 38.87452966666667, "lon": -77.01219016666667, "fusion_lat": 0.0, "name": "6fcad2049dd81bcd08bb7b1a59d2f318", "is_disabled": 0, "is_reserved": 0, "bike_id": "6fcad2049dd81bcd08bb7b1a59d2f318", "fusion_lon": 0.0, "type": "electric_scooter"}, {"rental_uris": {"ios": "https://dc.lft.to/lastmile_qr_scan", "android": "https://dc.lft.to/lastmile_qr_scan"}, "lat": 38.95613816666667, "lon": -77.01013116666667, "fusion_lat": 0.0, "name": "f6e497102f7e740ae563daeb8e0be12f", "is_disabled": 0, "is_reserved": 0, "bike_id": "f6e497102f7e740ae563daeb8e0be12f", "fusion_lon": 0.0, "type": "electric_scooter"}, {"rental_uris": {"ios": "https://dc.lft.to/lastmile_qr_scan", "android": "https://dc.lft.to/lastmile_qr_scan"}, "lat": 38.9172875, "lon": -77.01924283333334, "fusion_lat": 0.0, "name": "a5c2ea057e6703b23133bd5d74d7718e", "is_disabled": 0, "is_reserved": 0, "bike_id": "a5c2ea057e6703b23133bd5d74d7718e", "fusion_lon": 0.0, "type": "electric_scooter"}, {"rental_uris": {"ios": "https://dc.lft.to/lastmile_qr_scan", "android": "https://dc.lft.to/lastmile_qr_scan"}, "lat": 38.903656, "lon": -77.03567816666667, "fusion_lat": 0.0, "name": "b347fbb0ad2ec569a77d83c8c641391e", "is_disabled": 0, "is_reserved": 0, "bike_id": "b347fbb0ad2ec569a77d83c8c641391e", "fusion_lon": 0.0, "type": "electric_scooter"}, {"rental_uris": {"ios": "https://dc.lft.to/lastmile_qr_scan", "android": "https://dc.lft.to/lastmile_qr_scan"}, "lat": 38.91148416666667, "lon": -77.00458383333333, "fusion_lat": 0.0, "name": "ca865d50fe5c2918c7ded61cab60fd76", "is_disabled": 0, "is_reserved": 0, "bike_id": "ca865d50fe5c2918c7ded61cab60fd76", "fusion_lon": 0.0, "type": "electric_scooter"}, {"rental_uris": {"ios": "https://dc.lft.to/lastmile_qr_scan", "android": "https://dc.lft.to/lastmile_qr_scan"}, "lat": 38.899896166666664, "lon": -77.02813266666666, "fusion_lat": 0.0, "name": "ac6faa1a9f6a1dddb539f62f098acc3a", "is_disabled": 0, "is_reserved": 0, "bike_id": "ac6faa1a9f6a1dddb539f62f098acc3a", "fusion_lon": 0.0, "type": "electric_scooter"}, {"rental_uris": {"ios": "https://dc.lft.to/lastmile_qr_scan", "android": "https://dc.lft.to/lastmile_qr_scan"}, "lat": 38.9068, "lon": -76.98634333333334, "fusion_lat": 0.0, "name": "b7ea0b207b3c04340a4e7782d0b948aa", "is_disabled": 0, "is_reserved": 0, "bike_id": "b7ea0b207b3c04340a4e7782d0b948aa", "fusion_lon": 0.0, "type": "electric_scooter"}, {"rental_uris": {"ios": "https://dc.lft.to/lastmile_qr_scan", "android": "https://dc.lft.to/lastmile_qr_scan"}, "lat": 38.924069333333335, "lon": -77.03635866666667, "fusion_lat": 0.0, "name": "3e4b28d246f632e2a4a8b4193d35d94e", "is_disabled": 0, "is_reserved": 0, "bike_id": "3e4b28d246f632e2a4a8b4193d35d94e", "fusion_lon": 0.0, "type": "electric_scooter"}, {"rental_uris": {"ios": "https://dc.lft.to/lastmile_qr_scan", "android": "https://dc.lft.to/lastmile_qr_scan"}, "lat": 38.915698, "lon": -77.02204433333333, "fusion_lat": 0.0, "name": "c2ea2510e1d9ce2afecb889586d4cf2b", "is_disabled": 0, "is_reserved": 0, "bike_id": "c2ea2510e1d9ce2afecb889586d4cf2b", "fusion_lon": 0.0, "type": "electric_scooter"}, {"rental_uris": {"ios": "https://dc.lft.to/lastmile_qr_scan", "android": "https://dc.lft.to/lastmile_qr_scan"}, "lat": 38.9167385, "lon": -77.03209716666667, "fusion_lat": 0.0, "name": "bd8ccfdde1e01f719241d5227d32be01", "is_disabled": 0, "is_reserved": 0, "bike_id": "bd8ccfdde1e01f719241d5227d32be01", "fusion_lon": 0.0, "type": "electric_scooter"}, {"rental_uris": {"ios": "https://dc.lft.to/lastmile_qr_scan", "android": "https://dc.lft.to/lastmile_qr_scan"}, "lat": 38.92228683333333, "lon": -77.03523133333333, "fusion_lat": 0.0, "name": "0693f3e05575756d658b18ac079202ed", "is_disabled": 0, "is_reserved": 0, "bike_id": "0693f3e05575756d658b18ac079202ed", "fusion_lon": 0.0, "type": "electric_scooter"}, {"rental_uris": {"ios": "https://dc.lft.to/lastmile_qr_scan", "android": "https://dc.lft.to/lastmile_qr_scan"}, "lat": 38.8674365, "lon": -76.97858283333333, "fusion_lat": 0.0, "name": "fdb1aeae5b765a8204e0e585fb69cd04", "is_disabled": 0, "is_reserved": 0, "bike_id": "fdb1aeae5b765a8204e0e585fb69cd04", "fusion_lon": 0.0, "type": "electric_scooter"}, {"rental_uris": {"ios": "https://dc.lft.to/lastmile_qr_scan", "android": "https://dc.lft.to/lastmile_qr_scan"}, "lat": 38.9259755, "lon": -77.02389483333333, "fusion_lat": 0.0, "name": "404d76d43f5d8703a5985ea28f0287ef", "is_disabled": 0, "is_reserved": 0, "bike_id": "404d76d43f5d8703a5985ea28f0287ef", "fusion_lon": 0.0, "type": "electric_scooter"}, {"rental_uris": {"ios": "https://dc.lft.to/lastmile_qr_scan", "android": "https://dc.lft.to/lastmile_qr_scan"}, "lat": 38.92172, "lon": -77.03327316666666, "fusion_lat": 0.0, "name": "315e5c86f29738e38a3a702a48b40391", "is_disabled": 0, "is_reserved": 0, "bike_id": "315e5c86f29738e38a3a702a48b40391", "fusion_lon": 0.0, "type": "electric_scooter"}, {"rental_uris": {"ios": "https://dc.lft.to/lastmile_qr_scan", "android": "https://dc.lft.to/lastmile_qr_scan"}, "lat": 38.87372833333333, "lon": -77.00111733333334, "fusion_lat": 0.0, "name": "e57d666761bfed136fb265d14061e466", "is_disabled": 0, "is_reserved": 0, "bike_id": "e57d666761bfed136fb265d14061e466", "fusion_lon": 0.0, "type": "electric_scooter"}, {"rental_uris": {"ios": "https://dc.lft.to/lastmile_qr_scan", "android": "https://dc.lft.to/lastmile_qr_scan"}, "lat": 38.92400883333333, "lon": -77.01220466666666, "fusion_lat": 0.0, "name": "ce3ad113a56b2595e62088647751523b", "is_disabled": 0, "is_reserved": 0, "bike_id": "ce3ad113a56b2595e62088647751523b", "fusion_lon": 0.0, "type": "electric_scooter"}, {"rental_uris": {"ios": "https://dc.lft.to/lastmile_qr_scan", "android": "https://dc.lft.to/lastmile_qr_scan"}, "lat": 38.93399016666667, "lon": -77.0330685, "fusion_lat": 0.0, "name": "12ad65bccc4aa5ff19f24a7b5b23d4c7", "is_disabled": 0, "is_reserved": 0, "bike_id": "12ad65bccc4aa5ff19f24a7b5b23d4c7", "fusion_lon": 0.0, "type": "electric_scooter"}, {"rental_uris": {"ios": "https://dc.lft.to/lastmile_qr_scan", "android": "https://dc.lft.to/lastmile_qr_scan"}, "lat": 38.914166333333334, "lon": -77.0180545, "fusion_lat": 0.0, "name": "33d9f3d4874b588e272cfece197e75ec", "is_disabled": 0, "is_reserved": 0, "bike_id": "33d9f3d4874b588e272cfece197e75ec", "fusion_lon": 0.0, "type": "electric_scooter"}, {"rental_uris": {"ios": "https://dc.lft.to/lastmile_qr_scan", "android": "https://dc.lft.to/lastmile_qr_scan"}, "lat": 38.90341166666666, "lon": -76.98506, "fusion_lat": 0.0, "name": "8547df4475da365cb11266f8158bb2db", "is_disabled": 0, "is_reserved": 0, "bike_id": "8547df4475da365cb11266f8158bb2db", "fusion_lon": 0.0, "type": "electric_scooter"}, {"rental_uris": {"ios": "https://dc.lft.to/lastmile_qr_scan", "android": "https://dc.lft.to/lastmile_qr_scan"}, "lat": 38.915643833333334, "lon": -77.04274616666666, "fusion_lat": 0.0, "name": "6d23622aaa7e12c4366e47da454a7619", "is_disabled": 0, "is_reserved": 0, "bike_id": "6d23622aaa7e12c4366e47da454a7619", "fusion_lon": 0.0, "type": "electric_scooter"}, {"rental_uris": {"ios": "https://dc.lft.to/lastmile_qr_scan", "android": "https://dc.lft.to/lastmile_qr_scan"}, "lat": 38.835809166666664, "lon": -77.00127016666667, "fusion_lat": 0.0, "name": "c21e399ca8c91c26e9bc48a475538202", "is_disabled": 0, "is_reserved": 0, "bike_id": "c21e399ca8c91c26e9bc48a475538202", "fusion_lon": 0.0, "type": "electric_scooter"}, {"rental_uris": {"ios": "https://dc.lft.to/lastmile_qr_scan", "android": "https://dc.lft.to/lastmile_qr_scan"}, "lat": 38.90593666666667, "lon": -77.00664933333333, "fusion_lat": 0.0, "name": "c9ed50c76149d81e13867ecfa83345a2", "is_disabled": 0, "is_reserved": 0, "bike_id": "c9ed50c76149d81e13867ecfa83345a2", "fusion_lon": 0.0, "type": "electric_scooter"}, {"rental_uris": {"ios": "https://dc.lft.to/lastmile_qr_scan", "android": "https://dc.lft.to/lastmile_qr_scan"}, "lat": 38.89812766666667, "lon": -77.01225733333334, "fusion_lat": 0.0, "name": "21fbda1cffca796a9a5aa062956d8f23", "is_disabled": 0, "is_reserved": 0, "bike_id": "21fbda1cffca796a9a5aa062956d8f23", "fusion_lon": 0.0, "type": "electric_scooter"}, {"rental_uris": {"ios": "https://dc.lft.to/lastmile_qr_scan", "android": "https://dc.lft.to/lastmile_qr_scan"}, "lat": 38.887344166666665, "lon": -77.02830616666667, "fusion_lat": 0.0, "name": "e174cc38952ff2461e8bdf41627ee2a4", "is_disabled": 0, "is_reserved": 0, "bike_id": "e174cc38952ff2461e8bdf41627ee2a4", "fusion_lon": 0.0, "type": "electric_scooter"}, {"rental_uris": {"ios": "https://dc.lft.to/lastmile_qr_scan", "android": "https://dc.lft.to/lastmile_qr_scan"}, "lat": 38.897412, "lon": -77.02714166666667, "fusion_lat": 0.0, "name": "371c246f8b4ec0171a80860ca7710e37", "is_disabled": 0, "is_reserved": 0, "bike_id": "371c246f8b4ec0171a80860ca7710e37", "fusion_lon": 0.0, "type": "electric_scooter"}, {"rental_uris": {"ios": "https://dc.lft.to/lastmile_qr_scan", "android": "https://dc.lft.to/lastmile_qr_scan"}, "lat": 38.92153183333333, "lon": -77.0331425, "fusion_lat": 0.0, "name": "ff702e8eb326303508b25cd1aaeb2dd9", "is_disabled": 0, "is_reserved": 0, "bike_id": "ff702e8eb326303508b25cd1aaeb2dd9", "fusion_lon": 0.0, "type": "electric_scooter"}, {"rental_uris": {"ios": "https://dc.lft.to/lastmile_qr_scan", "android": "https://dc.lft.to/lastmile_qr_scan"}, "lat": 38.8985215, "lon": -77.02381666666666, "fusion_lat": 0.0, "name": "5b02dbc1c5d566e8a683981b528cffda", "is_disabled": 0, "is_reserved": 0, "bike_id": "5b02dbc1c5d566e8a683981b528cffda", "fusion_lon": 0.0, "type": "electric_scooter"}, {"rental_uris": {"ios": "https://dc.lft.to/lastmile_qr_scan", "android": "https://dc.lft.to/lastmile_qr_scan"}, "lat": 38.8922295, "lon": -77.0161435, "fusion_lat": 0.0, "name": "887a01f9e7f459a9edc7cfaa628bcc7d", "is_disabled": 0, "is_reserved": 0, "bike_id": "887a01f9e7f459a9edc7cfaa628bcc7d", "fusion_lon": 0.0, "type": "electric_scooter"}, {"rental_uris": {"ios": "https://dc.lft.to/lastmile_qr_scan", "android": "https://dc.lft.to/lastmile_qr_scan"}, "lat": 38.90029283333333, "lon": -77.041456, "fusion_lat": 0.0, "name": "9e40c6f9d9fd093b8d863af431e56734", "is_disabled": 0, "is_reserved": 0, "bike_id": "9e40c6f9d9fd093b8d863af431e56734", "fusion_lon": 0.0, "type": "electric_scooter"}, {"rental_uris": {"ios": "https://dc.lft.to/lastmile_qr_scan", "android": "https://dc.lft.to/lastmile_qr_scan"}, "lat": 38.8945975, "lon": -77.0034605, "fusion_lat": 0.0, "name": "ff15289220da398ee22af1fcbf15a9e0", "is_disabled": 0, "is_reserved": 0, "bike_id": "ff15289220da398ee22af1fcbf15a9e0", "fusion_lon": 0.0, "type": "electric_scooter"}, {"rental_uris": {"ios": "https://dc.lft.to/lastmile_qr_scan", "android": "https://dc.lft.to/lastmile_qr_scan"}, "lat": 38.928912, "lon": -77.03250483333333, "fusion_lat": 0.0, "name": "b3e7eb36a2714b4c6db01f8e323ef583", "is_disabled": 0, "is_reserved": 0, "bike_id": "b3e7eb36a2714b4c6db01f8e323ef583", "fusion_lon": 0.0, "type": "electric_scooter"}, {"rental_uris": {"ios": "https://dc.lft.to/lastmile_qr_scan", "android": "https://dc.lft.to/lastmile_qr_scan"}, "lat": 38.908702166666664, "lon": -76.99793466666667, "fusion_lat": 0.0, "name": "1bf79c251f1d07f6e9f8cebdaeac3a5e", "is_disabled": 0, "is_reserved": 0, "bike_id": "1bf79c251f1d07f6e9f8cebdaeac3a5e", "fusion_lon": 0.0, "type": "electric_scooter"}, {"rental_uris": {"ios": "https://dc.lft.to/lastmile_qr_scan", "android": "https://dc.lft.to/lastmile_qr_scan"}, "lat": 38.86644533333333, "lon": -76.98819583333334, "fusion_lat": 0.0, "name": "3b8dae4c874c1f0035bf5a6a0f2a6460", "is_disabled": 0, "is_reserved": 0, "bike_id": "3b8dae4c874c1f0035bf5a6a0f2a6460", "fusion_lon": 0.0, "type": "electric_scooter"}, {"rental_uris": {"ios": "https://dc.lft.to/lastmile_qr_scan", "android": "https://dc.lft.to/lastmile_qr_scan"},