{"data": {"bikes": [{"bike_id": "9370a97ec9afef4885f2a9df0a2b44ec", "lat": 38.89547966666667, "is_reserved": 0, "fusion_lat": 0.0, "rental_uris": {"android": "https://dc.lft.to/lastmile_qr_scan", "ios": "https://dc.lft.to/lastmile_qr_scan"}, "fusion_lon": 0.0, "name": "9370a97ec9afef4885f2a9df0a2b44ec", "lon": -77.00391916666666, "is_disabled": 0, "type": "electric_scooter"}, {"bike_id": "32a74f6ba48530e56b86d5d7e792ffc8", "lat": 38.918165, "is_reserved": 0, "fusion_lat": 0.0, "rental_uris": {"android": "https://dc.lft.to/lastmile_qr_scan", "ios": "https://dc.lft.to/lastmile_qr_scan"}, "fusion_lon": 0.0, "name": "32a74f6ba48530e56b86d5d7e792ffc8", "lon": -77.03258216666667, "is_disabled": 0, "type": "electric_scooter"}, {"bike_id": "f6a6542c1fc28fb6a6900da34d6162ee", "lat": 38.9220015, "is_reserved": 0, "fusion_lat": 0.0, "rental_uris": {"android": "https://dc.lft.to/lastmile_qr_scan", "ios": "https://dc.lft.to/lastmile_qr_scan"}, "fusion_lon": 0.0, "name": "f6a6542c1fc28fb6a6900da34d6162ee", "lon": -77.01844866666667, "is_disabled": 0, "type": "electric_scooter"}, {"bike_id": "99aa904ae36fe6edaaf618e2d9198ed8", "lat": 38.922296833333334, "is_reserved": 0, "fusion_lat": 0.0, "rental_uris": {"android": "https://dc.lft.to/lastmile_qr_scan", "ios": "https://dc.lft.to/lastmile_qr_scan"}, "fusion_lon": 0.0, "name": "99aa904ae36fe6edaaf618e2d9198ed8", "lon": -77.02187383333333, "is_disabled": 0, "type": "electric_scooter"}, {"bike_id": "bbb53f161efd404a4c65d02eb7c0a3ce", "lat": 38.918068833333336, "is_reserved": 0, "fusion_lat": 0.0, "rental_uris": {"android": "https://dc.lft.to/lastmile_qr_scan", "ios": "https://dc.lft.to/lastmile_qr_scan"}, "fusion_lon": 0.0, "name": "bbb53f161efd404a4c65d02eb7c0a3ce", "lon": -77.03433533333333, "is_disabled": 0, "type": "electric_scooter"}, {"bike_id": "dd358fe6aa62625cbf7c46176f895629", "lat": 38.9082605, "is_reserved": 0, "fusion_lat": 0.0, "rental_uris": {"android": "https://dc.lft.to/lastmile_qr_scan", "ios": "https://dc.lft.to/lastmile_qr_scan"}, "fusion_lon": 0.0, "name": "dd358fe6aa62625cbf7c46176f895629", "lon": -77.03180716666667, "is_disabled": 0, "type": "electric_scooter"}, {"bike_id": "de92bd4460ce4ff61e186e9d92b7fec1", "lat": 38.89506266666667, "is_reserved": 0, "fusion_lat": 0.0, "rental_uris": {"android": "https://dc.lft.to/lastmile_qr_scan", "ios": "https://dc.lft.to/lastmile_qr_scan"}, "fusion_lon": 0.0, "name": "de92bd4460ce4ff61e186e9d92b7fec1", "lon": -77.022983, "is_disabled": 0, "type": "electric_scooter"}, {"bike_id": "302ce6ff08c58ad5bc683bf0bc8a9fa0", "lat": 38.91528866666667, "is_reserved": 0, "fusion_lat": 0.0, "rental_uris": {"android": "https://dc.lft.to/lastmile_qr_scan", "ios": "https://dc.lft.to/lastmile_qr_scan"}, "fusion_lon": 0.0, "name": "302ce6ff08c58ad5bc683bf0bc8a9fa0", "lon": -76.9836885, "is_disabled": 0, "type": "electric_scooter"}, {"bike_id": "2e7a25f9f8bef29b851a2f33347db796", "lat": 38.9185745, "is_reserved": 0, "fusion_lat": 0.0, "rental_uris": {"android": "https://dc.lft.to/lastmile_qr_scan", "ios": "https://dc.lft.to/lastmile_qr_scan"}, "fusion_lon": 0.0, "name": "2e7a25f9f8bef29b851a2f33347db796", "lon": -76.96114383333334, "is_disabled": 0, "type": "electric_scooter"}, {"bike_id": "e769c4d23878e200e135fe6fcefdf345", "lat": 38.91260416666667, "is_reserved": 0, "fusion_lat": 0.0, "rental_uris": {"android": "https://dc.lft.to/lastmile_qr_scan", "ios": "https://dc.lft.to/lastmile_qr_scan"}, "fusion_lon": 0.0, "name": "e769c4d23878e200e135fe6fcefdf345", "lon": -77.038695, "is_disabled": 0, "type": "electric_scooter"}, {"bike_id": "cab1e842dcb4490b2f3e6c5a24420b13", "lat": 38.920356, "is_reserved": 0, "fusion_lat": 0.0, "rental_uris": {"android": "https://dc.lft.to/lastmile_qr_scan", "ios": "https://dc.lft.to/lastmile_qr_scan"}, "fusion_lon": 0.0, "name": "cab1e842dcb4490b2f3e6c5a24420b13", "lon": -77.0819845, "is_disabled": 0, "type": "electric_scooter"}, {"bike_id": "e75f6fe5cfe1a496d84506706af6e2e9", "lat": 38.920469833333335, "is_reserved": 0, "fusion_lat": 0.0, "rental_uris": {"android": "https://dc.lft.to/lastmile_qr_scan", "ios": "https://dc.lft.to/lastmile_qr_scan"}, "fusion_lon": 0.0, "name": "e75f6fe5cfe1a496d84506706af6e2e9", "lon": -77.04195616666667, "is_disabled": 0, "type": "electric_scooter"}, {"bike_id": "26d22dcc4dff0a53139881036ffa195e", "lat": 38.922605, "is_reserved": 0, "fusion_lat": 0.0, "rental_uris": {"android": "https://dc.lft.to/lastmile_qr_scan", "ios": "https://dc.lft.to/lastmile_qr_scan"}, "fusion_lon": 0.0, "name": "26d22dcc4dff0a53139881036ffa195e", "lon": -77.01952833333333, "is_disabled": 0, "type": "electric_scooter"}, {"bike_id": "44f79edd01f45615001a42cadef5ae07", "lat": 38.877180833333334, "is_reserved": 0, "fusion_lat": 0.0, "rental_uris": {"android": "https://dc.lft.to/lastmile_qr_scan", "ios": "https://dc.lft.to/lastmile_qr_scan"}, "fusion_lon": 0.0, "name": "44f79edd01f45615001a42cadef5ae07", "lon": -77.0028515, "is_disabled": 0, "type": "electric_scooter"}, {"bike_id": "2c3bdb6c1e69fe50be14657c406bdfb8", "lat": 38.91476216666667, "is_reserved": 0, "fusion_lat": 0.0, "rental_uris": {"android": "https://dc.lft.to/lastmile_qr_scan", "ios": "https://dc.lft.to/lastmile_qr_scan"}, "fusion_lon": 0.0, "name": "2c3bdb6c1e69fe50be14657c406bdfb8", "lon": -77.04351216666667, "is_disabled": 0, "type": "electric_scooter"}, {"bike_id": "5b61e3a44a6ecf445672f01a7a4e2ab2", "lat": 38.887467666666666, "is_reserved": 0, "fusion_lat": 0.0, "rental_uris": {"android": "https://dc.lft.to/lastmile_qr_scan", "ios": "https://dc.lft.to/lastmile_qr_scan"}, "fusion_lon": 0.0, "name": "5b61e3a44a6ecf445672f01a7a4e2ab2", "lon": -77.028513, "is_disabled": 0, "type": "electric_scooter"}, {"bike_id": "e39fcf11a2b6f6e92e8a7afd86ec2b04", "lat": 38.916108, "is_reserved": 0, "fusion_lat": 0.0, "rental_uris": {"android": "https://dc.lft.to/lastmile_qr_scan", "ios": "https://dc.lft.to/lastmile_qr_scan"}, "fusion_lon": 0.0, "name": "e39fcf11a2b6f6e92e8a7afd86ec2b04", "lon": -77.03180333333333, "is_disabled": 0, "type": "electric_scooter"}, {"bike_id": "af31c35b85fa72e15598e639433b3bf0", "lat": 38.90607283333333, "is_reserved": 0, "fusion_lat": 0.0, "rental_uris": {"android": "https://dc.lft.to/lastmile_qr_scan", "ios": "https://dc.lft.to/lastmile_qr_scan"}, "fusion_lon": 0.0, "name": "af31c35b85fa72e15598e639433b3bf0", "lon": -77.02569316666667, "is_disabled": 0, "type": "electric_scooter"}, {"bike_id": "deca84902fe08434809e9cb461d54a69", "lat": 38.92650316666667, "is_reserved": 0, "fusion_lat": 0.0, "rental_uris": {"android": "https://dc.lft.to/lastmile_qr_scan", "ios": "https://dc.lft.to/lastmile_qr_scan"}, "fusion_lon": 0.0, "name": "deca84902fe08434809e9cb461d54a69", "lon": -77.023338, "is_disabled": 0, "type": "electric_scooter"}, {"bike_id": "38386ea30adf42baaaa8a0cfdbea0388", "lat": 38.923289833333335, "is_reserved": 0, "fusion_lat": 0.0, "rental_uris": {"android": "https://dc.lft.to/lastmile_qr_scan", "ios": "https://dc.lft.to/lastmile_qr_scan"}, "fusion_lon": 0.0, "name": "38386ea30adf42baaaa8a0cfdbea0388", "lon": -77.0243395, "is_disabled": 0, "type": "electric_scooter"}, {"bike_id": "8aba92c65653ea0bdfebb9a569108693", "lat": 38.893317333333336, "is_reserved": 0, "fusion_lat": 0.0, "rental_uris": {"android": "https://dc.lft.to/lastmile_qr_scan", "ios": "https://dc.lft.to/lastmile_qr_scan"}, "fusion_lon": 0.0, "name": "8aba92c65653ea0bdfebb9a569108693", "lon": -76.95057033333333, "is_disabled": 0, "type": "electric_scooter"}, {"bike_id": "776ec12e5e33ede4c3ef20cd95250f05", "lat": 38.873878, "is_reserved": 0, "fusion_lat": 0.0, "rental_uris": {"android": "https://dc.lft.to/lastmile_qr_scan", "ios": "https://dc.lft.to/lastmile_qr_scan"}, "fusion_lon": 0.0, "name": "776ec12e5e33ede4c3ef20cd95250f05", "lon": -77.0433475, "is_disabled": 0, "type": "electric_scooter"}, {"bike_id": "d4c482165a74cf2bc951a0fec09660d3", "lat": 38.92475733333333, "is_reserved": 0, "fusion_lat": 0.0, "rental_uris": {"android": "https://dc.lft.to/lastmile_qr_scan", "ios": "https://dc.lft.to/lastmile_qr_scan"}, "fusion_lon": 0.0, "name": "d4c482165a74cf2bc951a0fec09660d3", "lon": -77.02205266666667, "is_disabled": 0, "type": "electric_scooter"}, {"bike_id": "5619777dbc28940c48d5bb854978f437", "lat": 38.93524583333333, "is_reserved": 0, "fusion_lat": 0.0, "rental_uris": {"android": "https://dc.lft.to/lastmile_qr_scan", "ios": "https://dc.lft.to/lastmile_qr_scan"}, "fusion_lon": 0.0, "name": "5619777dbc28940c48d5bb854978f437", "lon": -76.96446183333333, "is_disabled": 0, "type": "electric_bike"}, {"bike_id": "64f33d2e866bb265fff246e4b06aba25", "lat": 38.91765733333333, "is_reserved": 0, "fusion_lat": 0.0, "rental_uris": {"android": "https://dc.lft.to/lastmile_qr_scan", "ios": "https://dc.lft.to/lastmile_qr_scan"}, "fusion_lon": 0.0, "name": "64f33d2e866bb265fff246e4b06aba25", "lon": -77.04769716666667, "is_disabled": 0, "type": "electric_scooter"}, {"bike_id": "f30c3110a9935024ec6d41ebd378c006", "lat": 38.921739333333335, "is_reserved": 0, "fusion_lat": 0.0, "rental_uris": {"android": "https://dc.lft.to/lastmile_qr_scan", "ios": "https://dc.lft.to/lastmile_qr_scan"}, "fusion_lon": 0.0, "name": "f30c3110a9935024ec6d41ebd378c006", "lon": -77.032344, "is_disabled": 0, "type": "electric_scooter"}, {"bike_id": "54384307a92961c4727303109230580f", "lat": 38.922735, "is_reserved": 0, "fusion_lat": 0.0, "rental_uris": {"android": "https://dc.lft.to/lastmile_qr_scan", "ios": "https://dc.lft.to/lastmile_qr_scan"}, "fusion_lon": 0.0, "name": "54384307a92961c4727303109230580f", "lon": -77.036525, "is_disabled": 0, "type": "electric_scooter"}, {"bike_id": "ff0c3c70685ddb09d6ae96f3fd3dbb61", "lat": 38.91109866666667, "is_reserved": 0, "fusion_lat": 0.0, "rental_uris": {"android": "https://dc.lft.to/lastmile_qr_scan", "ios": "https://dc.lft.to/lastmile_qr_scan"}, "fusion_lon": 0.0, "name": "ff0c3c70685ddb09d6ae96f3fd3dbb61", "lon": -77.031497, "is_disabled": 0, "type": "electric_scooter"}, {"bike_id": "5b92672c674e739b68f506140a14cf5a", "lat": 38.909526, "is_reserved": 0, "fusion_lat": 0.0, "rental_uris": {"android": "https://dc.lft.to/lastmile_qr_scan", "ios": "https://dc.lft.to/lastmile_qr_scan"}, "fusion_lon": 0.0, "name": "5b92672c674e739b68f506140a14cf5a", "lon": -77.03178233333334, "is_disabled": 0, "type": "electric_scooter"}, {"bike_id": "12d2871444ba8b3bf48323bc704d1707", "lat": 38.915435, "is_reserved": 0, "fusion_lat": 0.0, "rental_uris": {"android": "https://dc.lft.to/lastmile_qr_scan", "ios": "https://dc.lft.to/lastmile_qr_scan"}, "fusion_lon": 0.0, "name": "12d2871444ba8b3bf48323bc704d1707", "lon": -77.04456433333333, "is_disabled": 0, "type": "electric_scooter"}, {"bike_id": "86cac172f7e5f9dd9bb0002e72b49410", "lat": 38.90480783333334, "is_reserved": 0, "fusion_lat": 0.0, "rental_uris": {"android": "https://dc.lft.to/lastmile_qr_scan", "ios": "https://dc.lft.to/lastmile_qr_scan"}, "fusion_lon": 0.0, "name": "86cac172f7e5f9dd9bb0002e72b49410", "lon": -77.04483316666666, "is_disabled": 0, "type": "electric_scooter"}, {"bike_id": "981b00841d77057e26f97967503e5c05", "lat": 38.9168245, "is_reserved": 0, "fusion_lat": 0.0, "rental_uris": {"android": "https://dc.lft.to/lastmile_qr_scan", "ios": "https://dc.lft.to/lastmile_qr_scan"}, "fusion_lon": 0.0, "name": "981b00841d77057e26f97967503e5c05", "lon": -77.02377433333334, "is_disabled": 0, "type": "electric_scooter"}, {"bike_id": "2e84a6be6e41a3a5e0acdc42e2229fe1", "lat": 38.903167, "is_reserved": 0, "fusion_lat": 0.0, "rental_uris": {"android": "https://dc.lft.to/lastmile_qr_scan", "ios": "https://dc.lft.to/lastmile_qr_scan"}, "fusion_lon": 0.0, "name": "2e84a6be6e41a3a5e0acdc42e2229fe1", "lon": -76.99129166666667, "is_disabled": 0, "type": "electric_scooter"}, {"bike_id": "5b9a1a81501530eeb85052723c9d8895", "lat": 38.92096133333333, "is_reserved": 0, "fusion_lat": 0.0, "rental_uris": {"android": "https://dc.lft.to/lastmile_qr_scan", "ios": "https://dc.lft.to/lastmile_qr_scan"}, "fusion_lon": 0.0, "name": "5b9a1a81501530eeb85052723c9d8895", "lon": -77.0415295, "is_disabled": 0, "type": "electric_scooter"}, {"bike_id": "975ddb0187fb11811d3d1c1e7a35e6ae", "lat": 38.8605925, "is_reserved": 0, "fusion_lat": 0.0, "rental_uris": {"android": "https://dc.lft.to/lastmile_qr_scan", "ios": "https://dc.lft.to/lastmile_qr_scan"}, "fusion_lon": 0.0, "name": "975ddb0187fb11811d3d1c1e7a35e6ae", "lon": -76.9851375, "is_disabled": 0, "type": "electric_scooter"}, {"bike_id": "b95043e6e23cec51d1d6bfbfa7a263f6", "lat": 38.918057166666664, "is_reserved": 0, "fusion_lat": 0.0, "rental_uris": {"android": "https://dc.lft.to/lastmile_qr_scan", "ios": "https://dc.lft.to/lastmile_qr_scan"}, "fusion_lon": 0.0, "name": "b95043e6e23cec51d1d6bfbfa7a263f6", "lon": -77.00933416666666, "is_disabled": 0, "type": "electric_scooter"}, {"bike_id": "91efab60b1907147f6bcdb68a5f3408e", "lat": 38.886593, "is_reserved": 0, "fusion_lat": 0.0, "rental_uris": {"android": "https://dc.lft.to/lastmile_qr_scan", "ios": "https://dc.lft.to/lastmile_qr_scan"}, "fusion_lon": 0.0, "name": "91efab60b1907147f6bcdb68a5f3408e", "lon": -77.02833533333333, "is_disabled": 0, "type": "electric_scooter"}, {"bike_id": "1d59249483aa89ef9b85299645b5574c", "lat": 38.899452833333335, "is_reserved": 0, "fusion_lat": 0.0, "rental_uris": {"android": "https://dc.lft.to/lastmile_qr_scan", "ios": "https://dc.lft.to/lastmile_qr_scan"}, "fusion_lon": 0.0, "name": "1d59249483aa89ef9b85299645b5574c", "lon": -77.01498633333334, "is_disabled": 0, "type": "electric_scooter"}, {"bike_id": "022f262137bf078d24c3328c50b8f20a", "lat": 38.809757, "is_reserved": 0, "fusion_lat": 0.0, "rental_uris": {"android": "https://dc.lft.to/lastmile_qr_scan", "ios": "https://dc.lft.to/lastmile_qr_scan"}, "fusion_lon": 0.0, "name": "022f262137bf078d24c3328c50b8f20a", "lon": -77.08633383333333, "is_disabled": 0, "type": "electric_bike"}, {"bike_id": "d40ae3f67c04dc1ef72885f5fc9bf3e9", "lat": 38.893897833333334, "is_reserved": 0, "fusion_lat": 0.0, "rental_uris": {"android": "https://dc.lft.to/lastmile_qr_scan", "ios": "https://dc.lft.to/lastmile_qr_scan"}, "fusion_lon": 0.0, "name": "d40ae3f67c04dc1ef72885f5fc9bf3e9", "lon": -77.01097733333333, "is_disabled": 0, "type": "electric_scooter"}, {"bike_id": "0f3c56eeb2504dc667d4ddde04d229c4", "lat": 38.899157333333335, "is_reserved": 0, "fusion_lat": 0.0, "rental_uris": {"android": "https://dc.lft.to/lastmile_qr_scan", "ios": "https://dc.lft.to/lastmile_qr_scan"}, "fusion_lon": 0.0, "name": "0f3c56eeb2504dc667d4ddde04d229c4", "lon": -76.93367733333334, "is_disabled": 0, "type": "electric_scooter"}, {"bike_id": "0afce009b74f5b030c9800e2e1db3822", "lat": 38.8922135, "is_reserved": 0, "fusion_lat": 0.0, "rental_uris": {"android": "https://dc.lft.to/lastmile_qr_scan", "ios": "https://dc.lft.to/lastmile_qr_scan"}, "fusion_lon": 0.0, "name": "0afce009b74f5b030c9800e2e1db3822", "lon": -77.0437535, "is_disabled": 0, "type": "electric_scooter"}, {"bike_id": "5efe74ed05ab60112c96d84181f358a0", "lat": 38.906494333333335, "is_reserved": 0, "fusion_lat": 0.0, "rental_uris": {"android": "https://dc.lft.to/lastmile_qr_scan", "ios": "https://dc.lft.to/lastmile_qr_scan"}, "fusion_lon": 0.0, "name": "5efe74ed05ab60112c96d84181f358a0", "lon": -77.048624, "is_disabled": 0, "type": "electric_scooter"}, {"bike_id": "02e9b8bd32cda9febea5fada30154a9f", "lat": 38.8788085, "is_reserved": 0, "fusion_lat": 0.0, "rental_uris": {"android": "https://dc.lft.to/lastmile_qr_scan", "ios": "https://dc.lft.to/lastmile_qr_scan"}, "fusion_lon": 0.0, "name": "02e9b8bd32cda9febea5fada30154a9f", "lon": -77.022412, "is_disabled": 0, "type": "electric_scooter"}, {"bike_id": "a5906e4db6e4e1e0d4df359a06f47b4f", "lat": 38.89039416666667, "is_reserved": 0, "fusion_lat": 0.0, "rental_uris": {"android": "https://dc.lft.to/lastmile_qr_scan", "ios": "https://dc.lft.to/lastmile_qr_scan"}, "fusion_lon": 0.0, "name": "a5906e4db6e4e1e0d4df359a06f47b4f", "lon": -76.9375265, "is_disabled": 0, "type": "electric_scooter"}, {"bike_id": "6ca195e19bce56f20e33b44cb06b1d0e", "lat": 38.89764383333333, "is_reserved": 0, "fusion_lat": 0.0, "rental_uris": {"android": "https://dc.lft.to/lastmile_qr_scan", "ios": "https://dc.lft.to/lastmile_qr_scan"}, "fusion_lon": 0.0, "name": "6ca195e19bce56f20e33b44cb06b1d0e", "lon": -77.027568, "is_disabled": 0, "type": "electric_scooter"}, {"bike_id": "1eb091489a65460fd99b2bfe748ea856", "lat": 38.922175833333334, "is_reserved": 0, "fusion_lat": 0.0, "rental_uris": {"android": "https://dc.lft.to/lastmile_qr_scan", "ios": "https://dc.lft.to/lastmile_qr_scan"}, "fusion_lon": 0.0, "name": "1eb091489a65460fd99b2bfe748ea856", "lon": -77.01819883333333, "is_disabled": 0, "type": "electric_scooter"}, {"bike_id": "4c2d250fe04d1febe65512b54022f5fe", "lat": 38.906335, "is_reserved": 0, "fusion_lat": 0.0, "rental_uris": {"android": "https://dc.lft.to/lastmile_qr_scan", "ios": "https://dc.lft.to/lastmile_qr_scan"}, "fusion_lon": 0.0, "name": "4c2d250fe04d1febe65512b54022f5fe", "lon": -77.04890966666666, "is_disabled": 0, "type": "electric_scooter"}, {"bike_id": "55edbd71eea085a6c2c13535e25f0d97", "lat": 38.91469333333333, "is_reserved": 0, "fusion_lat": 0.0, "rental_uris": {"android": "https://dc.lft.to/lastmile_qr_scan", "ios": "https://dc.lft.to/lastmile_qr_scan"}, "fusion_lon": 0.0, "name": "55edbd71eea085a6c2c13535e25f0d97", "lon": -77.0459115, "is_disabled": 0, "type": "electric_scooter"}, {"bike_id": "a91dbf0ed66ecd7748cf0318b33a607a", "lat": 38.9060295, "is_reserved": 0, "fusion_lat": 0.0, "rental_uris": {"android": "https://dc.lft.to/lastmile_qr_scan", "ios": "https://dc.lft.to/lastmile_qr_scan"}, "fusion_lon": 0.0, "name": "a91dbf0ed66ecd7748cf0318b33a607a", "lon": -77.02703866666667, "is_disabled": 0, "type": "electric_scooter"}, {"bike_id": "bcdfa84919eb0231636efea9be99f522", "lat": 38.915572, "is_reserved": 0, "fusion_lat": 0.0, "rental_uris": {"android": "https://dc.lft.to/lastmile_qr_scan", "ios": "https://dc.lft.to/lastmile_qr_scan"}, "fusion_lon": 0.0, "name": "bcdfa84919eb0231636efea9be99f522", "lon": -77.03580283333334, "is_disabled": 0, "type": "electric_scooter"}, {"bike_id": "ba6409aacbc42cd7d663e477e2692de1", "lat": 38.92623833333333, "is_reserved": 0, "fusion_lat": 0.0, "rental_uris": {"android": "https://dc.lft.to/lastmile_qr_scan", "ios": "https://dc.lft.to/lastmile_qr_scan"}, "fusion_lon": 0.0, "name": "ba6409aacbc42cd7d663e477e2692de1", "lon": -77.04195033333333, "is_disabled": 0, "type": "electric_scooter"}, {"bike_id": "46bd064c5986dd35f537130149e40012", "lat": 38.902816666666666, "is_reserved": 0, "fusion_lat": 0.0, "rental_uris": {"android": "https://dc.lft.to/lastmile_qr_scan", "ios": "https://dc.lft.to/lastmile_qr_scan"}, "fusion_lon": 0.0, "name": "46bd064c5986dd35f537130149e40012", "lon": -77.033381, "is_disabled": 0, "type": "electric_scooter"}, {"bike_id": "7e541fe1d13b460ccba7d9d659d94b68", "lat": 38.93651416666667, "is_reserved": 0, "fusion_lat": 0.0, "rental_uris": {"android": "https://dc.lft.to/lastmile_qr_scan", "ios": "https://dc.lft.to/lastmile_qr_scan"}, "fusion_lon": 0.0, "name": "7e541fe1d13b460ccba7d9d659d94b68", "lon": -77.033528, "is_disabled": 0, "type": "electric_scooter"}, {"bike_id": "40c5dc8e5117ab03f0b553796e6f5811", "lat": 38.884703, "is_reserved": 0, "fusion_lat": 0.0, "rental_uris": {"android": "https://dc.lft.to/lastmile_qr_scan", "ios": "https://dc.lft.to/lastmile_qr_scan"}, "fusion_lon": 0.0, "name": "40c5dc8e5117ab03f0b553796e6f5811", "lon": -76.95664483333333, "is_disabled": 0, "type": "electric_bike"}, {"bike_id": "7a12723e1216c15abd270672c755affd", "lat": 38.90854566666667, "is_reserved": 0, "fusion_lat": 0.0, "rental_uris": {"android": "https://dc.lft.to/lastmile_qr_scan", "ios": "https://dc.lft.to/lastmile_qr_scan"}, "fusion_lon": 0.0, "name": "7a12723e1216c15abd270672c755affd", "lon": -76.99802783333334, "is_disabled": 0, "type": "electric_scooter"}, {"bike_id": "7ec03176d206db56500c95ebe6be0a00", "lat": 38.906086, "is_reserved": 0, "fusion_lat": 0.0, "rental_uris": {"android": "https://dc.lft.to/lastmile_qr_scan", "ios": "https://dc.lft.to/lastmile_qr_scan"}, "fusion_lon": 0.0, "name": "7ec03176d206db56500c95ebe6be0a00", "lon": -77.0121675, "is_disabled": 0, "type": "electric_scooter"}, {"bike_id": "73d119792f9e02ba7a16113d767cdd44", "lat": 38.900769833333335, "is_reserved": 0, "fusion_lat": 0.0, "rental_uris": {"android": "https://dc.lft.to/lastmile_qr_scan", "ios": "https://dc.lft.to/lastmile_qr_scan"}, "fusion_lon": 0.0, "name": "73d119792f9e02ba7a16113d767cdd44", "lon": -77.02711133333334, "is_disabled": 0, "type": "electric_scooter"}, {"bike_id": "c8e6fb08bb0603488d788228f6cac15f", "lat": 38.92863466666667, "is_reserved": 0, "fusion_lat": 0.0, "rental_uris": {"android": "https://dc.lft.to/lastmile_qr_scan", "ios": "https://dc.lft.to/lastmile_qr_scan"}, "fusion_lon": 0.0, "name": "c8e6fb08bb0603488d788228f6cac15f", "lon": -77.00559383333334, "is_disabled": 0, "type": "electric_scooter"}, {"bike_id": "d08895f67953efdd2d04d257dd89c459", "lat": 38.91475616666666, "is_reserved": 0, "fusion_lat": 0.0, "rental_uris": {"android": "https://dc.lft.to/lastmile_qr_scan", "ios": "https://dc.lft.to/lastmile_qr_scan"}, "fusion_lon": 0.0, "name": "d08895f67953efdd2d04d257dd89c459", "lon": -77.04351283333334, "is_disabled": 0, "type": "electric_scooter"}, {"bike_id": "79899e5d6686f1b2fd62887ebe8fd32e", "lat": 38.9096275, "is_reserved": 0, "fusion_lat": 0.0, "rental_uris": {"android": "https://dc.lft.to/lastmile_qr_scan", "ios": "https://dc.lft.to/lastmile_qr_scan"}, "fusion_lon": 0.0, "name": "79899e5d6686f1b2fd62887ebe8fd32e", "lon": -77.0340355, "is_disabled": 0, "type": "electric_scooter"}, {"bike_id": "ffd6a4f9e202f5ea37a10512f01aa7ba", "lat": 38.83245933333333, "is_reserved": 0, "fusion_lat": 0.0, "rental_uris": {"android": "https://dc.lft.to/lastmile_qr_scan", "ios": "https://dc.lft.to/lastmile_qr_scan"}, "fusion_lon": 0.0, "name": "ffd6a4f9e202f5ea37a10512f01aa7ba", "lon": -76.94628983333334, "is_disabled": 0, "type": "electric_bike"}, {"bike_id": "ffcc0365e3ca3252d74a3b465e498dd3", "lat": 38.90569983333334, "is_reserved": 0, "fusion_lat": 0.0, "rental_uris": {"android": "https://dc.lft.to/lastmile_qr_scan", "ios": "https://dc.lft.to/lastmile_qr_scan"}, "fusion_lon": 0.0, "name": "ffcc0365e3ca3252d74a3b465e498dd3", "lon": -76.97787283333334, "is_disabled": 0, "type": "electric_scooter"}, {"bike_id": "11f303240170983e6ee6bd757db634c3", "lat": 38.895668, "is_reserved": 0, "fusion_lat": 0.0, "rental_uris": {"android": "https://dc.lft.to/lastmile_qr_scan", "ios": "https://dc.lft.to/lastmile_qr_scan"}, "fusion_lon": 0.0, "name": "11f303240170983e6ee6bd757db634c3", "lon": -76.9302775, "is_disabled": 0, "type": "electric_scooter"}, {"bike_id": "390706b40d3a5c37a30f4059654db846", "lat": 38.877562166666664, "is_reserved": 0, "fusion_lat": 0.0, "rental_uris": {"android": "https://dc.lft.to/lastmile_qr_scan", "ios": "https://dc.lft.to/lastmile_qr_scan"}, "fusion_lon": 0.0, "name": "390706b40d3a5c37a30f4059654db846", "lon": -76.98686816666667, "is_disabled": 0, "type": "electric_scooter"}, {"bike_id": "5b10d95bbb842fd263b7539eca5f3fed", "lat": 38.914167, "is_reserved": 0, "fusion_lat": 0.0, "rental_uris": {"android": "https://dc.lft.to/lastmile_qr_scan", "ios": "https://dc.lft.to/lastmile_qr_scan"}, "fusion_lon": 0.0, "name": "5b10d95bbb842fd263b7539eca5f3fed", "lon": -77.024089, "is_disabled": 0, "type": "electric_scooter"}, {"bike_id": "9fe9a08e84b80a9c2af888bc88864e48", "lat": 38.92113883333333, "is_reserved": 0, "fusion_lat": 0.0, "rental_uris": {"android": "https://dc.lft.to/lastmile_qr_scan", "ios": "https://dc.lft.to/lastmile_qr_scan"}, "fusion_lon": 0.0, "name": "9fe9a08e84b80a9c2af888bc88864e48", "lon": -77.01759166666666, "is_disabled": 0, "type": "electric_scooter"}, {"bike_id": "02570781f4112fb24c63bfcdc0cafcf3", "lat": 38.9198305, "is_reserved": 0, "fusion_lat": 0.0, "rental_uris": {"android": "https://dc.lft.to/lastmile_qr_scan", "ios": "https://dc.lft.to/lastmile_qr_scan"}, "fusion_lon": 0.0, "name": "02570781f4112fb24c63bfcdc0cafcf3", "lon": -77.02499566666667, "is_disabled": 0, "type": "electric_scooter"}, {"bike_id": "b857332952d57f81db9f06a0def1e7d6", "lat": 38.884404, "is_reserved": 0, "fusion_lat": 0.0, "rental_uris": {"android": "https://dc.lft.to/lastmile_qr_scan", "ios": "https://dc.lft.to/lastmile_qr_scan"}, "fusion_lon": 0.0, "name": "b857332952d57f81db9f06a0def1e7d6", "lon": -76.99626016666667, "is_disabled": 0, "type": "electric_scooter"}, {"bike_id": "90e9a70beedc6f901a53b779dba9e1f5", "lat": 38.89825333333334, "is_reserved": 0, "fusion_lat": 0.0, "rental_uris": {"android": "https://dc.lft.to/lastmile_qr_scan", "ios": "https://dc.lft.to/lastmile_qr_scan"}, "fusion_lon": 0.0, "name": "90e9a70beedc6f901a53b779dba9e1f5", "lon": -77.0304385, "is_disabled": 0, "type": "electric_scooter"}, {"bike_id": "706340369d33a810cb8b9dd6e811741b", "lat": 38.903751, "is_reserved": 0, "fusion_lat": 0.0, "rental_uris": {"android": "https://dc.lft.to/lastmile_qr_scan", "ios": "https://dc.lft.to/lastmile_qr_scan"}, "fusion_lon": 0.0, "name": "706340369d33a810cb8b9dd6e811741b", "lon": -77.0484585, "is_disabled": 0, "type": "electric_scooter"}, {"bike_id": "33313d4799b89bddf4113a52876fecf2", "lat": 39.03423433333333, "is_reserved": 0, "fusion_lat": 0.0, "rental_uris": {"android": "https://dc.lft.to/lastmile_qr_scan", "ios": "https://dc.lft.to/lastmile_qr_scan"}, "fusion_lon": 0.0, "name": "33313d4799b89bddf4113a52876fecf2", "lon": -77.04306433333333, "is_disabled": 0, "type": "electric_bike"}, {"bike_id": "3c064072740674f0885203e8fd1a434d", "lat": 38.92921616666667, "is_reserved": 0, "fusion_lat": 0.0, "rental_uris": {"android": "https://dc.lft.to/lastmile_qr_scan", "ios": "https://dc.lft.to/lastmile_qr_scan"}, "fusion_lon": 0.0, "name": "3c064072740674f0885203e8fd1a434d", "lon": -77.03269516666667, "is_disabled": 0, "type": "electric_scooter"}, {"bike_id": "a35a1c396e13aa8f0d240a0817d01c61", "lat": 38.9232095, "is_reserved": 0, "fusion_lat": 0.0, "rental_uris": {"android": "https://dc.lft.to/lastmile_qr_scan", "ios": "https://dc.lft.to/lastmile_qr_scan"}, "fusion_lon": 0.0, "name": "a35a1c396e13aa8f0d240a0817d01c61", "lon": -77.04518683333333, "is_disabled": 0, "type": "electric_scooter"}, {"bike_id": "b86762f66f6a1714b4d0a5ebad3809cc", "lat": 38.93401716666666, "is_reserved": 0, "fusion_lat": 0.0, "rental_uris": {"android": "https://dc.lft.to/lastmile_qr_scan", "ios": "https://dc.lft.to/lastmile_qr_scan"}, "fusion_lon": 0.0, "name": "b86762f66f6a1714b4d0a5ebad3809cc", "lon": -77.022098, "is_disabled": 0, "type": "electric_scooter"}, {"bike_id": "97232411cba3e10f8aa26d2c70072a24", "lat": 38.99221333333333, "is_reserved": 0, "fusion_lat": 0.0, "rental_uris": {"android": "https://dc.lft.to/lastmile_qr_scan", "ios": "https://dc.lft.to/lastmile_qr_scan"}, "fusion_lon": 0.0, "name": "97232411cba3e10f8aa26d2c70072a24", "lon": -76.94422466666667, "is_disabled": 0, "type": "electric_bike"}, {"bike_id": "e6eab4fdcbbb2d8172af4163f2ee22cd", "lat": 38.905258, "is_reserved": 0, "fusion_lat": 0.0, "rental_uris": {"android": "https://dc.lft.to/lastmile_qr_scan", "ios": "https://dc.lft.to/lastmile_qr_scan"}, "fusion_lon": 0.0, "name": "e6eab4fdcbbb2d8172af4163f2ee22cd", "lon": -77.0660935, "is_disabled": 0, "type": "electric_scooter"}, {"bike_id": "9bd486ec537328c29b2010e12b734d10", "lat": 38.9069425, "is_reserved": 0, "fusion_lat": 0.0, "rental_uris": {"android": "https://dc.lft.to/lastmile_qr_scan", "ios": "https://dc.lft.to/lastmile_qr_scan"}, "fusion_lon": 0.0, "name": "9bd486ec537328c29b2010e12b734d10", "lon": -77.0259385, "is_disabled": 0, "type": "electric_scooter"}, {"bike_id": "3505194c1a9d7234ca0287c36a4ab6cb", "lat": 38.92769833333333, "is_reserved": 0, "fusion_lat": 0.0, "rental_uris": {"android": "https://dc.lft.to/lastmile_qr_scan", "ios": "https://dc.lft.to/lastmile_qr_scan"}, "fusion_lon": 0.0, "name": "3505194c1a9d7234ca0287c36a4ab6cb", "lon": -77.02735933333334, "is_disabled": 0, "type": "electric_scooter"}, {"bike_id": "6a517e064d64e425e0086feafe720795", "lat": 38.85477133333333, "is_reserved": 0, "fusion_lat": 0.0, "rental_uris": {"android": "https://dc.lft.to/lastmile_qr_scan", "ios": "https://dc.lft.to/lastmile_qr_scan"}, "fusion_lon": 0.0, "name": "6a517e064d64e425e0086feafe720795", "lon": -77.1160635, "is_disabled": 0, "type": "electric_bike"}, {"bike_id": "76357baaf22dc866dca4a9c518739309", "lat": 38.90560983333334, "is_reserved": 0, "fusion_lat": 0.0, "rental_uris": {"android": "https://dc.lft.to/lastmile_qr_scan", "ios": "https://dc.lft.to/lastmile_qr_scan"}, "fusion_lon": 0.0, "name": "76357baaf22dc866dca4a9c518739309", "lon": -77.01680616666667, "is_disabled": 0, "type": "electric_scooter"}, {"bike_id": "f845c89f6bec001001ef89c1e1414fd8", "lat": 38.855624166666665, "is_reserved": 0, "fusion_lat": 0.0, "rental_uris": {"android": "https://dc.lft.to/lastmile_qr_scan", "ios": "https://dc.lft.to/lastmile_qr_scan"}, "fusion_lon": 0.0, "name": "f845c89f6bec001001ef89c1e1414fd8", "lon": -77.11319566666667, "is_disabled": 0, "type": "electric_bike"}, {"bike_id": "988f8d37bc18a2dfe697021e9db65b9e", "lat": 38.91564133333333, "is_reserved": 0, "fusion_lat": 0.0, "rental_uris": {"android": "https://dc.lft.to/lastmile_qr_scan", "ios": "https://dc.lft.to/lastmile_qr_scan"}, "fusion_lon": 0.0, "name": "988f8d37bc18a2dfe697021e9db65b9e", "lon": -77.03838883333333, "is_disabled": 0, "type": "electric_scooter"}, {"bike_id": "e77ef8b851d4566a1a450677798e6377", "lat": 38.907537, "is_reserved": 0, "fusion_lat": 0.0, "rental_uris": {"android": "https://dc.lft.to/lastmile_qr_scan", "ios": "https://dc.lft.to/lastmile_qr_scan"}, "fusion_lon": 0.0, "name": "e77ef8b851d4566a1a450677798e6377", "lon": -77.04162816666667, "is_disabled": 0, "type": "electric_scooter"}, {"bike_id": "bd3b1940aec3840cc0f230854047630c", "lat": 38.9140485, "is_reserved": 0, "fusion_lat": 0.0, "rental_uris": {"android": "https://dc.lft.to/lastmile_qr_scan", "ios": "https://dc.lft.to/lastmile_qr_scan"}, "fusion_lon": 0.0, "name": "bd3b1940aec3840cc0f230854047630c", "lon": -77.02006083333333, "is_disabled": 0, "type": "electric_scooter"}, {"bike_id": "3aa6d55f84d3262a91d1c67b34020e20", "lat": 38.92960433333333, "is_reserved": 0, "fusion_lat": 0.0, "rental_uris": {"android": "https://dc.lft.to/lastmile_qr_scan", "ios": "https://dc.lft.to/lastmile_qr_scan"}, "fusion_lon": 0.0, "name": "3aa6d55f84d3262a91d1c67b34020e20", "lon": -77.01146833333334, "is_disabled": 0, "type": "electric_scooter"}, {"bike_id": "41e78076322f6e35b550b75bb32da8aa", "lat": 38.90571416666667, "is_reserved": 0, "fusion_lat": 0.0, "rental_uris": {"android": "https://dc.lft.to/lastmile_qr_scan", "ios": "https://dc.lft.to/lastmile_qr_scan"}, "fusion_lon": 0.0, "name": "41e78076322f6e35b550b75bb32da8aa", "lon": -77.025348, "is_disabled": 0, "type": "electric_scooter"}, {"bike_id": "d34a7bfd4c8f77b7a84ac65b94a1fa56", "lat": 38.889749333333334, "is_reserved": 0, "fusion_lat": 0.0, "rental_uris": {"android": "https://dc.lft.to/lastmile_qr_scan", "ios": "https://dc.lft.to/lastmile_qr_scan"}, "fusion_lon": 0.0, "name": "d34a7bfd4c8f77b7a84ac65b94a1fa56", "lon": -76.9993875, "is_disabled": 0, "type": "electric_scooter"}, {"bike_id": "7d8498a41b46776f55a5d61070e33fa6", "lat": 38.84146166666667, "is_reserved": 0, "fusion_lat": 0.0, "rental_uris": {"android": "https://dc.lft.to/lastmile_qr_scan", "ios": "https://dc.lft.to/lastmile_qr_scan"}, "fusion_lon": 0.0, "name": "7d8498a41b46776f55a5d61070e33fa6", "lon": -77.11469183333334, "is_disabled": 0, "type": "electric_bike"}, {"bike_id": "42b380880b1b07d232b5e12bf1a77bc2", "lat": 38.89818066666667, "is_reserved": 0, "fusion_lat": 0.0, "rental_uris": {"android": "https://dc.lft.to/lastmile_qr_scan", "ios": "https://dc.lft.to/lastmile_qr_scan"}, "fusion_lon": 0.0, "name": "42b380880b1b07d232b5e12bf1a77bc2", "lon": -77.02580366666666, "is_disabled": 0, "type": "electric_scooter"}, {"bike_id": "ab20b6a033842e04b53efd7f4accefc1", "lat": 38.86248, "is_reserved": 0, "fusion_lat": 0.0, "rental_uris": {"android": "https://dc.lft.to/lastmile_qr_scan", "ios": "https://dc.lft.to/lastmile_qr_scan"}, "fusion_lon": 0.0, "name": "ab20b6a033842e04b53efd7f4accefc1", "lon": -76.99508266666666, "is_disabled": 0, "type": "electric_scooter"}, {"bike_id": "c2a32fa199874ecc11d97e9041b040dc", "lat": 38.90134166666667, "is_reserved": 0, "fusion_lat": 0.0, "rental_uris": {"android": "https://dc.lft.to/lastmile_qr_scan", "ios": "https://dc.lft.to/lastmile_qr_scan"}, "fusion_lon": 0.0, "name": "c2a32fa199874ecc11d97e9041b040dc", "lon": -76.9973335, "is_disabled": 0, "type": "electric_scooter"}, {"bike_id": "757f2809246ea0450b19bf9d3d688e3c", "lat": 38.91674016666666, "is_reserved": 0, "fusion_lat": 0.0, "rental_uris": {"android": "https://dc.lft.to/lastmile_qr_scan", "ios": "https://dc.lft.to/lastmile_qr_scan"}, "fusion_lon": 0.0, "name": "757f2809246ea0450b19bf9d3d688e3c", "lon": -77.02384866666667, "is_disabled": 0, "type": "electric_scooter"}, {"bike_id": "841bae4f9e5b7b334989485ff3a1b785", "lat": 38.92385633333333, "is_reserved": 0, "fusion_lat": 0.0, "rental_uris": {"android": "https://dc.lft.to/lastmile_qr_scan", "ios": "https://dc.lft.to/lastmile_qr_scan"}, "fusion_lon": 0.0, "name": "841bae4f9e5b7b334989485ff3a1b785", "lon": -77.03667416666667, "is_disabled": 0, "type": "electric_scooter"}, {"bike_id": "f4a8c21b268d53cc5c220094664e3c1b", "lat": 38.91614083333333, "is_reserved": 0, "fusion_lat": 0.0, "rental_uris": {"android": "https://dc.lft.to/lastmile_qr_scan", "ios": "https://dc.lft.to/lastmile_qr_scan"}, "fusion_lon": 0.0, "name": "f4a8c21b268d53cc5c220094664e3c1b", "lon": -77.033903, "is_disabled": 0, "type": "electric_scooter"}, {"bike_id": "366a0e10a3ba4823a368c474ce4123d8", "lat": 38.9194265, "is_reserved": 0, "fusion_lat": 0.0, "rental_uris": {"android": "https://dc.lft.to/lastmile_qr_scan", "ios": "https://dc.lft.to/lastmile_qr_scan"}, "fusion_lon": 0.0, "name": "366a0e10a3ba4823a368c474ce4123d8", "lon": -77.0249915, "is_disabled": 0, "type": "electric_scooter"}, {"bike_id": "2ce973e6de5c5fe250b4a0f497befec4", "lat": 38.920618, "is_reserved": 0, "fusion_lat": 0.0, "rental_uris": {"android": "https://dc.lft.to/lastmile_qr_scan", "ios": "https://dc.lft.to/lastmile_qr_scan"}, "fusion_lon": 0.0, "name": "2ce973e6de5c5fe250b4a0f497befec4", "lon": -77.04226, "is_disabled": 0, "type": "electric_scooter"}, {"bike_id": "4117635a0927e0f20db5f4a47bbd0fc5", "lat": 38.92880183333333, "is_reserved": 0, "fusion_lat": 0.0, "rental_uris": {"android": "https://dc.lft.to/lastmile_qr_scan", "ios": "https://dc.lft.to/lastmile_qr_scan"}, "fusion_lon": 0.0, "name": "4117635a0927e0f20db5f4a47bbd0fc5", "lon": -77.01844483333333, "is_disabled": 0, "type": "electric_scooter"}, {"bike_id": "cce5656ad0ba4d50952d437dea0f3e70", "lat": 38.92730933333333, "is_reserved": 0, "fusion_lat": 0.0, "rental_uris": {"android": "https://dc.lft.to/lastmile_qr_scan", "ios": "https://dc.lft.to/lastmile_qr_scan"}, "fusion_lon": 0.0, "name": "cce5656ad0ba4d50952d437dea0f3e70", "lon": -77.02984316666667, "is_disabled": 0, "type": "electric_scooter"}, {"bike_id": "5dc237a9408ca403e6355f5cc88d8bd4", "lat": 38.924267666666665, "is_reserved": 0, "fusion_lat": 0.0, "rental_uris": {"android": "https://dc.lft.to/lastmile_qr_scan", "ios": "https://dc.lft.to/lastmile_qr_scan"}, "fusion_lon": 0.0, "name": "5dc237a9408ca403e6355f5cc88d8bd4", "lon": -77.05181866666666, "is_disabled": 0, "type": "electric_scooter"}, {"bike_id": "bcaae93feef75549263fd3e1b2260560", "lat": 38.9335915, "is_reserved": 0, "fusion_lat": 0.0, "rental_uris": {"android": "https://dc.lft.to/lastmile_qr_scan", "ios": "https://dc.lft.to/lastmile_qr_scan"}, "fusion_lon": 0.0, "name": "bcaae93feef75549263fd3e1b2260560", "lon": -77.041181, "is_disabled": 0, "type": "electric_scooter"}, {"bike_id": "2c3bde4c8f8fdb2a86833656439d216c", "lat": 38.866854333333336, "is_reserved": 0, "fusion_lat": 0.0, "rental_uris": {"android": "https://dc.lft.to/lastmile_qr_scan", "ios": "https://dc.lft.to/lastmile_qr_scan"}, "fusion_lon": 0.0, "name": "2c3bde4c8f8fdb2a86833656439d216c", "lon": -76.98575433333333, "is_disabled": 0, "type": "electric_scooter"}, {"bike_id": "4313cd680a07974543bc47ebc83f9cf9", "lat": 38.800508666666666, "is_reserved": 0, "fusion_lat": 0.0, "rental_uris": {"android": "https://dc.lft.to/lastmile_qr_scan", "ios": "https://dc.lft.to/lastmile_qr_scan"}, "fusion_lon": 0.0, "name": "4313cd680a07974543bc47ebc83f9cf9", "lon": -77.063313, "is_disabled": 0, "type": "electric_bike"}, {"bike_id": "d52fd0a8cd4da6416ccf18e791aebf8f", "lat": 38.926266166666665, "is_reserved": 0, "fusion_lat": 0.0, "rental_uris": {"android": "https://dc.lft.to/lastmile_qr_scan", "ios": "https://dc.lft.to/lastmile_qr_scan"}, "fusion_lon": 0.0, "name": "d52fd0a8cd4da6416ccf18e791aebf8f", "lon": -77.037142, "is_disabled": 0, "type": "electric_scooter"}, {"bike_id": "571e5ea83267f990c75194e71235f4ef", "lat": 38.93852033333334, "is_reserved": 0, "fusion_lat": 0.0, "rental_uris": {"android": "https://dc.lft.to/lastmile_qr_scan", "ios": "https://dc.lft.to/lastmile_qr_scan"}, "fusion_lon": 0.0, "name": "571e5ea83267f990c75194e71235f4ef", "lon": -77.03410733333334, "is_disabled": 0, "type": "electric_scooter"}, {"bike_id": "51957d5699852db35a05a9c2b52b7108", "lat": 38.90854866666667, "is_reserved": 0, "fusion_lat": 0.0, "rental_uris": {"android": "https://dc.lft.to/lastmile_qr_scan", "ios": "https://dc.lft.to/lastmile_qr_scan"}, "fusion_lon": 0.0, "name": "51957d5699852db35a05a9c2b52b7108", "lon": -76.998044, "is_disabled": 0, "type": "electric_scooter"}, {"bike_id": "acfa10017d68dad2f2828513e7c3a4bf", "lat": 38.87656066666667, "is_reserved": 0, "fusion_lat": 0.0, "rental_uris": {"android": "https://dc.lft.to/lastmile_qr_scan", "ios": "https://dc.lft.to/lastmile_qr_scan"}, "fusion_lon": 0.0, "name": "acfa10017d68dad2f2828513e7c3a4bf", "lon": -76.9313735, "is_disabled": 0, "type": "electric_scooter"}, {"bike_id": "378dbd3c6d40f3714bbddb3481501699", "lat": 38.907686166666664, "is_reserved": 0, "fusion_lat": 0.0, "rental_uris": {"android": "https://dc.lft.to/lastmile_qr_scan", "ios": "https://dc.lft.to/lastmile_qr_scan"}, "fusion_lon": 0.0, "name": "378dbd3c6d40f3714bbddb3481501699", "lon": -77.03468366666667, "is_disabled": 0, "type": "electric_scooter"}, {"bike_id": "3436dfd2d3e5725eae933cb62bfdab53", "lat": 38.90810716666667, "is_reserved": 0, "fusion_lat": 0.0, "rental_uris": {"android": "https://dc.lft.to/lastmile_qr_scan", "ios": "https://dc.lft.to/lastmile_qr_scan"}, "fusion_lon": 0.0, "name": "3436dfd2d3e5725eae933cb62bfdab53", "lon": -77.03443116666666, "is_disabled": 0, "type": "electric_scooter"}, {"bike_id": "674c92ba0def26837c224637014408f1", "lat": 38.8602335, "is_reserved": 0, "fusion_lat": 0.0, "rental_uris": {"android": "https://dc.lft.to/lastmile_qr_scan", "ios": "https://dc.lft.to/lastmile_qr_scan"}, "fusion_lon": 0.0, "name": "674c92ba0def26837c224637014408f1", "lon": -76.996837, "is_disabled": 0, "type": "electric_scooter"}, {"bike_id": "5e30c242a37c3a04ec3e1306e4cb0291", "lat": 38.87649066666667, "is_reserved": 0, "fusion_lat": 0.0, "rental_uris": {"android": "https://dc.lft.to/lastmile_qr_scan", "ios": "https://dc.lft.to/lastmile_qr_scan"}, "fusion_lon": 0.0, "name": "5e30c242a37c3a04ec3e1306e4cb0291", "lon": -77.00441083333334, "is_disabled": 0, "type": "electric_scooter"}, {"bike_id": "6f56836f50789acf672f7ee76f99217a", "lat": 38.91112583333334, "is_reserved": 0, "fusion_lat": 0.0, "rental_uris": {"android": "https://dc.lft.to/lastmile_qr_scan", "ios": "https://dc.lft.to/lastmile_qr_scan"}, "fusion_lon": 0.0, "name": "6f56836f50789acf672f7ee76f99217a", "lon": -77.04328, "is_disabled": 0, "type": "electric_scooter"}, {"bike_id": "7cd0a9df527b9e21b4b15cab797d7bea", "lat": 38.920615, "is_reserved": 0, "fusion_lat": 0.0, "rental_uris": {"android": "https://dc.lft.to/lastmile_qr_scan", "ios": "https://dc.lft.to/lastmile_qr_scan"}, "fusion_lon": 0.0, "name": "7cd0a9df527b9e21b4b15cab797d7bea", "lon": -77.04250566666667, "is_disabled": 0, "type": "electric_scooter"}, {"bike_id": "454d0ecd6de3e40d2bdbe68de17bf7a5", "lat": 38.896217, "is_reserved": 0, "fusion_lat": 0.0, "rental_uris": {"android": "https://dc.lft.to/lastmile_qr_scan", "ios": "https://dc.lft.to/lastmile_qr_scan"}, "fusion_lon": 0.0, "name": "454d0ecd6de3e40d2bdbe68de17bf7a5", "lon": -77.02247316666667, "is_disabled": 0, "type": "electric_scooter"}, {"bike_id": "082a74f64184c015c58fb2c142dd5a24", "lat": 38.90418366666667, "is_reserved": 0, "fusion_lat": 0.0, "rental_uris": {"android": "https://dc.lft.to/lastmile_qr_scan", "ios": "https://dc.lft.to/lastmile_qr_scan"}, "fusion_lon": 0.0, "name": "082a74f64184c015c58fb2c142dd5a24", "lon": -77.04354033333334, "is_disabled": 0, "type": "electric_scooter"}, {"bike_id": "75092e9bbe551a859d0b75b62d2038e0", "lat": 38.87731983333333, "is_reserved": 0, "fusion_lat": 0.0, "rental_uris": {"android": "https://dc.lft.to/lastmile_qr_scan", "ios": "https://dc.lft.to/lastmile_qr_scan"}, "fusion_lon": 0.0, "name": "75092e9bbe551a859d0b75b62d2038e0", "lon": -77.02150683333333, "is_disabled": 0, "type": "electric_scooter"}, {"bike_id": "7530e9b12296cd96d0d78542745b8223", "lat": 38.88855133333333, "is_reserved": 0, "fusion_lat": 0.0, "rental_uris": {"android": "https://dc.lft.to/lastmile_qr_scan", "ios": "https://dc.lft.to/lastmile_qr_scan"}, "fusion_lon": 0.0, "name": "7530e9b12296cd96d0d78542745b8223", "lon": -77.000565, "is_disabled": 0, "type": "electric_scooter"}, {"bike_id": "2d0d09ebf5877bbf2a7540373ef4ddf2", "lat": 38.9507535, "is_reserved": 0, "fusion_lat": 0.0, "rental_uris": {"android": "https://dc.lft.to/lastmile_qr_scan", "ios": "https://dc.lft.to/lastmile_qr_scan"}, "fusion_lon": 0.0, "name": "2d0d09ebf5877bbf2a7540373ef4ddf2", "lon": -77.02987666666667, "is_disabled": 0, "type": "electric_scooter"}, {"bike_id": "7ee119b96883acd79d3629e403c0737b", "lat": 38.91173366666666, "is_reserved": 0, "fusion_lat": 0.0, "rental_uris": {"android": "https://dc.lft.to/lastmile_qr_scan", "ios": "https://dc.lft.to/lastmile_qr_scan"}, "fusion_lon": 0.0, "name": "7ee119b96883acd79d3629e403c0737b", "lon": -77.03187533333333, "is_disabled": 0, "type": "electric_scooter"}, {"bike_id": "259233832fa78fffbb5a7f84741cfa06", "lat": 38.916747666666666, "is_reserved": 0, "fusion_lat": 0.0, "rental_uris": {"android": "https://dc.lft.to/lastmile_qr_scan", "ios": "https://dc.lft.to/lastmile_qr_scan"}, "fusion_lon": 0.0, "name": "259233832fa78fffbb5a7f84741cfa06", "lon": -77.02333916666667, "is_disabled": 0, "type": "electric_scooter"}, {"bike_id": "b2fc3b33943fe5db5a6f5f4ebdd8dfa7", "lat": 38.907263, "is_reserved": 0, "fusion_lat": 0.0, "rental_uris": {"android": "https://dc.lft.to/lastmile_qr_scan", "ios": "https://dc.lft.to/lastmile_qr_scan"}, "fusion_lon": 0.0, "name": "b2fc3b33943fe5db5a6f5f4ebdd8dfa7", "lon": -77.02382666666666, "is_disabled": 0, "type": "electric_scooter"}, {"bike_id": "3f0427b7e504873acf2886144f9b8eb7", "lat": 38.86253516666667, "is_reserved": 0, "fusion_lat": 0.0, "rental_uris": {"android": "https://dc.lft.to/lastmile_qr_scan", "ios": "https://dc.lft.to/lastmile_qr_scan"}, "fusion_lon": 0.0, "name": "3f0427b7e504873acf2886144f9b8eb7", "lon": -76.9955945, "is_disabled": 0, "type": "electric_scooter"}, {"bike_id": "8269722bb16bfdef3e8cc6785d5a39c1", "lat": 38.92197083333333, "is_reserved": 0, "fusion_lat": 0.0, "rental_uris": {"android": "https://dc.lft.to/lastmile_qr_scan", "ios": "https://dc.lft.to/lastmile_qr_scan"}, "fusion_lon": 0.0, "name": "8269722bb16bfdef3e8cc6785d5a39c1", "lon": -77.040026, "is_disabled": 0, "type": "electric_scooter"}, {"bike_id": "f219add160b612bf344244ec356a4cab", "lat": 38.877218666666664, "is_reserved": 0, "fusion_lat": 0.0, "rental_uris": {"android": "https://dc.lft.to/lastmile_qr_scan", "ios": "https://dc.lft.to/lastmile_qr_scan"}, "fusion_lon": 0.0, "name": "f219add160b612bf344244ec356a4cab", "lon": -77.00281916666667, "is_disabled": 0, "type": "electric_scooter"}, {"bike_id": "de75d3cb331f73965065bd5ec4ff6392", "lat": 38.887490166666666, "is_reserved": 0, "fusion_lat": 0.0, "rental_uris": {"android": "https://dc.lft.to/lastmile_qr_scan", "ios": "https://dc.lft.to/lastmile_qr_scan"}, "fusion_lon": 0.0, "name": "de75d3cb331f73965065bd5ec4ff6392", "lon": -76.90089816666666, "is_disabled": 0, "type": "electric_bike"}, {"bike_id": "49628b67fcb636c12e9e36db491ade51", "lat": 38.926419333333335, "is_reserved": 0, "fusion_lat": 0.0, "rental_uris": {"android": "https://dc.lft.to/lastmile_qr_scan", "ios": "https://dc.lft.to/lastmile_qr_scan"}, "fusion_lon": 0.0, "name": "49628b67fcb636c12e9e36db491ade51", "lon": -77.03545133333333, "is_disabled": 0, "type": "electric_scooter"}, {"bike_id": "c2b54dc711873a9f27639aaca967a177", "lat": 38.887092, "is_reserved": 0, "fusion_lat": 0.0, "rental_uris": {"android": "https://dc.lft.to/lastmile_qr_scan", "ios": "https://dc.lft.to/lastmile_qr_scan"}, "fusion_lon": 0.0, "name": "c2b54dc711873a9f27639aaca967a177", "lon": -77.01375466666667, "is_disabled": 0, "type": "electric_scooter"}, {"bike_id": "1e622b12fd1ff0f14ce9e05bf6bb31d7", "lat": 38.897257833333335, "is_reserved": 0, "fusion_lat": 0.0, "rental_uris": {"android": "https://dc.lft.to/lastmile_qr_scan", "ios": "https://dc.lft.to/lastmile_qr_scan"}, "fusion_lon": 0.0, "name": "1e622b12fd1ff0f14ce9e05bf6bb31d7", "lon": -77.021676, "is_disabled": 0, "type": "electric_scooter"}, {"bike_id": "fea90e4faad70a2660b9974191cf7c42", "lat": 38.905695, "is_reserved": 0, "fusion_lat": 0.0, "rental_uris": {"android": "https://dc.lft.to/lastmile_qr_scan", "ios": "https://dc.lft.to/lastmile_qr_scan"}, "fusion_lon": 0.0, "name": "fea90e4faad70a2660b9974191cf7c42", "lon": -76.976246, "is_disabled": 0, "type": "electric_scooter"}, {"bike_id": "0fe112392692d54b07c976c231549884", "lat": 38.9232505, "is_reserved": 0, "fusion_lat": 0.0, "rental_uris": {"android": "https://dc.lft.to/lastmile_qr_scan", "ios": "https://dc.lft.to/lastmile_qr_scan"}, "fusion_lon": 0.0, "name": "0fe112392692d54b07c976c231549884", "lon": -77.02128416666666, "is_disabled": 0, "type": "electric_scooter"}, {"bike_id": "284779d842d0455d91dbed8822206ecb", "lat": 38.91267633333333, "is_reserved": 0, "fusion_lat": 0.0, "rental_uris": {"android": "https://dc.lft.to/lastmile_qr_scan", "ios": "https://dc.lft.to/lastmile_qr_scan"}, "fusion_lon": 0.0, "name": "284779d842d0455d91dbed8822206ecb", "lon": -77.02213016666667, "is_disabled": 0, "type": "electric_scooter"}, {"bike_id": "f9e4929c6da6301d0c26b16c7bcec91f", "lat": 38.90435316666667, "is_reserved": 0, "fusion_lat": 0.0, "rental_uris": {"android": "https://dc.lft.to/lastmile_qr_scan", "ios": "https://dc.lft.to/lastmile_qr_scan"}, "fusion_lon": 0.0, "name": "f9e4929c6da6301d0c26b16c7bcec91f", "lon": -77.05322916666667, "is_disabled": 0, "type": "electric_scooter"}, {"bike_id": "7aa7a16e3430c51cb1a8887e703f2951", "lat": 38.921517333333334, "is_reserved": 0, "fusion_lat": 0.0, "rental_uris": {"android": "https://dc.lft.to/lastmile_qr_scan", "ios": "https://dc.lft.to/lastmile_qr_scan"}, "fusion_lon": 0.0, "name": "7aa7a16e3430c51cb1a8887e703f2951", "lon": -77.03336016666667, "is_disabled": 0, "type": "electric_scooter"}, {"bike_id": "cc62ac11a2935896eac8641b8a17c0a8", "lat": 38.9099275, "is_reserved": 0, "fusion_lat": 0.0, "rental_uris": {"android": "https://dc.lft.to/lastmile_qr_scan", "ios": "https://dc.lft.to/lastmile_qr_scan"}, "fusion_lon": 0.0, "name": "cc62ac11a2935896eac8641b8a17c0a8", "lon": -77.02186233333333, "is_disabled": 0, "type": "electric_scooter"}, {"bike_id": "8dc529fae73bb2cb05d6ab0bea8954e9", "lat": 38.8624595, "is_reserved": 0, "fusion_lat": 0.0, "rental_uris": {"android": "https://dc.lft.to/lastmile_qr_scan", "ios": "https://dc.lft.to/lastmile_qr_scan"}, "fusion_lon": 0.0, "name": "8dc529fae73bb2cb05d6ab0bea8954e9", "lon": -76.99266083333333, "is_disabled": 0, "type": "electric_scooter"}, {"bike_id": "6bb4b58fb3cb97bea2bf0ecad839114b", "lat": 38.884378166666664, "is_reserved": 0, "fusion_lat": 0.0, "rental_uris": {"android": "https://dc.lft.to/lastmile_qr_scan", "ios": "https://dc.lft.to/lastmile_qr_scan"}, "fusion_lon": 0.0, "name": "6bb4b58fb3cb97bea2bf0ecad839114b", "lon": -77.0034805, "is_disabled": 0, "type": "electric_scooter"}, {"bike_id": "1a684adfafb4ed0b3d14b66580f12dad", "lat": 38.903305833333334, "is_reserved": 0, "fusion_lat": 0.0, "rental_uris": {"android": "https://dc.lft.to/lastmile_qr_scan", "ios": "https://dc.lft.to/lastmile_qr_scan"}, "fusion_lon": 0.0, "name": "1a684adfafb4ed0b3d14b66580f12dad", "lon": -77.016294, "is_disabled": 0, "type": "electric_scooter"}, {"bike_id": "42016140cf5a9337595a88dfabb2d671", "lat": 38.963023666666665, "is_reserved": 0, "fusion_lat": 0.0, "rental_uris": {"android": "https://dc.lft.to/lastmile_qr_scan", "ios": "https://dc.lft.to/lastmile_qr_scan"}, "fusion_lon": 0.0, "name": "42016140cf5a9337595a88dfabb2d671", "lon": -77.01119216666666, "is_disabled": 0, "type": "electric_bike"}, {"bike_id": "bbe315ffdffa8feb4fc14775fc7a02a6", "lat": 38.9050235, "is_reserved": 0, "fusion_lat": 0.0, "rental_uris": {"android": "https://dc.lft.to/lastmile_qr_scan", "ios": "https://dc.lft.to/lastmile_qr_scan"}, "fusion_lon": 0.0, "name": "bbe315ffdffa8feb4fc14775fc7a02a6", "lon": -77.044955, "is_disabled": 0, "type": "electric_scooter"}, {"bike_id": "51eaf11afb2cf18df07ba7e6728dab11", "lat": 38.91837483333333, "is_reserved": 0, "fusion_lat": 0.0, "rental_uris": {"android": "https://dc.lft.to/lastmile_qr_scan", "ios": "https://dc.lft.to/lastmile_qr_scan"}, "fusion_lon": 0.0, "name": "51eaf11afb2cf18df07ba7e6728dab11", "lon": -77.03209016666666, "is_disabled": 0, "type": "electric_scooter"}, {"bike_id": "b551a48a15d0f78b57e77285a6e04109", "lat": 38.902268, "is_reserved": 0, "fusion_lat": 0.0, "rental_uris": {"android": "https://dc.lft.to/lastmile_qr_scan", "ios": "https://dc.lft.to/lastmile_qr_scan"}, "fusion_lon": 0.0, "name": "b551a48a15d0f78b57e77285a6e04109", "lon": -77.059938, "is_disabled": 0, "type": "electric_scooter"}, {"bike_id": "18fe6cdf34f068c29bb812348dbacf50", "lat": 38.86246533333333, "is_reserved": 0, "fusion_lat": 0.0, "rental_uris": {"android": "https://dc.lft.to/lastmile_qr_scan", "ios": "https://dc.lft.to/lastmile_qr_scan"}, "fusion_lon": 0.0, "name": "18fe6cdf34f068c29bb812348dbacf50", "lon": -76.995041, "is_disabled": 0, "type": "electric_scooter"}, {"bike_id": "46130614e4535e144664e0f8b4fe7a7f", "lat": 38.91864183333333, "is_reserved": 0, "fusion_lat": 0.0, "rental_uris": {"android": "https://dc.lft.to/lastmile_qr_scan", "ios": "https://dc.lft.to/lastmile_qr_scan"}, "fusion_lon": 0.0, "name": "46130614e4535e144664e0f8b4fe7a7f", "lon": -77.04065633333333, "is_disabled": 0, "type": "electric_scooter"}, {"bike_id": "c68e43abb095bf7ad0ccbd31da582a11", "lat": 38.93911716666667, "is_reserved": 0, "fusion_lat": 0.0, "rental_uris": {"android": "https://dc.lft.to/lastmile_qr_scan", "ios": "https://dc.lft.to/lastmile_qr_scan"}, "fusion_lon": 0.0, "name": "c68e43abb095bf7ad0ccbd31da582a11", "lon": -77.06046766666667, "is_disabled": 0, "type": "electric_scooter"}, {"bike_id": "d520dc1b35e600c93fc9cb32c1a28563", "lat": 38.915744, "is_reserved": 0, "fusion_lat": 0.0, "rental_uris": {"android": "https://dc.lft.to/lastmile_qr_scan", "ios": "https://dc.lft.to/lastmile_qr_scan"}, "fusion_lon": 0.0, "name": "d520dc1b35e600c93fc9cb32c1a28563", "lon": -77.03212716666667, "is_disabled": 0, "type": "electric_scooter"}, {"bike_id": "30974ee5f629ca98ed53ad4a1c186876", "lat": 38.900293833333336, "is_reserved": 0, "fusion_lat": 0.0, "rental_uris": {"android": "https://dc.lft.to/lastmile_qr_scan", "ios": "https://dc.lft.to/lastmile_qr_scan"}, "fusion_lon": 0.0, "name": "30974ee5f629ca98ed53ad4a1c186876", "lon": -77.01186333333334, "is_disabled": 0, "type": "electric_scooter"}, {"bike_id": "13495e679d0f5a28955584dae2e8c775", "lat": 38.865056333333335, "is_reserved": 0, "fusion_lat": 0.0, "rental_uris": {"android": "https://dc.lft.to/lastmile_qr_scan", "ios": "https://dc.lft.to/lastmile_qr_scan"}, "fusion_lon": 0.0, "name": "13495e679d0f5a28955584dae2e8c775", "lon": -76.9900785, "is_disabled": 0, "type": "electric_scooter"}, {"bike_id": "0b408191743037ab997c16821f22da75", "lat": 38.8309635, "is_reserved": 0, "fusion_lat": 0.0, "rental_uris": {"android": "https://dc.lft.to/lastmile_qr_scan", "ios": "https://dc.lft.to/lastmile_qr_scan"}, "fusion_lon": 0.0, "name": "0b408191743037ab997c16821f22da75", "lon": -77.04295616666667, "is_disabled": 0, "type": "electric_bike"}, {"bike_id": "fb3b49f96e125ccd26d2507293f0a8b5", "lat": 38.897493, "is_reserved": 0, "fusion_lat": 0.0, "rental_uris": {"android": "https://dc.lft.to/lastmile_qr_scan", "ios": "https://dc.lft.to/lastmile_qr_scan"}, "fusion_lon": 0.0, "name": "fb3b49f96e125ccd26d2507293f0a8b5", "lon": -77.02985733333334, "is_disabled": 0, "type": "electric_scooter"}, {"bike_id": "e9c015ae278962b875b50f0a60b608ce", "lat": 38.9207335, "is_reserved": 0, "fusion_lat": 0.0, "rental_uris": {"android": "https://dc.lft.to/lastmile_qr_scan", "ios": "https://dc.lft.to/lastmile_qr_scan"}, "fusion_lon": 0.0, "name": "e9c015ae278962b875b50f0a60b608ce", "lon": -77.02340966666667, "is_disabled": 0, "type": "electric_scooter"}, {"bike_id": "d4de66f927545a92efe1bab8832f75d8", "lat": 38.923070333333335, "is_reserved": 0, "fusion_lat": 0.0, "rental_uris": {"android": "https://dc.lft.to/lastmile_qr_scan", "ios": "https://dc.lft.to/lastmile_qr_scan"}, "fusion_lon": 0.0, "name": "d4de66f927545a92efe1bab8832f75d8", "lon": -77.0194125, "is_disabled": 0, "type": "electric_scooter"}, {"bike_id": "ce5385bc503d5f3667dd067889125098", "lat": 38.923741, "is_reserved": 0, "fusion_lat": 0.0, "rental_uris": {"android": "https://dc.lft.to/lastmile_qr_scan", "ios": "https://dc.lft.to/lastmile_qr_scan"}, "fusion_lon": 0.0, "name": "ce5385bc503d5f3667dd067889125098", "lon": -77.02125016666666, "is_disabled": 0, "type": "electric_scooter"}, {"bike_id": "01c99037ffbaa9f265082c6c6039bec9", "lat": 38.88410666666667, "is_reserved": 0, "fusion_lat": 0.0, "rental_uris": {"android": "https://dc.lft.to/lastmile_qr_scan", "ios": "https://dc.lft.to/lastmile_qr_scan"}, "fusion_lon": 0.0, "name": "01c99037ffbaa9f265082c6c6039bec9", "lon": -76.94824416666667, "is_disabled": 0, "type": "electric_scooter"}, {"bike_id": "6f7a1c7ab971354cf226d6737a6ec731", "lat": 38.9339985, "is_reserved": 0, "fusion_lat": 0.0, "rental_uris": {"android": "https://dc.lft.to/lastmile_qr_scan", "ios": "https://dc.lft.to/lastmile_qr_scan"}, "fusion_lon": 0.0, "name": "6f7a1c7ab971354cf226d6737a6ec731", "lon": -77.05745983333334, "is_disabled": 0, "type": "electric_scooter"}, {"bike_id": "5adb7c2de06134a0bbeaa031234f9424", "lat": 38.90586033333334, "is_reserved": 0, "fusion_lat": 0.0, "rental_uris": {"android": "https://dc.lft.to/lastmile_qr_scan", "ios": "https://dc.lft.to/lastmile_qr_scan"}, "fusion_lon": 0.0, "name": "5adb7c2de06134a0bbeaa031234f9424", "lon": -77.04194166666667, "is_disabled": 0, "type": "electric_scooter"}, {"bike_id": "dbfb0788d3421b2bdc57214b2055dc4d", "lat": 38.89628966666667, "is_reserved": 0, "fusion_lat": 0.0, "rental_uris": {"android": "https://dc.lft.to/lastmile_qr_scan", "ios": "https://dc.lft.to/lastmile_qr_scan"}, "fusion_lon": 0.0, "name": "dbfb0788d3421b2bdc57214b2055dc4d", "lon": -77.02614, "is_disabled": 0, "type": "electric_scooter"}, {"bike_id": "3ac2fa6a230d6655387ce61bb7695edf", "lat": 38.920043166666666, "is_reserved": 0, "fusion_lat": 0.0, "rental_uris": {"android": "https://dc.lft.to/lastmile_qr_scan", "ios": "https://dc.lft.to/lastmile_qr_scan"}, "fusion_lon": 0.0, "name": "3ac2fa6a230d6655387ce61bb7695edf", "lon": -77.02370633333334, "is_disabled": 0, "type": "electric_scooter"}, {"bike_id": "24c91484c00f724cf0cb3fbae902637b", "lat": 38.96554033333334, "is_reserved": 0, "fusion_lat": 0.0, "rental_uris": {"android": "https://dc.lft.to/lastmile_qr_scan", "ios": "https://dc.lft.to/lastmile_qr_scan"}, "fusion_lon": 0.0, "name": "24c91484c00f724cf0cb3fbae902637b", "lon": -77.0020815, "is_disabled": 0, "type": "electric_scooter"}, {"bike_id": "ab9e1b37f62dcbcd974c5e091bc4f1d7", "lat": 38.92146483333333, "is_reserved": 0, "fusion_lat": 0.0, "rental_uris": {"android": "https://dc.lft.to/lastmile_qr_scan", "ios": "https://dc.lft.to/lastmile_qr_scan"}, "fusion_lon": 0.0, "name": "ab9e1b37f62dcbcd974c5e091bc4f1d7", "lon": -77.0351775, "is_disabled": 0, "type": "electric_scooter"}, {"bike_id": "5081ed039323ab93fb5b8726880f672a", "lat": 38.92254716666667, "is_reserved": 0, "fusion_lat": 0.0, "rental_uris": {"android": "https://dc.lft.to/lastmile_qr_scan", "ios": "https://dc.lft.to/lastmile_qr_scan"}, "fusion_lon": 0.0, "name": "5081ed039323ab93fb5b8726880f672a", "lon": -77.03520883333333, "is_disabled": 0, "type": "electric_scooter"}, {"bike_id": "dcd844a70a4393c065090c2f5be6ac00", "lat": 38.89189616666667, "is_reserved": 0, "fusion_lat": 0.0, "rental_uris": {"android": "https://dc.lft.to/lastmile_qr_scan", "ios": "https://dc.lft.to/lastmile_qr_scan"}, "fusion_lon": 0.0, "name": "dcd844a70a4393c065090c2f5be6ac00", "lon": -77.0433405, "is_disabled": 0, "type": "electric_scooter"}, {"bike_id": "dba7bdfff4c08446f233450c9aed6838", "lat": 38.9361315, "is_reserved": 0, "fusion_lat": 0.0, "rental_uris": {"android": "https://dc.lft.to/lastmile_qr_scan", "ios": "https://dc.lft.to/lastmile_qr_scan"}, "fusion_lon": 0.0, "name": "dba7bdfff4c08446f233450c9aed6838", "lon": -77.0589355, "is_disabled": 0, "type": "electric_scooter"}, {"bike_id": "32ab263ebd952b6c49b497b7c9015cbd", "lat": 38.911072833333336, "is_reserved": 0, "fusion_lat": 0.0, "rental_uris": {"android": "https://dc.lft.to/lastmile_qr_scan", "ios": "https://dc.lft.to/lastmile_qr_scan"}, "fusion_lon": 0.0, "name": "32ab263ebd952b6c49b497b7c9015cbd", "lon": -77.04405216666666, "is_disabled": 0, "type": "electric_scooter"}, {"bike_id": "9070f533f6eea22dcbe0f965d90c06b8", "lat": 38.915985, "is_reserved": 0, "fusion_lat": 0.0, "rental_uris": {"android": "https://dc.lft.to/lastmile_qr_scan", "ios": "https://dc.lft.to/lastmile_qr_scan"}, "fusion_lon": 0.0, "name": "9070f533f6eea22dcbe0f965d90c06b8", "lon": -77.00198183333333, "is_disabled": 0, "type": "electric_scooter"}, {"bike_id": "bba4d4ea6a2309668f77f54e61440a7b", "lat": 38.892241166666665, "is_reserved": 0, "fusion_lat": 0.0, "rental_uris": {"android": "https://dc.lft.to/lastmile_qr_scan", "ios": "https://dc.lft.to/lastmile_qr_scan"}, "fusion_lon": 0.0, "name": "bba4d4ea6a2309668f77f54e61440a7b", "lon": -77.048708, "is_disabled": 0, "type": "electric_scooter"}, {"bike_id": "00478b18197eb92ba8d612084d712d46", "lat": 38.9097045, "is_reserved": 0, "fusion_lat": 0.0, "rental_uris": {"android": "https://dc.lft.to/lastmile_qr_scan", "ios": "https://dc.lft.to/lastmile_qr_scan"}, "fusion_lon": 0.0, "name": "00478b18197eb92ba8d612084d712d46", "lon": -77.017158, "is_disabled": 0, "type": "electric_scooter"}, {"bike_id": "de507ad77534334ecc760b640ea6935a", "lat": 38.883034, "is_reserved": 0, "fusion_lat": 0.0, "rental_uris": {"android": "https://dc.lft.to/lastmile_qr_scan", "ios": "https://dc.lft.to/lastmile_qr_scan"}, "fusion_lon": 0.0, "name": "de507ad77534334ecc760b640ea6935a", "lon": -76.942031, "is_disabled": 0, "type": "electric_scooter"}, {"bike_id": "6b01c0cba6f27b548597ae8a8f8c2c73", "lat": 38.90368566666667, "is_reserved": 0, "fusion_lat": 0.0, "rental_uris": {"android": "https://dc.lft.to/lastmile_qr_scan", "ios": "https://dc.lft.to/lastmile_qr_scan"}, "fusion_lon": 0.0, "name": "6b01c0cba6f27b548597ae8a8f8c2c73", "lon": -77.0465955, "is_disabled": 0, "type": "electric_scooter"}, {"bike_id": "90370849f13bd7afa649918c04050f05", "lat": 38.94124883333333, "is_reserved": 0, "fusion_lat": 0.0, "rental_uris": {"android": "https://dc.lft.to/lastmile_qr_scan", "ios": "https://dc.lft.to/lastmile_qr_scan"}, "fusion_lon": 0.0, "name": "90370849f13bd7afa649918c04050f05", "lon": -77.02530733333333, "is_disabled": 0, "type": "electric_scooter"}, {"bike_id": "12aa7e0c01e5909767bf14476ad81410", "lat": 38.902249166666664, "is_reserved": 0, "fusion_lat": 0.0, "rental_uris": {"android": "https://dc.lft.to/lastmile_qr_scan", "ios": "https://dc.lft.to/lastmile_qr_scan"}, "fusion_lon": 0.0, "name": "12aa7e0c01e5909767bf14476ad81410", "lon": -77.04810916666666, "is_disabled": 0, "type": "electric_scooter"}, {"bike_id": "e0998063d347ba043eb881c0fad80a3e", "lat": 38.92325316666667, "is_reserved": 0, "fusion_lat": 0.0, "rental_uris": {"android": "https://dc.lft.to/lastmile_qr_scan", "ios": "https://dc.lft.to/lastmile_qr_scan"}, "fusion_lon": 0.0, "name": "e0998063d347ba043eb881c0fad80a3e", "lon": -77.02965866666666, "is_disabled": 0, "type": "electric_scooter"}, {"bike_id": "3af542648d97d4aeb6156cdb10376f2d", "lat": 38.915538, "is_reserved": 0, "fusion_lat": 0.0, "rental_uris": {"android": "https://dc.lft.to/lastmile_qr_scan", "ios": "https://dc.lft.to/lastmile_qr_scan"}, "fusion_lon": 0.0, "name": "3af542648d97d4aeb6156cdb10376f2d", "lon": -77.03322533333333, "is_disabled": 0, "type": "electric_scooter"}, {"bike_id": "fe0c543c1c636920898d23cbd363565a", "lat": 38.91573566666667, "is_reserved": 0, "fusion_lat": 0.0, "rental_uris": {"android": "https://dc.lft.to/lastmile_qr_scan", "ios": "https://dc.lft.to/lastmile_qr_scan"}, "fusion_lon": 0.0, "name": "fe0c543c1c636920898d23cbd363565a", "lon": -77.01958516666667, "is_disabled": 0, "type": "electric_scooter"}, {"bike_id": "39158d71de5dd897a46af1f591661435", "lat": 38.91406583333333, "is_reserved": 0, "fusion_lat": 0.0, "rental_uris": {"android": "https://dc.lft.to/lastmile_qr_scan", "ios": "https://dc.lft.to/lastmile_qr_scan"}, "fusion_lon": 0.0, "name": "39158d71de5dd897a46af1f591661435", "lon": -77.02005983333333, "is_disabled": 0, "type": "electric_scooter"}, {"bike_id": "2c7d014052d60003aba15e2ebc7f57a7", "lat": 38.914200666666666, "is_reserved": 0, "fusion_lat": 0.0, "rental_uris": {"android": "https://dc.lft.to/lastmile_qr_scan", "ios": "https://dc.lft.to/lastmile_qr_scan"}, "fusion_lon": 0.0, "name": "2c7d014052d60003aba15e2ebc7f57a7", "lon": -77.02409966666667, "is_disabled": 0, "type": "electric_scooter"}, {"bike_id": "20efd60d089f977f8fbf25fa31685a47", "lat": 38.866971666666664, "is_reserved": 0, "fusion_lat": 0.0, "rental_uris": {"android": "https://dc.lft.to/lastmile_qr_scan", "ios": "https://dc.lft.to/lastmile_qr_scan"}, "fusion_lon": 0.0, "name": "20efd60d089f977f8fbf25fa31685a47", "lon": -76.985474, "is_disabled": 0, "type": "electric_scooter"}, {"bike_id": "22b7742f3e5c8b7c04f2c00dd96cfd15", "lat": 38.91259866666667, "is_reserved": 0, "fusion_lat": 0.0, "rental_uris": {"android": "https://dc.lft.to/lastmile_qr_scan", "ios": "https://dc.lft.to/lastmile_qr_scan"}, "fusion_lon": 0.0, "name": "22b7742f3e5c8b7c04f2c00dd96cfd15", "lon": -77.04300816666667, "is_disabled": 0, "type": "electric_scooter"}, {"bike_id": "2051b8be3c46adc858c96fbde4a239d5", "lat": 38.8772055, "is_reserved": 0, "fusion_lat": 0.0, "rental_uris": {"android": "https://dc.lft.to/lastmile_qr_scan", "ios": "https://dc.lft.to/lastmile_qr_scan"}, "fusion_lon": 0.0, "name": "2051b8be3c46adc858c96fbde4a239d5", "lon": -77.00282116666666, "is_disabled": 0, "type": "electric_scooter"}, {"bike_id": "29d9c5d4bd3c18d04a67054ee0b8dfeb", "lat": 38.90384383333333, "is_reserved": 0, "fusion_lat": 0.0, "rental_uris": {"android": "https://dc.lft.to/lastmile_qr_scan", "ios": "https://dc.lft.to/lastmile_qr_scan"}, "fusion_lon": 0.0, "name": "29d9c5d4bd3c18d04a67054ee0b8dfeb", "lon": -77.04023833333333, "is_disabled": 0, "type": "electric_scooter"}, {"bike_id": "fc58e734d89e5b0c779608e6f84da1cc", "lat": 38.94185483333333, "is_reserved": 0, "fusion_lat": 0.0, "rental_uris": {"android": "https://dc.lft.to/lastmile_qr_scan", "ios": "https://dc.lft.to/lastmile_qr_scan"}, "fusion_lon": 0.0, "name": "fc58e734d89e5b0c779608e6f84da1cc", "lon": -77.02487316666667, "is_disabled": 0, "type": "electric_scooter"}, {"bike_id": "3fe00f023d26d8c2e5e75b21d5b59909", "lat": 38.8961025, "is_reserved": 0, "fusion_lat": 0.0, "rental_uris": {"android": "https://dc.lft.to/lastmile_qr_scan", "ios": "https://dc.lft.to/lastmile_qr_scan"}, "fusion_lon": 0.0, "name": "3fe00f023d26d8c2e5e75b21d5b59909", "lon": -77.02350283333334, "is_disabled": 0, "type": "electric_scooter"}, {"bike_id": "1ea323a881a55dae13f2f54b2a6f8ae9", "lat": 38.914413833333334, "is_reserved": 0, "fusion_lat": 0.0, "rental_uris": {"android": "https://dc.lft.to/lastmile_qr_scan", "ios": "https://dc.lft.to/lastmile_qr_scan"}, "fusion_lon": 0.0, "name": "1ea323a881a55dae13f2f54b2a6f8ae9", "lon": -77.04161766666667, "is_disabled": 0, "type": "electric_scooter"}, {"bike_id": "69cf72bfdf71f13fed0ce2031b7d8c24", "lat": 38.925801666666665, "is_reserved": 0, "fusion_lat": 0.0, "rental_uris": {"android": "https://dc.lft.to/lastmile_qr_scan", "ios": "https://dc.lft.to/lastmile_qr_scan"}, "fusion_lon": 0.0, "name": "69cf72bfdf71f13fed0ce2031b7d8c24", "lon": -77.0542585, "is_disabled": 0, "type": "electric_scooter"}, {"bike_id": "27f98071dabaaee75eddf32f114609e3", "lat": 38.89957716666667, "is_reserved": 0, "fusion_lat": 0.0, "rental_uris": {"android": "https://dc.lft.to/lastmile_qr_scan", "ios": "https://dc.lft.to/lastmile_qr_scan"}, "fusion_lon": 0.0, "name": "27f98071dabaaee75eddf32f114609e3", "lon": -76.9753495, "is_disabled": 0, "type": "electric_scooter"}, {"bike_id": "07285173c5b7d5a6abc566cd5f3fc09d", "lat": 38.854242666666664, "is_reserved": 0, "fusion_lat": 0.0, "rental_uris": {"android": "https://dc.lft.to/lastmile_qr_scan", "ios": "https://dc.lft.to/lastmile_qr_scan"}, "fusion_lon": 0.0, "name": "07285173c5b7d5a6abc566cd5f3fc09d", "lon": -77.12080216666666, "is_disabled": 0, "type": "electric_bike"}, {"bike_id": "1f157d51df1d64f1291a7142a51acab4", "lat": 38.907253833333336, "is_reserved": 0, "fusion_lat": 0.0, "rental_uris": {"android": "https://dc.lft.to/lastmile_qr_scan", "ios": "https://dc.lft.to/lastmile_qr_scan"}, "fusion_lon": 0.0, "name": "1f157d51df1d64f1291a7142a51acab4", "lon": -77.02825633333333, "is_disabled": 0, "type": "electric_scooter"}, {"bike_id": "39733dc69254c29fcebd034ee2f109aa", "lat": 38.846108666666666, "is_reserved": 0, "fusion_lat": 0.0, "rental_uris": {"android": "https://dc.lft.to/lastmile_qr_scan", "ios": "https://dc.lft.to/lastmile_qr_scan"}, "fusion_lon": 0.0, "name": "39733dc69254c29fcebd034ee2f109aa", "lon": -76.96914016666666, "is_disabled": 0, "type": "electric_bike"}, {"bike_id": "c8db2062a89fdb2abefc68ae1242a296", "lat": 38.904197, "is_reserved": 0, "fusion_lat": 0.0, "rental_uris": {"android": "https://dc.lft.to/lastmile_qr_scan", "ios": "https://dc.lft.to/lastmile_qr_scan"}, "fusion_lon": 0.0, "name": "c8db2062a89fdb2abefc68ae1242a296", "lon": -77.05328033333333, "is_disabled": 0, "type": "electric_scooter"}, {"bike_id": "c1dba0a0a0bc90dafb7e7196a6276381", "lat": 38.9042045, "is_reserved": 0, "fusion_lat": 0.0, "rental_uris": {"android": "https://dc.lft.to/lastmile_qr_scan", "ios": "https://dc.lft.to/lastmile_qr_scan"}, "fusion_lon": 0.0, "name": "c1dba0a0a0bc90dafb7e7196a6276381", "lon": -76.97376466666667, "is_disabled": 0, "type": "electric_scooter"}, {"bike_id": "32d3c70fe39e8f3150135e93a3c92a15", "lat": 38.865682666666665, "is_reserved": 0, "fusion_lat": 0.0, "rental_uris": {"android": "https://dc.lft.to/lastmile_qr_scan", "ios": "https://dc.lft.to/lastmile_qr_scan"}, "fusion_lon": 0.0, "name": "32d3c70fe39e8f3150135e93a3c92a15", "lon": -76.98215966666666, "is_disabled": 0, "type": "electric_scooter"}, {"bike_id": "ed99423ae345a9db17b4c26e999228bd", "lat": 38.90590533333334, "is_reserved": 0, "fusion_lat": 0.0, "rental_uris": {"android": "https://dc.lft.to/lastmile_qr_scan", "ios": "https://dc.lft.to/lastmile_qr_scan"}, "fusion_lon": 0.0, "name": "ed99423ae345a9db17b4c26e999228bd", "lon": -77.0419945, "is_disabled": 0, "type": "electric_scooter"}, {"bike_id": "06358ea80bb25376ef166bc7e57f3294", "lat": 38.90016983333334, "is_reserved": 0, "fusion_lat": 0.0, "rental_uris": {"android": "https://dc.lft.to/lastmile_qr_scan", "ios": "https://dc.lft.to/lastmile_qr_scan"}, "fusion_lon": 0.0, "name": "06358ea80bb25376ef166bc7e57f3294", "lon": -76.99904016666666, "is_disabled": 0, "type": "electric_scooter"}, {"bike_id": "33d2e8039240a7705eca7d7ab7e0f53f", "lat": 38.91537833333334, "is_reserved": 0, "fusion_lat": 0.0, "rental_uris": {"android": "https://dc.lft.to/lastmile_qr_scan", "ios": "https://dc.lft.to/lastmile_qr_scan"}, "fusion_lon": 0.0, "name": "33d2e8039240a7705eca7d7ab7e0f53f", "lon": -77.0122295, "is_disabled": 0, "type": "electric_scooter"}, {"bike_id": "22a1c4968467c668bf164e355d10a1a9", "lat": 38.89835816666667, "is_reserved": 0, "fusion_lat": 0.0, "rental_uris": {"android": "https://dc.lft.to/lastmile_qr_scan", "ios": "https://dc.lft.to/lastmile_qr_scan"}, "fusion_lon": 0.0, "name": "22a1c4968467c668bf164e355d10a1a9", "lon": -77.05015133333333, "is_disabled": 0, "type": "electric_scooter"}, {"bike_id": "200e87acb73b4e3e85075bc2c9fda9ed", "lat": 38.892233, "is_reserved": 0, "fusion_lat": 0.0, "rental_uris": {"android": "https://dc.lft.to/lastmile_qr_scan", "ios": "https://dc.lft.to/lastmile_qr_scan"}, "fusion_lon": 0.0, "name": "200e87acb73b4e3e85075bc2c9fda9ed", "lon": -77.02451833333333, "is_disabled": 0, "type": "electric_scooter"}, {"bike_id": "0f6e9bfc205091886c13b2c376155174", "lat": 38.92649983333333, "is_reserved": 0, "fusion_lat": 0.0, "rental_uris": {"android": "https://dc.lft.to/lastmile_qr_scan", "ios": "https://dc.lft.to/lastmile_qr_scan"}, "fusion_lon": 0.0, "name": "0f6e9bfc205091886c13b2c376155174", "lon": -77.024808, "is_disabled": 0, "type": "electric_scooter"}, {"bike_id": "2bd24a2912e20eea9f7750196ee853aa", "lat": 38.928706, "is_reserved": 0, "fusion_lat": 0.0, "rental_uris": {"android": "https://dc.lft.to/lastmile_qr_scan", "ios": "https://dc.lft.to/lastmile_qr_scan"}, "fusion_lon": 0.0, "name": "2bd24a2912e20eea9f7750196ee853aa", "lon": -77.034424, "is_disabled": 0, "type": "electric_scooter"}, {"bike_id": "04b61dbb24903c944ac4af3d3ec6926f", "lat": 38.897245, "is_reserved": 0, "fusion_lat": 0.0, "rental_uris": {"android": "https://dc.lft.to/lastmile_qr_scan", "ios": "https://dc.lft.to/lastmile_qr_scan"}, "fusion_lon": 0.0, "name": "04b61dbb24903c944ac4af3d3ec6926f", "lon": -77.02856216666666, "is_disabled": 0, "type": "electric_scooter"}, {"bike_id": "efbdbcc8d4dfac653d3f3d6d16aa2dae", "lat": 38.86655283333333, "is_reserved": 0, "fusion_lat": 0.0, "rental_uris": {"android": "https://dc.lft.to/lastmile_qr_scan", "ios": "https://dc.lft.to/lastmile_qr_scan"}, "fusion_lon": 0.0, "name": "efbdbcc8d4dfac653d3f3d6d16aa2dae", "lon": -76.9889, "is_disabled": 0, "type": "electric_scooter"}, {"bike_id": "047c4197f6e0a279f1f7212b3cc051d6", "lat": 38.90731916666667, "is_reserved": 0, "fusion_lat": 0.0, "rental_uris": {"android": "https://dc.lft.to/lastmile_qr_scan", "ios": "https://dc.lft.to/lastmile_qr_scan"}, "fusion_lon": 0.0, "name": "047c4197f6e0a279f1f7212b3cc051d6", "lon": -77.04182516666667, "is_disabled": 0, "type": "electric_scooter"}, {"bike_id": "0ffbc3849390fb2f9ee99b82c8fb038d", "lat": 38.90124816666667, "is_reserved": 0, "fusion_lat": 0.0, "rental_uris": {"android": "https://dc.lft.to/lastmile_qr_scan", "ios": "https://dc.lft.to/lastmile_qr_scan"}, "fusion_lon": 0.0, "name": "0ffbc3849390fb2f9ee99b82c8fb038d", "lon": -77.04150183333333, "is_disabled": 0, "type": "electric_scooter"}, {"bike_id": "679ac6bd64c75844c91ace2a2177d0a0", "lat": 38.911159166666664, "is_reserved": 0, "fusion_lat": 0.0, "rental_uris": {"android": "https://dc.lft.to/lastmile_qr_scan", "ios": "https://dc.lft.to/lastmile_qr_scan"}, "fusion_lon": 0.0, "name": "679ac6bd64c75844c91ace2a2177d0a0", "lon": -77.0433855, "is_disabled": 0, "type": "electric_scooter"}, {"bike_id": "a4f974e873a84e72ec3d690337dc4385", "lat": 38.900635666666666, "is_reserved": 0, "fusion_lat": 0.0, "rental_uris": {"android": "https://dc.lft.to/lastmile_qr_scan", "ios": "https://dc.lft.to/lastmile_qr_scan"}, "fusion_lon": 0.0, "name": "a4f974e873a84e72ec3d690337dc4385", "lon": -77.04537383333333, "is_disabled": 0, "type": "electric_scooter"}, {"bike_id": "534491d29a4d8f6d0ba1da488ff1f213", "lat": 38.903979166666666, "is_reserved": 0, "fusion_lat": 0.0, "rental_uris": {"android": "https://dc.lft.to/lastmile_qr_scan", "ios": "https://dc.lft.to/lastmile_qr_scan"}, "fusion_lon": 0.0, "name": "534491d29a4d8f6d0ba1da488ff1f213", "lon": -77.0629775, "is_disabled": 0, "type": "electric_scooter"}, {"bike_id": "4db9f4a6f4cf96a82f7c2c90e4926085", "lat": 38.930617, "is_reserved": 0, "fusion_lat": 0.0, "rental_uris": {"android": "https://dc.lft.to/lastmile_qr_scan", "ios": "https://dc.lft.to/lastmile_qr_scan"}, "fusion_lon": 0.0, "name": "4db9f4a6f4cf96a82f7c2c90e4926085", "lon": -77.03895466666667, "is_disabled": 0, "type": "electric_scooter"}, {"bike_id": "82af679934b128c150f1b1004e2e016e", "lat": 38.879036166666666, "is_reserved": 0, "fusion_lat": 0.0, "rental_uris": {"android": "https://dc.lft.to/lastmile_qr_scan", "ios": "https://dc.lft.to/lastmile_qr_scan"}, "fusion_lon": 0.0, "name": "82af679934b128c150f1b1004e2e016e", "lon": -77.02328783333333, "is_disabled": 0, "type": "electric_scooter"}, {"bike_id": "dd3ffe569dc6233e509c0df5e2f9d6d2", "lat": 38.91866916666667, "is_reserved": 0, "fusion_lat": 0.0, "rental_uris": {"android": "https://dc.lft.to/lastmile_qr_scan", "ios": "https://dc.lft.to/lastmile_qr_scan"}, "fusion_lon": 0.0, "name": "dd3ffe569dc6233e509c0df5e2f9d6d2", "lon": -77.04159766666666, "is_disabled": 0, "type": "electric_scooter"}, {"bike_id": "fc7e361f512847b659e13d79174f73e0", "lat": 38.8717385, "is_reserved": 0, "fusion_lat": 0.0, "rental_uris": {"android": "https://dc.lft.to/lastmile_qr_scan", "ios": "https://dc.lft.to/lastmile_qr_scan"}, "fusion_lon": 0.0, "name": "fc7e361f512847b659e13d79174f73e0", "lon": -77.0068535, "is_disabled": 0, "type": "electric_scooter"}, {"bike_id": "5a529ac6647b471d0209cff44de93f78", "lat": 38.93181116666667, "is_reserved": 0, "fusion_lat": 0.0, "rental_uris": {"android": "https://dc.lft.to/lastmile_qr_scan", "ios": "https://dc.lft.to/lastmile_qr_scan"}, "fusion_lon": 0.0, "name": "5a529ac6647b471d0209cff44de93f78", "lon": -77.084274, "is_disabled": 0, "type": "electric_scooter"}, {"bike_id": "bb040f19fccf6d0e48ece64946d725d7", "lat": 38.89764266666667, "is_reserved": 0, "fusion_lat": 0.0, "rental_uris": {"android": "https://dc.lft.to/lastmile_qr_scan", "ios": "https://dc.lft.to/lastmile_qr_scan"}, "fusion_lon": 0.0, "name": "bb040f19fccf6d0e48ece64946d725d7", "lon": -77.02773116666667, "is_disabled": 0, "type": "electric_scooter"}, {"bike_id": "b17e1a252fa2c07109a8888f54221966", "lat": 38.94921816666667, "is_reserved": 0, "fusion_lat": 0.0, "rental_uris": {"android": "https://dc.lft.to/lastmile_qr_scan", "ios": "https://dc.lft.to/lastmile_qr_scan"}, "fusion_lon": 0.0, "name": "b17e1a252fa2c07109a8888f54221966", "lon": -77.008022, "is_disabled": 0, "type": "electric_bike"}, {"bike_id": "418991f361b23b39464a1c4de7bed6fc", "lat": 38.877115, "is_reserved": 0, "fusion_lat": 0.0, "rental_uris": {"android": "https://dc.lft.to/lastmile_qr_scan", "ios": "https://dc.lft.to/lastmile_qr_scan"}, "fusion_lon": 0.0, "name": "418991f361b23b39464a1c4de7bed6fc", "lon": -77.01761933333333, "is_disabled": 0, "type": "electric_scooter"}, {"bike_id": "82eed6932e72d959742f86bdef49b0d8", "lat": 38.898861833333335, "is_reserved": 0, "fusion_lat": 0.0, "rental_uris": {"android": "https://dc.lft.to/lastmile_qr_scan", "ios": "https://dc.lft.to/lastmile_qr_scan"}, "fusion_lon": 0.0, "name": "82eed6932e72d959742f86bdef49b0d8", "lon": -76.9768765, "is_disabled": 0, "type": "electric_scooter"}, {"bike_id": "83b94dbd8f30431f769d88b30638c72b", "lat": 38.935329, "is_reserved": 0, "fusion_lat": 0.0, "rental_uris": {"android": "https://dc.lft.to/lastmile_qr_scan", "ios": "https://dc.lft.to/lastmile_qr_scan"}, "fusion_lon": 0.0, "name": "83b94dbd8f30431f769d88b30638c72b", "lon": -77.02353366666667, "is_disabled": 0, "type": "electric_scooter"}, {"bike_id": "ce5679c0cb93c1f58bf0d7d0ccb3ac8b", "lat": 38.92490516666667, "is_reserved": 0, "fusion_lat": 0.0, "rental_uris": {"android": "https://dc.lft.to/lastmile_qr_scan", "ios": "https://dc.lft.to/lastmile_qr_scan"}, "fusion_lon": 0.0, "name": "ce5679c0cb93c1f58bf0d7d0ccb3ac8b", "lon": -77.031871, "is_disabled": 0, "type": "electric_scooter"}, {"bike_id": "c3c72a63152ca95bf7171130f2cfabe1", "lat": 38.920349333333334, "is_reserved": 0, "fusion_lat": 0.0, "rental_uris": {"android": "https://dc.lft.to/lastmile_qr_scan", "ios": "https://dc.lft.to/lastmile_qr_scan"}, "fusion_lon": 0.0, "name": "c3c72a63152ca95bf7171130f2cfabe1", "lon": -77.00304166666666, "is_disabled": 0, "type": "electric_scooter"}, {"bike_id": "415e3d5f0b05d0969febbdfa2dc3cde6", "lat": 38.916516333333334, "is_reserved": 0, "fusion_lat": 0.0, "rental_uris": {"android": "https://dc.lft.to/lastmile_qr_scan", "ios": "https://dc.lft.to/lastmile_qr_scan"}, "fusion_lon": 0.0, "name": "415e3d5f0b05d0969febbdfa2dc3cde6", "lon": -76.979157, "is_disabled": 0, "type": "electric_scooter"}, {"bike_id": "4aec7fafd33c2e63530bd36c23ee2b25", "lat": 38.91846316666667, "is_reserved": 0, "fusion_lat": 0.0, "rental_uris": {"android": "https://dc.lft.to/lastmile_qr_scan", "ios": "https://dc.lft.to/lastmile_qr_scan"}, "fusion_lon": 0.0, "name": "4aec7fafd33c2e63530bd36c23ee2b25", "lon": -77.03211966666667, "is_disabled": 0, "type": "electric_scooter"}, {"bike_id": "8201998616fc7b23a00675d332ca7edc", "lat": 38.920002333333336, "is_reserved": 0, "fusion_lat": 0.0, "rental_uris": {"android": "https://dc.lft.to/lastmile_qr_scan", "ios": "https://dc.lft.to/lastmile_qr_scan"}, "fusion_lon": 0.0, "name": "8201998616fc7b23a00675d332ca7edc", "lon": -77.022045, "is_disabled": 0, "type": "electric_scooter"}, {"bike_id": "57f674dac426263de984b2ceb0274e66", "lat": 38.884927833333336, "is_reserved": 0, "fusion_lat": 0.0, "rental_uris": {"android": "https://dc.lft.to/lastmile_qr_scan", "ios": "https://dc.lft.to/lastmile_qr_scan"}, "fusion_lon": 0.0, "name": "57f674dac426263de984b2ceb0274e66", "lon": -77.00729033333333, "is_disabled": 0, "type": "electric_scooter"}, {"bike_id": "8efa2f9a3e7c0a61d4cd52306c51b435", "lat": 38.9876905, "is_reserved": 0, "fusion_lat": 0.0, "rental_uris": {"android": "https://dc.lft.to/lastmile_qr_scan", "ios": "https://dc.lft.to/lastmile_qr_scan"}, "fusion_lon": 0.0, "name": "8efa2f9a3e7c0a61d4cd52306c51b435", "lon": -77.14060533333334, "is_disabled": 0, "type": "electric_bike"}, {"bike_id": "32919a4947445db65a67f81b31a9353c", "lat": 38.9232975, "is_reserved": 0, "fusion_lat": 0.0, "rental_uris": {"android": "https://dc.lft.to/lastmile_qr_scan", "ios": "https://dc.lft.to/lastmile_qr_scan"}, "fusion_lon": 0.0, "name": "32919a4947445db65a67f81b31a9353c", "lon": -77.0089335, "is_disabled": 0, "type": "electric_scooter"}, {"bike_id": "5c1554c0e5e899aa0e4549c59f6498d3", "lat": 38.926101, "is_reserved": 0, "fusion_lat": 0.0, "rental_uris": {"android": "https://dc.lft.to/lastmile_qr_scan", "ios": "https://dc.lft.to/lastmile_qr_scan"}, "fusion_lon": 0.0, "name": "5c1554c0e5e899aa0e4549c59f6498d3", "lon": -77.0570765, "is_disabled": 0, "type": "electric_scooter"}, {"bike_id": "a183d67e7dac1d09b1da421e94511015", "lat": 38.91399533333333, "is_reserved": 0, "fusion_lat": 0.0, "rental_uris": {"android": "https://dc.lft.to/lastmile_qr_scan", "ios": "https://dc.lft.to/lastmile_qr_scan"}, "fusion_lon": 0.0, "name": "a183d67e7dac1d09b1da421e94511015", "lon": -77.02410066666667, "is_disabled": 0, "type": "electric_scooter"}, {"bike_id": "08f91e89d4ad860000ac6741c2a50ef3", "lat": 38.908554, "is_reserved": 0, "fusion_lat": 0.0, "rental_uris": {"android": "https://dc.lft.to/lastmile_qr_scan", "ios": "https://dc.lft.to/lastmile_qr_scan"}, "fusion_lon": 0.0, "name": "08f91e89d4ad860000ac6741c2a50ef3", "lon": -76.99799383333334, "is_disabled": 0, "type": "electric_scooter"}, {"bike_id": "02feaef3241e0e2995ee0961c2f10e3c", "lat": 38.918136833333335, "is_reserved": 0, "fusion_lat": 0.0, "rental_uris": {"android": "https://dc.lft.to/lastmile_qr_scan", "ios": "https://dc.lft.to/lastmile_qr_scan"}, "fusion_lon": 0.0, "name": "02feaef3241e0e2995ee0961c2f10e3c", "lon": -77.02480066666666, "is_disabled": 0, "type": "electric_scooter"}, {"bike_id": "d5c92a4c4bb65c3b8380198d273c4b17", "lat": 38.8922105, "is_reserved": 0, "fusion_lat": 0.0, "rental_uris": {"android": "https://dc.lft.to/lastmile_qr_scan", "ios": "https://dc.lft.to/lastmile_qr_scan"}, "fusion_lon": 0.0, "name": "d5c92a4c4bb65c3b8380198d273c4b17", "lon": -77.0487155, "is_disabled": 0, "type": "electric_scooter"}, {"bike_id": "93f8d907721e1c5590b0556ea0614c46", "lat": 38.836098, "is_reserved": 0, "fusion_lat": 0.0, "rental_uris": {"android": "https://dc.lft.to/lastmile_qr_scan", "ios": "https://dc.lft.to/lastmile_qr_scan"}, "fusion_lon": 0.0, "name": "93f8d907721e1c5590b0556ea0614c46", "lon": -77.00382783333333, "is_disabled": 0, "type": "electric_bike"}, {"bike_id": "9f0e0d2a14a52c17aec4441bfb2e7d79", "lat": 38.89729366666667, "is_reserved": 0, "fusion_lat": 0.0, "rental_uris": {"android": "https://dc.lft.to/lastmile_qr_scan", "ios": "https://dc.lft.to/lastmile_qr_scan"}, "fusion_lon": 0.0, "name": "9f0e0d2a14a52c17aec4441bfb2e7d79", "lon": -77.055523, "is_disabled": 0, "type": "electric_bike"}, {"bike_id": "e3d799706fc83b7ac713a5933b73cf62", "lat": 38.91422933333333, "is_reserved": 0, "fusion_lat": 0.0, "rental_uris": {"android": "https://dc.lft.to/lastmile_qr_scan", "ios": "https://dc.lft.to/lastmile_qr_scan"}, "fusion_lon": 0.0, "name": "e3d799706fc83b7ac713a5933b73cf62", "lon": -77.019847, "is_disabled": 0, "type": "electric_scooter"}, {"bike_id": "9877b051e50253d96161437dd6539e88", "lat": 38.907738, "is_reserved": 0, "fusion_lat": 0.0, "rental_uris": {"android": "https://dc.lft.to/lastmile_qr_scan", "ios": "https://dc.lft.to/lastmile_qr_scan"}, "fusion_lon": 0.0, "name": "9877b051e50253d96161437dd6539e88", "lon": -77.07165316666666, "is_disabled": 0, "type": "electric_scooter"}, {"bike_id": "f07dbee59e74a4df07bb4e77ec645185", "lat": 38.9353515, "is_reserved": 0, "fusion_lat": 0.0, "rental_uris": {"android": "https://dc.lft.to/lastmile_qr_scan", "ios": "https://dc.lft.to/lastmile_qr_scan"}, "fusion_lon": 0.0, "name": "f07dbee59e74a4df07bb4e77ec645185", "lon": -77.02345183333334, "is_disabled": 0, "type": "electric_scooter"}, {"bike_id": "a7d94466d1ea64cbc3b52e48e64a4f77", "lat": 38.893707, "is_reserved": 0, "fusion_lat": 0.0, "rental_uris": {"android": "https://dc.lft.to/lastmile_qr_scan", "ios": "https://dc.lft.to/lastmile_qr_scan"}, "fusion_lon": 0.0, "name": "a7d94466d1ea64cbc3b52e48e64a4f77", "lon": -77.02260966666667, "is_disabled": 0, "type": "electric_scooter"}, {"bike_id": "ecc6bcad868fa0fc532a390b532a3090", "lat": 38.90923083333333, "is_reserved": 0, "fusion_lat": 0.0, "rental_uris": {"android": "https://dc.lft.to/lastmile_qr_scan", "ios": "https://dc.lft.to/lastmile_qr_scan"}, "fusion_lon": 0.0, "name": "ecc6bcad868fa0fc532a390b532a3090", "lon": -77.01890933333334, "is_disabled": 0, "type": "electric_scooter"}, {"bike_id": "77bdbc30eb53401b2770c82ee738d236", "lat": 38.87061883333333, "is_reserved": 0, "fusion_lat": 0.0, "rental_uris": {"android": "https://dc.lft.to/lastmile_qr_scan", "ios": "https://dc.lft.to/lastmile_qr_scan"}, "fusion_lon": 0.0, "name": "77bdbc30eb53401b2770c82ee738d236", "lon": -76.97097083333334, "is_disabled": 0, "type": "electric_scooter"}, {"bike_id": "5db6c931a4b1e2156198d3a90e6c4c77", "lat": 38.90729433333333, "is_reserved": 0, "fusion_lat": 0.0, "rental_uris": {"android": "https://dc.lft.to/lastmile_qr_scan", "ios": "https://dc.lft.to/lastmile_qr_scan"}, "fusion_lon": 0.0, "name": "5db6c931a4b1e2156198d3a90e6c4c77", "lon": -77.0238075, "is_disabled": 0, "type": "electric_scooter"}, {"bike_id": "e27c4d5e2e45c0f7ac478dae6991796a", "lat": 38.92273333333333, "is_reserved": 0, "fusion_lat": 0.0, "rental_uris": {"android": "https://dc.lft.to/lastmile_qr_scan", "ios": "https://dc.lft.to/lastmile_qr_scan"}, "fusion_lon": 0.0, "name": "e27c4d5e2e45c0f7ac478dae6991796a", "lon": -77.0365415, "is_disabled": 0, "type": "electric_scooter"}, {"bike_id": "65f02d54340b573448a7676f5b83bf57", "lat": 38.902958, "is_reserved": 0, "fusion_lat": 0.0, "rental_uris": {"android": "https://dc.lft.to/lastmile_qr_scan", "ios": "https://dc.lft.to/lastmile_qr_scan"}, "fusion_lon": 0.0, "name": "65f02d54340b573448a7676f5b83bf57", "lon": -77.058045, "is_disabled": 0, "type": "electric_scooter"}, {"bike_id": "7013980e8a9cd6807346f0eb6623002c", "lat": 38.893303, "is_reserved": 0, "fusion_lat": 0.0, "rental_uris": {"android": "https://dc.lft.to/lastmile_qr_scan", "ios": "https://dc.lft.to/lastmile_qr_scan"}, "fusion_lon": 0.0, "name": "7013980e8a9cd6807346f0eb6623002c", "lon": -77.0467595, "is_disabled": 0, "type": "electric_scooter"}, {"bike_id": "74ce40ab37e630eba4ece45d31e7aae8", "lat": 38.9347665, "is_reserved": 0, "fusion_lat": 0.0, "rental_uris": {"android": "https://dc.lft.to/lastmile_qr_scan", "ios": "https://dc.lft.to/lastmile_qr_scan"}, "fusion_lon": 0.0, "name": "74ce40ab37e630eba4ece45d31e7aae8", "lon": -77.02224966666667, "is_disabled": 0, "type": "electric_scooter"}, {"bike_id": "8d63d4539083b86d185c6ca053e12b59", "lat": 38.932255833333336, "is_reserved": 0, "fusion_lat": 0.0, "rental_uris": {"android": "https://dc.lft.to/lastmile_qr_scan", "ios": "https://dc.lft.to/lastmile_qr_scan"}, "fusion_lon": 0.0, "name": "8d63d4539083b86d185c6ca053e12b59", "lon": -77.0386275, "is_disabled": 0, "type": "electric_scooter"}, {"bike_id": "15c76cec738db26a88943012eb534713", "lat": 38.90798433333333, "is_reserved": 0, "fusion_lat": 0.0, "rental_uris": {"android": "https://dc.lft.to/lastmile_qr_scan", "ios": "https://dc.lft.to/lastmile_qr_scan"}, "fusion_lon": 0.0, "name": "15c76cec738db26a88943012eb534713", "lon": -77.030549, "is_disabled": 0, "type": "electric_scooter"}, {"bike_id": "5862e83041f34b7ec29ac8f0eb8058e5", "lat": 38.92217183333333, "is_reserved": 0, "fusion_lat": 0.0, "rental_uris": {"android": "https://dc.lft.to/lastmile_qr_scan", "ios": "https://dc.lft.to/lastmile_qr_scan"}, "fusion_lon": 0.0, "name": "5862e83041f34b7ec29ac8f0eb8058e5", "lon": -77.20139266666666, "is_disabled": 0, "type": "electric_bike"}, {"bike_id": "0e1d2668a3e55f265082d18a2e9c7b5a", "lat": 38.89865833333333, "is_reserved": 0, "fusion_lat": 0.0, "rental_uris": {"android": "https://dc.lft.to/lastmile_qr_scan", "ios": "https://dc.lft.to/lastmile_qr_scan"}, "fusion_lon": 0.0, "name": "0e1d2668a3e55f265082d18a2e9c7b5a", "lon": -76.94640233333334, "is_disabled": 0, "type": "electric_scooter"}, {"bike_id": "b69c60c89eb918f383429beca5c853ad", "lat": 38.86148283333333, "is_reserved": 0, "fusion_lat": 0.0, "rental_uris": {"android": "https://dc.lft.to/lastmile_qr_scan", "ios": "https://dc.lft.to/lastmile_qr_scan"}, "fusion_lon": 0.0, "name": "b69c60c89eb918f383429beca5c853ad", "lon": -77.09146316666667, "is_disabled": 0, "type": "electric_bike"}, {"bike_id": "d19c0b5621bf27aefd2f4f3b93473f15", "lat": 38.8883855, "is_reserved": 0, "fusion_lat": 0.0, "rental_uris": {"android": "https://dc.lft.to/lastmile_qr_scan", "ios": "https://dc.lft.to/lastmile_qr_scan"}, "fusion_lon": 0.0, "name": "d19c0b5621bf27aefd2f4f3b93473f15", "lon": -77.049023, "is_disabled": 0, "type": "electric_scooter"}, {"bike_id": "54302d939db7d2faafde58c7505eadbe", "lat": 38.93388433333333, "is_reserved": 0, "fusion_lat": 0.0, "rental_uris": {"android": "https://dc.lft.to/lastmile_qr_scan", "ios": "https://dc.lft.to/lastmile_qr_scan"}, "fusion_lon": 0.0, "name": "54302d939db7d2faafde58c7505eadbe", "lon": -77.057427, "is_disabled": 0, "type": "electric_scooter"}, {"bike_id": "5569d24a9d2e92b27cf5010b45d9c972", "lat": 38.8670155, "is_reserved": 0, "fusion_lat": 0.0, "rental_uris": {"android": "https://dc.lft.to/lastmile_qr_scan", "ios": "https://dc.lft.to/lastmile_qr_scan"}, "fusion_lon": 0.0, "name": "5569d24a9d2e92b27cf5010b45d9c972", "lon": -76.98713416666666, "is_disabled": 0, "type": "electric_scooter"}, {"bike_id": "5ed3bd799b0a2554ddda2d2c26378555", "lat": 38.87883716666666, "is_reserved": 0, "fusion_lat": 0.0, "rental_uris": {"android": "https://dc.lft.to/lastmile_qr_scan", "ios": "https://dc.lft.to/lastmile_qr_scan"}, "fusion_lon": 0.0, "name": "5ed3bd799b0a2554ddda2d2c26378555", "lon": -77.019178, "is_disabled": 0, "type": "electric_scooter"}, {"bike_id": "b3e9eec5088dda211181c42659643eaa", "lat": 38.898692833333335, "is_reserved": 0, "fusion_lat": 0.0, "rental_uris": {"android": "https://dc.lft.to/lastmile_qr_scan", "ios": "https://dc.lft.to/lastmile_qr_scan"}, "fusion_lon": 0.0, "name": "b3e9eec5088dda211181c42659643eaa", "lon": -76.9463995, "is_disabled": 0, "type": "electric_scooter"}, {"bike_id": "78dc7186e6e9e8e17ee391ced7ae505b", "lat": 38.92825166666667, "is_reserved": 0, "fusion_lat": 0.0, "rental_uris": {"android": "https://dc.lft.to/lastmile_qr_scan", "ios": "https://dc.lft.to/lastmile_qr_scan"}, "fusion_lon": 0.0, "name": "78dc7186e6e9e8e17ee391ced7ae505b", "lon": -77.02258, "is_disabled": 0, "type": "electric_scooter"}, {"bike_id": "8b7d035d672d76cc12ba62bf21e6f31e", "lat": 38.887692, "is_reserved": 0, "fusion_lat": 0.0, "rental_uris": {"android": "https://dc.lft.to/lastmile_qr_scan", "ios": "https://dc.lft.to/lastmile_qr_scan"}, "fusion_lon": 0.0, "name": "8b7d035d672d76cc12ba62bf21e6f31e", "lon": -77.02618983333333, "is_disabled": 0, "type": "electric_scooter"}, {"bike_id": "4d7b4c4b451dd1fb127b702c12bbdefe", "lat": 38.930781, "is_reserved": 0, "fusion_lat": 0.0, "rental_uris": {"android": "https://dc.lft.to/lastmile_qr_scan", "ios": "https://dc.lft.to/lastmile_qr_scan"}, "fusion_lon": 0.0, "name": "4d7b4c4b451dd1fb127b702c12bbdefe", "lon": -77.02838516666667, "is_disabled": 0, "type": "electric_scooter"}, {"bike_id": "a71aaeba7ebd54d3f6f0f96ab6cc6f62", "lat": 38.9010435, "is_reserved": 0, "fusion_lat": 0.0, "rental_uris": {"android": "https://dc.lft.to/lastmile_qr_scan", "ios": "https://dc.lft.to/lastmile_qr_scan"}, "fusion_lon": 0.0, "name": "a71aaeba7ebd54d3f6f0f96ab6cc6f62", "lon": -77.03214683333333, "is_disabled": 0, "type": "electric_scooter"}, {"bike_id": "e55278c8522a465456aac9c72e6d03ac", "lat": 38.978595, "is_reserved": 0, "fusion_lat": 0.0, "rental_uris": {"android": "https://dc.lft.to/lastmile_qr_scan", "ios": "https://dc.lft.to/lastmile_qr_scan"}, "fusion_lon": 0.0, "name": "e55278c8522a465456aac9c72e6d03ac", "lon": -76.94051883333333, "is_disabled": 0, "type": "electric_bike"}, {"bike_id": "e0506f0548a21463fbecad7b240a99e1", "lat": 38.86698916666667, "is_reserved": 0, "fusion_lat": 0.0, "rental_uris": {"android": "https://dc.lft.to/lastmile_qr_scan", "ios": "https://dc.lft.to/lastmile_qr_scan"}, "fusion_lon": 0.0, "name": "e0506f0548a21463fbecad7b240a99e1", "lon": -76.987096, "is_disabled": 0, "type": "electric_scooter"}, {"bike_id": "34f16f33949743a544293cfd04a8df0f", "lat": 38.902773833333335, "is_reserved": 0, "fusion_lat": 0.0, "rental_uris": {"android": "https://dc.lft.to/lastmile_qr_scan", "ios": "https://dc.lft.to/lastmile_qr_scan"}, "fusion_lon": 0.0, "name": "34f16f33949743a544293cfd04a8df0f", "lon": -77.039335, "is_disabled": 0, "type": "electric_scooter"}, {"bike_id": "d7c85d9a7a21103b5a177e75478555dd", "lat": 39.0137095, "is_reserved": 0, "fusion_lat": 0.0, "rental_uris": {"android": "https://dc.lft.to/lastmile_qr_scan", "ios": "https://dc.lft.to/lastmile_qr_scan"}, "fusion_lon": 0.0, "name": "d7c85d9a7a21103b5a177e75478555dd", "lon": -76.92136333333333, "is_disabled": 0, "type": "electric_bike"}, {"bike_id": "b0a1e164eb3b135f5351469280e02ea3", "lat": 38.905879166666665, "is_reserved": 0, "fusion_lat": 0.0, "rental_uris": {"android": "https://dc.lft.to/lastmile_qr_scan", "ios": "https://dc.lft.to/lastmile_qr_scan"}, "fusion_lon": 0.0, "name": "b0a1e164eb3b135f5351469280e02ea3", "lon": -77.02188933333333, "is_disabled": 0, "type": "electric_scooter"}, {"bike_id": "608f13ea4225a650c7c0c4d990a750f7", "lat": 38.914221, "is_reserved": 0, "fusion_lat": 0.0, "rental_uris": {"android": "https://dc.lft.to/lastmile_qr_scan", "ios": "https://dc.lft.to/lastmile_qr_scan"}, "fusion_lon": 0.0, "name": "608f13ea4225a650c7c0c4d990a750f7", "lon": -77.01983233333333, "is_disabled": 0, "type": "electric_scooter"}, {"bike_id": "002902bf9ce5d6c421430fef7f8ad358", "lat": 38.94085, "is_reserved": 0, "fusion_lat": 0.0, "rental_uris": {"android": "https://dc.lft.to/lastmile_qr_scan", "ios": "https://dc.lft.to/lastmile_qr_scan"}, "fusion_lon": 0.0, "name": "002902bf9ce5d6c421430fef7f8ad358", "lon": -77.02721, "is_disabled": 0, "type": "electric_scooter"}, {"bike_id": "8821673f4699d9906d437db9596547e5", "lat": 38.9062915, "is_reserved": 0, "fusion_lat": 0.0, "rental_uris": {"android": "https://dc.lft.to/lastmile_qr_scan", "ios": "https://dc.lft.to/lastmile_qr_scan"}, "fusion_lon": 0.0, "name": "8821673f4699d9906d437db9596547e5", "lon": -77.00585133333334, "is_disabled": 0, "type": "electric_scooter"}, {"bike_id": "4a9542d905242b96ea56b51bccc00bf6", "lat": 38.905260166666665, "is_reserved": 0, "fusion_lat": 0.0, "rental_uris": {"android": "https://dc.lft.to/lastmile_qr_scan", "ios": "https://dc.lft.to/lastmile_qr_scan"}, "fusion_lon": 0.0, "name": "4a9542d905242b96ea56b51bccc00bf6", "lon": -77.04745433333333, "is_disabled": 0, "type": "electric_scooter"}, {"bike_id": "b15e1b80bcf284b975574543bacb2e33", "lat": 38.9239665, "is_reserved": 0, "fusion_lat": 0.0, "rental_uris": {"android": "https://dc.lft.to/lastmile_qr_scan", "ios": "https://dc.lft.to/lastmile_qr_scan"}, "fusion_lon": 0.0, "name": "b15e1b80bcf284b975574543bacb2e33", "lon": -77.01944333333333, "is_disabled": 0, "type": "electric_scooter"}, {"bike_id": "42895d3f8d452aa04fd44a445c230b58", "lat": 38.88542833333333, "is_reserved": 0, "fusion_lat": 0.0, "rental_uris": {"android": "https://dc.lft.to/lastmile_qr_scan", "ios": "https://dc.lft.to/lastmile_qr_scan"}, "fusion_lon": 0.0, "name": "42895d3f8d452aa04fd44a445c230b58", "lon": -77.0058145, "is_disabled": 0, "type": "electric_scooter"}, {"bike_id": "08d5864a90de9ecea621bb03923d4744", "lat": 38.90314566666667, "is_reserved": 0, "fusion_lat": 0.0, "rental_uris": {"android": "https://dc.lft.to/lastmile_qr_scan", "ios": "https://dc.lft.to/lastmile_qr_scan"}, "fusion_lon": 0.0, "name": "08d5864a90de9ecea621bb03923d4744", "lon": -77.04895366666666, "is_disabled": 0, "type": "electric_scooter"}, {"bike_id": "185afe27135b006aa6857d994fb65237", "lat": 38.918283833333334, "is_reserved": 0, "fusion_lat": 0.0, "rental_uris": {"android": "https://dc.lft.to/lastmile_qr_scan", "ios": "https://dc.lft.to/lastmile_qr_scan"}, "fusion_lon": 0.0, "name": "185afe27135b006aa6857d994fb65237", "lon": -77.0415735, "is_disabled": 0, "type": "electric_scooter"}, {"bike_id": "3986063feb98edb21fc30ed09c92b8c6", "lat": 38.9176925, "is_reserved": 0, "fusion_lat": 0.0, "rental_uris": {"android": "https://dc.lft.to/lastmile_qr_scan", "ios": "https://dc.lft.to/lastmile_qr_scan"}, "fusion_lon": 0.0, "name": "3986063feb98edb21fc30ed09c92b8c6", "lon": -77.02953933333333, "is_disabled": 0, "type": "electric_scooter"}, {"bike_id": "6d33de492956c93e0738338a3195d95b", "lat": 38.908185, "is_reserved": 0, "fusion_lat": 0.0, "rental_uris": {"android": "https://dc.lft.to/lastmile_qr_scan", "ios": "https://dc.lft.to/lastmile_qr_scan"}, "fusion_lon": 0.0, "name": "6d33de492956c93e0738338a3195d95b", "lon": -76.99713, "is_disabled": 0, "type": "electric_scooter"}, {"bike_id": "87212bd51c136d5a5bc9515b3aec321d", "lat": 38.916914166666665, "is_reserved": 0, "fusion_lat": 0.0, "rental_uris": {"android": "https://dc.lft.to/lastmile_qr_scan", "ios": "https://dc.lft.to/lastmile_qr_scan"}, "fusion_lon": 0.0, "name": "87212bd51c136d5a5bc9515b3aec321d", "lon": -77.03773216666667, "is_disabled": 0, "type": "electric_scooter"}, {"bike_id": "7b435e2d4230836c3e5418cde13b5204", "lat": 38.90468, "is_reserved": 0, "fusion_lat": 0.0, "rental_uris": {"android": "https://dc.lft.to/lastmile_qr_scan", "ios": "https://dc.lft.to/lastmile_qr_scan"}, "fusion_lon": 0.0, "name": "7b435e2d4230836c3e5418cde13b5204", "lon": -77.01938716666666, "is_disabled": 0, "type": "electric_scooter"}, {"bike_id": "fc2fb3d524e9f963c48cd49aa7a46f2d", "lat": 38.928694, "is_reserved": 0, "fusion_lat": 0.0, "rental_uris": {"android": "https://dc.lft.to/lastmile_qr_scan", "ios": "https://dc.lft.to/lastmile_qr_scan"}, "fusion_lon": 0.0, "name": "fc2fb3d524e9f963c48cd49aa7a46f2d", "lon": -76.99028516666667, "is_disabled": 0, "type": "electric_scooter"}, {"bike_id": "adf27b3d4c10a0966f61ec595d45d2ea", "lat": 38.88712616666667, "is_reserved": 0, "fusion_lat": 0.0, "rental_uris": {"android": "https://dc.lft.to/lastmile_qr_scan", "ios": "https://dc.lft.to/lastmile_qr_scan"}, "fusion_lon": 0.0, "name": "adf27b3d4c10a0966f61ec595d45d2ea", "lon": -77.01776466666666, "is_disabled": 0, "type": "electric_scooter"}, {"bike_id": "f3b1dfa4b9a845a1cf374d87cd82ca17", "lat": 38.8789645, "is_reserved": 0, "fusion_lat": 0.0, "rental_uris": {"android": "https://dc.lft.to/lastmile_qr_scan", "ios": "https://dc.lft.to/lastmile_qr_scan"}, "fusion_lon": 0.0, "name": "f3b1dfa4b9a845a1cf374d87cd82ca17", "lon": -77.01585866666667, "is_disabled": 0, "type": "electric_bike"}, {"bike_id": "8c75d9d5426c805233e9a209ebca0b9e", "lat": 38.885297666666666, "is_reserved": 0, "fusion_lat": 0.0, "rental_uris": {"android": "https://dc.lft.to/lastmile_qr_scan", "ios": "https://dc.lft.to/lastmile_qr_scan"}, "fusion_lon": 0.0, "name": "8c75d9d5426c805233e9a209ebca0b9e", "lon": -76.9982915, "is_disabled": 0, "type": "electric_scooter"}, {"bike_id": "94ae1ab5e588269ea399004e09ae16a4", "lat": 38.915522333333335, "is_reserved": 0, "fusion_lat": 0.0, "rental_uris": {"android": "https://dc.lft.to/lastmile_qr_scan", "ios": "https://dc.lft.to/lastmile_qr_scan"}, "fusion_lon": 0.0, "name": "94ae1ab5e588269ea399004e09ae16a4", "lon": -77.00647333333333, "is_disabled": 0, "type": "electric_scooter"}, {"bike_id": "af74617dec48b1b4a22e823cda849601", "lat": 38.90111383333333, "is_reserved": 0, "fusion_lat": 0.0, "rental_uris": {"android": "https://dc.lft.to/lastmile_qr_scan", "ios": "https://dc.lft.to/lastmile_qr_scan"}, "fusion_lon": 0.0, "name": "af74617dec48b1b4a22e823cda849601", "lon": -77.028064, "is_disabled": 0, "type": "electric_scooter"}, {"bike_id": "73ff1fb073ba367abebc02c0ab8d1c9c", "lat": 38.911807833333334, "is_reserved": 0, "fusion_lat": 0.0, "rental_uris": {"android": "https://dc.lft.to/lastmile_qr_scan", "ios": "https://dc.lft.to/lastmile_qr_scan"}, "fusion_lon": 0.0, "name": "73ff1fb073ba367abebc02c0ab8d1c9c", "lon": -77.012079, "is_disabled": 0, "type": "electric_scooter"}, {"bike_id": "5329f30e93f1a151977f2e1218b9919a", "lat": 38.897154666666665, "is_reserved": 0, "fusion_lat": 0.0, "rental_uris": {"android": "https://dc.lft.to/lastmile_qr_scan", "ios": "https://dc.lft.to/lastmile_qr_scan"}, "fusion_lon": 0.0, "name": "5329f30e93f1a151977f2e1218b9919a", "lon": -77.0288755, "is_disabled": 0, "type": "electric_scooter"}, {"bike_id": "eb6411bcfe311d0a21b79bb148082b74", "lat": 38.8733745, "is_reserved": 0, "fusion_lat": 0.0, "rental_uris": {"android": "https://dc.lft.to/lastmile_qr_scan", "ios": "https://dc.lft.to/lastmile_qr_scan"}, "fusion_lon": 0.0, "name": "eb6411bcfe311d0a21b79bb148082b74", "lon": -77.00075816666667, "is_disabled": 0, "type": "electric_scooter"}, {"bike_id": "225778598e6abb7fecd2e8906cb988ec", "lat": 38.9578775, "is_reserved": 0, "fusion_lat": 0.0, "rental_uris": {"android": "https://dc.lft.to/lastmile_qr_scan", "ios": "https://dc.lft.to/lastmile_qr_scan"}, "fusion_lon": 0.0, "name": "225778598e6abb7fecd2e8906cb988ec", "lon": -77.032242, "is_disabled": 0, "type": "electric_scooter"}, {"bike_id": "e4883a8a18cf543968a51038f8ffc54b", "lat": 38.917433, "is_reserved": 0, "fusion_lat": 0.0, "rental_uris": {"android": "https://dc.lft.to/lastmile_qr_scan", "ios": "https://dc.lft.to/lastmile_qr_scan"}, "fusion_lon": 0.0, "name": "e4883a8a18cf543968a51038f8ffc54b", "lon": -77.0318585, "is_disabled": 0, "type": "electric_scooter"}, {"bike_id": "0e0fcdc4f74bcab752e27d8809cd1061", "lat": 38.8843585, "is_reserved": 0, "fusion_lat": 0.0, "rental_uris": {"android": "https://dc.lft.to/lastmile_qr_scan", "ios": "https://dc.lft.to/lastmile_qr_scan"}, "fusion_lon": 0.0, "name": "0e0fcdc4f74bcab752e27d8809cd1061", "lon": -77.024599, "is_disabled": 0, "type": "electric_scooter"},