{"data": {"bikes": [{"bike_id": "28bb78d57efded89de5a83a08f089a1e", "fusion_lon": 0.0, "lon": -76.96868066666667, "name": "28bb78d57efded89de5a83a08f089a1e", "is_disabled": 0, "rental_uris": {"android": "https://dc.lft.to/lastmile_qr_scan", "ios": "https://dc.lft.to/lastmile_qr_scan"}, "type": "electric_scooter", "lat": 38.870920166666664, "is_reserved": 0, "fusion_lat": 0.0}, {"bike_id": "c3ae7171258f3dc61ffc8e9c43563da4", "fusion_lon": 0.0, "lon": -77.04661066666667, "name": "c3ae7171258f3dc61ffc8e9c43563da4", "is_disabled": 0, "rental_uris": {"android": "https://dc.lft.to/lastmile_qr_scan", "ios": "https://dc.lft.to/lastmile_qr_scan"}, "type": "electric_scooter", "lat": 38.892435166666665, "is_reserved": 0, "fusion_lat": 0.0}, {"bike_id": "8de7733608840cb75ae0911a4e19e83e", "fusion_lon": 0.0, "lon": -77.03847033333334, "name": "8de7733608840cb75ae0911a4e19e83e", "is_disabled": 0, "rental_uris": {"android": "https://dc.lft.to/lastmile_qr_scan", "ios": "https://dc.lft.to/lastmile_qr_scan"}, "type": "electric_scooter", "lat": 38.93250716666667, "is_reserved": 0, "fusion_lat": 0.0}, {"bike_id": "dd47e7719d079de90166dfd0c561e7fe", "fusion_lon": 0.0, "lon": -77.00639516666666, "name": "dd47e7719d079de90166dfd0c561e7fe", "is_disabled": 0, "rental_uris": {"android": "https://dc.lft.to/lastmile_qr_scan", "ios": "https://dc.lft.to/lastmile_qr_scan"}, "type": "electric_bike", "lat": 38.94837316666667, "is_reserved": 0, "fusion_lat": 0.0}, {"bike_id": "4ebf16d6fc63d4e15ab4d31efa2ea7d5", "fusion_lon": 0.0, "lon": -77.04362216666667, "name": "4ebf16d6fc63d4e15ab4d31efa2ea7d5", "is_disabled": 0, "rental_uris": {"android": "https://dc.lft.to/lastmile_qr_scan", "ios": "https://dc.lft.to/lastmile_qr_scan"}, "type": "electric_scooter", "lat": 38.92119366666667, "is_reserved": 0, "fusion_lat": 0.0}, {"bike_id": "6d8b4a3cf275e92ea42be0be0f28b6a7", "fusion_lon": 0.0, "lon": -77.02339483333333, "name": "6d8b4a3cf275e92ea42be0be0f28b6a7", "is_disabled": 0, "rental_uris": {"android": "https://dc.lft.to/lastmile_qr_scan", "ios": "https://dc.lft.to/lastmile_qr_scan"}, "type": "electric_scooter", "lat": 38.9166405, "is_reserved": 0, "fusion_lat": 0.0}, {"bike_id": "065b0c606725f15d1ceb8189056d749c", "fusion_lon": 0.0, "lon": -77.02784133333333, "name": "065b0c606725f15d1ceb8189056d749c", "is_disabled": 0, "rental_uris": {"android": "https://dc.lft.to/lastmile_qr_scan", "ios": "https://dc.lft.to/lastmile_qr_scan"}, "type": "electric_scooter", "lat": 38.89215133333333, "is_reserved": 0, "fusion_lat": 0.0}, {"bike_id": "c64aa2f74411253141fab8b68d342324", "fusion_lon": 0.0, "lon": -77.00098933333334, "name": "c64aa2f74411253141fab8b68d342324", "is_disabled": 0, "rental_uris": {"android": "https://dc.lft.to/lastmile_qr_scan", "ios": "https://dc.lft.to/lastmile_qr_scan"}, "type": "electric_scooter", "lat": 38.88640816666667, "is_reserved": 0, "fusion_lat": 0.0}, {"bike_id": "cdcb762c7d931a675a67c1b93f6e226d", "fusion_lon": 0.0, "lon": -77.04211716666667, "name": "cdcb762c7d931a675a67c1b93f6e226d", "is_disabled": 0, "rental_uris": {"android": "https://dc.lft.to/lastmile_qr_scan", "ios": "https://dc.lft.to/lastmile_qr_scan"}, "type": "electric_scooter", "lat": 38.920808, "is_reserved": 0, "fusion_lat": 0.0}, {"bike_id": "63a721cd678b0424081cdff4e8415000", "fusion_lon": 0.0, "lon": -77.02653583333333, "name": "63a721cd678b0424081cdff4e8415000", "is_disabled": 0, "rental_uris": {"android": "https://dc.lft.to/lastmile_qr_scan", "ios": "https://dc.lft.to/lastmile_qr_scan"}, "type": "electric_scooter", "lat": 38.892249, "is_reserved": 0, "fusion_lat": 0.0}, {"bike_id": "58a1de96c805b414141a028d4ba2130e", "fusion_lon": 0.0, "lon": -76.93646733333334, "name": "58a1de96c805b414141a028d4ba2130e", "is_disabled": 0, "rental_uris": {"android": "https://dc.lft.to/lastmile_qr_scan", "ios": "https://dc.lft.to/lastmile_qr_scan"}, "type": "electric_bike", "lat": 38.871509333333336, "is_reserved": 0, "fusion_lat": 0.0}, {"bike_id": "78f498aa77b8295beabfe49667385c10", "fusion_lon": 0.0, "lon": -77.04521816666667, "name": "78f498aa77b8295beabfe49667385c10", "is_disabled": 0, "rental_uris": {"android": "https://dc.lft.to/lastmile_qr_scan", "ios": "https://dc.lft.to/lastmile_qr_scan"}, "type": "electric_scooter", "lat": 38.91813966666667, "is_reserved": 0, "fusion_lat": 0.0}, {"bike_id": "649b7c6165096095fec6abc0c19ca4fd", "fusion_lon": 0.0, "lon": -77.02198533333333, "name": "649b7c6165096095fec6abc0c19ca4fd", "is_disabled": 0, "rental_uris": {"android": "https://dc.lft.to/lastmile_qr_scan", "ios": "https://dc.lft.to/lastmile_qr_scan"}, "type": "electric_scooter", "lat": 38.90553166666667, "is_reserved": 0, "fusion_lat": 0.0}, {"bike_id": "c5ca19042786ab297d3d660962d66118", "fusion_lon": 0.0, "lon": -77.026683, "name": "c5ca19042786ab297d3d660962d66118", "is_disabled": 0, "rental_uris": {"android": "https://dc.lft.to/lastmile_qr_scan", "ios": "https://dc.lft.to/lastmile_qr_scan"}, "type": "electric_scooter", "lat": 38.8963025, "is_reserved": 0, "fusion_lat": 0.0}, {"bike_id": "c1a95c720ecdaae241da8d7cfe0e74a6", "fusion_lon": 0.0, "lon": -76.966043, "name": "c1a95c720ecdaae241da8d7cfe0e74a6", "is_disabled": 0, "rental_uris": {"android": "https://dc.lft.to/lastmile_qr_scan", "ios": "https://dc.lft.to/lastmile_qr_scan"}, "type": "electric_scooter", "lat": 38.873884333333336, "is_reserved": 0, "fusion_lat": 0.0}, {"bike_id": "8169b008bb31e6cf420c9bbcb3573ae5", "fusion_lon": 0.0, "lon": -77.0022105, "name": "8169b008bb31e6cf420c9bbcb3573ae5", "is_disabled": 0, "rental_uris": {"android": "https://dc.lft.to/lastmile_qr_scan", "ios": "https://dc.lft.to/lastmile_qr_scan"}, "type": "electric_scooter", "lat": 38.92511, "is_reserved": 0, "fusion_lat": 0.0}, {"bike_id": "59403dc7afcc12b89dfd9b7dccd0ec1a", "fusion_lon": 0.0, "lon": -77.02682116666666, "name": "59403dc7afcc12b89dfd9b7dccd0ec1a", "is_disabled": 0, "rental_uris": {"android": "https://dc.lft.to/lastmile_qr_scan", "ios": "https://dc.lft.to/lastmile_qr_scan"}, "type": "electric_scooter", "lat": 38.90679016666667, "is_reserved": 0, "fusion_lat": 0.0}, {"bike_id": "f1a09f17f81f38c11f0fc97df6e12725", "fusion_lon": 0.0, "lon": -77.03463366666666, "name": "f1a09f17f81f38c11f0fc97df6e12725", "is_disabled": 0, "rental_uris": {"android": "https://dc.lft.to/lastmile_qr_scan", "ios": "https://dc.lft.to/lastmile_qr_scan"}, "type": "electric_scooter", "lat": 38.90431816666667, "is_reserved": 0, "fusion_lat": 0.0}, {"bike_id": "a2194c27575b7c548fd9b14b731b3bfc", "fusion_lon": 0.0, "lon": -77.03255933333334, "name": "a2194c27575b7c548fd9b14b731b3bfc", "is_disabled": 0, "rental_uris": {"android": "https://dc.lft.to/lastmile_qr_scan", "ios": "https://dc.lft.to/lastmile_qr_scan"}, "type": "electric_scooter", "lat": 38.931344833333334, "is_reserved": 0, "fusion_lat": 0.0}, {"bike_id": "7c2fd94e049b1eda0094a8c0299bd4e3", "fusion_lon": 0.0, "lon": -77.037576, "name": "7c2fd94e049b1eda0094a8c0299bd4e3", "is_disabled": 0, "rental_uris": {"android": "https://dc.lft.to/lastmile_qr_scan", "ios": "https://dc.lft.to/lastmile_qr_scan"}, "type": "electric_scooter", "lat": 38.92566683333333, "is_reserved": 0, "fusion_lat": 0.0}, {"bike_id": "15e231842fb4d4da54b67c03cd08394f", "fusion_lon": 0.0, "lon": -77.03209166666667, "name": "15e231842fb4d4da54b67c03cd08394f", "is_disabled": 0, "rental_uris": {"android": "https://dc.lft.to/lastmile_qr_scan", "ios": "https://dc.lft.to/lastmile_qr_scan"}, "type": "electric_scooter", "lat": 38.899704666666665, "is_reserved": 0, "fusion_lat": 0.0}, {"bike_id": "6b89c28a003f68e702fbdb9b88c0b8a5", "fusion_lon": 0.0, "lon": -77.04332833333333, "name": "6b89c28a003f68e702fbdb9b88c0b8a5", "is_disabled": 0, "rental_uris": {"android": "https://dc.lft.to/lastmile_qr_scan", "ios": "https://dc.lft.to/lastmile_qr_scan"}, "type": "electric_scooter", "lat": 38.892234333333334, "is_reserved": 0, "fusion_lat": 0.0}, {"bike_id": "9a05ef426ca151c07fbccb7c418e6c9c", "fusion_lon": 0.0, "lon": -77.04832783333333, "name": "9a05ef426ca151c07fbccb7c418e6c9c", "is_disabled": 0, "rental_uris": {"android": "https://dc.lft.to/lastmile_qr_scan", "ios": "https://dc.lft.to/lastmile_qr_scan"}, "type": "electric_scooter", "lat": 38.910426666666666, "is_reserved": 0, "fusion_lat": 0.0}, {"bike_id": "8c9a0dae29149be409c694f48f4658e4", "fusion_lon": 0.0, "lon": -77.04141916666667, "name": "8c9a0dae29149be409c694f48f4658e4", "is_disabled": 0, "rental_uris": {"android": "https://dc.lft.to/lastmile_qr_scan", "ios": "https://dc.lft.to/lastmile_qr_scan"}, "type": "electric_scooter", "lat": 38.89355183333333, "is_reserved": 0, "fusion_lat": 0.0}, {"bike_id": "17cbdc0332cd9229680410e984b16be1", "fusion_lon": 0.0, "lon": -77.03265633333334, "name": "17cbdc0332cd9229680410e984b16be1", "is_disabled": 0, "rental_uris": {"android": "https://dc.lft.to/lastmile_qr_scan", "ios": "https://dc.lft.to/lastmile_qr_scan"}, "type": "electric_scooter", "lat": 38.93776, "is_reserved": 0, "fusion_lat": 0.0}, {"bike_id": "8e41db3853d9eb8074e8543057ca9c34", "fusion_lon": 0.0, "lon": -77.08568983333333, "name": "8e41db3853d9eb8074e8543057ca9c34", "is_disabled": 0, "rental_uris": {"android": "https://dc.lft.to/lastmile_qr_scan", "ios": "https://dc.lft.to/lastmile_qr_scan"}, "type": "electric_scooter", "lat": 38.93362966666667, "is_reserved": 0, "fusion_lat": 0.0}, {"bike_id": "cd40dbb009801404800bca2538871efb", "fusion_lon": 0.0, "lon": -77.04705566666667, "name": "cd40dbb009801404800bca2538871efb", "is_disabled": 0, "rental_uris": {"android": "https://dc.lft.to/lastmile_qr_scan", "ios": "https://dc.lft.to/lastmile_qr_scan"}, "type": "electric_scooter", "lat": 38.92229016666667, "is_reserved": 0, "fusion_lat": 0.0}, {"bike_id": "741941baa827f76e8127baf214093fee", "fusion_lon": 0.0, "lon": -76.99370016666667, "name": "741941baa827f76e8127baf214093fee", "is_disabled": 0, "rental_uris": {"android": "https://dc.lft.to/lastmile_qr_scan", "ios": "https://dc.lft.to/lastmile_qr_scan"}, "type": "electric_scooter", "lat": 38.9004375, "is_reserved": 0, "fusion_lat": 0.0}, {"bike_id": "9e05fa13837479f84da82b36791fd733", "fusion_lon": 0.0, "lon": -77.03178233333334, "name": "9e05fa13837479f84da82b36791fd733", "is_disabled": 0, "rental_uris": {"android": "https://dc.lft.to/lastmile_qr_scan", "ios": "https://dc.lft.to/lastmile_qr_scan"}, "type": "electric_scooter", "lat": 38.9180485, "is_reserved": 0, "fusion_lat": 0.0}, {"bike_id": "9118acaa6534da2256e67535c951e4f3", "fusion_lon": 0.0, "lon": -76.99709183333333, "name": "9118acaa6534da2256e67535c951e4f3", "is_disabled": 0, "rental_uris": {"android": "https://dc.lft.to/lastmile_qr_scan", "ios": "https://dc.lft.to/lastmile_qr_scan"}, "type": "electric_scooter", "lat": 38.84427483333333, "is_reserved": 0, "fusion_lat": 0.0}, {"bike_id": "50df431fbd896ddd479174b63a323917", "fusion_lon": 0.0, "lon": -77.01692266666667, "name": "50df431fbd896ddd479174b63a323917", "is_disabled": 0, "rental_uris": {"android": "https://dc.lft.to/lastmile_qr_scan", "ios": "https://dc.lft.to/lastmile_qr_scan"}, "type": "electric_scooter", "lat": 38.974917833333336, "is_reserved": 0, "fusion_lat": 0.0}, {"bike_id": "2d032d9dc48e8f9bc94bba529f085994", "fusion_lon": 0.0, "lon": -77.0417765, "name": "2d032d9dc48e8f9bc94bba529f085994", "is_disabled": 0, "rental_uris": {"android": "https://dc.lft.to/lastmile_qr_scan", "ios": "https://dc.lft.to/lastmile_qr_scan"}, "type": "electric_scooter", "lat": 38.918617166666664, "is_reserved": 0, "fusion_lat": 0.0}, {"bike_id": "c9b712c606563b667be6040511bc88d5", "fusion_lon": 0.0, "lon": -77.00739333333334, "name": "c9b712c606563b667be6040511bc88d5", "is_disabled": 0, "rental_uris": {"android": "https://dc.lft.to/lastmile_qr_scan", "ios": "https://dc.lft.to/lastmile_qr_scan"}, "type": "electric_scooter", "lat": 38.90065933333333, "is_reserved": 0, "fusion_lat": 0.0}, {"bike_id": "9d632d4f1399dddcf21420316b185def", "fusion_lon": 0.0, "lon": -77.04620233333333, "name": "9d632d4f1399dddcf21420316b185def", "is_disabled": 0, "rental_uris": {"android": "https://dc.lft.to/lastmile_qr_scan", "ios": "https://dc.lft.to/lastmile_qr_scan"}, "type": "electric_scooter", "lat": 38.90858383333333, "is_reserved": 0, "fusion_lat": 0.0}, {"bike_id": "c12a07de776b2d2f29edebf8fcf5430e", "fusion_lon": 0.0, "lon": -77.02972666666666, "name": "c12a07de776b2d2f29edebf8fcf5430e", "is_disabled": 0, "rental_uris": {"android": "https://dc.lft.to/lastmile_qr_scan", "ios": "https://dc.lft.to/lastmile_qr_scan"}, "type": "electric_scooter", "lat": 38.916821, "is_reserved": 0, "fusion_lat": 0.0}, {"bike_id": "49554da55960572129ecb5316508fd9f", "fusion_lon": 0.0, "lon": -77.02814566666666, "name": "49554da55960572129ecb5316508fd9f", "is_disabled": 0, "rental_uris": {"android": "https://dc.lft.to/lastmile_qr_scan", "ios": "https://dc.lft.to/lastmile_qr_scan"}, "type": "electric_scooter", "lat": 38.914295, "is_reserved": 0, "fusion_lat": 0.0}, {"bike_id": "8902289d53b0f95f3bf2345cb1440a9c", "fusion_lon": 0.0, "lon": -77.0259845, "name": "8902289d53b0f95f3bf2345cb1440a9c", "is_disabled": 0, "rental_uris": {"android": "https://dc.lft.to/lastmile_qr_scan", "ios": "https://dc.lft.to/lastmile_qr_scan"}, "type": "electric_scooter", "lat": 38.916957333333336, "is_reserved": 0, "fusion_lat": 0.0}, {"bike_id": "4a36f6e0388de176a9b00be7a9a55693", "fusion_lon": 0.0, "lon": -76.9949445, "name": "4a36f6e0388de176a9b00be7a9a55693", "is_disabled": 0, "rental_uris": {"android": "https://dc.lft.to/lastmile_qr_scan", "ios": "https://dc.lft.to/lastmile_qr_scan"}, "type": "electric_scooter", "lat": 38.862425333333334, "is_reserved": 0, "fusion_lat": 0.0}, {"bike_id": "a5458d7809aa2bdeaf6b86ab9fa7f805", "fusion_lon": 0.0, "lon": -77.01647166666666, "name": "a5458d7809aa2bdeaf6b86ab9fa7f805", "is_disabled": 0, "rental_uris": {"android": "https://dc.lft.to/lastmile_qr_scan", "ios": "https://dc.lft.to/lastmile_qr_scan"}, "type": "electric_scooter", "lat": 38.88125183333333, "is_reserved": 0, "fusion_lat": 0.0}, {"bike_id": "a17ac18ab2a60b28aed098bea1d43270", "fusion_lon": 0.0, "lon": -77.05233033333333, "name": "a17ac18ab2a60b28aed098bea1d43270", "is_disabled": 0, "rental_uris": {"android": "https://dc.lft.to/lastmile_qr_scan", "ios": "https://dc.lft.to/lastmile_qr_scan"}, "type": "electric_scooter", "lat": 38.927001, "is_reserved": 0, "fusion_lat": 0.0}, {"bike_id": "2a154443efdc81504f6d6a3d2779341d", "fusion_lon": 0.0, "lon": -77.02566816666666, "name": "2a154443efdc81504f6d6a3d2779341d", "is_disabled": 0, "rental_uris": {"android": "https://dc.lft.to/lastmile_qr_scan", "ios": "https://dc.lft.to/lastmile_qr_scan"}, "type": "electric_scooter", "lat": 38.92574916666667, "is_reserved": 0, "fusion_lat": 0.0}, {"bike_id": "7543fdd8cf68d4ec56966054317ef504", "fusion_lon": 0.0, "lon": -76.99814733333334, "name": "7543fdd8cf68d4ec56966054317ef504", "is_disabled": 0, "rental_uris": {"android": "https://dc.lft.to/lastmile_qr_scan", "ios": "https://dc.lft.to/lastmile_qr_scan"}, "type": "electric_scooter", "lat": 38.8443075, "is_reserved": 0, "fusion_lat": 0.0}, {"bike_id": "aca66dbc51bf6e280629dc8795325fd5", "fusion_lon": 0.0, "lon": -76.99053816666667, "name": "aca66dbc51bf6e280629dc8795325fd5", "is_disabled": 0, "rental_uris": {"android": "https://dc.lft.to/lastmile_qr_scan", "ios": "https://dc.lft.to/lastmile_qr_scan"}, "type": "electric_scooter", "lat": 38.863617833333336, "is_reserved": 0, "fusion_lat": 0.0}, {"bike_id": "8049e19a8e756f924901ccd05be41d4d", "fusion_lon": 0.0, "lon": -77.0368725, "name": "8049e19a8e756f924901ccd05be41d4d", "is_disabled": 0, "rental_uris": {"android": "https://dc.lft.to/lastmile_qr_scan", "ios": "https://dc.lft.to/lastmile_qr_scan"}, "type": "electric_scooter", "lat": 38.91683, "is_reserved": 0, "fusion_lat": 0.0}, {"bike_id": "b1379b4de9ab3cc6135053a970e2b407", "fusion_lon": 0.0, "lon": -77.02427983333334, "name": "b1379b4de9ab3cc6135053a970e2b407", "is_disabled": 0, "rental_uris": {"android": "https://dc.lft.to/lastmile_qr_scan", "ios": "https://dc.lft.to/lastmile_qr_scan"}, "type": "electric_scooter", "lat": 38.89824983333333, "is_reserved": 0, "fusion_lat": 0.0}, {"bike_id": "a811e6974c169380179db0f641857c14", "fusion_lon": 0.0, "lon": -77.02684583333334, "name": "a811e6974c169380179db0f641857c14", "is_disabled": 0, "rental_uris": {"android": "https://dc.lft.to/lastmile_qr_scan", "ios": "https://dc.lft.to/lastmile_qr_scan"}, "type": "electric_scooter", "lat": 38.9238355, "is_reserved": 0, "fusion_lat": 0.0}, {"bike_id": "ced12afbefc3c8be011a83fbbae0a577", "fusion_lon": 0.0, "lon": -77.05500083333334, "name": "ced12afbefc3c8be011a83fbbae0a577", "is_disabled": 0, "rental_uris": {"android": "https://dc.lft.to/lastmile_qr_scan", "ios": "https://dc.lft.to/lastmile_qr_scan"}, "type": "electric_scooter", "lat": 38.93664233333333, "is_reserved": 0, "fusion_lat": 0.0}, {"bike_id": "1e4ab9db5d359fae6af58c29019ad544", "fusion_lon": 0.0, "lon": -77.066185, "name": "1e4ab9db5d359fae6af58c29019ad544", "is_disabled": 0, "rental_uris": {"android": "https://dc.lft.to/lastmile_qr_scan", "ios": "https://dc.lft.to/lastmile_qr_scan"}, "type": "electric_scooter", "lat": 38.90354966666666, "is_reserved": 0, "fusion_lat": 0.0}, {"bike_id": "f6e1d2bfaf2a6b01e6a1180997d5e362", "fusion_lon": 0.0, "lon": -77.022112, "name": "f6e1d2bfaf2a6b01e6a1180997d5e362", "is_disabled": 0, "rental_uris": {"android": "https://dc.lft.to/lastmile_qr_scan", "ios": "https://dc.lft.to/lastmile_qr_scan"}, "type": "electric_scooter", "lat": 38.9127, "is_reserved": 0, "fusion_lat": 0.0}, {"bike_id": "8b98dc397a6e51c0099ddf417cadf5e4", "fusion_lon": 0.0, "lon": -76.98707316666666, "name": "8b98dc397a6e51c0099ddf417cadf5e4", "is_disabled": 0, "rental_uris": {"android": "https://dc.lft.to/lastmile_qr_scan", "ios": "https://dc.lft.to/lastmile_qr_scan"}, "type": "electric_scooter", "lat": 38.86541066666667, "is_reserved": 0, "fusion_lat": 0.0}, {"bike_id": "751bff3eafaaca4cfd6faa902fae0b1f", "fusion_lon": 0.0, "lon": -77.02170483333333, "name": "751bff3eafaaca4cfd6faa902fae0b1f", "is_disabled": 0, "rental_uris": {"android": "https://dc.lft.to/lastmile_qr_scan", "ios": "https://dc.lft.to/lastmile_qr_scan"}, "type": "electric_scooter", "lat": 38.94295283333334, "is_reserved": 0, "fusion_lat": 0.0}, {"bike_id": "2ce42997c01f9bfa75fcf545ca714902", "fusion_lon": 0.0, "lon": -77.0113495, "name": "2ce42997c01f9bfa75fcf545ca714902", "is_disabled": 0, "rental_uris": {"android": "https://dc.lft.to/lastmile_qr_scan", "ios": "https://dc.lft.to/lastmile_qr_scan"}, "type": "electric_scooter", "lat": 38.88527466666667, "is_reserved": 0, "fusion_lat": 0.0}, {"bike_id": "85350a036eb933a9784f26b6c6606f2d", "fusion_lon": 0.0, "lon": -77.0431315, "name": "85350a036eb933a9784f26b6c6606f2d", "is_disabled": 0, "rental_uris": {"android": "https://dc.lft.to/lastmile_qr_scan", "ios": "https://dc.lft.to/lastmile_qr_scan"}, "type": "electric_scooter", "lat": 38.881071, "is_reserved": 0, "fusion_lat": 0.0}, {"bike_id": "894665e10c5863bbd35567b168910baa", "fusion_lon": 0.0, "lon": -77.0241405, "name": "894665e10c5863bbd35567b168910baa", "is_disabled": 0, "rental_uris": {"android": "https://dc.lft.to/lastmile_qr_scan", "ios": "https://dc.lft.to/lastmile_qr_scan"}, "type": "electric_scooter", "lat": 38.92092666666667, "is_reserved": 0, "fusion_lat": 0.0}, {"bike_id": "2d3d439833f6a740c70e87cbe5c23a61", "fusion_lon": 0.0, "lon": -77.13147183333334, "name": "2d3d439833f6a740c70e87cbe5c23a61", "is_disabled": 0, "rental_uris": {"android": "https://dc.lft.to/lastmile_qr_scan", "ios": "https://dc.lft.to/lastmile_qr_scan"}, "type": "electric_bike", "lat": 38.861683666666664, "is_reserved": 0, "fusion_lat": 0.0}, {"bike_id": "93c98f592e633606e1d9f50fe94dc882", "fusion_lon": 0.0, "lon": -77.0347585, "name": "93c98f592e633606e1d9f50fe94dc882", "is_disabled": 0, "rental_uris": {"android": "https://dc.lft.to/lastmile_qr_scan", "ios": "https://dc.lft.to/lastmile_qr_scan"}, "type": "electric_scooter", "lat": 38.917090333333334, "is_reserved": 0, "fusion_lat": 0.0}, {"bike_id": "dc4dd5662465510a3e80193bb7597724", "fusion_lon": 0.0, "lon": -76.9718285, "name": "dc4dd5662465510a3e80193bb7597724", "is_disabled": 0, "rental_uris": {"android": "https://dc.lft.to/lastmile_qr_scan", "ios": "https://dc.lft.to/lastmile_qr_scan"}, "type": "electric_bike", "lat": 38.91787333333333, "is_reserved": 0, "fusion_lat": 0.0}, {"bike_id": "ce5c38e0ad9b0d1c7ea38d2b2955eafc", "fusion_lon": 0.0, "lon": -77.02492533333333, "name": "ce5c38e0ad9b0d1c7ea38d2b2955eafc", "is_disabled": 0, "rental_uris": {"android": "https://dc.lft.to/lastmile_qr_scan", "ios": "https://dc.lft.to/lastmile_qr_scan"}, "type": "electric_scooter", "lat": 38.941852833333336, "is_reserved": 0, "fusion_lat": 0.0}, {"bike_id": "d376f26209b7262c54b9bf67ff6f0cb9", "fusion_lon": 0.0, "lon": -77.02110866666666, "name": "d376f26209b7262c54b9bf67ff6f0cb9", "is_disabled": 0, "rental_uris": {"android": "https://dc.lft.to/lastmile_qr_scan", "ios": "https://dc.lft.to/lastmile_qr_scan"}, "type": "electric_scooter", "lat": 38.917390833333336, "is_reserved": 0, "fusion_lat": 0.0}, {"bike_id": "cea95e1782a7d7d1ea5c192fe196a576", "fusion_lon": 0.0, "lon": -77.1175355, "name": "cea95e1782a7d7d1ea5c192fe196a576", "is_disabled": 0, "rental_uris": {"android": "https://dc.lft.to/lastmile_qr_scan", "ios": "https://dc.lft.to/lastmile_qr_scan"}, "type": "electric_bike", "lat": 39.048996833333334, "is_reserved": 0, "fusion_lat": 0.0}, {"bike_id": "02d28d8939f0211f91db0028b73a5d9d", "fusion_lon": 0.0, "lon": -77.020844, "name": "02d28d8939f0211f91db0028b73a5d9d", "is_disabled": 0, "rental_uris": {"android": "https://dc.lft.to/lastmile_qr_scan", "ios": "https://dc.lft.to/lastmile_qr_scan"}, "type": "electric_scooter", "lat": 38.901205, "is_reserved": 0, "fusion_lat": 0.0}, {"bike_id": "38f5e93f76d8064f67f2752b2a4f92ec", "fusion_lon": 0.0, "lon": -77.03114883333333, "name": "38f5e93f76d8064f67f2752b2a4f92ec", "is_disabled": 0, "rental_uris": {"android": "https://dc.lft.to/lastmile_qr_scan", "ios": "https://dc.lft.to/lastmile_qr_scan"}, "type": "electric_scooter", "lat": 38.8947705, "is_reserved": 0, "fusion_lat": 0.0}, {"bike_id": "7f1e19f292facc2c1794fd40c97bc889", "fusion_lon": 0.0, "lon": -77.06635183333333, "name": "7f1e19f292facc2c1794fd40c97bc889", "is_disabled": 0, "rental_uris": {"android": "https://dc.lft.to/lastmile_qr_scan", "ios": "https://dc.lft.to/lastmile_qr_scan"}, "type": "electric_bike", "lat": 38.94953816666667, "is_reserved": 0, "fusion_lat": 0.0}, {"bike_id": "9775093a9fed84770a1393ef052afbb2", "fusion_lon": 0.0, "lon": -77.03463683333334, "name": "9775093a9fed84770a1393ef052afbb2", "is_disabled": 0, "rental_uris": {"android": "https://dc.lft.to/lastmile_qr_scan", "ios": "https://dc.lft.to/lastmile_qr_scan"}, "type": "electric_scooter", "lat": 38.91692966666667, "is_reserved": 0, "fusion_lat": 0.0}, {"bike_id": "c325b32c6e931d07e48c5c9e7827843e", "fusion_lon": 0.0, "lon": -76.99950933333334, "name": "c325b32c6e931d07e48c5c9e7827843e", "is_disabled": 0, "rental_uris": {"android": "https://dc.lft.to/lastmile_qr_scan", "ios": "https://dc.lft.to/lastmile_qr_scan"}, "type": "electric_scooter", "lat": 38.842958, "is_reserved": 0, "fusion_lat": 0.0}, {"bike_id": "bed9892cee7bd3306f81ee1380140095", "fusion_lon": 0.0, "lon": -77.03184233333333, "name": "bed9892cee7bd3306f81ee1380140095", "is_disabled": 0, "rental_uris": {"android": "https://dc.lft.to/lastmile_qr_scan", "ios": "https://dc.lft.to/lastmile_qr_scan"}, "type": "electric_scooter", "lat": 38.91547283333333, "is_reserved": 0, "fusion_lat": 0.0}, {"bike_id": "79a785bd919d0cb7daafdf6d1ec14f19", "fusion_lon": 0.0, "lon": -76.9734365, "name": "79a785bd919d0cb7daafdf6d1ec14f19", "is_disabled": 0, "rental_uris": {"android": "https://dc.lft.to/lastmile_qr_scan", "ios": "https://dc.lft.to/lastmile_qr_scan"}, "type": "electric_scooter", "lat": 38.91971183333333, "is_reserved": 0, "fusion_lat": 0.0}, {"bike_id": "950598504b57c7c0846023ff114fb99c", "fusion_lon": 0.0, "lon": -77.0086115, "name": "950598504b57c7c0846023ff114fb99c", "is_disabled": 0, "rental_uris": {"android": "https://dc.lft.to/lastmile_qr_scan", "ios": "https://dc.lft.to/lastmile_qr_scan"}, "type": "electric_scooter", "lat": 38.87937433333333, "is_reserved": 0, "fusion_lat": 0.0}, {"bike_id": "3cbc6b420b606766ea5d7d3e779a6f4b", "fusion_lon": 0.0, "lon": -77.041679, "name": "3cbc6b420b606766ea5d7d3e779a6f4b", "is_disabled": 0, "rental_uris": {"android": "https://dc.lft.to/lastmile_qr_scan", "ios": "https://dc.lft.to/lastmile_qr_scan"}, "type": "electric_scooter", "lat": 38.91652333333333, "is_reserved": 0, "fusion_lat": 0.0}, {"bike_id": "cc0538a9d0ee238f4fae5331b595705b", "fusion_lon": 0.0, "lon": -77.02721066666666, "name": "cc0538a9d0ee238f4fae5331b595705b", "is_disabled": 0, "rental_uris": {"android": "https://dc.lft.to/lastmile_qr_scan", "ios": "https://dc.lft.to/lastmile_qr_scan"}, "type": "electric_scooter", "lat": 38.949603833333335, "is_reserved": 0, "fusion_lat": 0.0}, {"bike_id": "def56ded317a87322b96ec82ef65780f", "fusion_lon": 0.0, "lon": -77.037972, "name": "def56ded317a87322b96ec82ef65780f", "is_disabled": 0, "rental_uris": {"android": "https://dc.lft.to/lastmile_qr_scan", "ios": "https://dc.lft.to/lastmile_qr_scan"}, "type": "electric_scooter", "lat": 38.925658, "is_reserved": 0, "fusion_lat": 0.0}, {"bike_id": "3762cd718ba4e7e0e1bcf6a89954b929", "fusion_lon": 0.0, "lon": -77.0438435, "name": "3762cd718ba4e7e0e1bcf6a89954b929", "is_disabled": 0, "rental_uris": {"android": "https://dc.lft.to/lastmile_qr_scan", "ios": "https://dc.lft.to/lastmile_qr_scan"}, "type": "electric_scooter", "lat": 38.91659216666667, "is_reserved": 0, "fusion_lat": 0.0}, {"bike_id": "31c16d58947a6efb65323d5302d43d3a", "fusion_lon": 0.0, "lon": -77.03079116666666, "name": "31c16d58947a6efb65323d5302d43d3a", "is_disabled": 0, "rental_uris": {"android": "https://dc.lft.to/lastmile_qr_scan", "ios": "https://dc.lft.to/lastmile_qr_scan"}, "type": "electric_scooter", "lat": 38.91753, "is_reserved": 0, "fusion_lat": 0.0}, {"bike_id": "ecdfd73c4e30db2b4465bcb942b60b85", "fusion_lon": 0.0, "lon": -77.024231, "name": "ecdfd73c4e30db2b4465bcb942b60b85", "is_disabled": 0, "rental_uris": {"android": "https://dc.lft.to/lastmile_qr_scan", "ios": "https://dc.lft.to/lastmile_qr_scan"}, "type": "electric_scooter", "lat": 38.9208905, "is_reserved": 0, "fusion_lat": 0.0}, {"bike_id": "a4dc55d216b80473ecfda7453642756c", "fusion_lon": 0.0, "lon": -77.03693416666667, "name": "a4dc55d216b80473ecfda7453642756c", "is_disabled": 0, "rental_uris": {"android": "https://dc.lft.to/lastmile_qr_scan", "ios": "https://dc.lft.to/lastmile_qr_scan"}, "type": "electric_bike", "lat": 38.93561233333333, "is_reserved": 0, "fusion_lat": 0.0}, {"bike_id": "1a434661967ba497868c219758c26ac2", "fusion_lon": 0.0, "lon": -77.02796566666666, "name": "1a434661967ba497868c219758c26ac2", "is_disabled": 0, "rental_uris": {"android": "https://dc.lft.to/lastmile_qr_scan", "ios": "https://dc.lft.to/lastmile_qr_scan"}, "type": "electric_scooter", "lat": 38.93083083333333, "is_reserved": 0, "fusion_lat": 0.0}, {"bike_id": "cf29f9c6b55103e9275bdf3073f3afc6", "fusion_lon": 0.0, "lon": -77.01616383333334, "name": "cf29f9c6b55103e9275bdf3073f3afc6", "is_disabled": 0, "rental_uris": {"android": "https://dc.lft.to/lastmile_qr_scan", "ios": "https://dc.lft.to/lastmile_qr_scan"}, "type": "electric_scooter", "lat": 38.895035, "is_reserved": 0, "fusion_lat": 0.0}, {"bike_id": "c2ad7596c398f55a2c331b9952b0eb94", "fusion_lon": 0.0, "lon": -77.06410566666666, "name": "c2ad7596c398f55a2c331b9952b0eb94", "is_disabled": 0, "rental_uris": {"android": "https://dc.lft.to/lastmile_qr_scan", "ios": "https://dc.lft.to/lastmile_qr_scan"}, "type": "electric_scooter", "lat": 38.913654333333334, "is_reserved": 0, "fusion_lat": 0.0}, {"bike_id": "17593810dea2a85f9cd3071d330cd07a", "fusion_lon": 0.0, "lon": -77.02396966666667, "name": "17593810dea2a85f9cd3071d330cd07a", "is_disabled": 0, "rental_uris": {"android": "https://dc.lft.to/lastmile_qr_scan", "ios": "https://dc.lft.to/lastmile_qr_scan"}, "type": "electric_scooter", "lat": 38.89743283333333, "is_reserved": 0, "fusion_lat": 0.0}, {"bike_id": "00549295483d4696f08c66fe56f146d1", "fusion_lon": 0.0, "lon": -77.032582, "name": "00549295483d4696f08c66fe56f146d1", "is_disabled": 0, "rental_uris": {"android": "https://dc.lft.to/lastmile_qr_scan", "ios": "https://dc.lft.to/lastmile_qr_scan"}, "type": "electric_scooter", "lat": 38.9301365, "is_reserved": 0, "fusion_lat": 0.0}, {"bike_id": "3dad78d34d24773f9fd1fc507a6726e4", "fusion_lon": 0.0, "lon": -77.09479783333333, "name": "3dad78d34d24773f9fd1fc507a6726e4", "is_disabled": 0, "rental_uris": {"android": "https://dc.lft.to/lastmile_qr_scan", "ios": "https://dc.lft.to/lastmile_qr_scan"}, "type": "electric_bike", "lat": 39.03049683333333, "is_reserved": 0, "fusion_lat": 0.0}, {"bike_id": "b0cc17db04c5f0f57d8c43f393f5544f", "fusion_lon": 0.0, "lon": -77.0607755, "name": "b0cc17db04c5f0f57d8c43f393f5544f", "is_disabled": 0, "rental_uris": {"android": "https://dc.lft.to/lastmile_qr_scan", "ios": "https://dc.lft.to/lastmile_qr_scan"}, "type": "electric_bike", "lat": 38.885799666666664, "is_reserved": 0, "fusion_lat": 0.0}, {"bike_id": "f3f052bab8b0120241dc6d64dfeb2c0b", "fusion_lon": 0.0, "lon": -77.02652883333333, "name": "f3f052bab8b0120241dc6d64dfeb2c0b", "is_disabled": 0, "rental_uris": {"android": "https://dc.lft.to/lastmile_qr_scan", "ios": "https://dc.lft.to/lastmile_qr_scan"}, "type": "electric_scooter", "lat": 38.89225616666667, "is_reserved": 0, "fusion_lat": 0.0}, {"bike_id": "03670fed056dd0ca93d41e23f90e913c", "fusion_lon": 0.0, "lon": -77.131017, "name": "03670fed056dd0ca93d41e23f90e913c", "is_disabled": 0, "rental_uris": {"android": "https://dc.lft.to/lastmile_qr_scan", "ios": "https://dc.lft.to/lastmile_qr_scan"}, "type": "electric_bike", "lat": 39.02429633333333, "is_reserved": 0, "fusion_lat": 0.0}, {"bike_id": "fa29a4601ad1f9f087f803bfb6932bd1", "fusion_lon": 0.0, "lon": -76.9900015, "name": "fa29a4601ad1f9f087f803bfb6932bd1", "is_disabled": 0, "rental_uris": {"android": "https://dc.lft.to/lastmile_qr_scan", "ios": "https://dc.lft.to/lastmile_qr_scan"}, "type": "electric_scooter", "lat": 38.924461666666666, "is_reserved": 0, "fusion_lat": 0.0}, {"bike_id": "944bb56ccd63275d8d9de003b7bae713", "fusion_lon": 0.0, "lon": -77.00021116666667, "name": "944bb56ccd63275d8d9de003b7bae713", "is_disabled": 0, "rental_uris": {"android": "https://dc.lft.to/lastmile_qr_scan", "ios": "https://dc.lft.to/lastmile_qr_scan"}, "type": "electric_scooter", "lat": 38.9001635, "is_reserved": 0, "fusion_lat": 0.0}, {"bike_id": "8b4a85639f27833dcf9dd583afc4556c", "fusion_lon": 0.0, "lon": -76.9476995, "name": "8b4a85639f27833dcf9dd583afc4556c", "is_disabled": 0, "rental_uris": {"android": "https://dc.lft.to/lastmile_qr_scan", "ios": "https://dc.lft.to/lastmile_qr_scan"}, "type": "electric_scooter", "lat": 38.8966815, "is_reserved": 0, "fusion_lat": 0.0}, {"bike_id": "457cf5ba4fa187f41ff83eba66d82bba", "fusion_lon": 0.0, "lon": -77.02846266666667, "name": "457cf5ba4fa187f41ff83eba66d82bba", "is_disabled": 0, "rental_uris": {"android": "https://dc.lft.to/lastmile_qr_scan", "ios": "https://dc.lft.to/lastmile_qr_scan"}, "type": "electric_scooter", "lat": 38.96114716666666, "is_reserved": 0, "fusion_lat": 0.0}, {"bike_id": "bf2a32df9cdd10e5f03bab892eba0214", "fusion_lon": 0.0, "lon": -77.0270125, "name": "bf2a32df9cdd10e5f03bab892eba0214", "is_disabled": 0, "rental_uris": {"android": "https://dc.lft.to/lastmile_qr_scan", "ios": "https://dc.lft.to/lastmile_qr_scan"}, "type": "electric_scooter", "lat": 38.906718166666664, "is_reserved": 0, "fusion_lat": 0.0}, {"bike_id": "f495a7865b9bc9b6421155fb4123f902", "fusion_lon": 0.0, "lon": -77.0309775, "name": "f495a7865b9bc9b6421155fb4123f902", "is_disabled": 0, "rental_uris": {"android": "https://dc.lft.to/lastmile_qr_scan", "ios": "https://dc.lft.to/lastmile_qr_scan"}, "type": "electric_scooter", "lat": 38.93858983333333, "is_reserved": 0, "fusion_lat": 0.0}, {"bike_id": "5636ae26f2da5ac5bdf11fc09215dd93", "fusion_lon": 0.0, "lon": -77.03208816666667, "name": "5636ae26f2da5ac5bdf11fc09215dd93", "is_disabled": 0, "rental_uris": {"android": "https://dc.lft.to/lastmile_qr_scan", "ios": "https://dc.lft.to/lastmile_qr_scan"}, "type": "electric_scooter", "lat": 38.914716166666665, "is_reserved": 0, "fusion_lat": 0.0}, {"bike_id": "982119ed51d3566587ea9f01ae68d473", "fusion_lon": 0.0, "lon": -77.03376716666666, "name": "982119ed51d3566587ea9f01ae68d473", "is_disabled": 0, "rental_uris": {"android": "https://dc.lft.to/lastmile_qr_scan", "ios": "https://dc.lft.to/lastmile_qr_scan"}, "type": "electric_scooter", "lat": 38.93212233333333, "is_reserved": 0, "fusion_lat": 0.0}, {"bike_id": "ecd3ed3bfcb6f11d8427ad65e022ef62", "fusion_lon": 0.0, "lon": -77.01472733333334, "name": "ecd3ed3bfcb6f11d8427ad65e022ef62", "is_disabled": 0, "rental_uris": {"android": "https://dc.lft.to/lastmile_qr_scan", "ios": "https://dc.lft.to/lastmile_qr_scan"}, "type": "electric_scooter", "lat": 38.87643083333333, "is_reserved": 0, "fusion_lat": 0.0}, {"bike_id": "6a56de4e917a9f055ae919f337de14d1", "fusion_lon": 0.0, "lon": -77.00046216666667, "name": "6a56de4e917a9f055ae919f337de14d1", "is_disabled": 0, "rental_uris": {"android": "https://dc.lft.to/lastmile_qr_scan", "ios": "https://dc.lft.to/lastmile_qr_scan"}, "type": "electric_scooter", "lat": 38.873985833333336, "is_reserved": 0, "fusion_lat": 0.0}, {"bike_id": "a1094361fbf2a81d99d8df34b71b283d", "fusion_lon": 0.0, "lon": -77.02753433333334, "name": "a1094361fbf2a81d99d8df34b71b283d", "is_disabled": 0, "rental_uris": {"android": "https://dc.lft.to/lastmile_qr_scan", "ios": "https://dc.lft.to/lastmile_qr_scan"}, "type": "electric_scooter", "lat": 38.93961933333333, "is_reserved": 0, "fusion_lat": 0.0}, {"bike_id": "f0d447e08dad150654d6fff182bf5188", "fusion_lon": 0.0, "lon": -77.00859916666667, "name": "f0d447e08dad150654d6fff182bf5188", "is_disabled": 0, "rental_uris": {"android": "https://dc.lft.to/lastmile_qr_scan", "ios": "https://dc.lft.to/lastmile_qr_scan"}, "type": "electric_scooter", "lat": 38.878432833333335, "is_reserved": 0, "fusion_lat": 0.0}, {"bike_id": "59558f7fef3564f39e0a00d0c97fd257", "fusion_lon": 0.0, "lon": -77.043809, "name": "59558f7fef3564f39e0a00d0c97fd257", "is_disabled": 0, "rental_uris": {"android": "https://dc.lft.to/lastmile_qr_scan", "ios": "https://dc.lft.to/lastmile_qr_scan"}, "type": "electric_scooter", "lat": 38.92068666666667, "is_reserved": 0, "fusion_lat": 0.0}, {"bike_id": "10b734df78cfb2e45241ef2d3c9400bd", "fusion_lon": 0.0, "lon": -77.05756583333333, "name": "10b734df78cfb2e45241ef2d3c9400bd", "is_disabled": 0, "rental_uris": {"android": "https://dc.lft.to/lastmile_qr_scan", "ios": "https://dc.lft.to/lastmile_qr_scan"}, "type": "electric_scooter", "lat": 38.92567866666667, "is_reserved": 0, "fusion_lat": 0.0}, {"bike_id": "eca05d9b2e18d52c886d2474a85f6733", "fusion_lon": 0.0, "lon": -76.9817795, "name": "eca05d9b2e18d52c886d2474a85f6733", "is_disabled": 0, "rental_uris": {"android": "https://dc.lft.to/lastmile_qr_scan", "ios": "https://dc.lft.to/lastmile_qr_scan"}, "type": "electric_bike", "lat": 38.84629066666667, "is_reserved": 0, "fusion_lat": 0.0}, {"bike_id": "9ddd1197ee5f3e1cf9411528cf5c704d", "fusion_lon": 0.0, "lon": -77.0222175, "name": "9ddd1197ee5f3e1cf9411528cf5c704d", "is_disabled": 0, "rental_uris": {"android": "https://dc.lft.to/lastmile_qr_scan", "ios": "https://dc.lft.to/lastmile_qr_scan"}, "type": "electric_scooter", "lat": 38.89219883333333, "is_reserved": 0, "fusion_lat": 0.0}, {"bike_id": "df61cfe7bb5bcd8839cd5cbadc56c3d0", "fusion_lon": 0.0, "lon": -77.04391616666666, "name": "df61cfe7bb5bcd8839cd5cbadc56c3d0", "is_disabled": 0, "rental_uris": {"android": "https://dc.lft.to/lastmile_qr_scan", "ios": "https://dc.lft.to/lastmile_qr_scan"}, "type": "electric_scooter", "lat": 38.9014175, "is_reserved": 0, "fusion_lat": 0.0}, {"bike_id": "28ce2441d4f4453604ba397ae5506aab", "fusion_lon": 0.0, "lon": -77.0209685, "name": "28ce2441d4f4453604ba397ae5506aab", "is_disabled": 0, "rental_uris": {"android": "https://dc.lft.to/lastmile_qr_scan", "ios": "https://dc.lft.to/lastmile_qr_scan"}, "type": "electric_scooter", "lat": 38.922055666666665, "is_reserved": 0, "fusion_lat": 0.0}, {"bike_id": "97ccd09de5149979fe53a20acebba86f", "fusion_lon": 0.0, "lon": -77.01404866666667, "name": "97ccd09de5149979fe53a20acebba86f", "is_disabled": 0, "rental_uris": {"android": "https://dc.lft.to/lastmile_qr_scan", "ios": "https://dc.lft.to/lastmile_qr_scan"}, "type": "electric_scooter", "lat": 38.881205, "is_reserved": 0, "fusion_lat": 0.0}, {"bike_id": "6134db1fb81c8fd5c7328e7a696bfe6e", "fusion_lon": 0.0, "lon": -77.02345933333334, "name": "6134db1fb81c8fd5c7328e7a696bfe6e", "is_disabled": 0, "rental_uris": {"android": "https://dc.lft.to/lastmile_qr_scan", "ios": "https://dc.lft.to/lastmile_qr_scan"}, "type": "electric_scooter", "lat": 38.93180016666667, "is_reserved": 0, "fusion_lat": 0.0}, {"bike_id": "93c17d5c2536a74c70ee39f5129e4f2b", "fusion_lon": 0.0, "lon": -77.0220645, "name": "93c17d5c2536a74c70ee39f5129e4f2b", "is_disabled": 0, "rental_uris": {"android": "https://dc.lft.to/lastmile_qr_scan", "ios": "https://dc.lft.to/lastmile_qr_scan"}, "type": "electric_scooter", "lat": 38.9147935, "is_reserved": 0, "fusion_lat": 0.0}, {"bike_id": "ec4afe902b0ffdb5d389326188407736", "fusion_lon": 0.0, "lon": -77.07253166666666, "name": "ec4afe902b0ffdb5d389326188407736", "is_disabled": 0, "rental_uris": {"android": "https://dc.lft.to/lastmile_qr_scan", "ios": "https://dc.lft.to/lastmile_qr_scan"}, "type": "electric_scooter", "lat": 38.912654833333335, "is_reserved": 0, "fusion_lat": 0.0}, {"bike_id": "8ddf1f84b003df07ce47bcb1387d37a3", "fusion_lon": 0.0, "lon": -77.00553433333333, "name": "8ddf1f84b003df07ce47bcb1387d37a3", "is_disabled": 0, "rental_uris": {"android": "https://dc.lft.to/lastmile_qr_scan", "ios": "https://dc.lft.to/lastmile_qr_scan"}, "type": "electric_scooter", "lat": 38.87533416666667, "is_reserved": 0, "fusion_lat": 0.0}, {"bike_id": "aa27756fc6a70f6f40f79709b711d283", "fusion_lon": 0.0, "lon": -77.0354875, "name": "aa27756fc6a70f6f40f79709b711d283", "is_disabled": 0, "rental_uris": {"android": "https://dc.lft.to/lastmile_qr_scan", "ios": "https://dc.lft.to/lastmile_qr_scan"}, "type": "electric_scooter", "lat": 38.92863283333333, "is_reserved": 0, "fusion_lat": 0.0}, {"bike_id": "d1d1885f20bf1cfeff45b468f72ef3dc", "fusion_lon": 0.0, "lon": -77.03165483333333, "name": "d1d1885f20bf1cfeff45b468f72ef3dc", "is_disabled": 0, "rental_uris": {"android": "https://dc.lft.to/lastmile_qr_scan", "ios": "https://dc.lft.to/lastmile_qr_scan"}, "type": "electric_bike", "lat": 38.99949083333333, "is_reserved": 0, "fusion_lat": 0.0}, {"bike_id": "1b7c55f2f99f33bdbf4ae5d7d34d9671", "fusion_lon": 0.0, "lon": -77.044607, "name": "1b7c55f2f99f33bdbf4ae5d7d34d9671", "is_disabled": 0, "rental_uris": {"android": "https://dc.lft.to/lastmile_qr_scan", "ios": "https://dc.lft.to/lastmile_qr_scan"}, "type": "electric_scooter", "lat": 38.91851883333333, "is_reserved": 0, "fusion_lat": 0.0}, {"bike_id": "048b4cc988cc48448ac5cb166876789a", "fusion_lon": 0.0, "lon": -77.001675, "name": "048b4cc988cc48448ac5cb166876789a", "is_disabled": 0, "rental_uris": {"android": "https://dc.lft.to/lastmile_qr_scan", "ios": "https://dc.lft.to/lastmile_qr_scan"}, "type": "electric_scooter", "lat": 38.90141, "is_reserved": 0, "fusion_lat": 0.0}, {"bike_id": "292811bfa5614499dcc3dab693f6531c", "fusion_lon": 0.0, "lon": -77.04147666666667, "name": "292811bfa5614499dcc3dab693f6531c", "is_disabled": 0, "rental_uris": {"android": "https://dc.lft.to/lastmile_qr_scan", "ios": "https://dc.lft.to/lastmile_qr_scan"}, "type": "electric_scooter", "lat": 38.89355533333333, "is_reserved": 0, "fusion_lat": 0.0}, {"bike_id": "78575af89ef300534f01fcbc9c1187ac", "fusion_lon": 0.0, "lon": -77.0393445, "name": "78575af89ef300534f01fcbc9c1187ac", "is_disabled": 0, "rental_uris": {"android": "https://dc.lft.to/lastmile_qr_scan", "ios": "https://dc.lft.to/lastmile_qr_scan"}, "type": "electric_scooter", "lat": 38.924926166666665, "is_reserved": 0, "fusion_lat": 0.0}, {"bike_id": "f1ff1c9b53802547092f5458aa2d1d5b", "fusion_lon": 0.0, "lon": -77.03648066666666, "name": "f1ff1c9b53802547092f5458aa2d1d5b", "is_disabled": 0, "rental_uris": {"android": "https://dc.lft.to/lastmile_qr_scan", "ios": "https://dc.lft.to/lastmile_qr_scan"}, "type": "electric_scooter", "lat": 38.915918, "is_reserved": 0, "fusion_lat": 0.0}, {"bike_id": "790ad1a7d877e38c7e4af3b4f47f7409", "fusion_lon": 0.0, "lon": -77.04652566666667, "name": "790ad1a7d877e38c7e4af3b4f47f7409", "is_disabled": 0, "rental_uris": {"android": "https://dc.lft.to/lastmile_qr_scan", "ios": "https://dc.lft.to/lastmile_qr_scan"}, "type": "electric_scooter", "lat": 38.90064783333333, "is_reserved": 0, "fusion_lat": 0.0}, {"bike_id": "ecca16d5a07fe457f13d7e67d392fa47", "fusion_lon": 0.0, "lon": -76.97706483333333, "name": "ecca16d5a07fe457f13d7e67d392fa47", "is_disabled": 0, "rental_uris": {"android": "https://dc.lft.to/lastmile_qr_scan", "ios": "https://dc.lft.to/lastmile_qr_scan"}, "type": "electric_scooter", "lat": 38.90254616666667, "is_reserved": 0, "fusion_lat": 0.0}, {"bike_id": "5b16c26245ebab5314836d8f29b84e68", "fusion_lon": 0.0, "lon": -77.01013283333333, "name": "5b16c26245ebab5314836d8f29b84e68", "is_disabled": 0, "rental_uris": {"android": "https://dc.lft.to/lastmile_qr_scan", "ios": "https://dc.lft.to/lastmile_qr_scan"}, "type": "electric_bike", "lat": 38.95600866666667, "is_reserved": 0, "fusion_lat": 0.0}, {"bike_id": "f07a22d22c08bd4e7e178cf086cce5a9", "fusion_lon": 0.0, "lon": -77.03898616666666, "name": "f07a22d22c08bd4e7e178cf086cce5a9", "is_disabled": 0, "rental_uris": {"android": "https://dc.lft.to/lastmile_qr_scan", "ios": "https://dc.lft.to/lastmile_qr_scan"}, "type": "electric_scooter", "lat": 38.91858916666666, "is_reserved": 0, "fusion_lat": 0.0}, {"bike_id": "aaa8fd2ba4ee0888333352dc04135b0c", "fusion_lon": 0.0, "lon": -77.03660933333333, "name": "aaa8fd2ba4ee0888333352dc04135b0c", "is_disabled": 0, "rental_uris": {"android": "https://dc.lft.to/lastmile_qr_scan", "ios": "https://dc.lft.to/lastmile_qr_scan"}, "type": "electric_scooter", "lat": 38.92290283333333, "is_reserved": 0, "fusion_lat": 0.0}, {"bike_id": "c84ed001a037dfe96bc2067614c52535", "fusion_lon": 0.0, "lon": -77.10772016666667, "name": "c84ed001a037dfe96bc2067614c52535", "is_disabled": 0, "rental_uris": {"android": "https://dc.lft.to/lastmile_qr_scan", "ios": "https://dc.lft.to/lastmile_qr_scan"}, "type": "electric_bike", "lat": 38.84146366666667, "is_reserved": 0, "fusion_lat": 0.0}, {"bike_id": "f001743d4592e3d4d2f70d82469dd24b", "fusion_lon": 0.0, "lon": -77.038787, "name": "f001743d4592e3d4d2f70d82469dd24b", "is_disabled": 0, "rental_uris": {"android": "https://dc.lft.to/lastmile_qr_scan", "ios": "https://dc.lft.to/lastmile_qr_scan"}, "type": "electric_scooter", "lat": 38.902542833333335, "is_reserved": 0, "fusion_lat": 0.0}, {"bike_id": "9a594ade176ccdf739c19ae64bd8c29a", "fusion_lon": 0.0, "lon": -77.03427983333333, "name": "9a594ade176ccdf739c19ae64bd8c29a", "is_disabled": 0, "rental_uris": {"android": "https://dc.lft.to/lastmile_qr_scan", "ios": "https://dc.lft.to/lastmile_qr_scan"}, "type": "electric_scooter", "lat": 38.93082916666667, "is_reserved": 0, "fusion_lat": 0.0}, {"bike_id": "e43421e4be104bc7b89677f0a2d0a167", "fusion_lon": 0.0, "lon": -77.0113485, "name": "e43421e4be104bc7b89677f0a2d0a167", "is_disabled": 0, "rental_uris": {"android": "https://dc.lft.to/lastmile_qr_scan", "ios": "https://dc.lft.to/lastmile_qr_scan"}, "type": "electric_scooter", "lat": 38.88524433333333, "is_reserved": 0, "fusion_lat": 0.0}, {"bike_id": "d22d5652acf9602ec61852e22884d486", "fusion_lon": 0.0, "lon": -77.0085815, "name": "d22d5652acf9602ec61852e22884d486", "is_disabled": 0, "rental_uris": {"android": "https://dc.lft.to/lastmile_qr_scan", "ios": "https://dc.lft.to/lastmile_qr_scan"}, "type": "electric_scooter", "lat": 38.95970883333333, "is_reserved": 0, "fusion_lat": 0.0}, {"bike_id": "25de1355348199847bd6dd3d361bf096", "fusion_lon": 0.0, "lon": -77.02491866666666, "name": "25de1355348199847bd6dd3d361bf096", "is_disabled": 0, "rental_uris": {"android": "https://dc.lft.to/lastmile_qr_scan", "ios": "https://dc.lft.to/lastmile_qr_scan"}, "type": "electric_scooter", "lat": 38.9418425, "is_reserved": 0, "fusion_lat": 0.0}, {"bike_id": "1cc610e8f9c4ea5a2e659ba2db7ab27a", "fusion_lon": 0.0, "lon": -77.005869, "name": "1cc610e8f9c4ea5a2e659ba2db7ab27a", "is_disabled": 0, "rental_uris": {"android": "https://dc.lft.to/lastmile_qr_scan", "ios": "https://dc.lft.to/lastmile_qr_scan"}, "type": "electric_scooter", "lat": 38.902715666666666, "is_reserved": 0, "fusion_lat": 0.0}, {"bike_id": "c6f3b266c4ab5684b6d28879e461dfe2", "fusion_lon": 0.0, "lon": -77.03458883333333, "name": "c6f3b266c4ab5684b6d28879e461dfe2", "is_disabled": 0, "rental_uris": {"android": "https://dc.lft.to/lastmile_qr_scan", "ios": "https://dc.lft.to/lastmile_qr_scan"}, "type": "electric_scooter", "lat": 38.90477833333333, "is_reserved": 0, "fusion_lat": 0.0}, {"bike_id": "64991a396db4ea7157f984933f9ef3b3", "fusion_lon": 0.0, "lon": -77.04863816666666, "name": "64991a396db4ea7157f984933f9ef3b3", "is_disabled": 0, "rental_uris": {"android": "https://dc.lft.to/lastmile_qr_scan", "ios": "https://dc.lft.to/lastmile_qr_scan"}, "type": "electric_scooter", "lat": 38.904935, "is_reserved": 0, "fusion_lat": 0.0}, {"bike_id": "dc3f8192c9356f8bd1e9218fa5c1486f", "fusion_lon": 0.0, "lon": -77.03654633333333, "name": "dc3f8192c9356f8bd1e9218fa5c1486f", "is_disabled": 0, "rental_uris": {"android": "https://dc.lft.to/lastmile_qr_scan", "ios": "https://dc.lft.to/lastmile_qr_scan"}, "type": "electric_scooter", "lat": 38.922914166666665, "is_reserved": 0, "fusion_lat": 0.0}, {"bike_id": "668d05e6bc56cd2d6314b05736b29f74", "fusion_lon": 0.0, "lon": -76.99700033333333, "name": "668d05e6bc56cd2d6314b05736b29f74", "is_disabled": 0, "rental_uris": {"android": "https://dc.lft.to/lastmile_qr_scan", "ios": "https://dc.lft.to/lastmile_qr_scan"}, "type": "electric_scooter", "lat": 38.90836866666667, "is_reserved": 0, "fusion_lat": 0.0}, {"bike_id": "234cb06c3696e0bd0f0975691e468d02", "fusion_lon": 0.0, "lon": -77.0827975, "name": "234cb06c3696e0bd0f0975691e468d02", "is_disabled": 0, "rental_uris": {"android": "https://dc.lft.to/lastmile_qr_scan", "ios": "https://dc.lft.to/lastmile_qr_scan"}, "type": "electric_scooter", "lat": 38.93021433333333, "is_reserved": 0, "fusion_lat": 0.0}, {"bike_id": "73589b3efc56a86abec9ab927ff9f451", "fusion_lon": 0.0, "lon": -77.06697833333334, "name": "73589b3efc56a86abec9ab927ff9f451", "is_disabled": 0, "rental_uris": {"android": "https://dc.lft.to/lastmile_qr_scan", "ios": "https://dc.lft.to/lastmile_qr_scan"}, "type": "electric_scooter", "lat": 38.904698833333335, "is_reserved": 0, "fusion_lat": 0.0}, {"bike_id": "34b802551762f1d4da68bb2b99d41dc7", "fusion_lon": 0.0, "lon": -77.03147766666666, "name": "34b802551762f1d4da68bb2b99d41dc7", "is_disabled": 0, "rental_uris": {"android": "https://dc.lft.to/lastmile_qr_scan", "ios": "https://dc.lft.to/lastmile_qr_scan"}, "type": "electric_scooter", "lat": 38.9156565, "is_reserved": 0, "fusion_lat": 0.0}, {"bike_id": "c37490649acbf7a524ce4b6de342599a", "fusion_lon": 0.0, "lon": -77.03439066666667, "name": "c37490649acbf7a524ce4b6de342599a", "is_disabled": 0, "rental_uris": {"android": "https://dc.lft.to/lastmile_qr_scan", "ios": "https://dc.lft.to/lastmile_qr_scan"}, "type": "electric_scooter", "lat": 38.918139333333336, "is_reserved": 0, "fusion_lat": 0.0}, {"bike_id": "821baab77ca42e45dcdefaf554bddb02", "fusion_lon": 0.0, "lon": -77.04616716666666, "name": "821baab77ca42e45dcdefaf554bddb02", "is_disabled": 0, "rental_uris": {"android": "https://dc.lft.to/lastmile_qr_scan", "ios": "https://dc.lft.to/lastmile_qr_scan"}, "type": "electric_scooter", "lat": 38.915038833333334, "is_reserved": 0, "fusion_lat": 0.0}, {"bike_id": "afddce667038ceeb3ef40adfc220a458", "fusion_lon": 0.0, "lon": -77.04349416666666, "name": "afddce667038ceeb3ef40adfc220a458", "is_disabled": 0, "rental_uris": {"android": "https://dc.lft.to/lastmile_qr_scan", "ios": "https://dc.lft.to/lastmile_qr_scan"}, "type": "electric_scooter", "lat": 38.910477, "is_reserved": 0, "fusion_lat": 0.0}, {"bike_id": "c27d0abcdec2c1f88b9c672f1ba8170b", "fusion_lon": 0.0, "lon": -77.001568, "name": "c27d0abcdec2c1f88b9c672f1ba8170b", "is_disabled": 0, "rental_uris": {"android": "https://dc.lft.to/lastmile_qr_scan", "ios": "https://dc.lft.to/lastmile_qr_scan"}, "type": "electric_scooter", "lat": 38.91110316666666, "is_reserved": 0, "fusion_lat": 0.0}, {"bike_id": "7217dfb01adf557947cf19f5a2fbb93a", "fusion_lon": 0.0, "lon": -77.02575316666666, "name": "7217dfb01adf557947cf19f5a2fbb93a", "is_disabled": 0, "rental_uris": {"android": "https://dc.lft.to/lastmile_qr_scan", "ios": "https://dc.lft.to/lastmile_qr_scan"}, "type": "electric_scooter", "lat": 38.914123833333335, "is_reserved": 0, "fusion_lat": 0.0}, {"bike_id": "e9cbf67c706434ca357c652b0d760b1b", "fusion_lon": 0.0, "lon": -77.02571433333334, "name": "e9cbf67c706434ca357c652b0d760b1b", "is_disabled": 0, "rental_uris": {"android": "https://dc.lft.to/lastmile_qr_scan", "ios": "https://dc.lft.to/lastmile_qr_scan"}, "type": "electric_scooter", "lat": 38.925435666666665, "is_reserved": 0, "fusion_lat": 0.0}, {"bike_id": "b33431f7bfa034006cb806e45896bd3c", "fusion_lon": 0.0, "lon": -77.059313, "name": "b33431f7bfa034006cb806e45896bd3c", "is_disabled": 0, "rental_uris": {"android": "https://dc.lft.to/lastmile_qr_scan", "ios": "https://dc.lft.to/lastmile_qr_scan"}, "type": "electric_scooter", "lat": 38.905307, "is_reserved": 0, "fusion_lat": 0.0}, {"bike_id": "bd73991c80e23f13b23f5d318b7895fa", "fusion_lon": 0.0, "lon": -77.03916383333333, "name": "bd73991c80e23f13b23f5d318b7895fa", "is_disabled": 0, "rental_uris": {"android": "https://dc.lft.to/lastmile_qr_scan", "ios": "https://dc.lft.to/lastmile_qr_scan"}, "type": "electric_scooter", "lat": 38.918201833333335, "is_reserved": 0, "fusion_lat": 0.0}, {"bike_id": "88817f3574b26b132356fd317e8d5773", "fusion_lon": 0.0, "lon": -77.04502316666667, "name": "88817f3574b26b132356fd317e8d5773", "is_disabled": 0, "rental_uris": {"android": "https://dc.lft.to/lastmile_qr_scan", "ios": "https://dc.lft.to/lastmile_qr_scan"}, "type": "electric_scooter", "lat": 38.913590166666665, "is_reserved": 0, "fusion_lat": 0.0}, {"bike_id": "5c71b8450a3e962ea2f5bd62a418aaff", "fusion_lon": 0.0, "lon": -76.99093983333333, "name": "5c71b8450a3e962ea2f5bd62a418aaff", "is_disabled": 0, "rental_uris": {"android": "https://dc.lft.to/lastmile_qr_scan", "ios": "https://dc.lft.to/lastmile_qr_scan"}, "type": "electric_scooter", "lat": 38.882352166666664, "is_reserved": 0, "fusion_lat": 0.0}, {"bike_id": "4aa36470d7f21ebe0c69ac63fce78e99", "fusion_lon": 0.0, "lon": -77.02226783333333, "name": "4aa36470d7f21ebe0c69ac63fce78e99", "is_disabled": 0, "rental_uris": {"android": "https://dc.lft.to/lastmile_qr_scan", "ios": "https://dc.lft.to/lastmile_qr_scan"}, "type": "electric_scooter", "lat": 38.892212, "is_reserved": 0, "fusion_lat": 0.0}, {"bike_id": "4d70876f87e78f363d3becf436bfb1bc", "fusion_lon": 0.0, "lon": -77.02810316666667, "name": "4d70876f87e78f363d3becf436bfb1bc", "is_disabled": 0, "rental_uris": {"android": "https://dc.lft.to/lastmile_qr_scan", "ios": "https://dc.lft.to/lastmile_qr_scan"}, "type": "electric_scooter", "lat": 38.9308445, "is_reserved": 0, "fusion_lat": 0.0}, {"bike_id": "e63ccf4aef48e6ef5f70ca9854a9bec3", "fusion_lon": 0.0, "lon": -77.03175333333333, "name": "e63ccf4aef48e6ef5f70ca9854a9bec3", "is_disabled": 0, "rental_uris": {"android": "https://dc.lft.to/lastmile_qr_scan", "ios": "https://dc.lft.to/lastmile_qr_scan"}, "type": "electric_scooter", "lat": 38.8922555, "is_reserved": 0, "fusion_lat": 0.0}, {"bike_id": "170598cde2f9c105c143b7a5a42e5aa2", "fusion_lon": 0.0, "lon": -77.0269695, "name": "170598cde2f9c105c143b7a5a42e5aa2", "is_disabled": 0, "rental_uris": {"android": "https://dc.lft.to/lastmile_qr_scan", "ios": "https://dc.lft.to/lastmile_qr_scan"}, "type": "electric_scooter", "lat": 38.899925833333334, "is_reserved": 0, "fusion_lat": 0.0}, {"bike_id": "336e2fda1f202ea29c32a8e5709b12a6", "fusion_lon": 0.0, "lon": -77.0096545, "name": "336e2fda1f202ea29c32a8e5709b12a6", "is_disabled": 0, "rental_uris": {"android": "https://dc.lft.to/lastmile_qr_scan", "ios": "https://dc.lft.to/lastmile_qr_scan"}, "type": "electric_bike", "lat": 38.96139, "is_reserved": 0, "fusion_lat": 0.0}, {"bike_id": "1c186642af8bf47e2247a72c27719809", "fusion_lon": 0.0, "lon": -77.04321766666666, "name": "1c186642af8bf47e2247a72c27719809", "is_disabled": 0, "rental_uris": {"android": "https://dc.lft.to/lastmile_qr_scan", "ios": "https://dc.lft.to/lastmile_qr_scan"}, "type": "electric_scooter", "lat": 38.918690833333336, "is_reserved": 0, "fusion_lat": 0.0}, {"bike_id": "bf76e4d342e82e9f77b82e18cdf21cad", "fusion_lon": 0.0, "lon": -77.05140166666666, "name": "bf76e4d342e82e9f77b82e18cdf21cad", "is_disabled": 0, "rental_uris": {"android": "https://dc.lft.to/lastmile_qr_scan", "ios": "https://dc.lft.to/lastmile_qr_scan"}, "type": "electric_scooter", "lat": 38.907646166666666, "is_reserved": 0, "fusion_lat": 0.0}, {"bike_id": "862266efad5ba7e53bea6776f8967613", "fusion_lon": 0.0, "lon": -77.06387283333333, "name": "862266efad5ba7e53bea6776f8967613", "is_disabled": 0, "rental_uris": {"android": "https://dc.lft.to/lastmile_qr_scan", "ios": "https://dc.lft.to/lastmile_qr_scan"}, "type": "electric_scooter", "lat": 38.902548833333334, "is_reserved": 0, "fusion_lat": 0.0}, {"bike_id": "4798b670fb6f267fa141924d094dce6c", "fusion_lon": 0.0, "lon": -77.03166766666666, "name": "4798b670fb6f267fa141924d094dce6c", "is_disabled": 0, "rental_uris": {"android": "https://dc.lft.to/lastmile_qr_scan", "ios": "https://dc.lft.to/lastmile_qr_scan"}, "type": "electric_scooter", "lat": 38.90958083333334, "is_reserved": 0, "fusion_lat": 0.0}, {"bike_id": "7f4b146a446bdcc9fd6d52e7592b7f5f", "fusion_lon": 0.0, "lon": -76.99897933333334, "name": "7f4b146a446bdcc9fd6d52e7592b7f5f", "is_disabled": 0, "rental_uris": {"android": "https://dc.lft.to/lastmile_qr_scan", "ios": "https://dc.lft.to/lastmile_qr_scan"}, "type": "electric_scooter", "lat": 38.94828166666667, "is_reserved": 0, "fusion_lat": 0.0}, {"bike_id": "9ed9e61e64fec236a9e7b298cffc46a3", "fusion_lon": 0.0, "lon": -77.0554915, "name": "9ed9e61e64fec236a9e7b298cffc46a3", "is_disabled": 0, "rental_uris": {"android": "https://dc.lft.to/lastmile_qr_scan", "ios": "https://dc.lft.to/lastmile_qr_scan"}, "type": "electric_scooter", "lat": 38.9300585, "is_reserved": 0, "fusion_lat": 0.0}, {"bike_id": "75d4d1af0645e07e157a8567dd22bc92", "fusion_lon": 0.0, "lon": -77.02492833333334, "name": "75d4d1af0645e07e157a8567dd22bc92", "is_disabled": 0, "rental_uris": {"android": "https://dc.lft.to/lastmile_qr_scan", "ios": "https://dc.lft.to/lastmile_qr_scan"}, "type": "electric_scooter", "lat": 38.943101166666665, "is_reserved": 0, "fusion_lat": 0.0}, {"bike_id": "55c87fe55b6d1df89e32ea42bf2d89fd", "fusion_lon": 0.0, "lon": -77.01414316666667, "name": "55c87fe55b6d1df89e32ea42bf2d89fd", "is_disabled": 0, "rental_uris": {"android": "https://dc.lft.to/lastmile_qr_scan", "ios": "https://dc.lft.to/lastmile_qr_scan"}, "type": "electric_scooter", "lat": 38.92833016666667, "is_reserved": 0, "fusion_lat": 0.0}, {"bike_id": "8196584e9014dd07cdc7bbf6831b9235", "fusion_lon": 0.0, "lon": -77.03240633333333, "name": "8196584e9014dd07cdc7bbf6831b9235", "is_disabled": 0, "rental_uris": {"android": "https://dc.lft.to/lastmile_qr_scan", "ios": "https://dc.lft.to/lastmile_qr_scan"}, "type": "electric_scooter", "lat": 38.9087315, "is_reserved": 0, "fusion_lat": 0.0}, {"bike_id": "b4b70440077b792113e43518b03da767", "fusion_lon": 0.0, "lon": -76.93610366666667, "name": "b4b70440077b792113e43518b03da767", "is_disabled": 0, "rental_uris": {"android": "https://dc.lft.to/lastmile_qr_scan", "ios": "https://dc.lft.to/lastmile_qr_scan"}, "type": "electric_scooter", "lat": 38.89679133333333, "is_reserved": 0, "fusion_lat": 0.0}, {"bike_id": "af2b6c044bf1be5dd284c871a831faec", "fusion_lon": 0.0, "lon": -77.016166, "name": "af2b6c044bf1be5dd284c871a831faec", "is_disabled": 0, "rental_uris": {"android": "https://dc.lft.to/lastmile_qr_scan", "ios": "https://dc.lft.to/lastmile_qr_scan"}, "type": "electric_scooter", "lat": 38.90685716666667, "is_reserved": 0, "fusion_lat": 0.0}, {"bike_id": "f05cc2ebae763d3bc510d708c998426c", "fusion_lon": 0.0, "lon": -77.023968, "name": "f05cc2ebae763d3bc510d708c998426c", "is_disabled": 0, "rental_uris": {"android": "https://dc.lft.to/lastmile_qr_scan", "ios": "https://dc.lft.to/lastmile_qr_scan"}, "type": "electric_scooter", "lat": 38.90001083333333, "is_reserved": 0, "fusion_lat": 0.0}, {"bike_id": "e0ec567cb0111b27f0c38866bcf8bfc9", "fusion_lon": 0.0, "lon": -76.98693666666667, "name": "e0ec567cb0111b27f0c38866bcf8bfc9", "is_disabled": 0, "rental_uris": {"android": "https://dc.lft.to/lastmile_qr_scan", "ios": "https://dc.lft.to/lastmile_qr_scan"}, "type": "electric_bike", "lat": 38.944702, "is_reserved": 0, "fusion_lat": 0.0}, {"bike_id": "87d95413c78978882f0cd329bfabd62d", "fusion_lon": 0.0, "lon": -77.1295405, "name": "87d95413c78978882f0cd329bfabd62d", "is_disabled": 0, "rental_uris": {"android": "https://dc.lft.to/lastmile_qr_scan", "ios": "https://dc.lft.to/lastmile_qr_scan"}, "type": "electric_bike", "lat": 38.852242, "is_reserved": 0, "fusion_lat": 0.0}, {"bike_id": "762861d467e9bf8ccba3a5bf9fda158e", "fusion_lon": 0.0, "lon": -77.03879133333334, "name": "762861d467e9bf8ccba3a5bf9fda158e", "is_disabled": 0, "rental_uris": {"android": "https://dc.lft.to/lastmile_qr_scan", "ios": "https://dc.lft.to/lastmile_qr_scan"}, "type": "electric_scooter", "lat": 38.91702683333333, "is_reserved": 0, "fusion_lat": 0.0}, {"bike_id": "d610dd1560d3d8b87536da29f10426af", "fusion_lon": 0.0, "lon": -77.04022766666667, "name": "d610dd1560d3d8b87536da29f10426af", "is_disabled": 0, "rental_uris": {"android": "https://dc.lft.to/lastmile_qr_scan", "ios": "https://dc.lft.to/lastmile_qr_scan"}, "type": "electric_scooter", "lat": 38.9244815, "is_reserved": 0, "fusion_lat": 0.0}, {"bike_id": "13c8481581bffcdaa3780a43b431e3e2", "fusion_lon": 0.0, "lon": -77.02492233333334, "name": "13c8481581bffcdaa3780a43b431e3e2", "is_disabled": 0, "rental_uris": {"android": "https://dc.lft.to/lastmile_qr_scan", "ios": "https://dc.lft.to/lastmile_qr_scan"}, "type": "electric_scooter", "lat": 38.9025345, "is_reserved": 0, "fusion_lat": 0.0}, {"bike_id": "995443312fd98cee8f18fab49472dfd4", "fusion_lon": 0.0, "lon": -77.023424, "name": "995443312fd98cee8f18fab49472dfd4", "is_disabled": 0, "rental_uris": {"android": "https://dc.lft.to/lastmile_qr_scan", "ios": "https://dc.lft.to/lastmile_qr_scan"}, "type": "electric_scooter", "lat": 38.90734466666667, "is_reserved": 0, "fusion_lat": 0.0}, {"bike_id": "7f2529de3c4ca26dec7d64f09e5352ad", "fusion_lon": 0.0, "lon": -77.03477066666666, "name": "7f2529de3c4ca26dec7d64f09e5352ad", "is_disabled": 0, "rental_uris": {"android": "https://dc.lft.to/lastmile_qr_scan", "ios": "https://dc.lft.to/lastmile_qr_scan"}, "type": "electric_bike", "lat": 38.93541366666667, "is_reserved": 0, "fusion_lat": 0.0}, {"bike_id": "de23cb82f5224a4e12fb3714e7cea1b9", "fusion_lon": 0.0, "lon": -77.03673, "name": "de23cb82f5224a4e12fb3714e7cea1b9", "is_disabled": 0, "rental_uris": {"android": "https://dc.lft.to/lastmile_qr_scan", "ios": "https://dc.lft.to/lastmile_qr_scan"}, "type": "electric_scooter", "lat": 38.91708416666667, "is_reserved": 0, "fusion_lat": 0.0}, {"bike_id": "ba43929a849bdbe95b9c2e3c26897b8b", "fusion_lon": 0.0, "lon": -76.93230833333334, "name": "ba43929a849bdbe95b9c2e3c26897b8b", "is_disabled": 0, "rental_uris": {"android": "https://dc.lft.to/lastmile_qr_scan", "ios": "https://dc.lft.to/lastmile_qr_scan"}, "type": "electric_bike", "lat": 38.865962, "is_reserved": 0, "fusion_lat": 0.0}, {"bike_id": "28cefe9aefcc86242ec89de80c8b9efe", "fusion_lon": 0.0, "lon": -77.0320445, "name": "28cefe9aefcc86242ec89de80c8b9efe", "is_disabled": 0, "rental_uris": {"android": "https://dc.lft.to/lastmile_qr_scan", "ios": "https://dc.lft.to/lastmile_qr_scan"}, "type": "electric_scooter", "lat": 38.897143166666666, "is_reserved": 0, "fusion_lat": 0.0}, {"bike_id": "67e38699066bab5885ce233c6c3a0ab3", "fusion_lon": 0.0, "lon": -77.01880516666667, "name": "67e38699066bab5885ce233c6c3a0ab3", "is_disabled": 0, "rental_uris": {"android": "https://dc.lft.to/lastmile_qr_scan", "ios": "https://dc.lft.to/lastmile_qr_scan"}, "type": "electric_scooter", "lat": 38.917722499999996, "is_reserved": 0, "fusion_lat": 0.0}, {"bike_id": "fe0832faf930dfea608e6a8c54dcbb0c", "fusion_lon": 0.0, "lon": -77.04006766666667, "name": "fe0832faf930dfea608e6a8c54dcbb0c", "is_disabled": 0, "rental_uris": {"android": "https://dc.lft.to/lastmile_qr_scan", "ios": "https://dc.lft.to/lastmile_qr_scan"}, "type": "electric_scooter", "lat": 38.91003033333333, "is_reserved": 0, "fusion_lat": 0.0}, {"bike_id": "2b224b88da2ba6eac2f69287462c8043", "fusion_lon": 0.0, "lon": -77.01476716666667, "name": "2b224b88da2ba6eac2f69287462c8043", "is_disabled": 0, "rental_uris": {"android": "https://dc.lft.to/lastmile_qr_scan", "ios": "https://dc.lft.to/lastmile_qr_scan"}, "type": "electric_scooter", "lat": 38.87642616666667, "is_reserved": 0, "fusion_lat": 0.0}, {"bike_id": "ed9567eb9b8e7b4ccd791b3b6c595eac", "fusion_lon": 0.0, "lon": -77.0628795, "name": "ed9567eb9b8e7b4ccd791b3b6c595eac", "is_disabled": 0, "rental_uris": {"android": "https://dc.lft.to/lastmile_qr_scan", "ios": "https://dc.lft.to/lastmile_qr_scan"}, "type": "electric_scooter", "lat": 38.905873, "is_reserved": 0, "fusion_lat": 0.0}, {"bike_id": "9b9bdd98644284524650ce87596f59d2", "fusion_lon": 0.0, "lon": -76.9902455, "name": "9b9bdd98644284524650ce87596f59d2", "is_disabled": 0, "rental_uris": {"android": "https://dc.lft.to/lastmile_qr_scan", "ios": "https://dc.lft.to/lastmile_qr_scan"}, "type": "electric_scooter", "lat": 38.86527566666667, "is_reserved": 0, "fusion_lat": 0.0}, {"bike_id": "f3f3ff7df606c01e3613f6f6a5fd8a1a", "fusion_lon": 0.0, "lon": -77.0194705, "name": "f3f3ff7df606c01e3613f6f6a5fd8a1a", "is_disabled": 0, "rental_uris": {"android": "https://dc.lft.to/lastmile_qr_scan", "ios": "https://dc.lft.to/lastmile_qr_scan"}, "type": "electric_scooter", "lat": 38.92422416666667, "is_reserved": 0, "fusion_lat": 0.0}, {"bike_id": "49a0da1b026f3169725b1279139a913d", "fusion_lon": 0.0, "lon": -77.02332133333333, "name": "49a0da1b026f3169725b1279139a913d", "is_disabled": 0, "rental_uris": {"android": "https://dc.lft.to/lastmile_qr_scan", "ios": "https://dc.lft.to/lastmile_qr_scan"}, "type": "electric_scooter", "lat": 38.89223883333333, "is_reserved": 0, "fusion_lat": 0.0}, {"bike_id": "cd55dad4b82bbe031df323885c1eab83", "fusion_lon": 0.0, "lon": -77.03451233333334, "name": "cd55dad4b82bbe031df323885c1eab83", "is_disabled": 0, "rental_uris": {"android": "https://dc.lft.to/lastmile_qr_scan", "ios": "https://dc.lft.to/lastmile_qr_scan"}, "type": "electric_scooter", "lat": 38.906445833333336, "is_reserved": 0, "fusion_lat": 0.0}, {"bike_id": "7ea94ca6c61e426efe317521e9d24c3e", "fusion_lon": 0.0, "lon": -77.0318125, "name": "7ea94ca6c61e426efe317521e9d24c3e", "is_disabled": 0, "rental_uris": {"android": "https://dc.lft.to/lastmile_qr_scan", "ios": "https://dc.lft.to/lastmile_qr_scan"}, "type": "electric_scooter", "lat": 38.91614516666667, "is_reserved": 0, "fusion_lat": 0.0}, {"bike_id": "85ea0ec7b3a33ac532000782ff3dbfc6", "fusion_lon": 0.0, "lon": -77.06156816666666, "name": "85ea0ec7b3a33ac532000782ff3dbfc6", "is_disabled": 0, "rental_uris": {"android": "https://dc.lft.to/lastmile_qr_scan", "ios": "https://dc.lft.to/lastmile_qr_scan"}, "type": "electric_scooter", "lat": 38.90519283333333, "is_reserved": 0, "fusion_lat": 0.0}, {"bike_id": "404aaa093285f28b17e67764ada3f4ee", "fusion_lon": 0.0, "lon": -76.99702433333333, "name": "404aaa093285f28b17e67764ada3f4ee", "is_disabled": 0, "rental_uris": {"android": "https://dc.lft.to/lastmile_qr_scan", "ios": "https://dc.lft.to/lastmile_qr_scan"}, "type": "electric_scooter", "lat": 38.90829083333333, "is_reserved": 0, "fusion_lat": 0.0}, {"bike_id": "ab4e4ec40c865746a71d40d04010a65f", "fusion_lon": 0.0, "lon": -77.01458566666666, "name": "ab4e4ec40c865746a71d40d04010a65f", "is_disabled": 0, "rental_uris": {"android": "https://dc.lft.to/lastmile_qr_scan", "ios": "https://dc.lft.to/lastmile_qr_scan"}, "type": "electric_scooter", "lat": 38.91770566666667, "is_reserved": 0, "fusion_lat": 0.0}, {"bike_id": "06aff990929a9ffa531f21bc181e5e72", "fusion_lon": 0.0, "lon": -76.99702383333333, "name": "06aff990929a9ffa531f21bc181e5e72", "is_disabled": 0, "rental_uris": {"android": "https://dc.lft.to/lastmile_qr_scan", "ios": "https://dc.lft.to/lastmile_qr_scan"}, "type": "electric_scooter", "lat": 38.92192216666667, "is_reserved": 0, "fusion_lat": 0.0}, {"bike_id": "81e6b4832d02652af66d7aa850c4e7a6", "fusion_lon": 0.0, "lon": -76.980079, "name": "81e6b4832d02652af66d7aa850c4e7a6", "is_disabled": 0, "rental_uris": {"android": "https://dc.lft.to/lastmile_qr_scan", "ios": "https://dc.lft.to/lastmile_qr_scan"}, "type": "electric_scooter", "lat": 38.8531895, "is_reserved": 0, "fusion_lat": 0.0}, {"bike_id": "580d0a3274811924cdf9bbb7cabd9056", "fusion_lon": 0.0, "lon": -77.01068483333333, "name": "580d0a3274811924cdf9bbb7cabd9056", "is_disabled": 0, "rental_uris": {"android": "https://dc.lft.to/lastmile_qr_scan", "ios": "https://dc.lft.to/lastmile_qr_scan"}, "type": "electric_scooter", "lat": 38.908099, "is_reserved": 0, "fusion_lat": 0.0}, {"bike_id": "cd9ef414beb53c037170ec77ab4a3a5f", "fusion_lon": 0.0, "lon": -77.0486935, "name": "cd9ef414beb53c037170ec77ab4a3a5f", "is_disabled": 0, "rental_uris": {"android": "https://dc.lft.to/lastmile_qr_scan", "ios": "https://dc.lft.to/lastmile_qr_scan"}, "type": "electric_scooter", "lat": 38.892228833333334, "is_reserved": 0, "fusion_lat": 0.0}, {"bike_id": "c49300113351c759ea24f4eee61a5c00", "fusion_lon": 0.0, "lon": -77.11297816666666, "name": "c49300113351c759ea24f4eee61a5c00", "is_disabled": 0, "rental_uris": {"android": "https://dc.lft.to/lastmile_qr_scan", "ios": "https://dc.lft.to/lastmile_qr_scan"}, "type": "electric_bike", "lat": 38.8317865, "is_reserved": 0, "fusion_lat": 0.0}, {"bike_id": "1a682a263dac650c4011b57806d9c230", "fusion_lon": 0.0, "lon": -77.04683283333334, "name": "1a682a263dac650c4011b57806d9c230", "is_disabled": 0, "rental_uris": {"android": "https://dc.lft.to/lastmile_qr_scan", "ios": "https://dc.lft.to/lastmile_qr_scan"}, "type": "electric_scooter", "lat": 38.9210615, "is_reserved": 0, "fusion_lat": 0.0}, {"bike_id": "1b17a5ebc0ab34e4b53321eb0950286b", "fusion_lon": 0.0, "lon": -77.0319345, "name": "1b17a5ebc0ab34e4b53321eb0950286b", "is_disabled": 0, "rental_uris": {"android": "https://dc.lft.to/lastmile_qr_scan", "ios": "https://dc.lft.to/lastmile_qr_scan"}, "type": "electric_scooter", "lat": 38.91481916666667, "is_reserved": 0, "fusion_lat": 0.0}, {"bike_id": "5af1d59caea5c9d3e063132e8101add7", "fusion_lon": 0.0, "lon": -77.02069716666666, "name": "5af1d59caea5c9d3e063132e8101add7", "is_disabled": 0, "rental_uris": {"android": "https://dc.lft.to/lastmile_qr_scan", "ios": "https://dc.lft.to/lastmile_qr_scan"}, "type": "electric_bike", "lat": 38.96441866666667, "is_reserved": 0, "fusion_lat": 0.0}, {"bike_id": "f1b784a15a2ab44c72fd77d64291a764", "fusion_lon": 0.0, "lon": -77.029717, "name": "f1b784a15a2ab44c72fd77d64291a764", "is_disabled": 0, "rental_uris": {"android": "https://dc.lft.to/lastmile_qr_scan", "ios": "https://dc.lft.to/lastmile_qr_scan"}, "type": "electric_scooter", "lat": 38.916813166666664, "is_reserved": 0, "fusion_lat": 0.0}, {"bike_id": "a3d9d043181aa7fcc3340617ee9d146a", "fusion_lon": 0.0, "lon": -77.01769216666666, "name": "a3d9d043181aa7fcc3340617ee9d146a", "is_disabled": 0, "rental_uris": {"android": "https://dc.lft.to/lastmile_qr_scan", "ios": "https://dc.lft.to/lastmile_qr_scan"}, "type": "electric_scooter", "lat": 38.87783016666667, "is_reserved": 0, "fusion_lat": 0.0}, {"bike_id": "72d4594411dd6648e7a5d85603e0413c", "fusion_lon": 0.0, "lon": -77.02215433333333, "name": "72d4594411dd6648e7a5d85603e0413c", "is_disabled": 0, "rental_uris": {"android": "https://dc.lft.to/lastmile_qr_scan", "ios": "https://dc.lft.to/lastmile_qr_scan"}, "type": "electric_scooter", "lat": 38.9156725, "is_reserved": 0, "fusion_lat": 0.0}, {"bike_id": "65ad5d4def68da3021c187b5c65dc65d", "fusion_lon": 0.0, "lon": -77.02120416666666, "name": "65ad5d4def68da3021c187b5c65dc65d", "is_disabled": 0, "rental_uris": {"android": "https://dc.lft.to/lastmile_qr_scan", "ios": "https://dc.lft.to/lastmile_qr_scan"}, "type": "electric_scooter", "lat": 38.9301285, "is_reserved": 0, "fusion_lat": 0.0}, {"bike_id": "8e9408685bf793a95541fc90c5c77e31", "fusion_lon": 0.0, "lon": -77.09960866666667, "name": "8e9408685bf793a95541fc90c5c77e31", "is_disabled": 0, "rental_uris": {"android": "https://dc.lft.to/lastmile_qr_scan", "ios": "https://dc.lft.to/lastmile_qr_scan"}, "type": "electric_bike", "lat": 38.8579095, "is_reserved": 0, "fusion_lat": 0.0}, {"bike_id": "9453ea7035ac179021a8d9400428f678", "fusion_lon": 0.0, "lon": -76.97947166666667, "name": "9453ea7035ac179021a8d9400428f678", "is_disabled": 0, "rental_uris": {"android": "https://dc.lft.to/lastmile_qr_scan", "ios": "https://dc.lft.to/lastmile_qr_scan"}, "type": "electric_scooter", "lat": 38.945269833333334, "is_reserved": 0, "fusion_lat": 0.0}, {"bike_id": "566bbc865d3a226aa18260b7ea0fc1de", "fusion_lon": 0.0, "lon": -76.99545916666666, "name": "566bbc865d3a226aa18260b7ea0fc1de", "is_disabled": 0, "rental_uris": {"android": "https://dc.lft.to/lastmile_qr_scan", "ios": "https://dc.lft.to/lastmile_qr_scan"}, "type": "electric_scooter", "lat": 38.92663433333333, "is_reserved": 0, "fusion_lat": 0.0}, {"bike_id": "0797488e19f7a4898ab5d97dd6d00453", "fusion_lon": 0.0, "lon": -77.026591, "name": "0797488e19f7a4898ab5d97dd6d00453", "is_disabled": 0, "rental_uris": {"android": "https://dc.lft.to/lastmile_qr_scan", "ios": "https://dc.lft.to/lastmile_qr_scan"}, "type": "electric_scooter", "lat": 38.922189333333336, "is_reserved": 0, "fusion_lat": 0.0}, {"bike_id": "b47a09c902835fa8e7ec1a14b5f82625", "fusion_lon": 0.0, "lon": -77.098038, "name": "b47a09c902835fa8e7ec1a14b5f82625", "is_disabled": 0, "rental_uris": {"android": "https://dc.lft.to/lastmile_qr_scan", "ios": "https://dc.lft.to/lastmile_qr_scan"}, "type": "electric_bike", "lat": 38.850279, "is_reserved": 0, "fusion_lat": 0.0}, {"bike_id": "78f45b80329e91ac512c0760b490f0f4", "fusion_lon": 0.0, "lon": -77.03958333333334, "name": "78f45b80329e91ac512c0760b490f0f4", "is_disabled": 0, "rental_uris": {"android": "https://dc.lft.to/lastmile_qr_scan", "ios": "https://dc.lft.to/lastmile_qr_scan"}, "type": "electric_scooter", "lat": 38.892426, "is_reserved": 0, "fusion_lat": 0.0}, {"bike_id": "d4fac589f427bba575ca967cca05c922", "fusion_lon": 0.0, "lon": -77.040363, "name": "d4fac589f427bba575ca967cca05c922", "is_disabled": 0, "rental_uris": {"android": "https://dc.lft.to/lastmile_qr_scan", "ios": "https://dc.lft.to/lastmile_qr_scan"}, "type": "electric_scooter", "lat": 38.91862666666667, "is_reserved": 0, "fusion_lat": 0.0}, {"bike_id": "488cdb2fd91c8f22d95f78ea9fa6d979", "fusion_lon": 0.0, "lon": -77.0351975, "name": "488cdb2fd91c8f22d95f78ea9fa6d979", "is_disabled": 0, "rental_uris": {"android": "https://dc.lft.to/lastmile_qr_scan", "ios": "https://dc.lft.to/lastmile_qr_scan"}, "type": "electric_scooter", "lat": 38.935949, "is_reserved": 0, "fusion_lat": 0.0}, {"bike_id": "763889e82137d38c36d359de4fbf01f5", "fusion_lon": 0.0, "lon": -77.04177033333333, "name": "763889e82137d38c36d359de4fbf01f5", "is_disabled": 0, "rental_uris": {"android": "https://dc.lft.to/lastmile_qr_scan", "ios": "https://dc.lft.to/lastmile_qr_scan"}, "type": "electric_scooter", "lat": 38.901763, "is_reserved": 0, "fusion_lat": 0.0}, {"bike_id": "ed38d648f972c56a07428ef314505c9c", "fusion_lon": 0.0, "lon": -77.0351235, "name": "ed38d648f972c56a07428ef314505c9c", "is_disabled": 0, "rental_uris": {"android": "https://dc.lft.to/lastmile_qr_scan", "ios": "https://dc.lft.to/lastmile_qr_scan"}, "type": "electric_scooter", "lat": 38.922816, "is_reserved": 0, "fusion_lat": 0.0}, {"bike_id": "9eb444616507659086e7b17e35419978", "fusion_lon": 0.0, "lon": -77.0247685, "name": "9eb444616507659086e7b17e35419978", "is_disabled": 0, "rental_uris": {"android": "https://dc.lft.to/lastmile_qr_scan", "ios": "https://dc.lft.to/lastmile_qr_scan"}, "type": "electric_scooter", "lat": 38.90968066666667, "is_reserved": 0, "fusion_lat": 0.0}, {"bike_id": "af25a2fa8cfa2c03a7ea6516e90a14df", "fusion_lon": 0.0, "lon": -77.0187, "name": "af25a2fa8cfa2c03a7ea6516e90a14df", "is_disabled": 0, "rental_uris": {"android": "https://dc.lft.to/lastmile_qr_scan", "ios": "https://dc.lft.to/lastmile_qr_scan"}, "type": "electric_scooter", "lat": 38.93149533333333, "is_reserved": 0, "fusion_lat": 0.0}, {"bike_id": "ccdf31ef74d934273bd260c5f662a06f", "fusion_lon": 0.0, "lon": -77.03187683333333, "name": "ccdf31ef74d934273bd260c5f662a06f", "is_disabled": 0, "rental_uris": {"android": "https://dc.lft.to/lastmile_qr_scan", "ios": "https://dc.lft.to/lastmile_qr_scan"}, "type": "electric_scooter", "lat": 38.91741283333333, "is_reserved": 0, "fusion_lat": 0.0}, {"bike_id": "4b13474fe6076da64ec264f54c95619b", "fusion_lon": 0.0, "lon": -77.01024916666667, "name": "4b13474fe6076da64ec264f54c95619b", "is_disabled": 0, "rental_uris": {"android": "https://dc.lft.to/lastmile_qr_scan", "ios": "https://dc.lft.to/lastmile_qr_scan"}, "type": "electric_scooter", "lat": 38.867052, "is_reserved": 0, "fusion_lat": 0.0}, {"bike_id": "645e1f525e747cca8a3991b47316f52a", "fusion_lon": 0.0, "lon": -77.01851833333333, "name": "645e1f525e747cca8a3991b47316f52a", "is_disabled": 0, "rental_uris": {"android": "https://dc.lft.to/lastmile_qr_scan", "ios": "https://dc.lft.to/lastmile_qr_scan"}, "type": "electric_scooter", "lat": 38.9736805, "is_reserved": 0, "fusion_lat": 0.0}, {"bike_id": "03d61462f2b046f4d6d9f0d8c8126b28", "fusion_lon": 0.0, "lon": -77.03223016666666, "name": "03d61462f2b046f4d6d9f0d8c8126b28", "is_disabled": 0, "rental_uris": {"android": "https://dc.lft.to/lastmile_qr_scan", "ios": "https://dc.lft.to/lastmile_qr_scan"}, "type": "electric_scooter", "lat": 38.90869883333333, "is_reserved": 0, "fusion_lat": 0.0}, {"bike_id": "eaf880ea47956d005aee4cedb5c59cf2", "fusion_lon": 0.0, "lon": -77.0369055, "name": "eaf880ea47956d005aee4cedb5c59cf2", "is_disabled": 0, "rental_uris": {"android": "https://dc.lft.to/lastmile_qr_scan", "ios": "https://dc.lft.to/lastmile_qr_scan"}, "type": "electric_scooter", "lat": 38.91674883333334, "is_reserved": 0, "fusion_lat": 0.0}, {"bike_id": "08be67f61c6778915c42e303dbc6b374", "fusion_lon": 0.0, "lon": -77.00935883333334, "name": "08be67f61c6778915c42e303dbc6b374", "is_disabled": 0, "rental_uris": {"android": "https://dc.lft.to/lastmile_qr_scan", "ios": "https://dc.lft.to/lastmile_qr_scan"}, "type": "electric_scooter", "lat": 38.897254333333336, "is_reserved": 0, "fusion_lat": 0.0}, {"bike_id": "3e86b770c89b196b5234db51c83518ba", "fusion_lon": 0.0, "lon": -77.029038, "name": "3e86b770c89b196b5234db51c83518ba", "is_disabled": 0, "rental_uris": {"android": "https://dc.lft.to/lastmile_qr_scan", "ios": "https://dc.lft.to/lastmile_qr_scan"}, "type": "electric_scooter", "lat": 38.92818466666667, "is_reserved": 0, "fusion_lat": 0.0}, {"bike_id": "51c9ed6956c0184e8713f4dedfde4995", "fusion_lon": 0.0, "lon": -77.03830866666667, "name": "51c9ed6956c0184e8713f4dedfde4995", "is_disabled": 0, "rental_uris": {"android": "https://dc.lft.to/lastmile_qr_scan", "ios": "https://dc.lft.to/lastmile_qr_scan"}, "type": "electric_scooter", "lat": 38.9111055, "is_reserved": 0, "fusion_lat": 0.0}, {"bike_id": "d249c88882c04ca7d648a3e1df552b9e", "fusion_lon": 0.0, "lon": -76.99402266666667, "name": "d249c88882c04ca7d648a3e1df552b9e", "is_disabled": 0, "rental_uris": {"android": "https://dc.lft.to/lastmile_qr_scan", "ios": "https://dc.lft.to/lastmile_qr_scan"}, "type": "electric_scooter", "lat": 38.9216435, "is_reserved": 0, "fusion_lat": 0.0}, {"bike_id": "67d82c05be8ccc021db5ad17e99dbfc0", "fusion_lon": 0.0, "lon": -77.0325595, "name": "67d82c05be8ccc021db5ad17e99dbfc0", "is_disabled": 0, "rental_uris": {"android": "https://dc.lft.to/lastmile_qr_scan", "ios": "https://dc.lft.to/lastmile_qr_scan"}, "type": "electric_bike", "lat": 38.929381666666664, "is_reserved": 0, "fusion_lat": 0.0}, {"bike_id": "5ff015a2af5766452f5c829a76d25219", "fusion_lon": 0.0, "lon": -77.01654683333334, "name": "5ff015a2af5766452f5c829a76d25219", "is_disabled": 0, "rental_uris": {"android": "https://dc.lft.to/lastmile_qr_scan", "ios": "https://dc.lft.to/lastmile_qr_scan"}, "type": "electric_scooter", "lat": 38.88114783333333, "is_reserved": 0, "fusion_lat": 0.0}, {"bike_id": "b95a1a3ef6e62698e129e73e5cce0668", "fusion_lon": 0.0, "lon": -77.012087, "name": "b95a1a3ef6e62698e129e73e5cce0668", "is_disabled": 0, "rental_uris": {"android": "https://dc.lft.to/lastmile_qr_scan", "ios": "https://dc.lft.to/lastmile_qr_scan"}, "type": "electric_scooter", "lat": 38.87094066666667, "is_reserved": 0, "fusion_lat": 0.0}, {"bike_id": "1bd197289b78150057ef73862814e944", "fusion_lon": 0.0, "lon": -77.03252016666667, "name": "1bd197289b78150057ef73862814e944", "is_disabled": 0, "rental_uris": {"android": "https://dc.lft.to/lastmile_qr_scan", "ios": "https://dc.lft.to/lastmile_qr_scan"}, "type": "electric_bike", "lat": 38.90247183333334, "is_reserved": 0, "fusion_lat": 0.0}, {"bike_id": "451d1f21fc0baf64aa4df3e1d30d4e99", "fusion_lon": 0.0, "lon": -77.03866383333333, "name": "451d1f21fc0baf64aa4df3e1d30d4e99", "is_disabled": 0, "rental_uris": {"android": "https://dc.lft.to/lastmile_qr_scan", "ios": "https://dc.lft.to/lastmile_qr_scan"}, "type": "electric_scooter", "lat": 38.915582666666666, "is_reserved": 0, "fusion_lat": 0.0}, {"bike_id": "3ea14f692e97cad39703c12f34a47061", "fusion_lon": 0.0, "lon": -77.03623616666667, "name": "3ea14f692e97cad39703c12f34a47061", "is_disabled": 0, "rental_uris": {"android": "https://dc.lft.to/lastmile_qr_scan", "ios": "https://dc.lft.to/lastmile_qr_scan"}, "type": "electric_scooter", "lat": 38.91693466666667, "is_reserved": 0, "fusion_lat": 0.0}, {"bike_id": "9387629901d9ec958450547d04c1c1c9", "fusion_lon": 0.0, "lon": -77.01620516666667, "name": "9387629901d9ec958450547d04c1c1c9", "is_disabled": 0, "rental_uris": {"android": "https://dc.lft.to/lastmile_qr_scan", "ios": "https://dc.lft.to/lastmile_qr_scan"}, "type": "electric_scooter", "lat": 38.90140316666667, "is_reserved": 0, "fusion_lat": 0.0}, {"bike_id": "7a1f4bc1748739e99e323130d0dce5e3", "fusion_lon": 0.0, "lon": -77.03246316666667, "name": "7a1f4bc1748739e99e323130d0dce5e3", "is_disabled": 0, "rental_uris": {"android": "https://dc.lft.to/lastmile_qr_scan", "ios": "https://dc.lft.to/lastmile_qr_scan"}, "type": "electric_bike", "lat": 38.91989983333333, "is_reserved": 0, "fusion_lat": 0.0}, {"bike_id": "478023922352ddc73f8b3c5457ec069d", "fusion_lon": 0.0, "lon": -77.09522916666667, "name": "478023922352ddc73f8b3c5457ec069d", "is_disabled": 0, "rental_uris": {"android": "https://dc.lft.to/lastmile_qr_scan", "ios": "https://dc.lft.to/lastmile_qr_scan"}, "type": "electric_bike", "lat": 38.8381205, "is_reserved": 0, "fusion_lat": 0.0}, {"bike_id": "5e114d317b17c213e4b8cce10c55e92f", "fusion_lon": 0.0, "lon": -76.938692, "name": "5e114d317b17c213e4b8cce10c55e92f", "is_disabled": 0, "rental_uris": {"android": "https://dc.lft.to/lastmile_qr_scan", "ios": "https://dc.lft.to/lastmile_qr_scan"}, "type": "electric_scooter", "lat": 38.89893766666667, "is_reserved": 0, "fusion_lat": 0.0}, {"bike_id": "9e96515a2cd9d1fa7cd4cd5a35f74dc3", "fusion_lon": 0.0, "lon": -77.2234475, "name": "9e96515a2cd9d1fa7cd4cd5a35f74dc3", "is_disabled": 0, "rental_uris": {"android": "https://dc.lft.to/lastmile_qr_scan", "ios": "https://dc.lft.to/lastmile_qr_scan"}, "type": "electric_bike", "lat": 38.917888166666664, "is_reserved": 0, "fusion_lat": 0.0}, {"bike_id": "1c434e44cb3579eb27fc0bca9837171b", "fusion_lon": 0.0, "lon": -77.03664116666667, "name": "1c434e44cb3579eb27fc0bca9837171b", "is_disabled": 0, "rental_uris": {"android": "https://dc.lft.to/lastmile_qr_scan", "ios": "https://dc.lft.to/lastmile_qr_scan"}, "type": "electric_scooter", "lat": 38.917941666666664, "is_reserved": 0, "fusion_lat": 0.0}, {"bike_id": "8d52d80070a862da904c1c0795c49060", "fusion_lon": 0.0, "lon": -77.0246395, "name": "8d52d80070a862da904c1c0795c49060", "is_disabled": 0, "rental_uris": {"android": "https://dc.lft.to/lastmile_qr_scan", "ios": "https://dc.lft.to/lastmile_qr_scan"}, "type": "electric_scooter", "lat": 38.9170275, "is_reserved": 0, "fusion_lat": 0.0}, {"bike_id": "9cd2c3b7775c13fd74ad5a4e1f8b86c4", "fusion_lon": 0.0, "lon": -77.0237525, "name": "9cd2c3b7775c13fd74ad5a4e1f8b86c4", "is_disabled": 0, "rental_uris": {"android": "https://dc.lft.to/lastmile_qr_scan", "ios": "https://dc.lft.to/lastmile_qr_scan"}, "type": "electric_scooter", "lat": 38.917823166666665, "is_reserved": 0, "fusion_lat": 0.0}, {"bike_id": "fea82b075a65fcf0bc97b3bb4998d598", "fusion_lon": 0.0, "lon": -77.06215616666667, "name": "fea82b075a65fcf0bc97b3bb4998d598", "is_disabled": 0, "rental_uris": {"android": "https://dc.lft.to/lastmile_qr_scan", "ios": "https://dc.lft.to/lastmile_qr_scan"}, "type": "electric_scooter", "lat": 38.9051955, "is_reserved": 0, "fusion_lat": 0.0}, {"bike_id": "e959f01df4e0cc85606d36f09e0b22a7", "fusion_lon": 0.0, "lon": -77.04868866666666, "name": "e959f01df4e0cc85606d36f09e0b22a7", "is_disabled": 0, "rental_uris": {"android": "https://dc.lft.to/lastmile_qr_scan", "ios": "https://dc.lft.to/lastmile_qr_scan"}, "type": "electric_scooter", "lat": 38.90502166666667, "is_reserved": 0, "fusion_lat": 0.0}, {"bike_id": "2c6868dd312a172a2e8aa55b1c3dff4c", "fusion_lon": 0.0, "lon": -77.023725, "name": "2c6868dd312a172a2e8aa55b1c3dff4c", "is_disabled": 0, "rental_uris": {"android": "https://dc.lft.to/lastmile_qr_scan", "ios": "https://dc.lft.to/lastmile_qr_scan"}, "type": "electric_scooter", "lat": 38.932411, "is_reserved": 0, "fusion_lat": 0.0}, {"bike_id": "df23d5940b0cf36918262a64c6b47b9e", "fusion_lon": 0.0, "lon": -77.01803533333333, "name": "df23d5940b0cf36918262a64c6b47b9e", "is_disabled": 0, "rental_uris": {"android": "https://dc.lft.to/lastmile_qr_scan", "ios": "https://dc.lft.to/lastmile_qr_scan"}, "type": "electric_scooter", "lat": 38.921349, "is_reserved": 0, "fusion_lat": 0.0}, {"bike_id": "e7796d977117850f39a372e104663d91", "fusion_lon": 0.0, "lon": -76.99625033333334, "name": "e7796d977117850f39a372e104663d91", "is_disabled": 0, "rental_uris": {"android": "https://dc.lft.to/lastmile_qr_scan", "ios": "https://dc.lft.to/lastmile_qr_scan"}, "type": "electric_scooter", "lat": 38.88488066666667, "is_reserved": 0, "fusion_lat": 0.0}, {"bike_id": "12a9cf11a523e8ceb7edfbd53ba6119a", "fusion_lon": 0.0, "lon": -77.032061, "name": "12a9cf11a523e8ceb7edfbd53ba6119a", "is_disabled": 0, "rental_uris": {"android": "https://dc.lft.to/lastmile_qr_scan", "ios": "https://dc.lft.to/lastmile_qr_scan"}, "type": "electric_scooter", "lat": 38.908268166666666, "is_reserved": 0, "fusion_lat": 0.0}, {"bike_id": "552874ba84b1a1213167533c7b851b91", "fusion_lon": 0.0, "lon": -77.04578216666667, "name": "552874ba84b1a1213167533c7b851b91", "is_disabled": 0, "rental_uris": {"android": "https://dc.lft.to/lastmile_qr_scan", "ios": "https://dc.lft.to/lastmile_qr_scan"}, "type": "electric_scooter", "lat": 38.921241333333334, "is_reserved": 0, "fusion_lat": 0.0}, {"bike_id": "68c1ef8a958a438d24ed1e1787e742ef", "fusion_lon": 0.0, "lon": -77.06761116666667, "name": "68c1ef8a958a438d24ed1e1787e742ef", "is_disabled": 0, "rental_uris": {"android": "https://dc.lft.to/lastmile_qr_scan", "ios": "https://dc.lft.to/lastmile_qr_scan"}, "type": "electric_scooter", "lat": 38.90683533333333, "is_reserved": 0, "fusion_lat": 0.0}, {"bike_id": "23e79a1ddafbaf2e5a9ea38cd9c8f939", "fusion_lon": 0.0, "lon": -77.03686416666666, "name": "23e79a1ddafbaf2e5a9ea38cd9c8f939", "is_disabled": 0, "rental_uris": {"android": "https://dc.lft.to/lastmile_qr_scan", "ios": "https://dc.lft.to/lastmile_qr_scan"}, "type": "electric_scooter", "lat": 38.916801166666666, "is_reserved": 0, "fusion_lat": 0.0}, {"bike_id": "95f62a14af0656d11ac8b3d23049d595", "fusion_lon": 0.0, "lon": -76.99799366666667, "name": "95f62a14af0656d11ac8b3d23049d595", "is_disabled": 0, "rental_uris": {"android": "https://dc.lft.to/lastmile_qr_scan", "ios": "https://dc.lft.to/lastmile_qr_scan"}, "type": "electric_bike", "lat": 38.956381, "is_reserved": 0, "fusion_lat": 0.0}, {"bike_id": "7acedd38506050b21aba4376083f9383", "fusion_lon": 0.0, "lon": -77.0174975, "name": "7acedd38506050b21aba4376083f9383", "is_disabled": 0, "rental_uris": {"android": "https://dc.lft.to/lastmile_qr_scan", "ios": "https://dc.lft.to/lastmile_qr_scan"}, "type": "electric_scooter", "lat": 38.87785366666667, "is_reserved": 0, "fusion_lat": 0.0}, {"bike_id": "a06e3321a119a95ab6b8f04d56e63e2a", "fusion_lon": 0.0, "lon": -77.0445365, "name": "a06e3321a119a95ab6b8f04d56e63e2a", "is_disabled": 0, "rental_uris": {"android": "https://dc.lft.to/lastmile_qr_scan", "ios": "https://dc.lft.to/lastmile_qr_scan"}, "type": "electric_scooter", "lat": 38.911861, "is_reserved": 0, "fusion_lat": 0.0}, {"bike_id": "bd1739df06acb0d9dabef9aca2779079", "fusion_lon": 0.0, "lon": -77.0433525, "name": "bd1739df06acb0d9dabef9aca2779079", "is_disabled": 0, "rental_uris": {"android": "https://dc.lft.to/lastmile_qr_scan", "ios": "https://dc.lft.to/lastmile_qr_scan"}, "type": "electric_scooter", "lat": 38.895290333333335, "is_reserved": 0, "fusion_lat": 0.0}, {"bike_id": "027bf82f41ad4c7ba76019a613f62e5b", "fusion_lon": 0.0, "lon": -77.02209966666666, "name": "027bf82f41ad4c7ba76019a613f62e5b", "is_disabled": 0, "rental_uris": {"android": "https://dc.lft.to/lastmile_qr_scan", "ios": "https://dc.lft.to/lastmile_qr_scan"}, "type": "electric_scooter", "lat": 38.91564833333333, "is_reserved": 0, "fusion_lat": 0.0}, {"bike_id": "cbb472e83e19625a0027f23c59721de5", "fusion_lon": 0.0, "lon": -77.03752783333333, "name": "cbb472e83e19625a0027f23c59721de5", "is_disabled": 0, "rental_uris": {"android": "https://dc.lft.to/lastmile_qr_scan", "ios": "https://dc.lft.to/lastmile_qr_scan"}, "type": "electric_scooter", "lat": 38.935919166666665, "is_reserved": 0, "fusion_lat": 0.0}, {"bike_id": "b8b9670a1889a32cbd515b6189f04914", "fusion_lon": 0.0, "lon": -76.99531983333333, "name": "b8b9670a1889a32cbd515b6189f04914", "is_disabled": 0, "rental_uris": {"android": "https://dc.lft.to/lastmile_qr_scan", "ios": "https://dc.lft.to/lastmile_qr_scan"}, "type": "electric_scooter", "lat": 38.9207505, "is_reserved": 0, "fusion_lat": 0.0}, {"bike_id": "d0de2b1c6408d4b1c402152e43e4329d", "fusion_lon": 0.0, "lon": -76.99943883333333, "name": "d0de2b1c6408d4b1c402152e43e4329d", "is_disabled": 0, "rental_uris": {"android": "https://dc.lft.to/lastmile_qr_scan", "ios": "https://dc.lft.to/lastmile_qr_scan"}, "type": "electric_scooter", "lat": 38.84294833333333, "is_reserved": 0, "fusion_lat": 0.0}, {"bike_id": "3e9c53f98b5f68afdd5c43d22bdcc507", "fusion_lon": 0.0, "lon": -77.0280695, "name": "3e9c53f98b5f68afdd5c43d22bdcc507", "is_disabled": 0, "rental_uris": {"android": "https://dc.lft.to/lastmile_qr_scan", "ios": "https://dc.lft.to/lastmile_qr_scan"}, "type": "electric_scooter", "lat": 38.916915, "is_reserved": 0, "fusion_lat": 0.0}, {"bike_id": "c9c87aeb5e724d5aeadaf74f81df41ba", "fusion_lon": 0.0, "lon": -77.03184233333333, "name": "c9c87aeb5e724d5aeadaf74f81df41ba", "is_disabled": 0, "rental_uris": {"android": "https://dc.lft.to/lastmile_qr_scan", "ios": "https://dc.lft.to/lastmile_qr_scan"}, "type": "electric_scooter", "lat": 38.91744633333333, "is_reserved": 0, "fusion_lat": 0.0}, {"bike_id": "da56e7ca59a210e98bd5c3e0a6c2d280", "fusion_lon": 0.0, "lon": -77.07305733333334, "name": "da56e7ca59a210e98bd5c3e0a6c2d280", "is_disabled": 0, "rental_uris": {"android": "https://dc.lft.to/lastmile_qr_scan", "ios": "https://dc.lft.to/lastmile_qr_scan"}, "type": "electric_scooter", "lat": 38.928790166666666, "is_reserved": 0, "fusion_lat": 0.0}, {"bike_id": "4ff3e48ffd77dc465cb2b8e0f21bad4a", "fusion_lon": 0.0, "lon": -77.00746633333333, "name": "4ff3e48ffd77dc465cb2b8e0f21bad4a", "is_disabled": 0, "rental_uris": {"android": "https://dc.lft.to/lastmile_qr_scan", "ios": "https://dc.lft.to/lastmile_qr_scan"}, "type": "electric_scooter", "lat": 38.8775305, "is_reserved": 0, "fusion_lat": 0.0}, {"bike_id": "2e544534bcc5985d39c408b21711a884", "fusion_lon": 0.0, "lon": -77.07285516666667, "name": "2e544534bcc5985d39c408b21711a884", "is_disabled": 0, "rental_uris": {"android": "https://dc.lft.to/lastmile_qr_scan", "ios": "https://dc.lft.to/lastmile_qr_scan"}, "type": "electric_scooter", "lat": 38.934897666666664, "is_reserved": 0, "fusion_lat": 0.0}, {"bike_id": "2441e4bb2b3cc35e2f1cc249d929d15d", "fusion_lon": 0.0, "lon": -77.02152233333334, "name": "2441e4bb2b3cc35e2f1cc249d929d15d", "is_disabled": 0, "rental_uris": {"android": "https://dc.lft.to/lastmile_qr_scan", "ios": "https://dc.lft.to/lastmile_qr_scan"}, "type": "electric_scooter", "lat": 38.930765, "is_reserved": 0, "fusion_lat": 0.0}, {"bike_id": "c6e85407aee4f3a484b5d3e4b8a7647f", "fusion_lon": 0.0, "lon": -77.02411666666667, "name": "c6e85407aee4f3a484b5d3e4b8a7647f", "is_disabled": 0, "rental_uris": {"android": "https://dc.lft.to/lastmile_qr_scan", "ios": "https://dc.lft.to/lastmile_qr_scan"}, "type": "electric_scooter", "lat": 38.91909616666667, "is_reserved": 0, "fusion_lat": 0.0}, {"bike_id": "bede559d3e7027b97fd3ad7388a428be", "fusion_lon": 0.0, "lon": -77.03482833333334, "name": "bede559d3e7027b97fd3ad7388a428be", "is_disabled": 0, "rental_uris": {"android": "https://dc.lft.to/lastmile_qr_scan", "ios": "https://dc.lft.to/lastmile_qr_scan"}, "type": "electric_scooter", "lat": 38.92483383333333, "is_reserved": 0, "fusion_lat": 0.0}, {"bike_id": "3c000f67fb81984c9eaac4a1edf1d0c8", "fusion_lon": 0.0, "lon": -77.00732716666667, "name": "3c000f67fb81984c9eaac4a1edf1d0c8", "is_disabled": 0, "rental_uris": {"android": "https://dc.lft.to/lastmile_qr_scan", "ios": "https://dc.lft.to/lastmile_qr_scan"}, "type": "electric_scooter", "lat": 38.87662566666667, "is_reserved": 0, "fusion_lat": 0.0}, {"bike_id": "ea898c28f31a058e68c4cac7a3198146", "fusion_lon": 0.0, "lon": -77.02671283333333, "name": "ea898c28f31a058e68c4cac7a3198146", "is_disabled": 0, "rental_uris": {"android": "https://dc.lft.to/lastmile_qr_scan", "ios": "https://dc.lft.to/lastmile_qr_scan"}, "type": "electric_scooter", "lat": 38.897262, "is_reserved": 0, "fusion_lat": 0.0}, {"bike_id": "be1d1d99db9949b68d19642e69842dbb", "fusion_lon": 0.0, "lon": -77.06197616666667, "name": "be1d1d99db9949b68d19642e69842dbb", "is_disabled": 0, "rental_uris": {"android": "https://dc.lft.to/lastmile_qr_scan", "ios": "https://dc.lft.to/lastmile_qr_scan"}, "type": "electric_scooter", "lat": 38.9444735, "is_reserved": 0, "fusion_lat": 0.0}, {"bike_id": "d624f46f2681c65c8d911faf54db7a34", "fusion_lon": 0.0, "lon": -77.02195383333333, "name": "d624f46f2681c65c8d911faf54db7a34", "is_disabled": 0, "rental_uris": {"android": "https://dc.lft.to/lastmile_qr_scan", "ios": "https://dc.lft.to/lastmile_qr_scan"}, "type": "electric_scooter", "lat": 38.91898033333333, "is_reserved": 0, "fusion_lat": 0.0}, {"bike_id": "3179ffb69c1995826d44f847517cfdcf", "fusion_lon": 0.0, "lon": -77.05047583333334, "name": "3179ffb69c1995826d44f847517cfdcf", "is_disabled": 0, "rental_uris": {"android": "https://dc.lft.to/lastmile_qr_scan", "ios": "https://dc.lft.to/lastmile_qr_scan"}, "type": "electric_scooter", "lat": 38.923446166666665, "is_reserved": 0, "fusion_lat": 0.0}, {"bike_id": "f3295df5cc56df1f697e5cf57957b929", "fusion_lon": 0.0, "lon": -77.04557833333334, "name": "f3295df5cc56df1f697e5cf57957b929", "is_disabled": 0, "rental_uris": {"android": "https://dc.lft.to/lastmile_qr_scan", "ios": "https://dc.lft.to/lastmile_qr_scan"}, "type": "electric_scooter", "lat": 38.9242455, "is_reserved": 0, "fusion_lat": 0.0}, {"bike_id": "0736e95288293610d969412bfc847ad6", "fusion_lon": 0.0, "lon": -77.0325765, "name": "0736e95288293610d969412bfc847ad6", "is_disabled": 0, "rental_uris": {"android": "https://dc.lft.to/lastmile_qr_scan", "ios": "https://dc.lft.to/lastmile_qr_scan"}, "type": "electric_scooter", "lat": 38.9288755, "is_reserved": 0, "fusion_lat": 0.0}, {"bike_id": "fcf9c71f75a67b5c57f8ff9a84afd334", "fusion_lon": 0.0, "lon": -76.99948283333333, "name": "fcf9c71f75a67b5c57f8ff9a84afd334", "is_disabled": 0, "rental_uris": {"android": "https://dc.lft.to/lastmile_qr_scan", "ios": "https://dc.lft.to/lastmile_qr_scan"}, "type": "electric_scooter", "lat": 38.842942666666666, "is_reserved": 0, "fusion_lat": 0.0}, {"bike_id": "4922fba597e56e35962a8a0fd5be1c9a", "fusion_lon": 0.0, "lon": -76.98399933333333, "name": "4922fba597e56e35962a8a0fd5be1c9a", "is_disabled": 0, "rental_uris": {"android": "https://dc.lft.to/lastmile_qr_scan", "ios": "https://dc.lft.to/lastmile_qr_scan"}, "type": "electric_scooter", "lat": 38.86700316666666, "is_reserved": 0, "fusion_lat": 0.0}, {"bike_id": "21cdaa3037acae80f644535be3833fe0", "fusion_lon": 0.0, "lon": -77.03911216666667, "name": "21cdaa3037acae80f644535be3833fe0", "is_disabled": 0, "rental_uris": {"android": "https://dc.lft.to/lastmile_qr_scan", "ios": "https://dc.lft.to/lastmile_qr_scan"}, "type": "electric_scooter", "lat": 38.91559916666667, "is_reserved": 0, "fusion_lat": 0.0}, {"bike_id": "40cb8b80f411b82fa7801a625459674d", "fusion_lon": 0.0, "lon": -77.04642383333334, "name": "40cb8b80f411b82fa7801a625459674d", "is_disabled": 0, "rental_uris": {"android": "https://dc.lft.to/lastmile_qr_scan", "ios": "https://dc.lft.to/lastmile_qr_scan"}, "type": "electric_scooter", "lat": 38.895271666666666, "is_reserved": 0, "fusion_lat": 0.0}, {"bike_id": "3f37486eec36a3aa96bc53dc55b6c6d3", "fusion_lon": 0.0, "lon": -77.04026933333333, "name": "3f37486eec36a3aa96bc53dc55b6c6d3", "is_disabled": 0, "rental_uris": {"android": "https://dc.lft.to/lastmile_qr_scan", "ios": "https://dc.lft.to/lastmile_qr_scan"}, "type": "electric_scooter", "lat": 38.930698, "is_reserved": 0, "fusion_lat": 0.0}, {"bike_id": "87fabeb910b9c8f50ba953900f5cc684", "fusion_lon": 0.0, "lon": -77.02216933333334, "name": "87fabeb910b9c8f50ba953900f5cc684", "is_disabled": 0, "rental_uris": {"android": "https://dc.lft.to/lastmile_qr_scan", "ios": "https://dc.lft.to/lastmile_qr_scan"}, "type": "electric_scooter", "lat": 38.9140085, "is_reserved": 0, "fusion_lat": 0.0}, {"bike_id": "9e4b724e5f80798d960602482ac33d19", "fusion_lon": 0.0, "lon": -77.02308566666666, "name": "9e4b724e5f80798d960602482ac33d19", "is_disabled": 0, "rental_uris": {"android": "https://dc.lft.to/lastmile_qr_scan", "ios": "https://dc.lft.to/lastmile_qr_scan"}, "type": "electric_scooter", "lat": 38.91608566666667, "is_reserved": 0, "fusion_lat": 0.0}, {"bike_id": "967f246ac98a3c66c478bf5fd1b0efe4", "fusion_lon": 0.0, "lon": -77.00597866666666, "name": "967f246ac98a3c66c478bf5fd1b0efe4", "is_disabled": 0, "rental_uris": {"android": "https://dc.lft.to/lastmile_qr_scan", "ios": "https://dc.lft.to/lastmile_qr_scan"}, "type": "electric_scooter", "lat": 38.90607466666667, "is_reserved": 0, "fusion_lat": 0.0}, {"bike_id": "947421866a3df6c395a4487b42cd5759", "fusion_lon": 0.0, "lon": -77.02684933333333, "name": "947421866a3df6c395a4487b42cd5759", "is_disabled": 0, "rental_uris": {"android": "https://dc.lft.to/lastmile_qr_scan", "ios": "https://dc.lft.to/lastmile_qr_scan"}, "type": "electric_scooter", "lat": 38.89605866666667, "is_reserved": 0, "fusion_lat": 0.0}, {"bike_id": "788eaf1d783e5e268336ecee27a926c0", "fusion_lon": 0.0, "lon": -76.98692133333333, "name": "788eaf1d783e5e268336ecee27a926c0", "is_disabled": 0, "rental_uris": {"android": "https://dc.lft.to/lastmile_qr_scan", "ios": "https://dc.lft.to/lastmile_qr_scan"}, "type": "electric_scooter", "lat": 38.8671935, "is_reserved": 0, "fusion_lat": 0.0}, {"bike_id": "aaa7eda1666ac61ecf30d4addafcc891", "fusion_lon": 0.0, "lon": -77.00213633333334, "name": "aaa7eda1666ac61ecf30d4addafcc891", "is_disabled": 0, "rental_uris": {"android": "https://dc.lft.to/lastmile_qr_scan", "ios": "https://dc.lft.to/lastmile_qr_scan"}, "type": "electric_scooter", "lat": 38.920494166666664, "is_reserved": 0, "fusion_lat": 0.0}, {"bike_id": "3f3fbc3aa56f77b2b1b4ae5928760a65", "fusion_lon": 0.0, "lon": -77.05475066666666, "name": "3f3fbc3aa56f77b2b1b4ae5928760a65", "is_disabled": 0, "rental_uris": {"android": "https://dc.lft.to/lastmile_qr_scan", "ios": "https://dc.lft.to/lastmile_qr_scan"}, "type": "electric_scooter", "lat": 38.897315, "is_reserved": 0, "fusion_lat": 0.0}, {"bike_id": "030c73c620bc775070568d0a354d9b91", "fusion_lon": 0.0, "lon": -77.0218385, "name": "030c73c620bc775070568d0a354d9b91", "is_disabled": 0, "rental_uris": {"android": "https://dc.lft.to/lastmile_qr_scan", "ios": "https://dc.lft.to/lastmile_qr_scan"}, "type": "electric_scooter", "lat": 38.8942375, "is_reserved": 0, "fusion_lat": 0.0}, {"bike_id": "f875ba1dcee903d6ee091b398ba36573", "fusion_lon": 0.0, "lon": -77.0366985, "name": "f875ba1dcee903d6ee091b398ba36573", "is_disabled": 0, "rental_uris": {"android": "https://dc.lft.to/lastmile_qr_scan", "ios": "https://dc.lft.to/lastmile_qr_scan"}, "type": "electric_scooter", "lat": 38.9308905, "is_reserved": 0, "fusion_lat": 0.0}, {"bike_id": "bc9f76310ad91bee07339a793ff85468", "fusion_lon": 0.0, "lon": -77.0358245, "name": "bc9f76310ad91bee07339a793ff85468", "is_disabled": 0, "rental_uris": {"android": "https://dc.lft.to/lastmile_qr_scan", "ios": "https://dc.lft.to/lastmile_qr_scan"}, "type": "electric_scooter", "lat": 38.93478066666667, "is_reserved": 0, "fusion_lat": 0.0}, {"bike_id": "14927ec339e7070fe0b586d894007b46", "fusion_lon": 0.0, "lon": -77.01089483333334, "name": "14927ec339e7070fe0b586d894007b46", "is_disabled": 0, "rental_uris": {"android": "https://dc.lft.to/lastmile_qr_scan", "ios": "https://dc.lft.to/lastmile_qr_scan"}, "type": "electric_scooter", "lat": 38.8951045, "is_reserved": 0, "fusion_lat": 0.0}, {"bike_id": "dccdcfbb03625ddfd45ca4027a577b84", "fusion_lon": 0.0, "lon": -77.04976166666667, "name": "dccdcfbb03625ddfd45ca4027a577b84", "is_disabled": 0, "rental_uris": {"android": "https://dc.lft.to/lastmile_qr_scan", "ios": "https://dc.lft.to/lastmile_qr_scan"}, "type": "electric_bike", "lat": 38.83221233333333, "is_reserved": 0, "fusion_lat": 0.0}, {"bike_id": "0dc308341924723f4b485a82aa208d5a", "fusion_lon": 0.0, "lon": -77.03816633333334, "name": "0dc308341924723f4b485a82aa208d5a", "is_disabled": 0, "rental_uris": {"android": "https://dc.lft.to/lastmile_qr_scan", "ios": "https://dc.lft.to/lastmile_qr_scan"}, "type": "electric_scooter", "lat": 38.93066983333333, "is_reserved": 0, "fusion_lat": 0.0}, {"bike_id": "26f674c1924425e20db1a346f1a9c256", "fusion_lon": 0.0, "lon": -76.989852, "name": "26f674c1924425e20db1a346f1a9c256", "is_disabled": 0, "rental_uris": {"android": "https://dc.lft.to/lastmile_qr_scan", "ios": "https://dc.lft.to/lastmile_qr_scan"}, "type": "electric_scooter", "lat": 38.86496316666667, "is_reserved": 0, "fusion_lat": 0.0}, {"bike_id": "d660e8974c8b5695bbcd27a778f57ae2", "fusion_lon": 0.0, "lon": -77.05236833333333, "name": "d660e8974c8b5695bbcd27a778f57ae2", "is_disabled": 0, "rental_uris": {"android": "https://dc.lft.to/lastmile_qr_scan", "ios": "https://dc.lft.to/lastmile_qr_scan"}, "type": "electric_scooter", "lat": 38.924666333333334, "is_reserved": 0, "fusion_lat": 0.0}, {"bike_id": "88baf83a57f61b025e4c0cfb4b0c952e", "fusion_lon": 0.0, "lon": -77.00744366666666, "name": "88baf83a57f61b025e4c0cfb4b0c952e", "is_disabled": 0, "rental_uris": {"android": "https://dc.lft.to/lastmile_qr_scan", "ios": "https://dc.lft.to/lastmile_qr_scan"}, "type": "electric_scooter", "lat": 38.87704083333333, "is_reserved": 0, "fusion_lat": 0.0},