{"data": {"bikes": [{"fusion_lat": 0.0, "name": "e6813c91e6f46c4e035497a219e8afd4", "is_disabled": 0, "rental_uris": {"android": "https://dc.lft.to/lastmile_qr_scan", "ios": "https://dc.lft.to/lastmile_qr_scan"}, "fusion_lon": 0.0, "lat": 38.9612605, "bike_id": "e6813c91e6f46c4e035497a219e8afd4", "type": "electric_bike", "is_reserved": 0, "lon": -77.03276283333334}, {"fusion_lat": 0.0, "name": "7613a6ce466694706de2139d6fb55d65", "is_disabled": 0, "rental_uris": {"android": "https://dc.lft.to/lastmile_qr_scan", "ios": "https://dc.lft.to/lastmile_qr_scan"}, "fusion_lon": 0.0, "lat": 38.80296883333333, "bike_id": "7613a6ce466694706de2139d6fb55d65", "type": "electric_bike", "is_reserved": 0, "lon": -77.05940016666666}, {"fusion_lat": 0.0, "name": "1b4780048c0e555ab214dceba98fd8aa", "is_disabled": 0, "rental_uris": {"android": "https://dc.lft.to/lastmile_qr_scan", "ios": "https://dc.lft.to/lastmile_qr_scan"}, "fusion_lon": 0.0, "lat": 38.9059215, "bike_id": "1b4780048c0e555ab214dceba98fd8aa", "type": "electric_scooter", "is_reserved": 0, "lon": -77.00897933333333}, {"fusion_lat": 0.0, "name": "868fa3a33c46d3475d056e1b5edb8aaa", "is_disabled": 0, "rental_uris": {"android": "https://dc.lft.to/lastmile_qr_scan", "ios": "https://dc.lft.to/lastmile_qr_scan"}, "fusion_lon": 0.0, "lat": 38.923375, "bike_id": "868fa3a33c46d3475d056e1b5edb8aaa", "type": "electric_scooter", "is_reserved": 0, "lon": -77.056228}, {"fusion_lat": 0.0, "name": "ad243ab1b0b1d4e87c03d5b045cdbb4e", "is_disabled": 0, "rental_uris": {"android": "https://dc.lft.to/lastmile_qr_scan", "ios": "https://dc.lft.to/lastmile_qr_scan"}, "fusion_lon": 0.0, "lat": 38.906184, "bike_id": "ad243ab1b0b1d4e87c03d5b045cdbb4e", "type": "electric_scooter", "is_reserved": 0, "lon": -77.024039}, {"fusion_lat": 0.0, "name": "ca10084acdb2195e68ed2b0dc0cf7d48", "is_disabled": 0, "rental_uris": {"android": "https://dc.lft.to/lastmile_qr_scan", "ios": "https://dc.lft.to/lastmile_qr_scan"}, "fusion_lon": 0.0, "lat": 38.92793783333333, "bike_id": "ca10084acdb2195e68ed2b0dc0cf7d48", "type": "electric_scooter", "is_reserved": 0, "lon": -77.02726116666666}, {"fusion_lat": 0.0, "name": "f56af744e1d53b5887ddc988aefb37f6", "is_disabled": 0, "rental_uris": {"android": "https://dc.lft.to/lastmile_qr_scan", "ios": "https://dc.lft.to/lastmile_qr_scan"}, "fusion_lon": 0.0, "lat": 38.90034766666667, "bike_id": "f56af744e1d53b5887ddc988aefb37f6", "type": "electric_scooter", "is_reserved": 0, "lon": -76.9885465}, {"fusion_lat": 0.0, "name": "9e2036220f0386806886bca1e01cebb7", "is_disabled": 0, "rental_uris": {"android": "https://dc.lft.to/lastmile_qr_scan", "ios": "https://dc.lft.to/lastmile_qr_scan"}, "fusion_lon": 0.0, "lat": 38.8845205, "bike_id": "9e2036220f0386806886bca1e01cebb7", "type": "electric_scooter", "is_reserved": 0, "lon": -76.99838383333334}, {"fusion_lat": 0.0, "name": "f5d5cbb6a91df497879146e117b7f700", "is_disabled": 0, "rental_uris": {"android": "https://dc.lft.to/lastmile_qr_scan", "ios": "https://dc.lft.to/lastmile_qr_scan"}, "fusion_lon": 0.0, "lat": 38.900232, "bike_id": "f5d5cbb6a91df497879146e117b7f700", "type": "electric_scooter", "is_reserved": 0, "lon": -77.01212583333333}, {"fusion_lat": 0.0, "name": "c8b2d986b4dafc6eaea0afd02789e2b8", "is_disabled": 0, "rental_uris": {"android": "https://dc.lft.to/lastmile_qr_scan", "ios": "https://dc.lft.to/lastmile_qr_scan"}, "fusion_lon": 0.0, "lat": 38.91120983333333, "bike_id": "c8b2d986b4dafc6eaea0afd02789e2b8", "type": "electric_scooter", "is_reserved": 0, "lon": -77.04218533333334}, {"fusion_lat": 0.0, "name": "10ce03d1d57d2dd7a9bb92115dd06b09", "is_disabled": 0, "rental_uris": {"android": "https://dc.lft.to/lastmile_qr_scan", "ios": "https://dc.lft.to/lastmile_qr_scan"}, "fusion_lon": 0.0, "lat": 38.90402616666667, "bike_id": "10ce03d1d57d2dd7a9bb92115dd06b09", "type": "electric_scooter", "is_reserved": 0, "lon": -77.050197}, {"fusion_lat": 0.0, "name": "db6a9e865e5bc8968964a80af42aeb1d", "is_disabled": 0, "rental_uris": {"android": "https://dc.lft.to/lastmile_qr_scan", "ios": "https://dc.lft.to/lastmile_qr_scan"}, "fusion_lon": 0.0, "lat": 38.93930483333333, "bike_id": "db6a9e865e5bc8968964a80af42aeb1d", "type": "electric_scooter", "is_reserved": 0, "lon": -77.07476466666667}, {"fusion_lat": 0.0, "name": "63f852076330d0d8189f685f60dc100e", "is_disabled": 0, "rental_uris": {"android": "https://dc.lft.to/lastmile_qr_scan", "ios": "https://dc.lft.to/lastmile_qr_scan"}, "fusion_lon": 0.0, "lat": 38.89687166666667, "bike_id": "63f852076330d0d8189f685f60dc100e", "type": "electric_scooter", "is_reserved": 0, "lon": -76.937111}, {"fusion_lat": 0.0, "name": "cc1cafb160b20f40c5f1856b9eee6f42", "is_disabled": 0, "rental_uris": {"android": "https://dc.lft.to/lastmile_qr_scan", "ios": "https://dc.lft.to/lastmile_qr_scan"}, "fusion_lon": 0.0, "lat": 38.927352166666665, "bike_id": "cc1cafb160b20f40c5f1856b9eee6f42", "type": "electric_scooter", "is_reserved": 0, "lon": -77.04215183333334}, {"fusion_lat": 0.0, "name": "8742bae69bbb0cb3ce7b0239d23e7baf", "is_disabled": 0, "rental_uris": {"android": "https://dc.lft.to/lastmile_qr_scan", "ios": "https://dc.lft.to/lastmile_qr_scan"}, "fusion_lon": 0.0, "lat": 38.884013833333334, "bike_id": "8742bae69bbb0cb3ce7b0239d23e7baf", "type": "electric_scooter", "is_reserved": 0, "lon": -76.98586866666666}, {"fusion_lat": 0.0, "name": "689f14328c0d339f7a4d85e469c8b23d", "is_disabled": 0, "rental_uris": {"android": "https://dc.lft.to/lastmile_qr_scan", "ios": "https://dc.lft.to/lastmile_qr_scan"}, "fusion_lon": 0.0, "lat": 38.9006545, "bike_id": "689f14328c0d339f7a4d85e469c8b23d", "type": "electric_scooter", "is_reserved": 0, "lon": -76.93385616666667}, {"fusion_lat": 0.0, "name": "f6861494e41020b7ec254c0869eb90d3", "is_disabled": 0, "rental_uris": {"android": "https://dc.lft.to/lastmile_qr_scan", "ios": "https://dc.lft.to/lastmile_qr_scan"}, "fusion_lon": 0.0, "lat": 38.93258383333333, "bike_id": "f6861494e41020b7ec254c0869eb90d3", "type": "electric_scooter", "is_reserved": 0, "lon": -77.03449933333333}, {"fusion_lat": 0.0, "name": "147af948ffd86a2fb182c49e74097441", "is_disabled": 0, "rental_uris": {"android": "https://dc.lft.to/lastmile_qr_scan", "ios": "https://dc.lft.to/lastmile_qr_scan"}, "fusion_lon": 0.0, "lat": 38.948540333333334, "bike_id": "147af948ffd86a2fb182c49e74097441", "type": "electric_scooter", "is_reserved": 0, "lon": -77.02567566666667}, {"fusion_lat": 0.0, "name": "cea4a5b5a3d69d0dd38b57aed3f41855", "is_disabled": 0, "rental_uris": {"android": "https://dc.lft.to/lastmile_qr_scan", "ios": "https://dc.lft.to/lastmile_qr_scan"}, "fusion_lon": 0.0, "lat": 38.94275833333333, "bike_id": "cea4a5b5a3d69d0dd38b57aed3f41855", "type": "electric_scooter", "is_reserved": 0, "lon": -77.0325485}, {"fusion_lat": 0.0, "name": "aa04b06b0aba0e975f1974cbdae5932c", "is_disabled": 0, "rental_uris": {"android": "https://dc.lft.to/lastmile_qr_scan", "ios": "https://dc.lft.to/lastmile_qr_scan"}, "fusion_lon": 0.0, "lat": 38.90031483333333, "bike_id": "aa04b06b0aba0e975f1974cbdae5932c", "type": "electric_scooter", "is_reserved": 0, "lon": -77.00215216666666}, {"fusion_lat": 0.0, "name": "508efa9e8dc4381332f1d438a2571621", "is_disabled": 0, "rental_uris": {"android": "https://dc.lft.to/lastmile_qr_scan", "ios": "https://dc.lft.to/lastmile_qr_scan"}, "fusion_lon": 0.0, "lat": 38.915530333333336, "bike_id": "508efa9e8dc4381332f1d438a2571621", "type": "electric_scooter", "is_reserved": 0, "lon": -77.01131183333334}, {"fusion_lat": 0.0, "name": "3543527fd53c88222c72ad8645b6a4fd", "is_disabled": 0, "rental_uris": {"android": "https://dc.lft.to/lastmile_qr_scan", "ios": "https://dc.lft.to/lastmile_qr_scan"}, "fusion_lon": 0.0, "lat": 38.903649, "bike_id": "3543527fd53c88222c72ad8645b6a4fd", "type": "electric_scooter", "is_reserved": 0, "lon": -77.054862}, {"fusion_lat": 0.0, "name": "7f9a520ff1ef61f76dc79c6b49a35678", "is_disabled": 0, "rental_uris": {"android": "https://dc.lft.to/lastmile_qr_scan", "ios": "https://dc.lft.to/lastmile_qr_scan"}, "fusion_lon": 0.0, "lat": 38.9401235, "bike_id": "7f9a520ff1ef61f76dc79c6b49a35678", "type": "electric_scooter", "is_reserved": 0, "lon": -77.084171}, {"fusion_lat": 0.0, "name": "eb2413db8f6fd7aac4357b64ed037a41", "is_disabled": 0, "rental_uris": {"android": "https://dc.lft.to/lastmile_qr_scan", "ios": "https://dc.lft.to/lastmile_qr_scan"}, "fusion_lon": 0.0, "lat": 38.88679416666667, "bike_id": "eb2413db8f6fd7aac4357b64ed037a41", "type": "electric_scooter", "is_reserved": 0, "lon": -77.01369733333334}, {"fusion_lat": 0.0, "name": "a94cd66bcf152bfbae69cb4abc853394", "is_disabled": 0, "rental_uris": {"android": "https://dc.lft.to/lastmile_qr_scan", "ios": "https://dc.lft.to/lastmile_qr_scan"}, "fusion_lon": 0.0, "lat": 38.9077205, "bike_id": "a94cd66bcf152bfbae69cb4abc853394", "type": "electric_scooter", "is_reserved": 0, "lon": -77.05595183333334}, {"fusion_lat": 0.0, "name": "517748f98a4c11f0d28de44365f3b554", "is_disabled": 0, "rental_uris": {"android": "https://dc.lft.to/lastmile_qr_scan", "ios": "https://dc.lft.to/lastmile_qr_scan"}, "fusion_lon": 0.0, "lat": 38.89668366666667, "bike_id": "517748f98a4c11f0d28de44365f3b554", "type": "electric_scooter", "is_reserved": 0, "lon": -77.03347283333333}, {"fusion_lat": 0.0, "name": "71c62cfd645ccb635f43dfcae774330b", "is_disabled": 0, "rental_uris": {"android": "https://dc.lft.to/lastmile_qr_scan", "ios": "https://dc.lft.to/lastmile_qr_scan"}, "fusion_lon": 0.0, "lat": 38.8351455, "bike_id": "71c62cfd645ccb635f43dfcae774330b", "type": "electric_bike", "is_reserved": 0, "lon": -76.98673966666667}, {"fusion_lat": 0.0, "name": "f12396abf605a4a6ecef52ced583a480", "is_disabled": 0, "rental_uris": {"android": "https://dc.lft.to/lastmile_qr_scan", "ios": "https://dc.lft.to/lastmile_qr_scan"}, "fusion_lon": 0.0, "lat": 38.900287, "bike_id": "f12396abf605a4a6ecef52ced583a480", "type": "electric_scooter", "is_reserved": 0, "lon": -76.994782}, {"fusion_lat": 0.0, "name": "df2aee16b127ff26cb8fef777e86d055", "is_disabled": 0, "rental_uris": {"android": "https://dc.lft.to/lastmile_qr_scan", "ios": "https://dc.lft.to/lastmile_qr_scan"}, "fusion_lon": 0.0, "lat": 38.917074, "bike_id": "df2aee16b127ff26cb8fef777e86d055", "type": "electric_scooter", "is_reserved": 0, "lon": -77.0322435}, {"fusion_lat": 0.0, "name": "d0cc2e1a8fb3a31b7369b4c7ba65e39c", "is_disabled": 0, "rental_uris": {"android": "https://dc.lft.to/lastmile_qr_scan", "ios": "https://dc.lft.to/lastmile_qr_scan"}, "fusion_lon": 0.0, "lat": 38.915256166666666, "bike_id": "d0cc2e1a8fb3a31b7369b4c7ba65e39c", "type": "electric_scooter", "is_reserved": 0, "lon": -77.01323233333333}, {"fusion_lat": 0.0, "name": "bb32762045cb250fb189529ec7b71436", "is_disabled": 0, "rental_uris": {"android": "https://dc.lft.to/lastmile_qr_scan", "ios": "https://dc.lft.to/lastmile_qr_scan"}, "fusion_lon": 0.0, "lat": 38.924269, "bike_id": "bb32762045cb250fb189529ec7b71436", "type": "electric_bike", "is_reserved": 0, "lon": -77.05046816666666}, {"fusion_lat": 0.0, "name": "3d08ce4e4935b474c09d1f7d690f9f6d", "is_disabled": 0, "rental_uris": {"android": "https://dc.lft.to/lastmile_qr_scan", "ios": "https://dc.lft.to/lastmile_qr_scan"}, "fusion_lon": 0.0, "lat": 38.88508916666667, "bike_id": "3d08ce4e4935b474c09d1f7d690f9f6d", "type": "electric_scooter", "is_reserved": 0, "lon": -77.00067366666667}, {"fusion_lat": 0.0, "name": "8087db6f2ffa0061c330aca92b8d336b", "is_disabled": 0, "rental_uris": {"android": "https://dc.lft.to/lastmile_qr_scan", "ios": "https://dc.lft.to/lastmile_qr_scan"}, "fusion_lon": 0.0, "lat": 38.99232033333333, "bike_id": "8087db6f2ffa0061c330aca92b8d336b", "type": "electric_bike", "is_reserved": 0, "lon": -76.94437283333333}, {"fusion_lat": 0.0, "name": "d70ca2059eada4b84fe109f77d2f0d00", "is_disabled": 0, "rental_uris": {"android": "https://dc.lft.to/lastmile_qr_scan", "ios": "https://dc.lft.to/lastmile_qr_scan"}, "fusion_lon": 0.0, "lat": 38.93539833333333, "bike_id": "d70ca2059eada4b84fe109f77d2f0d00", "type": "electric_scooter", "is_reserved": 0, "lon": -77.02351483333334}, {"fusion_lat": 0.0, "name": "b262c1805871ff51b677960dff2ab4ba", "is_disabled": 0, "rental_uris": {"android": "https://dc.lft.to/lastmile_qr_scan", "ios": "https://dc.lft.to/lastmile_qr_scan"}, "fusion_lon": 0.0, "lat": 38.92125166666667, "bike_id": "b262c1805871ff51b677960dff2ab4ba", "type": "electric_scooter", "is_reserved": 0, "lon": -77.02085333333333}, {"fusion_lat": 0.0, "name": "ccfd1132d5f7f71d024a85bf7e18de9c", "is_disabled": 0, "rental_uris": {"android": "https://dc.lft.to/lastmile_qr_scan", "ios": "https://dc.lft.to/lastmile_qr_scan"}, "fusion_lon": 0.0, "lat": 38.927441, "bike_id": "ccfd1132d5f7f71d024a85bf7e18de9c", "type": "electric_bike", "is_reserved": 0, "lon": -77.02496883333333}, {"fusion_lat": 0.0, "name": "f2a193b9b4aeeadfab128cf1adaceb3b", "is_disabled": 0, "rental_uris": {"android": "https://dc.lft.to/lastmile_qr_scan", "ios": "https://dc.lft.to/lastmile_qr_scan"}, "fusion_lon": 0.0, "lat": 38.855089166666666, "bike_id": "f2a193b9b4aeeadfab128cf1adaceb3b", "type": "electric_scooter", "is_reserved": 0, "lon": -76.96537433333333}, {"fusion_lat": 0.0, "name": "72e8b8a174d0bc2e6e3f8f186520ce38", "is_disabled": 0, "rental_uris": {"android": "https://dc.lft.to/lastmile_qr_scan", "ios": "https://dc.lft.to/lastmile_qr_scan"}, "fusion_lon": 0.0, "lat": 38.95312783333333, "bike_id": "72e8b8a174d0bc2e6e3f8f186520ce38", "type": "electric_scooter", "is_reserved": 0, "lon": -77.02248533333334}, {"fusion_lat": 0.0, "name": "13816807ce98464a8149644e916f5cc3", "is_disabled": 0, "rental_uris": {"android": "https://dc.lft.to/lastmile_qr_scan", "ios": "https://dc.lft.to/lastmile_qr_scan"}, "fusion_lon": 0.0, "lat": 38.930233333333334, "bike_id": "13816807ce98464a8149644e916f5cc3", "type": "electric_scooter", "is_reserved": 0, "lon": -77.037901}, {"fusion_lat": 0.0, "name": "b6f322816fc578876e544e49a58cc519", "is_disabled": 0, "rental_uris": {"android": "https://dc.lft.to/lastmile_qr_scan", "ios": "https://dc.lft.to/lastmile_qr_scan"}, "fusion_lon": 0.0, "lat": 38.909553, "bike_id": "b6f322816fc578876e544e49a58cc519", "type": "electric_scooter", "is_reserved": 0, "lon": -77.0486655}, {"fusion_lat": 0.0, "name": "1cc1e4e143a84e34c391b9446b0e31ef", "is_disabled": 0, "rental_uris": {"android": "https://dc.lft.to/lastmile_qr_scan", "ios": "https://dc.lft.to/lastmile_qr_scan"}, "fusion_lon": 0.0, "lat": 38.96630316666667, "bike_id": "1cc1e4e143a84e34c391b9446b0e31ef", "type": "electric_scooter", "is_reserved": 0, "lon": -77.01997966666667}, {"fusion_lat": 0.0, "name": "ce3de292f0db93c43598dacf7f267ad8", "is_disabled": 0, "rental_uris": {"android": "https://dc.lft.to/lastmile_qr_scan", "ios": "https://dc.lft.to/lastmile_qr_scan"}, "fusion_lon": 0.0, "lat": 38.897380166666665, "bike_id": "ce3de292f0db93c43598dacf7f267ad8", "type": "electric_scooter", "is_reserved": 0, "lon": -77.00756633333333}, {"fusion_lat": 0.0, "name": "9de6549e185b445794b0db60bc527379", "is_disabled": 0, "rental_uris": {"android": "https://dc.lft.to/lastmile_qr_scan", "ios": "https://dc.lft.to/lastmile_qr_scan"}, "fusion_lon": 0.0, "lat": 38.896919, "bike_id": "9de6549e185b445794b0db60bc527379", "type": "electric_scooter", "is_reserved": 0, "lon": -77.0434465}, {"fusion_lat": 0.0, "name": "7654813cae3cc97e078f6f20f89aca03", "is_disabled": 0, "rental_uris": {"android": "https://dc.lft.to/lastmile_qr_scan", "ios": "https://dc.lft.to/lastmile_qr_scan"}, "fusion_lon": 0.0, "lat": 38.88132566666667, "bike_id": "7654813cae3cc97e078f6f20f89aca03", "type": "electric_scooter", "is_reserved": 0, "lon": -77.01646166666667}, {"fusion_lat": 0.0, "name": "3bc7cc9d04c576b73f530dea70194683", "is_disabled": 0, "rental_uris": {"android": "https://dc.lft.to/lastmile_qr_scan", "ios": "https://dc.lft.to/lastmile_qr_scan"}, "fusion_lon": 0.0, "lat": 38.90033233333333, "bike_id": "3bc7cc9d04c576b73f530dea70194683", "type": "electric_scooter", "is_reserved": 0, "lon": -76.98856116666667}, {"fusion_lat": 0.0, "name": "db26b36b1ed004808269857bdab71c78", "is_disabled": 0, "rental_uris": {"android": "https://dc.lft.to/lastmile_qr_scan", "ios": "https://dc.lft.to/lastmile_qr_scan"}, "fusion_lon": 0.0, "lat": 38.92075783333333, "bike_id": "db26b36b1ed004808269857bdab71c78", "type": "electric_scooter", "is_reserved": 0, "lon": -77.004428}, {"fusion_lat": 0.0, "name": "33c00106b5b6bcf6c78d0094afdc2e47", "is_disabled": 0, "rental_uris": {"android": "https://dc.lft.to/lastmile_qr_scan", "ios": "https://dc.lft.to/lastmile_qr_scan"}, "fusion_lon": 0.0, "lat": 38.93385766666667, "bike_id": "33c00106b5b6bcf6c78d0094afdc2e47", "type": "electric_scooter", "is_reserved": 0, "lon": -77.03881316666667}, {"fusion_lat": 0.0, "name": "5f07863a20d6b0316007e78451e277f5", "is_disabled": 0, "rental_uris": {"android": "https://dc.lft.to/lastmile_qr_scan", "ios": "https://dc.lft.to/lastmile_qr_scan"}, "fusion_lon": 0.0, "lat": 38.91614516666667, "bike_id": "5f07863a20d6b0316007e78451e277f5", "type": "electric_scooter", "is_reserved": 0, "lon": -77.0363695}, {"fusion_lat": 0.0, "name": "ad555e2a94c4abce8bfe237a3c8e3f1a", "is_disabled": 0, "rental_uris": {"android": "https://dc.lft.to/lastmile_qr_scan", "ios": "https://dc.lft.to/lastmile_qr_scan"}, "fusion_lon": 0.0, "lat": 38.87484583333333, "bike_id": "ad555e2a94c4abce8bfe237a3c8e3f1a", "type": "electric_scooter", "is_reserved": 0, "lon": -77.00063666666667}, {"fusion_lat": 0.0, "name": "25332da4d3412b350cd38b6ad0879cda", "is_disabled": 0, "rental_uris": {"android": "https://dc.lft.to/lastmile_qr_scan", "ios": "https://dc.lft.to/lastmile_qr_scan"}, "fusion_lon": 0.0, "lat": 38.90397733333333, "bike_id": "25332da4d3412b350cd38b6ad0879cda", "type": "electric_scooter", "is_reserved": 0, "lon": -77.04608183333333}, {"fusion_lat": 0.0, "name": "705dfbc7ebba73a109f21b633a4217f2", "is_disabled": 0, "rental_uris": {"android": "https://dc.lft.to/lastmile_qr_scan", "ios": "https://dc.lft.to/lastmile_qr_scan"}, "fusion_lon": 0.0, "lat": 38.919669, "bike_id": "705dfbc7ebba73a109f21b633a4217f2", "type": "electric_scooter", "is_reserved": 0, "lon": -77.03197483333334}, {"fusion_lat": 0.0, "name": "6847480a0e566df72238caaea58006ac", "is_disabled": 0, "rental_uris": {"android": "https://dc.lft.to/lastmile_qr_scan", "ios": "https://dc.lft.to/lastmile_qr_scan"}, "fusion_lon": 0.0, "lat": 38.895296, "bike_id": "6847480a0e566df72238caaea58006ac", "type": "electric_scooter", "is_reserved": 0, "lon": -76.93412483333333}, {"fusion_lat": 0.0, "name": "15caaab867bd8ad2fb5aa670d8717447", "is_disabled": 0, "rental_uris": {"android": "https://dc.lft.to/lastmile_qr_scan", "ios": "https://dc.lft.to/lastmile_qr_scan"}, "fusion_lon": 0.0, "lat": 38.92810016666667, "bike_id": "15caaab867bd8ad2fb5aa670d8717447", "type": "electric_scooter", "is_reserved": 0, "lon": -77.01389466666667}, {"fusion_lat": 0.0, "name": "31507ebcf03e1575941f375f0fc22ca4", "is_disabled": 0, "rental_uris": {"android": "https://dc.lft.to/lastmile_qr_scan", "ios": "https://dc.lft.to/lastmile_qr_scan"}, "fusion_lon": 0.0, "lat": 38.9073605, "bike_id": "31507ebcf03e1575941f375f0fc22ca4", "type": "electric_scooter", "is_reserved": 0, "lon": -77.04734766666667}, {"fusion_lat": 0.0, "name": "68e3edc470397f752c993dd1d158ac74", "is_disabled": 0, "rental_uris": {"android": "https://dc.lft.to/lastmile_qr_scan", "ios": "https://dc.lft.to/lastmile_qr_scan"}, "fusion_lon": 0.0, "lat": 38.90971416666667, "bike_id": "68e3edc470397f752c993dd1d158ac74", "type": "electric_scooter", "is_reserved": 0, "lon": -77.03441766666667}, {"fusion_lat": 0.0, "name": "659b77155caf908e09ef1b35f7e6a11d", "is_disabled": 0, "rental_uris": {"android": "https://dc.lft.to/lastmile_qr_scan", "ios": "https://dc.lft.to/lastmile_qr_scan"}, "fusion_lon": 0.0, "lat": 38.908644833333334, "bike_id": "659b77155caf908e09ef1b35f7e6a11d", "type": "electric_scooter", "is_reserved": 0, "lon": -77.02352516666667}, {"fusion_lat": 0.0, "name": "3c0bfca3ff171465176f9e90fedae249", "is_disabled": 0, "rental_uris": {"android": "https://dc.lft.to/lastmile_qr_scan", "ios": "https://dc.lft.to/lastmile_qr_scan"}, "fusion_lon": 0.0, "lat": 38.922944, "bike_id": "3c0bfca3ff171465176f9e90fedae249", "type": "electric_scooter", "is_reserved": 0, "lon": -77.0252395}, {"fusion_lat": 0.0, "name": "19606877696e309e8a2147bcfe640eeb", "is_disabled": 0, "rental_uris": {"android": "https://dc.lft.to/lastmile_qr_scan", "ios": "https://dc.lft.to/lastmile_qr_scan"}, "fusion_lon": 0.0, "lat": 38.919309, "bike_id": "19606877696e309e8a2147bcfe640eeb", "type": "electric_scooter", "is_reserved": 0, "lon": -77.032646}, {"fusion_lat": 0.0, "name": "f90732cf3b291f2d25d778f68767f20f", "is_disabled": 0, "rental_uris": {"android": "https://dc.lft.to/lastmile_qr_scan", "ios": "https://dc.lft.to/lastmile_qr_scan"}, "fusion_lon": 0.0, "lat": 38.87905416666667, "bike_id": "f90732cf3b291f2d25d778f68767f20f", "type": "electric_scooter", "is_reserved": 0, "lon": -77.01359083333334}, {"fusion_lat": 0.0, "name": "c3115c217d1be259438503e08bde82d4", "is_disabled": 0, "rental_uris": {"android": "https://dc.lft.to/lastmile_qr_scan", "ios": "https://dc.lft.to/lastmile_qr_scan"}, "fusion_lon": 0.0, "lat": 38.912687166666664, "bike_id": "c3115c217d1be259438503e08bde82d4", "type": "electric_scooter", "is_reserved": 0, "lon": -77.02255316666667}, {"fusion_lat": 0.0, "name": "583b818a50118626cc7eeef992c79220", "is_disabled": 0, "rental_uris": {"android": "https://dc.lft.to/lastmile_qr_scan", "ios": "https://dc.lft.to/lastmile_qr_scan"}, "fusion_lon": 0.0, "lat": 38.91937633333333, "bike_id": "583b818a50118626cc7eeef992c79220", "type": "electric_scooter", "is_reserved": 0, "lon": -77.07069466666667}, {"fusion_lat": 0.0, "name": "44129ef753bb20147b869366d20bfa20", "is_disabled": 0, "rental_uris": {"android": "https://dc.lft.to/lastmile_qr_scan", "ios": "https://dc.lft.to/lastmile_qr_scan"}, "fusion_lon": 0.0, "lat": 38.903896333333336, "bike_id": "44129ef753bb20147b869366d20bfa20", "type": "electric_scooter", "is_reserved": 0, "lon": -77.04500483333334}, {"fusion_lat": 0.0, "name": "aa0b60f04a1e9e79516800250fefc5e4", "is_disabled": 0, "rental_uris": {"android": "https://dc.lft.to/lastmile_qr_scan", "ios": "https://dc.lft.to/lastmile_qr_scan"}, "fusion_lon": 0.0, "lat": 38.90485416666667, "bike_id": "aa0b60f04a1e9e79516800250fefc5e4", "type": "electric_scooter", "is_reserved": 0, "lon": -77.056822}, {"fusion_lat": 0.0, "name": "b31f97df3d3c49bd360d976e16073cf8", "is_disabled": 0, "rental_uris": {"android": "https://dc.lft.to/lastmile_qr_scan", "ios": "https://dc.lft.to/lastmile_qr_scan"}, "fusion_lon": 0.0, "lat": 38.882965666666664, "bike_id": "b31f97df3d3c49bd360d976e16073cf8", "type": "electric_scooter", "is_reserved": 0, "lon": -77.01384766666666}, {"fusion_lat": 0.0, "name": "1017faa8b1eefc6d6fd2d7c92e806b01", "is_disabled": 0, "rental_uris": {"android": "https://dc.lft.to/lastmile_qr_scan", "ios": "https://dc.lft.to/lastmile_qr_scan"}, "fusion_lon": 0.0, "lat": 38.922208166666664, "bike_id": "1017faa8b1eefc6d6fd2d7c92e806b01", "type": "electric_scooter", "is_reserved": 0, "lon": -77.03530783333333}, {"fusion_lat": 0.0, "name": "4ebe9d00ad8c80c3edeceaf1cb2647c4", "is_disabled": 0, "rental_uris": {"android": "https://dc.lft.to/lastmile_qr_scan", "ios": "https://dc.lft.to/lastmile_qr_scan"}, "fusion_lon": 0.0, "lat": 38.8973105, "bike_id": "4ebe9d00ad8c80c3edeceaf1cb2647c4", "type": "electric_scooter", "is_reserved": 0, "lon": -77.0216195}, {"fusion_lat": 0.0, "name": "f5742bab16eef8403dd8d88472394be1", "is_disabled": 0, "rental_uris": {"android": "https://dc.lft.to/lastmile_qr_scan", "ios": "https://dc.lft.to/lastmile_qr_scan"}, "fusion_lon": 0.0, "lat": 38.883902166666665, "bike_id": "f5742bab16eef8403dd8d88472394be1", "type": "electric_scooter", "is_reserved": 0, "lon": -76.930489}, {"fusion_lat": 0.0, "name": "a36119e3486fb35b19c6fefd94ab69e3", "is_disabled": 0, "rental_uris": {"android": "https://dc.lft.to/lastmile_qr_scan", "ios": "https://dc.lft.to/lastmile_qr_scan"}, "fusion_lon": 0.0, "lat": 38.90735016666667, "bike_id": "a36119e3486fb35b19c6fefd94ab69e3", "type": "electric_scooter", "is_reserved": 0, "lon": -77.034516}, {"fusion_lat": 0.0, "name": "2bf28834edd88e2c3bdfdd080357fb76", "is_disabled": 0, "rental_uris": {"android": "https://dc.lft.to/lastmile_qr_scan", "ios": "https://dc.lft.to/lastmile_qr_scan"}, "fusion_lon": 0.0, "lat": 38.90983966666667, "bike_id": "2bf28834edd88e2c3bdfdd080357fb76", "type": "electric_scooter", "is_reserved": 0, "lon": -77.05476133333333}, {"fusion_lat": 0.0, "name": "99306a75dea39ec0251a1223c4fb7fd6", "is_disabled": 0, "rental_uris": {"android": "https://dc.lft.to/lastmile_qr_scan", "ios": "https://dc.lft.to/lastmile_qr_scan"}, "fusion_lon": 0.0, "lat": 38.90383633333333, "bike_id": "99306a75dea39ec0251a1223c4fb7fd6", "type": "electric_scooter", "is_reserved": 0, "lon": -77.06723433333333}, {"fusion_lat": 0.0, "name": "84aafb1b332e8e9e83e9a6cea434aa65", "is_disabled": 0, "rental_uris": {"android": "https://dc.lft.to/lastmile_qr_scan", "ios": "https://dc.lft.to/lastmile_qr_scan"}, "fusion_lon": 0.0, "lat": 38.90314983333333, "bike_id": "84aafb1b332e8e9e83e9a6cea434aa65", "type": "electric_scooter", "is_reserved": 0, "lon": -77.05335516666666}, {"fusion_lat": 0.0, "name": "b3ce0ed0fdec6a40468867bcaceb8b56", "is_disabled": 0, "rental_uris": {"android": "https://dc.lft.to/lastmile_qr_scan", "ios": "https://dc.lft.to/lastmile_qr_scan"}, "fusion_lon": 0.0, "lat": 38.907382, "bike_id": "b3ce0ed0fdec6a40468867bcaceb8b56", "type": "electric_scooter", "is_reserved": 0, "lon": -76.99830316666667}, {"fusion_lat": 0.0, "name": "84401740da58468a502e62911224429a", "is_disabled": 0, "rental_uris": {"android": "https://dc.lft.to/lastmile_qr_scan", "ios": "https://dc.lft.to/lastmile_qr_scan"}, "fusion_lon": 0.0, "lat": 38.99519216666667, "bike_id": "84401740da58468a502e62911224429a", "type": "electric_bike", "is_reserved": 0, "lon": -77.02908666666667}, {"fusion_lat": 0.0, "name": "98b77e6c8fe65700329e6dd9bf6d248a", "is_disabled": 0, "rental_uris": {"android": "https://dc.lft.to/lastmile_qr_scan", "ios": "https://dc.lft.to/lastmile_qr_scan"}, "fusion_lon": 0.0, "lat": 38.90290983333333, "bike_id": "98b77e6c8fe65700329e6dd9bf6d248a", "type": "electric_scooter", "is_reserved": 0, "lon": -76.99036616666666}, {"fusion_lat": 0.0, "name": "a95234847bad6079ccbaf2f1ec684513", "is_disabled": 0, "rental_uris": {"android": "https://dc.lft.to/lastmile_qr_scan", "ios": "https://dc.lft.to/lastmile_qr_scan"}, "fusion_lon": 0.0, "lat": 38.91806166666667, "bike_id": "a95234847bad6079ccbaf2f1ec684513", "type": "electric_scooter", "is_reserved": 0, "lon": -77.03443666666666}, {"fusion_lat": 0.0, "name": "4369e9475ad5abddaa7d27e3570a1420", "is_disabled": 0, "rental_uris": {"android": "https://dc.lft.to/lastmile_qr_scan", "ios": "https://dc.lft.to/lastmile_qr_scan"}, "fusion_lon": 0.0, "lat": 38.9229555, "bike_id": "4369e9475ad5abddaa7d27e3570a1420", "type": "electric_scooter", "is_reserved": 0, "lon": -77.072981}, {"fusion_lat": 0.0, "name": "22d034d6674529be268358af6af32e44", "is_disabled": 0, "rental_uris": {"android": "https://dc.lft.to/lastmile_qr_scan", "ios": "https://dc.lft.to/lastmile_qr_scan"}, "fusion_lon": 0.0, "lat": 38.91704883333333, "bike_id": "22d034d6674529be268358af6af32e44", "type": "electric_scooter", "is_reserved": 0, "lon": -77.03223183333333}, {"fusion_lat": 0.0, "name": "135363ace8aa0c8739b01d67bf04e1ad", "is_disabled": 0, "rental_uris": {"android": "https://dc.lft.to/lastmile_qr_scan", "ios": "https://dc.lft.to/lastmile_qr_scan"}, "fusion_lon": 0.0, "lat": 38.89855083333333, "bike_id": "135363ace8aa0c8739b01d67bf04e1ad", "type": "electric_scooter", "is_reserved": 0, "lon": -76.99034316666666}, {"fusion_lat": 0.0, "name": "5f92cc10a3224562b052d5a74d517b55", "is_disabled": 0, "rental_uris": {"android": "https://dc.lft.to/lastmile_qr_scan", "ios": "https://dc.lft.to/lastmile_qr_scan"}, "fusion_lon": 0.0, "lat": 38.91363183333333, "bike_id": "5f92cc10a3224562b052d5a74d517b55", "type": "electric_scooter", "is_reserved": 0, "lon": -77.0459085}, {"fusion_lat": 0.0, "name": "30cd010acc813514b2eebb2b5f4756ae", "is_disabled": 0, "rental_uris": {"android": "https://dc.lft.to/lastmile_qr_scan", "ios": "https://dc.lft.to/lastmile_qr_scan"}, "fusion_lon": 0.0, "lat": 38.887475333333335, "bike_id": "30cd010acc813514b2eebb2b5f4756ae", "type": "electric_scooter", "is_reserved": 0, "lon": -77.03158666666667}, {"fusion_lat": 0.0, "name": "1d20e9999662ee8269f6d71efbd4adbc", "is_disabled": 0, "rental_uris": {"android": "https://dc.lft.to/lastmile_qr_scan", "ios": "https://dc.lft.to/lastmile_qr_scan"}, "fusion_lon": 0.0, "lat": 39.0525735, "bike_id": "1d20e9999662ee8269f6d71efbd4adbc", "type": "electric_bike", "is_reserved": 0, "lon": -77.080655}, {"fusion_lat": 0.0, "name": "ee98ac296125ac6116dcba67d82c3ca2", "is_disabled": 0, "rental_uris": {"android": "https://dc.lft.to/lastmile_qr_scan", "ios": "https://dc.lft.to/lastmile_qr_scan"}, "fusion_lon": 0.0, "lat": 38.84757366666667, "bike_id": "ee98ac296125ac6116dcba67d82c3ca2", "type": "electric_scooter", "is_reserved": 0, "lon": -76.99499616666667}, {"fusion_lat": 0.0, "name": "66375c785c7b07f5adda3a1c833533a2", "is_disabled": 0, "rental_uris": {"android": "https://dc.lft.to/lastmile_qr_scan", "ios": "https://dc.lft.to/lastmile_qr_scan"}, "fusion_lon": 0.0, "lat": 38.89876066666667, "bike_id": "66375c785c7b07f5adda3a1c833533a2", "type": "electric_scooter", "is_reserved": 0, "lon": -76.9318575}, {"fusion_lat": 0.0, "name": "7e66906e60a2bd6219cf95738f58d703", "is_disabled": 0, "rental_uris": {"android": "https://dc.lft.to/lastmile_qr_scan", "ios": "https://dc.lft.to/lastmile_qr_scan"}, "fusion_lon": 0.0, "lat": 38.90247266666667, "bike_id": "7e66906e60a2bd6219cf95738f58d703", "type": "electric_scooter", "is_reserved": 0, "lon": -77.00772083333334}, {"fusion_lat": 0.0, "name": "7bb08f586b17f1ae9bc67a516a22d8f2", "is_disabled": 0, "rental_uris": {"android": "https://dc.lft.to/lastmile_qr_scan", "ios": "https://dc.lft.to/lastmile_qr_scan"}, "fusion_lon": 0.0, "lat": 38.93374716666667, "bike_id": "7bb08f586b17f1ae9bc67a516a22d8f2", "type": "electric_scooter", "is_reserved": 0, "lon": -77.02421466666667}, {"fusion_lat": 0.0, "name": "180d6b3961426db81080a2393f0f86c5", "is_disabled": 0, "rental_uris": {"android": "https://dc.lft.to/lastmile_qr_scan", "ios": "https://dc.lft.to/lastmile_qr_scan"}, "fusion_lon": 0.0, "lat": 38.90809983333333, "bike_id": "180d6b3961426db81080a2393f0f86c5", "type": "electric_scooter", "is_reserved": 0, "lon": -77.03436366666666}, {"fusion_lat": 0.0, "name": "b43cf4652133ce18aa3e8ff135fd0451", "is_disabled": 0, "rental_uris": {"android": "https://dc.lft.to/lastmile_qr_scan", "ios": "https://dc.lft.to/lastmile_qr_scan"}, "fusion_lon": 0.0, "lat": 38.8972195, "bike_id": "b43cf4652133ce18aa3e8ff135fd0451", "type": "electric_scooter", "is_reserved": 0, "lon": -77.02717833333334}, {"fusion_lat": 0.0, "name": "a953ed5e0068928f0b427b90dbd4ca0b", "is_disabled": 0, "rental_uris": {"android": "https://dc.lft.to/lastmile_qr_scan", "ios": "https://dc.lft.to/lastmile_qr_scan"}, "fusion_lon": 0.0, "lat": 38.8922165, "bike_id": "a953ed5e0068928f0b427b90dbd4ca0b", "type": "electric_scooter", "is_reserved": 0, "lon": -77.0277885}, {"fusion_lat": 0.0, "name": "1e88841c04ba2266a306192914d593c3", "is_disabled": 0, "rental_uris": {"android": "https://dc.lft.to/lastmile_qr_scan", "ios": "https://dc.lft.to/lastmile_qr_scan"}, "fusion_lon": 0.0, "lat": 38.935244, "bike_id": "1e88841c04ba2266a306192914d593c3", "type": "electric_scooter", "is_reserved": 0, "lon": -77.07259633333334}, {"fusion_lat": 0.0, "name": "7439d39037f72b8f7ecbea06da989a39", "is_disabled": 0, "rental_uris": {"android": "https://dc.lft.to/lastmile_qr_scan", "ios": "https://dc.lft.to/lastmile_qr_scan"}, "fusion_lon": 0.0, "lat": 38.915656, "bike_id": "7439d39037f72b8f7ecbea06da989a39", "type": "electric_scooter", "is_reserved": 0, "lon": -77.03855966666667}, {"fusion_lat": 0.0, "name": "d6c4a0d813ec24028b1d743c2e46c204", "is_disabled": 0, "rental_uris": {"android": "https://dc.lft.to/lastmile_qr_scan", "ios": "https://dc.lft.to/lastmile_qr_scan"}, "fusion_lon": 0.0, "lat": 38.89444683333333, "bike_id": "d6c4a0d813ec24028b1d743c2e46c204", "type": "electric_scooter", "is_reserved": 0, "lon": -76.9367985}, {"fusion_lat": 0.0, "name": "4b4c0cc82674955c4ad05f65bf46169e", "is_disabled": 0, "rental_uris": {"android": "https://dc.lft.to/lastmile_qr_scan", "ios": "https://dc.lft.to/lastmile_qr_scan"}, "fusion_lon": 0.0, "lat": 38.915681666666664, "bike_id": "4b4c0cc82674955c4ad05f65bf46169e", "type": "electric_scooter", "is_reserved": 0, "lon": -77.0385325}, {"fusion_lat": 0.0, "name": "1281138bdec1f4e98a1264a7d3bcfdfb", "is_disabled": 0, "rental_uris": {"android": "https://dc.lft.to/lastmile_qr_scan", "ios": "https://dc.lft.to/lastmile_qr_scan"}, "fusion_lon": 0.0, "lat": 38.928978666666666, "bike_id": "1281138bdec1f4e98a1264a7d3bcfdfb", "type": "electric_bike", "is_reserved": 0, "lon": -77.23177516666667}, {"fusion_lat": 0.0, "name": "1f246ff814de76d2be7e78980ad43253", "is_disabled": 0, "rental_uris": {"android": "https://dc.lft.to/lastmile_qr_scan", "ios": "https://dc.lft.to/lastmile_qr_scan"}, "fusion_lon": 0.0, "lat": 38.898869833333336, "bike_id": "1f246ff814de76d2be7e78980ad43253", "type": "electric_scooter", "is_reserved": 0, "lon": -77.01521833333334}, {"fusion_lat": 0.0, "name": "29a3fcd578e6d8bf1bbbc5477a3b3a20", "is_disabled": 0, "rental_uris": {"android": "https://dc.lft.to/lastmile_qr_scan", "ios": "https://dc.lft.to/lastmile_qr_scan"}, "fusion_lon": 0.0, "lat": 38.8922365, "bike_id": "29a3fcd578e6d8bf1bbbc5477a3b3a20", "type": "electric_scooter", "is_reserved": 0, "lon": -77.03143966666667}, {"fusion_lat": 0.0, "name": "7e9b075c5320f6668cb69d21888aaaf9", "is_disabled": 0, "rental_uris": {"android": "https://dc.lft.to/lastmile_qr_scan", "ios": "https://dc.lft.to/lastmile_qr_scan"}, "fusion_lon": 0.0, "lat": 38.938712833333334, "bike_id": "7e9b075c5320f6668cb69d21888aaaf9", "type": "electric_scooter", "is_reserved": 0, "lon": -77.02469683333334}, {"fusion_lat": 0.0, "name": "b08d91745d8254c2346cb44a08a4e754", "is_disabled": 0, "rental_uris": {"android": "https://dc.lft.to/lastmile_qr_scan", "ios": "https://dc.lft.to/lastmile_qr_scan"}, "fusion_lon": 0.0, "lat": 38.925464833333336, "bike_id": "b08d91745d8254c2346cb44a08a4e754", "type": "electric_scooter", "is_reserved": 0, "lon": -77.03833416666667}, {"fusion_lat": 0.0, "name": "95f1bf192a4d5a72a1f7b6c054978675", "is_disabled": 0, "rental_uris": {"android": "https://dc.lft.to/lastmile_qr_scan", "ios": "https://dc.lft.to/lastmile_qr_scan"}, "fusion_lon": 0.0, "lat": 38.952877666666666, "bike_id": "95f1bf192a4d5a72a1f7b6c054978675", "type": "electric_scooter", "is_reserved": 0, "lon": -77.068731}, {"fusion_lat": 0.0, "name": "a401960b9897557c182c1fb56589ea3d", "is_disabled": 0, "rental_uris": {"android": "https://dc.lft.to/lastmile_qr_scan", "ios": "https://dc.lft.to/lastmile_qr_scan"}, "fusion_lon": 0.0, "lat": 38.9009585, "bike_id": "a401960b9897557c182c1fb56589ea3d", "type": "electric_scooter", "is_reserved": 0, "lon": -76.9832945}, {"fusion_lat": 0.0, "name": "a12f7b81edd8fa68067d1864103e3c37", "is_disabled": 0, "rental_uris": {"android": "https://dc.lft.to/lastmile_qr_scan", "ios": "https://dc.lft.to/lastmile_qr_scan"}, "fusion_lon": 0.0, "lat": 38.91040483333333, "bike_id": "a12f7b81edd8fa68067d1864103e3c37", "type": "electric_scooter", "is_reserved": 0, "lon": -77.00831683333334}, {"fusion_lat": 0.0, "name": "9b0d7b594ee56e2b0a1cf0ec8d62350e", "is_disabled": 0, "rental_uris": {"android": "https://dc.lft.to/lastmile_qr_scan", "ios": "https://dc.lft.to/lastmile_qr_scan"}, "fusion_lon": 0.0, "lat": 38.900241666666666, "bike_id": "9b0d7b594ee56e2b0a1cf0ec8d62350e", "type": "electric_scooter", "is_reserved": 0, "lon": -76.9956475}, {"fusion_lat": 0.0, "name": "eec25b291937001086f846034bb47f7e", "is_disabled": 0, "rental_uris": {"android": "https://dc.lft.to/lastmile_qr_scan", "ios": "https://dc.lft.to/lastmile_qr_scan"}, "fusion_lon": 0.0, "lat": 38.931212333333335, "bike_id": "eec25b291937001086f846034bb47f7e", "type": "electric_scooter", "is_reserved": 0, "lon": -77.02983566666667}, {"fusion_lat": 0.0, "name": "fe63b5fd587d2d693f5fb5e1eed2589d", "is_disabled": 0, "rental_uris": {"android": "https://dc.lft.to/lastmile_qr_scan", "ios": "https://dc.lft.to/lastmile_qr_scan"}, "fusion_lon": 0.0, "lat": 38.8450895, "bike_id": "fe63b5fd587d2d693f5fb5e1eed2589d", "type": "electric_bike", "is_reserved": 0, "lon": -76.993515}, {"fusion_lat": 0.0, "name": "8a17346811f47db01fb76995fcd4914d", "is_disabled": 0, "rental_uris": {"android": "https://dc.lft.to/lastmile_qr_scan", "ios": "https://dc.lft.to/lastmile_qr_scan"}, "fusion_lon": 0.0, "lat": 38.9420535, "bike_id": "8a17346811f47db01fb76995fcd4914d", "type": "electric_scooter", "is_reserved": 0, "lon": -77.0258875}, {"fusion_lat": 0.0, "name": "baedda4280d5863ef2d38d94fd9ec47b", "is_disabled": 0, "rental_uris": {"android": "https://dc.lft.to/lastmile_qr_scan", "ios": "https://dc.lft.to/lastmile_qr_scan"}, "fusion_lon": 0.0, "lat": 38.956362166666665, "bike_id": "baedda4280d5863ef2d38d94fd9ec47b", "type": "electric_scooter", "is_reserved": 0, "lon": -77.03308983333334}, {"fusion_lat": 0.0, "name": "32d82aa73dd31b42683c5614653c3122", "is_disabled": 0, "rental_uris": {"android": "https://dc.lft.to/lastmile_qr_scan", "ios": "https://dc.lft.to/lastmile_qr_scan"}, "fusion_lon": 0.0, "lat": 38.9276835, "bike_id": "32d82aa73dd31b42683c5614653c3122", "type": "electric_scooter", "is_reserved": 0, "lon": -77.02878416666667}, {"fusion_lat": 0.0, "name": "ad273f343141c58b23ba541b5622f42c", "is_disabled": 0, "rental_uris": {"android": "https://dc.lft.to/lastmile_qr_scan", "ios": "https://dc.lft.to/lastmile_qr_scan"}, "fusion_lon": 0.0, "lat": 38.892245, "bike_id": "ad273f343141c58b23ba541b5622f42c", "type": "electric_scooter", "is_reserved": 0, "lon": -77.0450435}, {"fusion_lat": 0.0, "name": "812abeb532badc6a1614045d0da3a787", "is_disabled": 0, "rental_uris": {"android": "https://dc.lft.to/lastmile_qr_scan", "ios": "https://dc.lft.to/lastmile_qr_scan"}, "fusion_lon": 0.0, "lat": 38.8633995, "bike_id": "812abeb532badc6a1614045d0da3a787", "type": "electric_bike", "is_reserved": 0, "lon": -76.98723166666667}, {"fusion_lat": 0.0, "name": "d97c81478fa63c30fda4a5ad8743dce6", "is_disabled": 0, "rental_uris": {"android": "https://dc.lft.to/lastmile_qr_scan", "ios": "https://dc.lft.to/lastmile_qr_scan"}, "fusion_lon": 0.0, "lat": 38.897371, "bike_id": "d97c81478fa63c30fda4a5ad8743dce6", "type": "electric_scooter", "is_reserved": 0, "lon": -77.0272295}, {"fusion_lat": 0.0, "name": "7c8f3bb12840240842ef727cbd96983b", "is_disabled": 0, "rental_uris": {"android": "https://dc.lft.to/lastmile_qr_scan", "ios": "https://dc.lft.to/lastmile_qr_scan"}, "fusion_lon": 0.0, "lat": 38.90233416666667, "bike_id": "7c8f3bb12840240842ef727cbd96983b", "type": "electric_scooter", "is_reserved": 0, "lon": -77.04398383333333}, {"fusion_lat": 0.0, "name": "b6b005f69746d386013017e674ae0a45", "is_disabled": 0, "rental_uris": {"android": "https://dc.lft.to/lastmile_qr_scan", "ios": "https://dc.lft.to/lastmile_qr_scan"}, "fusion_lon": 0.0, "lat": 38.92214, "bike_id": "b6b005f69746d386013017e674ae0a45", "type": "electric_scooter", "is_reserved": 0, "lon": -77.01823383333333}, {"fusion_lat": 0.0, "name": "d2cb7dc4c5b0dc08c23d1d0a0ae28ab1", "is_disabled": 0, "rental_uris": {"android": "https://dc.lft.to/lastmile_qr_scan", "ios": "https://dc.lft.to/lastmile_qr_scan"}, "fusion_lon": 0.0, "lat": 38.90397383333333, "bike_id": "d2cb7dc4c5b0dc08c23d1d0a0ae28ab1", "type": "electric_scooter", "is_reserved": 0, "lon": -77.06135783333333}, {"fusion_lat": 0.0, "name": "89fb6728d2ba59211989bb35b2d0f021", "is_disabled": 0, "rental_uris": {"android": "https://dc.lft.to/lastmile_qr_scan", "ios": "https://dc.lft.to/lastmile_qr_scan"}, "fusion_lon": 0.0, "lat": 38.937506166666665, "bike_id": "89fb6728d2ba59211989bb35b2d0f021", "type": "electric_scooter", "is_reserved": 0, "lon": -77.0252715}, {"fusion_lat": 0.0, "name": "6e2bd42f314074fed36048610f06d995", "is_disabled": 0, "rental_uris": {"android": "https://dc.lft.to/lastmile_qr_scan", "ios": "https://dc.lft.to/lastmile_qr_scan"}, "fusion_lon": 0.0, "lat": 38.942656666666664, "bike_id": "6e2bd42f314074fed36048610f06d995", "type": "electric_bike", "is_reserved": 0, "lon": -76.98514933333334}, {"fusion_lat": 0.0, "name": "5f6bb5caa924ced0737afd36abe568b3", "is_disabled": 0, "rental_uris": {"android": "https://dc.lft.to/lastmile_qr_scan", "ios": "https://dc.lft.to/lastmile_qr_scan"}, "fusion_lon": 0.0, "lat": 38.9069555, "bike_id": "5f6bb5caa924ced0737afd36abe568b3", "type": "electric_scooter", "is_reserved": 0, "lon": -77.0359175}, {"fusion_lat": 0.0, "name": "a7b3c1c99b3ca9902c7b9091a45a077b", "is_disabled": 0, "rental_uris": {"android": "https://dc.lft.to/lastmile_qr_scan", "ios": "https://dc.lft.to/lastmile_qr_scan"}, "fusion_lon": 0.0, "lat": 38.90207266666667, "bike_id": "a7b3c1c99b3ca9902c7b9091a45a077b", "type": "electric_scooter", "is_reserved": 0, "lon": -77.02203033333333}, {"fusion_lat": 0.0, "name": "368fa77a04f88867739b4c3713f41e2b", "is_disabled": 0, "rental_uris": {"android": "https://dc.lft.to/lastmile_qr_scan", "ios": "https://dc.lft.to/lastmile_qr_scan"}, "fusion_lon": 0.0, "lat": 38.900671333333335, "bike_id": "368fa77a04f88867739b4c3713f41e2b", "type": "electric_scooter", "is_reserved": 0, "lon": -76.93387716666666}, {"fusion_lat": 0.0, "name": "53837f973e4794786b8d603a3b63283a", "is_disabled": 0, "rental_uris": {"android": "https://dc.lft.to/lastmile_qr_scan", "ios": "https://dc.lft.to/lastmile_qr_scan"}, "fusion_lon": 0.0, "lat": 38.909637833333335, "bike_id": "53837f973e4794786b8d603a3b63283a", "type": "electric_scooter", "is_reserved": 0, "lon": -77.02310316666667}, {"fusion_lat": 0.0, "name": "66b7b9b846f050ecaf775086014eb560", "is_disabled": 0, "rental_uris": {"android": "https://dc.lft.to/lastmile_qr_scan", "ios": "https://dc.lft.to/lastmile_qr_scan"}, "fusion_lon": 0.0, "lat": 38.962045333333336, "bike_id": "66b7b9b846f050ecaf775086014eb560", "type": "electric_scooter", "is_reserved": 0, "lon": -77.02227316666666}, {"fusion_lat": 0.0, "name": "4b54e23927ca943561894a930170017b", "is_disabled": 0, "rental_uris": {"android": "https://dc.lft.to/lastmile_qr_scan", "ios": "https://dc.lft.to/lastmile_qr_scan"}, "fusion_lon": 0.0, "lat": 38.89608966666667, "bike_id": "4b54e23927ca943561894a930170017b", "type": "electric_scooter", "is_reserved": 0, "lon": -77.04978433333333}, {"fusion_lat": 0.0, "name": "9c730bb1dd1a21eabd2dee6505662f7b", "is_disabled": 0, "rental_uris": {"android": "https://dc.lft.to/lastmile_qr_scan", "ios": "https://dc.lft.to/lastmile_qr_scan"}, "fusion_lon": 0.0, "lat": 38.892227166666665, "bike_id": "9c730bb1dd1a21eabd2dee6505662f7b", "type": "electric_scooter", "is_reserved": 0, "lon": -77.02624016666667}, {"fusion_lat": 0.0, "name": "d5600fb390166d91db07e0edd80cf633", "is_disabled": 0, "rental_uris": {"android": "https://dc.lft.to/lastmile_qr_scan", "ios": "https://dc.lft.to/lastmile_qr_scan"}, "fusion_lon": 0.0, "lat": 38.9418605, "bike_id": "d5600fb390166d91db07e0edd80cf633", "type": "electric_scooter", "is_reserved": 0, "lon": -77.02489466666667}, {"fusion_lat": 0.0, "name": "e9f053434b696cf79e22db7576d139f7", "is_disabled": 0, "rental_uris": {"android": "https://dc.lft.to/lastmile_qr_scan", "ios": "https://dc.lft.to/lastmile_qr_scan"}, "fusion_lon": 0.0, "lat": 38.84639933333333, "bike_id": "e9f053434b696cf79e22db7576d139f7", "type": "electric_scooter", "is_reserved": 0, "lon": -76.96921466666667}, {"fusion_lat": 0.0, "name": "4e89182de15b94f47f5dbfbef2cebd9b", "is_disabled": 0, "rental_uris": {"android": "https://dc.lft.to/lastmile_qr_scan", "ios": "https://dc.lft.to/lastmile_qr_scan"}, "fusion_lon": 0.0, "lat": 38.9006995, "bike_id": "4e89182de15b94f47f5dbfbef2cebd9b", "type": "electric_scooter", "is_reserved": 0, "lon": -77.04797116666667}, {"fusion_lat": 0.0, "name": "7bf5ece81e1e91aa35d706c9c02c3de8", "is_disabled": 0, "rental_uris": {"android": "https://dc.lft.to/lastmile_qr_scan", "ios": "https://dc.lft.to/lastmile_qr_scan"}, "fusion_lon": 0.0, "lat": 38.906933, "bike_id": "7bf5ece81e1e91aa35d706c9c02c3de8", "type": "electric_scooter", "is_reserved": 0, "lon": -77.01539266666667}, {"fusion_lat": 0.0, "name": "cad7a3a0e96541576451fbe5f588b30e", "is_disabled": 0, "rental_uris": {"android": "https://dc.lft.to/lastmile_qr_scan", "ios": "https://dc.lft.to/lastmile_qr_scan"}, "fusion_lon": 0.0, "lat": 38.90123616666666, "bike_id": "cad7a3a0e96541576451fbe5f588b30e", "type": "electric_scooter", "is_reserved": 0, "lon": -77.03377616666667}, {"fusion_lat": 0.0, "name": "cf49cfe816da11ad1bfa44069b8aca46", "is_disabled": 0, "rental_uris": {"android": "https://dc.lft.to/lastmile_qr_scan", "ios": "https://dc.lft.to/lastmile_qr_scan"}, "fusion_lon": 0.0, "lat": 38.89567266666667, "bike_id": "cf49cfe816da11ad1bfa44069b8aca46", "type": "electric_bike", "is_reserved": 0, "lon": -77.127391}, {"fusion_lat": 0.0, "name": "f8f0f842b101774a0ef730831056cacf", "is_disabled": 0, "rental_uris": {"android": "https://dc.lft.to/lastmile_qr_scan", "ios": "https://dc.lft.to/lastmile_qr_scan"}, "fusion_lon": 0.0, "lat": 38.89070316666667, "bike_id": "f8f0f842b101774a0ef730831056cacf", "type": "electric_scooter", "is_reserved": 0, "lon": -76.94447366666667}, {"fusion_lat": 0.0, "name": "64c1801ee46abcb5347623841b419213", "is_disabled": 0, "rental_uris": {"android": "https://dc.lft.to/lastmile_qr_scan", "ios": "https://dc.lft.to/lastmile_qr_scan"}, "fusion_lon": 0.0, "lat": 38.9038985, "bike_id": "64c1801ee46abcb5347623841b419213", "type": "electric_scooter", "is_reserved": 0, "lon": -77.0056495}, {"fusion_lat": 0.0, "name": "3c5b4c1faf77a75d49e7b908d9a569a4", "is_disabled": 0, "rental_uris": {"android": "https://dc.lft.to/lastmile_qr_scan", "ios": "https://dc.lft.to/lastmile_qr_scan"}, "fusion_lon": 0.0, "lat": 38.897349166666665, "bike_id": "3c5b4c1faf77a75d49e7b908d9a569a4", "type": "electric_scooter", "is_reserved": 0, "lon": -77.04539183333333}, {"fusion_lat": 0.0, "name": "7f5c655e69abe7ac9270b4f6a00a8204", "is_disabled": 0, "rental_uris": {"android": "https://dc.lft.to/lastmile_qr_scan", "ios": "https://dc.lft.to/lastmile_qr_scan"}, "fusion_lon": 0.0, "lat": 38.936569, "bike_id": "7f5c655e69abe7ac9270b4f6a00a8204", "type": "electric_scooter", "is_reserved": 0, "lon": -77.03686683333333}, {"fusion_lat": 0.0, "name": "726d7470c8fa55e4af794fdc776d1cac", "is_disabled": 0, "rental_uris": {"android": "https://dc.lft.to/lastmile_qr_scan", "ios": "https://dc.lft.to/lastmile_qr_scan"}, "fusion_lon": 0.0, "lat": 38.8806265, "bike_id": "726d7470c8fa55e4af794fdc776d1cac", "type": "electric_scooter", "is_reserved": 0, "lon": -76.98504183333333}, {"fusion_lat": 0.0, "name": "fd6634cbcebc4d86f7b3dcb959f1802d", "is_disabled": 0, "rental_uris": {"android": "https://dc.lft.to/lastmile_qr_scan", "ios": "https://dc.lft.to/lastmile_qr_scan"}, "fusion_lon": 0.0, "lat": 38.966702, "bike_id": "fd6634cbcebc4d86f7b3dcb959f1802d", "type": "electric_scooter", "is_reserved": 0, "lon": -77.025503}, {"fusion_lat": 0.0, "name": "6aa48118f5279c030feedeff0bf7d5de", "is_disabled": 0, "rental_uris": {"android": "https://dc.lft.to/lastmile_qr_scan", "ios": "https://dc.lft.to/lastmile_qr_scan"}, "fusion_lon": 0.0, "lat": 38.922922166666666, "bike_id": "6aa48118f5279c030feedeff0bf7d5de", "type": "electric_scooter", "is_reserved": 0, "lon": -77.03694433333334}, {"fusion_lat": 0.0, "name": "443f93b3354a3dead2e56a0f2fd4eb24", "is_disabled": 0, "rental_uris": {"android": "https://dc.lft.to/lastmile_qr_scan", "ios": "https://dc.lft.to/lastmile_qr_scan"}, "fusion_lon": 0.0, "lat": 38.912671833333334, "bike_id": "443f93b3354a3dead2e56a0f2fd4eb24", "type": "electric_scooter", "is_reserved": 0, "lon": -77.0447025}, {"fusion_lat": 0.0, "name": "ffcf543e2974527ca22e21317b6642b9", "is_disabled": 0, "rental_uris": {"android": "https://dc.lft.to/lastmile_qr_scan", "ios": "https://dc.lft.to/lastmile_qr_scan"}, "fusion_lon": 0.0, "lat": 38.917974, "bike_id": "ffcf543e2974527ca22e21317b6642b9", "type": "electric_scooter", "is_reserved": 0, "lon": -77.00925}, {"fusion_lat": 0.0, "name": "70c3a2ba69fdfe221238538a7531499d", "is_disabled": 0, "rental_uris": {"android": "https://dc.lft.to/lastmile_qr_scan", "ios": "https://dc.lft.to/lastmile_qr_scan"}, "fusion_lon": 0.0, "lat": 38.913274, "bike_id": "70c3a2ba69fdfe221238538a7531499d", "type": "electric_scooter", "is_reserved": 0, "lon": -77.0363965}, {"fusion_lat": 0.0, "name": "86e29c7a9485032b11c723ad57ba6939", "is_disabled": 0, "rental_uris": {"android": "https://dc.lft.to/lastmile_qr_scan", "ios": "https://dc.lft.to/lastmile_qr_scan"}, "fusion_lon": 0.0, "lat": 38.834039, "bike_id": "86e29c7a9485032b11c723ad57ba6939", "type": "electric_bike", "is_reserved": 0, "lon": -77.06937516666666}, {"fusion_lat": 0.0, "name": "41f2ce2c5ad1f132bb436c06ec04456b", "is_disabled": 0, "rental_uris": {"android": "https://dc.lft.to/lastmile_qr_scan", "ios": "https://dc.lft.to/lastmile_qr_scan"}, "fusion_lon": 0.0, "lat": 38.84757466666667, "bike_id": "41f2ce2c5ad1f132bb436c06ec04456b", "type": "electric_scooter", "is_reserved": 0, "lon": -76.99502683333333}, {"fusion_lat": 0.0, "name": "8a074f32d8e7f4fd17506d300089cea4", "is_disabled": 0, "rental_uris": {"android": "https://dc.lft.to/lastmile_qr_scan", "ios": "https://dc.lft.to/lastmile_qr_scan"}, "fusion_lon": 0.0, "lat": 38.909656, "bike_id": "8a074f32d8e7f4fd17506d300089cea4", "type": "electric_scooter", "is_reserved": 0, "lon": -77.03251766666666}, {"fusion_lat": 0.0, "name": "29ab5a52670416ce12c9e7de50ae888c", "is_disabled": 0, "rental_uris": {"android": "https://dc.lft.to/lastmile_qr_scan", "ios": "https://dc.lft.to/lastmile_qr_scan"}, "fusion_lon": 0.0, "lat": 38.92151166666667, "bike_id": "29ab5a52670416ce12c9e7de50ae888c", "type": "electric_scooter", "is_reserved": 0, "lon": -77.03393466666667}, {"fusion_lat": 0.0, "name": "b9dc2345fdd69235be311e033a8ded92", "is_disabled": 0, "rental_uris": {"android": "https://dc.lft.to/lastmile_qr_scan", "ios": "https://dc.lft.to/lastmile_qr_scan"}, "fusion_lon": 0.0, "lat": 38.9097355, "bike_id": "b9dc2345fdd69235be311e033a8ded92", "type": "electric_scooter", "is_reserved": 0, "lon": -77.03248116666667}, {"fusion_lat": 0.0, "name": "4f477fa98c93af26e8c5a677850ccf66", "is_disabled": 0, "rental_uris": {"android": "https://dc.lft.to/lastmile_qr_scan", "ios": "https://dc.lft.to/lastmile_qr_scan"}, "fusion_lon": 0.0, "lat": 38.853596333333336, "bike_id": "4f477fa98c93af26e8c5a677850ccf66", "type": "electric_bike", "is_reserved": 0, "lon": -77.13466333333334}, {"fusion_lat": 0.0, "name": "7b24c43ca918c432b109fea4d3b741b1", "is_disabled": 0, "rental_uris": {"android": "https://dc.lft.to/lastmile_qr_scan", "ios": "https://dc.lft.to/lastmile_qr_scan"}, "fusion_lon": 0.0, "lat": 38.92402666666667, "bike_id": "7b24c43ca918c432b109fea4d3b741b1", "type": "electric_scooter", "is_reserved": 0, "lon": -77.02522016666667}, {"fusion_lat": 0.0, "name": "5026c5689159d527e83b1f54b5d67e96", "is_disabled": 0, "rental_uris": {"android": "https://dc.lft.to/lastmile_qr_scan", "ios": "https://dc.lft.to/lastmile_qr_scan"}, "fusion_lon": 0.0, "lat": 38.92279033333333, "bike_id": "5026c5689159d527e83b1f54b5d67e96", "type": "electric_scooter", "is_reserved": 0, "lon": -77.042401}, {"fusion_lat": 0.0, "name": "c205beb1db67c38778bcd3af12f1368a", "is_disabled": 0, "rental_uris": {"android": "https://dc.lft.to/lastmile_qr_scan", "ios": "https://dc.lft.to/lastmile_qr_scan"}, "fusion_lon": 0.0, "lat": 38.9070005, "bike_id": "c205beb1db67c38778bcd3af12f1368a", "type": "electric_scooter", "is_reserved": 0, "lon": -77.03722416666666}, {"fusion_lat": 0.0, "name": "b12054fbd0b071c7b33eb566c7e17c11", "is_disabled": 0, "rental_uris": {"android": "https://dc.lft.to/lastmile_qr_scan", "ios": "https://dc.lft.to/lastmile_qr_scan"}, "fusion_lon": 0.0, "lat": 38.91488616666667, "bike_id": "b12054fbd0b071c7b33eb566c7e17c11", "type": "electric_scooter", "is_reserved": 0, "lon": -77.01328966666667}, {"fusion_lat": 0.0, "name": "7e822d6a719902359beb5291e07e9bf6", "is_disabled": 0, "rental_uris": {"android": "https://dc.lft.to/lastmile_qr_scan", "ios": "https://dc.lft.to/lastmile_qr_scan"}, "fusion_lon": 0.0, "lat": 38.9246065, "bike_id": "7e822d6a719902359beb5291e07e9bf6", "type": "electric_scooter", "is_reserved": 0, "lon": -77.0364}, {"fusion_lat": 0.0, "name": "04d3f79e227189b4ed8989f424a2b940", "is_disabled": 0, "rental_uris": {"android": "https://dc.lft.to/lastmile_qr_scan", "ios": "https://dc.lft.to/lastmile_qr_scan"}, "fusion_lon": 0.0, "lat": 38.88331083333333, "bike_id": "04d3f79e227189b4ed8989f424a2b940", "type": "electric_bike", "is_reserved": 0, "lon": -76.9605875}, {"fusion_lat": 0.0, "name": "bd14d6e6f9414b6270189584e7d62551", "is_disabled": 0, "rental_uris": {"android": "https://dc.lft.to/lastmile_qr_scan", "ios": "https://dc.lft.to/lastmile_qr_scan"}, "fusion_lon": 0.0, "lat": 38.89707516666667, "bike_id": "bd14d6e6f9414b6270189584e7d62551", "type": "electric_scooter", "is_reserved": 0, "lon": -77.02290516666666}, {"fusion_lat": 0.0, "name": "36e6b13b90bf8dfc0ea49a01394ccc30", "is_disabled": 0, "rental_uris": {"android": "https://dc.lft.to/lastmile_qr_scan", "ios": "https://dc.lft.to/lastmile_qr_scan"}, "fusion_lon": 0.0, "lat": 38.92824916666667, "bike_id": "36e6b13b90bf8dfc0ea49a01394ccc30", "type": "electric_scooter", "is_reserved": 0, "lon": -77.0226175}, {"fusion_lat": 0.0, "name": "1edd0b5989f2eda438d4ef4aa2e6f13d", "is_disabled": 0, "rental_uris": {"android": "https://dc.lft.to/lastmile_qr_scan", "ios": "https://dc.lft.to/lastmile_qr_scan"}, "fusion_lon": 0.0, "lat": 38.922282833333334, "bike_id": "1edd0b5989f2eda438d4ef4aa2e6f13d", "type": "electric_scooter", "is_reserved": 0, "lon": -77.02369266666666}, {"fusion_lat": 0.0, "name": "08805604cca631c4206a9ad2f10c8983", "is_disabled": 0, "rental_uris": {"android": "https://dc.lft.to/lastmile_qr_scan", "ios": "https://dc.lft.to/lastmile_qr_scan"}, "fusion_lon": 0.0, "lat": 38.8278445, "bike_id": "08805604cca631c4206a9ad2f10c8983", "type": "electric_bike", "is_reserved": 0, "lon": -77.12486816666667}, {"fusion_lat": 0.0, "name": "e10c2e6c2c05e6bb81d68da2f1c48dbc", "is_disabled": 0, "rental_uris": {"android": "https://dc.lft.to/lastmile_qr_scan", "ios": "https://dc.lft.to/lastmile_qr_scan"}, "fusion_lon": 0.0, "lat": 38.89236233333333, "bike_id": "e10c2e6c2c05e6bb81d68da2f1c48dbc", "type": "electric_scooter", "is_reserved": 0, "lon": -77.00289966666666}, {"fusion_lat": 0.0, "name": "1cd9f37a07ab20caf5193287ad6bb5f9", "is_disabled": 0, "rental_uris": {"android": "https://dc.lft.to/lastmile_qr_scan", "ios": "https://dc.lft.to/lastmile_qr_scan"}, "fusion_lon": 0.0, "lat": 38.90240816666667, "bike_id": "1cd9f37a07ab20caf5193287ad6bb5f9", "type": "electric_scooter", "is_reserved": 0, "lon": -77.03455366666667}, {"fusion_lat": 0.0, "name": "65b7df7a58341e889db1d8d566bbc6ed", "is_disabled": 0, "rental_uris": {"android": "https://dc.lft.to/lastmile_qr_scan", "ios": "https://dc.lft.to/lastmile_qr_scan"}, "fusion_lon": 0.0, "lat": 38.9163585, "bike_id": "65b7df7a58341e889db1d8d566bbc6ed", "type": "electric_scooter", "is_reserved": 0, "lon": -77.00100033333334}, {"fusion_lat": 0.0, "name": "42d0fc5f07438e1cc9e532c77ca0aee8", "is_disabled": 0, "rental_uris": {"android": "https://dc.lft.to/lastmile_qr_scan", "ios": "https://dc.lft.to/lastmile_qr_scan"}, "fusion_lon": 0.0, "lat": 38.93075616666667, "bike_id": "42d0fc5f07438e1cc9e532c77ca0aee8", "type": "electric_scooter", "is_reserved": 0, "lon": -77.02178466666666}, {"fusion_lat": 0.0, "name": "5dd2c98361f1da98344521c9c2feef1b", "is_disabled": 0, "rental_uris": {"android": "https://dc.lft.to/lastmile_qr_scan", "ios": "https://dc.lft.to/lastmile_qr_scan"}, "fusion_lon": 0.0, "lat": 38.90764883333333, "bike_id": "5dd2c98361f1da98344521c9c2feef1b", "type": "electric_scooter", "is_reserved": 0, "lon": -77.05650466666667}, {"fusion_lat": 0.0, "name": "100353c1be374a47def818b3c23afdba", "is_disabled": 0, "rental_uris": {"android": "https://dc.lft.to/lastmile_qr_scan", "ios": "https://dc.lft.to/lastmile_qr_scan"}, "fusion_lon": 0.0, "lat": 38.89743966666666, "bike_id": "100353c1be374a47def818b3c23afdba", "type": "electric_scooter", "is_reserved": 0, "lon": -77.0463915}, {"fusion_lat": 0.0, "name": "5898673e12dba8d6a2fcffb277e25832", "is_disabled": 0, "rental_uris": {"android": "https://dc.lft.to/lastmile_qr_scan", "ios": "https://dc.lft.to/lastmile_qr_scan"}, "fusion_lon": 0.0, "lat": 38.939695666666665, "bike_id": "5898673e12dba8d6a2fcffb277e25832", "type": "electric_scooter", "is_reserved": 0, "lon": -77.03285033333333}, {"fusion_lat": 0.0, "name": "92339ea713ba8f402da3b619c99b29cb", "is_disabled": 0, "rental_uris": {"android": "https://dc.lft.to/lastmile_qr_scan", "ios": "https://dc.lft.to/lastmile_qr_scan"}, "fusion_lon": 0.0, "lat": 38.911205, "bike_id": "92339ea713ba8f402da3b619c99b29cb", "type": "electric_scooter", "is_reserved": 0, "lon": -77.08133516666666}, {"fusion_lat": 0.0, "name": "bc7c0111353e3a1cc0b9e0987f7c6603", "is_disabled": 0, "rental_uris": {"android": "https://dc.lft.to/lastmile_qr_scan", "ios": "https://dc.lft.to/lastmile_qr_scan"}, "fusion_lon": 0.0, "lat": 38.921503333333334, "bike_id": "bc7c0111353e3a1cc0b9e0987f7c6603", "type": "electric_scooter", "is_reserved": 0, "lon": -77.033609}, {"fusion_lat": 0.0, "name": "13caba28b6b1ed3563b54903e0542a6e", "is_disabled": 0, "rental_uris": {"android": "https://dc.lft.to/lastmile_qr_scan", "ios": "https://dc.lft.to/lastmile_qr_scan"}, "fusion_lon": 0.0, "lat": 38.91480166666667, "bike_id": "13caba28b6b1ed3563b54903e0542a6e", "type": "electric_scooter", "is_reserved": 0, "lon": -77.04017283333333}, {"fusion_lat": 0.0, "name": "07a90d1545f0c621aee8fe23be800a54", "is_disabled": 0, "rental_uris": {"android": "https://dc.lft.to/lastmile_qr_scan", "ios": "https://dc.lft.to/lastmile_qr_scan"}, "fusion_lon": 0.0, "lat": 38.9377485, "bike_id": "07a90d1545f0c621aee8fe23be800a54", "type": "electric_scooter", "is_reserved": 0, "lon": -77.03264}, {"fusion_lat": 0.0, "name": "334c922c22750ada51ae53d166028970", "is_disabled": 0, "rental_uris": {"android": "https://dc.lft.to/lastmile_qr_scan", "ios": "https://dc.lft.to/lastmile_qr_scan"}, "fusion_lon": 0.0, "lat": 38.910495, "bike_id": "334c922c22750ada51ae53d166028970", "type": "electric_scooter", "is_reserved": 0, "lon": -77.01287766666667}, {"fusion_lat": 0.0, "name": "ac0c13eedeb395e7959fe39c8146cc6e", "is_disabled": 0, "rental_uris": {"android": "https://dc.lft.to/lastmile_qr_scan", "ios": "https://dc.lft.to/lastmile_qr_scan"}, "fusion_lon": 0.0, "lat": 38.919280666666666, "bike_id": "ac0c13eedeb395e7959fe39c8146cc6e", "type": "electric_scooter", "is_reserved": 0, "lon": -77.0098185}, {"fusion_lat": 0.0, "name": "e26e11135df0361efdd664a71a54bacc", "is_disabled": 0, "rental_uris": {"android": "https://dc.lft.to/lastmile_qr_scan", "ios": "https://dc.lft.to/lastmile_qr_scan"}, "fusion_lon": 0.0, "lat": 38.90007383333333, "bike_id": "e26e11135df0361efdd664a71a54bacc", "type": "electric_scooter", "is_reserved": 0, "lon": -77.02927933333333}, {"fusion_lat": 0.0, "name": "904d8d9a1307cddaef034b0971ecf17a", "is_disabled": 0, "rental_uris": {"android": "https://dc.lft.to/lastmile_qr_scan", "ios": "https://dc.lft.to/lastmile_qr_scan"}, "fusion_lon": 0.0, "lat": 38.9419005, "bike_id": "904d8d9a1307cddaef034b0971ecf17a", "type": "electric_scooter", "is_reserved": 0, "lon": -77.0231675}, {"fusion_lat": 0.0, "name": "b07e21f37095fc1a9671f2347576ea28", "is_disabled": 0, "rental_uris": {"android": "https://dc.lft.to/lastmile_qr_scan", "ios": "https://dc.lft.to/lastmile_qr_scan"}, "fusion_lon": 0.0, "lat": 38.916112166666665, "bike_id": "b07e21f37095fc1a9671f2347576ea28", "type": "electric_scooter", "is_reserved": 0, "lon": -77.0434015}, {"fusion_lat": 0.0, "name": "857a0c27d917c94b8888f4ee892d2c67", "is_disabled": 0, "rental_uris": {"android": "https://dc.lft.to/lastmile_qr_scan", "ios": "https://dc.lft.to/lastmile_qr_scan"}, "fusion_lon": 0.0, "lat": 38.887493666666664, "bike_id": "857a0c27d917c94b8888f4ee892d2c67", "type": "electric_scooter", "is_reserved": 0, "lon": -77.0257305}, {"fusion_lat": 0.0, "name": "c7ff4d996eebc543f6ed65fb52ae0fca", "is_disabled": 0, "rental_uris": {"android": "https://dc.lft.to/lastmile_qr_scan", "ios": "https://dc.lft.to/lastmile_qr_scan"}, "fusion_lon": 0.0, "lat": 38.91491416666667, "bike_id": "c7ff4d996eebc543f6ed65fb52ae0fca", "type": "electric_scooter", "is_reserved": 0, "lon": -77.03276116666666}, {"fusion_lat": 0.0, "name": "2d4e8ecef111b23822f807d1b812e4a4", "is_disabled": 0, "rental_uris": {"android": "https://dc.lft.to/lastmile_qr_scan", "ios": "https://dc.lft.to/lastmile_qr_scan"}, "fusion_lon": 0.0, "lat": 38.92153883333334, "bike_id": "2d4e8ecef111b23822f807d1b812e4a4", "type": "electric_scooter", "is_reserved": 0, "lon": -77.04354233333333}, {"fusion_lat": 0.0, "name": "3a70b33bf86603c62b048b1a729c345f", "is_disabled": 0, "rental_uris": {"android": "https://dc.lft.to/lastmile_qr_scan", "ios": "https://dc.lft.to/lastmile_qr_scan"}, "fusion_lon": 0.0, "lat": 38.895398166666666, "bike_id": "3a70b33bf86603c62b048b1a729c345f", "type": "electric_scooter", "is_reserved": 0, "lon": -77.01136033333333}, {"fusion_lat": 0.0, "name": "a389b3035225578de90cba4affe20d4f", "is_disabled": 0, "rental_uris": {"android": "https://dc.lft.to/lastmile_qr_scan", "ios": "https://dc.lft.to/lastmile_qr_scan"}, "fusion_lon": 0.0, "lat": 38.813322666666664, "bike_id": "a389b3035225578de90cba4affe20d4f", "type": "electric_bike", "is_reserved": 0, "lon": -77.0508915}, {"fusion_lat": 0.0, "name": "f2377a6b3ee2794bb343d206a12a53b9", "is_disabled": 0, "rental_uris": {"android": "https://dc.lft.to/lastmile_qr_scan", "ios": "https://dc.lft.to/lastmile_qr_scan"}, "fusion_lon": 0.0, "lat": 38.90664733333333, "bike_id": "f2377a6b3ee2794bb343d206a12a53b9", "type": "electric_scooter", "is_reserved": 0, "lon": -77.00964783333333}, {"fusion_lat": 0.0, "name": "18b16346b1809575230726b37c33c7f4", "is_disabled": 0, "rental_uris": {"android": "https://dc.lft.to/lastmile_qr_scan", "ios": "https://dc.lft.to/lastmile_qr_scan"}, "fusion_lon": 0.0, "lat": 38.903626, "bike_id": "18b16346b1809575230726b37c33c7f4", "type": "electric_scooter", "is_reserved": 0, "lon": -76.9724465}, {"fusion_lat": 0.0, "name": "98b494b888c71f25265d1cb05e2fed1c", "is_disabled": 0, "rental_uris": {"android": "https://dc.lft.to/lastmile_qr_scan", "ios": "https://dc.lft.to/lastmile_qr_scan"}, "fusion_lon": 0.0, "lat": 38.909672, "bike_id": "98b494b888c71f25265d1cb05e2fed1c", "type": "electric_scooter", "is_reserved": 0, "lon": -77.00904283333334}, {"fusion_lat": 0.0, "name": "a3846e48660482f70cfeac840dc5ac6c", "is_disabled": 0, "rental_uris": {"android": "https://dc.lft.to/lastmile_qr_scan", "ios": "https://dc.lft.to/lastmile_qr_scan"}, "fusion_lon": 0.0, "lat": 38.9011195, "bike_id": "a3846e48660482f70cfeac840dc5ac6c", "type": "electric_scooter", "is_reserved": 0, "lon": -77.05167616666667}, {"fusion_lat": 0.0, "name": "aee197f31c0715160319b41511997f25", "is_disabled": 0, "rental_uris": {"android": "https://dc.lft.to/lastmile_qr_scan", "ios": "https://dc.lft.to/lastmile_qr_scan"}, "fusion_lon": 0.0, "lat": 38.94135416666667, "bike_id": "aee197f31c0715160319b41511997f25", "type": "electric_scooter", "is_reserved": 0, "lon": -77.006106}, {"fusion_lat": 0.0, "name": "133f0e87e318fa38280299c224742006", "is_disabled": 0, "rental_uris": {"android": "https://dc.lft.to/lastmile_qr_scan", "ios": "https://dc.lft.to/lastmile_qr_scan"}, "fusion_lon": 0.0, "lat": 38.839398, "bike_id": "133f0e87e318fa38280299c224742006", "type": "electric_bike", "is_reserved": 0, "lon": -77.079024}, {"fusion_lat": 0.0, "name": "657ee68c8bc8be12d152ea16ecddd178", "is_disabled": 0, "rental_uris": {"android": "https://dc.lft.to/lastmile_qr_scan", "ios": "https://dc.lft.to/lastmile_qr_scan"}, "fusion_lon": 0.0, "lat": 38.90580033333333, "bike_id": "657ee68c8bc8be12d152ea16ecddd178", "type": "electric_scooter", "is_reserved": 0, "lon": -77.0220015}, {"fusion_lat": 0.0, "name": "0be24e6b777fd16df3531992182fda66", "is_disabled": 0, "rental_uris": {"android": "https://dc.lft.to/lastmile_qr_scan", "ios": "https://dc.lft.to/lastmile_qr_scan"}, "fusion_lon": 0.0, "lat": 38.933690166666665, "bike_id": "0be24e6b777fd16df3531992182fda66", "type": "electric_scooter", "is_reserved": 0, "lon": -77.03888383333333}, {"fusion_lat": 0.0, "name": "17f134add8e5f1de23941dccd336b068", "is_disabled": 0, "rental_uris": {"android": "https://dc.lft.to/lastmile_qr_scan", "ios": "https://dc.lft.to/lastmile_qr_scan"}, "fusion_lon": 0.0, "lat": 38.897465, "bike_id": "17f134add8e5f1de23941dccd336b068", "type": "electric_scooter", "is_reserved": 0, "lon": -77.03220833333333}, {"fusion_lat": 0.0, "name": "4403e6bbcd5a12ea0b384c9418b2b79a", "is_disabled": 0, "rental_uris": {"android": "https://dc.lft.to/lastmile_qr_scan", "ios": "https://dc.lft.to/lastmile_qr_scan"}, "fusion_lon": 0.0, "lat": 38.926917833333334, "bike_id": "4403e6bbcd5a12ea0b384c9418b2b79a", "type": "electric_scooter", "is_reserved": 0, "lon": -77.02779483333333}, {"fusion_lat": 0.0, "name": "0640410a9de1fa23d015dbbf471c5256", "is_disabled": 0, "rental_uris": {"android": "https://dc.lft.to/lastmile_qr_scan", "ios": "https://dc.lft.to/lastmile_qr_scan"}, "fusion_lon": 0.0, "lat": 38.901202, "bike_id": "0640410a9de1fa23d015dbbf471c5256", "type": "electric_scooter", "is_reserved": 0, "lon": -77.033845}, {"fusion_lat": 0.0, "name": "1e6c3f06f33bc0de84008c5cacf8b66e", "is_disabled": 0, "rental_uris": {"android": "https://dc.lft.to/lastmile_qr_scan", "ios": "https://dc.lft.to/lastmile_qr_scan"}, "fusion_lon": 0.0, "lat": 38.892217, "bike_id": "1e6c3f06f33bc0de84008c5cacf8b66e", "type": "electric_scooter", "is_reserved": 0, "lon": -77.03142433333333}, {"fusion_lat": 0.0, "name": "01fc0bc4ab05805c3d851bd49257a077", "is_disabled": 0, "rental_uris": {"android": "https://dc.lft.to/lastmile_qr_scan", "ios": "https://dc.lft.to/lastmile_qr_scan"}, "fusion_lon": 0.0, "lat": 38.89854, "bike_id": "01fc0bc4ab05805c3d851bd49257a077", "type": "electric_scooter", "is_reserved": 0, "lon": -76.99268383333333}, {"fusion_lat": 0.0, "name": "5a5fd99e7d92eb44c8b74b4abb8d1c06", "is_disabled": 0, "rental_uris": {"android": "https://dc.lft.to/lastmile_qr_scan", "ios": "https://dc.lft.to/lastmile_qr_scan"}, "fusion_lon": 0.0, "lat": 38.925063333333334, "bike_id": "5a5fd99e7d92eb44c8b74b4abb8d1c06", "type": "electric_scooter", "is_reserved": 0, "lon": -77.03805133333333}, {"fusion_lat": 0.0, "name": "1fe26da7a36b557a60ce52f735eb163a", "is_disabled": 0, "rental_uris": {"android": "https://dc.lft.to/lastmile_qr_scan", "ios": "https://dc.lft.to/lastmile_qr_scan"}, "fusion_lon": 0.0, "lat": 38.90518083333333, "bike_id": "1fe26da7a36b557a60ce52f735eb163a", "type": "electric_scooter", "is_reserved": 0, "lon": -77.05163566666667}, {"fusion_lat": 0.0, "name": "26687790f1ff2902919f2d7c40381bf4", "is_disabled": 0, "rental_uris": {"android": "https://dc.lft.to/lastmile_qr_scan", "ios": "https://dc.lft.to/lastmile_qr_scan"}, "fusion_lon": 0.0, "lat": 38.897329666666664, "bike_id": "26687790f1ff2902919f2d7c40381bf4", "type": "electric_scooter", "is_reserved": 0, "lon": -77.02721916666667}, {"fusion_lat": 0.0, "name": "77630277b04341e8442ae5c90b6246df", "is_disabled": 0, "rental_uris": {"android": "https://dc.lft.to/lastmile_qr_scan", "ios": "https://dc.lft.to/lastmile_qr_scan"}, "fusion_lon": 0.0, "lat": 38.8889575, "bike_id": "77630277b04341e8442ae5c90b6246df", "type": "electric_bike", "is_reserved": 0, "lon": -77.11525166666667}, {"fusion_lat": 0.0, "name": "2505a8c4a86c9353608e4a89e94fdcd3", "is_disabled": 0, "rental_uris": {"android": "https://dc.lft.to/lastmile_qr_scan", "ios": "https://dc.lft.to/lastmile_qr_scan"}, "fusion_lon": 0.0, "lat": 38.964471, "bike_id": "2505a8c4a86c9353608e4a89e94fdcd3", "type": "electric_scooter", "is_reserved": 0, "lon": -77.0206715}, {"fusion_lat": 0.0, "name": "449b63997164aaf43f4fb160d64d8cc4", "is_disabled": 0, "rental_uris": {"android": "https://dc.lft.to/lastmile_qr_scan", "ios": "https://dc.lft.to/lastmile_qr_scan"}, "fusion_lon": 0.0, "lat": 38.921996166666666, "bike_id": "449b63997164aaf43f4fb160d64d8cc4", "type": "electric_scooter", "is_reserved": 0, "lon": -77.03516333333333}, {"fusion_lat": 0.0, "name": "0f01b8204ae00f8c1b0c5f9d3dcc53ee", "is_disabled": 0, "rental_uris": {"android": "https://dc.lft.to/lastmile_qr_scan", "ios": "https://dc.lft.to/lastmile_qr_scan"}, "fusion_lon": 0.0, "lat": 38.921871833333334, "bike_id": "0f01b8204ae00f8c1b0c5f9d3dcc53ee", "type": "electric_scooter", "is_reserved": 0, "lon": -77.042311}, {"fusion_lat": 0.0, "name": "c314b98c0d6abfd687e7b0f6d09f8f56", "is_disabled": 0, "rental_uris": {"android": "https://dc.lft.to/lastmile_qr_scan", "ios": "https://dc.lft.to/lastmile_qr_scan"}, "fusion_lon": 0.0, "lat": 38.913011, "bike_id": "c314b98c0d6abfd687e7b0f6d09f8f56", "type": "electric_scooter", "is_reserved": 0, "lon": -77.04873116666667}, {"fusion_lat": 0.0, "name": "632c586747fc820acc470383e045d3f6", "is_disabled": 0, "rental_uris": {"android": "https://dc.lft.to/lastmile_qr_scan", "ios": "https://dc.lft.to/lastmile_qr_scan"}, "fusion_lon": 0.0, "lat": 38.9181045, "bike_id": "632c586747fc820acc470383e045d3f6", "type": "electric_scooter", "is_reserved": 0, "lon": -77.0113705}, {"fusion_lat": 0.0, "name": "cb610a738e9dcb061f26da411c4b127f", "is_disabled": 0, "rental_uris": {"android": "https://dc.lft.to/lastmile_qr_scan", "ios": "https://dc.lft.to/lastmile_qr_scan"}, "fusion_lon": 0.0, "lat": 38.81914866666666, "bike_id": "cb610a738e9dcb061f26da411c4b127f", "type": "electric_bike", "is_reserved": 0, "lon": -77.12666816666666}, {"fusion_lat": 0.0, "name": "8f6d2f9c9d20c85622a0fbb587ce905e", "is_disabled": 0, "rental_uris": {"android": "https://dc.lft.to/lastmile_qr_scan", "ios": "https://dc.lft.to/lastmile_qr_scan"}, "fusion_lon": 0.0, "lat": 38.90773033333333, "bike_id": "8f6d2f9c9d20c85622a0fbb587ce905e", "type": "electric_scooter", "is_reserved": 0, "lon": -77.03197783333333}, {"fusion_lat": 0.0, "name": "6eb236f1144a11c24b9e10936e926ba7", "is_disabled": 0, "rental_uris": {"android": "https://dc.lft.to/lastmile_qr_scan", "ios": "https://dc.lft.to/lastmile_qr_scan"}, "fusion_lon": 0.0, "lat": 38.92794333333333, "bike_id": "6eb236f1144a11c24b9e10936e926ba7", "type": "electric_scooter", "is_reserved": 0, "lon": -77.03211283333333}, {"fusion_lat": 0.0, "name": "af0c05cb79a7237958958908ff80054a", "is_disabled": 0, "rental_uris": {"android": "https://dc.lft.to/lastmile_qr_scan", "ios": "https://dc.lft.to/lastmile_qr_scan"}, "fusion_lon": 0.0, "lat": 38.948757, "bike_id": "af0c05cb79a7237958958908ff80054a", "type": "electric_scooter", "is_reserved": 0, "lon": -77.02694116666666}, {"fusion_lat": 0.0, "name": "e206fea86b3a2b7218748ded49875a4d", "is_disabled": 0, "rental_uris": {"android": "https://dc.lft.to/lastmile_qr_scan", "ios": "https://dc.lft.to/lastmile_qr_scan"}, "fusion_lon": 0.0, "lat": 38.91117916666666, "bike_id": "e206fea86b3a2b7218748ded49875a4d", "type": "electric_scooter", "is_reserved": 0, "lon": -76.9976855}, {"fusion_lat": 0.0, "name": "8ff7bef6911f77b862b621c43c16f271", "is_disabled": 0, "rental_uris": {"android": "https://dc.lft.to/lastmile_qr_scan", "ios": "https://dc.lft.to/lastmile_qr_scan"}, "fusion_lon": 0.0, "lat": 38.94896266666667, "bike_id": "8ff7bef6911f77b862b621c43c16f271", "type": "electric_bike", "is_reserved": 0, "lon": -76.9637365}, {"fusion_lat": 0.0, "name": "26803ebc52c24ed7d4ca601cf802b3c0", "is_disabled": 0, "rental_uris": {"android": "https://dc.lft.to/lastmile_qr_scan", "ios": "https://dc.lft.to/lastmile_qr_scan"}, "fusion_lon": 0.0, "lat": 38.93637316666667, "bike_id": "26803ebc52c24ed7d4ca601cf802b3c0", "type": "electric_scooter", "is_reserved": 0, "lon": -77.0366625}, {"fusion_lat": 0.0, "name": "13ea054036e8a5bceca70ec18d52f458", "is_disabled": 0, "rental_uris": {"android": "https://dc.lft.to/lastmile_qr_scan", "ios": "https://dc.lft.to/lastmile_qr_scan"}, "fusion_lon": 0.0, "lat": 38.91953633333333, "bike_id": "13ea054036e8a5bceca70ec18d52f458", "type": "electric_scooter", "is_reserved": 0, "lon": -77.0710825}, {"fusion_lat": 0.0, "name": "2bf77c690e2feec76eccbc2dff1a5832", "is_disabled": 0, "rental_uris": {"android": "https://dc.lft.to/lastmile_qr_scan", "ios": "https://dc.lft.to/lastmile_qr_scan"}, "fusion_lon": 0.0, "lat": 38.925566833333335, "bike_id": "2bf77c690e2feec76eccbc2dff1a5832", "type": "electric_scooter", "is_reserved": 0, "lon": -77.07762983333333}, {"fusion_lat": 0.0, "name": "067fc06cc6f5341213f7c0c79e639079", "is_disabled": 0, "rental_uris": {"android": "https://dc.lft.to/lastmile_qr_scan", "ios": "https://dc.lft.to/lastmile_qr_scan"}, "fusion_lon": 0.0, "lat": 38.931338, "bike_id": "067fc06cc6f5341213f7c0c79e639079", "type": "electric_scooter", "is_reserved": 0, "lon": -77.03258416666667}, {"fusion_lat": 0.0, "name": "778c01bdcf8df1262c02bc986af996cd", "is_disabled": 0, "rental_uris": {"android": "https://dc.lft.to/lastmile_qr_scan", "ios": "https://dc.lft.to/lastmile_qr_scan"}, "fusion_lon": 0.0, "lat": 38.8962075, "bike_id": "778c01bdcf8df1262c02bc986af996cd", "type": "electric_scooter", "is_reserved": 0, "lon": -77.02280183333333}, {"fusion_lat": 0.0, "name": "060627b26db7035d3fb9a52034e61318", "is_disabled": 0, "rental_uris": {"android": "https://dc.lft.to/lastmile_qr_scan", "ios": "https://dc.lft.to/lastmile_qr_scan"}, "fusion_lon": 0.0, "lat": 38.89286083333333, "bike_id": "060627b26db7035d3fb9a52034e61318", "type": "electric_scooter", "is_reserved": 0, "lon": -76.98308533333334}, {"fusion_lat": 0.0, "name": "b17dbea436a06e6a9e3d106fe4bde0e2", "is_disabled": 0, "rental_uris": {"android": "https://dc.lft.to/lastmile_qr_scan", "ios": "https://dc.lft.to/lastmile_qr_scan"}, "fusion_lon": 0.0, "lat": 38.904965833333335, "bike_id": "b17dbea436a06e6a9e3d106fe4bde0e2", "type": "electric_scooter", "is_reserved": 0, "lon": -77.02585316666666}, {"fusion_lat": 0.0, "name": "30a68377dab8a689fab1809f16be9855", "is_disabled": 0, "rental_uris": {"android": "https://dc.lft.to/lastmile_qr_scan", "ios": "https://dc.lft.to/lastmile_qr_scan"}, "fusion_lon": 0.0, "lat": 38.932195166666666, "bike_id": "30a68377dab8a689fab1809f16be9855", "type": "electric_scooter", "is_reserved": 0, "lon": -77.04411616666667}, {"fusion_lat": 0.0, "name": "3d880d4e8804ee408903b83be6770150", "is_disabled": 0, "rental_uris": {"android": "https://dc.lft.to/lastmile_qr_scan", "ios": "https://dc.lft.to/lastmile_qr_scan"}, "fusion_lon": 0.0, "lat": 38.90973816666666, "bike_id": "3d880d4e8804ee408903b83be6770150", "type": "electric_scooter", "is_reserved": 0, "lon": -77.0343695}, {"fusion_lat": 0.0, "name": "784a3f30c37a55ff36048ecf645cd2d4", "is_disabled": 0, "rental_uris": {"android": "https://dc.lft.to/lastmile_qr_scan", "ios": "https://dc.lft.to/lastmile_qr_scan"}, "fusion_lon": 0.0, "lat": 38.899567833333336, "bike_id": "784a3f30c37a55ff36048ecf645cd2d4", "type": "electric_scooter", "is_reserved": 0, "lon": -77.04044233333333}, {"fusion_lat": 0.0, "name": "ce916ce0d0d319346528ca0a0be3b2d5", "is_disabled": 0, "rental_uris": {"android": "https://dc.lft.to/lastmile_qr_scan", "ios": "https://dc.lft.to/lastmile_qr_scan"}, "fusion_lon": 0.0, "lat": 38.9294605, "bike_id": "ce916ce0d0d319346528ca0a0be3b2d5", "type": "electric_scooter", "is_reserved": 0, "lon": -77.02342916666667}, {"fusion_lat": 0.0, "name": "0da947f50114a0bf7abacb3b30ca01b6", "is_disabled": 0, "rental_uris": {"android": "https://dc.lft.to/lastmile_qr_scan", "ios": "https://dc.lft.to/lastmile_qr_scan"}, "fusion_lon": 0.0, "lat": 38.92314366666667, "bike_id": "0da947f50114a0bf7abacb3b30ca01b6", "type": "electric_scooter", "is_reserved": 0, "lon": -77.04371233333333}, {"fusion_lat": 0.0, "name": "431e54a8fe6368d4d2ac3644344c1d6d", "is_disabled": 0, "rental_uris": {"android": "https://dc.lft.to/lastmile_qr_scan", "ios": "https://dc.lft.to/lastmile_qr_scan"}, "fusion_lon": 0.0, "lat": 38.89550966666667, "bike_id": "431e54a8fe6368d4d2ac3644344c1d6d", "type": "electric_scooter", "is_reserved": 0, "lon": -76.99841633333334}, {"fusion_lat": 0.0, "name": "1a73442246919b49b79a60c5f23084ab", "is_disabled": 0, "rental_uris": {"android": "https://dc.lft.to/lastmile_qr_scan", "ios": "https://dc.lft.to/lastmile_qr_scan"}, "fusion_lon": 0.0, "lat": 38.9192335, "bike_id": "1a73442246919b49b79a60c5f23084ab", "type": "electric_scooter", "is_reserved": 0, "lon": -77.014466}, {"fusion_lat": 0.0, "name": "febeb910fc3ecf440653a041c3be35a3", "is_disabled": 0, "rental_uris": {"android": "https://dc.lft.to/lastmile_qr_scan", "ios": "https://dc.lft.to/lastmile_qr_scan"}, "fusion_lon": 0.0, "lat": 38.9097745, "bike_id": "febeb910fc3ecf440653a041c3be35a3", "type": "electric_scooter", "is_reserved": 0, "lon": -77.03949133333333}, {"fusion_lat": 0.0, "name": "b00f63529d29185e32592fb9655a79c8", "is_disabled": 0, "rental_uris": {"android": "https://dc.lft.to/lastmile_qr_scan", "ios": "https://dc.lft.to/lastmile_qr_scan"}, "fusion_lon": 0.0, "lat": 38.845106, "bike_id": "b00f63529d29185e32592fb9655a79c8", "type": "electric_bike", "is_reserved": 0, "lon": -76.993535}, {"fusion_lat": 0.0, "name": "3803a3282a960a266bb6f9377a569773", "is_disabled": 0, "rental_uris": {"android": "https://dc.lft.to/lastmile_qr_scan", "ios": "https://dc.lft.to/lastmile_qr_scan"}, "fusion_lon": 0.0, "lat": 38.9104565, "bike_id": "3803a3282a960a266bb6f9377a569773", "type": "electric_scooter", "is_reserved": 0, "lon": -77.03828066666667}, {"fusion_lat": 0.0, "name": "05d1d3234bf5a14a66724ede111458a0", "is_disabled": 0, "rental_uris": {"android": "https://dc.lft.to/lastmile_qr_scan", "ios": "https://dc.lft.to/lastmile_qr_scan"}, "fusion_lon": 0.0, "lat": 38.9264815, "bike_id": "05d1d3234bf5a14a66724ede111458a0", "type": "electric_scooter", "is_reserved": 0, "lon": -77.03859366666667}, {"fusion_lat": 0.0, "name": "0f7d7ac210d460a41d2c00c36fc02dd7", "is_disabled": 0, "rental_uris": {"android": "https://dc.lft.to/lastmile_qr_scan", "ios": "https://dc.lft.to/lastmile_qr_scan"}, "fusion_lon": 0.0, "lat": 38.920794666666666, "bike_id": "0f7d7ac210d460a41d2c00c36fc02dd7", "type": "electric_scooter", "is_reserved": 0, "lon": -77.02302366666666}, {"fusion_lat": 0.0, "name": "53410f4a94e7df249022a20fb280347d", "is_disabled": 0, "rental_uris": {"android": "https://dc.lft.to/lastmile_qr_scan", "ios": "https://dc.lft.to/lastmile_qr_scan"}, "fusion_lon": 0.0, "lat": 38.90001083333333, "bike_id": "53410f4a94e7df249022a20fb280347d", "type": "electric_scooter", "is_reserved": 0, "lon": -77.054997}, {"fusion_lat": 0.0, "name": "bbdc83cb114eacd66967de8f4988b146", "is_disabled": 0, "rental_uris": {"android": "https://dc.lft.to/lastmile_qr_scan", "ios": "https://dc.lft.to/lastmile_qr_scan"}, "fusion_lon": 0.0, "lat": 39.036062333333334, "bike_id": "bbdc83cb114eacd66967de8f4988b146", "type": "electric_bike", "is_reserved": 0, "lon": -77.05539433333334}, {"fusion_lat": 0.0, "name": "72361b54134492bdd4df73a8eb1d7f4d", "is_disabled": 0, "rental_uris": {"android": "https://dc.lft.to/lastmile_qr_scan", "ios": "https://dc.lft.to/lastmile_qr_scan"}, "fusion_lon": 0.0, "lat": 38.910483166666666, "bike_id": "72361b54134492bdd4df73a8eb1d7f4d", "type": "electric_scooter", "is_reserved": 0, "lon": -77.033425}, {"fusion_lat": 0.0, "name": "7cb3ab31f8199cc67f9dd9dd74e8fdf6", "is_disabled": 0, "rental_uris": {"android": "https://dc.lft.to/lastmile_qr_scan", "ios": "https://dc.lft.to/lastmile_qr_scan"}, "fusion_lon": 0.0, "lat": 38.891978333333334, "bike_id": "7cb3ab31f8199cc67f9dd9dd74e8fdf6", "type": "electric_scooter", "is_reserved": 0, "lon": -77.022297}, {"fusion_lat": 0.0, "name": "8023f0404ec1ee44d3ea05a2183e78b0", "is_disabled": 0, "rental_uris": {"android": "https://dc.lft.to/lastmile_qr_scan", "ios": "https://dc.lft.to/lastmile_qr_scan"}, "fusion_lon": 0.0, "lat": 38.91646133333333, "bike_id": "8023f0404ec1ee44d3ea05a2183e78b0", "type": "electric_scooter", "is_reserved": 0, "lon": -77.04793933333333}, {"fusion_lat": 0.0, "name": "8fb32e9bebcde08f921b9a63fad6702b", "is_disabled": 0, "rental_uris": {"android": "https://dc.lft.to/lastmile_qr_scan", "ios": "https://dc.lft.to/lastmile_qr_scan"}, "fusion_lon": 0.0, "lat": 38.91484, "bike_id": "8fb32e9bebcde08f921b9a63fad6702b", "type": "electric_scooter", "is_reserved": 0, "lon": -77.04276583333333}, {"fusion_lat": 0.0, "name": "8600329fcbe5fb924a9bada1ce79a723", "is_disabled": 0, "rental_uris": {"android": "https://dc.lft.to/lastmile_qr_scan", "ios": "https://dc.lft.to/lastmile_qr_scan"}, "fusion_lon": 0.0, "lat": 38.900928666666665, "bike_id": "8600329fcbe5fb924a9bada1ce79a723", "type": "electric_bike", "is_reserved": 0, "lon": -77.03940366666667}, {"fusion_lat": 0.0, "name": "d744ca5be126fce89fb64215558ddbc8", "is_disabled": 0, "rental_uris": {"android": "https://dc.lft.to/lastmile_qr_scan", "ios": "https://dc.lft.to/lastmile_qr_scan"}, "fusion_lon": 0.0, "lat": 38.911227333333336, "bike_id": "d744ca5be126fce89fb64215558ddbc8", "type": "electric_scooter", "is_reserved": 0, "lon": -77.020805}, {"fusion_lat": 0.0, "name": "5071011c31ad09458389d9a86db77805", "is_disabled": 0, "rental_uris": {"android": "https://dc.lft.to/lastmile_qr_scan", "ios": "https://dc.lft.to/lastmile_qr_scan"}, "fusion_lon": 0.0, "lat": 38.90718783333333, "bike_id": "5071011c31ad09458389d9a86db77805", "type": "electric_scooter", "is_reserved": 0, "lon": -77.050437}, {"fusion_lat": 0.0, "name": "c6640de619d9dd5de5e0994d13f7481f", "is_disabled": 0, "rental_uris": {"android": "https://dc.lft.to/lastmile_qr_scan", "ios": "https://dc.lft.to/lastmile_qr_scan"}, "fusion_lon": 0.0, "lat": 38.9085745, "bike_id": "c6640de619d9dd5de5e0994d13f7481f", "type": "electric_scooter", "is_reserved": 0, "lon": -77.04737533333333}, {"fusion_lat": 0.0, "name": "5190cfbf94ffdb488c5272bfcc2a6ee1", "is_disabled": 0, "rental_uris": {"android": "https://dc.lft.to/lastmile_qr_scan", "ios": "https://dc.lft.to/lastmile_qr_scan"}, "fusion_lon": 0.0, "lat": 38.9245745, "bike_id": "5190cfbf94ffdb488c5272bfcc2a6ee1", "type": "electric_scooter", "is_reserved": 0, "lon": -76.99910833333334}, {"fusion_lat": 0.0, "name": "d61dda75cc0f660ffc5c4b4d2f844cb7", "is_disabled": 0, "rental_uris": {"android": "https://dc.lft.to/lastmile_qr_scan", "ios": "https://dc.lft.to/lastmile_qr_scan"}, "fusion_lon": 0.0, "lat": 38.806783333333335, "bike_id": "d61dda75cc0f660ffc5c4b4d2f844cb7", "type": "electric_bike", "is_reserved": 0, "lon": -77.06918016666667}, {"fusion_lat": 0.0, "name": "df3971568593634b57db92defcb24396", "is_disabled": 0, "rental_uris": {"android": "https://dc.lft.to/lastmile_qr_scan", "ios": "https://dc.lft.to/lastmile_qr_scan"}, "fusion_lon": 0.0, "lat": 38.907322666666666, "bike_id": "df3971568593634b57db92defcb24396", "type": "electric_scooter", "is_reserved": 0, "lon": -77.04356416666667}, {"fusion_lat": 0.0, "name": "5b08c709f7929bc00dfb678987b79783", "is_disabled": 0, "rental_uris": {"android": "https://dc.lft.to/lastmile_qr_scan", "ios": "https://dc.lft.to/lastmile_qr_scan"}, "fusion_lon": 0.0, "lat": 38.892202, "bike_id": "5b08c709f7929bc00dfb678987b79783", "type": "electric_scooter", "is_reserved": 0, "lon": -77.023674}, {"fusion_lat": 0.0, "name": "af1507ec9573c043f1fc5dfb261bec22", "is_disabled": 0, "rental_uris": {"android": "https://dc.lft.to/lastmile_qr_scan", "ios": "https://dc.lft.to/lastmile_qr_scan"}, "fusion_lon": 0.0, "lat": 38.8961705, "bike_id": "af1507ec9573c043f1fc5dfb261bec22", "type": "electric_scooter", "is_reserved": 0, "lon": -77.00925416666666}, {"fusion_lat": 0.0, "name": "a7c9347aa750f159e7783fb816319585", "is_disabled": 0, "rental_uris": {"android": "https://dc.lft.to/lastmile_qr_scan", "ios": "https://dc.lft.to/lastmile_qr_scan"}, "fusion_lon": 0.0, "lat": 38.914066166666665, "bike_id": "a7c9347aa750f159e7783fb816319585", "type": "electric_scooter", "is_reserved": 0, "lon": -77.03217483333333}, {"fusion_lat": 0.0, "name": "5b8d4f770b9bc3b770b17e9e054dd99b", "is_disabled": 0, "rental_uris": {"android": "https://dc.lft.to/lastmile_qr_scan", "ios": "https://dc.lft.to/lastmile_qr_scan"}, "fusion_lon": 0.0, "lat": 38.9126865, "bike_id": "5b8d4f770b9bc3b770b17e9e054dd99b", "type": "electric_scooter", "is_reserved": 0, "lon": -77.02254066666667}, {"fusion_lat": 0.0, "name": "b21f524fcbb361f5907f91e6ce9529ea", "is_disabled": 0, "rental_uris": {"android": "https://dc.lft.to/lastmile_qr_scan", "ios": "https://dc.lft.to/lastmile_qr_scan"}, "fusion_lon": 0.0, "lat": 38.897423833333335, "bike_id": "b21f524fcbb361f5907f91e6ce9529ea", "type": "electric_scooter", "is_reserved": 0, "lon": -77.019611}, {"fusion_lat": 0.0, "name": "95b8516f7ad2db13c9de777dcdd39a1c", "is_disabled": 0, "rental_uris": {"android": "https://dc.lft.to/lastmile_qr_scan", "ios": "https://dc.lft.to/lastmile_qr_scan"}, "fusion_lon": 0.0, "lat": 38.9287505, "bike_id": "95b8516f7ad2db13c9de777dcdd39a1c", "type": "electric_scooter", "is_reserved": 0, "lon": -77.05654116666666}, {"fusion_lat": 0.0, "name": "576ba5cc2e442be5a9ee9e067b6d3ef4", "is_disabled": 0, "rental_uris": {"android": "https://dc.lft.to/lastmile_qr_scan", "ios": "https://dc.lft.to/lastmile_qr_scan"}, "fusion_lon": 0.0, "lat": 38.8845515, "bike_id": "576ba5cc2e442be5a9ee9e067b6d3ef4", "type": "electric_scooter", "is_reserved": 0, "lon": -76.99390233333334}, {"fusion_lat": 0.0, "name": "a30c009080b1d9baef2ea1fa5e5d2bac", "is_disabled": 0, "rental_uris": {"android": "https://dc.lft.to/lastmile_qr_scan", "ios": "https://dc.lft.to/lastmile_qr_scan"}, "fusion_lon": 0.0, "lat": 38.887269833333335, "bike_id": "a30c009080b1d9baef2ea1fa5e5d2bac", "type": "electric_scooter", "is_reserved": 0, "lon": -76.983566}, {"fusion_lat": 0.0, "name": "bcb0f06c9f6ee764d920163cd9c2970b", "is_disabled": 0, "rental_uris": {"android": "https://dc.lft.to/lastmile_qr_scan", "ios": "https://dc.lft.to/lastmile_qr_scan"}, "fusion_lon": 0.0, "lat": 38.899691, "bike_id": "bcb0f06c9f6ee764d920163cd9c2970b", "type": "electric_scooter", "is_reserved": 0, "lon": -76.98711166666666}, {"fusion_lat": 0.0, "name": "dd7d7c58bc8f8970f94df7cb91893484", "is_disabled": 0, "rental_uris": {"android": "https://dc.lft.to/lastmile_qr_scan", "ios": "https://dc.lft.to/lastmile_qr_scan"}, "fusion_lon": 0.0, "lat": 38.9064885, "bike_id": "dd7d7c58bc8f8970f94df7cb91893484", "type": "electric_scooter", "is_reserved": 0, "lon": -77.03894533333333}, {"fusion_lat": 0.0, "name": "14e9f0b74e8396e7466a80ef3a0199a5", "is_disabled": 0, "rental_uris": {"android": "https://dc.lft.to/lastmile_qr_scan", "ios": "https://dc.lft.to/lastmile_qr_scan"}, "fusion_lon": 0.0, "lat": 38.90013183333333, "bike_id": "14e9f0b74e8396e7466a80ef3a0199a5", "type": "electric_scooter", "is_reserved": 0, "lon": -77.01247233333333}, {"fusion_lat": 0.0, "name": "3f6ae4b21e3367b4fdba903bc6e337a9", "is_disabled": 0, "rental_uris": {"android": "https://dc.lft.to/lastmile_qr_scan", "ios": "https://dc.lft.to/lastmile_qr_scan"}, "fusion_lon": 0.0, "lat": 38.89749183333333, "bike_id": "3f6ae4b21e3367b4fdba903bc6e337a9", "type": "electric_scooter", "is_reserved": 0, "lon": -77.0333795}, {"fusion_lat": 0.0, "name": "608dcab600707a8458197fc2ecfc355a", "is_disabled": 0, "rental_uris": {"android": "https://dc.lft.to/lastmile_qr_scan", "ios": "https://dc.lft.to/lastmile_qr_scan"}, "fusion_lon": 0.0, "lat": 38.9423365, "bike_id": "608dcab600707a8458197fc2ecfc355a", "type": "electric_scooter", "is_reserved": 0, "lon": -77.01385016666667}, {"fusion_lat": 0.0, "name": "c61c94483ca465546c15f4af63372afd", "is_disabled": 0, "rental_uris": {"android": "https://dc.lft.to/lastmile_qr_scan", "ios": "https://dc.lft.to/lastmile_qr_scan"}, "fusion_lon": 0.0, "lat": 38.8933485, "bike_id": "c61c94483ca465546c15f4af63372afd", "type": "electric_scooter", "is_reserved": 0, "lon": -77.02244566666667}, {"fusion_lat": 0.0, "name": "0998dc9f7e7429dac820e0eb867961e6", "is_disabled": 0, "rental_uris": {"android": "https://dc.lft.to/lastmile_qr_scan", "ios": "https://dc.lft.to/lastmile_qr_scan"}, "fusion_lon": 0.0, "lat": 38.8852065, "bike_id": "0998dc9f7e7429dac820e0eb867961e6", "type": "electric_scooter", "is_reserved": 0, "lon": -77.0151}, {"fusion_lat": 0.0, "name": "594e0012591e0b21df572eff638a0327", "is_disabled": 0, "rental_uris": {"android": "https://dc.lft.to/lastmile_qr_scan", "ios": "https://dc.lft.to/lastmile_qr_scan"}, "fusion_lon": 0.0, "lat": 38.93655016666666, "bike_id": "594e0012591e0b21df572eff638a0327", "type": "electric_scooter", "is_reserved": 0, "lon": -77.03048266666667}, {"fusion_lat": 0.0, "name": "41c04873c0e65aaba13e1fcfa2cf3697", "is_disabled": 0, "rental_uris": {"android": "https://dc.lft.to/lastmile_qr_scan", "ios": "https://dc.lft.to/lastmile_qr_scan"}, "fusion_lon": 0.0, "lat": 38.917628666666666, "bike_id": "41c04873c0e65aaba13e1fcfa2cf3697", "type": "electric_scooter", "is_reserved": 0, "lon": -77.01499433333333}, {"fusion_lat": 0.0, "name": "ce0c334a0e14e534a7b5a5e42089e72f", "is_disabled": 0, "rental_uris": {"android": "https://dc.lft.to/lastmile_qr_scan", "ios": "https://dc.lft.to/lastmile_qr_scan"}, "fusion_lon": 0.0, "lat": 38.920797666666665, "bike_id": "ce0c334a0e14e534a7b5a5e42089e72f", "type": "electric_bike", "is_reserved": 0, "lon": -76.989464}, {"fusion_lat": 0.0, "name": "122418309aa3bfdfb92f7bfb398ef328", "is_disabled": 0, "rental_uris": {"android": "https://dc.lft.to/lastmile_qr_scan", "ios": "https://dc.lft.to/lastmile_qr_scan"}, "fusion_lon": 0.0, "lat": 38.895227166666665, "bike_id": "122418309aa3bfdfb92f7bfb398ef328", "type": "electric_scooter", "is_reserved": 0, "lon": -76.98084583333333}, {"fusion_lat": 0.0, "name": "2b35687a59631af34a59db409ed7b134", "is_disabled": 0, "rental_uris": {"android": "https://dc.lft.to/lastmile_qr_scan", "ios": "https://dc.lft.to/lastmile_qr_scan"}, "fusion_lon": 0.0, "lat": 38.90650133333333, "bike_id": "2b35687a59631af34a59db409ed7b134", "type": "electric_scooter", "is_reserved": 0, "lon": -77.02953166666667}, {"fusion_lat": 0.0, "name": "03174a12100abe47c2943dbbaae85c08", "is_disabled": 0, "rental_uris": {"android": "https://dc.lft.to/lastmile_qr_scan", "ios": "https://dc.lft.to/lastmile_qr_scan"}, "fusion_lon": 0.0, "lat": 38.95349016666667, "bike_id": "03174a12100abe47c2943dbbaae85c08", "type": "electric_scooter", "is_reserved": 0, "lon": -77.079499}, {"fusion_lat": 0.0, "name": "eca86e68ce93dd33b63aeb82a88c39d9", "is_disabled": 0, "rental_uris": {"android": "https://dc.lft.to/lastmile_qr_scan", "ios": "https://dc.lft.to/lastmile_qr_scan"}, "fusion_lon": 0.0, "lat": 38.93552233333333, "bike_id": "eca86e68ce93dd33b63aeb82a88c39d9", "type": "electric_scooter", "is_reserved": 0, "lon": -77.022254}, {"fusion_lat": 0.0, "name": "0c0f197bfc6a51e85d4916bd9f06ba8f", "is_disabled": 0, "rental_uris": {"android": "https://dc.lft.to/lastmile_qr_scan", "ios": "https://dc.lft.to/lastmile_qr_scan"}, "fusion_lon": 0.0, "lat": 38.9592455, "bike_id": "0c0f197bfc6a51e85d4916bd9f06ba8f", "type": "electric_scooter", "is_reserved": 0, "lon": -77.08478866666667}, {"fusion_lat": 0.0, "name": "7acbca8e2f1d1c06d0df2332344c52ae", "is_disabled": 0, "rental_uris": {"android": "https://dc.lft.to/lastmile_qr_scan", "ios": "https://dc.lft.to/lastmile_qr_scan"}, "fusion_lon": 0.0, "lat": 38.92683783333333, "bike_id": "7acbca8e2f1d1c06d0df2332344c52ae", "type": "electric_scooter", "is_reserved": 0, "lon": -77.0225235}, {"fusion_lat": 0.0, "name": "fa68ad95f118acd60158441bfd6d1409", "is_disabled": 0, "rental_uris": {"android": "https://dc.lft.to/lastmile_qr_scan", "ios": "https://dc.lft.to/lastmile_qr_scan"}, "fusion_lon": 0.0, "lat": 38.911149, "bike_id": "fa68ad95f118acd60158441bfd6d1409", "type": "electric_scooter", "is_reserved": 0, "lon": -76.99769183333333}, {"fusion_lat": 0.0, "name": "78f8cd56765108f0e03bd3a57d881839", "is_disabled": 0, "rental_uris": {"android": "https://dc.lft.to/lastmile_qr_scan", "ios": "https://dc.lft.to/lastmile_qr_scan"}, "fusion_lon": 0.0, "lat": 38.9306915, "bike_id": "78f8cd56765108f0e03bd3a57d881839", "type": "electric_scooter", "is_reserved": 0, "lon": -77.03942466666666}, {"fusion_lat": 0.0, "name": "2782352915f22f444502dab18c047882", "is_disabled": 0, "rental_uris": {"android": "https://dc.lft.to/lastmile_qr_scan", "ios": "https://dc.lft.to/lastmile_qr_scan"}, "fusion_lon": 0.0, "lat": 38.916555, "bike_id": "2782352915f22f444502dab18c047882", "type": "electric_bike", "is_reserved": 0, "lon": -76.98229516666666}, {"fusion_lat": 0.0, "name": "ceaf9d113b36e0eb46f6794dcbe0da0f", "is_disabled": 0, "rental_uris": {"android": "https://dc.lft.to/lastmile_qr_scan", "ios": "https://dc.lft.to/lastmile_qr_scan"}, "fusion_lon": 0.0, "lat": 38.94980616666667, "bike_id": "ceaf9d113b36e0eb46f6794dcbe0da0f", "type": "electric_scooter", "is_reserved": 0, "lon": -77.02698033333333}, {"fusion_lat": 0.0, "name": "325e002fe04fe56f3fe06217953eb1ae", "is_disabled": 0, "rental_uris": {"android": "https://dc.lft.to/lastmile_qr_scan", "ios": "https://dc.lft.to/lastmile_qr_scan"}, "fusion_lon": 0.0, "lat": 38.868498, "bike_id": "325e002fe04fe56f3fe06217953eb1ae", "type": "electric_scooter", "is_reserved": 0, "lon": -76.98829383333333}, {"fusion_lat": 0.0, "name": "5d554d0abef8f8a28ed71ffb55b1a538", "is_disabled": 0, "rental_uris": {"android": "https://dc.lft.to/lastmile_qr_scan", "ios": "https://dc.lft.to/lastmile_qr_scan"}, "fusion_lon": 0.0, "lat": 38.949825833333335, "bike_id": "5d554d0abef8f8a28ed71ffb55b1a538", "type": "electric_scooter", "is_reserved": 0, "lon": -77.0269605}, {"fusion_lat": 0.0, "name": "0a4de10ea79eba1def4d2cd3e2d5166b", "is_disabled": 0, "rental_uris": {"android": "https://dc.lft.to/lastmile_qr_scan", "ios": "https://dc.lft.to/lastmile_qr_scan"}, "fusion_lon": 0.0, "lat": 38.92541533333333, "bike_id": "0a4de10ea79eba1def4d2cd3e2d5166b", "type": "electric_scooter", "is_reserved": 0, "lon": -77.051152}, {"fusion_lat": 0.0, "name": "79b30d3b3b15b0c5608be8754b8338a5", "is_disabled": 0, "rental_uris": {"android": "https://dc.lft.to/lastmile_qr_scan", "ios": "https://dc.lft.to/lastmile_qr_scan"}, "fusion_lon": 0.0, "lat": 38.95736483333334, "bike_id": "79b30d3b3b15b0c5608be8754b8338a5", "type": "electric_scooter", "is_reserved": 0, "lon": -77.024026}, {"fusion_lat": 0.0, "name": "b84ab1ef97665a4ac2730cc783bd8168", "is_disabled": 0, "rental_uris": {"android": "https://dc.lft.to/lastmile_qr_scan", "ios": "https://dc.lft.to/lastmile_qr_scan"}, "fusion_lon": 0.0, "lat": 38.945038333333336, "bike_id": "b84ab1ef97665a4ac2730cc783bd8168", "type": "electric_bike", "is_reserved": 0, "lon": -77.006729}, {"fusion_lat": 0.0, "name": "30c2cabeeead3583a72ba73f5d7a4b26", "is_disabled": 0, "rental_uris": {"android": "https://dc.lft.to/lastmile_qr_scan", "ios": "https://dc.lft.to/lastmile_qr_scan"}, "fusion_lon": 0.0, "lat": 38.87567116666666, "bike_id": "30c2cabeeead3583a72ba73f5d7a4b26", "type": "electric_scooter", "is_reserved": 0, "lon": -77.00739233333333}, {"fusion_lat": 0.0, "name": "dc284621aaf6695fe29c523de6d30ac7", "is_disabled": 0, "rental_uris": {"android": "https://dc.lft.to/lastmile_qr_scan", "ios": "https://dc.lft.to/lastmile_qr_scan"}, "fusion_lon": 0.0, "lat": 38.908062, "bike_id": "dc284621aaf6695fe29c523de6d30ac7", "type": "electric_bike", "is_reserved": 0, "lon": -77.01885016666667}, {"fusion_lat": 0.0, "name": "ddea250801029b7ce3f9846e63742d4e", "is_disabled": 0, "rental_uris": {"android": "https://dc.lft.to/lastmile_qr_scan", "ios": "https://dc.lft.to/lastmile_qr_scan"}, "fusion_lon": 0.0, "lat": 38.86631116666667, "bike_id": "ddea250801029b7ce3f9846e63742d4e", "type": "electric_scooter", "is_reserved": 0, "lon": -76.9871715}, {"fusion_lat": 0.0, "name": "ace2adcf5fb832bdac7a99d9e6526084", "is_disabled": 0, "rental_uris": {"android": "https://dc.lft.to/lastmile_qr_scan", "ios": "https://dc.lft.to/lastmile_qr_scan"}, "fusion_lon": 0.0, "lat": 38.874579, "bike_id": "ace2adcf5fb832bdac7a99d9e6526084", "type": "electric_bike", "is_reserved": 0, "lon": -76.99947566666667}, {"fusion_lat": 0.0, "name": "d86830a66b2be492594963d60a98f8a1", "is_disabled": 0, "rental_uris": {"android": "https://dc.lft.to/lastmile_qr_scan", "ios": "https://dc.lft.to/lastmile_qr_scan"}, "fusion_lon": 0.0, "lat": 38.898182, "bike_id": "d86830a66b2be492594963d60a98f8a1", "type": "electric_scooter", "is_reserved": 0, "lon": -77.02715133333334}, {"fusion_lat": 0.0, "name": "7de5876c559acbc72da90ec1c51ea199", "is_disabled": 0, "rental_uris": {"android": "https://dc.lft.to/lastmile_qr_scan", "ios": "https://dc.lft.to/lastmile_qr_scan"}, "fusion_lon": 0.0, "lat": 38.93237883333333, "bike_id": "7de5876c559acbc72da90ec1c51ea199", "type": "electric_bike", "is_reserved": 0, "lon": -76.97422633333333}, {"fusion_lat": 0.0, "name": "55ee149a8fb8e9eb2452909099ed7f29", "is_disabled": 0, "rental_uris": {"android": "https://dc.lft.to/lastmile_qr_scan", "ios": "https://dc.lft.to/lastmile_qr_scan"}, "fusion_lon": 0.0, "lat": 38.911802, "bike_id": "55ee149a8fb8e9eb2452909099ed7f29", "type": "electric_scooter", "is_reserved": 0, "lon": -77.03663316666666}, {"fusion_lat": 0.0, "name": "307d75b26e8478591a11e0957978d58f", "is_disabled": 0, "rental_uris": {"android": "https://dc.lft.to/lastmile_qr_scan", "ios": "https://dc.lft.to/lastmile_qr_scan"}, "fusion_lon": 0.0, "lat": 38.951171333333335, "bike_id": "307d75b26e8478591a11e0957978d58f", "type": "electric_scooter", "is_reserved": 0, "lon": -77.058608}, {"fusion_lat": 0.0, "name": "679b88023fc221cac5c12411b7cc9c15", "is_disabled": 0, "rental_uris": {"android": "https://dc.lft.to/lastmile_qr_scan", "ios": "https://dc.lft.to/lastmile_qr_scan"}, "fusion_lon": 0.0, "lat": 38.9169715, "bike_id": "679b88023fc221cac5c12411b7cc9c15", "type": "electric_scooter", "is_reserved": 0, "lon": -77.03717366666666}, {"fusion_lat": 0.0, "name": "49b6945256d4bd47f231cd4399317502", "is_disabled": 0, "rental_uris": {"android": "https://dc.lft.to/lastmile_qr_scan", "ios": "https://dc.lft.to/lastmile_qr_scan"}, "fusion_lon": 0.0, "lat": 38.954761, "bike_id": "49b6945256d4bd47f231cd4399317502", "type": "electric_scooter", "is_reserved": 0, "lon": -77.07777833333333}, {"fusion_lat": 0.0, "name": "db0b5734db2ef7e299178028ea921aca", "is_disabled": 0, "rental_uris": {"android": "https://dc.lft.to/lastmile_qr_scan", "ios": "https://dc.lft.to/lastmile_qr_scan"}, "fusion_lon": 0.0, "lat": 38.908591333333334, "bike_id": "db0b5734db2ef7e299178028ea921aca", "type": "electric_scooter", "is_reserved": 0, "lon": -77.02719083333334}, {"fusion_lat": 0.0, "name": "7b7d02e770b785d7770ca49339754fcc", "is_disabled": 0, "rental_uris": {"android": "https://dc.lft.to/lastmile_qr_scan", "ios": "https://dc.lft.to/lastmile_qr_scan"}, "fusion_lon": 0.0, "lat": 38.8922575, "bike_id": "7b7d02e770b785d7770ca49339754fcc", "type": "electric_scooter", "is_reserved": 0, "lon": -77.02777666666667}, {"fusion_lat": 0.0, "name": "ad9f1c7f30a52baf4913d5b9462f09dd", "is_disabled": 0, "rental_uris": {"android": "https://dc.lft.to/lastmile_qr_scan", "ios": "https://dc.lft.to/lastmile_qr_scan"}, "fusion_lon": 0.0, "lat": 38.905841333333335, "bike_id": "ad9f1c7f30a52baf4913d5b9462f09dd", "type": "electric_scooter", "is_reserved": 0, "lon": -77.00894116666667}, {"fusion_lat": 0.0, "name": "3690375d67c6642636fbf1e6c1817eb5", "is_disabled": 0, "rental_uris": {"android": "https://dc.lft.to/lastmile_qr_scan", "ios": "https://dc.lft.to/lastmile_qr_scan"}, "fusion_lon": 0.0, "lat": 38.897683, "bike_id": "3690375d67c6642636fbf1e6c1817eb5", "type": "electric_scooter", "is_reserved": 0, "lon": -77.05145616666667}, {"fusion_lat": 0.0, "name": "f5f3bfe74bfcce4b76b883719e184ab7", "is_disabled": 0, "rental_uris": {"android": "https://dc.lft.to/lastmile_qr_scan", "ios": "https://dc.lft.to/lastmile_qr_scan"}, "fusion_lon": 0.0, "lat": 38.884409, "bike_id": "f5f3bfe74bfcce4b76b883719e184ab7", "type": "electric_scooter", "is_reserved": 0, "lon": -77.0034625}, {"fusion_lat": 0.0, "name": "0190f32a29a3aa8b885c1a7f2d80d61d", "is_disabled": 0, "rental_uris": {"android": "https://dc.lft.to/lastmile_qr_scan", "ios": "https://dc.lft.to/lastmile_qr_scan"},