{"data": {"bikes": [{"fusion_lat": 0.0, "type": "electric_scooter", "name": "c536f21ab5e73e3c1f36fa072984c6e3", "fusion_lon": 0.0, "bike_id": "c536f21ab5e73e3c1f36fa072984c6e3", "is_reserved": 0, "rental_uris": {"android": "https://dc.lft.to/lastmile_qr_scan", "ios": "https://dc.lft.to/lastmile_qr_scan"}, "lat": 38.9083735, "is_disabled": 0, "lon": -77.04349483333333}, {"fusion_lat": 0.0, "type": "electric_scooter", "name": "b16a0cb366ad76be045a5cbb169f9ab8", "fusion_lon": 0.0, "bike_id": "b16a0cb366ad76be045a5cbb169f9ab8", "is_reserved": 0, "rental_uris": {"android": "https://dc.lft.to/lastmile_qr_scan", "ios": "https://dc.lft.to/lastmile_qr_scan"}, "lat": 38.926888166666664, "is_disabled": 0, "lon": -77.02966283333333}, {"fusion_lat": 0.0, "type": "electric_scooter", "name": "1cfb615781be120d085e3ebc45138203", "fusion_lon": 0.0, "bike_id": "1cfb615781be120d085e3ebc45138203", "is_reserved": 0, "rental_uris": {"android": "https://dc.lft.to/lastmile_qr_scan", "ios": "https://dc.lft.to/lastmile_qr_scan"}, "lat": 38.892300166666665, "is_disabled": 0, "lon": -77.05005466666667}, {"fusion_lat": 0.0, "type": "electric_scooter", "name": "6d461813fc8d7ab14d37584794fd7d4c", "fusion_lon": 0.0, "bike_id": "6d461813fc8d7ab14d37584794fd7d4c", "is_reserved": 0, "rental_uris": {"android": "https://dc.lft.to/lastmile_qr_scan", "ios": "https://dc.lft.to/lastmile_qr_scan"}, "lat": 38.92722166666667, "is_disabled": 0, "lon": -77.020818}, {"fusion_lat": 0.0, "type": "electric_scooter", "name": "022bed6f2f4707a7acde71deed7b9c75", "fusion_lon": 0.0, "bike_id": "022bed6f2f4707a7acde71deed7b9c75", "is_reserved": 0, "rental_uris": {"android": "https://dc.lft.to/lastmile_qr_scan", "ios": "https://dc.lft.to/lastmile_qr_scan"}, "lat": 38.91962383333333, "is_disabled": 0, "lon": -77.01443083333334}, {"fusion_lat": 0.0, "type": "electric_scooter", "name": "472e45b1cc33eaf01cc902ea7fac4c93", "fusion_lon": 0.0, "bike_id": "472e45b1cc33eaf01cc902ea7fac4c93", "is_reserved": 0, "rental_uris": {"android": "https://dc.lft.to/lastmile_qr_scan", "ios": "https://dc.lft.to/lastmile_qr_scan"}, "lat": 38.90512416666667, "is_disabled": 0, "lon": -77.06892416666666}, {"fusion_lat": 0.0, "type": "electric_bike", "name": "99476f5de1d4fa403593a29b6296a264", "fusion_lon": 0.0, "bike_id": "99476f5de1d4fa403593a29b6296a264", "is_reserved": 0, "rental_uris": {"android": "https://dc.lft.to/lastmile_qr_scan", "ios": "https://dc.lft.to/lastmile_qr_scan"}, "lat": 38.872722833333334, "is_disabled": 0, "lon": -77.233281}, {"fusion_lat": 0.0, "type": "electric_scooter", "name": "fb011c5002a2a9f48cef24ba4bc273ac", "fusion_lon": 0.0, "bike_id": "fb011c5002a2a9f48cef24ba4bc273ac", "is_reserved": 0, "rental_uris": {"android": "https://dc.lft.to/lastmile_qr_scan", "ios": "https://dc.lft.to/lastmile_qr_scan"}, "lat": 38.90168933333333, "is_disabled": 0, "lon": -77.0599915}, {"fusion_lat": 0.0, "type": "electric_scooter", "name": "4c5b1784101ce2ffd738c0d246b5196c", "fusion_lon": 0.0, "bike_id": "4c5b1784101ce2ffd738c0d246b5196c", "is_reserved": 0, "rental_uris": {"android": "https://dc.lft.to/lastmile_qr_scan", "ios": "https://dc.lft.to/lastmile_qr_scan"}, "lat": 38.89361783333333, "is_disabled": 0, "lon": -76.94817966666666}, {"fusion_lat": 0.0, "type": "electric_scooter", "name": "37be69f15b62d3fbd2999130a28a315d", "fusion_lon": 0.0, "bike_id": "37be69f15b62d3fbd2999130a28a315d", "is_reserved": 0, "rental_uris": {"android": "https://dc.lft.to/lastmile_qr_scan", "ios": "https://dc.lft.to/lastmile_qr_scan"}, "lat": 38.900701, "is_disabled": 0, "lon": -77.02179983333333}, {"fusion_lat": 0.0, "type": "electric_scooter", "name": "4fac9dc07c1e0a4b4cbabff8c5b05deb", "fusion_lon": 0.0, "bike_id": "4fac9dc07c1e0a4b4cbabff8c5b05deb", "is_reserved": 0, "rental_uris": {"android": "https://dc.lft.to/lastmile_qr_scan", "ios": "https://dc.lft.to/lastmile_qr_scan"}, "lat": 38.8984205, "is_disabled": 0, "lon": -76.94638816666667}, {"fusion_lat": 0.0, "type": "electric_scooter", "name": "d1e040503dbe646a665e835587478c7b", "fusion_lon": 0.0, "bike_id": "d1e040503dbe646a665e835587478c7b", "is_reserved": 0, "rental_uris": {"android": "https://dc.lft.to/lastmile_qr_scan", "ios": "https://dc.lft.to/lastmile_qr_scan"}, "lat": 38.90883266666667, "is_disabled": 0, "lon": -77.04662066666667}, {"fusion_lat": 0.0, "type": "electric_scooter", "name": "68d56b6eaf16b55e3dc7150836e22ca2", "fusion_lon": 0.0, "bike_id": "68d56b6eaf16b55e3dc7150836e22ca2", "is_reserved": 0, "rental_uris": {"android": "https://dc.lft.to/lastmile_qr_scan", "ios": "https://dc.lft.to/lastmile_qr_scan"}, "lat": 38.899156, "is_disabled": 0, "lon": -76.93381783333334}, {"fusion_lat": 0.0, "type": "electric_scooter", "name": "1f70dff55e918cb1ca11f078273ba724", "fusion_lon": 0.0, "bike_id": "1f70dff55e918cb1ca11f078273ba724", "is_reserved": 0, "rental_uris": {"android": "https://dc.lft.to/lastmile_qr_scan", "ios": "https://dc.lft.to/lastmile_qr_scan"}, "lat": 38.892481, "is_disabled": 0, "lon": -77.04658616666667}, {"fusion_lat": 0.0, "type": "electric_scooter", "name": "38061bf9cd96f30e59f1141ab02d8e60", "fusion_lon": 0.0, "bike_id": "38061bf9cd96f30e59f1141ab02d8e60", "is_reserved": 0, "rental_uris": {"android": "https://dc.lft.to/lastmile_qr_scan", "ios": "https://dc.lft.to/lastmile_qr_scan"}, "lat": 38.915560666666664, "is_disabled": 0, "lon": -77.04180983333333}, {"fusion_lat": 0.0, "type": "electric_bike", "name": "12641a57787586c7783d4fc75e98e4fb", "fusion_lon": 0.0, "bike_id": "12641a57787586c7783d4fc75e98e4fb", "is_reserved": 0, "rental_uris": {"android": "https://dc.lft.to/lastmile_qr_scan", "ios": "https://dc.lft.to/lastmile_qr_scan"}, "lat": 39.062954833333336, "is_disabled": 0, "lon": -77.04978983333334}, {"fusion_lat": 0.0, "type": "electric_scooter", "name": "5afa1f48089cc6a85ac9afa503d31125", "fusion_lon": 0.0, "bike_id": "5afa1f48089cc6a85ac9afa503d31125", "is_reserved": 0, "rental_uris": {"android": "https://dc.lft.to/lastmile_qr_scan", "ios": "https://dc.lft.to/lastmile_qr_scan"}, "lat": 38.89223833333333, "is_disabled": 0, "lon": -77.02348216666667}, {"fusion_lat": 0.0, "type": "electric_scooter", "name": "fb8ef5c114fae0ba04de1631a7e3202e", "fusion_lon": 0.0, "bike_id": "fb8ef5c114fae0ba04de1631a7e3202e", "is_reserved": 0, "rental_uris": {"android": "https://dc.lft.to/lastmile_qr_scan", "ios": "https://dc.lft.to/lastmile_qr_scan"}, "lat": 38.92118416666667, "is_disabled": 0, "lon": -77.03664966666666}, {"fusion_lat": 0.0, "type": "electric_scooter", "name": "7ec43735949dcbf0d80044c21b8cfc74", "fusion_lon": 0.0, "bike_id": "7ec43735949dcbf0d80044c21b8cfc74", "is_reserved": 0, "rental_uris": {"android": "https://dc.lft.to/lastmile_qr_scan", "ios": "https://dc.lft.to/lastmile_qr_scan"}, "lat": 38.92097866666667, "is_disabled": 0, "lon": -77.03171716666667}, {"fusion_lat": 0.0, "type": "electric_scooter", "name": "16341f77ed1f304849f47460ded38b3a", "fusion_lon": 0.0, "bike_id": "16341f77ed1f304849f47460ded38b3a", "is_reserved": 0, "rental_uris": {"android": "https://dc.lft.to/lastmile_qr_scan", "ios": "https://dc.lft.to/lastmile_qr_scan"}, "lat": 38.89917416666667, "is_disabled": 0, "lon": -76.93379683333333}, {"fusion_lat": 0.0, "type": "electric_scooter", "name": "ff03fe04ab97043c396ffa4a5b209729", "fusion_lon": 0.0, "bike_id": "ff03fe04ab97043c396ffa4a5b209729", "is_reserved": 0, "rental_uris": {"android": "https://dc.lft.to/lastmile_qr_scan", "ios": "https://dc.lft.to/lastmile_qr_scan"}, "lat": 38.93981016666667, "is_disabled": 0, "lon": -77.0297825}, {"fusion_lat": 0.0, "type": "electric_scooter", "name": "a511a2bdc61566c95f351af2a8fd9ddc", "fusion_lon": 0.0, "bike_id": "a511a2bdc61566c95f351af2a8fd9ddc", "is_reserved": 0, "rental_uris": {"android": "https://dc.lft.to/lastmile_qr_scan", "ios": "https://dc.lft.to/lastmile_qr_scan"}, "lat": 38.916795666666665, "is_disabled": 0, "lon": -77.0366485}, {"fusion_lat": 0.0, "type": "electric_scooter", "name": "87d7065740cc8c6ca0848d8123433823", "fusion_lon": 0.0, "bike_id": "87d7065740cc8c6ca0848d8123433823", "is_reserved": 0, "rental_uris": {"android": "https://dc.lft.to/lastmile_qr_scan", "ios": "https://dc.lft.to/lastmile_qr_scan"}, "lat": 38.90735566666667, "is_disabled": 0, "lon": -77.0347245}, {"fusion_lat": 0.0, "type": "electric_scooter", "name": "68d50e6ef42f4109b914c83ed050bc5e", "fusion_lon": 0.0, "bike_id": "68d50e6ef42f4109b914c83ed050bc5e", "is_reserved": 0, "rental_uris": {"android": "https://dc.lft.to/lastmile_qr_scan", "ios": "https://dc.lft.to/lastmile_qr_scan"}, "lat": 38.92445566666667, "is_disabled": 0, "lon": -77.04117983333333}, {"fusion_lat": 0.0, "type": "electric_scooter", "name": "55a2d3f3bf6d48df24349a5087bc2c58", "fusion_lon": 0.0, "bike_id": "55a2d3f3bf6d48df24349a5087bc2c58", "is_reserved": 0, "rental_uris": {"android": "https://dc.lft.to/lastmile_qr_scan", "ios": "https://dc.lft.to/lastmile_qr_scan"}, "lat": 38.9007515, "is_disabled": 0, "lon": -77.04770716666667}, {"fusion_lat": 0.0, "type": "electric_scooter", "name": "7588da1339faffbb9af1f67e3a5f6873", "fusion_lon": 0.0, "bike_id": "7588da1339faffbb9af1f67e3a5f6873", "is_reserved": 0, "rental_uris": {"android": "https://dc.lft.to/lastmile_qr_scan", "ios": "https://dc.lft.to/lastmile_qr_scan"}, "lat": 38.89792583333333, "is_disabled": 0, "lon": -77.027299}, {"fusion_lat": 0.0, "type": "electric_scooter", "name": "1fafd2bba814e4fcb84621131f0cadeb", "fusion_lon": 0.0, "bike_id": "1fafd2bba814e4fcb84621131f0cadeb", "is_reserved": 0, "rental_uris": {"android": "https://dc.lft.to/lastmile_qr_scan", "ios": "https://dc.lft.to/lastmile_qr_scan"}, "lat": 38.88303283333333, "is_disabled": 0, "lon": -76.97868266666667}, {"fusion_lat": 0.0, "type": "electric_scooter", "name": "43801a734214c6a614e981f4195fcc50", "fusion_lon": 0.0, "bike_id": "43801a734214c6a614e981f4195fcc50", "is_reserved": 0, "rental_uris": {"android": "https://dc.lft.to/lastmile_qr_scan", "ios": "https://dc.lft.to/lastmile_qr_scan"}, "lat": 38.915570833333334, "is_disabled": 0, "lon": -77.0312635}, {"fusion_lat": 0.0, "type": "electric_scooter", "name": "e2d80ff52158fb78d6054e2a2e2bff96", "fusion_lon": 0.0, "bike_id": "e2d80ff52158fb78d6054e2a2e2bff96", "is_reserved": 0, "rental_uris": {"android": "https://dc.lft.to/lastmile_qr_scan", "ios": "https://dc.lft.to/lastmile_qr_scan"}, "lat": 38.9110255, "is_disabled": 0, "lon": -77.00209683333334}, {"fusion_lat": 0.0, "type": "electric_scooter", "name": "8e0320c98df2c4e727b1a9412ff04559", "fusion_lon": 0.0, "bike_id": "8e0320c98df2c4e727b1a9412ff04559", "is_reserved": 0, "rental_uris": {"android": "https://dc.lft.to/lastmile_qr_scan", "ios": "https://dc.lft.to/lastmile_qr_scan"}, "lat": 38.921361166666664, "is_disabled": 0, "lon": -77.036608}, {"fusion_lat": 0.0, "type": "electric_scooter", "name": "8526e1b9c461c32d257b07c75a156fdf", "fusion_lon": 0.0, "bike_id": "8526e1b9c461c32d257b07c75a156fdf", "is_reserved": 0, "rental_uris": {"android": "https://dc.lft.to/lastmile_qr_scan", "ios": "https://dc.lft.to/lastmile_qr_scan"}, "lat": 38.880692833333335, "is_disabled": 0, "lon": -76.93222583333333}, {"fusion_lat": 0.0, "type": "electric_scooter", "name": "12c817d56908111297e678759aff2496", "fusion_lon": 0.0, "bike_id": "12c817d56908111297e678759aff2496", "is_reserved": 0, "rental_uris": {"android": "https://dc.lft.to/lastmile_qr_scan", "ios": "https://dc.lft.to/lastmile_qr_scan"}, "lat": 38.86257033333333, "is_disabled": 0, "lon": -76.99611883333333}, {"fusion_lat": 0.0, "type": "electric_scooter", "name": "408cd55664073196c54f5945607724bb", "fusion_lon": 0.0, "bike_id": "408cd55664073196c54f5945607724bb", "is_reserved": 0, "rental_uris": {"android": "https://dc.lft.to/lastmile_qr_scan", "ios": "https://dc.lft.to/lastmile_qr_scan"}, "lat": 38.911322166666665, "is_disabled": 0, "lon": -77.0269285}, {"fusion_lat": 0.0, "type": "electric_scooter", "name": "0247510b076c4689d1cb9df0f20ded3a", "fusion_lon": 0.0, "bike_id": "0247510b076c4689d1cb9df0f20ded3a", "is_reserved": 0, "rental_uris": {"android": "https://dc.lft.to/lastmile_qr_scan", "ios": "https://dc.lft.to/lastmile_qr_scan"}, "lat": 38.89728266666667, "is_disabled": 0, "lon": -77.026929}, {"fusion_lat": 0.0, "type": "electric_scooter", "name": "bc02ceb0f80d74d696e9266a9490056b", "fusion_lon": 0.0, "bike_id": "bc02ceb0f80d74d696e9266a9490056b", "is_reserved": 0, "rental_uris": {"android": "https://dc.lft.to/lastmile_qr_scan", "ios": "https://dc.lft.to/lastmile_qr_scan"}, "lat": 38.906505, "is_disabled": 0, "lon": -77.04887516666666}, {"fusion_lat": 0.0, "type": "electric_scooter", "name": "8873e55848370140d10111fea6da4515", "fusion_lon": 0.0, "bike_id": "8873e55848370140d10111fea6da4515", "is_reserved": 0, "rental_uris": {"android": "https://dc.lft.to/lastmile_qr_scan", "ios": "https://dc.lft.to/lastmile_qr_scan"}, "lat": 38.921631166666664, "is_disabled": 0, "lon": -77.03269833333333}, {"fusion_lat": 0.0, "type": "electric_scooter", "name": "e53f91a58878b96c08fedec63b2cfe98", "fusion_lon": 0.0, "bike_id": "e53f91a58878b96c08fedec63b2cfe98", "is_reserved": 0, "rental_uris": {"android": "https://dc.lft.to/lastmile_qr_scan", "ios": "https://dc.lft.to/lastmile_qr_scan"}, "lat": 38.907289166666665, "is_disabled": 0, "lon": -77.03191583333333}, {"fusion_lat": 0.0, "type": "electric_scooter", "name": "191c52957758b3cfd462e5330309ed17", "fusion_lon": 0.0, "bike_id": "191c52957758b3cfd462e5330309ed17", "is_reserved": 0, "rental_uris": {"android": "https://dc.lft.to/lastmile_qr_scan", "ios": "https://dc.lft.to/lastmile_qr_scan"}, "lat": 38.921079, "is_disabled": 0, "lon": -77.033303}, {"fusion_lat": 0.0, "type": "electric_scooter", "name": "9e97929d03994eb50964958a202ca40a", "fusion_lon": 0.0, "bike_id": "9e97929d03994eb50964958a202ca40a", "is_reserved": 0, "rental_uris": {"android": "https://dc.lft.to/lastmile_qr_scan", "ios": "https://dc.lft.to/lastmile_qr_scan"}, "lat": 38.91910583333333, "is_disabled": 0, "lon": -77.034438}, {"fusion_lat": 0.0, "type": "electric_scooter", "name": "bb9e664c3f42777e0c7e0c80b4b448b2", "fusion_lon": 0.0, "bike_id": "bb9e664c3f42777e0c7e0c80b4b448b2", "is_reserved": 0, "rental_uris": {"android": "https://dc.lft.to/lastmile_qr_scan", "ios": "https://dc.lft.to/lastmile_qr_scan"}, "lat": 38.866486, "is_disabled": 0, "lon": -76.9851695}, {"fusion_lat": 0.0, "type": "electric_scooter", "name": "a11d4483ebd2e8a52569e71591754923", "fusion_lon": 0.0, "bike_id": "a11d4483ebd2e8a52569e71591754923", "is_reserved": 0, "rental_uris": {"android": "https://dc.lft.to/lastmile_qr_scan", "ios": "https://dc.lft.to/lastmile_qr_scan"}, "lat": 38.915516833333335, "is_disabled": 0, "lon": -77.00702666666666}, {"fusion_lat": 0.0, "type": "electric_scooter", "name": "23f51b2ff622be5f329209fbe775b1f8", "fusion_lon": 0.0, "bike_id": "23f51b2ff622be5f329209fbe775b1f8", "is_reserved": 0, "rental_uris": {"android": "https://dc.lft.to/lastmile_qr_scan", "ios": "https://dc.lft.to/lastmile_qr_scan"}, "lat": 38.956863166666665, "is_disabled": 0, "lon": -77.032573}, {"fusion_lat": 0.0, "type": "electric_scooter", "name": "228792cae1c3b5f9026ec311565a11b2", "fusion_lon": 0.0, "bike_id": "228792cae1c3b5f9026ec311565a11b2", "is_reserved": 0, "rental_uris": {"android": "https://dc.lft.to/lastmile_qr_scan", "ios": "https://dc.lft.to/lastmile_qr_scan"}, "lat": 38.87456183333333, "is_disabled": 0, "lon": -77.005468}, {"fusion_lat": 0.0, "type": "electric_scooter", "name": "ddaeca771c21f9558907b488541fd43b", "fusion_lon": 0.0, "bike_id": "ddaeca771c21f9558907b488541fd43b", "is_reserved": 0, "rental_uris": {"android": "https://dc.lft.to/lastmile_qr_scan", "ios": "https://dc.lft.to/lastmile_qr_scan"}, "lat": 38.934003, "is_disabled": 0, "lon": -77.02217966666667}, {"fusion_lat": 0.0, "type": "electric_scooter", "name": "aa350cfd99d73a4a6442e166b8e5d0e9", "fusion_lon": 0.0, "bike_id": "aa350cfd99d73a4a6442e166b8e5d0e9", "is_reserved": 0, "rental_uris": {"android": "https://dc.lft.to/lastmile_qr_scan", "ios": "https://dc.lft.to/lastmile_qr_scan"}, "lat": 38.8637495, "is_disabled": 0, "lon": -76.99059266666667}, {"fusion_lat": 0.0, "type": "electric_scooter", "name": "41ae842d643c25aa7466ea6f75644131", "fusion_lon": 0.0, "bike_id": "41ae842d643c25aa7466ea6f75644131", "is_reserved": 0, "rental_uris": {"android": "https://dc.lft.to/lastmile_qr_scan", "ios": "https://dc.lft.to/lastmile_qr_scan"}, "lat": 38.892988833333334, "is_disabled": 0, "lon": -77.0124325}, {"fusion_lat": 0.0, "type": "electric_scooter", "name": "8a05e7aebda6872d1a364aed1361a722", "fusion_lon": 0.0, "bike_id": "8a05e7aebda6872d1a364aed1361a722", "is_reserved": 0, "rental_uris": {"android": "https://dc.lft.to/lastmile_qr_scan", "ios": "https://dc.lft.to/lastmile_qr_scan"}, "lat": 38.924873833333336, "is_disabled": 0, "lon": -77.0576165}, {"fusion_lat": 0.0, "type": "electric_scooter", "name": "8bdd8290550735c8f31b96bd2c5a1996", "fusion_lon": 0.0, "bike_id": "8bdd8290550735c8f31b96bd2c5a1996", "is_reserved": 0, "rental_uris": {"android": "https://dc.lft.to/lastmile_qr_scan", "ios": "https://dc.lft.to/lastmile_qr_scan"}, "lat": 38.91743866666667, "is_disabled": 0, "lon": -77.01085166666667}, {"fusion_lat": 0.0, "type": "electric_scooter", "name": "85f7a0c3340ce5655d26181b5da8aa05", "fusion_lon": 0.0, "bike_id": "85f7a0c3340ce5655d26181b5da8aa05", "is_reserved": 0, "rental_uris": {"android": "https://dc.lft.to/lastmile_qr_scan", "ios": "https://dc.lft.to/lastmile_qr_scan"}, "lat": 38.885923, "is_disabled": 0, "lon": -76.99146983333333}, {"fusion_lat": 0.0, "type": "electric_bike", "name": "86f4c5518e423f65825b1171f1b32af6", "fusion_lon": 0.0, "bike_id": "86f4c5518e423f65825b1171f1b32af6", "is_reserved": 0, "rental_uris": {"android": "https://dc.lft.to/lastmile_qr_scan", "ios": "https://dc.lft.to/lastmile_qr_scan"}, "lat": 38.93970483333333, "is_disabled": 0, "lon": -76.98618083333334}, {"fusion_lat": 0.0, "type": "electric_scooter", "name": "a5f6c37d7c3b0e5ac301a5da26a9f7ea", "fusion_lon": 0.0, "bike_id": "a5f6c37d7c3b0e5ac301a5da26a9f7ea", "is_reserved": 0, "rental_uris": {"android": "https://dc.lft.to/lastmile_qr_scan", "ios": "https://dc.lft.to/lastmile_qr_scan"}, "lat": 38.92472166666667, "is_disabled": 0, "lon": -77.02216033333333}, {"fusion_lat": 0.0, "type": "electric_scooter", "name": "541eadcfae9f3677365d1a1d3249fd30", "fusion_lon": 0.0, "bike_id": "541eadcfae9f3677365d1a1d3249fd30", "is_reserved": 0, "rental_uris": {"android": "https://dc.lft.to/lastmile_qr_scan", "ios": "https://dc.lft.to/lastmile_qr_scan"}, "lat": 38.921153, "is_disabled": 0, "lon": -77.03236316666667}, {"fusion_lat": 0.0, "type": "electric_scooter", "name": "c6a35788c2766aa3b35f189c1663853a", "fusion_lon": 0.0, "bike_id": "c6a35788c2766aa3b35f189c1663853a", "is_reserved": 0, "rental_uris": {"android": "https://dc.lft.to/lastmile_qr_scan", "ios": "https://dc.lft.to/lastmile_qr_scan"}, "lat": 38.93983866666667, "is_disabled": 0, "lon": -77.0288655}, {"fusion_lat": 0.0, "type": "electric_bike", "name": "864791ee83ab8861335193c01d0dcef2", "fusion_lon": 0.0, "bike_id": "864791ee83ab8861335193c01d0dcef2", "is_reserved": 0, "rental_uris": {"android": "https://dc.lft.to/lastmile_qr_scan", "ios": "https://dc.lft.to/lastmile_qr_scan"}, "lat": 38.948055, "is_disabled": 0, "lon": -76.97232133333333}, {"fusion_lat": 0.0, "type": "electric_scooter", "name": "67adfdecfcfa33d56a6175e816b2ba1c", "fusion_lon": 0.0, "bike_id": "67adfdecfcfa33d56a6175e816b2ba1c", "is_reserved": 0, "rental_uris": {"android": "https://dc.lft.to/lastmile_qr_scan", "ios": "https://dc.lft.to/lastmile_qr_scan"}, "lat": 38.919303166666666, "is_disabled": 0, "lon": -77.04499133333333}, {"fusion_lat": 0.0, "type": "electric_scooter", "name": "4489ca45ff6126ab16facf59944e1b05", "fusion_lon": 0.0, "bike_id": "4489ca45ff6126ab16facf59944e1b05", "is_reserved": 0, "rental_uris": {"android": "https://dc.lft.to/lastmile_qr_scan", "ios": "https://dc.lft.to/lastmile_qr_scan"}, "lat": 38.909494333333335, "is_disabled": 0, "lon": -77.04401916666667}, {"fusion_lat": 0.0, "type": "electric_scooter", "name": "c853373a3ff3e5278e1bce03ef7daf89", "fusion_lon": 0.0, "bike_id": "c853373a3ff3e5278e1bce03ef7daf89", "is_reserved": 0, "rental_uris": {"android": "https://dc.lft.to/lastmile_qr_scan", "ios": "https://dc.lft.to/lastmile_qr_scan"}, "lat": 38.90717083333333, "is_disabled": 0, "lon": -77.02546433333333}, {"fusion_lat": 0.0, "type": "electric_scooter", "name": "fc7c27e0d8d6249f4f979c23eeb1e0d0", "fusion_lon": 0.0, "bike_id": "fc7c27e0d8d6249f4f979c23eeb1e0d0", "is_reserved": 0, "rental_uris": {"android": "https://dc.lft.to/lastmile_qr_scan", "ios": "https://dc.lft.to/lastmile_qr_scan"}, "lat": 38.946036166666666, "is_disabled": 0, "lon": -77.02669866666666}, {"fusion_lat": 0.0, "type": "electric_scooter", "name": "0c1ccc0ef1a620b95fc18feae7d5747a", "fusion_lon": 0.0, "bike_id": "0c1ccc0ef1a620b95fc18feae7d5747a", "is_reserved": 0, "rental_uris": {"android": "https://dc.lft.to/lastmile_qr_scan", "ios": "https://dc.lft.to/lastmile_qr_scan"}, "lat": 38.85757566666667, "is_disabled": 0, "lon": -76.99296933333333}, {"fusion_lat": 0.0, "type": "electric_bike", "name": "bc21d847f46ecf43ab588ee9eaa9116b", "fusion_lon": 0.0, "bike_id": "bc21d847f46ecf43ab588ee9eaa9116b", "is_reserved": 0, "rental_uris": {"android": "https://dc.lft.to/lastmile_qr_scan", "ios": "https://dc.lft.to/lastmile_qr_scan"}, "lat": 39.0243645, "is_disabled": 0, "lon": -77.1310105}, {"fusion_lat": 0.0, "type": "electric_scooter", "name": "1b3cde2f395c18ed9a4bb20f18a5b4c1", "fusion_lon": 0.0, "bike_id": "1b3cde2f395c18ed9a4bb20f18a5b4c1", "is_reserved": 0, "rental_uris": {"android": "https://dc.lft.to/lastmile_qr_scan", "ios": "https://dc.lft.to/lastmile_qr_scan"}, "lat": 38.924234, "is_disabled": 0, "lon": -77.03536016666666}, {"fusion_lat": 0.0, "type": "electric_scooter", "name": "8c69bc523579bd5be15d3817584a68fd", "fusion_lon": 0.0, "bike_id": "8c69bc523579bd5be15d3817584a68fd", "is_reserved": 0, "rental_uris": {"android": "https://dc.lft.to/lastmile_qr_scan", "ios": "https://dc.lft.to/lastmile_qr_scan"}, "lat": 38.91241933333333, "is_disabled": 0, "lon": -77.04482366666667}, {"fusion_lat": 0.0, "type": "electric_scooter", "name": "fe3cd37e6b122a5642e8af90076ae0b7", "fusion_lon": 0.0, "bike_id": "fe3cd37e6b122a5642e8af90076ae0b7", "is_reserved": 0, "rental_uris": {"android": "https://dc.lft.to/lastmile_qr_scan", "ios": "https://dc.lft.to/lastmile_qr_scan"}, "lat": 38.94954766666667, "is_disabled": 0, "lon": -77.027214}, {"fusion_lat": 0.0, "type": "electric_scooter", "name": "04659520be0a81c9281313321da9d725", "fusion_lon": 0.0, "bike_id": "04659520be0a81c9281313321da9d725", "is_reserved": 0, "rental_uris": {"android": "https://dc.lft.to/lastmile_qr_scan", "ios": "https://dc.lft.to/lastmile_qr_scan"}, "lat": 38.913207666666665, "is_disabled": 0, "lon": -77.01511483333333}, {"fusion_lat": 0.0, "type": "electric_scooter", "name": "e46f7f1a6affefd8ffc3aab38fc2faa7", "fusion_lon": 0.0, "bike_id": "e46f7f1a6affefd8ffc3aab38fc2faa7", "is_reserved": 0, "rental_uris": {"android": "https://dc.lft.to/lastmile_qr_scan", "ios": "https://dc.lft.to/lastmile_qr_scan"}, "lat": 38.919357, "is_disabled": 0, "lon": -77.0455875}, {"fusion_lat": 0.0, "type": "electric_scooter", "name": "06e372dffca289bbffbdee089ae1d77b", "fusion_lon": 0.0, "bike_id": "06e372dffca289bbffbdee089ae1d77b", "is_reserved": 0, "rental_uris": {"android": "https://dc.lft.to/lastmile_qr_scan", "ios": "https://dc.lft.to/lastmile_qr_scan"}, "lat": 38.844306, "is_disabled": 0, "lon": -76.99784216666667}, {"fusion_lat": 0.0, "type": "electric_scooter", "name": "286a29bc03796994fd208cf029555933", "fusion_lon": 0.0, "bike_id": "286a29bc03796994fd208cf029555933", "is_reserved": 0, "rental_uris": {"android": "https://dc.lft.to/lastmile_qr_scan", "ios": "https://dc.lft.to/lastmile_qr_scan"}, "lat": 38.879887333333336, "is_disabled": 0, "lon": -77.01382666666667}, {"fusion_lat": 0.0, "type": "electric_scooter", "name": "0141020eb41f428b4109eb7982999492", "fusion_lon": 0.0, "bike_id": "0141020eb41f428b4109eb7982999492", "is_reserved": 0, "rental_uris": {"android": "https://dc.lft.to/lastmile_qr_scan", "ios": "https://dc.lft.to/lastmile_qr_scan"}, "lat": 38.919003833333335, "is_disabled": 0, "lon": -77.00317583333333}, {"fusion_lat": 0.0, "type": "electric_scooter", "name": "ebaf4efaaabba4409f59a97ecd1a1705", "fusion_lon": 0.0, "bike_id": "ebaf4efaaabba4409f59a97ecd1a1705", "is_reserved": 0, "rental_uris": {"android": "https://dc.lft.to/lastmile_qr_scan", "ios": "https://dc.lft.to/lastmile_qr_scan"}, "lat": 38.9483705, "is_disabled": 0, "lon": -77.0254945}, {"fusion_lat": 0.0, "type": "electric_scooter", "name": "79d472ae66b043ae370d47f4f94cba5c", "fusion_lon": 0.0, "bike_id": "79d472ae66b043ae370d47f4f94cba5c", "is_reserved": 0, "rental_uris": {"android": "https://dc.lft.to/lastmile_qr_scan", "ios": "https://dc.lft.to/lastmile_qr_scan"}, "lat": 38.897331333333334, "is_disabled": 0, "lon": -76.947245}, {"fusion_lat": 0.0, "type": "electric_scooter", "name": "242c87efd0048fdea6686e4fc0ac1f46", "fusion_lon": 0.0, "bike_id": "242c87efd0048fdea6686e4fc0ac1f46", "is_reserved": 0, "rental_uris": {"android": "https://dc.lft.to/lastmile_qr_scan", "ios": "https://dc.lft.to/lastmile_qr_scan"}, "lat": 38.92761216666667, "is_disabled": 0, "lon": -77.0229965}, {"fusion_lat": 0.0, "type": "electric_scooter", "name": "05fc75ed4afe76916d6ebe64e829fde2", "fusion_lon": 0.0, "bike_id": "05fc75ed4afe76916d6ebe64e829fde2", "is_reserved": 0, "rental_uris": {"android": "https://dc.lft.to/lastmile_qr_scan", "ios": "https://dc.lft.to/lastmile_qr_scan"}, "lat": 38.911091, "is_disabled": 0, "lon": -77.0385145}, {"fusion_lat": 0.0, "type": "electric_scooter", "name": "43f5206e4bf62e012ffe46dc2317ac17", "fusion_lon": 0.0, "bike_id": "43f5206e4bf62e012ffe46dc2317ac17", "is_reserved": 0, "rental_uris": {"android": "https://dc.lft.to/lastmile_qr_scan", "ios": "https://dc.lft.to/lastmile_qr_scan"}, "lat": 38.9049255, "is_disabled": 0, "lon": -77.02597866666666}, {"fusion_lat": 0.0, "type": "electric_scooter", "name": "eec864b0d5a81ed2a8c6791e8fa9ae06", "fusion_lon": 0.0, "bike_id": "eec864b0d5a81ed2a8c6791e8fa9ae06", "is_reserved": 0, "rental_uris": {"android": "https://dc.lft.to/lastmile_qr_scan", "ios": "https://dc.lft.to/lastmile_qr_scan"}, "lat": 38.911043166666666, "is_disabled": 0, "lon": -77.0467225}, {"fusion_lat": 0.0, "type": "electric_scooter", "name": "8a77b2b0ce4ccfc2b31b4e60cb1e1eac", "fusion_lon": 0.0, "bike_id": "8a77b2b0ce4ccfc2b31b4e60cb1e1eac", "is_reserved": 0, "rental_uris": {"android": "https://dc.lft.to/lastmile_qr_scan", "ios": "https://dc.lft.to/lastmile_qr_scan"}, "lat": 38.90832733333333, "is_disabled": 0, "lon": -77.04344516666667}, {"fusion_lat": 0.0, "type": "electric_scooter", "name": "1a6fc2bc734977726aecbf222238197f", "fusion_lon": 0.0, "bike_id": "1a6fc2bc734977726aecbf222238197f", "is_reserved": 0, "rental_uris": {"android": "https://dc.lft.to/lastmile_qr_scan", "ios": "https://dc.lft.to/lastmile_qr_scan"}, "lat": 38.94418233333333, "is_disabled": 0, "lon": -77.0178}, {"fusion_lat": 0.0, "type": "electric_scooter", "name": "ae5b89539ab2e41603da6c801283d59f", "fusion_lon": 0.0, "bike_id": "ae5b89539ab2e41603da6c801283d59f", "is_reserved": 0, "rental_uris": {"android": "https://dc.lft.to/lastmile_qr_scan", "ios": "https://dc.lft.to/lastmile_qr_scan"}, "lat": 38.9398195, "is_disabled": 0, "lon": -77.0326355}, {"fusion_lat": 0.0, "type": "electric_scooter", "name": "a10366d3c5e2205645d46fa8d2dd3cf5", "fusion_lon": 0.0, "bike_id": "a10366d3c5e2205645d46fa8d2dd3cf5", "is_reserved": 0, "rental_uris": {"android": "https://dc.lft.to/lastmile_qr_scan", "ios": "https://dc.lft.to/lastmile_qr_scan"}, "lat": 38.8646695, "is_disabled": 0, "lon": -76.9774345}, {"fusion_lat": 0.0, "type": "electric_scooter", "name": "891a5cd1cfd92d15e1c73598a5217dc5", "fusion_lon": 0.0, "bike_id": "891a5cd1cfd92d15e1c73598a5217dc5", "is_reserved": 0, "rental_uris": {"android": "https://dc.lft.to/lastmile_qr_scan", "ios": "https://dc.lft.to/lastmile_qr_scan"}, "lat": 38.926722166666664, "is_disabled": 0, "lon": -77.02300316666667}, {"fusion_lat": 0.0, "type": "electric_scooter", "name": "b0a01101d6ddc368e52a45a483bd50bc", "fusion_lon": 0.0, "bike_id": "b0a01101d6ddc368e52a45a483bd50bc", "is_reserved": 0, "rental_uris": {"android": "https://dc.lft.to/lastmile_qr_scan", "ios": "https://dc.lft.to/lastmile_qr_scan"}, "lat": 38.876468, "is_disabled": 0, "lon": -76.9650595}, {"fusion_lat": 0.0, "type": "electric_scooter", "name": "5ee80f3424fd50c4451b6fe9afda7d1b", "fusion_lon": 0.0, "bike_id": "5ee80f3424fd50c4451b6fe9afda7d1b", "is_reserved": 0, "rental_uris": {"android": "https://dc.lft.to/lastmile_qr_scan", "ios": "https://dc.lft.to/lastmile_qr_scan"}, "lat": 38.92902633333333, "is_disabled": 0, "lon": -77.037542}, {"fusion_lat": 0.0, "type": "electric_scooter", "name": "a9a99ded947dd09c82701076e5e3b611", "fusion_lon": 0.0, "bike_id": "a9a99ded947dd09c82701076e5e3b611", "is_reserved": 0, "rental_uris": {"android": "https://dc.lft.to/lastmile_qr_scan", "ios": "https://dc.lft.to/lastmile_qr_scan"}, "lat": 38.923981, "is_disabled": 0, "lon": -77.02542433333333}, {"fusion_lat": 0.0, "type": "electric_scooter", "name": "b70bb82bac2144c726a8ad1680bcb0bf", "fusion_lon": 0.0, "bike_id": "b70bb82bac2144c726a8ad1680bcb0bf", "is_reserved": 0, "rental_uris": {"android": "https://dc.lft.to/lastmile_qr_scan", "ios": "https://dc.lft.to/lastmile_qr_scan"}, "lat": 38.9320835, "is_disabled": 0, "lon": -77.02829183333333}, {"fusion_lat": 0.0, "type": "electric_scooter", "name": "33d1963cd2d6b7053e266d6c0f5f9675", "fusion_lon": 0.0, "bike_id": "33d1963cd2d6b7053e266d6c0f5f9675", "is_reserved": 0, "rental_uris": {"android": "https://dc.lft.to/lastmile_qr_scan", "ios": "https://dc.lft.to/lastmile_qr_scan"}, "lat": 38.8915355, "is_disabled": 0, "lon": -77.00580783333334}, {"fusion_lat": 0.0, "type": "electric_scooter", "name": "5f1c18c1f9da19ef5e2c67b8f59a93f7", "fusion_lon": 0.0, "bike_id": "5f1c18c1f9da19ef5e2c67b8f59a93f7", "is_reserved": 0, "rental_uris": {"android": "https://dc.lft.to/lastmile_qr_scan", "ios": "https://dc.lft.to/lastmile_qr_scan"}, "lat": 38.90716233333333, "is_disabled": 0, "lon": -77.03278}, {"fusion_lat": 0.0, "type": "electric_bike", "name": "842f8d11514391cb73467fbc3842c69e", "fusion_lon": 0.0, "bike_id": "842f8d11514391cb73467fbc3842c69e", "is_reserved": 0, "rental_uris": {"android": "https://dc.lft.to/lastmile_qr_scan", "ios": "https://dc.lft.to/lastmile_qr_scan"}, "lat": 38.903122, "is_disabled": 0, "lon": -76.91216083333333}, {"fusion_lat": 0.0, "type": "electric_scooter", "name": "2e291ff147925e559d428d96f62a61a5", "fusion_lon": 0.0, "bike_id": "2e291ff147925e559d428d96f62a61a5", "is_reserved": 0, "rental_uris": {"android": "https://dc.lft.to/lastmile_qr_scan", "ios": "https://dc.lft.to/lastmile_qr_scan"}, "lat": 38.86700716666667, "is_disabled": 0, "lon": -76.9871335}, {"fusion_lat": 0.0, "type": "electric_scooter", "name": "3f8e2d63ed6c7c828417f545671e1a0d", "fusion_lon": 0.0, "bike_id": "3f8e2d63ed6c7c828417f545671e1a0d", "is_reserved": 0, "rental_uris": {"android": "https://dc.lft.to/lastmile_qr_scan", "ios": "https://dc.lft.to/lastmile_qr_scan"}, "lat": 38.9187625, "is_disabled": 0, "lon": -77.034743}, {"fusion_lat": 0.0, "type": "electric_scooter", "name": "bccd7f8e2fe27e908037371f5ca1c700", "fusion_lon": 0.0, "bike_id": "bccd7f8e2fe27e908037371f5ca1c700", "is_reserved": 0, "rental_uris": {"android": "https://dc.lft.to/lastmile_qr_scan", "ios": "https://dc.lft.to/lastmile_qr_scan"}, "lat": 38.90392516666667, "is_disabled": 0, "lon": -77.02951416666667}, {"fusion_lat": 0.0, "type": "electric_scooter", "name": "c1ac96df390425922436c613a3c9744a", "fusion_lon": 0.0, "bike_id": "c1ac96df390425922436c613a3c9744a", "is_reserved": 0, "rental_uris": {"android": "https://dc.lft.to/lastmile_qr_scan", "ios": "https://dc.lft.to/lastmile_qr_scan"}, "lat": 38.9290165, "is_disabled": 0, "lon": -77.05452716666667}, {"fusion_lat": 0.0, "type": "electric_scooter", "name": "c3f73640ecda347d2f87db8b05676387", "fusion_lon": 0.0, "bike_id": "c3f73640ecda347d2f87db8b05676387", "is_reserved": 0, "rental_uris": {"android": "https://dc.lft.to/lastmile_qr_scan", "ios": "https://dc.lft.to/lastmile_qr_scan"}, "lat": 38.911223166666666, "is_disabled": 0, "lon": -77.0652685}, {"fusion_lat": 0.0, "type": "electric_scooter", "name": "b99ee3c5be676a3599e599fa392ab191", "fusion_lon": 0.0, "bike_id": "b99ee3c5be676a3599e599fa392ab191", "is_reserved": 0, "rental_uris": {"android": "https://dc.lft.to/lastmile_qr_scan", "ios": "https://dc.lft.to/lastmile_qr_scan"}, "lat": 38.880880166666664, "is_disabled": 0, "lon": -76.93009166666667}, {"fusion_lat": 0.0, "type": "electric_scooter", "name": "9ea4ab4a81200a0a0997574f2d3e88c1", "fusion_lon": 0.0, "bike_id": "9ea4ab4a81200a0a0997574f2d3e88c1", "is_reserved": 0, "rental_uris": {"android": "https://dc.lft.to/lastmile_qr_scan", "ios": "https://dc.lft.to/lastmile_qr_scan"}, "lat": 38.851948666666665, "is_disabled": 0, "lon": -76.97074666666667}, {"fusion_lat": 0.0, "type": "electric_scooter", "name": "2de8f5e975e592ef3b77d01b2a8efe14", "fusion_lon": 0.0, "bike_id": "2de8f5e975e592ef3b77d01b2a8efe14", "is_reserved": 0, "rental_uris": {"android": "https://dc.lft.to/lastmile_qr_scan", "ios": "https://dc.lft.to/lastmile_qr_scan"}, "lat": 38.91807383333333, "is_disabled": 0, "lon": -77.03176083333334}, {"fusion_lat": 0.0, "type": "electric_scooter", "name": "8e1b9000330191737e7718db2592bd73", "fusion_lon": 0.0, "bike_id": "8e1b9000330191737e7718db2592bd73", "is_reserved": 0, "rental_uris": {"android": "https://dc.lft.to/lastmile_qr_scan", "ios": "https://dc.lft.to/lastmile_qr_scan"}, "lat": 38.90077566666667, "is_disabled": 0, "lon": -77.0269195}, {"fusion_lat": 0.0, "type": "electric_scooter", "name": "735bb7181c237b7acb76b53943d77f60", "fusion_lon": 0.0, "bike_id": "735bb7181c237b7acb76b53943d77f60", "is_reserved": 0, "rental_uris": {"android": "https://dc.lft.to/lastmile_qr_scan", "ios": "https://dc.lft.to/lastmile_qr_scan"}, "lat": 38.892300666666664, "is_disabled": 0, "lon": -77.0318645}, {"fusion_lat": 0.0, "type": "electric_scooter", "name": "084ea1db4262f5dd8a52361a0d0eeedb", "fusion_lon": 0.0, "bike_id": "084ea1db4262f5dd8a52361a0d0eeedb", "is_reserved": 0, "rental_uris": {"android": "https://dc.lft.to/lastmile_qr_scan", "ios": "https://dc.lft.to/lastmile_qr_scan"}, "lat": 38.93376133333334, "is_disabled": 0, "lon": -77.03560883333333}, {"fusion_lat": 0.0, "type": "electric_scooter", "name": "e6050f139f44100b52689bb96ef1f225", "fusion_lon": 0.0, "bike_id": "e6050f139f44100b52689bb96ef1f225", "is_reserved": 0, "rental_uris": {"android": "https://dc.lft.to/lastmile_qr_scan", "ios": "https://dc.lft.to/lastmile_qr_scan"}, "lat": 38.89560933333333, "is_disabled": 0, "lon": -77.04680316666666}, {"fusion_lat": 0.0, "type": "electric_scooter", "name": "c5f31d8c8d4f84105c6581a513dcbcd9", "fusion_lon": 0.0, "bike_id": "c5f31d8c8d4f84105c6581a513dcbcd9", "is_reserved": 0, "rental_uris": {"android": "https://dc.lft.to/lastmile_qr_scan", "ios": "https://dc.lft.to/lastmile_qr_scan"}, "lat": 38.87966183333333, "is_disabled": 0, "lon": -76.9874305}, {"fusion_lat": 0.0, "type": "electric_bike", "name": "33858136affec062c3f204ed128e328c", "fusion_lon": 0.0, "bike_id": "33858136affec062c3f204ed128e328c", "is_reserved": 0, "rental_uris": {"android": "https://dc.lft.to/lastmile_qr_scan", "ios": "https://dc.lft.to/lastmile_qr_scan"}, "lat": 39.0343335, "is_disabled": 0, "lon": -77.04105683333333}, {"fusion_lat": 0.0, "type": "electric_scooter", "name": "0ecf03555c43fd2a1f81b8fc7e0f4028", "fusion_lon": 0.0, "bike_id": "0ecf03555c43fd2a1f81b8fc7e0f4028", "is_reserved": 0, "rental_uris": {"android": "https://dc.lft.to/lastmile_qr_scan", "ios": "https://dc.lft.to/lastmile_qr_scan"}, "lat": 38.91683883333334, "is_disabled": 0, "lon": -77.02813866666666}, {"fusion_lat": 0.0, "type": "electric_scooter", "name": "21eaaab059c71077aacc6e7bb46a3cd5", "fusion_lon": 0.0, "bike_id": "21eaaab059c71077aacc6e7bb46a3cd5", "is_reserved": 0, "rental_uris": {"android": "https://dc.lft.to/lastmile_qr_scan", "ios": "https://dc.lft.to/lastmile_qr_scan"}, "lat": 38.92125383333333, "is_disabled": 0, "lon": -77.018126}, {"fusion_lat": 0.0, "type": "electric_scooter", "name": "db637e330f562f3efde7f35c1bea883b", "fusion_lon": 0.0, "bike_id": "db637e330f562f3efde7f35c1bea883b", "is_reserved": 0, "rental_uris": {"android": "https://dc.lft.to/lastmile_qr_scan", "ios": "https://dc.lft.to/lastmile_qr_scan"}, "lat": 38.89248033333333, "is_disabled": 0, "lon": -76.9883915}, {"fusion_lat": 0.0, "type": "electric_bike", "name": "4f3ab1654b7f08057c2052bf61963d15", "fusion_lon": 0.0, "bike_id": "4f3ab1654b7f08057c2052bf61963d15", "is_reserved": 0, "rental_uris": {"android": "https://dc.lft.to/lastmile_qr_scan", "ios": "https://dc.lft.to/lastmile_qr_scan"}, "lat": 38.8833385, "is_disabled": 0, "lon": -77.06570233333333}, {"fusion_lat": 0.0, "type": "electric_scooter", "name": "f846b5bd31e6b44f59071c6bf0d99d38", "fusion_lon": 0.0, "bike_id": "f846b5bd31e6b44f59071c6bf0d99d38", "is_reserved": 0, "rental_uris": {"android": "https://dc.lft.to/lastmile_qr_scan", "ios": "https://dc.lft.to/lastmile_qr_scan"}, "lat": 38.92157366666667, "is_disabled": 0, "lon": -77.03353883333334}, {"fusion_lat": 0.0, "type": "electric_scooter", "name": "40b5b1bc1e91a3530d58bb12fb6d62ee", "fusion_lon": 0.0, "bike_id": "40b5b1bc1e91a3530d58bb12fb6d62ee", "is_reserved": 0, "rental_uris": {"android": "https://dc.lft.to/lastmile_qr_scan", "ios": "https://dc.lft.to/lastmile_qr_scan"}, "lat": 38.9036065, "is_disabled": 0, "lon": -77.040058}, {"fusion_lat": 0.0, "type": "electric_bike", "name": "9b08d5c99fc0cd328dcaa18510a82e78", "fusion_lon": 0.0, "bike_id": "9b08d5c99fc0cd328dcaa18510a82e78", "is_reserved": 0, "rental_uris": {"android": "https://dc.lft.to/lastmile_qr_scan", "ios": "https://dc.lft.to/lastmile_qr_scan"}, "lat": 39.0549415, "is_disabled": 0, "lon": -77.11787666666666}, {"fusion_lat": 0.0, "type": "electric_scooter", "name": "0570a102484b8a7ff0cd7811cf047706", "fusion_lon": 0.0, "bike_id": "0570a102484b8a7ff0cd7811cf047706", "is_reserved": 0, "rental_uris": {"android": "https://dc.lft.to/lastmile_qr_scan", "ios": "https://dc.lft.to/lastmile_qr_scan"}, "lat": 38.919832666666665, "is_disabled": 0, "lon": -77.03792016666667}, {"fusion_lat": 0.0, "type": "electric_scooter", "name": "1cc04c0a9042bb381cacaa4c74c7047c", "fusion_lon": 0.0, "bike_id": "1cc04c0a9042bb381cacaa4c74c7047c", "is_reserved": 0, "rental_uris": {"android": "https://dc.lft.to/lastmile_qr_scan", "ios": "https://dc.lft.to/lastmile_qr_scan"}, "lat": 38.92080583333333, "is_disabled": 0, "lon": -77.02324116666666}, {"fusion_lat": 0.0, "type": "electric_bike", "name": "337e98c0297fc7655fa0b9189c2a2924", "fusion_lon": 0.0, "bike_id": "337e98c0297fc7655fa0b9189c2a2924", "is_reserved": 0, "rental_uris": {"android": "https://dc.lft.to/lastmile_qr_scan", "ios": "https://dc.lft.to/lastmile_qr_scan"}, "lat": 38.922516333333334, "is_disabled": 0, "lon": -77.03068816666666}, {"fusion_lat": 0.0, "type": "electric_scooter", "name": "b146d376a71963b6e81d1dcbc56b9b43", "fusion_lon": 0.0, "bike_id": "b146d376a71963b6e81d1dcbc56b9b43", "is_reserved": 0, "rental_uris": {"android": "https://dc.lft.to/lastmile_qr_scan", "ios": "https://dc.lft.to/lastmile_qr_scan"}, "lat": 38.9272065, "is_disabled": 0, "lon": -77.02079366666666}, {"fusion_lat": 0.0, "type": "electric_scooter", "name": "a452c43118dd66ae841083b85b513f92", "fusion_lon": 0.0, "bike_id": "a452c43118dd66ae841083b85b513f92", "is_reserved": 0, "rental_uris": {"android": "https://dc.lft.to/lastmile_qr_scan", "ios": "https://dc.lft.to/lastmile_qr_scan"}, "lat": 38.9443035, "is_disabled": 0, "lon": -77.026008}, {"fusion_lat": 0.0, "type": "electric_scooter", "name": "784e9cd478e6a2c10e3c1e1f4e2c123b", "fusion_lon": 0.0, "bike_id": "784e9cd478e6a2c10e3c1e1f4e2c123b", "is_reserved": 0, "rental_uris": {"android": "https://dc.lft.to/lastmile_qr_scan", "ios": "https://dc.lft.to/lastmile_qr_scan"}, "lat": 38.892284, "is_disabled": 0, "lon": -77.03185633333334}, {"fusion_lat": 0.0, "type": "electric_scooter", "name": "3f222c07aa321234ff93c1da97b63906", "fusion_lon": 0.0, "bike_id": "3f222c07aa321234ff93c1da97b63906", "is_reserved": 0, "rental_uris": {"android": "https://dc.lft.to/lastmile_qr_scan", "ios": "https://dc.lft.to/lastmile_qr_scan"}, "lat": 38.931711, "is_disabled": 0, "lon": -77.0710825}, {"fusion_lat": 0.0, "type": "electric_scooter", "name": "5a650fc2d636b08cb3b1cc2caf453544", "fusion_lon": 0.0, "bike_id": "5a650fc2d636b08cb3b1cc2caf453544", "is_reserved": 0, "rental_uris": {"android": "https://dc.lft.to/lastmile_qr_scan", "ios": "https://dc.lft.to/lastmile_qr_scan"}, "lat": 38.892730666666665, "is_disabled": 0, "lon": -77.04877283333333}, {"fusion_lat": 0.0, "type": "electric_scooter", "name": "f1fc03e8c0a769d39eb8a7537a0c2106", "fusion_lon": 0.0, "bike_id": "f1fc03e8c0a769d39eb8a7537a0c2106", "is_reserved": 0, "rental_uris": {"android": "https://dc.lft.to/lastmile_qr_scan", "ios": "https://dc.lft.to/lastmile_qr_scan"}, "lat": 38.900825833333336, "is_disabled": 0, "lon": -76.93019783333334}, {"fusion_lat": 0.0, "type": "electric_scooter", "name": "4a4da0737a747f9d868c6a636b35d7a0", "fusion_lon": 0.0, "bike_id": "4a4da0737a747f9d868c6a636b35d7a0", "is_reserved": 0, "rental_uris": {"android": "https://dc.lft.to/lastmile_qr_scan", "ios": "https://dc.lft.to/lastmile_qr_scan"}, "lat": 38.87207333333333, "is_disabled": 0, "lon": -76.97838233333333}, {"fusion_lat": 0.0, "type": "electric_scooter", "name": "ed8750c7cdab739db43d6c98a20c73a5", "fusion_lon": 0.0, "bike_id": "ed8750c7cdab739db43d6c98a20c73a5", "is_reserved": 0, "rental_uris": {"android": "https://dc.lft.to/lastmile_qr_scan", "ios": "https://dc.lft.to/lastmile_qr_scan"}, "lat": 38.855356666666665, "is_disabled": 0, "lon": -76.9841785}, {"fusion_lat": 0.0, "type": "electric_bike", "name": "c3320a1ecfed6aa81160709483461eba", "fusion_lon": 0.0, "bike_id": "c3320a1ecfed6aa81160709483461eba", "is_reserved": 0, "rental_uris": {"android": "https://dc.lft.to/lastmile_qr_scan", "ios": "https://dc.lft.to/lastmile_qr_scan"}, "lat": 38.91644466666666, "is_disabled": 0, "lon": -76.97306516666667}, {"fusion_lat": 0.0, "type": "electric_scooter", "name": "7a855dc2d6b7525a4c5d44d5993ccbbc", "fusion_lon": 0.0, "bike_id": "7a855dc2d6b7525a4c5d44d5993ccbbc", "is_reserved": 0, "rental_uris": {"android": "https://dc.lft.to/lastmile_qr_scan", "ios": "https://dc.lft.to/lastmile_qr_scan"}, "lat": 38.935778, "is_disabled": 0, "lon": -77.081108}, {"fusion_lat": 0.0, "type": "electric_scooter", "name": "09e60cd007e7438834b95eebdca01dfc", "fusion_lon": 0.0, "bike_id": "09e60cd007e7438834b95eebdca01dfc", "is_reserved": 0, "rental_uris": {"android": "https://dc.lft.to/lastmile_qr_scan", "ios": "https://dc.lft.to/lastmile_qr_scan"}, "lat": 38.950626166666666, "is_disabled": 0, "lon": -77.08014566666667}, {"fusion_lat": 0.0, "type": "electric_scooter", "name": "6ec942553d6106deb679b723c7390df4", "fusion_lon": 0.0, "bike_id": "6ec942553d6106deb679b723c7390df4", "is_reserved": 0, "rental_uris": {"android": "https://dc.lft.to/lastmile_qr_scan", "ios": "https://dc.lft.to/lastmile_qr_scan"}, "lat": 38.884803833333336, "is_disabled": 0, "lon": -76.92621666666666}, {"fusion_lat": 0.0, "type": "electric_scooter", "name": "065811e65ae2cef48ef9c7aa0bf07936", "fusion_lon": 0.0, "bike_id": "065811e65ae2cef48ef9c7aa0bf07936", "is_reserved": 0, "rental_uris": {"android": "https://dc.lft.to/lastmile_qr_scan", "ios": "https://dc.lft.to/lastmile_qr_scan"}, "lat": 38.897052333333335, "is_disabled": 0, "lon": -77.02733483333333}, {"fusion_lat": 0.0, "type": "electric_scooter", "name": "94dfbdaab1c612d2d74c37310db5ff69", "fusion_lon": 0.0, "bike_id": "94dfbdaab1c612d2d74c37310db5ff69", "is_reserved": 0, "rental_uris": {"android": "https://dc.lft.to/lastmile_qr_scan", "ios": "https://dc.lft.to/lastmile_qr_scan"}, "lat": 38.863974166666665, "is_disabled": 0, "lon": -76.97437216666667}, {"fusion_lat": 0.0, "type": "electric_scooter", "name": "9f72a71dbfb6c215360153dd541246a0", "fusion_lon": 0.0, "bike_id": "9f72a71dbfb6c215360153dd541246a0", "is_reserved": 0, "rental_uris": {"android": "https://dc.lft.to/lastmile_qr_scan", "ios": "https://dc.lft.to/lastmile_qr_scan"}, "lat": 38.9573095, "is_disabled": 0, "lon": -77.02401283333333}, {"fusion_lat": 0.0, "type": "electric_bike", "name": "7fe6d5e3b950a8203e29d31565dd679b", "fusion_lon": 0.0, "bike_id": "7fe6d5e3b950a8203e29d31565dd679b", "is_reserved": 0, "rental_uris": {"android": "https://dc.lft.to/lastmile_qr_scan", "ios": "https://dc.lft.to/lastmile_qr_scan"}, "lat": 38.80758133333333, "is_disabled": 0, "lon": -77.09466366666666}, {"fusion_lat": 0.0, "type": "electric_scooter", "name": "5a307a7fcf6bdeae87551230b33a192f", "fusion_lon": 0.0, "bike_id": "5a307a7fcf6bdeae87551230b33a192f", "is_reserved": 0, "rental_uris": {"android": "https://dc.lft.to/lastmile_qr_scan", "ios": "https://dc.lft.to/lastmile_qr_scan"}, "lat": 38.929464333333335, "is_disabled": 0, "lon": -77.01636133333334}, {"fusion_lat": 0.0, "type": "electric_scooter", "name": "fefc6783ed1c0633402dc4f3a6369656", "fusion_lon": 0.0, "bike_id": "fefc6783ed1c0633402dc4f3a6369656", "is_reserved": 0, "rental_uris": {"android": "https://dc.lft.to/lastmile_qr_scan", "ios": "https://dc.lft.to/lastmile_qr_scan"}, "lat": 38.9068715, "is_disabled": 0, "lon": -77.00050916666666}, {"fusion_lat": 0.0, "type": "electric_scooter", "name": "e59688aa49c96bfe3ebfc67c79b7b312", "fusion_lon": 0.0, "bike_id": "e59688aa49c96bfe3ebfc67c79b7b312", "is_reserved": 0, "rental_uris": {"android": "https://dc.lft.to/lastmile_qr_scan", "ios": "https://dc.lft.to/lastmile_qr_scan"}, "lat": 38.91789466666667, "is_disabled": 0, "lon": -77.02314516666667}, {"fusion_lat": 0.0, "type": "electric_scooter", "name": "bbd9da510416a2fe945a4ea0655910b8", "fusion_lon": 0.0, "bike_id": "bbd9da510416a2fe945a4ea0655910b8", "is_reserved": 0, "rental_uris": {"android": "https://dc.lft.to/lastmile_qr_scan", "ios": "https://dc.lft.to/lastmile_qr_scan"}, "lat": 38.909693, "is_disabled": 0, "lon": -77.03866266666667}, {"fusion_lat": 0.0, "type": "electric_scooter", "name": "ee9d4bf027ed8cdb63f8582bc2a7c597", "fusion_lon": 0.0, "bike_id": "ee9d4bf027ed8cdb63f8582bc2a7c597", "is_reserved": 0, "rental_uris": {"android": "https://dc.lft.to/lastmile_qr_scan", "ios": "https://dc.lft.to/lastmile_qr_scan"}, "lat": 38.91074033333334, "is_disabled": 0, "lon": -77.034677}, {"fusion_lat": 0.0, "type": "electric_bike", "name": "9fe95da70034f1526918988ab29a7444", "fusion_lon": 0.0, "bike_id": "9fe95da70034f1526918988ab29a7444", "is_reserved": 0, "rental_uris": {"android": "https://dc.lft.to/lastmile_qr_scan", "ios": "https://dc.lft.to/lastmile_qr_scan"}, "lat": 38.909585, "is_disabled": 0, "lon": -77.032874}, {"fusion_lat": 0.0, "type": "electric_scooter", "name": "fed1202b83679d512c1b3fadd517f7ad", "fusion_lon": 0.0, "bike_id": "fed1202b83679d512c1b3fadd517f7ad", "is_reserved": 0, "rental_uris": {"android": "https://dc.lft.to/lastmile_qr_scan", "ios": "https://dc.lft.to/lastmile_qr_scan"}, "lat": 38.9226625, "is_disabled": 0, "lon": -77.03408783333333}, {"fusion_lat": 0.0, "type": "electric_scooter", "name": "b2b5fe6a46022828a7f086c80f202d23", "fusion_lon": 0.0, "bike_id": "b2b5fe6a46022828a7f086c80f202d23", "is_reserved": 0, "rental_uris": {"android": "https://dc.lft.to/lastmile_qr_scan", "ios": "https://dc.lft.to/lastmile_qr_scan"}, "lat": 38.9313245, "is_disabled": 0, "lon": -77.023692}, {"fusion_lat": 0.0, "type": "electric_scooter", "name": "677019875f93e1c1bf2bcc3477a8e4f3", "fusion_lon": 0.0, "bike_id": "677019875f93e1c1bf2bcc3477a8e4f3", "is_reserved": 0, "rental_uris": {"android": "https://dc.lft.to/lastmile_qr_scan", "ios": "https://dc.lft.to/lastmile_qr_scan"}, "lat": 38.93773083333333, "is_disabled": 0, "lon": -77.03261566666667}, {"fusion_lat": 0.0, "type": "electric_scooter", "name": "d644283a9c707e41816f29e0779887a8", "fusion_lon": 0.0, "bike_id": "d644283a9c707e41816f29e0779887a8", "is_reserved": 0, "rental_uris": {"android": "https://dc.lft.to/lastmile_qr_scan", "ios": "https://dc.lft.to/lastmile_qr_scan"}, "lat": 38.9242015, "is_disabled": 0, "lon": -77.02300316666667}, {"fusion_lat": 0.0, "type": "electric_scooter", "name": "6190698bc118a88e353b05f8a5cef6af", "fusion_lon": 0.0, "bike_id": "6190698bc118a88e353b05f8a5cef6af", "is_reserved": 0, "rental_uris": {"android": "https://dc.lft.to/lastmile_qr_scan", "ios": "https://dc.lft.to/lastmile_qr_scan"}, "lat": 38.887316, "is_disabled": 0, "lon": -77.02583333333334}, {"fusion_lat": 0.0, "type": "electric_scooter", "name": "a62fe6888a66fab0ce29e7748b02f363", "fusion_lon": 0.0, "bike_id": "a62fe6888a66fab0ce29e7748b02f363", "is_reserved": 0, "rental_uris": {"android": "https://dc.lft.to/lastmile_qr_scan", "ios": "https://dc.lft.to/lastmile_qr_scan"}, "lat": 38.864164333333335, "is_disabled": 0, "lon": -76.99134233333334}, {"fusion_lat": 0.0, "type": "electric_scooter", "name": "957d57b65aa86bdda3752c29bbba5065", "fusion_lon": 0.0, "bike_id": "957d57b65aa86bdda3752c29bbba5065", "is_reserved": 0, "rental_uris": {"android": "https://dc.lft.to/lastmile_qr_scan", "ios": "https://dc.lft.to/lastmile_qr_scan"}, "lat": 38.92822783333333, "is_disabled": 0, "lon": -77.03270866666666}, {"fusion_lat": 0.0, "type": "electric_scooter", "name": "f48d0d790988dd3a6079282d349d8904", "fusion_lon": 0.0, "bike_id": "f48d0d790988dd3a6079282d349d8904", "is_reserved": 0, "rental_uris": {"android": "https://dc.lft.to/lastmile_qr_scan", "ios": "https://dc.lft.to/lastmile_qr_scan"}, "lat": 38.921538, "is_disabled": 0, "lon": -77.03510016666667}, {"fusion_lat": 0.0, "type": "electric_scooter", "name": "0349efabec76c703d3d2f4174759bdcd", "fusion_lon": 0.0, "bike_id": "0349efabec76c703d3d2f4174759bdcd", "is_reserved": 0, "rental_uris": {"android": "https://dc.lft.to/lastmile_qr_scan", "ios": "https://dc.lft.to/lastmile_qr_scan"}, "lat": 38.904798, "is_disabled": 0, "lon": -77.04868383333333}, {"fusion_lat": 0.0, "type": "electric_scooter", "name": "faf89e390126df9347a2cb47c77571ee", "fusion_lon": 0.0, "bike_id": "faf89e390126df9347a2cb47c77571ee", "is_reserved": 0, "rental_uris": {"android": "https://dc.lft.to/lastmile_qr_scan", "ios": "https://dc.lft.to/lastmile_qr_scan"}, "lat": 38.952026833333335, "is_disabled": 0, "lon": -77.0273275}, {"fusion_lat": 0.0, "type": "electric_bike", "name": "fb5b7267c94a01e4f3b776746162510b", "fusion_lon": 0.0, "bike_id": "fb5b7267c94a01e4f3b776746162510b", "is_reserved": 0, "rental_uris": {"android": "https://dc.lft.to/lastmile_qr_scan", "ios": "https://dc.lft.to/lastmile_qr_scan"}, "lat": 38.965111666666665, "is_disabled": 0, "lon": -77.0282265}, {"fusion_lat": 0.0, "type": "electric_scooter", "name": "f337cf7fb330658b0cc0a07f1b7b8a6e", "fusion_lon": 0.0, "bike_id": "f337cf7fb330658b0cc0a07f1b7b8a6e", "is_reserved": 0, "rental_uris": {"android": "https://dc.lft.to/lastmile_qr_scan", "ios": "https://dc.lft.to/lastmile_qr_scan"}, "lat": 38.892197833333334, "is_disabled": 0, "lon": -77.03160066666666}, {"fusion_lat": 0.0, "type": "electric_scooter", "name": "899e95fd1b29467dbb4b9c92d9abc32b", "fusion_lon": 0.0, "bike_id": "899e95fd1b29467dbb4b9c92d9abc32b", "is_reserved": 0, "rental_uris": {"android": "https://dc.lft.to/lastmile_qr_scan", "ios": "https://dc.lft.to/lastmile_qr_scan"}, "lat": 38.916883, "is_disabled": 0, "lon": -77.02955816666666}, {"fusion_lat": 0.0, "type": "electric_scooter", "name": "b97bf2172a5f493ba2decf1039a7eeb9", "fusion_lon": 0.0, "bike_id": "b97bf2172a5f493ba2decf1039a7eeb9", "is_reserved": 0, "rental_uris": {"android": "https://dc.lft.to/lastmile_qr_scan", "ios": "https://dc.lft.to/lastmile_qr_scan"}, "lat": 38.929104833333334, "is_disabled": 0, "lon": -77.0219385}, {"fusion_lat": 0.0, "type": "electric_scooter", "name": "259e83840d8ae43f6e9f882d0aa11f9f", "fusion_lon": 0.0, "bike_id": "259e83840d8ae43f6e9f882d0aa11f9f", "is_reserved": 0, "rental_uris": {"android": "https://dc.lft.to/lastmile_qr_scan", "ios": "https://dc.lft.to/lastmile_qr_scan"}, "lat": 38.899127, "is_disabled": 0, "lon": -76.9337115}, {"fusion_lat": 0.0, "type": "electric_scooter", "name": "fe76b123ce3045728e2928c2a815bb3a", "fusion_lon": 0.0, "bike_id": "fe76b123ce3045728e2928c2a815bb3a", "is_reserved": 0, "rental_uris": {"android": "https://dc.lft.to/lastmile_qr_scan", "ios": "https://dc.lft.to/lastmile_qr_scan"}, "lat": 38.90025283333333, "is_disabled": 0, "lon": -77.02599283333333}, {"fusion_lat": 0.0, "type": "electric_scooter", "name": "85bd8a74a5041e89f7085f9c2ed2f217", "fusion_lon": 0.0, "bike_id": "85bd8a74a5041e89f7085f9c2ed2f217", "is_reserved": 0, "rental_uris": {"android": "https://dc.lft.to/lastmile_qr_scan", "ios": "https://dc.lft.to/lastmile_qr_scan"}, "lat": 38.89621316666667, "is_disabled": 0, "lon": -77.04463616666666}, {"fusion_lat": 0.0, "type": "electric_scooter", "name": "e80bb490858f7f676ecbf3c4911357a6", "fusion_lon": 0.0, "bike_id": "e80bb490858f7f676ecbf3c4911357a6", "is_reserved": 0, "rental_uris": {"android": "https://dc.lft.to/lastmile_qr_scan", "ios": "https://dc.lft.to/lastmile_qr_scan"}, "lat": 38.9140435, "is_disabled": 0, "lon": -77.020211}, {"fusion_lat": 0.0, "type": "electric_scooter", "name": "3f5ac2cce1f7a77e8c64f2357d978e9f", "fusion_lon": 0.0, "bike_id": "3f5ac2cce1f7a77e8c64f2357d978e9f", "is_reserved": 0, "rental_uris": {"android": "https://dc.lft.to/lastmile_qr_scan", "ios": "https://dc.lft.to/lastmile_qr_scan"}, "lat": 38.90265866666667, "is_disabled": 0, "lon": -77.003305}, {"fusion_lat": 0.0, "type": "electric_scooter", "name": "1b76541255edc539595c80e000d47fef", "fusion_lon": 0.0, "bike_id": "1b76541255edc539595c80e000d47fef", "is_reserved": 0, "rental_uris": {"android": "https://dc.lft.to/lastmile_qr_scan", "ios": "https://dc.lft.to/lastmile_qr_scan"}, "lat": 38.91711683333333, "is_disabled": 0, "lon": -77.02395683333333}, {"fusion_lat": 0.0, "type": "electric_scooter", "name": "116cfe44cf19a8cf3c9c9d4d9ff86b59", "fusion_lon": 0.0, "bike_id": "116cfe44cf19a8cf3c9c9d4d9ff86b59", "is_reserved": 0, "rental_uris": {"android": "https://dc.lft.to/lastmile_qr_scan", "ios": "https://dc.lft.to/lastmile_qr_scan"}, "lat": 38.8974775, "is_disabled": 0, "lon": -77.043307}, {"fusion_lat": 0.0, "type": "electric_bike", "name": "89a0da71d8ff02082d306dedd11e14f5", "fusion_lon": 0.0, "bike_id": "89a0da71d8ff02082d306dedd11e14f5", "is_reserved": 0, "rental_uris": {"android": "https://dc.lft.to/lastmile_qr_scan", "ios": "https://dc.lft.to/lastmile_qr_scan"}, "lat": 38.919068833333334, "is_disabled": 0, "lon": -77.0704115}, {"fusion_lat": 0.0, "type": "electric_scooter", "name": "046fa64c914c54c702fadf018dcad667", "fusion_lon": 0.0, "bike_id": "046fa64c914c54c702fadf018dcad667", "is_reserved": 0, "rental_uris": {"android": "https://dc.lft.to/lastmile_qr_scan", "ios": "https://dc.lft.to/lastmile_qr_scan"}, "lat": 38.92009016666667, "is_disabled": 0, "lon": -77.0321095}, {"fusion_lat": 0.0, "type": "electric_scooter", "name": "db592eefb4ee798e136f4e40356bb570", "fusion_lon": 0.0, "bike_id": "db592eefb4ee798e136f4e40356bb570", "is_reserved": 0, "rental_uris": {"android": "https://dc.lft.to/lastmile_qr_scan", "ios": "https://dc.lft.to/lastmile_qr_scan"}, "lat": 38.9215225, "is_disabled": 0, "lon": -77.03879983333333}, {"fusion_lat": 0.0, "type": "electric_scooter", "name": "6a8bcc2bc4f6ba6e1805a1cc727d50ae", "fusion_lon": 0.0, "bike_id": "6a8bcc2bc4f6ba6e1805a1cc727d50ae", "is_reserved": 0, "rental_uris": {"android": "https://dc.lft.to/lastmile_qr_scan", "ios": "https://dc.lft.to/lastmile_qr_scan"}, "lat": 38.9274595, "is_disabled": 0, "lon": -77.02158833333333}, {"fusion_lat": 0.0, "type": "electric_scooter", "name": "a0b04792dbc91e624c547b2ff2864665", "fusion_lon": 0.0, "bike_id": "a0b04792dbc91e624c547b2ff2864665", "is_reserved": 0, "rental_uris": {"android": "https://dc.lft.to/lastmile_qr_scan", "ios": "https://dc.lft.to/lastmile_qr_scan"}, "lat": 38.926957333333334, "is_disabled": 0, "lon": -77.01487333333333}, {"fusion_lat": 0.0, "type": "electric_scooter", "name": "0adf9edec3e6da83fe424b2029ba0b4a", "fusion_lon": 0.0, "bike_id": "0adf9edec3e6da83fe424b2029ba0b4a", "is_reserved": 0, "rental_uris": {"android": "https://dc.lft.to/lastmile_qr_scan", "ios": "https://dc.lft.to/lastmile_qr_scan"}, "lat": 38.881196333333335, "is_disabled": 0, "lon": -76.9901175}, {"fusion_lat": 0.0, "type": "electric_scooter", "name": "3ec481be6cd5b2664c8f8d960e163fb2", "fusion_lon": 0.0, "bike_id": "3ec481be6cd5b2664c8f8d960e163fb2", "is_reserved": 0, "rental_uris": {"android": "https://dc.lft.to/lastmile_qr_scan", "ios": "https://dc.lft.to/lastmile_qr_scan"}, "lat": 38.911199833333335, "is_disabled": 0, "lon": -77.02203466666667}, {"fusion_lat": 0.0, "type": "electric_scooter", "name": "4cf2ca54ab8688c9c289e3f751622b7e", "fusion_lon": 0.0, "bike_id": "4cf2ca54ab8688c9c289e3f751622b7e", "is_reserved": 0, "rental_uris": {"android": "https://dc.lft.to/lastmile_qr_scan", "ios": "https://dc.lft.to/lastmile_qr_scan"}, "lat": 38.927877333333335, "is_disabled": 0, "lon": -77.03151633333333}, {"fusion_lat": 0.0, "type": "electric_scooter", "name": "96bef7d592424d1121d783228112dfba", "fusion_lon": 0.0, "bike_id": "96bef7d592424d1121d783228112dfba", "is_reserved": 0, "rental_uris": {"android": "https://dc.lft.to/lastmile_qr_scan", "ios": "https://dc.lft.to/lastmile_qr_scan"}, "lat": 38.90005283333333, "is_disabled": 0, "lon": -77.0397005}, {"fusion_lat": 0.0, "type": "electric_scooter", "name": "c10783cd95525a8082ea5dd0c0fce54b", "fusion_lon": 0.0, "bike_id": "c10783cd95525a8082ea5dd0c0fce54b", "is_reserved": 0, "rental_uris": {"android": "https://dc.lft.to/lastmile_qr_scan", "ios": "https://dc.lft.to/lastmile_qr_scan"}, "lat": 38.917382, "is_disabled": 0, "lon": -77.01796633333333}, {"fusion_lat": 0.0, "type": "electric_scooter", "name": "c2a9122572d61ed15710a530742afc84", "fusion_lon": 0.0, "bike_id": "c2a9122572d61ed15710a530742afc84", "is_reserved": 0, "rental_uris": {"android": "https://dc.lft.to/lastmile_qr_scan", "ios": "https://dc.lft.to/lastmile_qr_scan"}, "lat": 38.9097685, "is_disabled": 0, "lon": -77.03443533333333}, {"fusion_lat": 0.0, "type": "electric_scooter", "name": "50bb49baca1e971482afa3b945ac7c18", "fusion_lon": 0.0, "bike_id": "50bb49baca1e971482afa3b945ac7c18", "is_reserved": 0, "rental_uris": {"android": "https://dc.lft.to/lastmile_qr_scan", "ios": "https://dc.lft.to/lastmile_qr_scan"}, "lat": 38.909603833333335, "is_disabled": 0, "lon": -77.03237716666666}, {"fusion_lat": 0.0, "type": "electric_scooter", "name": "32dc8340ed8a0b96e3fd6fcf1d613bd1", "fusion_lon": 0.0, "bike_id": "32dc8340ed8a0b96e3fd6fcf1d613bd1", "is_reserved": 0, "rental_uris": {"android": "https://dc.lft.to/lastmile_qr_scan", "ios": "https://dc.lft.to/lastmile_qr_scan"}, "lat": 38.9200775, "is_disabled": 0, "lon": -77.02409516666667}, {"fusion_lat": 0.0, "type": "electric_scooter", "name": "4b774eed707a56d7983a4ae01381d69f", "fusion_lon": 0.0, "bike_id": "4b774eed707a56d7983a4ae01381d69f", "is_reserved": 0, "rental_uris": {"android": "https://dc.lft.to/lastmile_qr_scan", "ios": "https://dc.lft.to/lastmile_qr_scan"}, "lat": 38.911722833333336, "is_disabled": 0, "lon": -77.0044585}, {"fusion_lat": 0.0, "type": "electric_bike", "name": "da67e12c352311699821246beced679c", "fusion_lon": 0.0, "bike_id": "da67e12c352311699821246beced679c", "is_reserved": 0, "rental_uris": {"android": "https://dc.lft.to/lastmile_qr_scan", "ios": "https://dc.lft.to/lastmile_qr_scan"}, "lat": 38.82957583333334, "is_disabled": 0, "lon": -77.12356666666666}, {"fusion_lat": 0.0, "type": "electric_scooter", "name": "829f45a4d7bcd14ef0e5cafd72b9d7b8", "fusion_lon": 0.0, "bike_id": "829f45a4d7bcd14ef0e5cafd72b9d7b8", "is_reserved": 0, "rental_uris": {"android": "https://dc.lft.to/lastmile_qr_scan", "ios": "https://dc.lft.to/lastmile_qr_scan"}, "lat": 38.931444166666665, "is_disabled": 0, "lon": -77.02992083333334}, {"fusion_lat": 0.0, "type": "electric_bike", "name": "354178c03f94246ebe7c33e8a93cad20", "fusion_lon": 0.0, "bike_id": "354178c03f94246ebe7c33e8a93cad20", "is_reserved": 0, "rental_uris": {"android": "https://dc.lft.to/lastmile_qr_scan", "ios": "https://dc.lft.to/lastmile_qr_scan"}, "lat": 38.93770966666666, "is_disabled": 0, "lon": -77.0336855}, {"fusion_lat": 0.0, "type": "electric_scooter", "name": "2439d706e9778dd2078cc06d9aa32e35", "fusion_lon": 0.0, "bike_id": "2439d706e9778dd2078cc06d9aa32e35", "is_reserved": 0, "rental_uris": {"android": "https://dc.lft.to/lastmile_qr_scan", "ios": "https://dc.lft.to/lastmile_qr_scan"}, "lat": 38.910675833333336, "is_disabled": 0, "lon": -77.05312866666667}, {"fusion_lat": 0.0, "type": "electric_scooter", "name": "38801f999368af1a624dd5864b7e87c6", "fusion_lon": 0.0, "bike_id": "38801f999368af1a624dd5864b7e87c6", "is_reserved": 0, "rental_uris": {"android": "https://dc.lft.to/lastmile_qr_scan", "ios": "https://dc.lft.to/lastmile_qr_scan"}, "lat": 38.88831, "is_disabled": 0, "lon": -76.9937035}, {"fusion_lat": 0.0, "type": "electric_scooter", "name": "5393c652558426037fa7996a2c15b1c4", "fusion_lon": 0.0, "bike_id": "5393c652558426037fa7996a2c15b1c4", "is_reserved": 0, "rental_uris": {"android": "https://dc.lft.to/lastmile_qr_scan", "ios": "https://dc.lft.to/lastmile_qr_scan"}, "lat": 38.908714333333336, "is_disabled": 0, "lon": -77.04262616666666}, {"fusion_lat": 0.0, "type": "electric_scooter", "name": "4582f6bf70047b2bed68473c34a559ee", "fusion_lon": 0.0, "bike_id": "4582f6bf70047b2bed68473c34a559ee", "is_reserved": 0, "rental_uris": {"android": "https://dc.lft.to/lastmile_qr_scan", "ios": "https://dc.lft.to/lastmile_qr_scan"}, "lat": 38.86687933333333, "is_disabled": 0, "lon": -76.98598016666666}, {"fusion_lat": 0.0, "type": "electric_scooter", "name": "227db86d286215da3fdf54921492bdc1", "fusion_lon": 0.0, "bike_id": "227db86d286215da3fdf54921492bdc1", "is_reserved": 0, "rental_uris": {"android": "https://dc.lft.to/lastmile_qr_scan", "ios": "https://dc.lft.to/lastmile_qr_scan"}, "lat": 38.927436, "is_disabled": 0, "lon": -77.02536666666667}, {"fusion_lat": 0.0, "type": "electric_scooter", "name": "57401df78931a4e3e7d94970e9b120f7", "fusion_lon": 0.0, "bike_id": "57401df78931a4e3e7d94970e9b120f7", "is_reserved": 0, "rental_uris": {"android": "https://dc.lft.to/lastmile_qr_scan", "ios": "https://dc.lft.to/lastmile_qr_scan"}, "lat": 38.90575783333333, "is_disabled": 0, "lon": -77.02204}, {"fusion_lat": 0.0, "type": "electric_scooter", "name": "c4ee2cf788f2a24744511a4c36606a09", "fusion_lon": 0.0, "bike_id": "c4ee2cf788f2a24744511a4c36606a09", "is_reserved": 0, "rental_uris": {"android": "https://dc.lft.to/lastmile_qr_scan", "ios": "https://dc.lft.to/lastmile_qr_scan"}, "lat": 38.923713, "is_disabled": 0, "lon": -77.02803733333333}, {"fusion_lat": 0.0, "type": "electric_scooter", "name": "99046aeb0e33119d4daa73c8099641c2", "fusion_lon": 0.0, "bike_id": "99046aeb0e33119d4daa73c8099641c2", "is_reserved": 0, "rental_uris": {"android": "https://dc.lft.to/lastmile_qr_scan", "ios": "https://dc.lft.to/lastmile_qr_scan"}, "lat": 38.900170333333335, "is_disabled": 0, "lon": -76.99302216666666}, {"fusion_lat": 0.0, "type": "electric_scooter", "name": "ba76bc36b8ddad518146e053713752d5", "fusion_lon": 0.0, "bike_id": "ba76bc36b8ddad518146e053713752d5", "is_reserved": 0, "rental_uris": {"android": "https://dc.lft.to/lastmile_qr_scan", "ios": "https://dc.lft.to/lastmile_qr_scan"}, "lat": 38.937050666666664, "is_disabled": 0, "lon": -77.06103066666667}, {"fusion_lat": 0.0, "type": "electric_bike", "name": "24ef2fdae457cc21afb53d1580ac6fd9", "fusion_lon": 0.0, "bike_id": "24ef2fdae457cc21afb53d1580ac6fd9", "is_reserved": 0, "rental_uris": {"android": "https://dc.lft.to/lastmile_qr_scan", "ios": "https://dc.lft.to/lastmile_qr_scan"}, "lat": 38.962203, "is_disabled": 0, "lon": -77.02626216666667}, {"fusion_lat": 0.0, "type": "electric_scooter", "name": "a2e4146d29a793bd20d8bd0ab629b073", "fusion_lon": 0.0, "bike_id": "a2e4146d29a793bd20d8bd0ab629b073", "is_reserved": 0, "rental_uris": {"android": "https://dc.lft.to/lastmile_qr_scan", "ios": "https://dc.lft.to/lastmile_qr_scan"}, "lat": 38.897380166666665, "is_disabled": 0, "lon": -77.01314183333334}, {"fusion_lat": 0.0, "type": "electric_scooter", "name": "7dd16c64e10e2fdc9dbae0b1ae0f81be", "fusion_lon": 0.0, "bike_id": "7dd16c64e10e2fdc9dbae0b1ae0f81be", "is_reserved": 0, "rental_uris": {"android": "https://dc.lft.to/lastmile_qr_scan", "ios": "https://dc.lft.to/lastmile_qr_scan"}, "lat": 38.90569966666666, "is_disabled": 0, "lon": -77.027755}, {"fusion_lat": 0.0, "type": "electric_scooter", "name": "bb97b96d2230afe5ff3a102f4b499d0c", "fusion_lon": 0.0, "bike_id": "bb97b96d2230afe5ff3a102f4b499d0c", "is_reserved": 0, "rental_uris": {"android": "https://dc.lft.to/lastmile_qr_scan", "ios": "https://dc.lft.to/lastmile_qr_scan"}, "lat": 38.92333633333333, "is_disabled": 0, "lon": -77.03608983333334}, {"fusion_lat": 0.0, "type": "electric_scooter", "name": "6b35cd233cd609524292dee7fbd1dc0c", "fusion_lon": 0.0, "bike_id": "6b35cd233cd609524292dee7fbd1dc0c", "is_reserved": 0, "rental_uris": {"android": "https://dc.lft.to/lastmile_qr_scan", "ios": "https://dc.lft.to/lastmile_qr_scan"}, "lat": 38.887679, "is_disabled": 0, "lon": -77.01772683333333}, {"fusion_lat": 0.0, "type": "electric_scooter", "name": "fba363a3d0b1b0f06dcac9e0f1c48ad3", "fusion_lon": 0.0, "bike_id": "fba363a3d0b1b0f06dcac9e0f1c48ad3", "is_reserved": 0, "rental_uris": {"android": "https://dc.lft.to/lastmile_qr_scan", "ios": "https://dc.lft.to/lastmile_qr_scan"}, "lat": 38.892218166666666, "is_disabled": 0, "lon": -77.03342983333333}, {"fusion_lat": 0.0, "type": "electric_scooter", "name": "943e6e22426c2ad063054a0b34739795", "fusion_lon": 0.0, "bike_id": "943e6e22426c2ad063054a0b34739795", "is_reserved": 0, "rental_uris": {"android": "https://dc.lft.to/lastmile_qr_scan", "ios": "https://dc.lft.to/lastmile_qr_scan"}, "lat": 38.92221716666667, "is_disabled": 0, "lon": -77.0390055}, {"fusion_lat": 0.0, "type": "electric_scooter", "name": "c6b2e210b42ca0c8c970dbe7ffe989c3", "fusion_lon": 0.0, "bike_id": "c6b2e210b42ca0c8c970dbe7ffe989c3", "is_reserved": 0, "rental_uris": {"android": "https://dc.lft.to/lastmile_qr_scan", "ios": "https://dc.lft.to/lastmile_qr_scan"}, "lat": 38.924520333333334, "is_disabled": 0, "lon": -77.04116883333333}, {"fusion_lat": 0.0, "type": "electric_scooter", "name": "245ea1340cdbb62d1e92428fd70eb2b7", "fusion_lon": 0.0, "bike_id": "245ea1340cdbb62d1e92428fd70eb2b7", "is_reserved": 0, "rental_uris": {"android": "https://dc.lft.to/lastmile_qr_scan", "ios": "https://dc.lft.to/lastmile_qr_scan"}, "lat": 38.92397016666666, "is_disabled": 0, "lon": -77.07331266666667}, {"fusion_lat": 0.0, "type": "electric_scooter", "name": "0046e383246f3c77f819a1e8b6846d5d", "fusion_lon": 0.0, "bike_id": "0046e383246f3c77f819a1e8b6846d5d", "is_reserved": 0, "rental_uris": {"android": "https://dc.lft.to/lastmile_qr_scan", "ios": "https://dc.lft.to/lastmile_qr_scan"}, "lat": 38.9084345, "is_disabled": 0, "lon": -77.03561416666666}, {"fusion_lat": 0.0, "type": "electric_scooter", "name": "79820af0ffa88208f3cffd09b77d90ac", "fusion_lon": 0.0, "bike_id": "79820af0ffa88208f3cffd09b77d90ac", "is_reserved": 0, "rental_uris": {"android": "https://dc.lft.to/lastmile_qr_scan", "ios": "https://dc.lft.to/lastmile_qr_scan"}, "lat": 38.92367316666667, "is_disabled": 0, "lon": -77.01913116666667}, {"fusion_lat": 0.0, "type": "electric_scooter", "name": "3e0429d225e259d10c5ac73c1632ded0", "fusion_lon": 0.0, "bike_id": "3e0429d225e259d10c5ac73c1632ded0", "is_reserved": 0, "rental_uris": {"android": "https://dc.lft.to/lastmile_qr_scan", "ios": "https://dc.lft.to/lastmile_qr_scan"}, "lat": 38.892459333333335, "is_disabled": 0, "lon": -77.0221275}, {"fusion_lat": 0.0, "type": "electric_scooter", "name": "b96d858c14059a6f6a663a9a33d9d8a1", "fusion_lon": 0.0, "bike_id": "b96d858c14059a6f6a663a9a33d9d8a1", "is_reserved": 0, "rental_uris": {"android": "https://dc.lft.to/lastmile_qr_scan", "ios": "https://dc.lft.to/lastmile_qr_scan"}, "lat": 38.907377333333336, "is_disabled": 0, "lon": -77.02696983333334}, {"fusion_lat": 0.0, "type": "electric_scooter", "name": "afbca779f851ac3465a588446217f83e", "fusion_lon": 0.0, "bike_id": "afbca779f851ac3465a588446217f83e", "is_reserved": 0, "rental_uris": {"android": "https://dc.lft.to/lastmile_qr_scan", "ios": "https://dc.lft.to/lastmile_qr_scan"}, "lat": 38.8989735, "is_disabled": 0, "lon": -77.03934816666667}, {"fusion_lat": 0.0, "type": "electric_scooter", "name": "c0a3f87a836aac7ba36741fed618d921", "fusion_lon": 0.0, "bike_id": "c0a3f87a836aac7ba36741fed618d921", "is_reserved": 0, "rental_uris": {"android": "https://dc.lft.to/lastmile_qr_scan", "ios": "https://dc.lft.to/lastmile_qr_scan"}, "lat": 38.905075833333335, "is_disabled": 0, "lon": -76.99611616666667}, {"fusion_lat": 0.0, "type": "electric_scooter", "name": "0b6b237279e3ad0fbdb6fa3fc0e0461f", "fusion_lon": 0.0, "bike_id": "0b6b237279e3ad0fbdb6fa3fc0e0461f", "is_reserved": 0, "rental_uris": {"android": "https://dc.lft.to/lastmile_qr_scan", "ios": "https://dc.lft.to/lastmile_qr_scan"}, "lat": 38.89790933333333, "is_disabled": 0, "lon": -77.05014733333333}, {"fusion_lat": 0.0, "type": "electric_scooter", "name": "1723ce4d89c7902fa2952b6d82207176", "fusion_lon": 0.0, "bike_id": "1723ce4d89c7902fa2952b6d82207176", "is_reserved": 0, "rental_uris": {"android": "https://dc.lft.to/lastmile_qr_scan", "ios": "https://dc.lft.to/lastmile_qr_scan"}, "lat": 38.911834, "is_disabled": 0, "lon": -77.03492716666666}, {"fusion_lat": 0.0, "type": "electric_scooter", "name": "905b769e15aa24acf1ffd6b147b243ab", "fusion_lon": 0.0, "bike_id": "905b769e15aa24acf1ffd6b147b243ab", "is_reserved": 0, "rental_uris": {"android": "https://dc.lft.to/lastmile_qr_scan", "ios": "https://dc.lft.to/lastmile_qr_scan"}, "lat": 38.922571, "is_disabled": 0, "lon": -77.029816}, {"fusion_lat": 0.0, "type": "electric_scooter", "name": "1b7bbc4c70e2a5e30d09260e6011c5c6", "fusion_lon": 0.0, "bike_id": "1b7bbc4c70e2a5e30d09260e6011c5c6", "is_reserved": 0, "rental_uris": {"android": "https://dc.lft.to/lastmile_qr_scan", "ios": "https://dc.lft.to/lastmile_qr_scan"}, "lat": 38.896094166666664, "is_disabled": 0, "lon": -76.99972616666666}, {"fusion_lat": 0.0, "type": "electric_scooter", "name": "9e36704fa808a39d891eabbe23cbb377", "fusion_lon": 0.0, "bike_id": "9e36704fa808a39d891eabbe23cbb377", "is_reserved": 0, "rental_uris": {"android": "https://dc.lft.to/lastmile_qr_scan", "ios": "https://dc.lft.to/lastmile_qr_scan"}, "lat": 38.873427, "is_disabled": 0, "lon": -76.9916445}, {"fusion_lat": 0.0, "type": "electric_scooter", "name": "a3b25efd8e629ad52375503832dd87b6", "fusion_lon": 0.0, "bike_id": "a3b25efd8e629ad52375503832dd87b6", "is_reserved": 0, "rental_uris": {"android": "https://dc.lft.to/lastmile_qr_scan", "ios": "https://dc.lft.to/lastmile_qr_scan"}, "lat": 38.911743333333334, "is_disabled": 0, "lon": -77.00449666666667}, {"fusion_lat": 0.0, "type": "electric_scooter", "name": "499a9cdcb8446335067ec19e950dd31a", "fusion_lon": 0.0, "bike_id": "499a9cdcb8446335067ec19e950dd31a", "is_reserved": 0, "rental_uris": {"android": "https://dc.lft.to/lastmile_qr_scan", "ios": "https://dc.lft.to/lastmile_qr_scan"}, "lat": 38.920376, "is_disabled": 0, "lon": -77.01222633333333}, {"fusion_lat": 0.0, "type": "electric_scooter", "name": "8d2415c48c64f2b06514bfe6ca19e422", "fusion_lon": 0.0, "bike_id": "8d2415c48c64f2b06514bfe6ca19e422", "is_reserved": 0, "rental_uris": {"android": "https://dc.lft.to/lastmile_qr_scan", "ios": "https://dc.lft.to/lastmile_qr_scan"}, "lat": 38.9310035, "is_disabled": 0, "lon": -77.025333}, {"fusion_lat": 0.0, "type": "electric_scooter", "name": "31d107ff8a6519ecbe47c270ccf5de8e", "fusion_lon": 0.0, "bike_id": "31d107ff8a6519ecbe47c270ccf5de8e", "is_reserved": 0, "rental_uris": {"android": "https://dc.lft.to/lastmile_qr_scan", "ios": "https://dc.lft.to/lastmile_qr_scan"}, "lat": 38.90034033333333, "is_disabled": 0, "lon": -77.03208316666667}, {"fusion_lat": 0.0, "type": "electric_scooter", "name": "155eb2c9a11dc9b23bb44b709571ca8a", "fusion_lon": 0.0, "bike_id": "155eb2c9a11dc9b23bb44b709571ca8a", "is_reserved": 0, "rental_uris": {"android": "https://dc.lft.to/lastmile_qr_scan", "ios": "https://dc.lft.to/lastmile_qr_scan"}, "lat": 38.90200516666667, "is_disabled": 0, "lon": -77.023566}, {"fusion_lat": 0.0, "type": "electric_scooter", "name": "a1a26fb80217b2e5743c1f14deeea112", "fusion_lon": 0.0, "bike_id": "a1a26fb80217b2e5743c1f14deeea112", "is_reserved": 0, "rental_uris": {"android": "https://dc.lft.to/lastmile_qr_scan", "ios": "https://dc.lft.to/lastmile_qr_scan"}, "lat": 38.89196866666666, "is_disabled": 0, "lon": -76.93302783333333}, {"fusion_lat": 0.0, "type": "electric_bike", "name": "aff1637c3722f16dfac7b8baf8ad6729", "fusion_lon": 0.0, "bike_id": "aff1637c3722f16dfac7b8baf8ad6729", "is_reserved": 0, "rental_uris": {"android": "https://dc.lft.to/lastmile_qr_scan", "ios": "https://dc.lft.to/lastmile_qr_scan"}, "lat": 39.04302883333333, "is_disabled": 0, "lon": -77.05161883333334}, {"fusion_lat": 0.0, "type": "electric_bike", "name": "ab43c53348e3faa640bb41e54cf246b2", "fusion_lon": 0.0, "bike_id": "ab43c53348e3faa640bb41e54cf246b2", "is_reserved": 0, "rental_uris": {"android": "https://dc.lft.to/lastmile_qr_scan", "ios": "https://dc.lft.to/lastmile_qr_scan"}, "lat": 38.90626966666667, "is_disabled": 0, "lon": -76.986047}, {"fusion_lat": 0.0, "type": "electric_scooter", "name": "9f66d06af92881a01a197fdeac6e6510", "fusion_lon": 0.0, "bike_id": "9f66d06af92881a01a197fdeac6e6510", "is_reserved": 0, "rental_uris": {"android": "https://dc.lft.to/lastmile_qr_scan", "ios": "https://dc.lft.to/lastmile_qr_scan"}, "lat": 38.90730933333333, "is_disabled": 0, "lon": -76.98696366666667}, {"fusion_lat": 0.0, "type": "electric_scooter", "name": "8581ca87d951f3a15d798235fcd5766a", "fusion_lon": 0.0, "bike_id": "8581ca87d951f3a15d798235fcd5766a", "is_reserved": 0, "rental_uris": {"android": "https://dc.lft.to/lastmile_qr_scan", "ios": "https://dc.lft.to/lastmile_qr_scan"}, "lat": 38.920579333333336, "is_disabled": 0, "lon": -77.02357083333334}, {"fusion_lat": 0.0, "type": "electric_scooter", "name": "2c78e39ffa8f1f217d8e469818c21dce", "fusion_lon": 0.0, "bike_id": "2c78e39ffa8f1f217d8e469818c21dce", "is_reserved": 0, "rental_uris": {"android": "https://dc.lft.to/lastmile_qr_scan", "ios": "https://dc.lft.to/lastmile_qr_scan"}, "lat": 38.90856816666667, "is_disabled": 0, "lon": -77.04560533333333}, {"fusion_lat": 0.0, "type": "electric_bike", "name": "3a5211228f21479d008637c252985c08", "fusion_lon": 0.0, "bike_id": "3a5211228f21479d008637c252985c08", "is_reserved": 0, "rental_uris": {"android": "https://dc.lft.to/lastmile_qr_scan", "ios": "https://dc.lft.to/lastmile_qr_scan"}, "lat": 39.0528015, "is_disabled": 0, "lon": -77.08072633333333}, {"fusion_lat": 0.0, "type": "electric_scooter", "name": "b74bb947451c0b593ace5831b79aa794", "fusion_lon": 0.0, "bike_id": "b74bb947451c0b593ace5831b79aa794", "is_reserved": 0, "rental_uris": {"android": "https://dc.lft.to/lastmile_qr_scan", "ios": "https://dc.lft.to/lastmile_qr_scan"}, "lat": 38.890822, "is_disabled": 0, "lon": -77.040429}, {"fusion_lat": 0.0, "type": "electric_scooter", "name": "c98616d181c6b3103a68c4a60def4b78", "fusion_lon": 0.0, "bike_id": "c98616d181c6b3103a68c4a60def4b78", "is_reserved": 0, "rental_uris": {"android": "https://dc.lft.to/lastmile_qr_scan", "ios": "https://dc.lft.to/lastmile_qr_scan"}, "lat": 38.887252333333336, "is_disabled": 0, "lon": -77.02831516666667}, {"fusion_lat": 0.0, "type": "electric_scooter", "name": "9d0bef681d1a6ed3870499f751f2e980", "fusion_lon": 0.0, "bike_id": "9d0bef681d1a6ed3870499f751f2e980", "is_reserved": 0, "rental_uris": {"android": "https://dc.lft.to/lastmile_qr_scan", "ios": "https://dc.lft.to/lastmile_qr_scan"}, "lat": 38.9026085, "is_disabled": 0, "lon": -76.99546666666667}, {"fusion_lat": 0.0, "type": "electric_bike", "name": "1710fb6972a67898c3a59faa4bee8873", "fusion_lon": 0.0, "bike_id": "1710fb6972a67898c3a59faa4bee8873", "is_reserved": 0, "rental_uris": {"android": "https://dc.lft.to/lastmile_qr_scan", "ios": "https://dc.lft.to/lastmile_qr_scan"}, "lat": 38.961072, "is_disabled": 0, "lon": -76.9281505}, {"fusion_lat": 0.0, "type": "electric_scooter", "name": "0064f8b608c267e6cfb50921f3cdb7e4", "fusion_lon": 0.0, "bike_id": "0064f8b608c267e6cfb50921f3cdb7e4", "is_reserved": 0, "rental_uris": {"android": "https://dc.lft.to/lastmile_qr_scan", "ios": "https://dc.lft.to/lastmile_qr_scan"}, "lat": 38.89503466666667, "is_disabled": 0, "lon": -77.003348}, {"fusion_lat": 0.0, "type": "electric_scooter", "name": "17be3809652eca9ef932663562abd89f", "fusion_lon": 0.0, "bike_id": "17be3809652eca9ef932663562abd89f", "is_reserved": 0, "rental_uris": {"android": "https://dc.lft.to/lastmile_qr_scan", "ios": "https://dc.lft.to/lastmile_qr_scan"}, "lat": 38.92418116666666, "is_disabled": 0, "lon": -77.0195995}, {"fusion_lat": 0.0, "type": "electric_scooter", "name": "4d2424f5f5812e1588887e47c89a250e", "fusion_lon": 0.0, "bike_id": "4d2424f5f5812e1588887e47c89a250e", "is_reserved": 0, "rental_uris": {"android": "https://dc.lft.to/lastmile_qr_scan", "ios": "https://dc.lft.to/lastmile_qr_scan"}, "lat": 38.9111095, "is_disabled": 0, "lon": -77.0446665}, {"fusion_lat": 0.0, "type": "electric_scooter", "name": "3098c72168fa853d9a62283c87cdbc86", "fusion_lon": 0.0, "bike_id": "3098c72168fa853d9a62283c87cdbc86", "is_reserved": 0, "rental_uris": {"android": "https://dc.lft.to/lastmile_qr_scan", "ios": "https://dc.lft.to/lastmile_qr_scan"}, "lat": 38.93205, "is_disabled": 0, "lon": -77.0282905}, {"fusion_lat": 0.0, "type": "electric_scooter", "name": "b476afe7bb720019d7bdbe8c055bd042", "fusion_lon": 0.0, "bike_id": "b476afe7bb720019d7bdbe8c055bd042", "is_reserved": 0, "rental_uris": {"android": "https://dc.lft.to/lastmile_qr_scan", "ios": "https://dc.lft.to/lastmile_qr_scan"}, "lat": 38.98456216666666, "is_disabled": 0, "lon": -77.02645233333334}, {"fusion_lat": 0.0, "type": "electric_scooter", "name": "c47d70ad8f1c5ead8e599c8dbc66085a", "fusion_lon": 0.0, "bike_id": "c47d70ad8f1c5ead8e599c8dbc66085a", "is_reserved": 0, "rental_uris": {"android": "https://dc.lft.to/lastmile_qr_scan", "ios": "https://dc.lft.to/lastmile_qr_scan"}, "lat": 38.86992766666667, "is_disabled": 0, "lon": -76.97592666666667}, {"fusion_lat": 0.0, "type": "electric_scooter", "name": "c32643edb38ec0a37972ac225563787c", "fusion_lon": 0.0, "bike_id": "c32643edb38ec0a37972ac225563787c", "is_reserved": 0, "rental_uris": {"android": "https://dc.lft.to/lastmile_qr_scan", "ios": "https://dc.lft.to/lastmile_qr_scan"}, "lat": 38.8719565, "is_disabled": 0, "lon": -77.01074533333333}, {"fusion_lat": 0.0, "type": "electric_bike", "name": "70d7021e5ac4d4e633e0563bd6cf5576", "fusion_lon": 0.0, "bike_id": "70d7021e5ac4d4e633e0563bd6cf5576", "is_reserved": 0, "rental_uris": {"android": "https://dc.lft.to/lastmile_qr_scan", "ios": "https://dc.lft.to/lastmile_qr_scan"}, "lat": 38.93296933333333, "is_disabled": 0, "lon": -77.02292416666667}, {"fusion_lat": 0.0, "type": "electric_scooter", "name": "9aa6f67fc7c8d4c1c2df7ba133650324", "fusion_lon": 0.0, "bike_id": "9aa6f67fc7c8d4c1c2df7ba133650324", "is_reserved": 0, "rental_uris": {"android": "https://dc.lft.to/lastmile_qr_scan", "ios": "https://dc.lft.to/lastmile_qr_scan"}, "lat": 38.8874175, "is_disabled": 0, "lon": -77.02738083333334}, {"fusion_lat": 0.0, "type": "electric_scooter", "name": "4f2533b11176122a8075bbba7a6344bb", "fusion_lon": 0.0, "bike_id": "4f2533b11176122a8075bbba7a6344bb", "is_reserved": 0, "rental_uris": {"android": "https://dc.lft.to/lastmile_qr_scan", "ios": "https://dc.lft.to/lastmile_qr_scan"}, "lat": 38.960436, "is_disabled": 0, "lon": -77.08535016666667}, {"fusion_lat": 0.0, "type": "electric_scooter", "name": "ba49fec6fe2e9d0d02283cf3be053e2f", "fusion_lon": 0.0, "bike_id": "ba49fec6fe2e9d0d02283cf3be053e2f", "is_reserved": 0, "rental_uris": {"android": "https://dc.lft.to/lastmile_qr_scan", "ios": "https://dc.lft.to/lastmile_qr_scan"}, "lat": 38.92923583333334, "is_disabled": 0, "lon": -77.03755116666666}, {"fusion_lat": 0.0, "type": "electric_scooter", "name": "261cbdc36362136f344b53a693f623b2", "fusion_lon": 0.0, "bike_id": "261cbdc36362136f344b53a693f623b2", "is_reserved": 0, "rental_uris": {"android": "https://dc.lft.to/lastmile_qr_scan", "ios": "https://dc.lft.to/lastmile_qr_scan"}, "lat": 38.905436333333334, "is_disabled": 0, "lon": -77.0463475}, {"fusion_lat": 0.0, "type": "electric_scooter", "name": "169b983e864b098f0bd43c4998a73750", "fusion_lon": 0.0, "bike_id": "169b983e864b098f0bd43c4998a73750", "is_reserved": 0, "rental_uris": {"android": "https://dc.lft.to/lastmile_qr_scan", "ios": "https://dc.lft.to/lastmile_qr_scan"}, "lat": 38.91107616666667, "is_disabled": 0, "lon": -77.038367}, {"fusion_lat": 0.0, "type": "electric_bike", "name": "4d8a88930f68d46d3e6eb53a2eb1ad3c", "fusion_lon": 0.0, "bike_id": "4d8a88930f68d46d3e6eb53a2eb1ad3c", "is_reserved": 0, "rental_uris": {"android": "https://dc.lft.to/lastmile_qr_scan", "ios": "https://dc.lft.to/lastmile_qr_scan"}, "lat": 38.954220166666666, "is_disabled": 0, "lon": -76.93276}, {"fusion_lat": 0.0, "type": "electric_bike", "name": "caac15a217296d3f2bb6da7da81bcfae", "fusion_lon": 0.0, "bike_id": "caac15a217296d3f2bb6da7da81bcfae", "is_reserved": 0, "rental_uris": {"android": "https://dc.lft.to/lastmile_qr_scan", "ios": "https://dc.lft.to/lastmile_qr_scan"}, "lat": 38.865816, "is_disabled": 0, "lon": -77.04763133333333}, {"fusion_lat": 0.0, "type": "electric_scooter", "name": "092fbe3555e370d0b7ca4afd83921185", "fusion_lon": 0.0, "bike_id": "092fbe3555e370d0b7ca4afd83921185", "is_reserved": 0, "rental_uris": {"android": "https://dc.lft.to/lastmile_qr_scan", "ios": "https://dc.lft.to/lastmile_qr_scan"}, "lat": 38.91816633333333, "is_disabled": 0, "lon": -77.024771}, {"fusion_lat": 0.0, "type": "electric_scooter", "name": "e5f1de4c7666da317de8d4fbedaa9f81", "fusion_lon": 0.0, "bike_id": "e5f1de4c7666da317de8d4fbedaa9f81", "is_reserved": 0, "rental_uris": {"android": "https://dc.lft.to/lastmile_qr_scan", "ios": "https://dc.lft.to/lastmile_qr_scan"}, "lat": 38.908985333333334, "is_disabled": 0, "lon": -77.018907}, {"fusion_lat": 0.0, "type": "electric_scooter", "name": "088cca735862064723f97f423e08bf67", "fusion_lon": 0.0, "bike_id": "088cca735862064723f97f423e08bf67", "is_reserved": 0, "rental_uris": {"android": "https://dc.lft.to/lastmile_qr_scan", "ios": "https://dc.lft.to/lastmile_qr_scan"}, "lat": 38.922578666666666, "is_disabled": 0, "lon": -77.04301866666667}, {"fusion_lat": 0.0, "type": "electric_scooter", "name": "5a379b0dc44b47514d90550f65aafb68", "fusion_lon": 0.0, "bike_id": "5a379b0dc44b47514d90550f65aafb68", "is_reserved": 0, "rental_uris": {"android": "https://dc.lft.to/lastmile_qr_scan", "ios": "https://dc.lft.to/lastmile_qr_scan"}, "lat": 38.865058833333336, "is_disabled": 0, "lon": -76.99002783333333}, {"fusion_lat": 0.0, "type": "electric_scooter", "name": "f1c4bc347663bf68ff07f6a02980775b", "fusion_lon": 0.0, "bike_id": "f1c4bc347663bf68ff07f6a02980775b", "is_reserved": 0, "rental_uris": {"android": "https://dc.lft.to/lastmile_qr_scan", "ios": "https://dc.lft.to/lastmile_qr_scan"}, "lat": 38.874725833333336, "is_disabled": 0, "lon": -77.0087295}, {"fusion_lat": 0.0, "type": "electric_scooter", "name": "d0505cb89e60d14c59f074169816c0e4", "fusion_lon": 0.0, "bike_id": "d0505cb89e60d14c59f074169816c0e4", "is_reserved": 0, "rental_uris": {"android": "https://dc.lft.to/lastmile_qr_scan", "ios": "https://dc.lft.to/lastmile_qr_scan"}, "lat": 38.9305795, "is_disabled": 0, "lon": -77.033494}, {"fusion_lat": 0.0, "type": "electric_scooter", "name": "8aa96e923fea128b75a71ecdd6379185", "fusion_lon": 0.0, "bike_id": "8aa96e923fea128b75a71ecdd6379185", "is_reserved": 0, "rental_uris": {"android": "https://dc.lft.to/lastmile_qr_scan", "ios": "https://dc.lft.to/lastmile_qr_scan"}, "lat": 38.939597, "is_disabled": 0, "lon": -77.07238416666667}, {"fusion_lat": 0.0, "type": "electric_bike", "name": "3ebc544090d67507506b6ac77d227d44", "fusion_lon": 0.0, "bike_id": "3ebc544090d67507506b6ac77d227d44", "is_reserved": 0, "rental_uris": {"android": "https://dc.lft.to/lastmile_qr_scan", "ios": "https://dc.lft.to/lastmile_qr_scan"}, "lat": 38.86517466666667, "is_disabled": 0, "lon": -76.97336416666667}, {"fusion_lat": 0.0, "type": "electric_scooter", "name": "84338309c7c81fdeeac55d136e1db200", "fusion_lon": 0.0, "bike_id": "84338309c7c81fdeeac55d136e1db200", "is_reserved": 0, "rental_uris": {"android": "https://dc.lft.to/lastmile_qr_scan", "ios": "https://dc.lft.to/lastmile_qr_scan"}, "lat": 38.942019, "is_disabled": 0, "lon": -77.02501733333334}, {"fusion_lat": 0.0, "type": "electric_scooter", "name": "54f011e7d1c2aa300ce1a7dcdc5b59b6", "fusion_lon": 0.0, "bike_id": "54f011e7d1c2aa300ce1a7dcdc5b59b6", "is_reserved": 0, "rental_uris": {"android": "https://dc.lft.to/lastmile_qr_scan", "ios": "https://dc.lft.to/lastmile_qr_scan"}, "lat": 38.93931716666667, "is_disabled": 0, "lon": -77.02468}, {"fusion_lat": 0.0, "type": "electric_scooter", "name": "38b83f929fdc308c4d5c47ff9f65caf5", "fusion_lon": 0.0, "bike_id": "38b83f929fdc308c4d5c47ff9f65caf5", "is_reserved": 0, "rental_uris": {"android": "https://dc.lft.to/lastmile_qr_scan", "ios": "https://dc.lft.to/lastmile_qr_scan"}, "lat": 38.898011, "is_disabled": 0, "lon": -76.991615}, {"fusion_lat": 0.0, "type": "electric_bike", "name": "c56302227fcae2873b22194039514783", "fusion_lon": 0.0, "bike_id": "c56302227fcae2873b22194039514783", "is_reserved": 0, "rental_uris": {"android": "https://dc.lft.to/lastmile_qr_scan", "ios": "https://dc.lft.to/lastmile_qr_scan"}, "lat": 38.83812266666666, "is_disabled": 0, "lon": -77.09521416666666}, {"fusion_lat": 0.0, "type": "electric_bike", "name": "44f0214c3271064aec116d8ebd0bc47e", "fusion_lon": 0.0, "bike_id": "44f0214c3271064aec116d8ebd0bc47e", "is_reserved": 0, "rental_uris": {"android": "https://dc.lft.to/lastmile_qr_scan", "ios": "https://dc.lft.to/lastmile_qr_scan"}, "lat": 38.86517883333333, "is_disabled": 0, "lon": -76.97340333333334}, {"fusion_lat": 0.0, "type": "electric_scooter", "name": "8242da1ff63621f6a85445579788c58d", "fusion_lon": 0.0, "bike_id": "8242da1ff63621f6a85445579788c58d", "is_reserved": 0, "rental_uris": {"android": "https://dc.lft.to/lastmile_qr_scan", "ios": "https://dc.lft.to/lastmile_qr_scan"}, "lat": 38.9753275, "is_disabled": 0, "lon": -77.01693066666667}, {"fusion_lat": 0.0, "type": "electric_scooter", "name": "07fd8a78bbc0eed5c6f2cb3e745daff9", "fusion_lon": 0.0, "bike_id": "07fd8a78bbc0eed5c6f2cb3e745daff9", "is_reserved": 0, "rental_uris": {"android": "https://dc.lft.to/lastmile_qr_scan", "ios": "https://dc.lft.to/lastmile_qr_scan"}, "lat": 38.892217333333335, "is_disabled": 0, "lon": -77.031585}, {"fusion_lat": 0.0, "type": "electric_scooter", "name": "4e993baaac5934133951e45504f78874", "fusion_lon": 0.0, "bike_id": "4e993baaac5934133951e45504f78874", "is_reserved": 0, "rental_uris": {"android": "https://dc.lft.to/lastmile_qr_scan", "ios": "https://dc.lft.to/lastmile_qr_scan"}, "lat": 38.897449, "is_disabled": 0, "lon": -76.9898125}, {"fusion_lat": 0.0, "type": "electric_scooter", "name": "1f2262e3c1cc43f7dc9e0b707ca41c5d", "fusion_lon": 0.0, "bike_id": "1f2262e3c1cc43f7dc9e0b707ca41c5d", "is_reserved": 0, "rental_uris": {"android": "https://dc.lft.to/lastmile_qr_scan", "ios": "https://dc.lft.to/lastmile_qr_scan"}, "lat": 38.928158833333335, "is_disabled": 0, "lon": -77.05447583333333}, {"fusion_lat": 0.0, "type": "electric_scooter", "name": "3b3a1aec8cf58979eb36cd225b13977f", "fusion_lon": 0.0, "bike_id": "3b3a1aec8cf58979eb36cd225b13977f", "is_reserved": 0, "rental_uris": {"android": "https://dc.lft.to/lastmile_qr_scan", "ios": "https://dc.lft.to/lastmile_qr_scan"}, "lat": 38.94986166666666, "is_disabled": 0, "lon": -77.02706733333333}, {"fusion_lat": 0.0, "type": "electric_scooter", "name": "5a367fef236329e3bdf969d09bf18fb0", "fusion_lon": 0.0, "bike_id": "5a367fef236329e3bdf969d09bf18fb0", "is_reserved": 0, "rental_uris": {"android": "https://dc.lft.to/lastmile_qr_scan", "ios": "https://dc.lft.to/lastmile_qr_scan"}, "lat": 38.906469, "is_disabled": 0, "lon": -77.01028983333333}, {"fusion_lat": 0.0, "type": "electric_scooter", "name": "8c27363defcb33724cb3eaa2f0ec1a77", "fusion_lon": 0.0, "bike_id": "8c27363defcb33724cb3eaa2f0ec1a77", "is_reserved": 0, "rental_uris": {"android": "https://dc.lft.to/lastmile_qr_scan", "ios": "https://dc.lft.to/lastmile_qr_scan"}, "lat": 38.86665, "is_disabled": 0, "lon": -76.985122}, {"fusion_lat": 0.0, "type": "electric_bike", "name": "b6cd1b085cb15c5419b6f5b6255c5400", "fusion_lon": 0.0, "bike_id": "b6cd1b085cb15c5419b6f5b6255c5400", "is_reserved": 0, "rental_uris": {"android": "https://dc.lft.to/lastmile_qr_scan", "ios": "https://dc.lft.to/lastmile_qr_scan"}, "lat": 38.919503, "is_disabled": 0, "lon": -77.04520733333334}, {"fusion_lat": 0.0, "type": "electric_scooter", "name": "ad39dd16ee25e0c4aafff947c94a3cc8", "fusion_lon": 0.0, "bike_id": "ad39dd16ee25e0c4aafff947c94a3cc8", "is_reserved": 0, "rental_uris": {"android": "https://dc.lft.to/lastmile_qr_scan", "ios": "https://dc.lft.to/lastmile_qr_scan"}, "lat": 38.916770666666665, "is_disabled": 0, "lon": -77.03689566666667}, {"fusion_lat": 0.0, "type": "electric_scooter", "name": "09af33e9c7789ddc26aea4c29a9bdb1f", "fusion_lon": 0.0, "bike_id": "09af33e9c7789ddc26aea4c29a9bdb1f", "is_reserved": 0, "rental_uris": {"android": "https://dc.lft.to/lastmile_qr_scan", "ios": "https://dc.lft.to/lastmile_qr_scan"}, "lat": 38.89171616666667, "is_disabled": 0, "lon": -77.01554266666666}, {"fusion_lat": 0.0, "type": "electric_scooter", "name": "a7d4e0cbbb35c0499a35f846749f78b2", "fusion_lon": 0.0, "bike_id": "a7d4e0cbbb35c0499a35f846749f78b2", "is_reserved": 0, "rental_uris": {"android": "https://dc.lft.to/lastmile_qr_scan", "ios": "https://dc.lft.to/lastmile_qr_scan"}, "lat": 38.906337, "is_disabled": 0, "lon": -77.04827533333334}, {"fusion_lat": 0.0, "type": "electric_scooter", "name": "40a33e394bb77fe806c2c2ed81bf66ed", "fusion_lon": 0.0, "bike_id": "40a33e394bb77fe806c2c2ed81bf66ed", "is_reserved": 0, "rental_uris": {"android": "https://dc.lft.to/lastmile_qr_scan", "ios": "https://dc.lft.to/lastmile_qr_scan"}, "lat": 38.937138, "is_disabled": 0, "lon": -77.03636666666667}, {"fusion_lat": 0.0, "type": "electric_scooter", "name": "7685e17d7d0e43af646b0d7663581a69", "fusion_lon": 0.0, "bike_id": "7685e17d7d0e43af646b0d7663581a69", "is_reserved": 0, "rental_uris": {"android": "https://dc.lft.to/lastmile_qr_scan", "ios": "https://dc.lft.to/lastmile_qr_scan"}, "lat": 38.9212585, "is_disabled": 0, "lon": -76.99557683333333}, {"fusion_lat": 0.0, "type": "electric_scooter", "name": "2c61cacea04744d4afbd990288b34428", "fusion_lon": 0.0, "bike_id": "2c61cacea04744d4afbd990288b34428", "is_reserved": 0, "rental_uris": {"android": "https://dc.lft.to/lastmile_qr_scan", "ios": "https://dc.lft.to/lastmile_qr_scan"}, "lat": 38.92066066666667, "is_disabled": 0, "lon": -77.0236325}, {"fusion_lat": 0.0, "type": "electric_scooter", "name": "3ba49a20ed3be4c0a51bc1a68afba083", "fusion_lon": 0.0, "bike_id": "3ba49a20ed3be4c0a51bc1a68afba083", "is_reserved": 0, "rental_uris": {"android": "https://dc.lft.to/lastmile_qr_scan", "ios": "https://dc.lft.to/lastmile_qr_scan"}, "lat": 38.941809, "is_disabled": 0, "lon": -77.02751983333333}, {"fusion_lat": 0.0, "type": "electric_scooter", "name": "60df3703255c54bf3a94c403c9a6dc98", "fusion_lon": 0.0, "bike_id": "60df3703255c54bf3a94c403c9a6dc98", "is_reserved": 0, "rental_uris": {"android": "https://dc.lft.to/lastmile_qr_scan", "ios": "https://dc.lft.to/lastmile_qr_scan"}, "lat": 38.908291, "is_disabled": 0, "lon": -77.00231533333333}, {"fusion_lat": 0.0, "type": "electric_scooter", "name": "e468808a49cd7589bbbd15febbed1ccd", "fusion_lon": 0.0, "bike_id": "e468808a49cd7589bbbd15febbed1ccd", "is_reserved": 0, "rental_uris": {"android": "https://dc.lft.to/lastmile_qr_scan", "ios": "https://dc.lft.to/lastmile_qr_scan"}, "lat": 38.9201265, "is_disabled": 0, "lon": -77.032106}, {"fusion_lat": 0.0, "type": "electric_scooter", "name": "7a44f7dc558f53a6aa27e04a8a5198f7", "fusion_lon": 0.0, "bike_id": "7a44f7dc558f53a6aa27e04a8a5198f7", "is_reserved": 0, "rental_uris": {"android": "https://dc.lft.to/lastmile_qr_scan", "ios": "https://dc.lft.to/lastmile_qr_scan"}, "lat": 38.8935475, "is_disabled": 0, "lon": -77.003348}, {"fusion_lat": 0.0, "type": "electric_scooter", "name": "160a220db483c961eab6bbf94495b09f", "fusion_lon": 0.0, "bike_id": "160a220db483c961eab6bbf94495b09f", "is_reserved": 0, "rental_uris": {"android": "https://dc.lft.to/lastmile_qr_scan", "ios": "https://dc.lft.to/lastmile_qr_scan"}, "lat": 38.94082266666667, "is_disabled": 0, "lon": -77.02730183333334}, {"fusion_lat": 0.0, "type": "electric_bike", "name": "70e5ff1544bbe02bd89d82c511e08336", "fusion_lon": 0.0, "bike_id": "70e5ff1544bbe02bd89d82c511e08336", "is_reserved": 0, "rental_uris": {"android": "https://dc.lft.to/lastmile_qr_scan", "ios": "https://dc.lft.to/lastmile_qr_scan"}, "lat": 38.8956115, "is_disabled": 0, "lon": -77.127315}, {"fusion_lat": 0.0, "type": "electric_scooter", "name": "95b7038ae30b3aaa26dbaa6560fdb1c4", "fusion_lon": 0.0, "bike_id": "95b7038ae30b3aaa26dbaa6560fdb1c4", "is_reserved": 0, "rental_uris": {"android": "https://dc.lft.to/lastmile_qr_scan", "ios": "https://dc.lft.to/lastmile_qr_scan"}, "lat": 38.9154505, "is_disabled": 0, "lon": -77.03849833333334}, {"fusion_lat": 0.0, "type": "electric_scooter", "name": "2a8054e132ec09426df8978e6da6fd44", "fusion_lon": 0.0, "bike_id": "2a8054e132ec09426df8978e6da6fd44", "is_reserved": 0, "rental_uris": {"android": "https://dc.lft.to/lastmile_qr_scan", "ios": "https://dc.lft.to/lastmile_qr_scan"}, "lat": 38.89429283333333, "is_disabled": 0, "lon": -76.94878333333334}, {"fusion_lat": 0.0, "type": "electric_scooter", "name": "c4117e06dcabddc8b545877edfd0e9ab", "fusion_lon": 0.0, "bike_id": "c4117e06dcabddc8b545877edfd0e9ab", "is_reserved": 0, "rental_uris": {"android": "https://dc.lft.to/lastmile_qr_scan", "ios": "https://dc.lft.to/lastmile_qr_scan"}, "lat": 38.9204815, "is_disabled": 0, "lon": -77.03657}, {"fusion_lat": 0.0, "type": "electric_scooter", "name": "ffc32917b1092ffe2f310ce144ea63c0", "fusion_lon": 0.0, "bike_id": "ffc32917b1092ffe2f310ce144ea63c0", "is_reserved": 0, "rental_uris": {"android": "https://dc.lft.to/lastmile_qr_scan", "ios": "https://dc.lft.to/lastmile_qr_scan"}, "lat": 38.9219705, "is_disabled": 0, "lon": -77.04237533333334}, {"fusion_lat": 0.0, "type": "electric_scooter", "name": "b95becb3d7fb306a34955ea40e8da576", "fusion_lon": 0.0, "bike_id": "b95becb3d7fb306a34955ea40e8da576", "is_reserved": 0, "rental_uris": {"android": "https://dc.lft.to/lastmile_qr_scan", "ios": "https://dc.lft.to/lastmile_qr_scan"}, "lat": 38.93162316666667, "is_disabled": 0, "lon": -77.05610616666667}, {"fusion_lat": 0.0, "type": "electric_scooter", "name": "d91a8a0bbca4f4fdbc3f95422ad8404a", "fusion_lon": 0.0, "bike_id": "d91a8a0bbca4f4fdbc3f95422ad8404a", "is_reserved": 0, "rental_uris": {"android": "https://dc.lft.to/lastmile_qr_scan", "ios": "https://dc.lft.to/lastmile_qr_scan"}, "lat": 38.93401716666666, "is_disabled": 0, "lon": -77.04134583333334}, {"fusion_lat": 0.0, "type": "electric_scooter", "name": "b5ade66e3c0b35962dc6c7d85d266734", "fusion_lon": 0.0, "bike_id": "b5ade66e3c0b35962dc6c7d85d266734", "is_reserved": 0, "rental_uris": {"android": "https://dc.lft.to/lastmile_qr_scan", "ios": "https://dc.lft.to/lastmile_qr_scan"}, "lat": 38.891013666666666, "is_disabled": 0, "lon": -77.00285733333334}, {"fusion_lat": 0.0, "type": "electric_scooter", "name": "51035710b6b6adb75661b2bcdc1e66d6", "fusion_lon": 0.0, "bike_id": "51035710b6b6adb75661b2bcdc1e66d6", "is_reserved": 0, "rental_uris": {"android": "https://dc.lft.to/lastmile_qr_scan", "ios": "https://dc.lft.to/lastmile_qr_scan"}, "lat": 38.941011, "is_disabled": 0, "lon": -77.021106}, {"fusion_lat": 0.0, "type": "electric_scooter", "name": "2695fd3e4587b45821784994a7278475", "fusion_lon": 0.0, "bike_id": "2695fd3e4587b45821784994a7278475", "is_reserved": 0, "rental_uris": {"android": "https://dc.lft.to/lastmile_qr_scan", "ios": "https://dc.lft.to/lastmile_qr_scan"}, "lat": 38.91935433333333, "is_disabled": 0, "lon": -76.999302}, {"fusion_lat": 0.0, "type": "electric_scooter", "name": "ae72a141d03fee8cd4b428c1bf41bf89", "fusion_lon": 0.0, "bike_id": "ae72a141d03fee8cd4b428c1bf41bf89", "is_reserved": 0, "rental_uris": {"android": "https://dc.lft.to/lastmile_qr_scan", "ios": "https://dc.lft.to/lastmile_qr_scan"}, "lat": 38.89453816666666, "is_disabled": 0, "lon": -76.998334}, {"fusion_lat": 0.0, "type": "electric_scooter", "name": "f7cab7abaa07fa82560a4bb169525962", "fusion_lon": 0.0, "bike_id": "f7cab7abaa07fa82560a4bb169525962", "is_reserved": 0, "rental_uris": {"android": "https://dc.lft.to/lastmile_qr_scan", "ios": "https://dc.lft.to/lastmile_qr_scan"}, "lat": 38.92289366666667, "is_disabled": 0, "lon": -77.02964416666667}, {"fusion_lat": 0.0, "type": "electric_scooter", "name": "4d6fa978ca006a8271760c529b799994", "fusion_lon": 0.0, "bike_id": "4d6fa978ca006a8271760c529b799994", "is_reserved": 0, "rental_uris": {"android": "https://dc.lft.to/lastmile_qr_scan", "ios": "https://dc.lft.to/lastmile_qr_scan"}, "lat": 38.90682183333333, "is_disabled": 0, "lon": -77.04467183333334}, {"fusion_lat": 0.0, "type": "electric_scooter", "name": "30acb13de33e61a16ee3fc95bcb4b65f", "fusion_lon": 0.0, "bike_id": "30acb13de33e61a16ee3fc95bcb4b65f", "is_reserved": 0, "rental_uris": {"android": "https://dc.lft.to/lastmile_qr_scan", "ios": "https://dc.lft.to/lastmile_qr_scan"}, "lat": 38.9158225, "is_disabled": 0, "lon": -77.04366416666667}, {"fusion_lat": 0.0, "type": "electric_scooter", "name": "5b45b2d07278ba6e7af1e2c75221301e", "fusion_lon": 0.0, "bike_id": "5b45b2d07278ba6e7af1e2c75221301e", "is_reserved": 0, "rental_uris": {"android": "https://dc.lft.to/lastmile_qr_scan", "ios": "https://dc.lft.to/lastmile_qr_scan"}, "lat": 38.9245955, "is_disabled": 0, "lon": -77.05765716666667}, {"fusion_lat": 0.0, "type": "electric_scooter", "name": "65c436ecae6d19159b7e0dd8cca19fd3", "fusion_lon": 0.0, "bike_id": "65c436ecae6d19159b7e0dd8cca19fd3", "is_reserved": 0, "rental_uris": {"android": "https://dc.lft.to/lastmile_qr_scan", "ios": "https://dc.lft.to/lastmile_qr_scan"}, "lat": 38.918522, "is_disabled": 0, "lon": -77.04596883333333}, {"fusion_lat": 0.0, "type": "electric_scooter", "name": "e8a105bb2cb93e6c6588d0171dcc0d79", "fusion_lon": 0.0, "bike_id": "e8a105bb2cb93e6c6588d0171dcc0d79", "is_reserved": 0, "rental_uris": {"android": "https://dc.lft.to/lastmile_qr_scan", "ios": "https://dc.lft.to/lastmile_qr_scan"}, "lat": 38.863772, "is_disabled": 0, "lon": -76.99052733333333}, {"fusion_lat": 0.0, "type": "electric_scooter", "name": "2895455cb0e20a41faf04c16f8a3ef83", "fusion_lon": 0.0, "bike_id": "2895455cb0e20a41faf04c16f8a3ef83", "is_reserved": 0, "rental_uris": {"android": "https://dc.lft.to/lastmile_qr_scan", "ios": "https://dc.lft.to/lastmile_qr_scan"}, "lat": 38.91699783333333, "is_disabled": 0, "lon": -77.0404765}, {"fusion_lat": 0.0, "type": "electric_scooter", "name": "7de513d014288d19425c618d2b4abf07", "fusion_lon": 0.0, "bike_id": "7de513d014288d19425c618d2b4abf07", "is_reserved": 0, "rental_uris": {"android": "https://dc.lft.to/lastmile_qr_scan", "ios": "https://dc.lft.to/lastmile_qr_scan"}, "lat": 38.893541166666665, "is_disabled": 0, "lon": -77.02218283333333}, {"fusion_lat": 0.0, "type": "electric_scooter", "name": "1432157daae1a5503b82888de6f63f63", "fusion_lon": 0.0, "bike_id": "1432157daae1a5503b82888de6f63f63", "is_reserved": 0, "rental_uris": {"android": "https://dc.lft.to/lastmile_qr_scan", "ios": "https://dc.lft.to/lastmile_qr_scan"}, "lat": 38.894071, "is_disabled": 0, "lon": -77.04423}, {"fusion_lat": 0.0, "type": "electric_scooter", "name": "462eedd2f2ceea027230305ad30b7fc6", "fusion_lon": 0.0, "bike_id": "462eedd2f2ceea027230305ad30b7fc6", "is_reserved": 0, "rental_uris": {"android": "https://dc.lft.to/lastmile_qr_scan", "ios": "https://dc.lft.to/lastmile_qr_scan"},