{"data": {"bikes": [{"lon": -77.02067566666666, "name": "ef8962f77551baae1ec9fab2e0ff3085", "is_disabled": 0, "type": "electric_scooter", "is_reserved": 0, "fusion_lon": 0.0, "lat": 38.9215615, "rental_uris": {"ios": "https://dc.lft.to/lastmile_qr_scan", "android": "https://dc.lft.to/lastmile_qr_scan"}, "bike_id": "ef8962f77551baae1ec9fab2e0ff3085", "fusion_lat": 0.0}, {"lon": -76.9848775, "name": "000b65da318ea0d831b20fad3147ad87", "is_disabled": 0, "type": "electric_scooter", "is_reserved": 0, "fusion_lon": 0.0, "lat": 38.9203345, "rental_uris": {"ios": "https://dc.lft.to/lastmile_qr_scan", "android": "https://dc.lft.to/lastmile_qr_scan"}, "bike_id": "000b65da318ea0d831b20fad3147ad87", "fusion_lat": 0.0}, {"lon": -77.00437916666667, "name": "4f06583bbc0a9c50238140ef6c2ffcc8", "is_disabled": 0, "type": "electric_scooter", "is_reserved": 0, "fusion_lon": 0.0, "lat": 38.8782965, "rental_uris": {"ios": "https://dc.lft.to/lastmile_qr_scan", "android": "https://dc.lft.to/lastmile_qr_scan"}, "bike_id": "4f06583bbc0a9c50238140ef6c2ffcc8", "fusion_lat": 0.0}, {"lon": -77.02214516666666, "name": "578b0db3dfa48e8df8ab79fa055cb488", "is_disabled": 0, "type": "electric_scooter", "is_reserved": 0, "fusion_lon": 0.0, "lat": 38.9126875, "rental_uris": {"ios": "https://dc.lft.to/lastmile_qr_scan", "android": "https://dc.lft.to/lastmile_qr_scan"}, "bike_id": "578b0db3dfa48e8df8ab79fa055cb488", "fusion_lat": 0.0}, {"lon": -77.00211566666667, "name": "aa233d3c5b53bebbc6e160ea57a30a54", "is_disabled": 0, "type": "electric_scooter", "is_reserved": 0, "fusion_lon": 0.0, "lat": 38.898090833333335, "rental_uris": {"ios": "https://dc.lft.to/lastmile_qr_scan", "android": "https://dc.lft.to/lastmile_qr_scan"}, "bike_id": "aa233d3c5b53bebbc6e160ea57a30a54", "fusion_lat": 0.0}, {"lon": -77.02511616666666, "name": "d1a967aee51a92b9757ba4bec32455f8", "is_disabled": 0, "type": "electric_scooter", "is_reserved": 0, "fusion_lon": 0.0, "lat": 38.920799333333335, "rental_uris": {"ios": "https://dc.lft.to/lastmile_qr_scan", "android": "https://dc.lft.to/lastmile_qr_scan"}, "bike_id": "d1a967aee51a92b9757ba4bec32455f8", "fusion_lat": 0.0}, {"lon": -77.013652, "name": "d206ef6605929b62bf6e12f5ba89e962", "is_disabled": 0, "type": "electric_scooter", "is_reserved": 0, "fusion_lon": 0.0, "lat": 38.91329283333334, "rental_uris": {"ios": "https://dc.lft.to/lastmile_qr_scan", "android": "https://dc.lft.to/lastmile_qr_scan"}, "bike_id": "d206ef6605929b62bf6e12f5ba89e962", "fusion_lat": 0.0}, {"lon": -77.03506666666667, "name": "4ecbd9c3e085b8239468a1b7dddefcdd", "is_disabled": 0, "type": "electric_scooter", "is_reserved": 0, "fusion_lon": 0.0, "lat": 38.901225833333335, "rental_uris": {"ios": "https://dc.lft.to/lastmile_qr_scan", "android": "https://dc.lft.to/lastmile_qr_scan"}, "bike_id": "4ecbd9c3e085b8239468a1b7dddefcdd", "fusion_lat": 0.0}, {"lon": -76.99577516666666, "name": "5bd17f39e7528ec08013c406939dfc17", "is_disabled": 0, "type": "electric_bike", "is_reserved": 0, "fusion_lon": 0.0, "lat": 38.831585833333335, "rental_uris": {"ios": "https://dc.lft.to/lastmile_qr_scan", "android": "https://dc.lft.to/lastmile_qr_scan"}, "bike_id": "5bd17f39e7528ec08013c406939dfc17", "fusion_lat": 0.0}, {"lon": -77.03260216666666, "name": "1b4d18b4e56958b1567eaf0d592d1eea", "is_disabled": 0, "type": "electric_scooter", "is_reserved": 0, "fusion_lon": 0.0, "lat": 38.932516666666665, "rental_uris": {"ios": "https://dc.lft.to/lastmile_qr_scan", "android": "https://dc.lft.to/lastmile_qr_scan"}, "bike_id": "1b4d18b4e56958b1567eaf0d592d1eea", "fusion_lat": 0.0}, {"lon": -77.02492366666667, "name": "90d9beb80eaab94fea2ae5ad64ebb964", "is_disabled": 0, "type": "electric_scooter", "is_reserved": 0, "fusion_lon": 0.0, "lat": 38.91818466666667, "rental_uris": {"ios": "https://dc.lft.to/lastmile_qr_scan", "android": "https://dc.lft.to/lastmile_qr_scan"}, "bike_id": "90d9beb80eaab94fea2ae5ad64ebb964", "fusion_lat": 0.0}, {"lon": -77.00878133333333, "name": "51aae61c994716c63fe51a3db9227ce6", "is_disabled": 0, "type": "electric_scooter", "is_reserved": 0, "fusion_lon": 0.0, "lat": 38.90073433333333, "rental_uris": {"ios": "https://dc.lft.to/lastmile_qr_scan", "android": "https://dc.lft.to/lastmile_qr_scan"}, "bike_id": "51aae61c994716c63fe51a3db9227ce6", "fusion_lat": 0.0}, {"lon": -77.0399665, "name": "d7f6ee12bb01cc9a168753fd04ef7ae7", "is_disabled": 0, "type": "electric_scooter", "is_reserved": 0, "fusion_lon": 0.0, "lat": 38.91699033333333, "rental_uris": {"ios": "https://dc.lft.to/lastmile_qr_scan", "android": "https://dc.lft.to/lastmile_qr_scan"}, "bike_id": "d7f6ee12bb01cc9a168753fd04ef7ae7", "fusion_lat": 0.0}, {"lon": -77.0298085, "name": "6eeabdcdaf58661a721f9d433bcbf035", "is_disabled": 0, "type": "electric_scooter", "is_reserved": 0, "fusion_lon": 0.0, "lat": 38.943517, "rental_uris": {"ios": "https://dc.lft.to/lastmile_qr_scan", "android": "https://dc.lft.to/lastmile_qr_scan"}, "bike_id": "6eeabdcdaf58661a721f9d433bcbf035", "fusion_lat": 0.0}, {"lon": -77.04730383333333, "name": "39af2fe985da01b49cb1787a434866d6", "is_disabled": 0, "type": "electric_scooter", "is_reserved": 0, "fusion_lon": 0.0, "lat": 38.899553166666664, "rental_uris": {"ios": "https://dc.lft.to/lastmile_qr_scan", "android": "https://dc.lft.to/lastmile_qr_scan"}, "bike_id": "39af2fe985da01b49cb1787a434866d6", "fusion_lat": 0.0}, {"lon": -77.00291733333333, "name": "d0a3f79355767c6af563b01352f4909f", "is_disabled": 0, "type": "electric_scooter", "is_reserved": 0, "fusion_lon": 0.0, "lat": 38.892264, "rental_uris": {"ios": "https://dc.lft.to/lastmile_qr_scan", "android": "https://dc.lft.to/lastmile_qr_scan"}, "bike_id": "d0a3f79355767c6af563b01352f4909f", "fusion_lat": 0.0}, {"lon": -77.027216, "name": "44350d39255a1a2cdbcaeb27f62e4592", "is_disabled": 0, "type": "electric_bike", "is_reserved": 0, "fusion_lon": 0.0, "lat": 38.971528166666666, "rental_uris": {"ios": "https://dc.lft.to/lastmile_qr_scan", "android": "https://dc.lft.to/lastmile_qr_scan"}, "bike_id": "44350d39255a1a2cdbcaeb27f62e4592", "fusion_lat": 0.0}, {"lon": -77.03340283333333, "name": "978203c83aa0005067bbc07df546ce97", "is_disabled": 0, "type": "electric_scooter", "is_reserved": 0, "fusion_lon": 0.0, "lat": 38.9191265, "rental_uris": {"ios": "https://dc.lft.to/lastmile_qr_scan", "android": "https://dc.lft.to/lastmile_qr_scan"}, "bike_id": "978203c83aa0005067bbc07df546ce97", "fusion_lat": 0.0}, {"lon": -76.99518216666667, "name": "9f054d5cea11e5073490be74a6040ab4", "is_disabled": 0, "type": "electric_scooter", "is_reserved": 0, "fusion_lon": 0.0, "lat": 38.902615833333336, "rental_uris": {"ios": "https://dc.lft.to/lastmile_qr_scan", "android": "https://dc.lft.to/lastmile_qr_scan"}, "bike_id": "9f054d5cea11e5073490be74a6040ab4", "fusion_lat": 0.0}, {"lon": -77.02664366666667, "name": "359a466155fc48b9e687975150055c35", "is_disabled": 0, "type": "electric_scooter", "is_reserved": 0, "fusion_lon": 0.0, "lat": 38.9310065, "rental_uris": {"ios": "https://dc.lft.to/lastmile_qr_scan", "android": "https://dc.lft.to/lastmile_qr_scan"}, "bike_id": "359a466155fc48b9e687975150055c35", "fusion_lat": 0.0}, {"lon": -77.0450645, "name": "821fd91ddb6fa721218b1890be5701df", "is_disabled": 0, "type": "electric_scooter", "is_reserved": 0, "fusion_lon": 0.0, "lat": 38.91273533333333, "rental_uris": {"ios": "https://dc.lft.to/lastmile_qr_scan", "android": "https://dc.lft.to/lastmile_qr_scan"}, "bike_id": "821fd91ddb6fa721218b1890be5701df", "fusion_lat": 0.0}, {"lon": -76.9258285, "name": "ab28610b43575d695a318c67c58e0e96", "is_disabled": 0, "type": "electric_scooter", "is_reserved": 0, "fusion_lon": 0.0, "lat": 38.89725633333333, "rental_uris": {"ios": "https://dc.lft.to/lastmile_qr_scan", "android": "https://dc.lft.to/lastmile_qr_scan"}, "bike_id": "ab28610b43575d695a318c67c58e0e96", "fusion_lat": 0.0}, {"lon": -77.02709716666666, "name": "7ff414dd5b02c6186d996f32e5aba505", "is_disabled": 0, "type": "electric_scooter", "is_reserved": 0, "fusion_lon": 0.0, "lat": 38.927760666666664, "rental_uris": {"ios": "https://dc.lft.to/lastmile_qr_scan", "android": "https://dc.lft.to/lastmile_qr_scan"}, "bike_id": "7ff414dd5b02c6186d996f32e5aba505", "fusion_lat": 0.0}, {"lon": -77.0268915, "name": "4ee749d3afa3088b22cd964253f9829d", "is_disabled": 0, "type": "electric_scooter", "is_reserved": 0, "fusion_lon": 0.0, "lat": 38.8975675, "rental_uris": {"ios": "https://dc.lft.to/lastmile_qr_scan", "android": "https://dc.lft.to/lastmile_qr_scan"}, "bike_id": "4ee749d3afa3088b22cd964253f9829d", "fusion_lat": 0.0}, {"lon": -76.93740716666667, "name": "083f1be0b60db7c066c6e42a33a34ec6", "is_disabled": 0, "type": "electric_scooter", "is_reserved": 0, "fusion_lon": 0.0, "lat": 38.89021566666667, "rental_uris": {"ios": "https://dc.lft.to/lastmile_qr_scan", "android": "https://dc.lft.to/lastmile_qr_scan"}, "bike_id": "083f1be0b60db7c066c6e42a33a34ec6", "fusion_lat": 0.0}, {"lon": -77.04145816666667, "name": "9020efc41964e6ff46e2b572797c5b1a", "is_disabled": 0, "type": "electric_scooter", "is_reserved": 0, "fusion_lon": 0.0, "lat": 38.90013283333333, "rental_uris": {"ios": "https://dc.lft.to/lastmile_qr_scan", "android": "https://dc.lft.to/lastmile_qr_scan"}, "bike_id": "9020efc41964e6ff46e2b572797c5b1a", "fusion_lat": 0.0}, {"lon": -77.028457, "name": "33045d9e8e3dee83abd18a3ff8f122bf", "is_disabled": 0, "type": "electric_scooter", "is_reserved": 0, "fusion_lon": 0.0, "lat": 38.927565333333334, "rental_uris": {"ios": "https://dc.lft.to/lastmile_qr_scan", "android": "https://dc.lft.to/lastmile_qr_scan"}, "bike_id": "33045d9e8e3dee83abd18a3ff8f122bf", "fusion_lat": 0.0}, {"lon": -77.03996433333333, "name": "5597c8c63ebb7d8aaa205b8e4d43e253", "is_disabled": 0, "type": "electric_scooter", "is_reserved": 0, "fusion_lon": 0.0, "lat": 38.9140335, "rental_uris": {"ios": "https://dc.lft.to/lastmile_qr_scan", "android": "https://dc.lft.to/lastmile_qr_scan"}, "bike_id": "5597c8c63ebb7d8aaa205b8e4d43e253", "fusion_lat": 0.0}, {"lon": -77.03209216666667, "name": "bf871014965f49bbb4f68569dc0e06ad", "is_disabled": 0, "type": "electric_scooter", "is_reserved": 0, "fusion_lon": 0.0, "lat": 38.91730733333333, "rental_uris": {"ios": "https://dc.lft.to/lastmile_qr_scan", "android": "https://dc.lft.to/lastmile_qr_scan"}, "bike_id": "bf871014965f49bbb4f68569dc0e06ad", "fusion_lat": 0.0}, {"lon": -77.0110745, "name": "cc1d5594e54fdcd48346e058547518c1", "is_disabled": 0, "type": "electric_scooter", "is_reserved": 0, "fusion_lon": 0.0, "lat": 38.9036465, "rental_uris": {"ios": "https://dc.lft.to/lastmile_qr_scan", "android": "https://dc.lft.to/lastmile_qr_scan"}, "bike_id": "cc1d5594e54fdcd48346e058547518c1", "fusion_lat": 0.0}, {"lon": -77.02171316666667, "name": "4409e2c4405913993ec5ad2cb850b53e", "is_disabled": 0, "type": "electric_scooter", "is_reserved": 0, "fusion_lon": 0.0, "lat": 38.93072516666667, "rental_uris": {"ios": "https://dc.lft.to/lastmile_qr_scan", "android": "https://dc.lft.to/lastmile_qr_scan"}, "bike_id": "4409e2c4405913993ec5ad2cb850b53e", "fusion_lat": 0.0}, {"lon": -77.02812916666667, "name": "7320e79e89c50fd95cdaab8ea61051cd", "is_disabled": 0, "type": "electric_scooter", "is_reserved": 0, "fusion_lon": 0.0, "lat": 38.9223805, "rental_uris": {"ios": "https://dc.lft.to/lastmile_qr_scan", "android": "https://dc.lft.to/lastmile_qr_scan"}, "bike_id": "7320e79e89c50fd95cdaab8ea61051cd", "fusion_lat": 0.0}, {"lon": -77.02723616666667, "name": "63c9a2a8bcd198bc24ae897a2f816f5c", "is_disabled": 0, "type": "electric_scooter", "is_reserved": 0, "fusion_lon": 0.0, "lat": 38.89890366666667, "rental_uris": {"ios": "https://dc.lft.to/lastmile_qr_scan", "android": "https://dc.lft.to/lastmile_qr_scan"}, "bike_id": "63c9a2a8bcd198bc24ae897a2f816f5c", "fusion_lat": 0.0}, {"lon": -77.03184866666666, "name": "f621ee65d9b6f621eff7d5a3a424d27b", "is_disabled": 0, "type": "electric_scooter", "is_reserved": 0, "fusion_lon": 0.0, "lat": 38.89239883333333, "rental_uris": {"ios": "https://dc.lft.to/lastmile_qr_scan", "android": "https://dc.lft.to/lastmile_qr_scan"}, "bike_id": "f621ee65d9b6f621eff7d5a3a424d27b", "fusion_lat": 0.0}, {"lon": -76.99611183333333, "name": "85920399d51a672c71b96dae4b0708fb", "is_disabled": 0, "type": "electric_scooter", "is_reserved": 0, "fusion_lon": 0.0, "lat": 38.901402, "rental_uris": {"ios": "https://dc.lft.to/lastmile_qr_scan", "android": "https://dc.lft.to/lastmile_qr_scan"}, "bike_id": "85920399d51a672c71b96dae4b0708fb", "fusion_lat": 0.0}, {"lon": -77.023894, "name": "01cd84ff578808c099fe01c9104fa67d", "is_disabled": 0, "type": "electric_scooter", "is_reserved": 0, "fusion_lon": 0.0, "lat": 38.920852, "rental_uris": {"ios": "https://dc.lft.to/lastmile_qr_scan", "android": "https://dc.lft.to/lastmile_qr_scan"}, "bike_id": "01cd84ff578808c099fe01c9104fa67d", "fusion_lat": 0.0}, {"lon": -77.03983333333333, "name": "147d283ef130d0b25c854ee96c7f6d8b", "is_disabled": 0, "type": "electric_bike", "is_reserved": 0, "fusion_lon": 0.0, "lat": 38.93332083333333, "rental_uris": {"ios": "https://dc.lft.to/lastmile_qr_scan", "android": "https://dc.lft.to/lastmile_qr_scan"}, "bike_id": "147d283ef130d0b25c854ee96c7f6d8b", "fusion_lat": 0.0}, {"lon": -77.02689933333333, "name": "2862fc3e51eef47b126cd269298bc9f8", "is_disabled": 0, "type": "electric_scooter", "is_reserved": 0, "fusion_lon": 0.0, "lat": 38.90589683333334, "rental_uris": {"ios": "https://dc.lft.to/lastmile_qr_scan", "android": "https://dc.lft.to/lastmile_qr_scan"}, "bike_id": "2862fc3e51eef47b126cd269298bc9f8", "fusion_lat": 0.0}, {"lon": -77.031871, "name": "f8f56830835ed21c141dc301094e5e73", "is_disabled": 0, "type": "electric_scooter", "is_reserved": 0, "fusion_lon": 0.0, "lat": 38.90996066666666, "rental_uris": {"ios": "https://dc.lft.to/lastmile_qr_scan", "android": "https://dc.lft.to/lastmile_qr_scan"}, "bike_id": "f8f56830835ed21c141dc301094e5e73", "fusion_lat": 0.0}, {"lon": -77.03574533333334, "name": "2783e96460b9d6c2491148e2fe9cb1c9", "is_disabled": 0, "type": "electric_scooter", "is_reserved": 0, "fusion_lon": 0.0, "lat": 38.9192185, "rental_uris": {"ios": "https://dc.lft.to/lastmile_qr_scan", "android": "https://dc.lft.to/lastmile_qr_scan"}, "bike_id": "2783e96460b9d6c2491148e2fe9cb1c9", "fusion_lat": 0.0}, {"lon": -77.02209033333334, "name": "8e75583135c1499cf153c5ee21b1306b", "is_disabled": 0, "type": "electric_scooter", "is_reserved": 0, "fusion_lon": 0.0, "lat": 38.89968666666667, "rental_uris": {"ios": "https://dc.lft.to/lastmile_qr_scan", "android": "https://dc.lft.to/lastmile_qr_scan"}, "bike_id": "8e75583135c1499cf153c5ee21b1306b", "fusion_lat": 0.0}, {"lon": -76.98238533333334, "name": "a327acacec85fd1c069a953b8e2b6324", "is_disabled": 0, "type": "electric_scooter", "is_reserved": 0, "fusion_lon": 0.0, "lat": 38.9047525, "rental_uris": {"ios": "https://dc.lft.to/lastmile_qr_scan", "android": "https://dc.lft.to/lastmile_qr_scan"}, "bike_id": "a327acacec85fd1c069a953b8e2b6324", "fusion_lat": 0.0}, {"lon": -76.99694233333334, "name": "c043a1d7c06bb1d5fc404b1e3daece03", "is_disabled": 0, "type": "electric_scooter", "is_reserved": 0, "fusion_lon": 0.0, "lat": 38.907955666666666, "rental_uris": {"ios": "https://dc.lft.to/lastmile_qr_scan", "android": "https://dc.lft.to/lastmile_qr_scan"}, "bike_id": "c043a1d7c06bb1d5fc404b1e3daece03", "fusion_lat": 0.0}, {"lon": -77.0237025, "name": "9489aaec9fbc993d00ba87798e5f1ea4", "is_disabled": 0, "type": "electric_scooter", "is_reserved": 0, "fusion_lon": 0.0, "lat": 38.898700166666664, "rental_uris": {"ios": "https://dc.lft.to/lastmile_qr_scan", "android": "https://dc.lft.to/lastmile_qr_scan"}, "bike_id": "9489aaec9fbc993d00ba87798e5f1ea4", "fusion_lat": 0.0}, {"lon": -77.01991733333334, "name": "855461af5bb75250c0265a57a07b40ce", "is_disabled": 0, "type": "electric_scooter", "is_reserved": 0, "fusion_lon": 0.0, "lat": 38.937771, "rental_uris": {"ios": "https://dc.lft.to/lastmile_qr_scan", "android": "https://dc.lft.to/lastmile_qr_scan"}, "bike_id": "855461af5bb75250c0265a57a07b40ce", "fusion_lat": 0.0}, {"lon": -77.02314433333333, "name": "2c77b38880557ae3bbc5035533c184e9", "is_disabled": 0, "type": "electric_scooter", "is_reserved": 0, "fusion_lon": 0.0, "lat": 38.920801, "rental_uris": {"ios": "https://dc.lft.to/lastmile_qr_scan", "android": "https://dc.lft.to/lastmile_qr_scan"}, "bike_id": "2c77b38880557ae3bbc5035533c184e9", "fusion_lat": 0.0}, {"lon": -77.0723895, "name": "088064e2cf31eb950df0c4241e567cb4", "is_disabled": 0, "type": "electric_scooter", "is_reserved": 0, "fusion_lon": 0.0, "lat": 38.94108933333333, "rental_uris": {"ios": "https://dc.lft.to/lastmile_qr_scan", "android": "https://dc.lft.to/lastmile_qr_scan"}, "bike_id": "088064e2cf31eb950df0c4241e567cb4", "fusion_lat": 0.0}, {"lon": -77.000521, "name": "848cfd5b216275776e427139fafaa585", "is_disabled": 0, "type": "electric_scooter", "is_reserved": 0, "fusion_lon": 0.0, "lat": 38.908118, "rental_uris": {"ios": "https://dc.lft.to/lastmile_qr_scan", "android": "https://dc.lft.to/lastmile_qr_scan"}, "bike_id": "848cfd5b216275776e427139fafaa585", "fusion_lat": 0.0}, {"lon": -77.0217465, "name": "7ff557968a692bfdbe3f37222abd01e3", "is_disabled": 0, "type": "electric_scooter", "is_reserved": 0, "fusion_lon": 0.0, "lat": 38.90191333333333, "rental_uris": {"ios": "https://dc.lft.to/lastmile_qr_scan", "android": "https://dc.lft.to/lastmile_qr_scan"}, "bike_id": "7ff557968a692bfdbe3f37222abd01e3", "fusion_lat": 0.0}, {"lon": -76.97327916666667, "name": "1842962eefaf2daf05bbaaa59d5713a6", "is_disabled": 0, "type": "electric_scooter", "is_reserved": 0, "fusion_lon": 0.0, "lat": 38.9040995, "rental_uris": {"ios": "https://dc.lft.to/lastmile_qr_scan", "android": "https://dc.lft.to/lastmile_qr_scan"}, "bike_id": "1842962eefaf2daf05bbaaa59d5713a6", "fusion_lat": 0.0}, {"lon": -76.98376083333333, "name": "3fbe033a0976640cdf9ebcf45f67005d", "is_disabled": 0, "type": "electric_scooter", "is_reserved": 0, "fusion_lon": 0.0, "lat": 38.86032983333333, "rental_uris": {"ios": "https://dc.lft.to/lastmile_qr_scan", "android": "https://dc.lft.to/lastmile_qr_scan"}, "bike_id": "3fbe033a0976640cdf9ebcf45f67005d", "fusion_lat": 0.0}, {"lon": -77.02153183333333, "name": "e7fec4d7703daae69eaf3016b61e88de", "is_disabled": 0, "type": "electric_scooter", "is_reserved": 0, "fusion_lon": 0.0, "lat": 38.9259925, "rental_uris": {"ios": "https://dc.lft.to/lastmile_qr_scan", "android": "https://dc.lft.to/lastmile_qr_scan"}, "bike_id": "e7fec4d7703daae69eaf3016b61e88de", "fusion_lat": 0.0}, {"lon": -77.00536983333333, "name": "e8833e8e75dc898260c27dbd250decae", "is_disabled": 0, "type": "electric_scooter", "is_reserved": 0, "fusion_lon": 0.0, "lat": 38.875476666666664, "rental_uris": {"ios": "https://dc.lft.to/lastmile_qr_scan", "android": "https://dc.lft.to/lastmile_qr_scan"}, "bike_id": "e8833e8e75dc898260c27dbd250decae", "fusion_lat": 0.0}, {"lon": -77.02173216666667, "name": "43c3e1f89ee181e4270fee6c7ac695ef", "is_disabled": 0, "type": "electric_scooter", "is_reserved": 0, "fusion_lon": 0.0, "lat": 38.901887, "rental_uris": {"ios": "https://dc.lft.to/lastmile_qr_scan", "android": "https://dc.lft.to/lastmile_qr_scan"}, "bike_id": "43c3e1f89ee181e4270fee6c7ac695ef", "fusion_lat": 0.0}, {"lon": -77.02370333333333, "name": "ffa54164d9870f496152ee191b33ae88", "is_disabled": 0, "type": "electric_scooter", "is_reserved": 0, "fusion_lon": 0.0, "lat": 38.9019835, "rental_uris": {"ios": "https://dc.lft.to/lastmile_qr_scan", "android": "https://dc.lft.to/lastmile_qr_scan"}, "bike_id": "ffa54164d9870f496152ee191b33ae88", "fusion_lat": 0.0}, {"lon": -77.06085633333333, "name": "5989feb8f06b3750f5514f25580c3e9b", "is_disabled": 0, "type": "electric_scooter", "is_reserved": 0, "fusion_lon": 0.0, "lat": 38.911894, "rental_uris": {"ios": "https://dc.lft.to/lastmile_qr_scan", "android": "https://dc.lft.to/lastmile_qr_scan"}, "bike_id": "5989feb8f06b3750f5514f25580c3e9b", "fusion_lat": 0.0}, {"lon": -77.01886366666666, "name": "6e35162d3d888bf30f0b68302af28e0a", "is_disabled": 0, "type": "electric_scooter", "is_reserved": 0, "fusion_lon": 0.0, "lat": 38.909182, "rental_uris": {"ios": "https://dc.lft.to/lastmile_qr_scan", "android": "https://dc.lft.to/lastmile_qr_scan"}, "bike_id": "6e35162d3d888bf30f0b68302af28e0a", "fusion_lat": 0.0}, {"lon": -77.02067966666667, "name": "eb3600663c1d78fa44657d0fc91f9010", "is_disabled": 0, "type": "electric_scooter", "is_reserved": 0, "fusion_lon": 0.0, "lat": 38.92251483333333, "rental_uris": {"ios": "https://dc.lft.to/lastmile_qr_scan", "android": "https://dc.lft.to/lastmile_qr_scan"}, "bike_id": "eb3600663c1d78fa44657d0fc91f9010", "fusion_lat": 0.0}, {"lon": -77.02377766666666, "name": "0e92a954439f08f2071580021a3a723f", "is_disabled": 0, "type": "electric_scooter", "is_reserved": 0, "fusion_lon": 0.0, "lat": 38.92060033333333, "rental_uris": {"ios": "https://dc.lft.to/lastmile_qr_scan", "android": "https://dc.lft.to/lastmile_qr_scan"}, "bike_id": "0e92a954439f08f2071580021a3a723f", "fusion_lat": 0.0}, {"lon": -77.031937, "name": "015afa4d5b03d2a958ba24611cd1639d", "is_disabled": 0, "type": "electric_scooter", "is_reserved": 0, "fusion_lon": 0.0, "lat": 38.89346533333333, "rental_uris": {"ios": "https://dc.lft.to/lastmile_qr_scan", "android": "https://dc.lft.to/lastmile_qr_scan"}, "bike_id": "015afa4d5b03d2a958ba24611cd1639d", "fusion_lat": 0.0}, {"lon": -77.0261155, "name": "a545993b7e469fbfebe6dea01b90362d", "is_disabled": 0, "type": "electric_scooter", "is_reserved": 0, "fusion_lon": 0.0, "lat": 38.900432, "rental_uris": {"ios": "https://dc.lft.to/lastmile_qr_scan", "android": "https://dc.lft.to/lastmile_qr_scan"}, "bike_id": "a545993b7e469fbfebe6dea01b90362d", "fusion_lat": 0.0}, {"lon": -77.03927566666667, "name": "d4e44fea3ba2a1019792c26d583f398c", "is_disabled": 0, "type": "electric_scooter", "is_reserved": 0, "fusion_lon": 0.0, "lat": 38.924868000000004, "rental_uris": {"ios": "https://dc.lft.to/lastmile_qr_scan", "android": "https://dc.lft.to/lastmile_qr_scan"}, "bike_id": "d4e44fea3ba2a1019792c26d583f398c", "fusion_lat": 0.0}, {"lon": -76.99841266666667, "name": "af3a93c74c392d8c556459d9d1b59ecd", "is_disabled": 0, "type": "electric_scooter", "is_reserved": 0, "fusion_lon": 0.0, "lat": 38.92547916666667, "rental_uris": {"ios": "https://dc.lft.to/lastmile_qr_scan", "android": "https://dc.lft.to/lastmile_qr_scan"}, "bike_id": "af3a93c74c392d8c556459d9d1b59ecd", "fusion_lat": 0.0}, {"lon": -77.064335, "name": "e64ea7df2d130b52b6551488013f293f", "is_disabled": 0, "type": "electric_scooter", "is_reserved": 0, "fusion_lon": 0.0, "lat": 38.90522266666667, "rental_uris": {"ios": "https://dc.lft.to/lastmile_qr_scan", "android": "https://dc.lft.to/lastmile_qr_scan"}, "bike_id": "e64ea7df2d130b52b6551488013f293f", "fusion_lat": 0.0}, {"lon": -77.02129333333333, "name": "319fed533a3ad34c5a6be1e32f110f42", "is_disabled": 0, "type": "electric_scooter", "is_reserved": 0, "fusion_lon": 0.0, "lat": 38.924099166666664, "rental_uris": {"ios": "https://dc.lft.to/lastmile_qr_scan", "android": "https://dc.lft.to/lastmile_qr_scan"}, "bike_id": "319fed533a3ad34c5a6be1e32f110f42", "fusion_lat": 0.0}, {"lon": -77.04569816666667, "name": "b8d258573f774050627ded6d4b317367", "is_disabled": 0, "type": "electric_scooter", "is_reserved": 0, "fusion_lon": 0.0, "lat": 38.910592666666666, "rental_uris": {"ios": "https://dc.lft.to/lastmile_qr_scan", "android": "https://dc.lft.to/lastmile_qr_scan"}, "bike_id": "b8d258573f774050627ded6d4b317367", "fusion_lat": 0.0}, {"lon": -77.233987, "name": "775b7a49e90367808c6e7076c59d8ee0", "is_disabled": 0, "type": "electric_bike", "is_reserved": 0, "fusion_lon": 0.0, "lat": 38.87183316666667, "rental_uris": {"ios": "https://dc.lft.to/lastmile_qr_scan", "android": "https://dc.lft.to/lastmile_qr_scan"}, "bike_id": "775b7a49e90367808c6e7076c59d8ee0", "fusion_lat": 0.0}, {"lon": -77.09685316666666, "name": "e01d14765521fec1cbcbb0fd3177a794", "is_disabled": 0, "type": "electric_bike", "is_reserved": 0, "fusion_lon": 0.0, "lat": 38.80741616666667, "rental_uris": {"ios": "https://dc.lft.to/lastmile_qr_scan", "android": "https://dc.lft.to/lastmile_qr_scan"}, "bike_id": "e01d14765521fec1cbcbb0fd3177a794", "fusion_lat": 0.0}, {"lon": -77.02025033333334, "name": "b27b87444448632f1db508f698dccc8c", "is_disabled": 0, "type": "electric_scooter", "is_reserved": 0, "fusion_lon": 0.0, "lat": 38.90180133333333, "rental_uris": {"ios": "https://dc.lft.to/lastmile_qr_scan", "android": "https://dc.lft.to/lastmile_qr_scan"}, "bike_id": "b27b87444448632f1db508f698dccc8c", "fusion_lat": 0.0}, {"lon": -77.03189533333334, "name": "1b323fb952d3092875956f31d8c76a24", "is_disabled": 0, "type": "electric_scooter", "is_reserved": 0, "fusion_lon": 0.0, "lat": 38.9164025, "rental_uris": {"ios": "https://dc.lft.to/lastmile_qr_scan", "android": "https://dc.lft.to/lastmile_qr_scan"}, "bike_id": "1b323fb952d3092875956f31d8c76a24", "fusion_lat": 0.0}, {"lon": -76.999115, "name": "db3041ab350cf45e43c9a276de256520", "is_disabled": 0, "type": "electric_scooter", "is_reserved": 0, "fusion_lon": 0.0, "lat": 38.9245475, "rental_uris": {"ios": "https://dc.lft.to/lastmile_qr_scan", "android": "https://dc.lft.to/lastmile_qr_scan"}, "bike_id": "db3041ab350cf45e43c9a276de256520", "fusion_lat": 0.0}, {"lon": -76.99279016666667, "name": "be6ef96a843702af234160513acbfb4b", "is_disabled": 0, "type": "electric_scooter", "is_reserved": 0, "fusion_lon": 0.0, "lat": 38.90311916666667, "rental_uris": {"ios": "https://dc.lft.to/lastmile_qr_scan", "android": "https://dc.lft.to/lastmile_qr_scan"}, "bike_id": "be6ef96a843702af234160513acbfb4b", "fusion_lat": 0.0}, {"lon": -77.01515516666667, "name": "d7c9171aef8e556c30c613359230fd1c", "is_disabled": 0, "type": "electric_scooter", "is_reserved": 0, "fusion_lon": 0.0, "lat": 38.87279483333333, "rental_uris": {"ios": "https://dc.lft.to/lastmile_qr_scan", "android": "https://dc.lft.to/lastmile_qr_scan"}, "bike_id": "d7c9171aef8e556c30c613359230fd1c", "fusion_lat": 0.0}, {"lon": -77.01132183333333, "name": "b3b71070e41ffb803a55f791b91e3dd8", "is_disabled": 0, "type": "electric_scooter", "is_reserved": 0, "fusion_lon": 0.0, "lat": 38.90721966666667, "rental_uris": {"ios": "https://dc.lft.to/lastmile_qr_scan", "android": "https://dc.lft.to/lastmile_qr_scan"}, "bike_id": "b3b71070e41ffb803a55f791b91e3dd8", "fusion_lat": 0.0}, {"lon": -77.02132983333334, "name": "7d894551065b2f381586f9b0862ebf29", "is_disabled": 0, "type": "electric_scooter", "is_reserved": 0, "fusion_lon": 0.0, "lat": 38.92117183333333, "rental_uris": {"ios": "https://dc.lft.to/lastmile_qr_scan", "android": "https://dc.lft.to/lastmile_qr_scan"}, "bike_id": "7d894551065b2f381586f9b0862ebf29", "fusion_lat": 0.0}, {"lon": -76.99239516666667, "name": "553cfcb2f26176acc6292305676e6bf0", "is_disabled": 0, "type": "electric_scooter", "is_reserved": 0, "fusion_lon": 0.0, "lat": 38.90207316666667, "rental_uris": {"ios": "https://dc.lft.to/lastmile_qr_scan", "android": "https://dc.lft.to/lastmile_qr_scan"}, "bike_id": "553cfcb2f26176acc6292305676e6bf0", "fusion_lat": 0.0}, {"lon": -77.01897066666666, "name": "9c2086ef963aeb66ecc83494ba1160a8", "is_disabled": 0, "type": "electric_scooter", "is_reserved": 0, "fusion_lon": 0.0, "lat": 38.913853, "rental_uris": {"ios": "https://dc.lft.to/lastmile_qr_scan", "android": "https://dc.lft.to/lastmile_qr_scan"}, "bike_id": "9c2086ef963aeb66ecc83494ba1160a8", "fusion_lat": 0.0}, {"lon": -77.02516516666667, "name": "80a493508bb570a13c0cc81a839d155b", "is_disabled": 0, "type": "electric_scooter", "is_reserved": 0, "fusion_lon": 0.0, "lat": 38.94566866666667, "rental_uris": {"ios": "https://dc.lft.to/lastmile_qr_scan", "android": "https://dc.lft.to/lastmile_qr_scan"}, "bike_id": "80a493508bb570a13c0cc81a839d155b", "fusion_lat": 0.0}, {"lon": -77.094123, "name": "3b31df92d9d258e68528fd750d44d65c", "is_disabled": 0, "type": "electric_bike", "is_reserved": 0, "fusion_lon": 0.0, "lat": 38.97814916666667, "rental_uris": {"ios": "https://dc.lft.to/lastmile_qr_scan", "android": "https://dc.lft.to/lastmile_qr_scan"}, "bike_id": "3b31df92d9d258e68528fd750d44d65c", "fusion_lat": 0.0}, {"lon": -77.04145166666666, "name": "a7e7308e1a0fe7f0cffcf708b7eb53ff", "is_disabled": 0, "type": "electric_scooter", "is_reserved": 0, "fusion_lon": 0.0, "lat": 38.90724, "rental_uris": {"ios": "https://dc.lft.to/lastmile_qr_scan", "android": "https://dc.lft.to/lastmile_qr_scan"}, "bike_id": "a7e7308e1a0fe7f0cffcf708b7eb53ff", "fusion_lat": 0.0}, {"lon": -77.03663416666667, "name": "f4ab87d623576952cb47e4ef535b8082", "is_disabled": 0, "type": "electric_scooter", "is_reserved": 0, "fusion_lon": 0.0, "lat": 38.93628133333333, "rental_uris": {"ios": "https://dc.lft.to/lastmile_qr_scan", "android": "https://dc.lft.to/lastmile_qr_scan"}, "bike_id": "f4ab87d623576952cb47e4ef535b8082", "fusion_lat": 0.0}, {"lon": -76.94884433333333, "name": "162cc90260aaba6034c56bfea0e6726e", "is_disabled": 0, "type": "electric_scooter", "is_reserved": 0, "fusion_lon": 0.0, "lat": 38.89511266666667, "rental_uris": {"ios": "https://dc.lft.to/lastmile_qr_scan", "android": "https://dc.lft.to/lastmile_qr_scan"}, "bike_id": "162cc90260aaba6034c56bfea0e6726e", "fusion_lat": 0.0}, {"lon": -77.02152666666667, "name": "7440e4736fcbf006490e366ddf42e60a", "is_disabled": 0, "type": "electric_scooter", "is_reserved": 0, "fusion_lon": 0.0, "lat": 38.92606033333333, "rental_uris": {"ios": "https://dc.lft.to/lastmile_qr_scan", "android": "https://dc.lft.to/lastmile_qr_scan"}, "bike_id": "7440e4736fcbf006490e366ddf42e60a", "fusion_lat": 0.0}, {"lon": -77.03194283333333, "name": "8c0d9e6d79b311b7b0a46ce2091eea93", "is_disabled": 0, "type": "electric_scooter", "is_reserved": 0, "fusion_lon": 0.0, "lat": 38.91945233333333, "rental_uris": {"ios": "https://dc.lft.to/lastmile_qr_scan", "android": "https://dc.lft.to/lastmile_qr_scan"}, "bike_id": "8c0d9e6d79b311b7b0a46ce2091eea93", "fusion_lat": 0.0}, {"lon": -77.01946416666667, "name": "dde98d93a5493fef90b97c8a7894bdd9", "is_disabled": 0, "type": "electric_scooter", "is_reserved": 0, "fusion_lon": 0.0, "lat": 38.924168333333334, "rental_uris": {"ios": "https://dc.lft.to/lastmile_qr_scan", "android": "https://dc.lft.to/lastmile_qr_scan"}, "bike_id": "dde98d93a5493fef90b97c8a7894bdd9", "fusion_lat": 0.0}, {"lon": -77.01212783333334, "name": "0d809397849fd4cc1942d8521856a46d", "is_disabled": 0, "type": "electric_scooter", "is_reserved": 0, "fusion_lon": 0.0, "lat": 38.9143115, "rental_uris": {"ios": "https://dc.lft.to/lastmile_qr_scan", "android": "https://dc.lft.to/lastmile_qr_scan"}, "bike_id": "0d809397849fd4cc1942d8521856a46d", "fusion_lat": 0.0}, {"lon": -77.05000216666667, "name": "6c13ac364ab0f619078c9aef1428aee3", "is_disabled": 0, "type": "electric_scooter", "is_reserved": 0, "fusion_lon": 0.0, "lat": 38.8923165, "rental_uris": {"ios": "https://dc.lft.to/lastmile_qr_scan", "android": "https://dc.lft.to/lastmile_qr_scan"}, "bike_id": "6c13ac364ab0f619078c9aef1428aee3", "fusion_lat": 0.0}, {"lon": -77.00324983333333, "name": "3bded261c8924d0fd5366533c71e5fb8", "is_disabled": 0, "type": "electric_bike", "is_reserved": 0, "fusion_lon": 0.0, "lat": 38.92022933333333, "rental_uris": {"ios": "https://dc.lft.to/lastmile_qr_scan", "android": "https://dc.lft.to/lastmile_qr_scan"}, "bike_id": "3bded261c8924d0fd5366533c71e5fb8", "fusion_lat": 0.0}, {"lon": -77.04469616666667, "name": "1731d78a618a2f06fad7291c0404a1b5", "is_disabled": 0, "type": "electric_scooter", "is_reserved": 0, "fusion_lon": 0.0, "lat": 38.915348333333334, "rental_uris": {"ios": "https://dc.lft.to/lastmile_qr_scan", "android": "https://dc.lft.to/lastmile_qr_scan"}, "bike_id": "1731d78a618a2f06fad7291c0404a1b5", "fusion_lat": 0.0}, {"lon": -77.041806, "name": "86f98fe7dfeebaa28b9a57054f98cb8a", "is_disabled": 0, "type": "electric_scooter", "is_reserved": 0, "fusion_lon": 0.0, "lat": 38.92050483333333, "rental_uris": {"ios": "https://dc.lft.to/lastmile_qr_scan", "android": "https://dc.lft.to/lastmile_qr_scan"}, "bike_id": "86f98fe7dfeebaa28b9a57054f98cb8a", "fusion_lat": 0.0}, {"lon": -77.05760066666667, "name": "887184e159a8c0d32a7fc9b7b901bc55", "is_disabled": 0, "type": "electric_scooter", "is_reserved": 0, "fusion_lon": 0.0, "lat": 38.92493233333333, "rental_uris": {"ios": "https://dc.lft.to/lastmile_qr_scan", "android": "https://dc.lft.to/lastmile_qr_scan"}, "bike_id": "887184e159a8c0d32a7fc9b7b901bc55", "fusion_lat": 0.0}, {"lon": -77.05713383333334, "name": "38035d79fa5c7b6f1200fcbbf011ff74", "is_disabled": 0, "type": "electric_scooter", "is_reserved": 0, "fusion_lon": 0.0, "lat": 38.926066666666664, "rental_uris": {"ios": "https://dc.lft.to/lastmile_qr_scan", "android": "https://dc.lft.to/lastmile_qr_scan"}, "bike_id": "38035d79fa5c7b6f1200fcbbf011ff74", "fusion_lat": 0.0}, {"lon": -77.0161925, "name": "e22a67b9c59765d2d4fe7c29ae9ceadd", "is_disabled": 0, "type": "electric_scooter", "is_reserved": 0, "fusion_lon": 0.0, "lat": 38.90359483333334, "rental_uris": {"ios": "https://dc.lft.to/lastmile_qr_scan", "android": "https://dc.lft.to/lastmile_qr_scan"}, "bike_id": "e22a67b9c59765d2d4fe7c29ae9ceadd", "fusion_lat": 0.0}, {"lon": -77.0239805, "name": "1a767dd3c9c2c6389862fa238c7d33a7", "is_disabled": 0, "type": "electric_scooter", "is_reserved": 0, "fusion_lon": 0.0, "lat": 38.91617033333333, "rental_uris": {"ios": "https://dc.lft.to/lastmile_qr_scan", "android": "https://dc.lft.to/lastmile_qr_scan"}, "bike_id": "1a767dd3c9c2c6389862fa238c7d33a7", "fusion_lat": 0.0}, {"lon": -77.04152866666666, "name": "dfcbc432a921cb897478bd1c7bbe60d8", "is_disabled": 0, "type": "electric_scooter", "is_reserved": 0, "fusion_lon": 0.0, "lat": 38.907236166666664, "rental_uris": {"ios": "https://dc.lft.to/lastmile_qr_scan", "android": "https://dc.lft.to/lastmile_qr_scan"}, "bike_id": "dfcbc432a921cb897478bd1c7bbe60d8", "fusion_lat": 0.0}, {"lon": -77.03570483333333, "name": "ec2935472264d66300fd72849cec9539", "is_disabled": 0, "type": "electric_scooter", "is_reserved": 0, "fusion_lon": 0.0, "lat": 38.926881333333334, "rental_uris": {"ios": "https://dc.lft.to/lastmile_qr_scan", "android": "https://dc.lft.to/lastmile_qr_scan"}, "bike_id": "ec2935472264d66300fd72849cec9539", "fusion_lat": 0.0}, {"lon": -76.99083933333333, "name": "fd5e8aedd48feceb586e57dcbdd730bd", "is_disabled": 0, "type": "electric_bike", "is_reserved": 0, "fusion_lon": 0.0, "lat": 38.898240333333334, "rental_uris": {"ios": "https://dc.lft.to/lastmile_qr_scan", "android": "https://dc.lft.to/lastmile_qr_scan"}, "bike_id": "fd5e8aedd48feceb586e57dcbdd730bd", "fusion_lat": 0.0}, {"lon": -77.0021355, "name": "44c689ca0d1c0018682659a4451d17a9", "is_disabled": 0, "type": "electric_scooter", "is_reserved": 0, "fusion_lon": 0.0, "lat": 38.914623, "rental_uris": {"ios": "https://dc.lft.to/lastmile_qr_scan", "android": "https://dc.lft.to/lastmile_qr_scan"}, "bike_id": "44c689ca0d1c0018682659a4451d17a9", "fusion_lat": 0.0}, {"lon": -76.93224533333333, "name": "bb1eaf1fffec60e6e5286d8b1ffd36c8", "is_disabled": 0, "type": "electric_scooter", "is_reserved": 0, "fusion_lon": 0.0, "lat": 38.88044633333333, "rental_uris": {"ios": "https://dc.lft.to/lastmile_qr_scan", "android": "https://dc.lft.to/lastmile_qr_scan"}, "bike_id": "bb1eaf1fffec60e6e5286d8b1ffd36c8", "fusion_lat": 0.0}, {"lon": -77.04192466666667, "name": "fef1872fd985b06a680c7ffe155e03b1", "is_disabled": 0, "type": "electric_scooter", "is_reserved": 0, "fusion_lon": 0.0, "lat": 38.92064116666667, "rental_uris": {"ios": "https://dc.lft.to/lastmile_qr_scan", "android": "https://dc.lft.to/lastmile_qr_scan"}, "bike_id": "fef1872fd985b06a680c7ffe155e03b1", "fusion_lat": 0.0}, {"lon": -77.01028233333334, "name": "c4536206e409f38754c866863238a252", "is_disabled": 0, "type": "electric_bike", "is_reserved": 0, "fusion_lon": 0.0, "lat": 38.9587825, "rental_uris": {"ios": "https://dc.lft.to/lastmile_qr_scan", "android": "https://dc.lft.to/lastmile_qr_scan"}, "bike_id": "c4536206e409f38754c866863238a252", "fusion_lat": 0.0}, {"lon": -77.02593666666667, "name": "6064b441d68a31aa3e1435393e204a0b", "is_disabled": 0, "type": "electric_scooter", "is_reserved": 0, "fusion_lon": 0.0, "lat": 38.9187305, "rental_uris": {"ios": "https://dc.lft.to/lastmile_qr_scan", "android": "https://dc.lft.to/lastmile_qr_scan"}, "bike_id": "6064b441d68a31aa3e1435393e204a0b", "fusion_lat": 0.0}, {"lon": -77.01975316666666, "name": "3ac116278bf2722a71437aaf440d757f", "is_disabled": 0, "type": "electric_scooter", "is_reserved": 0, "fusion_lon": 0.0, "lat": 38.967422666666664, "rental_uris": {"ios": "https://dc.lft.to/lastmile_qr_scan", "android": "https://dc.lft.to/lastmile_qr_scan"}, "bike_id": "3ac116278bf2722a71437aaf440d757f", "fusion_lat": 0.0}, {"lon": -77.03780566666667, "name": "77c49409a5042270cc75f945a1100b3a", "is_disabled": 0, "type": "electric_scooter", "is_reserved": 0, "fusion_lon": 0.0, "lat": 38.92780316666666, "rental_uris": {"ios": "https://dc.lft.to/lastmile_qr_scan", "android": "https://dc.lft.to/lastmile_qr_scan"}, "bike_id": "77c49409a5042270cc75f945a1100b3a", "fusion_lat": 0.0}, {"lon": -76.982412, "name": "5e8e28407740e6721917c404beef40e8", "is_disabled": 0, "type": "electric_scooter", "is_reserved": 0, "fusion_lon": 0.0, "lat": 38.908919833333336, "rental_uris": {"ios": "https://dc.lft.to/lastmile_qr_scan", "android": "https://dc.lft.to/lastmile_qr_scan"}, "bike_id": "5e8e28407740e6721917c404beef40e8", "fusion_lat": 0.0}, {"lon": -77.03916616666666, "name": "ea2552adda77ba88bb28922cf44a4ed8", "is_disabled": 0, "type": "electric_scooter", "is_reserved": 0, "fusion_lon": 0.0, "lat": 38.92480166666667, "rental_uris": {"ios": "https://dc.lft.to/lastmile_qr_scan", "android": "https://dc.lft.to/lastmile_qr_scan"}, "bike_id": "ea2552adda77ba88bb28922cf44a4ed8", "fusion_lat": 0.0}, {"lon": -77.04966633333333, "name": "3347055dbd79d84c48825407553d815a", "is_disabled": 0, "type": "electric_scooter", "is_reserved": 0, "fusion_lon": 0.0, "lat": 38.89792466666667, "rental_uris": {"ios": "https://dc.lft.to/lastmile_qr_scan", "android": "https://dc.lft.to/lastmile_qr_scan"}, "bike_id": "3347055dbd79d84c48825407553d815a", "fusion_lat": 0.0}, {"lon": -77.02094616666666, "name": "82e50ed09be95cf4e12c318ba3cb5e37", "is_disabled": 0, "type": "electric_scooter", "is_reserved": 0, "fusion_lon": 0.0, "lat": 38.93114283333333, "rental_uris": {"ios": "https://dc.lft.to/lastmile_qr_scan", "android": "https://dc.lft.to/lastmile_qr_scan"}, "bike_id": "82e50ed09be95cf4e12c318ba3cb5e37", "fusion_lat": 0.0}, {"lon": -77.021294, "name": "b2327eb8855ebb490338fc15b35f26ba", "is_disabled": 0, "type": "electric_scooter", "is_reserved": 0, "fusion_lon": 0.0, "lat": 38.92413116666667, "rental_uris": {"ios": "https://dc.lft.to/lastmile_qr_scan", "android": "https://dc.lft.to/lastmile_qr_scan"}, "bike_id": "b2327eb8855ebb490338fc15b35f26ba", "fusion_lat": 0.0}, {"lon": -77.060004, "name": "a54fafd4f5ba4bf9a0952c9d5b1f82bd", "is_disabled": 0, "type": "electric_scooter", "is_reserved": 0, "fusion_lon": 0.0, "lat": 38.92713916666666, "rental_uris": {"ios": "https://dc.lft.to/lastmile_qr_scan", "android": "https://dc.lft.to/lastmile_qr_scan"}, "bike_id": "a54fafd4f5ba4bf9a0952c9d5b1f82bd", "fusion_lat": 0.0}, {"lon": -77.036627, "name": "7c794db13c9b967ff7acedfc6328bf4d", "is_disabled": 0, "type": "electric_scooter", "is_reserved": 0, "fusion_lon": 0.0, "lat": 38.93156583333333, "rental_uris": {"ios": "https://dc.lft.to/lastmile_qr_scan", "android": "https://dc.lft.to/lastmile_qr_scan"}, "bike_id": "7c794db13c9b967ff7acedfc6328bf4d", "fusion_lat": 0.0}, {"lon": -77.02169083333334, "name": "a0bda0671e13c6c9bfaf5e07fa8cceb5", "is_disabled": 0, "type": "electric_scooter", "is_reserved": 0, "fusion_lon": 0.0, "lat": 38.914822, "rental_uris": {"ios": "https://dc.lft.to/lastmile_qr_scan", "android": "https://dc.lft.to/lastmile_qr_scan"}, "bike_id": "a0bda0671e13c6c9bfaf5e07fa8cceb5", "fusion_lat": 0.0}, {"lon": -77.0542235, "name": "340e54085da7121a8a167b728a21016e", "is_disabled": 0, "type": "electric_scooter", "is_reserved": 0, "fusion_lon": 0.0, "lat": 38.92344, "rental_uris": {"ios": "https://dc.lft.to/lastmile_qr_scan", "android": "https://dc.lft.to/lastmile_qr_scan"}, "bike_id": "340e54085da7121a8a167b728a21016e", "fusion_lat": 0.0}, {"lon": -77.022143, "name": "92636179f6b2a48c1469c4d789d269b4", "is_disabled": 0, "type": "electric_scooter", "is_reserved": 0, "fusion_lon": 0.0, "lat": 38.8790605, "rental_uris": {"ios": "https://dc.lft.to/lastmile_qr_scan", "android": "https://dc.lft.to/lastmile_qr_scan"}, "bike_id": "92636179f6b2a48c1469c4d789d269b4", "fusion_lat": 0.0}, {"lon": -77.04619866666667, "name": "d8eb99b5d1f4effea050988772844b85", "is_disabled": 0, "type": "electric_scooter", "is_reserved": 0, "fusion_lon": 0.0, "lat": 38.91615733333333, "rental_uris": {"ios": "https://dc.lft.to/lastmile_qr_scan", "android": "https://dc.lft.to/lastmile_qr_scan"}, "bike_id": "d8eb99b5d1f4effea050988772844b85", "fusion_lat": 0.0}, {"lon": -76.99807933333334, "name": "9dac6af1c39b7a68b59229daa413f963", "is_disabled": 0, "type": "electric_scooter", "is_reserved": 0, "fusion_lon": 0.0, "lat": 38.8960705, "rental_uris": {"ios": "https://dc.lft.to/lastmile_qr_scan", "android": "https://dc.lft.to/lastmile_qr_scan"}, "bike_id": "9dac6af1c39b7a68b59229daa413f963", "fusion_lat": 0.0}, {"lon": -77.0223305, "name": "002d7d3cc1ddc3d09449f73d650a6edc", "is_disabled": 0, "type": "electric_scooter", "is_reserved": 0, "fusion_lon": 0.0, "lat": 38.923529, "rental_uris": {"ios": "https://dc.lft.to/lastmile_qr_scan", "android": "https://dc.lft.to/lastmile_qr_scan"}, "bike_id": "002d7d3cc1ddc3d09449f73d650a6edc", "fusion_lat": 0.0}, {"lon": -77.02199433333334, "name": "66286f11102c9a0aa14c52fb60018ace", "is_disabled": 0, "type": "electric_scooter", "is_reserved": 0, "fusion_lon": 0.0, "lat": 38.93000833333333, "rental_uris": {"ios": "https://dc.lft.to/lastmile_qr_scan", "android": "https://dc.lft.to/lastmile_qr_scan"}, "bike_id": "66286f11102c9a0aa14c52fb60018ace", "fusion_lat": 0.0}, {"lon": -76.9853605, "name": "00ddf5d8ef6adf2262fb289a45a2fc8e", "is_disabled": 0, "type": "electric_scooter", "is_reserved": 0, "fusion_lon": 0.0, "lat": 38.87971116666667, "rental_uris": {"ios": "https://dc.lft.to/lastmile_qr_scan", "android": "https://dc.lft.to/lastmile_qr_scan"}, "bike_id": "00ddf5d8ef6adf2262fb289a45a2fc8e", "fusion_lat": 0.0}, {"lon": -77.01913866666666, "name": "6523601b49420b4f61d46e51386a8bb1", "is_disabled": 0, "type": "electric_scooter", "is_reserved": 0, "fusion_lon": 0.0, "lat": 38.92942333333333, "rental_uris": {"ios": "https://dc.lft.to/lastmile_qr_scan", "android": "https://dc.lft.to/lastmile_qr_scan"}, "bike_id": "6523601b49420b4f61d46e51386a8bb1", "fusion_lat": 0.0}, {"lon": -77.0412275, "name": "edac8d255ddcc0c40b9c3612d6346b64", "is_disabled": 0, "type": "electric_scooter", "is_reserved": 0, "fusion_lon": 0.0, "lat": 38.92115783333333, "rental_uris": {"ios": "https://dc.lft.to/lastmile_qr_scan", "android": "https://dc.lft.to/lastmile_qr_scan"}, "bike_id": "edac8d255ddcc0c40b9c3612d6346b64", "fusion_lat": 0.0}, {"lon": -77.02575633333333, "name": "4bf5c8199a94f51d19165c71dc569613", "is_disabled": 0, "type": "electric_scooter", "is_reserved": 0, "fusion_lon": 0.0, "lat": 38.90322033333333, "rental_uris": {"ios": "https://dc.lft.to/lastmile_qr_scan", "android": "https://dc.lft.to/lastmile_qr_scan"}, "bike_id": "4bf5c8199a94f51d19165c71dc569613", "fusion_lat": 0.0}, {"lon": -77.00438216666667, "name": "db1b697e18da2b57df365090ab5f8535", "is_disabled": 0, "type": "electric_scooter", "is_reserved": 0, "fusion_lon": 0.0, "lat": 38.877477666666664, "rental_uris": {"ios": "https://dc.lft.to/lastmile_qr_scan", "android": "https://dc.lft.to/lastmile_qr_scan"}, "bike_id": "db1b697e18da2b57df365090ab5f8535", "fusion_lat": 0.0}, {"lon": -76.9940955, "name": "d4878bea93425d4d0a4bdeb10eb9baa0", "is_disabled": 0, "type": "electric_scooter", "is_reserved": 0, "fusion_lon": 0.0, "lat": 38.877832166666664, "rental_uris": {"ios": "https://dc.lft.to/lastmile_qr_scan", "android": "https://dc.lft.to/lastmile_qr_scan"}, "bike_id": "d4878bea93425d4d0a4bdeb10eb9baa0", "fusion_lat": 0.0}, {"lon": -77.01227516666667, "name": "035d19f862c5afb1377c51dc9c72a191", "is_disabled": 0, "type": "electric_scooter", "is_reserved": 0, "fusion_lon": 0.0, "lat": 38.9159685, "rental_uris": {"ios": "https://dc.lft.to/lastmile_qr_scan", "android": "https://dc.lft.to/lastmile_qr_scan"}, "bike_id": "035d19f862c5afb1377c51dc9c72a191", "fusion_lat": 0.0}, {"lon": -77.04222416666667, "name": "f76c000f79244ed06d6f49798f40ed2d", "is_disabled": 0, "type": "electric_scooter", "is_reserved": 0, "fusion_lon": 0.0, "lat": 38.922807166666665, "rental_uris": {"ios": "https://dc.lft.to/lastmile_qr_scan", "android": "https://dc.lft.to/lastmile_qr_scan"}, "bike_id": "f76c000f79244ed06d6f49798f40ed2d", "fusion_lat": 0.0}, {"lon": -77.04378916666667, "name": "0dc8d20d4742797f40b1dfc0356a9d71", "is_disabled": 0, "type": "electric_scooter", "is_reserved": 0, "fusion_lon": 0.0, "lat": 38.92061833333333, "rental_uris": {"ios": "https://dc.lft.to/lastmile_qr_scan", "android": "https://dc.lft.to/lastmile_qr_scan"}, "bike_id": "0dc8d20d4742797f40b1dfc0356a9d71", "fusion_lat": 0.0}, {"lon": -77.04002916666667, "name": "9ad8c6644b0589545297c108cb4a7f89", "is_disabled": 0, "type": "electric_scooter", "is_reserved": 0, "fusion_lon": 0.0, "lat": 38.934218333333334, "rental_uris": {"ios": "https://dc.lft.to/lastmile_qr_scan", "android": "https://dc.lft.to/lastmile_qr_scan"}, "bike_id": "9ad8c6644b0589545297c108cb4a7f89", "fusion_lat": 0.0}, {"lon": -76.997017, "name": "60f363ab7f002493b5dca67307113592", "is_disabled": 0, "type": "electric_scooter", "is_reserved": 0, "fusion_lon": 0.0, "lat": 38.908310666666665, "rental_uris": {"ios": "https://dc.lft.to/lastmile_qr_scan", "android": "https://dc.lft.to/lastmile_qr_scan"}, "bike_id": "60f363ab7f002493b5dca67307113592", "fusion_lat": 0.0}, {"lon": -77.02127816666666, "name": "507a2f3319b5d938a9fec635f9d5c437", "is_disabled": 0, "type": "electric_scooter", "is_reserved": 0, "fusion_lon": 0.0, "lat": 38.927864666666665, "rental_uris": {"ios": "https://dc.lft.to/lastmile_qr_scan", "android": "https://dc.lft.to/lastmile_qr_scan"}, "bike_id": "507a2f3319b5d938a9fec635f9d5c437", "fusion_lat": 0.0}, {"lon": -76.98547616666667, "name": "13cab7059211d392c017d6011258093a", "is_disabled": 0, "type": "electric_scooter", "is_reserved": 0, "fusion_lon": 0.0, "lat": 38.88606866666667, "rental_uris": {"ios": "https://dc.lft.to/lastmile_qr_scan", "android": "https://dc.lft.to/lastmile_qr_scan"}, "bike_id": "13cab7059211d392c017d6011258093a", "fusion_lat": 0.0}, {"lon": -77.00918216666666, "name": "1129dcf2bd4faedbc30dd537371f9a20", "is_disabled": 0, "type": "electric_scooter", "is_reserved": 0, "fusion_lon": 0.0, "lat": 38.896037666666665, "rental_uris": {"ios": "https://dc.lft.to/lastmile_qr_scan", "android": "https://dc.lft.to/lastmile_qr_scan"}, "bike_id": "1129dcf2bd4faedbc30dd537371f9a20", "fusion_lat": 0.0}, {"lon": -77.042382, "name": "5e4e471df1f11336486513c39492d9ac", "is_disabled": 0, "type": "electric_scooter", "is_reserved": 0, "fusion_lon": 0.0, "lat": 38.921577166666665, "rental_uris": {"ios": "https://dc.lft.to/lastmile_qr_scan", "android": "https://dc.lft.to/lastmile_qr_scan"}, "bike_id": "5e4e471df1f11336486513c39492d9ac", "fusion_lat": 0.0}, {"lon": -77.017084, "name": "52c9aaf42e76653ec3ec4131f5639008", "is_disabled": 0, "type": "electric_scooter", "is_reserved": 0, "fusion_lon": 0.0, "lat": 38.887426166666664, "rental_uris": {"ios": "https://dc.lft.to/lastmile_qr_scan", "android": "https://dc.lft.to/lastmile_qr_scan"}, "bike_id": "52c9aaf42e76653ec3ec4131f5639008", "fusion_lat": 0.0}, {"lon": -77.07237, "name": "3960e70c7d4b788ddf66e9fcac24967e", "is_disabled": 0, "type": "electric_scooter", "is_reserved": 0, "fusion_lon": 0.0, "lat": 38.921528333333335, "rental_uris": {"ios": "https://dc.lft.to/lastmile_qr_scan", "android": "https://dc.lft.to/lastmile_qr_scan"}, "bike_id": "3960e70c7d4b788ddf66e9fcac24967e", "fusion_lat": 0.0}, {"lon": -77.02225316666667, "name": "b3d52a62fbb40bc119f4d479aa77e6e9", "is_disabled": 0, "type": "electric_scooter", "is_reserved": 0, "fusion_lon": 0.0, "lat": 38.92475683333333, "rental_uris": {"ios": "https://dc.lft.to/lastmile_qr_scan", "android": "https://dc.lft.to/lastmile_qr_scan"}, "bike_id": "b3d52a62fbb40bc119f4d479aa77e6e9", "fusion_lat": 0.0}, {"lon": -76.984946, "name": "13567705d74346223e87493f701f5528", "is_disabled": 0, "type": "electric_scooter", "is_reserved": 0, "fusion_lon": 0.0, "lat": 38.9037285, "rental_uris": {"ios": "https://dc.lft.to/lastmile_qr_scan", "android": "https://dc.lft.to/lastmile_qr_scan"}, "bike_id": "13567705d74346223e87493f701f5528", "fusion_lat": 0.0}, {"lon": -77.1034705, "name": "d62ce60fbba0b3de31f519f513882a3d", "is_disabled": 0, "type": "electric_bike", "is_reserved": 0, "fusion_lon": 0.0, "lat": 38.836879333333336, "rental_uris": {"ios": "https://dc.lft.to/lastmile_qr_scan", "android": "https://dc.lft.to/lastmile_qr_scan"}, "bike_id": "d62ce60fbba0b3de31f519f513882a3d", "fusion_lat": 0.0}, {"lon": -77.01995966666667, "name": "eff933938328ec3c4b5704c769a93b64", "is_disabled": 0, "type": "electric_scooter", "is_reserved": 0, "fusion_lon": 0.0, "lat": 38.911827833333334, "rental_uris": {"ios": "https://dc.lft.to/lastmile_qr_scan", "android": "https://dc.lft.to/lastmile_qr_scan"}, "bike_id": "eff933938328ec3c4b5704c769a93b64", "fusion_lat": 0.0}, {"lon": -77.0032285, "name": "2c511f999595c4aa48a00149f39be172", "is_disabled": 0, "type": "electric_scooter", "is_reserved": 0, "fusion_lon": 0.0, "lat": 38.86126083333333, "rental_uris": {"ios": "https://dc.lft.to/lastmile_qr_scan", "android": "https://dc.lft.to/lastmile_qr_scan"}, "bike_id": "2c511f999595c4aa48a00149f39be172", "fusion_lat": 0.0}, {"lon": -76.99740066666666, "name": "f4d98dffa5938a66449c7e3cef49c7be", "is_disabled": 0, "type": "electric_scooter", "is_reserved": 0, "fusion_lon": 0.0, "lat": 38.9004, "rental_uris": {"ios": "https://dc.lft.to/lastmile_qr_scan", "android": "https://dc.lft.to/lastmile_qr_scan"}, "bike_id": "f4d98dffa5938a66449c7e3cef49c7be", "fusion_lat": 0.0}, {"lon": -77.03826983333333, "name": "3df7caf01b7ebbcfb422718f1ab60da4", "is_disabled": 0, "type": "electric_scooter", "is_reserved": 0, "fusion_lon": 0.0, "lat": 38.91105783333333, "rental_uris": {"ios": "https://dc.lft.to/lastmile_qr_scan", "android": "https://dc.lft.to/lastmile_qr_scan"}, "bike_id": "3df7caf01b7ebbcfb422718f1ab60da4", "fusion_lat": 0.0}, {"lon": -77.03209766666667, "name": "401dc2c1baf1a8f5ddf18219851d6b51", "is_disabled": 0, "type": "electric_scooter", "is_reserved": 0, "fusion_lon": 0.0, "lat": 38.9163445, "rental_uris": {"ios": "https://dc.lft.to/lastmile_qr_scan", "android": "https://dc.lft.to/lastmile_qr_scan"}, "bike_id": "401dc2c1baf1a8f5ddf18219851d6b51", "fusion_lat": 0.0}, {"lon": -77.05377316666667, "name": "94249ff1453d97fb3259fe32c2ec2dc1", "is_disabled": 0, "type": "electric_scooter", "is_reserved": 0, "fusion_lon": 0.0, "lat": 38.92803283333333, "rental_uris": {"ios": "https://dc.lft.to/lastmile_qr_scan", "android": "https://dc.lft.to/lastmile_qr_scan"}, "bike_id": "94249ff1453d97fb3259fe32c2ec2dc1", "fusion_lat": 0.0}, {"lon": -77.05760033333334, "name": "15a61bb3735292d92a0e17ed93dc1991", "is_disabled": 0, "type": "electric_scooter", "is_reserved": 0, "fusion_lon": 0.0, "lat": 38.93378583333333, "rental_uris": {"ios": "https://dc.lft.to/lastmile_qr_scan", "android": "https://dc.lft.to/lastmile_qr_scan"}, "bike_id": "15a61bb3735292d92a0e17ed93dc1991", "fusion_lat": 0.0}, {"lon": -77.030262, "name": "c8aa4fbc7762792fd5fed641bb3e0a16", "is_disabled": 0, "type": "electric_scooter", "is_reserved": 0, "fusion_lon": 0.0, "lat": 38.922414333333336, "rental_uris": {"ios": "https://dc.lft.to/lastmile_qr_scan", "android": "https://dc.lft.to/lastmile_qr_scan"}, "bike_id": "c8aa4fbc7762792fd5fed641bb3e0a16", "fusion_lat": 0.0}, {"lon": -77.03344616666666, "name": "deff47af375760679ab7a69e107a7651", "is_disabled": 0, "type": "electric_scooter", "is_reserved": 0, "fusion_lon": 0.0, "lat": 38.89251433333333, "rental_uris": {"ios": "https://dc.lft.to/lastmile_qr_scan", "android": "https://dc.lft.to/lastmile_qr_scan"}, "bike_id": "deff47af375760679ab7a69e107a7651", "fusion_lat": 0.0}, {"lon": -77.03805666666666, "name": "aae099b3b666ecc23537d2a04826fd42", "is_disabled": 0, "type": "electric_scooter", "is_reserved": 0, "fusion_lon": 0.0, "lat": 38.92315216666667, "rental_uris": {"ios": "https://dc.lft.to/lastmile_qr_scan", "android": "https://dc.lft.to/lastmile_qr_scan"}, "bike_id": "aae099b3b666ecc23537d2a04826fd42", "fusion_lat": 0.0}, {"lon": -77.02500883333333, "name": "c0d5fda40345f17bd81b9c8548199bcf", "is_disabled": 0, "type": "electric_scooter", "is_reserved": 0, "fusion_lon": 0.0, "lat": 38.8846355, "rental_uris": {"ios": "https://dc.lft.to/lastmile_qr_scan", "android": "https://dc.lft.to/lastmile_qr_scan"}, "bike_id": "c0d5fda40345f17bd81b9c8548199bcf", "fusion_lat": 0.0}, {"lon": -77.0342495, "name": "98416949e18c165405cd2d5fa4257fe9", "is_disabled": 0, "type": "electric_scooter", "is_reserved": 0, "fusion_lon": 0.0, "lat": 38.93532666666667, "rental_uris": {"ios": "https://dc.lft.to/lastmile_qr_scan", "android": "https://dc.lft.to/lastmile_qr_scan"}, "bike_id": "98416949e18c165405cd2d5fa4257fe9", "fusion_lat": 0.0}, {"lon": -77.04004866666666, "name": "bfa6f3a3ac661f71106a7979a81fc017", "is_disabled": 0, "type": "electric_scooter", "is_reserved": 0, "fusion_lon": 0.0, "lat": 38.90261733333333, "rental_uris": {"ios": "https://dc.lft.to/lastmile_qr_scan", "android": "https://dc.lft.to/lastmile_qr_scan"}, "bike_id": "bfa6f3a3ac661f71106a7979a81fc017", "fusion_lat": 0.0}, {"lon": -77.03443583333333, "name": "1583f19ad89d21425f39366525dbaca1", "is_disabled": 0, "type": "electric_scooter", "is_reserved": 0, "fusion_lon": 0.0, "lat": 38.91787383333333, "rental_uris": {"ios": "https://dc.lft.to/lastmile_qr_scan", "android": "https://dc.lft.to/lastmile_qr_scan"}, "bike_id": "1583f19ad89d21425f39366525dbaca1", "fusion_lat": 0.0}, {"lon": -77.03446183333334, "name": "e42ef0ca6d33ae679c0aae59b5c71218", "is_disabled": 0, "type": "electric_scooter", "is_reserved": 0, "fusion_lon": 0.0, "lat": 38.9165925, "rental_uris": {"ios": "https://dc.lft.to/lastmile_qr_scan", "android": "https://dc.lft.to/lastmile_qr_scan"}, "bike_id": "e42ef0ca6d33ae679c0aae59b5c71218", "fusion_lat": 0.0}, {"lon": -77.00926016666666, "name": "1ec440314bea691cf1890c9f0e139b30", "is_disabled": 0, "type": "electric_scooter", "is_reserved": 0, "fusion_lon": 0.0, "lat": 38.91693866666667, "rental_uris": {"ios": "https://dc.lft.to/lastmile_qr_scan", "android": "https://dc.lft.to/lastmile_qr_scan"}, "bike_id": "1ec440314bea691cf1890c9f0e139b30", "fusion_lat": 0.0}, {"lon": -77.011237, "name": "a18910b626ce7657eb6d0e21839d18f7", "is_disabled": 0, "type": "electric_scooter", "is_reserved": 0, "fusion_lon": 0.0, "lat": 38.894559, "rental_uris": {"ios": "https://dc.lft.to/lastmile_qr_scan", "android": "https://dc.lft.to/lastmile_qr_scan"}, "bike_id": "a18910b626ce7657eb6d0e21839d18f7", "fusion_lat": 0.0}, {"lon": -77.04876433333334, "name": "519bd04fa78ee7d3fe3bd0b6f83c50bb", "is_disabled": 0, "type": "electric_scooter", "is_reserved": 0, "fusion_lon": 0.0, "lat": 38.89944933333334, "rental_uris": {"ios": "https://dc.lft.to/lastmile_qr_scan", "android": "https://dc.lft.to/lastmile_qr_scan"}, "bike_id": "519bd04fa78ee7d3fe3bd0b6f83c50bb", "fusion_lat": 0.0}, {"lon": -76.92947733333334, "name": "6d3df383787da2ecbadd495d9ec355fb", "is_disabled": 0, "type": "electric_scooter", "is_reserved": 0, "fusion_lon": 0.0, "lat": 38.9017945, "rental_uris": {"ios": "https://dc.lft.to/lastmile_qr_scan", "android": "https://dc.lft.to/lastmile_qr_scan"}, "bike_id": "6d3df383787da2ecbadd495d9ec355fb", "fusion_lat": 0.0}, {"lon": -77.0340735, "name": "70277b45e009daf931c89c9129575705", "is_disabled": 0, "type": "electric_scooter", "is_reserved": 0, "fusion_lon": 0.0, "lat": 38.92041316666667, "rental_uris": {"ios": "https://dc.lft.to/lastmile_qr_scan", "android": "https://dc.lft.to/lastmile_qr_scan"}, "bike_id": "70277b45e009daf931c89c9129575705", "fusion_lat": 0.0}, {"lon": -77.02001833333334, "name": "9003bc25383879516b350959fac828ba", "is_disabled": 0, "type": "electric_scooter", "is_reserved": 0, "fusion_lon": 0.0, "lat": 38.88564616666667, "rental_uris": {"ios": "https://dc.lft.to/lastmile_qr_scan", "android": "https://dc.lft.to/lastmile_qr_scan"}, "bike_id": "9003bc25383879516b350959fac828ba", "fusion_lat": 0.0}, {"lon": -77.02151233333333, "name": "e363cbee944fe1dfa4dbf0d8485f1707", "is_disabled": 0, "type": "electric_scooter", "is_reserved": 0, "fusion_lon": 0.0, "lat": 38.9245365, "rental_uris": {"ios": "https://dc.lft.to/lastmile_qr_scan", "android": "https://dc.lft.to/lastmile_qr_scan"}, "bike_id": "e363cbee944fe1dfa4dbf0d8485f1707", "fusion_lat": 0.0}, {"lon": -77.0116185, "name": "11a9dcb7321323c535a12baba49c5869", "is_disabled": 0, "type": "electric_scooter", "is_reserved": 0, "fusion_lon": 0.0, "lat": 38.917059333333334, "rental_uris": {"ios": "https://dc.lft.to/lastmile_qr_scan", "android": "https://dc.lft.to/lastmile_qr_scan"}, "bike_id": "11a9dcb7321323c535a12baba49c5869", "fusion_lat": 0.0}, {"lon": -77.02446416666666, "name": "ad32623df8300c8947952a331c776505", "is_disabled": 0, "type": "electric_scooter", "is_reserved": 0, "fusion_lon": 0.0, "lat": 38.923773, "rental_uris": {"ios": "https://dc.lft.to/lastmile_qr_scan", "android": "https://dc.lft.to/lastmile_qr_scan"}, "bike_id": "ad32623df8300c8947952a331c776505", "fusion_lat": 0.0}, {"lon": -77.02405533333334, "name": "40017e51009a2a0f369a3a4ba8c1a08a", "is_disabled": 0, "type": "electric_scooter", "is_reserved": 0, "fusion_lon": 0.0, "lat": 38.903894333333334, "rental_uris": {"ios": "https://dc.lft.to/lastmile_qr_scan", "android": "https://dc.lft.to/lastmile_qr_scan"}, "bike_id": "40017e51009a2a0f369a3a4ba8c1a08a", "fusion_lat": 0.0}, {"lon": -77.0529655, "name": "8b990902984825fbc4155a1d58201a06", "is_disabled": 0, "type": "electric_scooter", "is_reserved": 0, "fusion_lon": 0.0, "lat": 38.9255425, "rental_uris": {"ios": "https://dc.lft.to/lastmile_qr_scan", "android": "https://dc.lft.to/lastmile_qr_scan"}, "bike_id": "8b990902984825fbc4155a1d58201a06", "fusion_lat": 0.0}, {"lon": -77.02213033333334, "name": "fc35e1ce8e4d4e215da6a3ac164f5d39", "is_disabled": 0, "type": "electric_scooter", "is_reserved": 0, "fusion_lon": 0.0, "lat": 38.91266483333333, "rental_uris": {"ios": "https://dc.lft.to/lastmile_qr_scan", "android": "https://dc.lft.to/lastmile_qr_scan"}, "bike_id": "fc35e1ce8e4d4e215da6a3ac164f5d39", "fusion_lat": 0.0}, {"lon": -77.06381716666667, "name": "f449bd7715c4d74d223ed9dbea989efe", "is_disabled": 0, "type": "electric_scooter", "is_reserved": 0, "fusion_lon": 0.0, "lat": 38.90831716666667, "rental_uris": {"ios": "https://dc.lft.to/lastmile_qr_scan", "android": "https://dc.lft.to/lastmile_qr_scan"}, "bike_id": "f449bd7715c4d74d223ed9dbea989efe", "fusion_lat": 0.0}, {"lon": -77.0197135, "name": "b625b431236163bfdbf05472de938fa7", "is_disabled": 0, "type": "electric_scooter", "is_reserved": 0, "fusion_lon": 0.0, "lat": 38.93020083333333, "rental_uris": {"ios": "https://dc.lft.to/lastmile_qr_scan", "android": "https://dc.lft.to/lastmile_qr_scan"}, "bike_id": "b625b431236163bfdbf05472de938fa7", "fusion_lat": 0.0}, {"lon": -77.02763366666667, "name": "92335fa1295a922a44d106dd185bf43c", "is_disabled": 0, "type": "electric_scooter", "is_reserved": 0, "fusion_lon": 0.0, "lat": 38.954242666666666, "rental_uris": {"ios": "https://dc.lft.to/lastmile_qr_scan", "android": "https://dc.lft.to/lastmile_qr_scan"}, "bike_id": "92335fa1295a922a44d106dd185bf43c", "fusion_lat": 0.0}, {"lon": -77.0221275, "name": "c5c3abddcf69a6d597a0a5d3175ffe48", "is_disabled": 0, "type": "electric_scooter", "is_reserved": 0, "fusion_lon": 0.0, "lat": 38.91268683333333, "rental_uris": {"ios": "https://dc.lft.to/lastmile_qr_scan", "android": "https://dc.lft.to/lastmile_qr_scan"}, "bike_id": "c5c3abddcf69a6d597a0a5d3175ffe48", "fusion_lat": 0.0}, {"lon": -77.0197515, "name": "3ab96972648da2c0769f8c942eb5d5cf", "is_disabled": 0, "type": "electric_bike", "is_reserved": 0, "fusion_lon": 0.0, "lat": 38.963826, "rental_uris": {"ios": "https://dc.lft.to/lastmile_qr_scan", "android": "https://dc.lft.to/lastmile_qr_scan"}, "bike_id": "3ab96972648da2c0769f8c942eb5d5cf", "fusion_lat": 0.0}, {"lon": -77.03214216666667, "name": "7bedbcdf21918fe3cf210c27fa6f9606", "is_disabled": 0, "type": "electric_scooter", "is_reserved": 0, "fusion_lon": 0.0, "lat": 38.9170365, "rental_uris": {"ios": "https://dc.lft.to/lastmile_qr_scan", "android": "https://dc.lft.to/lastmile_qr_scan"}, "bike_id": "7bedbcdf21918fe3cf210c27fa6f9606", "fusion_lat": 0.0}, {"lon": -77.0445965, "name": "54078427249ac92000c169a74f1e13ed", "is_disabled": 0, "type": "electric_scooter", "is_reserved": 0, "fusion_lon": 0.0, "lat": 38.91543766666667, "rental_uris": {"ios": "https://dc.lft.to/lastmile_qr_scan", "android": "https://dc.lft.to/lastmile_qr_scan"}, "bike_id": "54078427249ac92000c169a74f1e13ed", "fusion_lat": 0.0}, {"lon": -77.02548966666667, "name": "d924cd670bcf66099bf2b964d5a65bf1", "is_disabled": 0, "type": "electric_scooter", "is_reserved": 0, "fusion_lon": 0.0, "lat": 38.939938833333336, "rental_uris": {"ios": "https://dc.lft.to/lastmile_qr_scan", "android": "https://dc.lft.to/lastmile_qr_scan"}, "bike_id": "d924cd670bcf66099bf2b964d5a65bf1", "fusion_lat": 0.0}, {"lon": -76.9570785, "name": "1b1e1540b31e859a505d2914e29cd9c0", "is_disabled": 0, "type": "electric_bike", "is_reserved": 0, "fusion_lon": 0.0, "lat": 38.88878116666667, "rental_uris": {"ios": "https://dc.lft.to/lastmile_qr_scan", "android": "https://dc.lft.to/lastmile_qr_scan"}, "bike_id": "1b1e1540b31e859a505d2914e29cd9c0", "fusion_lat": 0.0}, {"lon": -76.9323945, "name": "77fe52f9dd6926249130287b1bfe3c58", "is_disabled": 0, "type": "electric_bike", "is_reserved": 0, "fusion_lon": 0.0, "lat": 38.882826666666666, "rental_uris": {"ios": "https://dc.lft.to/lastmile_qr_scan", "android": "https://dc.lft.to/lastmile_qr_scan"}, "bike_id": "77fe52f9dd6926249130287b1bfe3c58", "fusion_lat": 0.0}, {"lon": -77.03867633333333, "name": "01b3c0ef95b84a4a12d6ce915fca89cb", "is_disabled": 0, "type": "electric_scooter", "is_reserved": 0, "fusion_lon": 0.0, "lat": 38.921510166666664, "rental_uris": {"ios": "https://dc.lft.to/lastmile_qr_scan", "android": "https://dc.lft.to/lastmile_qr_scan"}, "bike_id": "01b3c0ef95b84a4a12d6ce915fca89cb", "fusion_lat": 0.0}, {"lon": -77.021425, "name": "412d855fd9bc75b3e6adc63df6202aed", "is_disabled": 0, "type": "electric_scooter", "is_reserved": 0, "fusion_lon": 0.0, "lat": 38.924096666666664, "rental_uris": {"ios": "https://dc.lft.to/lastmile_qr_scan", "android": "https://dc.lft.to/lastmile_qr_scan"}, "bike_id": "412d855fd9bc75b3e6adc63df6202aed", "fusion_lat": 0.0}, {"lon": -77.032044, "name": "ef8379075d1d3d25ee1fecefeebf0b07", "is_disabled": 0, "type": "electric_scooter", "is_reserved": 0, "fusion_lon": 0.0, "lat": 38.9122805, "rental_uris": {"ios": "https://dc.lft.to/lastmile_qr_scan", "android": "https://dc.lft.to/lastmile_qr_scan"}, "bike_id": "ef8379075d1d3d25ee1fecefeebf0b07", "fusion_lat": 0.0}, {"lon": -76.97979683333334, "name": "41747495725e41dde101204a826198f8", "is_disabled": 0, "type": "electric_scooter", "is_reserved": 0, "fusion_lon": 0.0, "lat": 38.886638166666664, "rental_uris": {"ios": "https://dc.lft.to/lastmile_qr_scan", "android": "https://dc.lft.to/lastmile_qr_scan"}, "bike_id": "41747495725e41dde101204a826198f8", "fusion_lat": 0.0}, {"lon": -77.04323033333333, "name": "2eb75db56bb08ee8890c100803aaa9bf", "is_disabled": 0, "type": "electric_scooter", "is_reserved": 0, "fusion_lon": 0.0, "lat": 38.92360516666667, "rental_uris": {"ios": "https://dc.lft.to/lastmile_qr_scan", "android": "https://dc.lft.to/lastmile_qr_scan"}, "bike_id": "2eb75db56bb08ee8890c100803aaa9bf", "fusion_lat": 0.0}, {"lon": -77.02900566666666, "name": "1bd2bd01c08367e6877b78389d7eac83", "is_disabled": 0, "type": "electric_scooter", "is_reserved": 0, "fusion_lon": 0.0, "lat": 38.923109833333335, "rental_uris": {"ios": "https://dc.lft.to/lastmile_qr_scan", "android": "https://dc.lft.to/lastmile_qr_scan"}, "bike_id": "1bd2bd01c08367e6877b78389d7eac83", "fusion_lat": 0.0}, {"lon": -77.012698, "name": "11fdc7ecc143455844f4a5f4105032d1", "is_disabled": 0, "type": "electric_scooter", "is_reserved": 0, "fusion_lon": 0.0, "lat": 38.89817733333334, "rental_uris": {"ios": "https://dc.lft.to/lastmile_qr_scan", "android": "https://dc.lft.to/lastmile_qr_scan"}, "bike_id": "11fdc7ecc143455844f4a5f4105032d1", "fusion_lat": 0.0}, {"lon": -76.97822083333334, "name": "96d775f3069a11bc33492fbf39ef8e32", "is_disabled": 0, "type": "electric_scooter", "is_reserved": 0, "fusion_lon": 0.0, "lat": 38.89395866666667, "rental_uris": {"ios": "https://dc.lft.to/lastmile_qr_scan", "android": "https://dc.lft.to/lastmile_qr_scan"}, "bike_id": "96d775f3069a11bc33492fbf39ef8e32", "fusion_lat": 0.0}, {"lon": -77.0404625, "name": "6e78d66aa0848bb63204f2acf14f0fd3", "is_disabled": 0, "type": "electric_scooter", "is_reserved": 0, "fusion_lon": 0.0, "lat": 38.90868716666667, "rental_uris": {"ios": "https://dc.lft.to/lastmile_qr_scan", "android": "https://dc.lft.to/lastmile_qr_scan"}, "bike_id": "6e78d66aa0848bb63204f2acf14f0fd3", "fusion_lat": 0.0}, {"lon": -77.03928133333334, "name": "1edbd0550cb93d2c005cead2e1acd7d3", "is_disabled": 0, "type": "electric_scooter", "is_reserved": 0, "fusion_lon": 0.0, "lat": 38.89857333333333, "rental_uris": {"ios": "https://dc.lft.to/lastmile_qr_scan", "android": "https://dc.lft.to/lastmile_qr_scan"}, "bike_id": "1edbd0550cb93d2c005cead2e1acd7d3", "fusion_lat": 0.0}, {"lon": -77.05893316666666, "name": "9a353a9b0a8eece438143fd6a23f1340", "is_disabled": 0, "type": "electric_bike", "is_reserved": 0, "fusion_lon": 0.0, "lat": 38.9430555, "rental_uris": {"ios": "https://dc.lft.to/lastmile_qr_scan", "android": "https://dc.lft.to/lastmile_qr_scan"}, "bike_id": "9a353a9b0a8eece438143fd6a23f1340", "fusion_lat": 0.0}, {"lon": -77.031825, "name": "13d399ac700cd4d111405542845df086", "is_disabled": 0, "type": "electric_scooter", "is_reserved": 0, "fusion_lon": 0.0, "lat": 38.907433166666664, "rental_uris": {"ios": "https://dc.lft.to/lastmile_qr_scan", "android": "https://dc.lft.to/lastmile_qr_scan"}, "bike_id": "13d399ac700cd4d111405542845df086", "fusion_lat": 0.0}, {"lon": -77.076601, "name": "1c620312a9d923cc147649d69e2dc15c", "is_disabled": 0, "type": "electric_bike", "is_reserved": 0, "fusion_lon": 0.0, "lat": 38.80979416666667, "rental_uris": {"ios": "https://dc.lft.to/lastmile_qr_scan", "android": "https://dc.lft.to/lastmile_qr_scan"}, "bike_id": "1c620312a9d923cc147649d69e2dc15c", "fusion_lat": 0.0}, {"lon": -77.0477965, "name": "bd5fa65e0817969af29915076095b71b", "is_disabled": 0, "type": "electric_scooter", "is_reserved": 0, "fusion_lon": 0.0, "lat": 38.899106833333335, "rental_uris": {"ios": "https://dc.lft.to/lastmile_qr_scan", "android": "https://dc.lft.to/lastmile_qr_scan"}, "bike_id": "bd5fa65e0817969af29915076095b71b", "fusion_lat": 0.0}, {"lon": -77.03462966666666, "name": "e6334112b6ff90762156a6bbbaaf4c94", "is_disabled": 0, "type": "electric_scooter", "is_reserved": 0, "fusion_lon": 0.0, "lat": 38.921491, "rental_uris": {"ios": "https://dc.lft.to/lastmile_qr_scan", "android": "https://dc.lft.to/lastmile_qr_scan"}, "bike_id": "e6334112b6ff90762156a6bbbaaf4c94", "fusion_lat": 0.0}, {"lon": -77.03205666666666, "name": "8ee1d6558534efd54a6a615ec9f10c8e", "is_disabled": 0, "type": "electric_scooter", "is_reserved": 0, "fusion_lon": 0.0, "lat": 38.9190945, "rental_uris": {"ios": "https://dc.lft.to/lastmile_qr_scan", "android": "https://dc.lft.to/lastmile_qr_scan"}, "bike_id": "8ee1d6558534efd54a6a615ec9f10c8e", "fusion_lat": 0.0}, {"lon": -77.03086516666667, "name": "53274b81ab33c496014e3460831b5c00", "is_disabled": 0, "type": "electric_scooter", "is_reserved": 0, "fusion_lon": 0.0, "lat": 38.9353695, "rental_uris": {"ios": "https://dc.lft.to/lastmile_qr_scan", "android": "https://dc.lft.to/lastmile_qr_scan"}, "bike_id": "53274b81ab33c496014e3460831b5c00", "fusion_lat": 0.0}, {"lon": -77.02343366666666, "name": "a0c2c045eb5183b9dea6b1a854c1c65a", "is_disabled": 0, "type": "electric_scooter", "is_reserved": 0, "fusion_lon": 0.0, "lat": 38.9430195, "rental_uris": {"ios": "https://dc.lft.to/lastmile_qr_scan", "android": "https://dc.lft.to/lastmile_qr_scan"}, "bike_id": "a0c2c045eb5183b9dea6b1a854c1c65a", "fusion_lat": 0.0}, {"lon": -77.073609, "name": "536f6211dbce5030addf612c2c5ce316", "is_disabled": 0, "type": "electric_scooter", "is_reserved": 0, "fusion_lon": 0.0, "lat": 38.9335, "rental_uris": {"ios": "https://dc.lft.to/lastmile_qr_scan", "android": "https://dc.lft.to/lastmile_qr_scan"}, "bike_id": "536f6211dbce5030addf612c2c5ce316", "fusion_lat": 0.0}, {"lon": -77.0327545, "name": "6498c43af4225fea846edca5aaeb11ab", "is_disabled": 0, "type": "electric_scooter", "is_reserved": 0, "fusion_lon": 0.0, "lat": 38.9320365, "rental_uris": {"ios": "https://dc.lft.to/lastmile_qr_scan", "android": "https://dc.lft.to/lastmile_qr_scan"}, "bike_id": "6498c43af4225fea846edca5aaeb11ab", "fusion_lat": 0.0}, {"lon": -77.05995033333333, "name": "43a1821a10e6fd776212ec07c3ad712a", "is_disabled": 0, "type": "electric_scooter", "is_reserved": 0, "fusion_lon": 0.0, "lat": 38.927170333333336, "rental_uris": {"ios": "https://dc.lft.to/lastmile_qr_scan", "android": "https://dc.lft.to/lastmile_qr_scan"}, "bike_id": "43a1821a10e6fd776212ec07c3ad712a", "fusion_lat": 0.0}, {"lon": -77.01951916666667, "name": "941ce7c6db4a15f2104751117f49e6b2", "is_disabled": 0, "type": "electric_scooter", "is_reserved": 0, "fusion_lon": 0.0, "lat": 38.923632, "rental_uris": {"ios": "https://dc.lft.to/lastmile_qr_scan", "android": "https://dc.lft.to/lastmile_qr_scan"}, "bike_id": "941ce7c6db4a15f2104751117f49e6b2", "fusion_lat": 0.0}, {"lon": -77.0532345, "name": "ea76dd03c5da3495f1a6b7bca8eae00e", "is_disabled": 0, "type": "electric_scooter", "is_reserved": 0, "fusion_lon": 0.0, "lat": 38.90427, "rental_uris": {"ios": "https://dc.lft.to/lastmile_qr_scan", "android": "https://dc.lft.to/lastmile_qr_scan"}, "bike_id": "ea76dd03c5da3495f1a6b7bca8eae00e", "fusion_lat": 0.0}, {"lon": -77.0622685, "name": "d072e3628815dde4af33a8c37e34c46d", "is_disabled": 0, "type": "electric_scooter", "is_reserved": 0, "fusion_lon": 0.0, "lat": 38.9131565, "rental_uris": {"ios": "https://dc.lft.to/lastmile_qr_scan", "android": "https://dc.lft.to/lastmile_qr_scan"}, "bike_id": "d072e3628815dde4af33a8c37e34c46d", "fusion_lat": 0.0}, {"lon": -77.039193, "name": "bcce164664a9220a7e8f8efcf5fe10cc", "is_disabled": 0, "type": "electric_scooter", "is_reserved": 0, "fusion_lon": 0.0, "lat": 38.8985155, "rental_uris": {"ios": "https://dc.lft.to/lastmile_qr_scan", "android": "https://dc.lft.to/lastmile_qr_scan"}, "bike_id": "bcce164664a9220a7e8f8efcf5fe10cc", "fusion_lat": 0.0}, {"lon": -77.04012616666667, "name": "ccc68d34678a7736ec0506d9b62ca8b8", "is_disabled": 0, "type": "electric_scooter", "is_reserved": 0, "fusion_lon": 0.0, "lat": 38.9100305, "rental_uris": {"ios": "https://dc.lft.to/lastmile_qr_scan", "android": "https://dc.lft.to/lastmile_qr_scan"}, "bike_id": "ccc68d34678a7736ec0506d9b62ca8b8", "fusion_lat": 0.0}, {"lon": -77.03660483333333, "name": "f580936c4ad8dc03db0831104c5c37b3", "is_disabled": 0, "type": "electric_scooter", "is_reserved": 0, "fusion_lon": 0.0, "lat": 38.9321175, "rental_uris": {"ios": "https://dc.lft.to/lastmile_qr_scan", "android": "https://dc.lft.to/lastmile_qr_scan"}, "bike_id": "f580936c4ad8dc03db0831104c5c37b3", "fusion_lat": 0.0}, {"lon": -77.031849, "name": "67f5967f112752f9b69c664517be77bd", "is_disabled": 0, "type": "electric_scooter", "is_reserved": 0, "fusion_lon": 0.0, "lat": 38.8924125, "rental_uris": {"ios": "https://dc.lft.to/lastmile_qr_scan", "android": "https://dc.lft.to/lastmile_qr_scan"}, "bike_id": "67f5967f112752f9b69c664517be77bd", "fusion_lat": 0.0}, {"lon": -77.04026616666667, "name": "70931821db0c3502da967186c0c8f5c8", "is_disabled": 0, "type": "electric_scooter", "is_reserved": 0, "fusion_lon": 0.0, "lat": 38.90362416666667, "rental_uris": {"ios": "https://dc.lft.to/lastmile_qr_scan", "android": "https://dc.lft.to/lastmile_qr_scan"}, "bike_id": "70931821db0c3502da967186c0c8f5c8", "fusion_lat": 0.0}, {"lon": -77.09049483333334, "name": "0974e21aee04cb31f2ee7a9de135ce72", "is_disabled": 0, "type": "electric_scooter", "is_reserved": 0, "fusion_lon": 0.0, "lat": 38.91758166666666, "rental_uris": {"ios": "https://dc.lft.to/lastmile_qr_scan", "android": "https://dc.lft.to/lastmile_qr_scan"}, "bike_id": "0974e21aee04cb31f2ee7a9de135ce72", "fusion_lat": 0.0}, {"lon": -77.02205083333334, "name": "5ac8f8236a4bcad1ee8b02fd1659169d", "is_disabled": 0, "type": "electric_scooter", "is_reserved": 0, "fusion_lon": 0.0, "lat": 38.90567466666667, "rental_uris": {"ios": "https://dc.lft.to/lastmile_qr_scan", "android": "https://dc.lft.to/lastmile_qr_scan"}, "bike_id": "5ac8f8236a4bcad1ee8b02fd1659169d", "fusion_lat": 0.0}, {"lon": -77.018341, "name": "d20af7878cf1298c4410e35a8a08ea74", "is_disabled": 0, "type": "electric_scooter", "is_reserved": 0, "fusion_lon": 0.0, "lat": 38.90861866666667, "rental_uris": {"ios": "https://dc.lft.to/lastmile_qr_scan", "android": "https://dc.lft.to/lastmile_qr_scan"}, "bike_id": "d20af7878cf1298c4410e35a8a08ea74", "fusion_lat": 0.0}, {"lon": -76.9914525, "name": "ee7c1b4326daec4a89b69f30a7c60bcf", "is_disabled": 0, "type": "electric_scooter", "is_reserved": 0, "fusion_lon": 0.0, "lat": 38.891644, "rental_uris": {"ios": "https://dc.lft.to/lastmile_qr_scan", "android": "https://dc.lft.to/lastmile_qr_scan"}, "bike_id": "ee7c1b4326daec4a89b69f30a7c60bcf", "fusion_lat": 0.0}, {"lon": -77.04622033333334, "name": "4498e14ee07ccd9fef504cd5880a3905", "is_disabled": 0, "type": "electric_scooter", "is_reserved": 0, "fusion_lon": 0.0, "lat": 38.91617883333333, "rental_uris": {"ios": "https://dc.lft.to/lastmile_qr_scan", "android": "https://dc.lft.to/lastmile_qr_scan"}, "bike_id": "4498e14ee07ccd9fef504cd5880a3905", "fusion_lat": 0.0}, {"lon": -76.977361, "name": "c60de262ad122fd90283de1ee1149c89", "is_disabled": 0, "type": "electric_bike", "is_reserved": 0, "fusion_lon": 0.0, "lat": 38.8648615, "rental_uris": {"ios": "https://dc.lft.to/lastmile_qr_scan", "android": "https://dc.lft.to/lastmile_qr_scan"}, "bike_id": "c60de262ad122fd90283de1ee1149c89", "fusion_lat": 0.0}, {"lon": -76.98091916666667, "name": "5fe06efd02602c013a1ff690fa972fd3", "is_disabled": 0, "type": "electric_bike", "is_reserved": 0, "fusion_lon": 0.0, "lat": 38.95358, "rental_uris": {"ios": "https://dc.lft.to/lastmile_qr_scan", "android": "https://dc.lft.to/lastmile_qr_scan"}, "bike_id": "5fe06efd02602c013a1ff690fa972fd3", "fusion_lat": 0.0}, {"lon": -77.001374, "name": "e70932353b66c34a779fd43b3dc7ae62", "is_disabled": 0, "type": "electric_scooter", "is_reserved": 0, "fusion_lon": 0.0, "lat": 38.88425433333333, "rental_uris": {"ios": "https://dc.lft.to/lastmile_qr_scan", "android": "https://dc.lft.to/lastmile_qr_scan"}, "bike_id": "e70932353b66c34a779fd43b3dc7ae62", "fusion_lat": 0.0}, {"lon": -77.057436, "name": "99485259a8f64c55dd9ebcfcca99b2b0", "is_disabled": 0, "type": "electric_scooter", "is_reserved": 0, "fusion_lon": 0.0, "lat": 38.9335405, "rental_uris": {"ios": "https://dc.lft.to/lastmile_qr_scan", "android": "https://dc.lft.to/lastmile_qr_scan"}, "bike_id": "99485259a8f64c55dd9ebcfcca99b2b0", "fusion_lat": 0.0}, {"lon": -77.01851666666667, "name": "994fa2d46a4fb5a56ea96011203e93cf", "is_disabled": 0, "type": "electric_scooter", "is_reserved": 0, "fusion_lon": 0.0, "lat": 38.87457166666667, "rental_uris": {"ios": "https://dc.lft.to/lastmile_qr_scan", "android": "https://dc.lft.to/lastmile_qr_scan"}, "bike_id": "994fa2d46a4fb5a56ea96011203e93cf", "fusion_lat": 0.0}, {"lon": -77.031085, "name": "00bdb2a354c9075ba70ae026edd8784e", "is_disabled": 0, "type": "electric_scooter", "is_reserved": 0, "fusion_lon": 0.0, "lat": 38.88584316666667, "rental_uris": {"ios": "https://dc.lft.to/lastmile_qr_scan", "android": "https://dc.lft.to/lastmile_qr_scan"}, "bike_id": "00bdb2a354c9075ba70ae026edd8784e", "fusion_lat": 0.0}, {"lon": -77.0072315, "name": "d0a9b5414750887ecdefe9696e32ef20", "is_disabled": 0, "type": "electric_scooter", "is_reserved": 0, "fusion_lon": 0.0, "lat": 38.90334083333333, "rental_uris": {"ios": "https://dc.lft.to/lastmile_qr_scan", "android": "https://dc.lft.to/lastmile_qr_scan"}, "bike_id": "d0a9b5414750887ecdefe9696e32ef20", "fusion_lat": 0.0}, {"lon": -77.02432733333333, "name": "41f864c3e5fe18d9ef42a9272b69bd56", "is_disabled": 0, "type": "electric_scooter", "is_reserved": 0, "fusion_lon": 0.0, "lat": 38.930902833333334, "rental_uris": {"ios": "https://dc.lft.to/lastmile_qr_scan", "android": "https://dc.lft.to/lastmile_qr_scan"}, "bike_id": "41f864c3e5fe18d9ef42a9272b69bd56", "fusion_lat": 0.0}, {"lon": -77.00119283333333, "name": "7eaae194386604642f2ec989d3325af4", "is_disabled": 0, "type": "electric_scooter", "is_reserved": 0, "fusion_lon": 0.0, "lat": 38.8865625, "rental_uris": {"ios": "https://dc.lft.to/lastmile_qr_scan", "android": "https://dc.lft.to/lastmile_qr_scan"}, "bike_id": "7eaae194386604642f2ec989d3325af4", "fusion_lat": 0.0}, {"lon": -77.0283105, "name": "327666df70e56a27f84dcf8680c0e41c", "is_disabled": 0, "type": "electric_scooter", "is_reserved": 0, "fusion_lon": 0.0, "lat": 38.887382833333334, "rental_uris": {"ios": "https://dc.lft.to/lastmile_qr_scan", "android": "https://dc.lft.to/lastmile_qr_scan"}, "bike_id": "327666df70e56a27f84dcf8680c0e41c", "fusion_lat": 0.0}, {"lon": -77.032527, "name": "13b095bada187a94eb770abcd91b856d", "is_disabled": 0, "type": "electric_scooter", "is_reserved": 0, "fusion_lon": 0.0, "lat": 38.93969383333334, "rental_uris": {"ios": "https://dc.lft.to/lastmile_qr_scan", "android": "https://dc.lft.to/lastmile_qr_scan"}, "bike_id": "13b095bada187a94eb770abcd91b856d", "fusion_lat": 0.0}, {"lon": -77.0318685, "name": "6dfa9ecc41b385388ba0663dbf79d4e7", "is_disabled": 0, "type": "electric_scooter", "is_reserved": 0, "fusion_lon": 0.0, "lat": 38.89241333333333, "rental_uris": {"ios": "https://dc.lft.to/lastmile_qr_scan", "android": "https://dc.lft.to/lastmile_qr_scan"}, "bike_id": "6dfa9ecc41b385388ba0663dbf79d4e7", "fusion_lat": 0.0}, {"lon": -76.9976335, "name": "c1b9b2233b8c791c109cf1b5b02bcf34", "is_disabled": 0, "type": "electric_scooter", "is_reserved": 0, "fusion_lon": 0.0, "lat": 38.91060816666667, "rental_uris": {"ios": "https://dc.lft.to/lastmile_qr_scan", "android": "https://dc.lft.to/lastmile_qr_scan"}, "bike_id": "c1b9b2233b8c791c109cf1b5b02bcf34", "fusion_lat": 0.0}, {"lon": -77.03526833333333, "name": "b4bb5bd8d56968c0c9a625e5b2446eac", "is_disabled": 0, "type": "electric_scooter", "is_reserved": 0, "fusion_lon": 0.0, "lat": 38.918270666666665, "rental_uris": {"ios": "https://dc.lft.to/lastmile_qr_scan", "android": "https://dc.lft.to/lastmile_qr_scan"}, "bike_id": "b4bb5bd8d56968c0c9a625e5b2446eac", "fusion_lat": 0.0}, {"lon": -77.02153233333334, "name": "ba034cb367d7068038051f396119d475", "is_disabled": 0, "type": "electric_scooter", "is_reserved": 0, "fusion_lon": 0.0, "lat": 38.924507, "rental_uris": {"ios": "https://dc.lft.to/lastmile_qr_scan", "android": "https://dc.lft.to/lastmile_qr_scan"}, "bike_id": "ba034cb367d7068038051f396119d475", "fusion_lat": 0.0}, {"lon": -76.99791583333334, "name": "a36bab5baaf0a704a328db4ea01652cc", "is_disabled": 0, "type": "electric_scooter", "is_reserved": 0, "fusion_lon": 0.0, "lat": 38.88006816666667, "rental_uris": {"ios": "https://dc.lft.to/lastmile_qr_scan", "android": "https://dc.lft.to/lastmile_qr_scan"}, "bike_id": "a36bab5baaf0a704a328db4ea01652cc", "fusion_lat": 0.0}, {"lon": -77.03659733333333, "name": "a275cef5cf3a7c943cd0aabb72acd22d", "is_disabled": 0, "type": "electric_scooter", "is_reserved": 0, "fusion_lon": 0.0, "lat": 38.90298333333333, "rental_uris": {"ios": "https://dc.lft.to/lastmile_qr_scan", "android": "https://dc.lft.to/lastmile_qr_scan"}, "bike_id": "a275cef5cf3a7c943cd0aabb72acd22d", "fusion_lat": 0.0}, {"lon": -77.02190733333333, "name": "8a8e40eb1af70fef81bb1f9f7d1d66f0", "is_disabled": 0, "type": "electric_scooter", "is_reserved": 0, "fusion_lon": 0.0, "lat": 38.88608633333333, "rental_uris": {"ios": "https://dc.lft.to/lastmile_qr_scan", "android": "https://dc.lft.to/lastmile_qr_scan"}, "bike_id": "8a8e40eb1af70fef81bb1f9f7d1d66f0", "fusion_lat": 0.0}, {"lon": -77.02949583333333, "name": "294e66e6fc29ceb810b2ce9e94912984", "is_disabled": 0, "type": "electric_scooter", "is_reserved": 0, "fusion_lon": 0.0, "lat": 38.939742833333334, "rental_uris": {"ios": "https://dc.lft.to/lastmile_qr_scan", "android": "https://dc.lft.to/lastmile_qr_scan"}, "bike_id": "294e66e6fc29ceb810b2ce9e94912984", "fusion_lat": 0.0}, {"lon": -77.03167566666667, "name": "a3eacf7708d87172a8440c56a1a261b5", "is_disabled": 0, "type": "electric_scooter", "is_reserved": 0, "fusion_lon": 0.0, "lat": 38.91558216666667, "rental_uris": {"ios": "https://dc.lft.to/lastmile_qr_scan", "android": "https://dc.lft.to/lastmile_qr_scan"}, "bike_id": "a3eacf7708d87172a8440c56a1a261b5", "fusion_lat": 0.0}, {"lon": -77.02394916666667, "name": "d9a979c286ebd107d9d53f6f61accc74", "is_disabled": 0, "type": "electric_scooter", "is_reserved": 0, "fusion_lon": 0.0, "lat": 38.920776833333335, "rental_uris": {"ios": "https://dc.lft.to/lastmile_qr_scan", "android": "https://dc.lft.to/lastmile_qr_scan"}, "bike_id": "d9a979c286ebd107d9d53f6f61accc74", "fusion_lat": 0.0}, {"lon": -77.02601233333333, "name": "219d7ae36a7561a92c92fd5a63550934", "is_disabled": 0, "type": "electric_scooter", "is_reserved": 0, "fusion_lon": 0.0, "lat": 38.90594516666667, "rental_uris": {"ios": "https://dc.lft.to/lastmile_qr_scan", "android": "https://dc.lft.to/lastmile_qr_scan"}, "bike_id": "219d7ae36a7561a92c92fd5a63550934", "fusion_lat": 0.0}, {"lon": -77.06379883333334, "name": "a196f956b390ea0146542ad377c11fb0", "is_disabled": 0, "type": "electric_scooter", "is_reserved": 0, "fusion_lon": 0.0, "lat": 38.90508883333333, "rental_uris": {"ios": "https://dc.lft.to/lastmile_qr_scan", "android": "https://dc.lft.to/lastmile_qr_scan"}, "bike_id": "a196f956b390ea0146542ad377c11fb0", "fusion_lat": 0.0}, {"lon": -76.988408, "name": "cd3e3577313484e8044517a972b06427", "is_disabled": 0, "type": "electric_scooter", "is_reserved": 0, "fusion_lon": 0.0, "lat": 38.901757, "rental_uris": {"ios": "https://dc.lft.to/lastmile_qr_scan", "android": "https://dc.lft.to/lastmile_qr_scan"}, "bike_id": "cd3e3577313484e8044517a972b06427", "fusion_lat": 0.0}, {"lon": -77.02509583333334, "name": "784ac9599c5f7ebe06cad7180f89f308", "is_disabled": 0, "type": "electric_scooter", "is_reserved": 0, "fusion_lon": 0.0, "lat": 38.921069333333335, "rental_uris": {"ios": "https://dc.lft.to/lastmile_qr_scan", "android": "https://dc.lft.to/lastmile_qr_scan"}, "bike_id": "784ac9599c5f7ebe06cad7180f89f308", "fusion_lat": 0.0}, {"lon": -77.025888, "name": "17ad42fa0a7e40008af2dbe3472a46bc", "is_disabled": 0, "type": "electric_scooter", "is_reserved": 0, "fusion_lon": 0.0, "lat": 38.898823166666666, "rental_uris": {"ios": "https://dc.lft.to/lastmile_qr_scan", "android": "https://dc.lft.to/lastmile_qr_scan"}, "bike_id": "17ad42fa0a7e40008af2dbe3472a46bc", "fusion_lat": 0.0}, {"lon": -77.03497133333333, "name": "054d80c07d4d6fbd7d697eb9aa5f59f2", "is_disabled": 0, "type": "electric_scooter", "is_reserved": 0, "fusion_lon": 0.0, "lat": 38.91628683333333, "rental_uris": {"ios": "https://dc.lft.to/lastmile_qr_scan", "android": "https://dc.lft.to/lastmile_qr_scan"}, "bike_id": "054d80c07d4d6fbd7d697eb9aa5f59f2", "fusion_lat": 0.0}, {"lon": -76.98372633333334, "name": "df42eebd0d0cd1749ca815017ac80e5b", "is_disabled": 0, "type": "electric_scooter", "is_reserved": 0, "fusion_lon": 0.0, "lat": 38.892679666666666, "rental_uris": {"ios": "https://dc.lft.to/lastmile_qr_scan", "android": "https://dc.lft.to/lastmile_qr_scan"}, "bike_id": "df42eebd0d0cd1749ca815017ac80e5b", "fusion_lat": 0.0}, {"lon": -77.00572116666666, "name": "3ce293c37bcb2225422ffd3986860248", "is_disabled": 0, "type": "electric_scooter", "is_reserved": 0, "fusion_lon": 0.0, "lat": 38.906444, "rental_uris": {"ios": "https://dc.lft.to/lastmile_qr_scan", "android": "https://dc.lft.to/lastmile_qr_scan"}, "bike_id": "3ce293c37bcb2225422ffd3986860248", "fusion_lat": 0.0}, {"lon": -76.97684166666667, "name": "793e9a047fb3d42b6c6dacc4b0846297", "is_disabled": 0, "type": "electric_scooter", "is_reserved": 0, "fusion_lon": 0.0, "lat": 38.900860333333334, "rental_uris": {"ios": "https://dc.lft.to/lastmile_qr_scan", "android": "https://dc.lft.to/lastmile_qr_scan"}, "bike_id": "793e9a047fb3d42b6c6dacc4b0846297", "fusion_lat": 0.0}, {"lon": -77.0091985, "name": "6dd3146aa07497ce5b03b06cff4b672e", "is_disabled": 0, "type": "electric_scooter", "is_reserved": 0, "fusion_lon": 0.0, "lat": 38.89545716666667, "rental_uris": {"ios": "https://dc.lft.to/lastmile_qr_scan", "android": "https://dc.lft.to/lastmile_qr_scan"}, "bike_id": "6dd3146aa07497ce5b03b06cff4b672e", "fusion_lat": 0.0}, {"lon": -77.00128466666666, "name": "344061f6a2a5a4dc3c88fed45f91bbd7", "is_disabled": 0, "type": "electric_scooter", "is_reserved": 0, "fusion_lon": 0.0, "lat": 38.8738575, "rental_uris": {"ios": "https://dc.lft.to/lastmile_qr_scan", "android": "https://dc.lft.to/lastmile_qr_scan"}, "bike_id": "344061f6a2a5a4dc3c88fed45f91bbd7", "fusion_lat": 0.0}, {"lon": -77.03238566666667, "name": "305e5fe6dce26401ff20b7a88ed90a6f", "is_disabled": 0, "type": "electric_scooter", "is_reserved": 0, "fusion_lon": 0.0, "lat": 38.921022666666666, "rental_uris": {"ios": "https://dc.lft.to/lastmile_qr_scan", "android": "https://dc.lft.to/lastmile_qr_scan"}, "bike_id": "305e5fe6dce26401ff20b7a88ed90a6f", "fusion_lat": 0.0}, {"lon": -77.02793683333333, "name": "7a346ad8b37aaec16d4d1674d5de00e9", "is_disabled": 0, "type": "electric_scooter", "is_reserved": 0, "fusion_lon": 0.0, "lat": 38.93824016666667, "rental_uris": {"ios": "https://dc.lft.to/lastmile_qr_scan", "android": "https://dc.lft.to/lastmile_qr_scan"}, "bike_id": "7a346ad8b37aaec16d4d1674d5de00e9", "fusion_lat": 0.0}, {"lon": -77.0120795, "name": "c57428a9e367377f94f00efea414a860", "is_disabled": 0, "type": "electric_scooter", "is_reserved": 0, "fusion_lon": 0.0, "lat": 38.87087983333333, "rental_uris": {"ios": "https://dc.lft.to/lastmile_qr_scan", "android": "https://dc.lft.to/lastmile_qr_scan"}, "bike_id": "c57428a9e367377f94f00efea414a860", "fusion_lat": 0.0}, {"lon": -76.98519083333333, "name": "51f50e50f58b93404e137938490a99b4", "is_disabled": 0, "type": "electric_scooter", "is_reserved": 0, "fusion_lon": 0.0, "lat": 38.860062666666664, "rental_uris": {"ios": "https://dc.lft.to/lastmile_qr_scan", "android": "https://dc.lft.to/lastmile_qr_scan"}, "bike_id": "51f50e50f58b93404e137938490a99b4", "fusion_lat": 0.0}, {"lon": -77.02127766666666, "name": "3713a899de5737b29e91b90982d1303c", "is_disabled": 0, "type": "electric_scooter", "is_reserved": 0, "fusion_lon": 0.0, "lat": 38.92409116666666, "rental_uris": {"ios": "https://dc.lft.to/lastmile_qr_scan", "android": "https://dc.lft.to/lastmile_qr_scan"}, "bike_id": "3713a899de5737b29e91b90982d1303c", "fusion_lat": 0.0}, {"lon": -77.03470666666666, "name": "58ceda54944714aa4ee89db6c120af85", "is_disabled": 0, "type": "electric_scooter", "is_reserved": 0, "fusion_lon": 0.0, "lat": 38.92980583333333, "rental_uris": {"ios": "https://dc.lft.to/lastmile_qr_scan", "android": "https://dc.lft.to/lastmile_qr_scan"}, "bike_id": "58ceda54944714aa4ee89db6c120af85", "fusion_lat": 0.0}, {"lon": -77.03434633333333, "name": "fe3760de0c6b8cfce3e3d0adeb22f794", "is_disabled": 0, "type": "electric_scooter", "is_reserved": 0, "fusion_lon": 0.0, "lat": 38.921543166666666, "rental_uris": {"ios": "https://dc.lft.to/lastmile_qr_scan", "android": "https://dc.lft.to/lastmile_qr_scan"}, "bike_id": "fe3760de0c6b8cfce3e3d0adeb22f794", "fusion_lat": 0.0}, {"lon": -77.0341, "name": "6d6806afa2e62221561a542cef826406", "is_disabled": 0, "type": "electric_scooter", "is_reserved": 0, "fusion_lon": 0.0, "lat": 38.923453333333335, "rental_uris": {"ios": "https://dc.lft.to/lastmile_qr_scan", "android": "https://dc.lft.to/lastmile_qr_scan"}, "bike_id": "6d6806afa2e62221561a542cef826406", "fusion_lat": 0.0}, {"lon": -77.12905383333333, "name": "a33d770408a9dd65e9c79f98eb8c78ec", "is_disabled": 0, "type": "electric_bike", "is_reserved": 0, "fusion_lon": 0.0, "lat": 38.906196666666666, "rental_uris": {"ios": "https://dc.lft.to/lastmile_qr_scan", "android": "https://dc.lft.to/lastmile_qr_scan"}, "bike_id": "a33d770408a9dd65e9c79f98eb8c78ec", "fusion_lat": 0.0}, {"lon": -77.03213966666667, "name": "00027b0098ab51674ae042082dd62a85", "is_disabled": 0, "type": "electric_scooter", "is_reserved": 0, "fusion_lon": 0.0, "lat": 38.91615766666666, "rental_uris": {"ios": "https://dc.lft.to/lastmile_qr_scan", "android": "https://dc.lft.to/lastmile_qr_scan"}, "bike_id": "00027b0098ab51674ae042082dd62a85", "fusion_lat": 0.0}, {"lon": -77.0221575, "name": "17a736f281950171b37b69ac30755506", "is_disabled": 0, "type": "electric_scooter", "is_reserved": 0, "fusion_lon": 0.0, "lat": 38.92483566666667, "rental_uris": {"ios": "https://dc.lft.to/lastmile_qr_scan", "android": "https://dc.lft.to/lastmile_qr_scan"}, "bike_id": "17a736f281950171b37b69ac30755506", "fusion_lat": 0.0}, {"lon": -76.99792983333333, "name": "20ac92bdbc98c61a3c6211ef52fca985", "is_disabled": 0, "type": "electric_bike", "is_reserved": 0, "fusion_lon": 0.0, "lat": 38.9981465, "rental_uris": {"ios": "https://dc.lft.to/lastmile_qr_scan", "android": "https://dc.lft.to/lastmile_qr_scan"}, "bike_id": "20ac92bdbc98c61a3c6211ef52fca985", "fusion_lat": 0.0}, {"lon": -77.025468, "name": "addb770c0264f7542662a7a145beafcd", "is_disabled": 0, "type": "electric_scooter", "is_reserved": 0, "fusion_lon": 0.0, "lat": 38.922428833333335, "rental_uris": {"ios": "https://dc.lft.to/lastmile_qr_scan", "android": "https://dc.lft.to/lastmile_qr_scan"}, "bike_id": "addb770c0264f7542662a7a145beafcd", "fusion_lat": 0.0}, {"lon": -77.02107466666666, "name": "0afb61a674c2baf2804f31f068cf2040", "is_disabled": 0, "type": "electric_scooter", "is_reserved": 0, "fusion_lon": 0.0, "lat": 38.927840333333336, "rental_uris": {"ios": "https://dc.lft.to/lastmile_qr_scan", "android": "https://dc.lft.to/lastmile_qr_scan"}, "bike_id": "0afb61a674c2baf2804f31f068cf2040", "fusion_lat": 0.0}, {"lon": -77.03339366666667, "name": "7f52e3e16efbb2f5ee5f552cbe644377", "is_disabled": 0, "type": "electric_scooter", "is_reserved": 0, "fusion_lon": 0.0, "lat": 38.917993, "rental_uris": {"ios": "https://dc.lft.to/lastmile_qr_scan", "android": "https://dc.lft.to/lastmile_qr_scan"}, "bike_id": "7f52e3e16efbb2f5ee5f552cbe644377", "fusion_lat": 0.0}, {"lon": -77.02823133333334, "name": "972dfef563f6dbc7b4f6b5a3ccb0137c", "is_disabled": 0, "type": "electric_scooter", "is_reserved": 0, "fusion_lon": 0.0, "lat": 38.90706766666667, "rental_uris": {"ios": "https://dc.lft.to/lastmile_qr_scan", "android": "https://dc.lft.to/lastmile_qr_scan"}, "bike_id": "972dfef563f6dbc7b4f6b5a3ccb0137c", "fusion_lat": 0.0}, {"lon": -77.03189183333333, "name": "a4f3c2c71ed7a1896a4db1ba59de8411", "is_disabled": 0, "type": "electric_scooter", "is_reserved": 0, "fusion_lon": 0.0, "lat": 38.916269166666666, "rental_uris": {"ios": "https://dc.lft.to/lastmile_qr_scan", "android": "https://dc.lft.to/lastmile_qr_scan"}, "bike_id": "a4f3c2c71ed7a1896a4db1ba59de8411", "fusion_lat": 0.0}, {"lon": -76.98602816666667, "name": "8cfa5b885decce65b24aed3eef98f5c3", "is_disabled": 0, "type": "electric_scooter", "is_reserved": 0, "fusion_lon": 0.0, "lat": 38.906525, "rental_uris": {"ios": "https://dc.lft.to/lastmile_qr_scan", "android": "https://dc.lft.to/lastmile_qr_scan"}, "bike_id": "8cfa5b885decce65b24aed3eef98f5c3", "fusion_lat": 0.0}, {"lon": -77.0327625, "name": "281d81ec5ab9d98200fa804c817130f8", "is_disabled": 0, "type": "electric_scooter", "is_reserved": 0, "fusion_lon": 0.0, "lat": 38.898833, "rental_uris": {"ios": "https://dc.lft.to/lastmile_qr_scan", "android": "https://dc.lft.to/lastmile_qr_scan"}, "bike_id": "281d81ec5ab9d98200fa804c817130f8", "fusion_lat": 0.0}, {"lon": -76.990705, "name": "6ecf8a169f3ad90f6a544a90769082a3", "is_disabled": 0, "type": "electric_scooter", "is_reserved": 0, "fusion_lon": 0.0, "lat": 38.856271, "rental_uris": {"ios": "https://dc.lft.to/lastmile_qr_scan", "android": "https://dc.lft.to/lastmile_qr_scan"}, "bike_id": "6ecf8a169f3ad90f6a544a90769082a3", "fusion_lat": 0.0}, {"lon": -76.961066, "name": "7fff153762108c659455df5f4c2b23c7", "is_disabled": 0, "type": "electric_scooter", "is_reserved": 0, "fusion_lon": 0.0, "lat": 38.89202433333333, "rental_uris": {"ios": "https://dc.lft.to/lastmile_qr_scan", "android": "https://dc.lft.to/lastmile_qr_scan"}, "bike_id": "7fff153762108c659455df5f4c2b23c7", "fusion_lat": 0.0}, {"lon": -76.98377716666667, "name": "8e71a6afa7b0172eb8361b5c402d42e6", "is_disabled": 0, "type": "electric_scooter", "is_reserved": 0, "fusion_lon": 0.0, "lat": 38.906484666666664, "rental_uris": {"ios": "https://dc.lft.to/lastmile_qr_scan", "android": "https://dc.lft.to/lastmile_qr_scan"}, "bike_id": "8e71a6afa7b0172eb8361b5c402d42e6", "fusion_lat": 0.0}, {"lon": -77.02067833333334, "name": "82bcd45385a4f5c4ad117b9c350cbdcf", "is_disabled": 0, "type": "electric_scooter", "is_reserved": 0, "fusion_lon": 0.0, "lat": 38.9214075, "rental_uris": {"ios": "https://dc.lft.to/lastmile_qr_scan", "android": "https://dc.lft.to/lastmile_qr_scan"}, "bike_id": "82bcd45385a4f5c4ad117b9c350cbdcf", "fusion_lat": 0.0}, {"lon": -77.02454566666667, "name": "20a87ebd859748a7d8b75d9d6913faff", "is_disabled": 0, "type": "electric_scooter", "is_reserved": 0, "fusion_lon": 0.0, "lat": 38.893932166666666, "rental_uris": {"ios": "https://dc.lft.to/lastmile_qr_scan", "android": "https://dc.lft.to/lastmile_qr_scan"}, "bike_id": "20a87ebd859748a7d8b75d9d6913faff", "fusion_lat": 0.0}, {"lon": -76.98686233333333, "name": "c7dc66797c03e2058f54acfd14796a7b", "is_disabled": 0, "type": "electric_bike", "is_reserved": 0, "fusion_lon": 0.0, "lat": 38.944713, "rental_uris": {"ios": "https://dc.lft.to/lastmile_qr_scan", "android": "https://dc.lft.to/lastmile_qr_scan"}, "bike_id": "c7dc66797c03e2058f54acfd14796a7b", "fusion_lat": 0.0}, {"lon": -77.0210465, "name": "e7bd20ef7f21dc375dc96697ddf19742", "is_disabled": 0, "type": "electric_bike", "is_reserved": 0, "fusion_lon": 0.0, "lat": 39.02299266666667, "rental_uris": {"ios": "https://dc.lft.to/lastmile_qr_scan", "android": "https://dc.lft.to/lastmile_qr_scan"}, "bike_id": "e7bd20ef7f21dc375dc96697ddf19742", "fusion_lat": 0.0}, {"lon": -76.99897383333334, "name": "2fe7d81e2f9c13857db39154498ad852", "is_disabled": 0, "type": "electric_scooter", "is_reserved": 0, "fusion_lon": 0.0, "lat": 38.8909325, "rental_uris": {"ios": "https://dc.lft.to/lastmile_qr_scan", "android": "https://dc.lft.to/lastmile_qr_scan"}, "bike_id": "2fe7d81e2f9c13857db39154498ad852", "fusion_lat": 0.0}, {"lon": -77.09447083333333, "name": "e55b063c2ee391b53c2955857de3f0e9", "is_disabled": 0, "type": "electric_bike", "is_reserved": 0, "fusion_lon": 0.0, "lat": 38.89422783333333, "rental_uris": {"ios": "https://dc.lft.to/lastmile_qr_scan", "android": "https://dc.lft.to/lastmile_qr_scan"}, "bike_id": "e55b063c2ee391b53c2955857de3f0e9", "fusion_lat": 0.0}, {"lon": -76.986471, "name": "9dfac26e9875f41eaebbc021859ca7f8", "is_disabled": 0, "type": "electric_bike", "is_reserved": 0, "fusion_lon": 0.0, "lat": 38.974806666666666, "rental_uris": {"ios": "https://dc.lft.to/lastmile_qr_scan", "android": "https://dc.lft.to/lastmile_qr_scan"}, "bike_id": "9dfac26e9875f41eaebbc021859ca7f8", "fusion_lat": 0.0}, {"lon": -77.02314533333333, "name": "9171837b2bbf6709f4d8ac701fabb354", "is_disabled": 0, "type": "electric_scooter", "is_reserved": 0, "fusion_lon": 0.0, "lat": 38.918367, "rental_uris": {"ios": "https://dc.lft.to/lastmile_qr_scan", "android": "https://dc.lft.to/lastmile_qr_scan"}, "bike_id": "9171837b2bbf6709f4d8ac701fabb354", "fusion_lat": 0.0}, {"lon": -77.06052616666666, "name": "357db75c3b2bcfb54bc4baae5238f3c5", "is_disabled": 0, "type": "electric_scooter", "is_reserved": 0, "fusion_lon": 0.0, "lat": 38.93934566666667, "rental_uris": {"ios": "https://dc.lft.to/lastmile_qr_scan", "android": "https://dc.lft.to/lastmile_qr_scan"}, "bike_id": "357db75c3b2bcfb54bc4baae5238f3c5", "fusion_lat": 0.0}, {"lon": -77.000479, "name": "bc5cd3651008b62f263c5c912b1af80f", "is_disabled": 0, "type": "electric_scooter", "is_reserved": 0, "fusion_lon": 0.0, "lat": 38.887671833333336, "rental_uris": {"ios": "https://dc.lft.to/lastmile_qr_scan", "android": "https://dc.lft.to/lastmile_qr_scan"}, "bike_id": "bc5cd3651008b62f263c5c912b1af80f", "fusion_lat": 0.0}, {"lon": -77.08913283333334, "name": "6bcb449660611d980f3d84b6caf7451d", "is_disabled": 0, "type": "electric_bike", "is_reserved": 0, "fusion_lon": 0.0, "lat": 38.967310833333336, "rental_uris": {"ios": "https://dc.lft.to/lastmile_qr_scan", "android": "https://dc.lft.to/lastmile_qr_scan"}, "bike_id": "6bcb449660611d980f3d84b6caf7451d", "fusion_lat": 0.0}, {"lon": -77.01552966666667, "name": "fab5f71d0a7f33bb22261baa7575737d", "is_disabled": 0, "type": "electric_scooter", "is_reserved": 0, "fusion_lon": 0.0, "lat": 38.92793483333333, "rental_uris": {"ios": "https://dc.lft.to/lastmile_qr_scan", "android": "https://dc.lft.to/lastmile_qr_scan"}, "bike_id": "fab5f71d0a7f33bb22261baa7575737d", "fusion_lat": 0.0}, {"lon": -77.0421095, "name": "9dd1cdc3b2e82c1f4e9a687a128e22d9", "is_disabled": 0, "type": "electric_scooter", "is_reserved": 0, "fusion_lon": 0.0, "lat": 38.92623583333334, "rental_uris": {"ios": "https://dc.lft.to/lastmile_qr_scan", "android": "https://dc.lft.to/lastmile_qr_scan"}, "bike_id": "9dd1cdc3b2e82c1f4e9a687a128e22d9", "fusion_lat": 0.0}, {"lon": -77.02824183333334, "name": "ce02498f2c40c1726755b4cb8445f89e", "is_disabled": 0, "type": "electric_bike", "is_reserved": 0, "fusion_lon": 0.0, "lat": 38.96565016666667, "rental_uris": {"ios": "https://dc.lft.to/lastmile_qr_scan", "android": "https://dc.lft.to/lastmile_qr_scan"}, "bike_id": "ce02498f2c40c1726755b4cb8445f89e", "fusion_lat": 0.0}, {"lon": -77.01582616666667, "name": "74d28d3637c5cbcda3d47c92b8cded13", "is_disabled": 0, "type": "electric_scooter", "is_reserved": 0, "fusion_lon": 0.0, "lat": 38.916853333333336, "rental_uris": {"ios": "https://dc.lft.to/lastmile_qr_scan", "android": "https://dc.lft.to/lastmile_qr_scan"}, "bike_id": "74d28d3637c5cbcda3d47c92b8cded13", "fusion_lat": 0.0}, {"lon": -77.02823016666666, "name": "c4fa6daf753219989b0b3a334599ac93", "is_disabled": 0, "type": "electric_scooter", "is_reserved": 0, "fusion_lon": 0.0, "lat": 38.8866345, "rental_uris": {"ios": "https://dc.lft.to/lastmile_qr_scan", "android": "https://dc.lft.to/lastmile_qr_scan"}, "bike_id": "c4fa6daf753219989b0b3a334599ac93", "fusion_lat": 0.0}, {"lon": -76.99834416666667, "name": "ce5d540487c79e502c58e34bcf9c049e", "is_disabled": 0, "type": "electric_scooter", "is_reserved": 0, "fusion_lon": 0.0, "lat": 38.900566, "rental_uris": {"ios": "https://dc.lft.to/lastmile_qr_scan", "android": "https://dc.lft.to/lastmile_qr_scan"}, "bike_id": "ce5d540487c79e502c58e34bcf9c049e", "fusion_lat": 0.0}, {"lon": -77.054723, "name": "94b483e5923310b882009c966a9750e1", "is_disabled": 0, "type": "electric_scooter", "is_reserved": 0, "fusion_lon": 0.0, "lat": 38.9030585, "rental_uris": {"ios": "https://dc.lft.to/lastmile_qr_scan", "android": "https://dc.lft.to/lastmile_qr_scan"}, "bike_id": "94b483e5923310b882009c966a9750e1", "fusion_lat": 0.0}, {"lon": -77.07686, "name": "7d6ea5880139ec79e847b58bc911785d", "is_disabled": 0, "type": "electric_bike", "is_reserved": 0, "fusion_lon": 0.0, "lat": 38.8978705, "rental_uris": {"ios": "https://dc.lft.to/lastmile_qr_scan", "android": "https://dc.lft.to/lastmile_qr_scan"}, "bike_id": "7d6ea5880139ec79e847b58bc911785d", "fusion_lat": 0.0},