{"data": {"bikes": [{"fusion_lat": 0.0, "name": "abcedd841cac33b3f2405abfe98eb7ec", "is_disabled": 0, "rental_uris": {"android": "https://dc.lft.to/lastmile_qr_scan", "ios": "https://dc.lft.to/lastmile_qr_scan"}, "fusion_lon": 0.0, "lat": 38.935305166666666, "bike_id": "abcedd841cac33b3f2405abfe98eb7ec", "type": "electric_scooter", "is_reserved": 0, "lon": -77.02343766666667}, {"fusion_lat": 0.0, "name": "7aa4e50078514b62e26d3e4517ed37bb", "is_disabled": 0, "rental_uris": {"android": "https://dc.lft.to/lastmile_qr_scan", "ios": "https://dc.lft.to/lastmile_qr_scan"}, "fusion_lon": 0.0, "lat": 38.905135666666666, "bike_id": "7aa4e50078514b62e26d3e4517ed37bb", "type": "electric_scooter", "is_reserved": 0, "lon": -77.048181}, {"fusion_lat": 0.0, "name": "b33d44b3ded195061bc098c295086307", "is_disabled": 0, "rental_uris": {"android": "https://dc.lft.to/lastmile_qr_scan", "ios": "https://dc.lft.to/lastmile_qr_scan"}, "fusion_lon": 0.0, "lat": 38.892778666666665, "bike_id": "b33d44b3ded195061bc098c295086307", "type": "electric_scooter", "is_reserved": 0, "lon": -77.03187366666667}, {"fusion_lat": 0.0, "name": "66d94759a728a91f0355013cdf438b64", "is_disabled": 0, "rental_uris": {"android": "https://dc.lft.to/lastmile_qr_scan", "ios": "https://dc.lft.to/lastmile_qr_scan"}, "fusion_lon": 0.0, "lat": 38.931401, "bike_id": "66d94759a728a91f0355013cdf438b64", "type": "electric_scooter", "is_reserved": 0, "lon": -77.02140216666666}, {"fusion_lat": 0.0, "name": "132393611bc77ac5e384a24a713b952f", "is_disabled": 0, "rental_uris": {"android": "https://dc.lft.to/lastmile_qr_scan", "ios": "https://dc.lft.to/lastmile_qr_scan"}, "fusion_lon": 0.0, "lat": 38.92296183333333, "bike_id": "132393611bc77ac5e384a24a713b952f", "type": "electric_scooter", "is_reserved": 0, "lon": -77.04202266666667}, {"fusion_lat": 0.0, "name": "9bdefae1c8303606012b2985da1c13fc", "is_disabled": 0, "rental_uris": {"android": "https://dc.lft.to/lastmile_qr_scan", "ios": "https://dc.lft.to/lastmile_qr_scan"}, "fusion_lon": 0.0, "lat": 38.9024215, "bike_id": "9bdefae1c8303606012b2985da1c13fc", "type": "electric_scooter", "is_reserved": 0, "lon": -77.00198033333334}, {"fusion_lat": 0.0, "name": "1100f034b9f6b19a818708284d29e658", "is_disabled": 0, "rental_uris": {"android": "https://dc.lft.to/lastmile_qr_scan", "ios": "https://dc.lft.to/lastmile_qr_scan"}, "fusion_lon": 0.0, "lat": 38.926532, "bike_id": "1100f034b9f6b19a818708284d29e658", "type": "electric_scooter", "is_reserved": 0, "lon": -77.0413675}, {"fusion_lat": 0.0, "name": "7a47959da23553688874a8975dfcf90c", "is_disabled": 0, "rental_uris": {"android": "https://dc.lft.to/lastmile_qr_scan", "ios": "https://dc.lft.to/lastmile_qr_scan"}, "fusion_lon": 0.0, "lat": 38.87377033333333, "bike_id": "7a47959da23553688874a8975dfcf90c", "type": "electric_scooter", "is_reserved": 0, "lon": -77.00066816666667}, {"fusion_lat": 0.0, "name": "854e9382439a3005d7cff59dd6fbe15e", "is_disabled": 0, "rental_uris": {"android": "https://dc.lft.to/lastmile_qr_scan", "ios": "https://dc.lft.to/lastmile_qr_scan"}, "fusion_lon": 0.0, "lat": 38.909741, "bike_id": "854e9382439a3005d7cff59dd6fbe15e", "type": "electric_scooter", "is_reserved": 0, "lon": -77.03449933333333}, {"fusion_lat": 0.0, "name": "ca6be2e6f012ed7282f7fb69a922d089", "is_disabled": 0, "rental_uris": {"android": "https://dc.lft.to/lastmile_qr_scan", "ios": "https://dc.lft.to/lastmile_qr_scan"}, "fusion_lon": 0.0, "lat": 38.89472, "bike_id": "ca6be2e6f012ed7282f7fb69a922d089", "type": "electric_scooter", "is_reserved": 0, "lon": -77.01767683333334}, {"fusion_lat": 0.0, "name": "773d60b3677f08b6eaab316c4abe3409", "is_disabled": 0, "rental_uris": {"android": "https://dc.lft.to/lastmile_qr_scan", "ios": "https://dc.lft.to/lastmile_qr_scan"}, "fusion_lon": 0.0, "lat": 38.907616, "bike_id": "773d60b3677f08b6eaab316c4abe3409", "type": "electric_scooter", "is_reserved": 0, "lon": -77.03574516666667}, {"fusion_lat": 0.0, "name": "a84e20a4987a22b7425e82923b630cbf", "is_disabled": 0, "rental_uris": {"android": "https://dc.lft.to/lastmile_qr_scan", "ios": "https://dc.lft.to/lastmile_qr_scan"}, "fusion_lon": 0.0, "lat": 38.88743133333333, "bike_id": "a84e20a4987a22b7425e82923b630cbf", "type": "electric_scooter", "is_reserved": 0, "lon": -77.02225583333333}, {"fusion_lat": 0.0, "name": "d92025cb8e04b4d9c205e3d205d844f8", "is_disabled": 0, "rental_uris": {"android": "https://dc.lft.to/lastmile_qr_scan", "ios": "https://dc.lft.to/lastmile_qr_scan"}, "fusion_lon": 0.0, "lat": 38.92336066666667, "bike_id": "d92025cb8e04b4d9c205e3d205d844f8", "type": "electric_scooter", "is_reserved": 0, "lon": -77.03614133333333}, {"fusion_lat": 0.0, "name": "7da25428eaeb2a9c33e349552c2b2f7f", "is_disabled": 0, "rental_uris": {"android": "https://dc.lft.to/lastmile_qr_scan", "ios": "https://dc.lft.to/lastmile_qr_scan"}, "fusion_lon": 0.0, "lat": 38.909656166666664, "bike_id": "7da25428eaeb2a9c33e349552c2b2f7f", "type": "electric_scooter", "is_reserved": 0, "lon": -77.0460685}, {"fusion_lat": 0.0, "name": "86e6d41839baf47e2db8f058aeb7ecc8", "is_disabled": 0, "rental_uris": {"android": "https://dc.lft.to/lastmile_qr_scan", "ios": "https://dc.lft.to/lastmile_qr_scan"}, "fusion_lon": 0.0, "lat": 38.919832166666666, "bike_id": "86e6d41839baf47e2db8f058aeb7ecc8", "type": "electric_scooter", "is_reserved": 0, "lon": -77.04082116666666}, {"fusion_lat": 0.0, "name": "a142480712f9f4aae885e861f988a056", "is_disabled": 0, "rental_uris": {"android": "https://dc.lft.to/lastmile_qr_scan", "ios": "https://dc.lft.to/lastmile_qr_scan"}, "fusion_lon": 0.0, "lat": 38.992259833333335, "bike_id": "a142480712f9f4aae885e861f988a056", "type": "electric_bike", "is_reserved": 0, "lon": -76.94408433333334}, {"fusion_lat": 0.0, "name": "850433596d128aa5b93d005daf82800e", "is_disabled": 0, "rental_uris": {"android": "https://dc.lft.to/lastmile_qr_scan", "ios": "https://dc.lft.to/lastmile_qr_scan"}, "fusion_lon": 0.0, "lat": 38.903714666666666, "bike_id": "850433596d128aa5b93d005daf82800e", "type": "electric_scooter", "is_reserved": 0, "lon": -77.0365955}, {"fusion_lat": 0.0, "name": "54786bc9e4f44ee93b3c5098d0c0e6bb", "is_disabled": 0, "rental_uris": {"android": "https://dc.lft.to/lastmile_qr_scan", "ios": "https://dc.lft.to/lastmile_qr_scan"}, "fusion_lon": 0.0, "lat": 38.93083416666666, "bike_id": "54786bc9e4f44ee93b3c5098d0c0e6bb", "type": "electric_scooter", "is_reserved": 0, "lon": -77.0365295}, {"fusion_lat": 0.0, "name": "8ae201505a828b31505175e4e3ff5f12", "is_disabled": 0, "rental_uris": {"android": "https://dc.lft.to/lastmile_qr_scan", "ios": "https://dc.lft.to/lastmile_qr_scan"}, "fusion_lon": 0.0, "lat": 38.90842133333334, "bike_id": "8ae201505a828b31505175e4e3ff5f12", "type": "electric_scooter", "is_reserved": 0, "lon": -77.0269135}, {"fusion_lat": 0.0, "name": "bb346f08978fdce6aa7be362cf0adb16", "is_disabled": 0, "rental_uris": {"android": "https://dc.lft.to/lastmile_qr_scan", "ios": "https://dc.lft.to/lastmile_qr_scan"}, "fusion_lon": 0.0, "lat": 38.877376166666664, "bike_id": "bb346f08978fdce6aa7be362cf0adb16", "type": "electric_scooter", "is_reserved": 0, "lon": -76.97030533333333}, {"fusion_lat": 0.0, "name": "275d3afc0c288205316bcc591870688c", "is_disabled": 0, "rental_uris": {"android": "https://dc.lft.to/lastmile_qr_scan", "ios": "https://dc.lft.to/lastmile_qr_scan"}, "fusion_lon": 0.0, "lat": 38.98473666666667, "bike_id": "275d3afc0c288205316bcc591870688c", "type": "electric_scooter", "is_reserved": 0, "lon": -77.02639516666666}, {"fusion_lat": 0.0, "name": "98af6959b541cedf8ae32df93dd5b1cf", "is_disabled": 0, "rental_uris": {"android": "https://dc.lft.to/lastmile_qr_scan", "ios": "https://dc.lft.to/lastmile_qr_scan"}, "fusion_lon": 0.0, "lat": 38.854384333333336, "bike_id": "98af6959b541cedf8ae32df93dd5b1cf", "type": "electric_bike", "is_reserved": 0, "lon": -77.0533975}, {"fusion_lat": 0.0, "name": "41ee3caa0dd61c42e0208c78c17600d4", "is_disabled": 0, "rental_uris": {"android": "https://dc.lft.to/lastmile_qr_scan", "ios": "https://dc.lft.to/lastmile_qr_scan"}, "fusion_lon": 0.0, "lat": 38.92132433333333, "bike_id": "41ee3caa0dd61c42e0208c78c17600d4", "type": "electric_scooter", "is_reserved": 0, "lon": -77.00401666666667}, {"fusion_lat": 0.0, "name": "292e07b23466245410f78d32d7bc950a", "is_disabled": 0, "rental_uris": {"android": "https://dc.lft.to/lastmile_qr_scan", "ios": "https://dc.lft.to/lastmile_qr_scan"}, "fusion_lon": 0.0, "lat": 38.90125966666667, "bike_id": "292e07b23466245410f78d32d7bc950a", "type": "electric_scooter", "is_reserved": 0, "lon": -77.04139933333333}, {"fusion_lat": 0.0, "name": "c43ab1b0405a2d455e4737655cd08d11", "is_disabled": 0, "rental_uris": {"android": "https://dc.lft.to/lastmile_qr_scan", "ios": "https://dc.lft.to/lastmile_qr_scan"}, "fusion_lon": 0.0, "lat": 38.904384, "bike_id": "c43ab1b0405a2d455e4737655cd08d11", "type": "electric_scooter", "is_reserved": 0, "lon": -77.02597533333334}, {"fusion_lat": 0.0, "name": "57f82073f1bae0d9c1075024bf1ce091", "is_disabled": 0, "rental_uris": {"android": "https://dc.lft.to/lastmile_qr_scan", "ios": "https://dc.lft.to/lastmile_qr_scan"}, "fusion_lon": 0.0, "lat": 38.92763466666667, "bike_id": "57f82073f1bae0d9c1075024bf1ce091", "type": "electric_scooter", "is_reserved": 0, "lon": -77.0230715}, {"fusion_lat": 0.0, "name": "9fdf8efc564e5fc489544baa9e6e8795", "is_disabled": 0, "rental_uris": {"android": "https://dc.lft.to/lastmile_qr_scan", "ios": "https://dc.lft.to/lastmile_qr_scan"}, "fusion_lon": 0.0, "lat": 38.91400816666667, "bike_id": "9fdf8efc564e5fc489544baa9e6e8795", "type": "electric_scooter", "is_reserved": 0, "lon": -77.03177716666667}, {"fusion_lat": 0.0, "name": "f3e1169f236352a6aa7d2dc684bec8e5", "is_disabled": 0, "rental_uris": {"android": "https://dc.lft.to/lastmile_qr_scan", "ios": "https://dc.lft.to/lastmile_qr_scan"}, "fusion_lon": 0.0, "lat": 38.92318733333333, "bike_id": "f3e1169f236352a6aa7d2dc684bec8e5", "type": "electric_scooter", "is_reserved": 0, "lon": -77.04127333333334}, {"fusion_lat": 0.0, "name": "a4bbc17205a2a3a0f912825cf5549dba", "is_disabled": 0, "rental_uris": {"android": "https://dc.lft.to/lastmile_qr_scan", "ios": "https://dc.lft.to/lastmile_qr_scan"}, "fusion_lon": 0.0, "lat": 38.919276333333336, "bike_id": "a4bbc17205a2a3a0f912825cf5549dba", "type": "electric_scooter", "is_reserved": 0, "lon": -77.02435383333334}, {"fusion_lat": 0.0, "name": "128ba5427ab41fddf57512280f842f1f", "is_disabled": 0, "rental_uris": {"android": "https://dc.lft.to/lastmile_qr_scan", "ios": "https://dc.lft.to/lastmile_qr_scan"}, "fusion_lon": 0.0, "lat": 38.910299, "bike_id": "128ba5427ab41fddf57512280f842f1f", "type": "electric_scooter", "is_reserved": 0, "lon": -77.0342405}, {"fusion_lat": 0.0, "name": "6d000315564da611fb066ce2ca515647", "is_disabled": 0, "rental_uris": {"android": "https://dc.lft.to/lastmile_qr_scan", "ios": "https://dc.lft.to/lastmile_qr_scan"}, "fusion_lon": 0.0, "lat": 38.909262, "bike_id": "6d000315564da611fb066ce2ca515647", "type": "electric_scooter", "is_reserved": 0, "lon": -77.02303466666666}, {"fusion_lat": 0.0, "name": "9574e0d79a12ab0898172ad764199a23", "is_disabled": 0, "rental_uris": {"android": "https://dc.lft.to/lastmile_qr_scan", "ios": "https://dc.lft.to/lastmile_qr_scan"}, "fusion_lon": 0.0, "lat": 38.918215333333336, "bike_id": "9574e0d79a12ab0898172ad764199a23", "type": "electric_scooter", "is_reserved": 0, "lon": -77.02708533333333}, {"fusion_lat": 0.0, "name": "df93d09d046b4d95495e61b2d094b478", "is_disabled": 0, "rental_uris": {"android": "https://dc.lft.to/lastmile_qr_scan", "ios": "https://dc.lft.to/lastmile_qr_scan"}, "fusion_lon": 0.0, "lat": 38.917480166666664, "bike_id": "df93d09d046b4d95495e61b2d094b478", "type": "electric_scooter", "is_reserved": 0, "lon": -77.03185833333333}, {"fusion_lat": 0.0, "name": "30f9f50b3b58bc52792fbec07cf5d642", "is_disabled": 0, "rental_uris": {"android": "https://dc.lft.to/lastmile_qr_scan", "ios": "https://dc.lft.to/lastmile_qr_scan"}, "fusion_lon": 0.0, "lat": 38.899381166666664, "bike_id": "30f9f50b3b58bc52792fbec07cf5d642", "type": "electric_scooter", "is_reserved": 0, "lon": -77.04878233333334}, {"fusion_lat": 0.0, "name": "90274204894b837c0255bec451c07389", "is_disabled": 0, "rental_uris": {"android": "https://dc.lft.to/lastmile_qr_scan", "ios": "https://dc.lft.to/lastmile_qr_scan"}, "fusion_lon": 0.0, "lat": 38.91122566666667, "bike_id": "90274204894b837c0255bec451c07389", "type": "electric_scooter", "is_reserved": 0, "lon": -77.011584}, {"fusion_lat": 0.0, "name": "84a6b4296c13dd28a1612281877fec90", "is_disabled": 0, "rental_uris": {"android": "https://dc.lft.to/lastmile_qr_scan", "ios": "https://dc.lft.to/lastmile_qr_scan"}, "fusion_lon": 0.0, "lat": 38.9079595, "bike_id": "84a6b4296c13dd28a1612281877fec90", "type": "electric_scooter", "is_reserved": 0, "lon": -77.04290833333333}, {"fusion_lat": 0.0, "name": "ef417891427d0509d40ab17dd08ee49d", "is_disabled": 0, "rental_uris": {"android": "https://dc.lft.to/lastmile_qr_scan", "ios": "https://dc.lft.to/lastmile_qr_scan"}, "fusion_lon": 0.0, "lat": 38.85803333333333, "bike_id": "ef417891427d0509d40ab17dd08ee49d", "type": "electric_bike", "is_reserved": 0, "lon": -77.05134883333334}, {"fusion_lat": 0.0, "name": "d58af9252d8f5b68ee4024291d1f08a0", "is_disabled": 0, "rental_uris": {"android": "https://dc.lft.to/lastmile_qr_scan", "ios": "https://dc.lft.to/lastmile_qr_scan"}, "fusion_lon": 0.0, "lat": 38.94414483333333, "bike_id": "d58af9252d8f5b68ee4024291d1f08a0", "type": "electric_scooter", "is_reserved": 0, "lon": -77.06322116666666}, {"fusion_lat": 0.0, "name": "6a9ce0231a38c4ad520fd0cab961e557", "is_disabled": 0, "rental_uris": {"android": "https://dc.lft.to/lastmile_qr_scan", "ios": "https://dc.lft.to/lastmile_qr_scan"}, "fusion_lon": 0.0, "lat": 38.936082166666665, "bike_id": "6a9ce0231a38c4ad520fd0cab961e557", "type": "electric_scooter", "is_reserved": 0, "lon": -77.058577}, {"fusion_lat": 0.0, "name": "aed10c533c09d4158a0154788db2f20b", "is_disabled": 0, "rental_uris": {"android": "https://dc.lft.to/lastmile_qr_scan", "ios": "https://dc.lft.to/lastmile_qr_scan"}, "fusion_lon": 0.0, "lat": 38.92126433333333, "bike_id": "aed10c533c09d4158a0154788db2f20b", "type": "electric_scooter", "is_reserved": 0, "lon": -77.045803}, {"fusion_lat": 0.0, "name": "435d8100fd9a1007b949568e7d652af9", "is_disabled": 0, "rental_uris": {"android": "https://dc.lft.to/lastmile_qr_scan", "ios": "https://dc.lft.to/lastmile_qr_scan"}, "fusion_lon": 0.0, "lat": 38.90331833333333, "bike_id": "435d8100fd9a1007b949568e7d652af9", "type": "electric_bike", "is_reserved": 0, "lon": -76.97529033333333}, {"fusion_lat": 0.0, "name": "42ca3cccb578c9a23bb814a20cdcbdae", "is_disabled": 0, "rental_uris": {"android": "https://dc.lft.to/lastmile_qr_scan", "ios": "https://dc.lft.to/lastmile_qr_scan"}, "fusion_lon": 0.0, "lat": 38.84286016666667, "bike_id": "42ca3cccb578c9a23bb814a20cdcbdae", "type": "electric_bike", "is_reserved": 0, "lon": -77.04490966666667}, {"fusion_lat": 0.0, "name": "3cae2481acd4da7a5edb3d157d2e93ac", "is_disabled": 0, "rental_uris": {"android": "https://dc.lft.to/lastmile_qr_scan", "ios": "https://dc.lft.to/lastmile_qr_scan"}, "fusion_lon": 0.0, "lat": 38.928120666666665, "bike_id": "3cae2481acd4da7a5edb3d157d2e93ac", "type": "electric_scooter", "is_reserved": 0, "lon": -77.02329416666667}, {"fusion_lat": 0.0, "name": "fdbf308e073bfc7fff25df938c0cd77d", "is_disabled": 0, "rental_uris": {"android": "https://dc.lft.to/lastmile_qr_scan", "ios": "https://dc.lft.to/lastmile_qr_scan"}, "fusion_lon": 0.0, "lat": 38.89229383333333, "bike_id": "fdbf308e073bfc7fff25df938c0cd77d", "type": "electric_scooter", "is_reserved": 0, "lon": -77.046519}, {"fusion_lat": 0.0, "name": "de583f0fb9ff1f0f19f79c874939da27", "is_disabled": 0, "rental_uris": {"android": "https://dc.lft.to/lastmile_qr_scan", "ios": "https://dc.lft.to/lastmile_qr_scan"}, "fusion_lon": 0.0, "lat": 38.94336916666666, "bike_id": "de583f0fb9ff1f0f19f79c874939da27", "type": "electric_scooter", "is_reserved": 0, "lon": -77.03245716666666}, {"fusion_lat": 0.0, "name": "8b291ef5bf59537fa80ce135ae0c8237", "is_disabled": 0, "rental_uris": {"android": "https://dc.lft.to/lastmile_qr_scan", "ios": "https://dc.lft.to/lastmile_qr_scan"}, "fusion_lon": 0.0, "lat": 38.9221785, "bike_id": "8b291ef5bf59537fa80ce135ae0c8237", "type": "electric_scooter", "is_reserved": 0, "lon": -76.99632066666666}, {"fusion_lat": 0.0, "name": "ac9b1b02f0b85debded4424774c63678", "is_disabled": 0, "rental_uris": {"android": "https://dc.lft.to/lastmile_qr_scan", "ios": "https://dc.lft.to/lastmile_qr_scan"}, "fusion_lon": 0.0, "lat": 38.90735166666666, "bike_id": "ac9b1b02f0b85debded4424774c63678", "type": "electric_scooter", "is_reserved": 0, "lon": -77.03457016666667}, {"fusion_lat": 0.0, "name": "77c2bba65162f44844652514aef57b96", "is_disabled": 0, "rental_uris": {"android": "https://dc.lft.to/lastmile_qr_scan", "ios": "https://dc.lft.to/lastmile_qr_scan"}, "fusion_lon": 0.0, "lat": 38.92754583333333, "bike_id": "77c2bba65162f44844652514aef57b96", "type": "electric_scooter", "is_reserved": 0, "lon": -77.024511}, {"fusion_lat": 0.0, "name": "77a4d109e95130f3dd76292eb82f2815", "is_disabled": 0, "rental_uris": {"android": "https://dc.lft.to/lastmile_qr_scan", "ios": "https://dc.lft.to/lastmile_qr_scan"}, "fusion_lon": 0.0, "lat": 38.8985415, "bike_id": "77a4d109e95130f3dd76292eb82f2815", "type": "electric_scooter", "is_reserved": 0, "lon": -77.03935366666667}, {"fusion_lat": 0.0, "name": "938486b20fc6d50278a0c46d9ff4596c", "is_disabled": 0, "rental_uris": {"android": "https://dc.lft.to/lastmile_qr_scan", "ios": "https://dc.lft.to/lastmile_qr_scan"}, "fusion_lon": 0.0, "lat": 38.9038025, "bike_id": "938486b20fc6d50278a0c46d9ff4596c", "type": "electric_scooter", "is_reserved": 0, "lon": -77.04817116666666}, {"fusion_lat": 0.0, "name": "0877174352f4319432e621ad1a9a305c", "is_disabled": 0, "rental_uris": {"android": "https://dc.lft.to/lastmile_qr_scan", "ios": "https://dc.lft.to/lastmile_qr_scan"}, "fusion_lon": 0.0, "lat": 38.9060115, "bike_id": "0877174352f4319432e621ad1a9a305c", "type": "electric_scooter", "is_reserved": 0, "lon": -77.00631383333334}, {"fusion_lat": 0.0, "name": "d1ca602aef0504d70fea4e6917a8391a", "is_disabled": 0, "rental_uris": {"android": "https://dc.lft.to/lastmile_qr_scan", "ios": "https://dc.lft.to/lastmile_qr_scan"}, "fusion_lon": 0.0, "lat": 38.9203845, "bike_id": "d1ca602aef0504d70fea4e6917a8391a", "type": "electric_scooter", "is_reserved": 0, "lon": -77.025858}, {"fusion_lat": 0.0, "name": "e2663873024a200220e17dabc017f3a8", "is_disabled": 0, "rental_uris": {"android": "https://dc.lft.to/lastmile_qr_scan", "ios": "https://dc.lft.to/lastmile_qr_scan"}, "fusion_lon": 0.0, "lat": 38.904116333333334, "bike_id": "e2663873024a200220e17dabc017f3a8", "type": "electric_scooter", "is_reserved": 0, "lon": -76.9733355}, {"fusion_lat": 0.0, "name": "43f8c6c954232f6194ffd6dba1c21213", "is_disabled": 0, "rental_uris": {"android": "https://dc.lft.to/lastmile_qr_scan", "ios": "https://dc.lft.to/lastmile_qr_scan"}, "fusion_lon": 0.0, "lat": 38.905844333333334, "bike_id": "43f8c6c954232f6194ffd6dba1c21213", "type": "electric_scooter", "is_reserved": 0, "lon": -77.0454335}, {"fusion_lat": 0.0, "name": "94a7e4e6ae718a9eeb13036f0a75f42a", "is_disabled": 0, "rental_uris": {"android": "https://dc.lft.to/lastmile_qr_scan", "ios": "https://dc.lft.to/lastmile_qr_scan"}, "fusion_lon": 0.0, "lat": 38.9208325, "bike_id": "94a7e4e6ae718a9eeb13036f0a75f42a", "type": "electric_scooter", "is_reserved": 0, "lon": -77.0409845}, {"fusion_lat": 0.0, "name": "77b1dfb98751a5643281b9619bed9cf7", "is_disabled": 0, "rental_uris": {"android": "https://dc.lft.to/lastmile_qr_scan", "ios": "https://dc.lft.to/lastmile_qr_scan"}, "fusion_lon": 0.0, "lat": 38.9977395, "bike_id": "77b1dfb98751a5643281b9619bed9cf7", "type": "electric_bike", "is_reserved": 0, "lon": -77.0471515}, {"fusion_lat": 0.0, "name": "b66bedb97214fb82f1621a79c155a0c5", "is_disabled": 0, "rental_uris": {"android": "https://dc.lft.to/lastmile_qr_scan", "ios": "https://dc.lft.to/lastmile_qr_scan"}, "fusion_lon": 0.0, "lat": 38.807592166666666, "bike_id": "b66bedb97214fb82f1621a79c155a0c5", "type": "electric_bike", "is_reserved": 0, "lon": -77.09468166666667}, {"fusion_lat": 0.0, "name": "41b772f70a1763ce39a53e3d4d62f6e7", "is_disabled": 0, "rental_uris": {"android": "https://dc.lft.to/lastmile_qr_scan", "ios": "https://dc.lft.to/lastmile_qr_scan"}, "fusion_lon": 0.0, "lat": 38.92059483333333, "bike_id": "41b772f70a1763ce39a53e3d4d62f6e7", "type": "electric_scooter", "is_reserved": 0, "lon": -77.03236966666667}, {"fusion_lat": 0.0, "name": "a3bc6cc2f7dfa18bbfeb8f14f2df1ca3", "is_disabled": 0, "rental_uris": {"android": "https://dc.lft.to/lastmile_qr_scan", "ios": "https://dc.lft.to/lastmile_qr_scan"}, "fusion_lon": 0.0, "lat": 38.91664083333333, "bike_id": "a3bc6cc2f7dfa18bbfeb8f14f2df1ca3", "type": "electric_scooter", "is_reserved": 0, "lon": -77.03851916666666}, {"fusion_lat": 0.0, "name": "9628635abecb53ab6c2f629c1e728e4f", "is_disabled": 0, "rental_uris": {"android": "https://dc.lft.to/lastmile_qr_scan", "ios": "https://dc.lft.to/lastmile_qr_scan"}, "fusion_lon": 0.0, "lat": 38.900077, "bike_id": "9628635abecb53ab6c2f629c1e728e4f", "type": "electric_scooter", "is_reserved": 0, "lon": -77.0219795}, {"fusion_lat": 0.0, "name": "6cee1fe75b65af13bdfad4585f86bc37", "is_disabled": 0, "rental_uris": {"android": "https://dc.lft.to/lastmile_qr_scan", "ios": "https://dc.lft.to/lastmile_qr_scan"}, "fusion_lon": 0.0, "lat": 38.8953365, "bike_id": "6cee1fe75b65af13bdfad4585f86bc37", "type": "electric_scooter", "is_reserved": 0, "lon": -77.011105}, {"fusion_lat": 0.0, "name": "55febe2b9378257234eb7fd498189762", "is_disabled": 0, "rental_uris": {"android": "https://dc.lft.to/lastmile_qr_scan", "ios": "https://dc.lft.to/lastmile_qr_scan"}, "fusion_lon": 0.0, "lat": 38.915541833333336, "bike_id": "55febe2b9378257234eb7fd498189762", "type": "electric_scooter", "is_reserved": 0, "lon": -77.03860566666667}, {"fusion_lat": 0.0, "name": "1032b00a5e3cec411db0883e9f3565a0", "is_disabled": 0, "rental_uris": {"android": "https://dc.lft.to/lastmile_qr_scan", "ios": "https://dc.lft.to/lastmile_qr_scan"}, "fusion_lon": 0.0, "lat": 38.91974416666667, "bike_id": "1032b00a5e3cec411db0883e9f3565a0", "type": "electric_scooter", "is_reserved": 0, "lon": -77.0237435}, {"fusion_lat": 0.0, "name": "98a30fb041abf3e3df39e5f42c232487", "is_disabled": 0, "rental_uris": {"android": "https://dc.lft.to/lastmile_qr_scan", "ios": "https://dc.lft.to/lastmile_qr_scan"}, "fusion_lon": 0.0, "lat": 38.898550666666665, "bike_id": "98a30fb041abf3e3df39e5f42c232487", "type": "electric_scooter", "is_reserved": 0, "lon": -77.039403}, {"fusion_lat": 0.0, "name": "46f5cbb9d96c27a57cfe377856db0a2f", "is_disabled": 0, "rental_uris": {"android": "https://dc.lft.to/lastmile_qr_scan", "ios": "https://dc.lft.to/lastmile_qr_scan"}, "fusion_lon": 0.0, "lat": 38.932395, "bike_id": "46f5cbb9d96c27a57cfe377856db0a2f", "type": "electric_bike", "is_reserved": 0, "lon": -76.97422016666667}, {"fusion_lat": 0.0, "name": "1e0997cd45dce7784e7ede865254eef4", "is_disabled": 0, "rental_uris": {"android": "https://dc.lft.to/lastmile_qr_scan", "ios": "https://dc.lft.to/lastmile_qr_scan"}, "fusion_lon": 0.0, "lat": 38.89673166666667, "bike_id": "1e0997cd45dce7784e7ede865254eef4", "type": "electric_scooter", "is_reserved": 0, "lon": -76.93209333333333}, {"fusion_lat": 0.0, "name": "96a7607c9a4f44384a4a9f023b987e33", "is_disabled": 0, "rental_uris": {"android": "https://dc.lft.to/lastmile_qr_scan", "ios": "https://dc.lft.to/lastmile_qr_scan"}, "fusion_lon": 0.0, "lat": 38.90516233333334, "bike_id": "96a7607c9a4f44384a4a9f023b987e33", "type": "electric_scooter", "is_reserved": 0, "lon": -77.067859}, {"fusion_lat": 0.0, "name": "cfc1666efc5f2e8d4ea30cd8ed0a60cb", "is_disabled": 0, "rental_uris": {"android": "https://dc.lft.to/lastmile_qr_scan", "ios": "https://dc.lft.to/lastmile_qr_scan"}, "fusion_lon": 0.0, "lat": 38.93485483333333, "bike_id": "cfc1666efc5f2e8d4ea30cd8ed0a60cb", "type": "electric_scooter", "is_reserved": 0, "lon": -77.045336}, {"fusion_lat": 0.0, "name": "0d00c34057e44ef8332f30988ab0bb83", "is_disabled": 0, "rental_uris": {"android": "https://dc.lft.to/lastmile_qr_scan", "ios": "https://dc.lft.to/lastmile_qr_scan"}, "fusion_lon": 0.0, "lat": 38.90962733333333, "bike_id": "0d00c34057e44ef8332f30988ab0bb83", "type": "electric_scooter", "is_reserved": 0, "lon": -77.0324775}, {"fusion_lat": 0.0, "name": "e21d085f1c793dec3b52336a12c0053d", "is_disabled": 0, "rental_uris": {"android": "https://dc.lft.to/lastmile_qr_scan", "ios": "https://dc.lft.to/lastmile_qr_scan"}, "fusion_lon": 0.0, "lat": 38.924712666666665, "bike_id": "e21d085f1c793dec3b52336a12c0053d", "type": "electric_bike", "is_reserved": 0, "lon": -77.23357}, {"fusion_lat": 0.0, "name": "31ee469b455479c3113c9fd572cb3e5a", "is_disabled": 0, "rental_uris": {"android": "https://dc.lft.to/lastmile_qr_scan", "ios": "https://dc.lft.to/lastmile_qr_scan"}, "fusion_lon": 0.0, "lat": 38.907283666666665, "bike_id": "31ee469b455479c3113c9fd572cb3e5a", "type": "electric_scooter", "is_reserved": 0, "lon": -77.031747}, {"fusion_lat": 0.0, "name": "1b9fd29ae48343ffac5713b0f2f36d5a", "is_disabled": 0, "rental_uris": {"android": "https://dc.lft.to/lastmile_qr_scan", "ios": "https://dc.lft.to/lastmile_qr_scan"}, "fusion_lon": 0.0, "lat": 38.932673, "bike_id": "1b9fd29ae48343ffac5713b0f2f36d5a", "type": "electric_scooter", "is_reserved": 0, "lon": -77.01909933333333}, {"fusion_lat": 0.0, "name": "2d437489d240d4aeb351a1d52e73890d", "is_disabled": 0, "rental_uris": {"android": "https://dc.lft.to/lastmile_qr_scan", "ios": "https://dc.lft.to/lastmile_qr_scan"}, "fusion_lon": 0.0, "lat": 38.89829233333333, "bike_id": "2d437489d240d4aeb351a1d52e73890d", "type": "electric_scooter", "is_reserved": 0, "lon": -77.02810033333333}, {"fusion_lat": 0.0, "name": "a8d807b8cf91d57d6932dd7389d240d7", "is_disabled": 0, "rental_uris": {"android": "https://dc.lft.to/lastmile_qr_scan", "ios": "https://dc.lft.to/lastmile_qr_scan"}, "fusion_lon": 0.0, "lat": 38.912700666666666, "bike_id": "a8d807b8cf91d57d6932dd7389d240d7", "type": "electric_scooter", "is_reserved": 0, "lon": -77.03184216666666}, {"fusion_lat": 0.0, "name": "de5b0f84d636dc93d5cf5a1a3c7b4b0f", "is_disabled": 0, "rental_uris": {"android": "https://dc.lft.to/lastmile_qr_scan", "ios": "https://dc.lft.to/lastmile_qr_scan"}, "fusion_lon": 0.0, "lat": 38.9317155, "bike_id": "de5b0f84d636dc93d5cf5a1a3c7b4b0f", "type": "electric_scooter", "is_reserved": 0, "lon": -77.05649783333334}, {"fusion_lat": 0.0, "name": "1fa0ebc460afec63b91f90dd6b4f6cd9", "is_disabled": 0, "rental_uris": {"android": "https://dc.lft.to/lastmile_qr_scan", "ios": "https://dc.lft.to/lastmile_qr_scan"}, "fusion_lon": 0.0, "lat": 38.905557, "bike_id": "1fa0ebc460afec63b91f90dd6b4f6cd9", "type": "electric_scooter", "is_reserved": 0, "lon": -76.98326916666667}, {"fusion_lat": 0.0, "name": "345ae0eb99d96430145165a52df1434f", "is_disabled": 0, "rental_uris": {"android": "https://dc.lft.to/lastmile_qr_scan", "ios": "https://dc.lft.to/lastmile_qr_scan"}, "fusion_lon": 0.0, "lat": 38.901072166666665, "bike_id": "345ae0eb99d96430145165a52df1434f", "type": "electric_scooter", "is_reserved": 0, "lon": -77.04985583333334}, {"fusion_lat": 0.0, "name": "c705236615e89b046d16dc37649d4a5f", "is_disabled": 0, "rental_uris": {"android": "https://dc.lft.to/lastmile_qr_scan", "ios": "https://dc.lft.to/lastmile_qr_scan"}, "fusion_lon": 0.0, "lat": 38.905882166666665, "bike_id": "c705236615e89b046d16dc37649d4a5f", "type": "electric_scooter", "is_reserved": 0, "lon": -77.04182}, {"fusion_lat": 0.0, "name": "f747b931868531119b69e927ca5c5fd7", "is_disabled": 0, "rental_uris": {"android": "https://dc.lft.to/lastmile_qr_scan", "ios": "https://dc.lft.to/lastmile_qr_scan"}, "fusion_lon": 0.0, "lat": 38.887674833333335, "bike_id": "f747b931868531119b69e927ca5c5fd7", "type": "electric_scooter", "is_reserved": 0, "lon": -77.028577}, {"fusion_lat": 0.0, "name": "ef27e45f656ef6ac339eda92314acff4", "is_disabled": 0, "rental_uris": {"android": "https://dc.lft.to/lastmile_qr_scan", "ios": "https://dc.lft.to/lastmile_qr_scan"}, "fusion_lon": 0.0, "lat": 38.905743333333334, "bike_id": "ef27e45f656ef6ac339eda92314acff4", "type": "electric_scooter", "is_reserved": 0, "lon": -77.0210295}, {"fusion_lat": 0.0, "name": "c2b9df8722762b257165fc32d8f5e8d1", "is_disabled": 0, "rental_uris": {"android": "https://dc.lft.to/lastmile_qr_scan", "ios": "https://dc.lft.to/lastmile_qr_scan"}, "fusion_lon": 0.0, "lat": 38.807067, "bike_id": "c2b9df8722762b257165fc32d8f5e8d1", "type": "electric_bike", "is_reserved": 0, "lon": -77.06169216666666}, {"fusion_lat": 0.0, "name": "74a185ea93244ee2e18ac33ea5138b3f", "is_disabled": 0, "rental_uris": {"android": "https://dc.lft.to/lastmile_qr_scan", "ios": "https://dc.lft.to/lastmile_qr_scan"}, "fusion_lon": 0.0, "lat": 38.920562333333336, "bike_id": "74a185ea93244ee2e18ac33ea5138b3f", "type": "electric_scooter", "is_reserved": 0, "lon": -77.041891}, {"fusion_lat": 0.0, "name": "378107270ee3e2886182f407eaba6527", "is_disabled": 0, "rental_uris": {"android": "https://dc.lft.to/lastmile_qr_scan", "ios": "https://dc.lft.to/lastmile_qr_scan"}, "fusion_lon": 0.0, "lat": 38.88299083333333, "bike_id": "378107270ee3e2886182f407eaba6527", "type": "electric_scooter", "is_reserved": 0, "lon": -76.9485585}, {"fusion_lat": 0.0, "name": "f617d5705bad712b778e529888a6205d", "is_disabled": 0, "rental_uris": {"android": "https://dc.lft.to/lastmile_qr_scan", "ios": "https://dc.lft.to/lastmile_qr_scan"}, "fusion_lon": 0.0, "lat": 38.903898, "bike_id": "f617d5705bad712b778e529888a6205d", "type": "electric_scooter", "is_reserved": 0, "lon": -77.06819233333333}, {"fusion_lat": 0.0, "name": "d1961f3e385e5a0150e45ab5e0330a22", "is_disabled": 0, "rental_uris": {"android": "https://dc.lft.to/lastmile_qr_scan", "ios": "https://dc.lft.to/lastmile_qr_scan"}, "fusion_lon": 0.0, "lat": 38.89102783333333, "bike_id": "d1961f3e385e5a0150e45ab5e0330a22", "type": "electric_scooter", "is_reserved": 0, "lon": -76.99622483333333}, {"fusion_lat": 0.0, "name": "73b74f8aba0182506e5b272f3f6e8beb", "is_disabled": 0, "rental_uris": {"android": "https://dc.lft.to/lastmile_qr_scan", "ios": "https://dc.lft.to/lastmile_qr_scan"}, "fusion_lon": 0.0, "lat": 38.812463, "bike_id": "73b74f8aba0182506e5b272f3f6e8beb", "type": "electric_bike", "is_reserved": 0, "lon": -77.11768183333334}, {"fusion_lat": 0.0, "name": "bc3378f0890337b96bc35913913c96f8", "is_disabled": 0, "rental_uris": {"android": "https://dc.lft.to/lastmile_qr_scan", "ios": "https://dc.lft.to/lastmile_qr_scan"}, "fusion_lon": 0.0, "lat": 38.9073425, "bike_id": "bc3378f0890337b96bc35913913c96f8", "type": "electric_scooter", "is_reserved": 0, "lon": -76.93545616666667}, {"fusion_lat": 0.0, "name": "b8654428f0dba0b40ebd7c1ad3d2306b", "is_disabled": 0, "rental_uris": {"android": "https://dc.lft.to/lastmile_qr_scan", "ios": "https://dc.lft.to/lastmile_qr_scan"}, "fusion_lon": 0.0, "lat": 38.9271825, "bike_id": "b8654428f0dba0b40ebd7c1ad3d2306b", "type": "electric_scooter", "is_reserved": 0, "lon": -77.03061533333333}, {"fusion_lat": 0.0, "name": "1ee1a0c865076cf03ac476e1e4e205b0", "is_disabled": 0, "rental_uris": {"android": "https://dc.lft.to/lastmile_qr_scan", "ios": "https://dc.lft.to/lastmile_qr_scan"}, "fusion_lon": 0.0, "lat": 38.917088166666666, "bike_id": "1ee1a0c865076cf03ac476e1e4e205b0", "type": "electric_scooter", "is_reserved": 0, "lon": -77.038704}, {"fusion_lat": 0.0, "name": "7c6311c4a2f96fb5f81538db2bd34636", "is_disabled": 0, "rental_uris": {"android": "https://dc.lft.to/lastmile_qr_scan", "ios": "https://dc.lft.to/lastmile_qr_scan"}, "fusion_lon": 0.0, "lat": 38.925342666666666, "bike_id": "7c6311c4a2f96fb5f81538db2bd34636", "type": "electric_scooter", "is_reserved": 0, "lon": -77.00754333333333}, {"fusion_lat": 0.0, "name": "289411cc0c21de637ca47968808c8624", "is_disabled": 0, "rental_uris": {"android": "https://dc.lft.to/lastmile_qr_scan", "ios": "https://dc.lft.to/lastmile_qr_scan"}, "fusion_lon": 0.0, "lat": 38.8191205, "bike_id": "289411cc0c21de637ca47968808c8624", "type": "electric_bike", "is_reserved": 0, "lon": -77.04792833333333}, {"fusion_lat": 0.0, "name": "e52794d5258c08478bc24f531599ef06", "is_disabled": 0, "rental_uris": {"android": "https://dc.lft.to/lastmile_qr_scan", "ios": "https://dc.lft.to/lastmile_qr_scan"}, "fusion_lon": 0.0, "lat": 38.890162833333335, "bike_id": "e52794d5258c08478bc24f531599ef06", "type": "electric_scooter", "is_reserved": 0, "lon": -76.937366}, {"fusion_lat": 0.0, "name": "3913e37c035510a4abb650d3b5bf3547", "is_disabled": 0, "rental_uris": {"android": "https://dc.lft.to/lastmile_qr_scan", "ios": "https://dc.lft.to/lastmile_qr_scan"}, "fusion_lon": 0.0, "lat": 38.943318166666664, "bike_id": "3913e37c035510a4abb650d3b5bf3547", "type": "electric_scooter", "is_reserved": 0, "lon": -77.01556216666667}, {"fusion_lat": 0.0, "name": "87c75fd068eb5ee5aa26ed073a1b3823", "is_disabled": 0, "rental_uris": {"android": "https://dc.lft.to/lastmile_qr_scan", "ios": "https://dc.lft.to/lastmile_qr_scan"}, "fusion_lon": 0.0, "lat": 38.90189183333333, "bike_id": "87c75fd068eb5ee5aa26ed073a1b3823", "type": "electric_scooter", "is_reserved": 0, "lon": -77.05052666666667}, {"fusion_lat": 0.0, "name": "4599cd1bbef086d82553e751d2d2ed3e", "is_disabled": 0, "rental_uris": {"android": "https://dc.lft.to/lastmile_qr_scan", "ios": "https://dc.lft.to/lastmile_qr_scan"}, "fusion_lon": 0.0, "lat": 38.92014283333334, "bike_id": "4599cd1bbef086d82553e751d2d2ed3e", "type": "electric_bike", "is_reserved": 0, "lon": -76.99066933333333}, {"fusion_lat": 0.0, "name": "718b54b8933c68956778a285135d0015", "is_disabled": 0, "rental_uris": {"android": "https://dc.lft.to/lastmile_qr_scan", "ios": "https://dc.lft.to/lastmile_qr_scan"}, "fusion_lon": 0.0, "lat": 38.894819166666665, "bike_id": "718b54b8933c68956778a285135d0015", "type": "electric_scooter", "is_reserved": 0, "lon": -77.0218885}, {"fusion_lat": 0.0, "name": "ec21bce8ddba54305355f990f97e644b", "is_disabled": 0, "rental_uris": {"android": "https://dc.lft.to/lastmile_qr_scan", "ios": "https://dc.lft.to/lastmile_qr_scan"}, "fusion_lon": 0.0, "lat": 38.90814566666667, "bike_id": "ec21bce8ddba54305355f990f97e644b", "type": "electric_scooter", "is_reserved": 0, "lon": -77.03464666666666}, {"fusion_lat": 0.0, "name": "1d239629b0a38408d31b83d7cf50e9a5", "is_disabled": 0, "rental_uris": {"android": "https://dc.lft.to/lastmile_qr_scan", "ios": "https://dc.lft.to/lastmile_qr_scan"}, "fusion_lon": 0.0, "lat": 38.911092333333336, "bike_id": "1d239629b0a38408d31b83d7cf50e9a5", "type": "electric_scooter", "is_reserved": 0, "lon": -77.00999533333334}, {"fusion_lat": 0.0, "name": "92daffc162fdeb38aea64acd835acb77", "is_disabled": 0, "rental_uris": {"android": "https://dc.lft.to/lastmile_qr_scan", "ios": "https://dc.lft.to/lastmile_qr_scan"}, "fusion_lon": 0.0, "lat": 38.896130166666666, "bike_id": "92daffc162fdeb38aea64acd835acb77", "type": "electric_scooter", "is_reserved": 0, "lon": -76.981087}, {"fusion_lat": 0.0, "name": "ad0af9895fe7cef0ddea750a6411cf5c", "is_disabled": 0, "rental_uris": {"android": "https://dc.lft.to/lastmile_qr_scan", "ios": "https://dc.lft.to/lastmile_qr_scan"}, "fusion_lon": 0.0, "lat": 38.941905166666665, "bike_id": "ad0af9895fe7cef0ddea750a6411cf5c", "type": "electric_scooter", "is_reserved": 0, "lon": -77.025336}, {"fusion_lat": 0.0, "name": "35211ad1c154ed66eeff93605c475d0b", "is_disabled": 0, "rental_uris": {"android": "https://dc.lft.to/lastmile_qr_scan", "ios": "https://dc.lft.to/lastmile_qr_scan"}, "fusion_lon": 0.0, "lat": 38.899728, "bike_id": "35211ad1c154ed66eeff93605c475d0b", "type": "electric_scooter", "is_reserved": 0, "lon": -77.05266166666667}, {"fusion_lat": 0.0, "name": "27259688d794cd5527733b8df18c5bf8", "is_disabled": 0, "rental_uris": {"android": "https://dc.lft.to/lastmile_qr_scan", "ios": "https://dc.lft.to/lastmile_qr_scan"}, "fusion_lon": 0.0, "lat": 38.89220133333333, "bike_id": "27259688d794cd5527733b8df18c5bf8", "type": "electric_scooter", "is_reserved": 0, "lon": -77.02371133333334}, {"fusion_lat": 0.0, "name": "b992c87a480fc05e4b2a419866eb5bc8", "is_disabled": 0, "rental_uris": {"android": "https://dc.lft.to/lastmile_qr_scan", "ios": "https://dc.lft.to/lastmile_qr_scan"}, "fusion_lon": 0.0, "lat": 38.925019666666664, "bike_id": "b992c87a480fc05e4b2a419866eb5bc8", "type": "electric_scooter", "is_reserved": 0, "lon": -77.05224733333333}, {"fusion_lat": 0.0, "name": "6e533de543ff9204457a6a082d52c249", "is_disabled": 0, "rental_uris": {"android": "https://dc.lft.to/lastmile_qr_scan", "ios": "https://dc.lft.to/lastmile_qr_scan"}, "fusion_lon": 0.0, "lat": 38.928514666666665, "bike_id": "6e533de543ff9204457a6a082d52c249", "type": "electric_scooter", "is_reserved": 0, "lon": -77.03435216666666}, {"fusion_lat": 0.0, "name": "69eae9aa2610cab57ee795fd5a4b41de", "is_disabled": 0, "rental_uris": {"android": "https://dc.lft.to/lastmile_qr_scan", "ios": "https://dc.lft.to/lastmile_qr_scan"}, "fusion_lon": 0.0, "lat": 38.873727, "bike_id": "69eae9aa2610cab57ee795fd5a4b41de", "type": "electric_scooter", "is_reserved": 0, "lon": -77.001161}, {"fusion_lat": 0.0, "name": "2dd6d883f7733fb9efa4b6fe39087afc", "is_disabled": 0, "rental_uris": {"android": "https://dc.lft.to/lastmile_qr_scan", "ios": "https://dc.lft.to/lastmile_qr_scan"}, "fusion_lon": 0.0, "lat": 38.90877666666667, "bike_id": "2dd6d883f7733fb9efa4b6fe39087afc", "type": "electric_scooter", "is_reserved": 0, "lon": -77.02388633333334}, {"fusion_lat": 0.0, "name": "2a9a9a1184b4840a75d26301fa16daa8", "is_disabled": 0, "rental_uris": {"android": "https://dc.lft.to/lastmile_qr_scan", "ios": "https://dc.lft.to/lastmile_qr_scan"}, "fusion_lon": 0.0, "lat": 38.90451433333333, "bike_id": "2a9a9a1184b4840a75d26301fa16daa8", "type": "electric_scooter", "is_reserved": 0, "lon": -77.0585195}, {"fusion_lat": 0.0, "name": "95a0fbbff9912267f4ff9256dc398749", "is_disabled": 0, "rental_uris": {"android": "https://dc.lft.to/lastmile_qr_scan", "ios": "https://dc.lft.to/lastmile_qr_scan"}, "fusion_lon": 0.0, "lat": 38.91322516666666, "bike_id": "95a0fbbff9912267f4ff9256dc398749", "type": "electric_scooter", "is_reserved": 0, "lon": -77.01209983333334}, {"fusion_lat": 0.0, "name": "882e0c5284df4ee703619afcb34a8e75", "is_disabled": 0, "rental_uris": {"android": "https://dc.lft.to/lastmile_qr_scan", "ios": "https://dc.lft.to/lastmile_qr_scan"}, "fusion_lon": 0.0, "lat": 38.94165, "bike_id": "882e0c5284df4ee703619afcb34a8e75", "type": "electric_bike", "is_reserved": 0, "lon": -76.96651433333334}, {"fusion_lat": 0.0, "name": "de7f89e921e8b161fd49b52cd45f8779", "is_disabled": 0, "rental_uris": {"android": "https://dc.lft.to/lastmile_qr_scan", "ios": "https://dc.lft.to/lastmile_qr_scan"}, "fusion_lon": 0.0, "lat": 38.887201833333336, "bike_id": "de7f89e921e8b161fd49b52cd45f8779", "type": "electric_scooter", "is_reserved": 0, "lon": -77.025786}, {"fusion_lat": 0.0, "name": "9fb59ed760a88145bb81e9d6f7a9ed62", "is_disabled": 0, "rental_uris": {"android": "https://dc.lft.to/lastmile_qr_scan", "ios": "https://dc.lft.to/lastmile_qr_scan"}, "fusion_lon": 0.0, "lat": 38.98787866666667, "bike_id": "9fb59ed760a88145bb81e9d6f7a9ed62", "type": "electric_bike", "is_reserved": 0, "lon": -77.14103566666667}, {"fusion_lat": 0.0, "name": "59715fdb009fcbdc4abd494b83825967", "is_disabled": 0, "rental_uris": {"android": "https://dc.lft.to/lastmile_qr_scan", "ios": "https://dc.lft.to/lastmile_qr_scan"}, "fusion_lon": 0.0, "lat": 38.941514, "bike_id": "59715fdb009fcbdc4abd494b83825967", "type": "electric_bike", "is_reserved": 0, "lon": -77.00193483333334}, {"fusion_lat": 0.0, "name": "c56b446005c32ddff95d7ec4153e28f2", "is_disabled": 0, "rental_uris": {"android": "https://dc.lft.to/lastmile_qr_scan", "ios": "https://dc.lft.to/lastmile_qr_scan"}, "fusion_lon": 0.0, "lat": 38.8956, "bike_id": "c56b446005c32ddff95d7ec4153e28f2", "type": "electric_scooter", "is_reserved": 0, "lon": -77.02380966666666}, {"fusion_lat": 0.0, "name": "3cd2c93d401213f2e5dcf9c995d0563c", "is_disabled": 0, "rental_uris": {"android": "https://dc.lft.to/lastmile_qr_scan", "ios": "https://dc.lft.to/lastmile_qr_scan"}, "fusion_lon": 0.0, "lat": 38.900357666666665, "bike_id": "3cd2c93d401213f2e5dcf9c995d0563c", "type": "electric_scooter", "is_reserved": 0, "lon": -77.0241595}, {"fusion_lat": 0.0, "name": "46b740fce6d309c24872c4f345b039c9", "is_disabled": 0, "rental_uris": {"android": "https://dc.lft.to/lastmile_qr_scan", "ios": "https://dc.lft.to/lastmile_qr_scan"}, "fusion_lon": 0.0, "lat": 38.90145066666667, "bike_id": "46b740fce6d309c24872c4f345b039c9", "type": "electric_scooter", "is_reserved": 0, "lon": -77.02299916666666}, {"fusion_lat": 0.0, "name": "1fe80388d0c2f235e76d04b93291560f", "is_disabled": 0, "rental_uris": {"android": "https://dc.lft.to/lastmile_qr_scan", "ios": "https://dc.lft.to/lastmile_qr_scan"}, "fusion_lon": 0.0, "lat": 38.945047333333335, "bike_id": "1fe80388d0c2f235e76d04b93291560f", "type": "electric_bike", "is_reserved": 0, "lon": -77.00672633333333}, {"fusion_lat": 0.0, "name": "d4dbce8bd97ff275f23ce207c0eae2ac", "is_disabled": 0, "rental_uris": {"android": "https://dc.lft.to/lastmile_qr_scan", "ios": "https://dc.lft.to/lastmile_qr_scan"}, "fusion_lon": 0.0, "lat": 38.916909833333335, "bike_id": "d4dbce8bd97ff275f23ce207c0eae2ac", "type": "electric_scooter", "is_reserved": 0, "lon": -77.025965}, {"fusion_lat": 0.0, "name": "9fb05f4fa08b9fd239201e6c7d959cba", "is_disabled": 0, "rental_uris": {"android": "https://dc.lft.to/lastmile_qr_scan", "ios": "https://dc.lft.to/lastmile_qr_scan"}, "fusion_lon": 0.0, "lat": 38.87669316666667, "bike_id": "9fb05f4fa08b9fd239201e6c7d959cba", "type": "electric_scooter", "is_reserved": 0, "lon": -77.00069033333334}, {"fusion_lat": 0.0, "name": "298349c09d9477dc1048630842ed33b8", "is_disabled": 0, "rental_uris": {"android": "https://dc.lft.to/lastmile_qr_scan", "ios": "https://dc.lft.to/lastmile_qr_scan"}, "fusion_lon": 0.0, "lat": 38.904595666666665, "bike_id": "298349c09d9477dc1048630842ed33b8", "type": "electric_scooter", "is_reserved": 0, "lon": -77.05341633333333}, {"fusion_lat": 0.0, "name": "35307d15456734099f9725c2dfff1d1e", "is_disabled": 0, "rental_uris": {"android": "https://dc.lft.to/lastmile_qr_scan", "ios": "https://dc.lft.to/lastmile_qr_scan"}, "fusion_lon": 0.0, "lat": 38.952730333333335, "bike_id": "35307d15456734099f9725c2dfff1d1e", "type": "electric_scooter", "is_reserved": 0, "lon": -77.06874183333333}, {"fusion_lat": 0.0, "name": "482b4b0b52f9214a98ec1a18645f35dc", "is_disabled": 0, "rental_uris": {"android": "https://dc.lft.to/lastmile_qr_scan", "ios": "https://dc.lft.to/lastmile_qr_scan"}, "fusion_lon": 0.0, "lat": 38.887467666666666, "bike_id": "482b4b0b52f9214a98ec1a18645f35dc", "type": "electric_scooter", "is_reserved": 0, "lon": -77.01782216666666}, {"fusion_lat": 0.0, "name": "76c9dc776dfa0181874288474de82c3b", "is_disabled": 0, "rental_uris": {"android": "https://dc.lft.to/lastmile_qr_scan", "ios": "https://dc.lft.to/lastmile_qr_scan"}, "fusion_lon": 0.0, "lat": 38.9159575, "bike_id": "76c9dc776dfa0181874288474de82c3b", "type": "electric_scooter", "is_reserved": 0, "lon": -77.043318}, {"fusion_lat": 0.0, "name": "574a4024ed845e0ec478bc4353d4accb", "is_disabled": 0, "rental_uris": {"android": "https://dc.lft.to/lastmile_qr_scan", "ios": "https://dc.lft.to/lastmile_qr_scan"}, "fusion_lon": 0.0, "lat": 38.89242733333333, "bike_id": "574a4024ed845e0ec478bc4353d4accb", "type": "electric_scooter", "is_reserved": 0, "lon": -77.039543}, {"fusion_lat": 0.0, "name": "77a2398f6739d4ca001e9beb30880403", "is_disabled": 0, "rental_uris": {"android": "https://dc.lft.to/lastmile_qr_scan", "ios": "https://dc.lft.to/lastmile_qr_scan"}, "fusion_lon": 0.0, "lat": 38.92890216666667, "bike_id": "77a2398f6739d4ca001e9beb30880403", "type": "electric_scooter", "is_reserved": 0, "lon": -77.03240233333334}, {"fusion_lat": 0.0, "name": "f06da1889d22639405991343e16b1741", "is_disabled": 0, "rental_uris": {"android": "https://dc.lft.to/lastmile_qr_scan", "ios": "https://dc.lft.to/lastmile_qr_scan"}, "fusion_lon": 0.0, "lat": 38.89195333333333, "bike_id": "f06da1889d22639405991343e16b1741", "type": "electric_scooter", "is_reserved": 0, "lon": -77.02252433333334}, {"fusion_lat": 0.0, "name": "bcfb01852a866d43686f510656a8c48b", "is_disabled": 0, "rental_uris": {"android": "https://dc.lft.to/lastmile_qr_scan", "ios": "https://dc.lft.to/lastmile_qr_scan"}, "fusion_lon": 0.0, "lat": 38.88503166666667, "bike_id": "bcfb01852a866d43686f510656a8c48b", "type": "electric_scooter", "is_reserved": 0, "lon": -77.01472616666666}, {"fusion_lat": 0.0, "name": "29ba87b4545ae4430c04d5dd2d22c4d3", "is_disabled": 0, "rental_uris": {"android": "https://dc.lft.to/lastmile_qr_scan", "ios": "https://dc.lft.to/lastmile_qr_scan"}, "fusion_lon": 0.0, "lat": 38.9237595, "bike_id": "29ba87b4545ae4430c04d5dd2d22c4d3", "type": "electric_scooter", "is_reserved": 0, "lon": -77.0515345}, {"fusion_lat": 0.0, "name": "97878fe9fc7c28145ef2bf842a8a7100", "is_disabled": 0, "rental_uris": {"android": "https://dc.lft.to/lastmile_qr_scan", "ios": "https://dc.lft.to/lastmile_qr_scan"}, "fusion_lon": 0.0, "lat": 38.9164385, "bike_id": "97878fe9fc7c28145ef2bf842a8a7100", "type": "electric_bike", "is_reserved": 0, "lon": -76.98224416666666}, {"fusion_lat": 0.0, "name": "502da7d6ce09f39ee76132bf510760be", "is_disabled": 0, "rental_uris": {"android": "https://dc.lft.to/lastmile_qr_scan", "ios": "https://dc.lft.to/lastmile_qr_scan"}, "fusion_lon": 0.0, "lat": 38.9101125, "bike_id": "502da7d6ce09f39ee76132bf510760be", "type": "electric_scooter", "is_reserved": 0, "lon": -77.01620266666667}, {"fusion_lat": 0.0, "name": "5bde4cc0f0654f34201cb48b1de6acaf", "is_disabled": 0, "rental_uris": {"android": "https://dc.lft.to/lastmile_qr_scan", "ios": "https://dc.lft.to/lastmile_qr_scan"}, "fusion_lon": 0.0, "lat": 38.950854666666665, "bike_id": "5bde4cc0f0654f34201cb48b1de6acaf", "type": "electric_scooter", "is_reserved": 0, "lon": -77.02714116666667}, {"fusion_lat": 0.0, "name": "2b96f43468c2f5b4522d6abda9307a7a", "is_disabled": 0, "rental_uris": {"android": "https://dc.lft.to/lastmile_qr_scan", "ios": "https://dc.lft.to/lastmile_qr_scan"}, "fusion_lon": 0.0, "lat": 38.90439933333333, "bike_id": "2b96f43468c2f5b4522d6abda9307a7a", "type": "electric_scooter", "is_reserved": 0, "lon": -77.0485235}, {"fusion_lat": 0.0, "name": "239f32ef9e1b63850bc8c32ea9729adc", "is_disabled": 0, "rental_uris": {"android": "https://dc.lft.to/lastmile_qr_scan", "ios": "https://dc.lft.to/lastmile_qr_scan"}, "fusion_lon": 0.0, "lat": 38.870883, "bike_id": "239f32ef9e1b63850bc8c32ea9729adc", "type": "electric_bike", "is_reserved": 0, "lon": -77.13330333333333}, {"fusion_lat": 0.0, "name": "60cf362098616f290b669d8df7da3eba", "is_disabled": 0, "rental_uris": {"android": "https://dc.lft.to/lastmile_qr_scan", "ios": "https://dc.lft.to/lastmile_qr_scan"}, "fusion_lon": 0.0, "lat": 38.901990166666664, "bike_id": "60cf362098616f290b669d8df7da3eba", "type": "electric_scooter", "is_reserved": 0, "lon": -77.02377166666666}, {"fusion_lat": 0.0, "name": "902c3dd4d927c643ec4aedc1d3efee81", "is_disabled": 0, "rental_uris": {"android": "https://dc.lft.to/lastmile_qr_scan", "ios": "https://dc.lft.to/lastmile_qr_scan"}, "fusion_lon": 0.0, "lat": 38.897293833333336, "bike_id": "902c3dd4d927c643ec4aedc1d3efee81", "type": "electric_scooter", "is_reserved": 0, "lon": -76.9470025}, {"fusion_lat": 0.0, "name": "9c039532efdc1fdf4c935ee2a3f84d0a", "is_disabled": 0, "rental_uris": {"android": "https://dc.lft.to/lastmile_qr_scan", "ios": "https://dc.lft.to/lastmile_qr_scan"}, "fusion_lon": 0.0, "lat": 38.9324005, "bike_id": "9c039532efdc1fdf4c935ee2a3f84d0a", "type": "electric_scooter", "is_reserved": 0, "lon": -77.03410733333334}, {"fusion_lat": 0.0, "name": "58a2988afbd9f861337adfc731a49476", "is_disabled": 0, "rental_uris": {"android": "https://dc.lft.to/lastmile_qr_scan", "ios": "https://dc.lft.to/lastmile_qr_scan"}, "fusion_lon": 0.0, "lat": 38.90782983333333, "bike_id": "58a2988afbd9f861337adfc731a49476", "type": "electric_scooter", "is_reserved": 0, "lon": -77.0021235}, {"fusion_lat": 0.0, "name": "d495c86b73008e627ec2aa21a8daa2ef", "is_disabled": 0, "rental_uris": {"android": "https://dc.lft.to/lastmile_qr_scan", "ios": "https://dc.lft.to/lastmile_qr_scan"}, "fusion_lon": 0.0, "lat": 38.916820333333334, "bike_id": "d495c86b73008e627ec2aa21a8daa2ef", "type": "electric_scooter", "is_reserved": 0, "lon": -77.02971416666666}, {"fusion_lat": 0.0, "name": "246a8084eb03e66d95025ff2d1f13f28", "is_disabled": 0, "rental_uris": {"android": "https://dc.lft.to/lastmile_qr_scan", "ios": "https://dc.lft.to/lastmile_qr_scan"}, "fusion_lon": 0.0, "lat": 38.960688833333336, "bike_id": "246a8084eb03e66d95025ff2d1f13f28", "type": "electric_scooter", "is_reserved": 0, "lon": -77.00093466666667}, {"fusion_lat": 0.0, "name": "b394e08a42391de40fdb76536324d246", "is_disabled": 0, "rental_uris": {"android": "https://dc.lft.to/lastmile_qr_scan", "ios": "https://dc.lft.to/lastmile_qr_scan"}, "fusion_lon": 0.0, "lat": 38.90585733333333, "bike_id": "b394e08a42391de40fdb76536324d246", "type": "electric_scooter", "is_reserved": 0, "lon": -77.0417935}, {"fusion_lat": 0.0, "name": "4be59c529fc2aa33b8281fbb3704b13b", "is_disabled": 0, "rental_uris": {"android": "https://dc.lft.to/lastmile_qr_scan", "ios": "https://dc.lft.to/lastmile_qr_scan"}, "fusion_lon": 0.0, "lat": 38.903920166666666, "bike_id": "4be59c529fc2aa33b8281fbb3704b13b", "type": "electric_scooter", "is_reserved": 0, "lon": -77.0176385}, {"fusion_lat": 0.0, "name": "5ce66276f26f1457c7f8e5c168354f90", "is_disabled": 0, "rental_uris": {"android": "https://dc.lft.to/lastmile_qr_scan", "ios": "https://dc.lft.to/lastmile_qr_scan"}, "fusion_lon": 0.0, "lat": 38.899746, "bike_id": "5ce66276f26f1457c7f8e5c168354f90", "type": "electric_scooter", "is_reserved": 0, "lon": -77.05267983333333}, {"fusion_lat": 0.0, "name": "1c2acedf947b4587f765e1373d85ee5c", "is_disabled": 0, "rental_uris": {"android": "https://dc.lft.to/lastmile_qr_scan", "ios": "https://dc.lft.to/lastmile_qr_scan"}, "fusion_lon": 0.0, "lat": 38.90578566666667, "bike_id": "1c2acedf947b4587f765e1373d85ee5c", "type": "electric_scooter", "is_reserved": 0, "lon": -77.022034}, {"fusion_lat": 0.0, "name": "99a677583f30a6c710ef35c081b3451e", "is_disabled": 0, "rental_uris": {"android": "https://dc.lft.to/lastmile_qr_scan", "ios": "https://dc.lft.to/lastmile_qr_scan"}, "fusion_lon": 0.0, "lat": 38.91748166666667, "bike_id": "99a677583f30a6c710ef35c081b3451e", "type": "electric_scooter", "is_reserved": 0, "lon": -76.97568666666666}, {"fusion_lat": 0.0, "name": "4768e2bb11f62eadabaf86d56354a2fa", "is_disabled": 0, "rental_uris": {"android": "https://dc.lft.to/lastmile_qr_scan", "ios": "https://dc.lft.to/lastmile_qr_scan"}, "fusion_lon": 0.0, "lat": 38.923151833333336, "bike_id": "4768e2bb11f62eadabaf86d56354a2fa", "type": "electric_scooter", "is_reserved": 0, "lon": -77.0404055}, {"fusion_lat": 0.0, "name": "b7caa845c31041a38ff8d64a85d9cc05", "is_disabled": 0, "rental_uris": {"android": "https://dc.lft.to/lastmile_qr_scan", "ios": "https://dc.lft.to/lastmile_qr_scan"}, "fusion_lon": 0.0, "lat": 38.93181, "bike_id": "b7caa845c31041a38ff8d64a85d9cc05", "type": "electric_scooter", "is_reserved": 0, "lon": -77.02002916666666}, {"fusion_lat": 0.0, "name": "562aab74068723053e8fdde91afac1c7", "is_disabled": 0, "rental_uris": {"android": "https://dc.lft.to/lastmile_qr_scan", "ios": "https://dc.lft.to/lastmile_qr_scan"}, "fusion_lon": 0.0, "lat": 38.92341833333333, "bike_id": "562aab74068723053e8fdde91afac1c7", "type": "electric_scooter", "is_reserved": 0, "lon": -77.052158}, {"fusion_lat": 0.0, "name": "b76f32da59231308704737ba854c66c5", "is_disabled": 0, "rental_uris": {"android": "https://dc.lft.to/lastmile_qr_scan", "ios": "https://dc.lft.to/lastmile_qr_scan"}, "fusion_lon": 0.0, "lat": 38.9035215, "bike_id": "b76f32da59231308704737ba854c66c5", "type": "electric_scooter", "is_reserved": 0, "lon": -76.97476516666667}, {"fusion_lat": 0.0, "name": "3934b0c23a5f752b4dd2c6102aaa6c89", "is_disabled": 0, "rental_uris": {"android": "https://dc.lft.to/lastmile_qr_scan", "ios": "https://dc.lft.to/lastmile_qr_scan"}, "fusion_lon": 0.0, "lat": 38.907862333333334, "bike_id": "3934b0c23a5f752b4dd2c6102aaa6c89", "type": "electric_scooter", "is_reserved": 0, "lon": -77.04248016666666}, {"fusion_lat": 0.0, "name": "420769208ee20b5eae34fac64d097b60", "is_disabled": 0, "rental_uris": {"android": "https://dc.lft.to/lastmile_qr_scan", "ios": "https://dc.lft.to/lastmile_qr_scan"}, "fusion_lon": 0.0, "lat": 38.88733416666667, "bike_id": "420769208ee20b5eae34fac64d097b60", "type": "electric_scooter", "is_reserved": 0, "lon": -77.01510533333334}, {"fusion_lat": 0.0, "name": "c72762095ea7581ba574668b92ed825d", "is_disabled": 0, "rental_uris": {"android": "https://dc.lft.to/lastmile_qr_scan", "ios": "https://dc.lft.to/lastmile_qr_scan"}, "fusion_lon": 0.0, "lat": 38.917812166666664, "bike_id": "c72762095ea7581ba574668b92ed825d", "type": "electric_scooter", "is_reserved": 0, "lon": -77.023131}, {"fusion_lat": 0.0, "name": "d35cb793ebc86653ab5c0913e7de4d54", "is_disabled": 0, "rental_uris": {"android": "https://dc.lft.to/lastmile_qr_scan", "ios": "https://dc.lft.to/lastmile_qr_scan"}, "fusion_lon": 0.0, "lat": 38.924723166666666, "bike_id": "d35cb793ebc86653ab5c0913e7de4d54", "type": "electric_scooter", "is_reserved": 0, "lon": -77.02073883333334}, {"fusion_lat": 0.0, "name": "7bbaa3cb78d7783bc43c155910fe6a73", "is_disabled": 0, "rental_uris": {"android": "https://dc.lft.to/lastmile_qr_scan", "ios": "https://dc.lft.to/lastmile_qr_scan"}, "fusion_lon": 0.0, "lat": 38.93083516666667, "bike_id": "7bbaa3cb78d7783bc43c155910fe6a73", "type": "electric_scooter", "is_reserved": 0, "lon": -77.01998833333333}, {"fusion_lat": 0.0, "name": "2a14af29bac7c9bbb8e851cbd3e97539", "is_disabled": 0, "rental_uris": {"android": "https://dc.lft.to/lastmile_qr_scan", "ios": "https://dc.lft.to/lastmile_qr_scan"}, "fusion_lon": 0.0, "lat": 38.934629, "bike_id": "2a14af29bac7c9bbb8e851cbd3e97539", "type": "electric_scooter", "is_reserved": 0, "lon": -77.04116183333333}, {"fusion_lat": 0.0, "name": "5b22a95d4190b0b67fbb687d5cdc161d", "is_disabled": 0, "rental_uris": {"android": "https://dc.lft.to/lastmile_qr_scan", "ios": "https://dc.lft.to/lastmile_qr_scan"}, "fusion_lon": 0.0, "lat": 38.90101666666666, "bike_id": "5b22a95d4190b0b67fbb687d5cdc161d", "type": "electric_scooter", "is_reserved": 0, "lon": -76.9303945}, {"fusion_lat": 0.0, "name": "84d1755304baa7d5b793b21e7992ec15", "is_disabled": 0, "rental_uris": {"android": "https://dc.lft.to/lastmile_qr_scan", "ios": "https://dc.lft.to/lastmile_qr_scan"}, "fusion_lon": 0.0, "lat": 38.911785, "bike_id": "84d1755304baa7d5b793b21e7992ec15", "type": "electric_scooter", "is_reserved": 0, "lon": -77.02956533333334}, {"fusion_lat": 0.0, "name": "2448d8ee6766286c668e1bd46de38640", "is_disabled": 0, "rental_uris": {"android": "https://dc.lft.to/lastmile_qr_scan", "ios": "https://dc.lft.to/lastmile_qr_scan"}, "fusion_lon": 0.0, "lat": 38.897079, "bike_id": "2448d8ee6766286c668e1bd46de38640", "type": "electric_scooter", "is_reserved": 0, "lon": -77.02458066666667}, {"fusion_lat": 0.0, "name": "55a23c0349217169cd9162c90efc07fb", "is_disabled": 0, "rental_uris": {"android": "https://dc.lft.to/lastmile_qr_scan", "ios": "https://dc.lft.to/lastmile_qr_scan"}, "fusion_lon": 0.0, "lat": 38.915557, "bike_id": "55a23c0349217169cd9162c90efc07fb", "type": "electric_scooter", "is_reserved": 0, "lon": -77.0313525}, {"fusion_lat": 0.0, "name": "162dedd5b253a6436f3cd71cc79b53f0", "is_disabled": 0, "rental_uris": {"android": "https://dc.lft.to/lastmile_qr_scan", "ios": "https://dc.lft.to/lastmile_qr_scan"}, "fusion_lon": 0.0, "lat": 38.919785833333336, "bike_id": "162dedd5b253a6436f3cd71cc79b53f0", "type": "electric_scooter", "is_reserved": 0, "lon": -77.021757}, {"fusion_lat": 0.0, "name": "ee4866e5ea1b91c918f4051bb2421ea5", "is_disabled": 0, "rental_uris": {"android": "https://dc.lft.to/lastmile_qr_scan", "ios": "https://dc.lft.to/lastmile_qr_scan"}, "fusion_lon": 0.0, "lat": 38.9171205, "bike_id": "ee4866e5ea1b91c918f4051bb2421ea5", "type": "electric_scooter", "is_reserved": 0, "lon": -76.9766345}, {"fusion_lat": 0.0, "name": "36a0bd80edcd0ab2a7ec8ae7cbfa9cc6", "is_disabled": 0, "rental_uris": {"android": "https://dc.lft.to/lastmile_qr_scan", "ios": "https://dc.lft.to/lastmile_qr_scan"}, "fusion_lon": 0.0, "lat": 38.900938833333335, "bike_id": "36a0bd80edcd0ab2a7ec8ae7cbfa9cc6", "type": "electric_scooter", "is_reserved": 0, "lon": -76.98321483333334}, {"fusion_lat": 0.0, "name": "6d0d6ae98a602c7358679372c9e814c3", "is_disabled": 0, "rental_uris": {"android": "https://dc.lft.to/lastmile_qr_scan", "ios": "https://dc.lft.to/lastmile_qr_scan"}, "fusion_lon": 0.0, "lat": 38.94078433333333, "bike_id": "6d0d6ae98a602c7358679372c9e814c3", "type": "electric_scooter", "is_reserved": 0, "lon": -77.02996683333333}, {"fusion_lat": 0.0, "name": "f1237a787b4f2150b85c0f83e10bf5d7", "is_disabled": 0, "rental_uris": {"android": "https://dc.lft.to/lastmile_qr_scan", "ios": "https://dc.lft.to/lastmile_qr_scan"}, "fusion_lon": 0.0, "lat": 38.89994733333333, "bike_id": "f1237a787b4f2150b85c0f83e10bf5d7", "type": "electric_scooter", "is_reserved": 0, "lon": -77.02714166666667}, {"fusion_lat": 0.0, "name": "1e53858385c031334df69ffd2975609d", "is_disabled": 0, "rental_uris": {"android": "https://dc.lft.to/lastmile_qr_scan", "ios": "https://dc.lft.to/lastmile_qr_scan"}, "fusion_lon": 0.0, "lat": 38.87966983333333, "bike_id": "1e53858385c031334df69ffd2975609d", "type": "electric_bike", "is_reserved": 0, "lon": -76.916143}, {"fusion_lat": 0.0, "name": "b1fb693f6fc7d4c55a98d8e91a7b746c", "is_disabled": 0, "rental_uris": {"android": "https://dc.lft.to/lastmile_qr_scan", "ios": "https://dc.lft.to/lastmile_qr_scan"}, "fusion_lon": 0.0, "lat": 38.928720166666665, "bike_id": "b1fb693f6fc7d4c55a98d8e91a7b746c", "type": "electric_scooter", "is_reserved": 0, "lon": -77.03247033333334}, {"fusion_lat": 0.0, "name": "91c00ef2ba2ab0be84106601c51575c6", "is_disabled": 0, "rental_uris": {"android": "https://dc.lft.to/lastmile_qr_scan", "ios": "https://dc.lft.to/lastmile_qr_scan"}, "fusion_lon": 0.0, "lat": 38.928751, "bike_id": "91c00ef2ba2ab0be84106601c51575c6", "type": "electric_scooter", "is_reserved": 0, "lon": -76.995621}, {"fusion_lat": 0.0, "name": "040e66a00e91a16d9095d35fd21b3d5d", "is_disabled": 0, "rental_uris": {"android": "https://dc.lft.to/lastmile_qr_scan", "ios": "https://dc.lft.to/lastmile_qr_scan"}, "fusion_lon": 0.0, "lat": 38.88014016666666, "bike_id": "040e66a00e91a16d9095d35fd21b3d5d", "type": "electric_scooter", "is_reserved": 0, "lon": -76.98063266666666}, {"fusion_lat": 0.0, "name": "f36bde7ec1832d418299c42c9ed02295", "is_disabled": 0, "rental_uris": {"android": "https://dc.lft.to/lastmile_qr_scan", "ios": "https://dc.lft.to/lastmile_qr_scan"}, "fusion_lon": 0.0, "lat": 38.91094483333333, "bike_id": "f36bde7ec1832d418299c42c9ed02295", "type": "electric_scooter", "is_reserved": 0, "lon": -77.04485333333334}, {"fusion_lat": 0.0, "name": "0dc7f204fa74e32188cdff820f3665ed", "is_disabled": 0, "rental_uris": {"android": "https://dc.lft.to/lastmile_qr_scan", "ios": "https://dc.lft.to/lastmile_qr_scan"}, "fusion_lon": 0.0, "lat": 38.906547333333336, "bike_id": "0dc7f204fa74e32188cdff820f3665ed", "type": "electric_scooter", "is_reserved": 0, "lon": -77.02188433333333}, {"fusion_lat": 0.0, "name": "3609930677ee751489107b106901506e", "is_disabled": 0, "rental_uris": {"android": "https://dc.lft.to/lastmile_qr_scan", "ios": "https://dc.lft.to/lastmile_qr_scan"}, "fusion_lon": 0.0, "lat": 38.91112733333333, "bike_id": "3609930677ee751489107b106901506e", "type": "electric_scooter", "is_reserved": 0, "lon": -77.01972933333333}, {"fusion_lat": 0.0, "name": "1d14f31035b15a9db9a6d52642bdd7e8", "is_disabled": 0, "rental_uris": {"android": "https://dc.lft.to/lastmile_qr_scan", "ios": "https://dc.lft.to/lastmile_qr_scan"}, "fusion_lon": 0.0, "lat": 38.9023935, "bike_id": "1d14f31035b15a9db9a6d52642bdd7e8", "type": "electric_scooter", "is_reserved": 0, "lon": -77.00197983333334}, {"fusion_lat": 0.0, "name": "0395f29e1fe34dd48a57128a88be202b", "is_disabled": 0, "rental_uris": {"android": "https://dc.lft.to/lastmile_qr_scan", "ios": "https://dc.lft.to/lastmile_qr_scan"}, "fusion_lon": 0.0, "lat": 38.92572116666667, "bike_id": "0395f29e1fe34dd48a57128a88be202b", "type": "electric_scooter", "is_reserved": 0, "lon": -77.02689233333334}, {"fusion_lat": 0.0, "name": "930d04c5451b656893c2350a61717880", "is_disabled": 0, "rental_uris": {"android": "https://dc.lft.to/lastmile_qr_scan", "ios": "https://dc.lft.to/lastmile_qr_scan"}, "fusion_lon": 0.0, "lat": 38.912521166666664, "bike_id": "930d04c5451b656893c2350a61717880", "type": "electric_scooter", "is_reserved": 0, "lon": -77.03629116666667}, {"fusion_lat": 0.0, "name": "ec484b610a694ac34df9921b96af8cb9", "is_disabled": 0, "rental_uris": {"android": "https://dc.lft.to/lastmile_qr_scan", "ios": "https://dc.lft.to/lastmile_qr_scan"}, "fusion_lon": 0.0, "lat": 38.906265, "bike_id": "ec484b610a694ac34df9921b96af8cb9", "type": "electric_scooter", "is_reserved": 0, "lon": -77.02600666666666}, {"fusion_lat": 0.0, "name": "73ba89603347ab0204e5e7f34370aa05", "is_disabled": 0, "rental_uris": {"android": "https://dc.lft.to/lastmile_qr_scan", "ios": "https://dc.lft.to/lastmile_qr_scan"}, "fusion_lon": 0.0, "lat": 38.93112933333333, "bike_id": "73ba89603347ab0204e5e7f34370aa05", "type": "electric_scooter", "is_reserved": 0, "lon": -76.9961985}, {"fusion_lat": 0.0, "name": "2a8e133ef3511d4f30fdf2182319ef9d", "is_disabled": 0, "rental_uris": {"android": "https://dc.lft.to/lastmile_qr_scan", "ios": "https://dc.lft.to/lastmile_qr_scan"}, "fusion_lon": 0.0, "lat": 38.904362666666664, "bike_id": "2a8e133ef3511d4f30fdf2182319ef9d", "type": "electric_scooter", "is_reserved": 0, "lon": -77.02596383333334}, {"fusion_lat": 0.0, "name": "73ae82e093cc734902d67aea57898a76", "is_disabled": 0, "rental_uris": {"android": "https://dc.lft.to/lastmile_qr_scan", "ios": "https://dc.lft.to/lastmile_qr_scan"}, "fusion_lon": 0.0, "lat": 38.9141815, "bike_id": "73ae82e093cc734902d67aea57898a76", "type": "electric_scooter", "is_reserved": 0, "lon": -77.02810616666666}, {"fusion_lat": 0.0, "name": "a1af2767e3a9cd83a0ffda79bd012ed0", "is_disabled": 0, "rental_uris": {"android": "https://dc.lft.to/lastmile_qr_scan", "ios": "https://dc.lft.to/lastmile_qr_scan"}, "fusion_lon": 0.0, "lat": 38.92238066666667, "bike_id": "a1af2767e3a9cd83a0ffda79bd012ed0", "type": "electric_scooter", "is_reserved": 0, "lon": -77.042327}, {"fusion_lat": 0.0, "name": "84c8014854ace822c558488c1e9432c8", "is_disabled": 0, "rental_uris": {"android": "https://dc.lft.to/lastmile_qr_scan", "ios": "https://dc.lft.to/lastmile_qr_scan"}, "fusion_lon": 0.0, "lat": 38.9231865, "bike_id": "84c8014854ace822c558488c1e9432c8", "type": "electric_scooter", "is_reserved": 0, "lon": -77.04125066666667}, {"fusion_lat": 0.0, "name": "765f340d539a9ead28c11c3bb26a2bb0", "is_disabled": 0, "rental_uris": {"android": "https://dc.lft.to/lastmile_qr_scan", "ios": "https://dc.lft.to/lastmile_qr_scan"}, "fusion_lon": 0.0, "lat": 38.927397166666665, "bike_id": "765f340d539a9ead28c11c3bb26a2bb0", "type": "electric_bike", "is_reserved": 0, "lon": -76.99361633333334}, {"fusion_lat": 0.0, "name": "b030282bd2a62546cb703779b8b03220", "is_disabled": 0, "rental_uris": {"android": "https://dc.lft.to/lastmile_qr_scan", "ios": "https://dc.lft.to/lastmile_qr_scan"}, "fusion_lon": 0.0, "lat": 38.91705733333333, "bike_id": "b030282bd2a62546cb703779b8b03220", "type": "electric_scooter", "is_reserved": 0, "lon": -77.03869116666667}, {"fusion_lat": 0.0, "name": "cbd37de794713b8b8308607bd09c1775", "is_disabled": 0, "rental_uris": {"android": "https://dc.lft.to/lastmile_qr_scan", "ios": "https://dc.lft.to/lastmile_qr_scan"}, "fusion_lon": 0.0, "lat": 38.92944833333333, "bike_id": "cbd37de794713b8b8308607bd09c1775", "type": "electric_scooter", "is_reserved": 0, "lon": -77.03294033333333}, {"fusion_lat": 0.0, "name": "9c7de139971d84e5d5953f1ca0d0adc7", "is_disabled": 0, "rental_uris": {"android": "https://dc.lft.to/lastmile_qr_scan", "ios": "https://dc.lft.to/lastmile_qr_scan"}, "fusion_lon": 0.0, "lat": 38.91708233333333, "bike_id": "9c7de139971d84e5d5953f1ca0d0adc7", "type": "electric_scooter", "is_reserved": 0, "lon": -77.02427483333334}, {"fusion_lat": 0.0, "name": "f34a7e3cf3f05e693af50c25c481a474", "is_disabled": 0, "rental_uris": {"android": "https://dc.lft.to/lastmile_qr_scan", "ios": "https://dc.lft.to/lastmile_qr_scan"}, "fusion_lon": 0.0, "lat": 38.90980716666667, "bike_id": "f34a7e3cf3f05e693af50c25c481a474", "type": "electric_scooter", "is_reserved": 0, "lon": -77.03201683333333}, {"fusion_lat": 0.0, "name": "e99eca2013621c419cf5829c52ee27b2", "is_disabled": 0, "rental_uris": {"android": "https://dc.lft.to/lastmile_qr_scan", "ios": "https://dc.lft.to/lastmile_qr_scan"}, "fusion_lon": 0.0, "lat": 38.90846533333333, "bike_id": "e99eca2013621c419cf5829c52ee27b2", "type": "electric_scooter", "is_reserved": 0, "lon": -76.997733}, {"fusion_lat": 0.0, "name": "e53dbc5a0e16470cc0173d64bbf28354", "is_disabled": 0, "rental_uris": {"android": "https://dc.lft.to/lastmile_qr_scan", "ios": "https://dc.lft.to/lastmile_qr_scan"}, "fusion_lon": 0.0, "lat": 38.9281015, "bike_id": "e53dbc5a0e16470cc0173d64bbf28354", "type": "electric_scooter", "is_reserved": 0, "lon": -77.04356016666667}, {"fusion_lat": 0.0, "name": "ba0635233ea79a83631ceeb15f790339", "is_disabled": 0, "rental_uris": {"android": "https://dc.lft.to/lastmile_qr_scan", "ios": "https://dc.lft.to/lastmile_qr_scan"}, "fusion_lon": 0.0, "lat": 38.901511166666666, "bike_id": "ba0635233ea79a83631ceeb15f790339", "type": "electric_scooter", "is_reserved": 0, "lon": -76.93066616666667}, {"fusion_lat": 0.0, "name": "f2e14aa6c9bdc65da8f83b8d67c085d3", "is_disabled": 0, "rental_uris": {"android": "https://dc.lft.to/lastmile_qr_scan", "ios": "https://dc.lft.to/lastmile_qr_scan"}, "fusion_lon": 0.0, "lat": 38.961268833333335, "bike_id": "f2e14aa6c9bdc65da8f83b8d67c085d3", "type": "electric_bike", "is_reserved": 0, "lon": -77.03271866666667}, {"fusion_lat": 0.0, "name": "0adaa2708d224355bd7691544384728e", "is_disabled": 0, "rental_uris": {"android": "https://dc.lft.to/lastmile_qr_scan", "ios": "https://dc.lft.to/lastmile_qr_scan"}, "fusion_lon": 0.0, "lat": 38.879718, "bike_id": "0adaa2708d224355bd7691544384728e", "type": "electric_bike", "is_reserved": 0, "lon": -76.9841895}, {"fusion_lat": 0.0, "name": "604db598afa1585a54a9dc4cec9958c2", "is_disabled": 0, "rental_uris": {"android": "https://dc.lft.to/lastmile_qr_scan", "ios": "https://dc.lft.to/lastmile_qr_scan"}, "fusion_lon": 0.0, "lat": 38.91982433333333, "bike_id": "604db598afa1585a54a9dc4cec9958c2", "type": "electric_scooter", "is_reserved": 0, "lon": -77.04167466666667}, {"fusion_lat": 0.0, "name": "4368f2c839e3d11ea3fc02fff992a49b", "is_disabled": 0, "rental_uris": {"android": "https://dc.lft.to/lastmile_qr_scan", "ios": "https://dc.lft.to/lastmile_qr_scan"}, "fusion_lon": 0.0, "lat": 38.8801735, "bike_id": "4368f2c839e3d11ea3fc02fff992a49b", "type": "electric_scooter", "is_reserved": 0, "lon": -76.93111433333334}, {"fusion_lat": 0.0, "name": "3ce5cfe09aab46c7b0ec328b6bc717e4", "is_disabled": 0, "rental_uris": {"android": "https://dc.lft.to/lastmile_qr_scan", "ios": "https://dc.lft.to/lastmile_qr_scan"}, "fusion_lon": 0.0, "lat": 38.892275, "bike_id": "3ce5cfe09aab46c7b0ec328b6bc717e4", "type": "electric_scooter", "is_reserved": 0, "lon": -77.0240785}, {"fusion_lat": 0.0, "name": "ecf89c578d590aaef737c88dd46e263f", "is_disabled": 0, "rental_uris": {"android": "https://dc.lft.to/lastmile_qr_scan", "ios": "https://dc.lft.to/lastmile_qr_scan"}, "fusion_lon": 0.0, "lat": 38.920387, "bike_id": "ecf89c578d590aaef737c88dd46e263f", "type": "electric_scooter", "is_reserved": 0, "lon": -77.025851}, {"fusion_lat": 0.0, "name": "040faf1acda89e80dc1316648f88a615", "is_disabled": 0, "rental_uris": {"android": "https://dc.lft.to/lastmile_qr_scan", "ios": "https://dc.lft.to/lastmile_qr_scan"}, "fusion_lon": 0.0, "lat": 38.82458316666666, "bike_id": "040faf1acda89e80dc1316648f88a615", "type": "electric_bike", "is_reserved": 0, "lon": -77.00793333333333}, {"fusion_lat": 0.0, "name": "ec241fd1abf5e31d250c0c2bad82d5ec", "is_disabled": 0, "rental_uris": {"android": "https://dc.lft.to/lastmile_qr_scan", "ios": "https://dc.lft.to/lastmile_qr_scan"}, "fusion_lon": 0.0, "lat": 38.914026, "bike_id": "ec241fd1abf5e31d250c0c2bad82d5ec", "type": "electric_scooter", "is_reserved": 0, "lon": -77.008369}, {"fusion_lat": 0.0, "name": "fa78eb269b98fb0d8778d790474107d3", "is_disabled": 0, "rental_uris": {"android": "https://dc.lft.to/lastmile_qr_scan", "ios": "https://dc.lft.to/lastmile_qr_scan"}, "fusion_lon": 0.0, "lat": 38.899092, "bike_id": "fa78eb269b98fb0d8778d790474107d3", "type": "electric_scooter", "is_reserved": 0, "lon": -76.945537}, {"fusion_lat": 0.0, "name": "7d8f5e485fefe1bc2fe6bb68971ebb7c", "is_disabled": 0, "rental_uris": {"android": "https://dc.lft.to/lastmile_qr_scan", "ios": "https://dc.lft.to/lastmile_qr_scan"}, "fusion_lon": 0.0, "lat": 38.842991833333336, "bike_id": "7d8f5e485fefe1bc2fe6bb68971ebb7c", "type": "electric_bike", "is_reserved": 0, "lon": -77.10864816666667}, {"fusion_lat": 0.0, "name": "58a2763858679930a3f4439393f64a08", "is_disabled": 0, "rental_uris": {"android": "https://dc.lft.to/lastmile_qr_scan", "ios": "https://dc.lft.to/lastmile_qr_scan"}, "fusion_lon": 0.0, "lat": 38.90444133333333, "bike_id": "58a2763858679930a3f4439393f64a08", "type": "electric_scooter", "is_reserved": 0, "lon": -77.0601665}, {"fusion_lat": 0.0, "name": "d1f13a93c22181f0ced3843d9fad7d5a", "is_disabled": 0, "rental_uris": {"android": "https://dc.lft.to/lastmile_qr_scan", "ios": "https://dc.lft.to/lastmile_qr_scan"}, "fusion_lon": 0.0, "lat": 38.947437, "bike_id": "d1f13a93c22181f0ced3843d9fad7d5a", "type": "electric_scooter", "is_reserved": 0, "lon": -77.01618133333334}, {"fusion_lat": 0.0, "name": "e1109f018f2d1a16493d49a91d9c6cbc", "is_disabled": 0, "rental_uris": {"android": "https://dc.lft.to/lastmile_qr_scan", "ios": "https://dc.lft.to/lastmile_qr_scan"}, "fusion_lon": 0.0, "lat": 38.89587233333334, "bike_id": "e1109f018f2d1a16493d49a91d9c6cbc", "type": "electric_scooter", "is_reserved": 0, "lon": -77.00949216666666}, {"fusion_lat": 0.0, "name": "51920a2cdc9ebcb75865f3adb6e6766f", "is_disabled": 0, "rental_uris": {"android": "https://dc.lft.to/lastmile_qr_scan", "ios": "https://dc.lft.to/lastmile_qr_scan"}, "fusion_lon": 0.0, "lat": 38.944047166666664, "bike_id": "51920a2cdc9ebcb75865f3adb6e6766f", "type": "electric_scooter", "is_reserved": 0, "lon": -77.0386205}, {"fusion_lat": 0.0, "name": "f37e5e45caab31add150397704ed8592", "is_disabled": 0, "rental_uris": {"android": "https://dc.lft.to/lastmile_qr_scan", "ios": "https://dc.lft.to/lastmile_qr_scan"}, "fusion_lon": 0.0, "lat": 38.90959516666667, "bike_id": "f37e5e45caab31add150397704ed8592", "type": "electric_scooter", "is_reserved": 0, "lon": -77.01429316666666}, {"fusion_lat": 0.0, "name": "a8ca7bbd1632dd28cc16f79a93f8ab6b", "is_disabled": 0, "rental_uris": {"android": "https://dc.lft.to/lastmile_qr_scan", "ios": "https://dc.lft.to/lastmile_qr_scan"}, "fusion_lon": 0.0, "lat": 38.89224566666667, "bike_id": "a8ca7bbd1632dd28cc16f79a93f8ab6b", "type": "electric_scooter", "is_reserved": 0, "lon": -77.03214783333334}, {"fusion_lat": 0.0, "name": "03177d6c252651b8ad37a237e6827425", "is_disabled": 0, "rental_uris": {"android": "https://dc.lft.to/lastmile_qr_scan", "ios": "https://dc.lft.to/lastmile_qr_scan"}, "fusion_lon": 0.0, "lat": 38.89508266666667, "bike_id": "03177d6c252651b8ad37a237e6827425", "type": "electric_scooter", "is_reserved": 0, "lon": -77.02195083333334}, {"fusion_lat": 0.0, "name": "51c5a0387f274eed0a909aeb052d213b", "is_disabled": 0, "rental_uris": {"android": "https://dc.lft.to/lastmile_qr_scan", "ios": "https://dc.lft.to/lastmile_qr_scan"}, "fusion_lon": 0.0, "lat": 38.91601433333334, "bike_id": "51c5a0387f274eed0a909aeb052d213b", "type": "electric_scooter", "is_reserved": 0, "lon": -77.0466625}, {"fusion_lat": 0.0, "name": "da828267abad172a1afee74c7d0b7dfe", "is_disabled": 0, "rental_uris": {"android": "https://dc.lft.to/lastmile_qr_scan", "ios": "https://dc.lft.to/lastmile_qr_scan"}, "fusion_lon": 0.0, "lat": 38.91293316666667, "bike_id": "da828267abad172a1afee74c7d0b7dfe", "type": "electric_scooter", "is_reserved": 0, "lon": -77.008872}, {"fusion_lat": 0.0, "name": "c0711c8b48cdec0a366c8ef5767f592e", "is_disabled": 0, "rental_uris": {"android": "https://dc.lft.to/lastmile_qr_scan", "ios": "https://dc.lft.to/lastmile_qr_scan"}, "fusion_lon": 0.0, "lat": 38.926038, "bike_id": "c0711c8b48cdec0a366c8ef5767f592e", "type": "electric_scooter", "is_reserved": 0, "lon": -77.03748533333334}, {"fusion_lat": 0.0, "name": "25469cb17291f56b7bb50d3042cc751f", "is_disabled": 0, "rental_uris": {"android": "https://dc.lft.to/lastmile_qr_scan", "ios": "https://dc.lft.to/lastmile_qr_scan"}, "fusion_lon": 0.0, "lat": 38.9021255, "bike_id": "25469cb17291f56b7bb50d3042cc751f", "type": "electric_scooter", "is_reserved": 0, "lon": -77.01883266666667}, {"fusion_lat": 0.0, "name": "6ed068859b26a017a3bad562f417d206", "is_disabled": 0, "rental_uris": {"android": "https://dc.lft.to/lastmile_qr_scan", "ios": "https://dc.lft.to/lastmile_qr_scan"}, "fusion_lon": 0.0, "lat": 38.853547666666664, "bike_id": "6ed068859b26a017a3bad562f417d206", "type": "electric_bike", "is_reserved": 0, "lon": -77.13460816666667}, {"fusion_lat": 0.0, "name": "5a4cc484baa8ec5a0f861e68dbef6901", "is_disabled": 0, "rental_uris": {"android": "https://dc.lft.to/lastmile_qr_scan", "ios": "https://dc.lft.to/lastmile_qr_scan"}, "fusion_lon": 0.0, "lat": 38.9254585, "bike_id": "5a4cc484baa8ec5a0f861e68dbef6901", "type": "electric_scooter", "is_reserved": 0, "lon": -77.03336166666666}, {"fusion_lat": 0.0, "name": "26efe7fe13d47a760f9967baaf27e74c", "is_disabled": 0, "rental_uris": {"android": "https://dc.lft.to/lastmile_qr_scan", "ios": "https://dc.lft.to/lastmile_qr_scan"}, "fusion_lon": 0.0, "lat": 38.892236, "bike_id": "26efe7fe13d47a760f9967baaf27e74c", "type": "electric_scooter", "is_reserved": 0, "lon": -77.04121616666667}, {"fusion_lat": 0.0, "name": "2fbc5e05442421f1ef566d1bc6ad8e62", "is_disabled": 0, "rental_uris": {"android": "https://dc.lft.to/lastmile_qr_scan", "ios": "https://dc.lft.to/lastmile_qr_scan"}, "fusion_lon": 0.0, "lat": 38.91253566666666, "bike_id": "2fbc5e05442421f1ef566d1bc6ad8e62", "type": "electric_scooter", "is_reserved": 0, "lon": -77.03866383333333}, {"fusion_lat": 0.0, "name": "0ded62a485b36adfa66d8cbf52b64bbe", "is_disabled": 0, "rental_uris": {"android": "https://dc.lft.to/lastmile_qr_scan", "ios": "https://dc.lft.to/lastmile_qr_scan"}, "fusion_lon": 0.0, "lat": 38.914385833333334, "bike_id": "0ded62a485b36adfa66d8cbf52b64bbe", "type": "electric_scooter", "is_reserved": 0, "lon": -77.01220133333334}, {"fusion_lat": 0.0, "name": "ee4747e6c475ebe45fb28cfcfcd0660e", "is_disabled": 0, "rental_uris": {"android": "https://dc.lft.to/lastmile_qr_scan", "ios": "https://dc.lft.to/lastmile_qr_scan"}, "fusion_lon": 0.0, "lat": 38.8475665, "bike_id": "ee4747e6c475ebe45fb28cfcfcd0660e", "type": "electric_scooter", "is_reserved": 0, "lon": -76.99502916666667}, {"fusion_lat": 0.0, "name": "966ebac74c20a3310c76e9adbf7ba5dd", "is_disabled": 0, "rental_uris": {"android": "https://dc.lft.to/lastmile_qr_scan", "ios": "https://dc.lft.to/lastmile_qr_scan"}, "fusion_lon": 0.0, "lat": 38.875054666666664, "bike_id": "966ebac74c20a3310c76e9adbf7ba5dd", "type": "electric_scooter", "is_reserved": 0, "lon": -77.00017233333334}, {"fusion_lat": 0.0, "name": "9d6fd917c350be91b3e093dbb3e0eacc", "is_disabled": 0, "rental_uris": {"android": "https://dc.lft.to/lastmile_qr_scan", "ios": "https://dc.lft.to/lastmile_qr_scan"}, "fusion_lon": 0.0, "lat": 38.914784166666664, "bike_id": "9d6fd917c350be91b3e093dbb3e0eacc", "type": "electric_scooter", "is_reserved": 0, "lon": -77.02170883333334}, {"fusion_lat": 0.0, "name": "abf43420d6fc4388993146d1027fc544", "is_disabled": 0, "rental_uris": {"android": "https://dc.lft.to/lastmile_qr_scan", "ios": "https://dc.lft.to/lastmile_qr_scan"}, "fusion_lon": 0.0, "lat": 38.915993666666665, "bike_id": "abf43420d6fc4388993146d1027fc544", "type": "electric_scooter", "is_reserved": 0, "lon": -76.99363633333333}, {"fusion_lat": 0.0, "name": "6bb9be1be14a397ea3ba7edc87650f30", "is_disabled": 0, "rental_uris": {"android": "https://dc.lft.to/lastmile_qr_scan", "ios": "https://dc.lft.to/lastmile_qr_scan"}, "fusion_lon": 0.0, "lat": 38.87885933333333, "bike_id": "6bb9be1be14a397ea3ba7edc87650f30", "type": "electric_scooter", "is_reserved": 0, "lon": -77.005534}, {"fusion_lat": 0.0, "name": "c4e9a204278eceb3373c875b4209bf9d", "is_disabled": 0, "rental_uris": {"android": "https://dc.lft.to/lastmile_qr_scan", "ios": "https://dc.lft.to/lastmile_qr_scan"}, "fusion_lon": 0.0, "lat": 38.92860433333333, "bike_id": "c4e9a204278eceb3373c875b4209bf9d", "type": "electric_scooter", "is_reserved": 0, "lon": -77.03525783333333}, {"fusion_lat": 0.0, "name": "7aae3c7e17ad60d53eb5b2bd3dd622a9", "is_disabled": 0, "rental_uris": {"android": "https://dc.lft.to/lastmile_qr_scan", "ios": "https://dc.lft.to/lastmile_qr_scan"}, "fusion_lon": 0.0, "lat": 38.9021645, "bike_id": "7aae3c7e17ad60d53eb5b2bd3dd622a9", "type": "electric_scooter", "is_reserved": 0, "lon": -76.98612033333333}, {"fusion_lat": 0.0, "name": "d5be8a3177348c4dd104cb0772cf8971", "is_disabled": 0, "rental_uris": {"android": "https://dc.lft.to/lastmile_qr_scan", "ios": "https://dc.lft.to/lastmile_qr_scan"}, "fusion_lon": 0.0, "lat": 38.9232115, "bike_id": "d5be8a3177348c4dd104cb0772cf8971", "type": "electric_scooter", "is_reserved": 0, "lon": -77.03801783333333}, {"fusion_lat": 0.0, "name": "1519155ef3ec1b9001f39048c8fd7905", "is_disabled": 0, "rental_uris": {"android": "https://dc.lft.to/lastmile_qr_scan", "ios": "https://dc.lft.to/lastmile_qr_scan"}, "fusion_lon": 0.0, "lat": 38.91435716666667, "bike_id": "1519155ef3ec1b9001f39048c8fd7905", "type": "electric_scooter", "is_reserved": 0, "lon": -76.99353033333334}, {"fusion_lat": 0.0, "name": "5192057d3ca132b5fe313c1a90331f03", "is_disabled": 0, "rental_uris": {"android": "https://dc.lft.to/lastmile_qr_scan", "ios": "https://dc.lft.to/lastmile_qr_scan"}, "fusion_lon": 0.0, "lat": 38.88510383333333, "bike_id": "5192057d3ca132b5fe313c1a90331f03", "type": "electric_scooter", "is_reserved": 0, "lon": -77.01116366666666}, {"fusion_lat": 0.0, "name": "1b208d6ea1e804a64bc18d65f5566fa0", "is_disabled": 0, "rental_uris": {"android": "https://dc.lft.to/lastmile_qr_scan", "ios": "https://dc.lft.to/lastmile_qr_scan"}, "fusion_lon": 0.0, "lat": 38.964906, "bike_id": "1b208d6ea1e804a64bc18d65f5566fa0", "type": "electric_bike", "is_reserved": 0, "lon": -77.10714316666666}, {"fusion_lat": 0.0, "name": "d337cde161a7cb76ab35d0b64277db4f", "is_disabled": 0, "rental_uris": {"android": "https://dc.lft.to/lastmile_qr_scan", "ios": "https://dc.lft.to/lastmile_qr_scan"}, "fusion_lon": 0.0, "lat": 38.884265, "bike_id": "d337cde161a7cb76ab35d0b64277db4f", "type": "electric_scooter", "is_reserved": 0, "lon": -76.99609766666667}, {"fusion_lat": 0.0, "name": "c182d87517282c8fb365e8f6c3ce2f9a", "is_disabled": 0, "rental_uris": {"android": "https://dc.lft.to/lastmile_qr_scan", "ios": "https://dc.lft.to/lastmile_qr_scan"}, "fusion_lon": 0.0, "lat": 38.939645166666665, "bike_id": "c182d87517282c8fb365e8f6c3ce2f9a", "type": "electric_scooter", "is_reserved": 0, "lon": -77.03276416666667}, {"fusion_lat": 0.0, "name": "b34eeebe4bda9dc65347cbe64a30a4c9", "is_disabled": 0, "rental_uris": {"android": "https://dc.lft.to/lastmile_qr_scan", "ios": "https://dc.lft.to/lastmile_qr_scan"}, "fusion_lon": 0.0, "lat": 38.9083215, "bike_id": "b34eeebe4bda9dc65347cbe64a30a4c9", "type": "electric_scooter", "is_reserved": 0, "lon": -77.002145}, {"fusion_lat": 0.0, "name": "6ebc6cf9cd5c9c46747aeb29abae6a4e", "is_disabled": 0, "rental_uris": {"android": "https://dc.lft.to/lastmile_qr_scan", "ios": "https://dc.lft.to/lastmile_qr_scan"}, "fusion_lon": 0.0, "lat": 38.941818833333336, "bike_id": "6ebc6cf9cd5c9c46747aeb29abae6a4e", "type": "electric_scooter", "is_reserved": 0, "lon": -77.02476183333333}, {"fusion_lat": 0.0, "name": "ffd2f41f2ae9c984c56f8b965bef7b45", "is_disabled": 0, "rental_uris": {"android": "https://dc.lft.to/lastmile_qr_scan", "ios": "https://dc.lft.to/lastmile_qr_scan"}, "fusion_lon": 0.0, "lat": 38.9407265, "bike_id": "ffd2f41f2ae9c984c56f8b965bef7b45", "type": "electric_bike", "is_reserved": 0, "lon": -76.99456916666666}, {"fusion_lat": 0.0, "name": "df1dbc961892ad8e7703cfc32b486f60", "is_disabled": 0, "rental_uris": {"android": "https://dc.lft.to/lastmile_qr_scan", "ios": "https://dc.lft.to/lastmile_qr_scan"}, "fusion_lon": 0.0, "lat": 38.923259333333334, "bike_id": "df1dbc961892ad8e7703cfc32b486f60", "type": "electric_scooter", "is_reserved": 0, "lon": -77.0207425}, {"fusion_lat": 0.0, "name": "abcba60cbc66e982e8a3a7b6dfc4e4ab", "is_disabled": 0, "rental_uris": {"android": "https://dc.lft.to/lastmile_qr_scan", "ios": "https://dc.lft.to/lastmile_qr_scan"}, "fusion_lon": 0.0, "lat": 38.90678616666667, "bike_id": "abcba60cbc66e982e8a3a7b6dfc4e4ab", "type": "electric_scooter", "is_reserved": 0, "lon": -77.03805433333333}, {"fusion_lat": 0.0, "name": "3a1463ad81c4b645f2b87da3f8998047", "is_disabled": 0, "rental_uris": {"android": "https://dc.lft.to/lastmile_qr_scan", "ios": "https://dc.lft.to/lastmile_qr_scan"}, "fusion_lon": 0.0, "lat": 38.93462266666667, "bike_id": "3a1463ad81c4b645f2b87da3f8998047", "type": "electric_scooter", "is_reserved": 0, "lon": -77.0411305}, {"fusion_lat": 0.0, "name": "ec1ca98342239f84ce0208133f21366c", "is_disabled": 0, "rental_uris": {"android": "https://dc.lft.to/lastmile_qr_scan", "ios": "https://dc.lft.to/lastmile_qr_scan"}, "fusion_lon": 0.0, "lat": 38.903100333333335, "bike_id": "ec1ca98342239f84ce0208133f21366c", "type": "electric_scooter", "is_reserved": 0, "lon": -77.01194233333334}, {"fusion_lat": 0.0, "name": "4c9d1e8c943164e383dcda0a75bae467", "is_disabled": 0, "rental_uris": {"android": "https://dc.lft.to/lastmile_qr_scan", "ios": "https://dc.lft.to/lastmile_qr_scan"}, "fusion_lon": 0.0, "lat": 38.8747015, "bike_id": "4c9d1e8c943164e383dcda0a75bae467", "type": "electric_scooter", "is_reserved": 0, "lon": -77.005627}, {"fusion_lat": 0.0, "name": "fbd07bca6c68f920d765e5014d716409", "is_disabled": 0, "rental_uris": {"android": "https://dc.lft.to/lastmile_qr_scan", "ios": "https://dc.lft.to/lastmile_qr_scan"}, "fusion_lon": 0.0, "lat": 38.90736533333333, "bike_id": "fbd07bca6c68f920d765e5014d716409", "type": "electric_scooter", "is_reserved": 0, "lon": -77.0480545}, {"fusion_lat": 0.0, "name": "007276b73e4df27ab4cf41acf82dde2e", "is_disabled": 0, "rental_uris": {"android": "https://dc.lft.to/lastmile_qr_scan", "ios": "https://dc.lft.to/lastmile_qr_scan"}, "fusion_lon": 0.0, "lat": 38.916267833333336, "bike_id": "007276b73e4df27ab4cf41acf82dde2e", "type": "electric_scooter", "is_reserved": 0, "lon": -77.0134335}, {"fusion_lat": 0.0, "name": "0cd09fdfc9936834272782bdffd546e6", "is_disabled": 0, "rental_uris": {"android": "https://dc.lft.to/lastmile_qr_scan", "ios": "https://dc.lft.to/lastmile_qr_scan"}, "fusion_lon": 0.0, "lat": 38.887367, "bike_id": "0cd09fdfc9936834272782bdffd546e6", "type": "electric_scooter", "is_reserved": 0, "lon": -77.0034425}, {"fusion_lat": 0.0, "name": "ef9e06601835ad5dcbe607065a48882f", "is_disabled": 0, "rental_uris": {"android": "https://dc.lft.to/lastmile_qr_scan", "ios": "https://dc.lft.to/lastmile_qr_scan"}, "fusion_lon": 0.0, "lat": 38.9312935, "bike_id": "ef9e06601835ad5dcbe607065a48882f", "type": "electric_scooter", "is_reserved": 0, "lon": -77.07844066666667}, {"fusion_lat": 0.0, "name": "01aed00a55e1d56f11a5ff4aaa272117", "is_disabled": 0, "rental_uris": {"android": "https://dc.lft.to/lastmile_qr_scan", "ios": "https://dc.lft.to/lastmile_qr_scan"}, "fusion_lon": 0.0, "lat": 38.89199083333333, "bike_id": "01aed00a55e1d56f11a5ff4aaa272117", "type": "electric_scooter", "is_reserved": 0, "lon": -77.0433525}, {"fusion_lat": 0.0, "name": "bf44f75a2206283231e06962e8c23bd9", "is_disabled": 0, "rental_uris": {"android": "https://dc.lft.to/lastmile_qr_scan", "ios": "https://dc.lft.to/lastmile_qr_scan"}, "fusion_lon": 0.0, "lat": 38.93612983333333, "bike_id": "bf44f75a2206283231e06962e8c23bd9", "type": "electric_scooter", "is_reserved": 0, "lon": -77.05854166666667}, {"fusion_lat": 0.0, "name": "f014d9a70da6f4ba9b6e337126187a5f", "is_disabled": 0, "rental_uris": {"android": "https://dc.lft.to/lastmile_qr_scan", "ios": "https://dc.lft.to/lastmile_qr_scan"}, "fusion_lon": 0.0, "lat": 38.9077785, "bike_id": "f014d9a70da6f4ba9b6e337126187a5f", "type": "electric_scooter", "is_reserved": 0, "lon": -77.04268083333334}, {"fusion_lat": 0.0, "name": "c0144f91c4f0fb69103fa24c35e7f496", "is_disabled": 0, "rental_uris": {"android": "https://dc.lft.to/lastmile_qr_scan", "ios": "https://dc.lft.to/lastmile_qr_scan"}, "fusion_lon": 0.0, "lat": 38.910959166666665, "bike_id": "c0144f91c4f0fb69103fa24c35e7f496", "type": "electric_scooter", "is_reserved": 0, "lon": -77.04479833333333}, {"fusion_lat": 0.0, "name": "3af87e03aa6e2bddca1ecc054842f98a", "is_disabled": 0, "rental_uris": {"android": "https://dc.lft.to/lastmile_qr_scan", "ios": "https://dc.lft.to/lastmile_qr_scan"}, "fusion_lon": 0.0, "lat": 38.875773, "bike_id": "3af87e03aa6e2bddca1ecc054842f98a", "type": "electric_bike", "is_reserved": 0, "lon": -77.23409416666667}, {"fusion_lat": 0.0, "name": "86acf304bed7e7b077b2061567332fd1", "is_disabled": 0, "rental_uris": {"android": "https://dc.lft.to/lastmile_qr_scan", "ios": "https://dc.lft.to/lastmile_qr_scan"}, "fusion_lon": 0.0, "lat": 38.908440666666664, "bike_id": "86acf304bed7e7b077b2061567332fd1", "type": "electric_scooter", "is_reserved": 0, "lon": -77.03300533333334}, {"fusion_lat": 0.0, "name": "f86faca6888683ea0900a394310a342f", "is_disabled": 0, "rental_uris": {"android": "https://dc.lft.to/lastmile_qr_scan", "ios": "https://dc.lft.to/lastmile_qr_scan"}, "fusion_lon": 0.0, "lat": 38.8998505, "bike_id": "f86faca6888683ea0900a394310a342f", "type": "electric_scooter", "is_reserved": 0, "lon": -77.02718766666666}, {"fusion_lat": 0.0, "name": "12d97873a9a6e9000a0e9a393aab9fe6", "is_disabled": 0, "rental_uris": {"android": "https://dc.lft.to/lastmile_qr_scan", "ios": "https://dc.lft.to/lastmile_qr_scan"}, "fusion_lon": 0.0, "lat": 38.9209625, "bike_id": "12d97873a9a6e9000a0e9a393aab9fe6", "type": "electric_scooter", "is_reserved": 0, "lon": -77.02517233333333}, {"fusion_lat": 0.0, "name": "b680844a4ae70639950c22c092f409f4", "is_disabled": 0, "rental_uris": {"android": "https://dc.lft.to/lastmile_qr_scan", "ios": "https://dc.lft.to/lastmile_qr_scan"}, "fusion_lon": 0.0, "lat": 38.89891983333333, "bike_id": "b680844a4ae70639950c22c092f409f4", "type": "electric_scooter", "is_reserved": 0, "lon": -76.9336405}, {"fusion_lat": 0.0, "name": "393900f66bf08a96291ad89e9c234e13", "is_disabled": 0, "rental_uris": {"android": "https://dc.lft.to/lastmile_qr_scan", "ios": "https://dc.lft.to/lastmile_qr_scan"}, "fusion_lon": 0.0, "lat": 38.917095, "bike_id": "393900f66bf08a96291ad89e9c234e13", "type": "electric_scooter", "is_reserved": 0, "lon": -77.0335045}, {"fusion_lat": 0.0, "name": "c0f624016f25043dbf51b5a634387c97", "is_disabled": 0, "rental_uris": {"android": "https://dc.lft.to/lastmile_qr_scan", "ios": "https://dc.lft.to/lastmile_qr_scan"}, "fusion_lon": 0.0, "lat": 38.885275166666666, "bike_id": "c0f624016f25043dbf51b5a634387c97", "type": "electric_scooter", "is_reserved": 0, "lon": -76.92911733333334}, {"fusion_lat": 0.0, "name": "70974584f02f865a3e4f0da41c657087", "is_disabled": 0, "rental_uris": {"android": "https://dc.lft.to/lastmile_qr_scan", "ios": "https://dc.lft.to/lastmile_qr_scan"}, "fusion_lon": 0.0, "lat": 38.90560516666667, "bike_id": "70974584f02f865a3e4f0da41c657087", "type": "electric_scooter", "is_reserved": 0, "lon": -77.00550683333333}, {"fusion_lat": 0.0, "name": "9b75d0119060fc98121afd603692ddef", "is_disabled": 0, "rental_uris": {"android": "https://dc.lft.to/lastmile_qr_scan", "ios": "https://dc.lft.to/lastmile_qr_scan"}, "fusion_lon": 0.0, "lat": 38.89912016666667, "bike_id": "9b75d0119060fc98121afd603692ddef", "type": "electric_scooter", "is_reserved": 0, "lon": -76.94585266666667}, {"fusion_lat": 0.0, "name": "ef93292acd38745223da1abedf9a33f3", "is_disabled": 0, "rental_uris": {"android": "https://dc.lft.to/lastmile_qr_scan", "ios": "https://dc.lft.to/lastmile_qr_scan"}, "fusion_lon": 0.0, "lat": 38.9284035, "bike_id": "ef93292acd38745223da1abedf9a33f3", "type": "electric_scooter", "is_reserved": 0, "lon": -77.0158755}, {"fusion_lat": 0.0, "name": "28bfdb18a4ac9cfacf11c76791fa7d39", "is_disabled": 0, "rental_uris": {"android": "https://dc.lft.to/lastmile_qr_scan", "ios": "https://dc.lft.to/lastmile_qr_scan"}, "fusion_lon": 0.0, "lat": 38.91615083333333, "bike_id": "28bfdb18a4ac9cfacf11c76791fa7d39", "type": "electric_scooter", "is_reserved": 0, "lon": -77.04544816666667}, {"fusion_lat": 0.0, "name": "4ea1ca4b360c2184b4fedd71a297ff94", "is_disabled": 0, "rental_uris": {"android": "https://dc.lft.to/lastmile_qr_scan", "ios": "https://dc.lft.to/lastmile_qr_scan"}, "fusion_lon": 0.0, "lat": 38.9148055, "bike_id": "4ea1ca4b360c2184b4fedd71a297ff94", "type": "electric_scooter", "is_reserved": 0, "lon": -77.04274133333334}, {"fusion_lat": 0.0, "name": "41a6537cf80df68a4be3f8755b15a320", "is_disabled": 0, "rental_uris": {"android": "https://dc.lft.to/lastmile_qr_scan", "ios": "https://dc.lft.to/lastmile_qr_scan"}, "fusion_lon": 0.0, "lat": 38.90978166666667, "bike_id": "41a6537cf80df68a4be3f8755b15a320", "type": "electric_scooter", "is_reserved": 0, "lon": -77.0319215}, {"fusion_lat": 0.0, "name": "7133416fd18afcf39111370763ba8ad4", "is_disabled": 0, "rental_uris": {"android": "https://dc.lft.to/lastmile_qr_scan", "ios": "https://dc.lft.to/lastmile_qr_scan"}, "fusion_lon": 0.0, "lat": 38.92787833333333, "bike_id": "7133416fd18afcf39111370763ba8ad4", "type": "electric_scooter", "is_reserved": 0, "lon": -77.02252983333334}, {"fusion_lat": 0.0, "name": "d1d9b44ac5aa64e6f5746536c64b8ad5", "is_disabled": 0, "rental_uris": {"android": "https://dc.lft.to/lastmile_qr_scan", "ios": "https://dc.lft.to/lastmile_qr_scan"}, "fusion_lon": 0.0, "lat": 38.877228, "bike_id": "d1d9b44ac5aa64e6f5746536c64b8ad5", "type": "electric_scooter", "is_reserved": 0, "lon": -77.0175985}, {"fusion_lat": 0.0, "name": "476c827692fc046914b14a7a2a882cf0", "is_disabled": 0, "rental_uris": {"android": "https://dc.lft.to/lastmile_qr_scan", "ios": "https://dc.lft.to/lastmile_qr_scan"}, "fusion_lon": 0.0, "lat": 38.90617966666667, "bike_id": "476c827692fc046914b14a7a2a882cf0", "type": "electric_scooter", "is_reserved": 0, "lon": -77.0628425}, {"fusion_lat": 0.0, "name": "b38d90549a0364bf7500f76c14d32a6b", "is_disabled": 0, "rental_uris": {"android": "https://dc.lft.to/lastmile_qr_scan", "ios": "https://dc.lft.to/lastmile_qr_scan"}, "fusion_lon": 0.0, "lat": 38.90065766666667, "bike_id": "b38d90549a0364bf7500f76c14d32a6b", "type": "electric_scooter", "is_reserved": 0, "lon": -76.92743533333334}, {"fusion_lat": 0.0, "name": "f788756333ff51a0a760574000316181", "is_disabled": 0, "rental_uris": {"android": "https://dc.lft.to/lastmile_qr_scan", "ios": "https://dc.lft.to/lastmile_qr_scan"}, "fusion_lon": 0.0, "lat": 38.927595833333335, "bike_id": "f788756333ff51a0a760574000316181", "type": "electric_scooter", "is_reserved": 0, "lon": -77.02424766666667}, {"fusion_lat": 0.0, "name": "b4b6e9dce8d37f7b6507171e641df2b6", "is_disabled": 0, "rental_uris": {"android": "https://dc.lft.to/lastmile_qr_scan", "ios": "https://dc.lft.to/lastmile_qr_scan"}, "fusion_lon": 0.0, "lat": 38.89656183333334, "bike_id": "b4b6e9dce8d37f7b6507171e641df2b6", "type": "electric_scooter", "is_reserved": 0, "lon": -77.05106166666667}, {"fusion_lat": 0.0, "name": "4b0812a20268b75da014a72f83246f86", "is_disabled": 0, "rental_uris": {"android": "https://dc.lft.to/lastmile_qr_scan", "ios": "https://dc.lft.to/lastmile_qr_scan"}, "fusion_lon": 0.0, "lat": 38.875342833333335, "bike_id": "4b0812a20268b75da014a72f83246f86", "type": "electric_scooter", "is_reserved": 0, "lon": -77.0050655}, {"fusion_lat": 0.0, "name": "979b6c39881a0a2c36e34560867260af", "is_disabled": 0, "rental_uris": {"android": "https://dc.lft.to/lastmile_qr_scan", "ios": "https://dc.lft.to/lastmile_qr_scan"}, "fusion_lon": 0.0, "lat": 38.89547483333333, "bike_id": "979b6c39881a0a2c36e34560867260af", "type": "electric_scooter", "is_reserved": 0, "lon": -76.9495575}, {"fusion_lat": 0.0, "name": "b0cb3e0d2c08e3c324e2667f9e3a63a6", "is_disabled": 0, "rental_uris": {"android": "https://dc.lft.to/lastmile_qr_scan", "ios": "https://dc.lft.to/lastmile_qr_scan"}, "fusion_lon": 0.0, "lat": 38.957590833333335, "bike_id": "b0cb3e0d2c08e3c324e2667f9e3a63a6", "type": "electric_scooter", "is_reserved": 0, "lon": -77.0205705}, {"fusion_lat": 0.0, "name": "a7c06ed47b3de5aa8b42eab83fe7663e", "is_disabled": 0, "rental_uris": {"android": "https://dc.lft.to/lastmile_qr_scan", "ios": "https://dc.lft.to/lastmile_qr_scan"}, "fusion_lon": 0.0, "lat": 38.90269933333333, "bike_id": "a7c06ed47b3de5aa8b42eab83fe7663e", "type": "electric_scooter", "is_reserved": 0, "lon": -77.03971916666667}, {"fusion_lat": 0.0, "name": "0706fec46813f9f150315e5203f40e49", "is_disabled": 0, "rental_uris": {"android": "https://dc.lft.to/lastmile_qr_scan", "ios": "https://dc.lft.to/lastmile_qr_scan"}, "fusion_lon": 0.0, "lat": 38.875155666666664, "bike_id": "0706fec46813f9f150315e5203f40e49", "type": "electric_scooter", "is_reserved": 0, "lon": -77.0010365}, {"fusion_lat": 0.0, "name": "e227fd110b07aea96b2a5283ec70b1c2", "is_disabled": 0, "rental_uris": {"android": "https://dc.lft.to/lastmile_qr_scan", "ios": "https://dc.lft.to/lastmile_qr_scan"}, "fusion_lon": 0.0, "lat": 38.92319966666667, "bike_id": "e227fd110b07aea96b2a5283ec70b1c2", "type": "electric_scooter", "is_reserved": 0, "lon": -77.04410216666666}, {"fusion_lat": 0.0, "name": "923434ff88d744b9d2ac5027461266c6", "is_disabled": 0, "rental_uris": {"android": "https://dc.lft.to/lastmile_qr_scan", "ios": "https://dc.lft.to/lastmile_qr_scan"}, "fusion_lon": 0.0, "lat": 38.876621666666665, "bike_id": "923434ff88d744b9d2ac5027461266c6", "type": "electric_scooter", "is_reserved": 0, "lon": -76.99625133333333}, {"fusion_lat": 0.0, "name": "db4bad10d76d26da73f2510d7b9a513e", "is_disabled": 0, "rental_uris": {"android": "https://dc.lft.to/lastmile_qr_scan", "ios": "https://dc.lft.to/lastmile_qr_scan"}, "fusion_lon": 0.0, "lat": 38.8738475, "bike_id": "db4bad10d76d26da73f2510d7b9a513e", "type": "electric_scooter", "is_reserved": 0, "lon": -77.00039116666666}, {"fusion_lat": 0.0, "name": "40882446f817de702877f515f27506ad", "is_disabled": 0, "rental_uris": {"android": "https://dc.lft.to/lastmile_qr_scan", "ios": "https://dc.lft.to/lastmile_qr_scan"}, "fusion_lon": 0.0, "lat": 38.92602383333333, "bike_id": "40882446f817de702877f515f27506ad", "type": "electric_scooter", "is_reserved": 0, "lon": -77.02154933333334}, {"fusion_lat": 0.0, "name": "004ceea649c2970c67bb68cec32c9329", "is_disabled": 0, "rental_uris": {"android": "https://dc.lft.to/lastmile_qr_scan", "ios": "https://dc.lft.to/lastmile_qr_scan"}, "fusion_lon": 0.0, "lat": 38.923841833333334, "bike_id": "004ceea649c2970c67bb68cec32c9329", "type": "electric_scooter", "is_reserved": 0, "lon": -77.0273585}, {"fusion_lat": 0.0, "name": "15bc9c9bb21936d7a1836ea02b9fbcee", "is_disabled": 0, "rental_uris": {"android": "https://dc.lft.to/lastmile_qr_scan", "ios": "https://dc.lft.to/lastmile_qr_scan"}, "fusion_lon": 0.0, "lat": 38.91168183333333, "bike_id": "15bc9c9bb21936d7a1836ea02b9fbcee", "type": "electric_scooter", "is_reserved": 0, "lon": -76.98720233333333}, {"fusion_lat": 0.0, "name": "a91c5bf6375a8e7919593a2195378005", "is_disabled": 0, "rental_uris": {"android": "https://dc.lft.to/lastmile_qr_scan", "ios": "https://dc.lft.to/lastmile_qr_scan"}, "fusion_lon": 0.0, "lat": 38.92260366666667, "bike_id": "a91c5bf6375a8e7919593a2195378005", "type": "electric_scooter", "is_reserved": 0, "lon": -77.0366165}, {"fusion_lat": 0.0, "name": "be201153841c5e9ab953aa8c5a7cb046", "is_disabled": 0, "rental_uris": {"android": "https://dc.lft.to/lastmile_qr_scan", "ios": "https://dc.lft.to/lastmile_qr_scan"}, "fusion_lon": 0.0, "lat": 38.89859083333333, "bike_id": "be201153841c5e9ab953aa8c5a7cb046", "type": "electric_scooter", "is_reserved": 0, "lon": -77.02219433333333}, {"fusion_lat": 0.0, "name": "d4c112dd456dc34b209c96bcfb0956a3", "is_disabled": 0, "rental_uris": {"android": "https://dc.lft.to/lastmile_qr_scan", "ios": "https://dc.lft.to/lastmile_qr_scan"}, "fusion_lon": 0.0, "lat": 38.909576333333334, "bike_id": "d4c112dd456dc34b209c96bcfb0956a3", "type": "electric_scooter", "is_reserved": 0, "lon": -77.02373}, {"fusion_lat": 0.0, "name": "e3a60b6bd6961db887c450d73ab5de09", "is_disabled": 0, "rental_uris": {"android": "https://dc.lft.to/lastmile_qr_scan", "ios": "https://dc.lft.to/lastmile_qr_scan"}, "fusion_lon": 0.0, "lat": 38.904021, "bike_id": "e3a60b6bd6961db887c450d73ab5de09", "type": "electric_scooter", "is_reserved": 0, "lon": -77.03647333333333}, {"fusion_lat": 0.0, "name": "fd9242433bf43560dd0cbbe39e5b3a59", "is_disabled": 0, "rental_uris": {"android": "https://dc.lft.to/lastmile_qr_scan", "ios": "https://dc.lft.to/lastmile_qr_scan"}, "fusion_lon": 0.0, "lat": 38.8788425, "bike_id": "fd9242433bf43560dd0cbbe39e5b3a59", "type": "electric_scooter", "is_reserved": 0, "lon": -76.965396}, {"fusion_lat": 0.0, "name": "cf0be031144079aa262da1ee830eeec3", "is_disabled": 0, "rental_uris": {"android": "https://dc.lft.to/lastmile_qr_scan", "ios": "https://dc.lft.to/lastmile_qr_scan"}, "fusion_lon": 0.0, "lat": 38.915881666666664, "bike_id": "cf0be031144079aa262da1ee830eeec3", "type": "electric_scooter", "is_reserved": 0, "lon": -77.0466845}, {"fusion_lat": 0.0, "name": "fe95f21dc6f0cc893e68b5b3b5275962", "is_disabled": 0, "rental_uris": {"android": "https://dc.lft.to/lastmile_qr_scan", "ios": "https://dc.lft.to/lastmile_qr_scan"}, "fusion_lon": 0.0, "lat": 38.89520783333333, "bike_id": "fe95f21dc6f0cc893e68b5b3b5275962", "type": "electric_scooter", "is_reserved": 0, "lon": -77.00922033333333}, {"fusion_lat": 0.0, "name": "ba632a5fc73151d2eb6425e763fa9bd8", "is_disabled": 0, "rental_uris": {"android": "https://dc.lft.to/lastmile_qr_scan", "ios": "https://dc.lft.to/lastmile_qr_scan"}, "fusion_lon": 0.0, "lat": 38.92250533333333, "bike_id": "ba632a5fc73151d2eb6425e763fa9bd8", "type": "electric_scooter", "is_reserved": 0, "lon": -77.04249633333333}, {"fusion_lat": 0.0, "name": "88f992419896cacb5fd7114e28b631ed", "is_disabled": 0, "rental_uris": {"android": "https://dc.lft.to/lastmile_qr_scan", "ios": "https://dc.lft.to/lastmile_qr_scan"}, "fusion_lon": 0.0, "lat": 38.9350985, "bike_id": "88f992419896cacb5fd7114e28b631ed", "type": "electric_scooter", "is_reserved": 0, "lon": -77.03288316666666}, {"fusion_lat": 0.0, "name": "812f4089e8c46a83abc18cec22824317", "is_disabled": 0, "rental_uris": {"android": "https://dc.lft.to/lastmile_qr_scan", "ios": "https://dc.lft.to/lastmile_qr_scan"}, "fusion_lon": 0.0, "lat": 38.88342333333333, "bike_id": "812f4089e8c46a83abc18cec22824317", "type": "electric_scooter", "is_reserved": 0, "lon": -77.0316435}, {"fusion_lat": 0.0, "name": "d7835deeabd348f449f5929b914c1e77", "is_disabled": 0, "rental_uris": {"android": "https://dc.lft.to/lastmile_qr_scan", "ios": "https://dc.lft.to/lastmile_qr_scan"}, "fusion_lon": 0.0, "lat": 38.9210475, "bike_id": "d7835deeabd348f449f5929b914c1e77", "type": "electric_scooter", "is_reserved": 0, "lon": -77.01744033333334},