{"data": {"bikes": [{"bike_id": "e14558ab2a87f60eb50104e852593931", "is_reserved": 0, "fusion_lon": 0.0, "lat": 38.916123666666664, "is_disabled": 0, "name": "e14558ab2a87f60eb50104e852593931", "fusion_lat": 0.0, "rental_uris": {"ios": "https://dc.lft.to/lastmile_qr_scan", "android": "https://dc.lft.to/lastmile_qr_scan"}, "lon": -77.0317005, "type": "electric_scooter"}, {"bike_id": "d8194b3dfed24a32ca59b2c1f46c8ee0", "is_reserved": 0, "fusion_lon": 0.0, "lat": 38.912709166666666, "is_disabled": 0, "name": "d8194b3dfed24a32ca59b2c1f46c8ee0", "fusion_lat": 0.0, "rental_uris": {"ios": "https://dc.lft.to/lastmile_qr_scan", "android": "https://dc.lft.to/lastmile_qr_scan"}, "lon": -77.07278933333333, "type": "electric_scooter"}, {"bike_id": "f579fd2602d9b93f88fd3ba028b7fcb0", "is_reserved": 0, "fusion_lon": 0.0, "lat": 38.895859, "is_disabled": 0, "name": "f579fd2602d9b93f88fd3ba028b7fcb0", "fusion_lat": 0.0, "rental_uris": {"ios": "https://dc.lft.to/lastmile_qr_scan", "android": "https://dc.lft.to/lastmile_qr_scan"}, "lon": -76.9371975, "type": "electric_scooter"}, {"bike_id": "a8b2eafb2f2022c0c9777d4a7e2ba05a", "is_reserved": 0, "fusion_lon": 0.0, "lat": 38.9192665, "is_disabled": 0, "name": "a8b2eafb2f2022c0c9777d4a7e2ba05a", "fusion_lat": 0.0, "rental_uris": {"ios": "https://dc.lft.to/lastmile_qr_scan", "android": "https://dc.lft.to/lastmile_qr_scan"}, "lon": -77.03185566666667, "type": "electric_scooter"}, {"bike_id": "9ad5f14d4ebccc82d8b30163b2f51f61", "is_reserved": 0, "fusion_lon": 0.0, "lat": 38.90450966666667, "is_disabled": 0, "name": "9ad5f14d4ebccc82d8b30163b2f51f61", "fusion_lat": 0.0, "rental_uris": {"ios": "https://dc.lft.to/lastmile_qr_scan", "android": "https://dc.lft.to/lastmile_qr_scan"}, "lon": -76.996206, "type": "electric_scooter"}, {"bike_id": "42ba8a5ff0bd9360e75c3b256eee1158", "is_reserved": 0, "fusion_lon": 0.0, "lat": 38.87631, "is_disabled": 0, "name": "42ba8a5ff0bd9360e75c3b256eee1158", "fusion_lat": 0.0, "rental_uris": {"ios": "https://dc.lft.to/lastmile_qr_scan", "android": "https://dc.lft.to/lastmile_qr_scan"}, "lon": -76.96524633333334, "type": "electric_scooter"}, {"bike_id": "6194350cd62975c5aad2e0c0fd6ac02b", "is_reserved": 0, "fusion_lon": 0.0, "lat": 38.87838, "is_disabled": 0, "name": "6194350cd62975c5aad2e0c0fd6ac02b", "fusion_lat": 0.0, "rental_uris": {"ios": "https://dc.lft.to/lastmile_qr_scan", "android": "https://dc.lft.to/lastmile_qr_scan"}, "lon": -76.99034416666667, "type": "electric_scooter"}, {"bike_id": "4765ba3cad585e54b233fd8963bd5160", "is_reserved": 0, "fusion_lon": 0.0, "lat": 38.92881116666667, "is_disabled": 0, "name": "4765ba3cad585e54b233fd8963bd5160", "fusion_lat": 0.0, "rental_uris": {"ios": "https://dc.lft.to/lastmile_qr_scan", "android": "https://dc.lft.to/lastmile_qr_scan"}, "lon": -77.03257266666667, "type": "electric_scooter"}, {"bike_id": "6ea2c8822107ca359a5e66dd6d604975", "is_reserved": 0, "fusion_lon": 0.0, "lat": 38.874227833333336, "is_disabled": 0, "name": "6ea2c8822107ca359a5e66dd6d604975", "fusion_lat": 0.0, "rental_uris": {"ios": "https://dc.lft.to/lastmile_qr_scan", "android": "https://dc.lft.to/lastmile_qr_scan"}, "lon": -77.08569083333333, "type": "electric_bike"}, {"bike_id": "6ca4d6eb42c1b5d2f6060fe1418b08ca", "is_reserved": 0, "fusion_lon": 0.0, "lat": 38.902968333333334, "is_disabled": 0, "name": "6ca4d6eb42c1b5d2f6060fe1418b08ca", "fusion_lat": 0.0, "rental_uris": {"ios": "https://dc.lft.to/lastmile_qr_scan", "android": "https://dc.lft.to/lastmile_qr_scan"}, "lon": -76.99858966666666, "type": "electric_scooter"}, {"bike_id": "b9bc562220a17842c8b89f2ff78a27d2", "is_reserved": 0, "fusion_lon": 0.0, "lat": 38.919139, "is_disabled": 0, "name": "b9bc562220a17842c8b89f2ff78a27d2", "fusion_lat": 0.0, "rental_uris": {"ios": "https://dc.lft.to/lastmile_qr_scan", "android": "https://dc.lft.to/lastmile_qr_scan"}, "lon": -77.01344083333333, "type": "electric_scooter"}, {"bike_id": "bc6c3bc6971c4b6b98ee8e30b459b935", "is_reserved": 0, "fusion_lon": 0.0, "lat": 38.856161166666666, "is_disabled": 0, "name": "bc6c3bc6971c4b6b98ee8e30b459b935", "fusion_lat": 0.0, "rental_uris": {"ios": "https://dc.lft.to/lastmile_qr_scan", "android": "https://dc.lft.to/lastmile_qr_scan"}, "lon": -76.98014666666667, "type": "electric_scooter"}, {"bike_id": "c8a784915ae6131b38eb16567c448262", "is_reserved": 0, "fusion_lon": 0.0, "lat": 38.8429855, "is_disabled": 0, "name": "c8a784915ae6131b38eb16567c448262", "fusion_lat": 0.0, "rental_uris": {"ios": "https://dc.lft.to/lastmile_qr_scan", "android": "https://dc.lft.to/lastmile_qr_scan"}, "lon": -76.99948433333333, "type": "electric_scooter"}, {"bike_id": "51bb7c97da354d82afd77c0e2ef5d497", "is_reserved": 0, "fusion_lon": 0.0, "lat": 38.920785, "is_disabled": 0, "name": "51bb7c97da354d82afd77c0e2ef5d497", "fusion_lat": 0.0, "rental_uris": {"ios": "https://dc.lft.to/lastmile_qr_scan", "android": "https://dc.lft.to/lastmile_qr_scan"}, "lon": -76.99919083333333, "type": "electric_scooter"}, {"bike_id": "9727c9d0f8417abf849d519aa9cda91b", "is_reserved": 0, "fusion_lon": 0.0, "lat": 38.872379, "is_disabled": 0, "name": "9727c9d0f8417abf849d519aa9cda91b", "fusion_lat": 0.0, "rental_uris": {"ios": "https://dc.lft.to/lastmile_qr_scan", "android": "https://dc.lft.to/lastmile_qr_scan"}, "lon": -77.01169016666667, "type": "electric_bike"}, {"bike_id": "cad578ff41237788f6b27d2f6671bcf6", "is_reserved": 0, "fusion_lon": 0.0, "lat": 38.889845333333334, "is_disabled": 0, "name": "cad578ff41237788f6b27d2f6671bcf6", "fusion_lat": 0.0, "rental_uris": {"ios": "https://dc.lft.to/lastmile_qr_scan", "android": "https://dc.lft.to/lastmile_qr_scan"}, "lon": -77.00332066666667, "type": "electric_scooter"}, {"bike_id": "2b4ae8f4aadcd19380cea84a5bd0a6e4", "is_reserved": 0, "fusion_lon": 0.0, "lat": 38.918047666666666, "is_disabled": 0, "name": "2b4ae8f4aadcd19380cea84a5bd0a6e4", "fusion_lat": 0.0, "rental_uris": {"ios": "https://dc.lft.to/lastmile_qr_scan", "android": "https://dc.lft.to/lastmile_qr_scan"}, "lon": -77.0343535, "type": "electric_scooter"}, {"bike_id": "25801464a47aaa5e570772cfbff073f7", "is_reserved": 0, "fusion_lon": 0.0, "lat": 38.902582833333334, "is_disabled": 0, "name": "25801464a47aaa5e570772cfbff073f7", "fusion_lat": 0.0, "rental_uris": {"ios": "https://dc.lft.to/lastmile_qr_scan", "android": "https://dc.lft.to/lastmile_qr_scan"}, "lon": -77.03855483333334, "type": "electric_scooter"}, {"bike_id": "3ded86fa863b06511fca4c8dfccc5d0a", "is_reserved": 0, "fusion_lon": 0.0, "lat": 38.8731175, "is_disabled": 0, "name": "3ded86fa863b06511fca4c8dfccc5d0a", "fusion_lat": 0.0, "rental_uris": {"ios": "https://dc.lft.to/lastmile_qr_scan", "android": "https://dc.lft.to/lastmile_qr_scan"}, "lon": -77.01094466666666, "type": "electric_bike"}, {"bike_id": "3a428833c12d71261ccee6dd4c099840", "is_reserved": 0, "fusion_lon": 0.0, "lat": 38.92947733333333, "is_disabled": 0, "name": "3a428833c12d71261ccee6dd4c099840", "fusion_lat": 0.0, "rental_uris": {"ios": "https://dc.lft.to/lastmile_qr_scan", "android": "https://dc.lft.to/lastmile_qr_scan"}, "lon": -77.03462216666667, "type": "electric_scooter"}, {"bike_id": "384923e697b1ba14dad0920ce6fcad40", "is_reserved": 0, "fusion_lon": 0.0, "lat": 38.920486833333335, "is_disabled": 0, "name": "384923e697b1ba14dad0920ce6fcad40", "fusion_lat": 0.0, "rental_uris": {"ios": "https://dc.lft.to/lastmile_qr_scan", "android": "https://dc.lft.to/lastmile_qr_scan"}, "lon": -76.99815100000001, "type": "electric_scooter"}, {"bike_id": "5b873ac66eb5c6b2e8c93abb2aa09534", "is_reserved": 0, "fusion_lon": 0.0, "lat": 38.93947716666667, "is_disabled": 0, "name": "5b873ac66eb5c6b2e8c93abb2aa09534", "fusion_lat": 0.0, "rental_uris": {"ios": "https://dc.lft.to/lastmile_qr_scan", "android": "https://dc.lft.to/lastmile_qr_scan"}, "lon": -77.03252716666667, "type": "electric_scooter"}, {"bike_id": "78e293cd41bf929260c1712a2bc75abb", "is_reserved": 0, "fusion_lon": 0.0, "lat": 38.99074816666667, "is_disabled": 0, "name": "78e293cd41bf929260c1712a2bc75abb", "fusion_lat": 0.0, "rental_uris": {"ios": "https://dc.lft.to/lastmile_qr_scan", "android": "https://dc.lft.to/lastmile_qr_scan"}, "lon": -77.10027433333333, "type": "electric_bike"}, {"bike_id": "610b4bba8e32a9df58df8368c0f025ab", "is_reserved": 0, "fusion_lon": 0.0, "lat": 38.940483, "is_disabled": 0, "name": "610b4bba8e32a9df58df8368c0f025ab", "fusion_lat": 0.0, "rental_uris": {"ios": "https://dc.lft.to/lastmile_qr_scan", "android": "https://dc.lft.to/lastmile_qr_scan"}, "lon": -77.02977566666667, "type": "electric_scooter"}, {"bike_id": "59f3ad2840b4b3967dffbfaf44e8ead1", "is_reserved": 0, "fusion_lon": 0.0, "lat": 38.90180683333333, "is_disabled": 0, "name": "59f3ad2840b4b3967dffbfaf44e8ead1", "fusion_lat": 0.0, "rental_uris": {"ios": "https://dc.lft.to/lastmile_qr_scan", "android": "https://dc.lft.to/lastmile_qr_scan"}, "lon": -77.04628783333334, "type": "electric_scooter"}, {"bike_id": "4e89ef3ad9acc51590eca8b76fb92439", "is_reserved": 0, "fusion_lon": 0.0, "lat": 38.952812333333334, "is_disabled": 0, "name": "4e89ef3ad9acc51590eca8b76fb92439", "fusion_lat": 0.0, "rental_uris": {"ios": "https://dc.lft.to/lastmile_qr_scan", "android": "https://dc.lft.to/lastmile_qr_scan"}, "lon": -77.007907, "type": "electric_scooter"}, {"bike_id": "22656e1241318277f56b625686a3d3d4", "is_reserved": 0, "fusion_lon": 0.0, "lat": 38.853229666666664, "is_disabled": 0, "name": "22656e1241318277f56b625686a3d3d4", "fusion_lat": 0.0, "rental_uris": {"ios": "https://dc.lft.to/lastmile_qr_scan", "android": "https://dc.lft.to/lastmile_qr_scan"}, "lon": -76.979996, "type": "electric_scooter"}, {"bike_id": "ae7f695a068ef628d8234b588b6e5fc9", "is_reserved": 0, "fusion_lon": 0.0, "lat": 38.92255133333333, "is_disabled": 0, "name": "ae7f695a068ef628d8234b588b6e5fc9", "fusion_lat": 0.0, "rental_uris": {"ios": "https://dc.lft.to/lastmile_qr_scan", "android": "https://dc.lft.to/lastmile_qr_scan"}, "lon": -77.0413655, "type": "electric_scooter"}, {"bike_id": "d6b3036ce959fa616e3e6ecefa2e78da", "is_reserved": 0, "fusion_lon": 0.0, "lat": 38.893301, "is_disabled": 0, "name": "d6b3036ce959fa616e3e6ecefa2e78da", "fusion_lat": 0.0, "rental_uris": {"ios": "https://dc.lft.to/lastmile_qr_scan", "android": "https://dc.lft.to/lastmile_qr_scan"}, "lon": -76.92996083333334, "type": "electric_scooter"}, {"bike_id": "f7ffb366c9cde2ddc1b2c4e73cc64c3d", "is_reserved": 0, "fusion_lon": 0.0, "lat": 38.90111183333333, "is_disabled": 0, "name": "f7ffb366c9cde2ddc1b2c4e73cc64c3d", "fusion_lat": 0.0, "rental_uris": {"ios": "https://dc.lft.to/lastmile_qr_scan", "android": "https://dc.lft.to/lastmile_qr_scan"}, "lon": -77.04992033333333, "type": "electric_scooter"}, {"bike_id": "cc72c8e0a4b773417080d49fb4f3c8f4", "is_reserved": 0, "fusion_lon": 0.0, "lat": 38.922868, "is_disabled": 0, "name": "cc72c8e0a4b773417080d49fb4f3c8f4", "fusion_lat": 0.0, "rental_uris": {"ios": "https://dc.lft.to/lastmile_qr_scan", "android": "https://dc.lft.to/lastmile_qr_scan"}, "lon": -77.036618, "type": "electric_scooter"}, {"bike_id": "6f110fb9d825444a6a1328641bcc310b", "is_reserved": 0, "fusion_lon": 0.0, "lat": 38.9036585, "is_disabled": 0, "name": "6f110fb9d825444a6a1328641bcc310b", "fusion_lat": 0.0, "rental_uris": {"ios": "https://dc.lft.to/lastmile_qr_scan", "android": "https://dc.lft.to/lastmile_qr_scan"}, "lon": -77.04326766666667, "type": "electric_scooter"}, {"bike_id": "6933a6dc0e2f77748edf8fc9e9df3788", "is_reserved": 0, "fusion_lon": 0.0, "lat": 38.89891866666667, "is_disabled": 0, "name": "6933a6dc0e2f77748edf8fc9e9df3788", "fusion_lat": 0.0, "rental_uris": {"ios": "https://dc.lft.to/lastmile_qr_scan", "android": "https://dc.lft.to/lastmile_qr_scan"}, "lon": -77.0035075, "type": "electric_scooter"}, {"bike_id": "84b7d576bfc2ed01b1348e6966de3cd1", "is_reserved": 0, "fusion_lon": 0.0, "lat": 38.91123366666667, "is_disabled": 0, "name": "84b7d576bfc2ed01b1348e6966de3cd1", "fusion_lat": 0.0, "rental_uris": {"ios": "https://dc.lft.to/lastmile_qr_scan", "android": "https://dc.lft.to/lastmile_qr_scan"}, "lon": -77.04426816666667, "type": "electric_scooter"}, {"bike_id": "56a75eba046f8ad76681131fc75f0ad5", "is_reserved": 0, "fusion_lon": 0.0, "lat": 38.8289795, "is_disabled": 0, "name": "56a75eba046f8ad76681131fc75f0ad5", "fusion_lat": 0.0, "rental_uris": {"ios": "https://dc.lft.to/lastmile_qr_scan", "android": "https://dc.lft.to/lastmile_qr_scan"}, "lon": -76.99712066666666, "type": "electric_scooter"}, {"bike_id": "34bbeb45e40daa66486415f01f768e7e", "is_reserved": 0, "fusion_lon": 0.0, "lat": 38.8763015, "is_disabled": 0, "name": "34bbeb45e40daa66486415f01f768e7e", "fusion_lat": 0.0, "rental_uris": {"ios": "https://dc.lft.to/lastmile_qr_scan", "android": "https://dc.lft.to/lastmile_qr_scan"}, "lon": -76.96525016666666, "type": "electric_scooter"}, {"bike_id": "ebe725ba9dfe7cad2253c6c15ee82e45", "is_reserved": 0, "fusion_lon": 0.0, "lat": 38.89983183333333, "is_disabled": 0, "name": "ebe725ba9dfe7cad2253c6c15ee82e45", "fusion_lat": 0.0, "rental_uris": {"ios": "https://dc.lft.to/lastmile_qr_scan", "android": "https://dc.lft.to/lastmile_qr_scan"}, "lon": -76.99144266666667, "type": "electric_scooter"}, {"bike_id": "003ae8d1ef871973ea582b3e854b3fc4", "is_reserved": 0, "fusion_lon": 0.0, "lat": 38.917734833333334, "is_disabled": 0, "name": "003ae8d1ef871973ea582b3e854b3fc4", "fusion_lat": 0.0, "rental_uris": {"ios": "https://dc.lft.to/lastmile_qr_scan", "android": "https://dc.lft.to/lastmile_qr_scan"}, "lon": -77.04743733333333, "type": "electric_scooter"}, {"bike_id": "4720aa58e172c7e9102c228af7bce7a3", "is_reserved": 0, "fusion_lon": 0.0, "lat": 38.90191083333333, "is_disabled": 0, "name": "4720aa58e172c7e9102c228af7bce7a3", "fusion_lat": 0.0, "rental_uris": {"ios": "https://dc.lft.to/lastmile_qr_scan", "android": "https://dc.lft.to/lastmile_qr_scan"}, "lon": -77.02189733333333, "type": "electric_scooter"}, {"bike_id": "ddf5b1ca511a12d35c224837653cd8cc", "is_reserved": 0, "fusion_lon": 0.0, "lat": 38.907096, "is_disabled": 0, "name": "ddf5b1ca511a12d35c224837653cd8cc", "fusion_lat": 0.0, "rental_uris": {"ios": "https://dc.lft.to/lastmile_qr_scan", "android": "https://dc.lft.to/lastmile_qr_scan"}, "lon": -77.031867, "type": "electric_scooter"}, {"bike_id": "f5375a800adcf096f8dc65d7a9fadc27", "is_reserved": 0, "fusion_lon": 0.0, "lat": 38.92578966666667, "is_disabled": 0, "name": "f5375a800adcf096f8dc65d7a9fadc27", "fusion_lat": 0.0, "rental_uris": {"ios": "https://dc.lft.to/lastmile_qr_scan", "android": "https://dc.lft.to/lastmile_qr_scan"}, "lon": -77.00471566666667, "type": "electric_scooter"}, {"bike_id": "85df9b588eca6c084e692dc9ca657eb2", "is_reserved": 0, "fusion_lon": 0.0, "lat": 38.902471166666665, "is_disabled": 0, "name": "85df9b588eca6c084e692dc9ca657eb2", "fusion_lat": 0.0, "rental_uris": {"ios": "https://dc.lft.to/lastmile_qr_scan", "android": "https://dc.lft.to/lastmile_qr_scan"}, "lon": -77.04606866666667, "type": "electric_scooter"}, {"bike_id": "2dec567d3207ec3f0f7cc1c25d90116d", "is_reserved": 0, "fusion_lon": 0.0, "lat": 38.93571416666666, "is_disabled": 0, "name": "2dec567d3207ec3f0f7cc1c25d90116d", "fusion_lat": 0.0, "rental_uris": {"ios": "https://dc.lft.to/lastmile_qr_scan", "android": "https://dc.lft.to/lastmile_qr_scan"}, "lon": -77.027696, "type": "electric_scooter"}, {"bike_id": "5129bbda8fdf82545e05018447f0b071", "is_reserved": 0, "fusion_lon": 0.0, "lat": 38.9709425, "is_disabled": 0, "name": "5129bbda8fdf82545e05018447f0b071", "fusion_lat": 0.0, "rental_uris": {"ios": "https://dc.lft.to/lastmile_qr_scan", "android": "https://dc.lft.to/lastmile_qr_scan"}, "lon": -77.06965383333333, "type": "electric_bike"}, {"bike_id": "d2ea63f9593a9abddf7dc906e9a7b743", "is_reserved": 0, "fusion_lon": 0.0, "lat": 38.87659416666666, "is_disabled": 0, "name": "d2ea63f9593a9abddf7dc906e9a7b743", "fusion_lat": 0.0, "rental_uris": {"ios": "https://dc.lft.to/lastmile_qr_scan", "android": "https://dc.lft.to/lastmile_qr_scan"}, "lon": -77.00426816666666, "type": "electric_scooter"}, {"bike_id": "fe6bbc32ea0da34f1a6a896556f32073", "is_reserved": 0, "fusion_lon": 0.0, "lat": 38.9042475, "is_disabled": 0, "name": "fe6bbc32ea0da34f1a6a896556f32073", "fusion_lat": 0.0, "rental_uris": {"ios": "https://dc.lft.to/lastmile_qr_scan", "android": "https://dc.lft.to/lastmile_qr_scan"}, "lon": -77.04851466666666, "type": "electric_scooter"}, {"bike_id": "7c926e361a745f337bee767b92318a84", "is_reserved": 0, "fusion_lon": 0.0, "lat": 38.899081, "is_disabled": 0, "name": "7c926e361a745f337bee767b92318a84", "fusion_lat": 0.0, "rental_uris": {"ios": "https://dc.lft.to/lastmile_qr_scan", "android": "https://dc.lft.to/lastmile_qr_scan"}, "lon": -77.03280266666667, "type": "electric_scooter"}, {"bike_id": "d012af949a9d1e253af5cd15b8b62a3f", "is_reserved": 0, "fusion_lon": 0.0, "lat": 38.92856183333333, "is_disabled": 0, "name": "d012af949a9d1e253af5cd15b8b62a3f", "fusion_lat": 0.0, "rental_uris": {"ios": "https://dc.lft.to/lastmile_qr_scan", "android": "https://dc.lft.to/lastmile_qr_scan"}, "lon": -77.03280133333334, "type": "electric_scooter"}, {"bike_id": "6e96b287f696440743e48e25b7af4a6d", "is_reserved": 0, "fusion_lon": 0.0, "lat": 38.853149, "is_disabled": 0, "name": "6e96b287f696440743e48e25b7af4a6d", "fusion_lat": 0.0, "rental_uris": {"ios": "https://dc.lft.to/lastmile_qr_scan", "android": "https://dc.lft.to/lastmile_qr_scan"}, "lon": -76.980171, "type": "electric_bike"}, {"bike_id": "ed568e40dd236991e056ced6de906b18", "is_reserved": 0, "fusion_lon": 0.0, "lat": 38.88504616666667, "is_disabled": 0, "name": "ed568e40dd236991e056ced6de906b18", "fusion_lat": 0.0, "rental_uris": {"ios": "https://dc.lft.to/lastmile_qr_scan", "android": "https://dc.lft.to/lastmile_qr_scan"}, "lon": -77.01550616666667, "type": "electric_scooter"}, {"bike_id": "d0b3ecb7271642677d9a730295f7bd48", "is_reserved": 0, "fusion_lon": 0.0, "lat": 38.89030233333333, "is_disabled": 0, "name": "d0b3ecb7271642677d9a730295f7bd48", "fusion_lat": 0.0, "rental_uris": {"ios": "https://dc.lft.to/lastmile_qr_scan", "android": "https://dc.lft.to/lastmile_qr_scan"}, "lon": -76.93624633333333, "type": "electric_scooter"}, {"bike_id": "59e7e1200252d7e7628f93c5f16803ac", "is_reserved": 0, "fusion_lon": 0.0, "lat": 38.913321833333335, "is_disabled": 0, "name": "59e7e1200252d7e7628f93c5f16803ac", "fusion_lat": 0.0, "rental_uris": {"ios": "https://dc.lft.to/lastmile_qr_scan", "android": "https://dc.lft.to/lastmile_qr_scan"}, "lon": -77.0487045, "type": "electric_scooter"}, {"bike_id": "4eec8a173b3088a0ef76243721d5bab8", "is_reserved": 0, "fusion_lon": 0.0, "lat": 38.918764833333334, "is_disabled": 0, "name": "4eec8a173b3088a0ef76243721d5bab8", "fusion_lat": 0.0, "rental_uris": {"ios": "https://dc.lft.to/lastmile_qr_scan", "android": "https://dc.lft.to/lastmile_qr_scan"}, "lon": -77.01630016666667, "type": "electric_scooter"}, {"bike_id": "04f80600c1962ce42eb9c7ce6912a236", "is_reserved": 0, "fusion_lon": 0.0, "lat": 38.92629383333333, "is_disabled": 0, "name": "04f80600c1962ce42eb9c7ce6912a236", "fusion_lat": 0.0, "rental_uris": {"ios": "https://dc.lft.to/lastmile_qr_scan", "android": "https://dc.lft.to/lastmile_qr_scan"}, "lon": -77.037812, "type": "electric_scooter"}, {"bike_id": "177365f96386193e027cdf014d0d580e", "is_reserved": 0, "fusion_lon": 0.0, "lat": 38.8934355, "is_disabled": 0, "name": "177365f96386193e027cdf014d0d580e", "fusion_lat": 0.0, "rental_uris": {"ios": "https://dc.lft.to/lastmile_qr_scan", "android": "https://dc.lft.to/lastmile_qr_scan"}, "lon": -76.9844595, "type": "electric_scooter"}, {"bike_id": "395586a7e88dc4c62cf8a4cd5dc6b1b5", "is_reserved": 0, "fusion_lon": 0.0, "lat": 38.9001455, "is_disabled": 0, "name": "395586a7e88dc4c62cf8a4cd5dc6b1b5", "fusion_lat": 0.0, "rental_uris": {"ios": "https://dc.lft.to/lastmile_qr_scan", "android": "https://dc.lft.to/lastmile_qr_scan"}, "lon": -76.9912045, "type": "electric_scooter"}, {"bike_id": "69a899b25834aca06847ea0dc81943f1", "is_reserved": 0, "fusion_lon": 0.0, "lat": 38.92887416666667, "is_disabled": 0, "name": "69a899b25834aca06847ea0dc81943f1", "fusion_lat": 0.0, "rental_uris": {"ios": "https://dc.lft.to/lastmile_qr_scan", "android": "https://dc.lft.to/lastmile_qr_scan"}, "lon": -77.03256633333334, "type": "electric_scooter"}, {"bike_id": "a6c645a8c608674ab8a36de4a88be974", "is_reserved": 0, "fusion_lon": 0.0, "lat": 38.906060333333336, "is_disabled": 0, "name": "a6c645a8c608674ab8a36de4a88be974", "fusion_lat": 0.0, "rental_uris": {"ios": "https://dc.lft.to/lastmile_qr_scan", "android": "https://dc.lft.to/lastmile_qr_scan"}, "lon": -77.05131716666666, "type": "electric_scooter"}, {"bike_id": "9586984fdc0ac263f82cbf1cbb722ec2", "is_reserved": 0, "fusion_lon": 0.0, "lat": 38.9237595, "is_disabled": 0, "name": "9586984fdc0ac263f82cbf1cbb722ec2", "fusion_lat": 0.0, "rental_uris": {"ios": "https://dc.lft.to/lastmile_qr_scan", "android": "https://dc.lft.to/lastmile_qr_scan"}, "lon": -77.0516705, "type": "electric_scooter"}, {"bike_id": "0eaf3f7a8446d735d176037bf2330389", "is_reserved": 0, "fusion_lon": 0.0, "lat": 38.88505116666666, "is_disabled": 0, "name": "0eaf3f7a8446d735d176037bf2330389", "fusion_lat": 0.0, "rental_uris": {"ios": "https://dc.lft.to/lastmile_qr_scan", "android": "https://dc.lft.to/lastmile_qr_scan"}, "lon": -77.0056275, "type": "electric_scooter"}, {"bike_id": "2e949cfa677122bd2ae4f6048cf92a51", "is_reserved": 0, "fusion_lon": 0.0, "lat": 38.91151083333333, "is_disabled": 0, "name": "2e949cfa677122bd2ae4f6048cf92a51", "fusion_lat": 0.0, "rental_uris": {"ios": "https://dc.lft.to/lastmile_qr_scan", "android": "https://dc.lft.to/lastmile_qr_scan"}, "lon": -77.00303466666666, "type": "electric_bike"}, {"bike_id": "62a751e7bbbe4ada0e9bd1f40ac31f06", "is_reserved": 0, "fusion_lon": 0.0, "lat": 38.9112145, "is_disabled": 0, "name": "62a751e7bbbe4ada0e9bd1f40ac31f06", "fusion_lat": 0.0, "rental_uris": {"ios": "https://dc.lft.to/lastmile_qr_scan", "android": "https://dc.lft.to/lastmile_qr_scan"}, "lon": -77.043681, "type": "electric_scooter"}, {"bike_id": "4d653cef7c2b1c066d6d4231da60a10e", "is_reserved": 0, "fusion_lon": 0.0, "lat": 38.90302066666667, "is_disabled": 0, "name": "4d653cef7c2b1c066d6d4231da60a10e", "fusion_lat": 0.0, "rental_uris": {"ios": "https://dc.lft.to/lastmile_qr_scan", "android": "https://dc.lft.to/lastmile_qr_scan"}, "lon": -77.06024083333334, "type": "electric_scooter"}, {"bike_id": "5ba90cc66efc1fec2770679329fb35fd", "is_reserved": 0, "fusion_lon": 0.0, "lat": 38.873371166666665, "is_disabled": 0, "name": "5ba90cc66efc1fec2770679329fb35fd", "fusion_lat": 0.0, "rental_uris": {"ios": "https://dc.lft.to/lastmile_qr_scan", "android": "https://dc.lft.to/lastmile_qr_scan"}, "lon": -76.96783083333334, "type": "electric_scooter"}, {"bike_id": "39c86aa4b9a740d628a4c3e09052abf4", "is_reserved": 0, "fusion_lon": 0.0, "lat": 38.87924233333333, "is_disabled": 0, "name": "39c86aa4b9a740d628a4c3e09052abf4", "fusion_lat": 0.0, "rental_uris": {"ios": "https://dc.lft.to/lastmile_qr_scan", "android": "https://dc.lft.to/lastmile_qr_scan"}, "lon": -77.01343983333334, "type": "electric_scooter"}, {"bike_id": "9cc3e80d3b98e6f691c8ef6466fcbd34", "is_reserved": 0, "fusion_lon": 0.0, "lat": 38.93962066666667, "is_disabled": 0, "name": "9cc3e80d3b98e6f691c8ef6466fcbd34", "fusion_lat": 0.0, "rental_uris": {"ios": "https://dc.lft.to/lastmile_qr_scan", "android": "https://dc.lft.to/lastmile_qr_scan"}, "lon": -77.05318816666667, "type": "electric_scooter"}, {"bike_id": "42a48fa10c75267b0da7aeec075eb37f", "is_reserved": 0, "fusion_lon": 0.0, "lat": 38.9358155, "is_disabled": 0, "name": "42a48fa10c75267b0da7aeec075eb37f", "fusion_lat": 0.0, "rental_uris": {"ios": "https://dc.lft.to/lastmile_qr_scan", "android": "https://dc.lft.to/lastmile_qr_scan"}, "lon": -77.0328295, "type": "electric_scooter"}, {"bike_id": "b7679708a0135bf3f0e317bf55dc7384", "is_reserved": 0, "fusion_lon": 0.0, "lat": 38.92381566666667, "is_disabled": 0, "name": "b7679708a0135bf3f0e317bf55dc7384", "fusion_lat": 0.0, "rental_uris": {"ios": "https://dc.lft.to/lastmile_qr_scan", "android": "https://dc.lft.to/lastmile_qr_scan"}, "lon": -77.0313325, "type": "electric_scooter"}, {"bike_id": "6e9230fc61e5de6592e90b0c9beaf8f2", "is_reserved": 0, "fusion_lon": 0.0, "lat": 38.91042133333333, "is_disabled": 0, "name": "6e9230fc61e5de6592e90b0c9beaf8f2", "fusion_lat": 0.0, "rental_uris": {"ios": "https://dc.lft.to/lastmile_qr_scan", "android": "https://dc.lft.to/lastmile_qr_scan"}, "lon": -77.02812333333334, "type": "electric_scooter"}, {"bike_id": "cc89fb9b73672a2fbbdbd50ab60335a7", "is_reserved": 0, "fusion_lon": 0.0, "lat": 38.9431945, "is_disabled": 0, "name": "cc89fb9b73672a2fbbdbd50ab60335a7", "fusion_lat": 0.0, "rental_uris": {"ios": "https://dc.lft.to/lastmile_qr_scan", "android": "https://dc.lft.to/lastmile_qr_scan"}, "lon": -77.0738885, "type": "electric_scooter"}, {"bike_id": "b69fba78e8bfa88674c1221eafdc58c4", "is_reserved": 0, "fusion_lon": 0.0, "lat": 38.914932, "is_disabled": 0, "name": "b69fba78e8bfa88674c1221eafdc58c4", "fusion_lat": 0.0, "rental_uris": {"ios": "https://dc.lft.to/lastmile_qr_scan", "android": "https://dc.lft.to/lastmile_qr_scan"}, "lon": -77.02694633333333, "type": "electric_scooter"}, {"bike_id": "6fcde15b2872dce78a0ea7344dcf0790", "is_reserved": 0, "fusion_lon": 0.0, "lat": 38.9311895, "is_disabled": 0, "name": "6fcde15b2872dce78a0ea7344dcf0790", "fusion_lat": 0.0, "rental_uris": {"ios": "https://dc.lft.to/lastmile_qr_scan", "android": "https://dc.lft.to/lastmile_qr_scan"}, "lon": -77.02097483333333, "type": "electric_scooter"}, {"bike_id": "bc2ea5e3db452921d17c9df0e282778d", "is_reserved": 0, "fusion_lon": 0.0, "lat": 38.90850616666667, "is_disabled": 0, "name": "bc2ea5e3db452921d17c9df0e282778d", "fusion_lat": 0.0, "rental_uris": {"ios": "https://dc.lft.to/lastmile_qr_scan", "android": "https://dc.lft.to/lastmile_qr_scan"}, "lon": -77.02057733333334, "type": "electric_scooter"}, {"bike_id": "da40344520c4d077f6e9bc63d430c177", "is_reserved": 0, "fusion_lon": 0.0, "lat": 38.907191166666664, "is_disabled": 0, "name": "da40344520c4d077f6e9bc63d430c177", "fusion_lat": 0.0, "rental_uris": {"ios": "https://dc.lft.to/lastmile_qr_scan", "android": "https://dc.lft.to/lastmile_qr_scan"}, "lon": -77.03876533333333, "type": "electric_scooter"}, {"bike_id": "a1f0a38090a929c244417ef22a55ef3b", "is_reserved": 0, "fusion_lon": 0.0, "lat": 38.94928783333334, "is_disabled": 0, "name": "a1f0a38090a929c244417ef22a55ef3b", "fusion_lat": 0.0, "rental_uris": {"ios": "https://dc.lft.to/lastmile_qr_scan", "android": "https://dc.lft.to/lastmile_qr_scan"}, "lon": -77.01939433333334, "type": "electric_scooter"}, {"bike_id": "92725cc7e0b4e55b7eb3f326033ca9f3", "is_reserved": 0, "fusion_lon": 0.0, "lat": 38.88324933333333, "is_disabled": 0, "name": "92725cc7e0b4e55b7eb3f326033ca9f3", "fusion_lat": 0.0, "rental_uris": {"ios": "https://dc.lft.to/lastmile_qr_scan", "android": "https://dc.lft.to/lastmile_qr_scan"}, "lon": -77.0176625, "type": "electric_scooter"}, {"bike_id": "ab4d050572ddd4bf5786eb4af54544de", "is_reserved": 0, "fusion_lon": 0.0, "lat": 38.9161915, "is_disabled": 0, "name": "ab4d050572ddd4bf5786eb4af54544de", "fusion_lat": 0.0, "rental_uris": {"ios": "https://dc.lft.to/lastmile_qr_scan", "android": "https://dc.lft.to/lastmile_qr_scan"}, "lon": -77.03179816666666, "type": "electric_scooter"}, {"bike_id": "de2c6b82625887e876aeba2ccfc4b136", "is_reserved": 0, "fusion_lon": 0.0, "lat": 38.90981083333333, "is_disabled": 0, "name": "de2c6b82625887e876aeba2ccfc4b136", "fusion_lat": 0.0, "rental_uris": {"ios": "https://dc.lft.to/lastmile_qr_scan", "android": "https://dc.lft.to/lastmile_qr_scan"}, "lon": -77.06711816666666, "type": "electric_scooter"}, {"bike_id": "dca25342994dc134ad261f9087cf0ce7", "is_reserved": 0, "fusion_lon": 0.0, "lat": 38.891883666666665, "is_disabled": 0, "name": "dca25342994dc134ad261f9087cf0ce7", "fusion_lat": 0.0, "rental_uris": {"ios": "https://dc.lft.to/lastmile_qr_scan", "android": "https://dc.lft.to/lastmile_qr_scan"}, "lon": -77.12256133333334, "type": "electric_bike"}, {"bike_id": "84c4d256c15e1a2bf355817e100b1a1a", "is_reserved": 0, "fusion_lon": 0.0, "lat": 38.955551166666666, "is_disabled": 0, "name": "84c4d256c15e1a2bf355817e100b1a1a", "fusion_lat": 0.0, "rental_uris": {"ios": "https://dc.lft.to/lastmile_qr_scan", "android": "https://dc.lft.to/lastmile_qr_scan"}, "lon": -76.93541066666667, "type": "electric_bike"}, {"bike_id": "4c6a00b085d9a47b8cdc915ad2b33b07", "is_reserved": 0, "fusion_lon": 0.0, "lat": 38.89796116666667, "is_disabled": 0, "name": "4c6a00b085d9a47b8cdc915ad2b33b07", "fusion_lat": 0.0, "rental_uris": {"ios": "https://dc.lft.to/lastmile_qr_scan", "android": "https://dc.lft.to/lastmile_qr_scan"}, "lon": -77.03310283333333, "type": "electric_scooter"}, {"bike_id": "58e86f3e5e85bd89f83be024effa0bd4", "is_reserved": 0, "fusion_lon": 0.0, "lat": 38.92444066666667, "is_disabled": 0, "name": "58e86f3e5e85bd89f83be024effa0bd4", "fusion_lat": 0.0, "rental_uris": {"ios": "https://dc.lft.to/lastmile_qr_scan", "android": "https://dc.lft.to/lastmile_qr_scan"}, "lon": -77.03407183333333, "type": "electric_scooter"}, {"bike_id": "cd78bdf409da1ff4769cbe22d49ab40d", "is_reserved": 0, "fusion_lon": 0.0, "lat": 38.91703016666666, "is_disabled": 0, "name": "cd78bdf409da1ff4769cbe22d49ab40d", "fusion_lat": 0.0, "rental_uris": {"ios": "https://dc.lft.to/lastmile_qr_scan", "android": "https://dc.lft.to/lastmile_qr_scan"}, "lon": -77.02921916666666, "type": "electric_scooter"}, {"bike_id": "2a3cd9276fd62b140be6e949eda2674c", "is_reserved": 0, "fusion_lon": 0.0, "lat": 38.916672166666665, "is_disabled": 0, "name": "2a3cd9276fd62b140be6e949eda2674c", "fusion_lat": 0.0, "rental_uris": {"ios": "https://dc.lft.to/lastmile_qr_scan", "android": "https://dc.lft.to/lastmile_qr_scan"}, "lon": -77.03701283333334, "type": "electric_scooter"}, {"bike_id": "58b882e2336f29066bab2706496f5b25", "is_reserved": 0, "fusion_lon": 0.0, "lat": 38.880377333333335, "is_disabled": 0, "name": "58b882e2336f29066bab2706496f5b25", "fusion_lat": 0.0, "rental_uris": {"ios": "https://dc.lft.to/lastmile_qr_scan", "android": "https://dc.lft.to/lastmile_qr_scan"}, "lon": -76.927212, "type": "electric_scooter"}, {"bike_id": "43e79676c7c572ac0ef070a0450d9d68", "is_reserved": 0, "fusion_lon": 0.0, "lat": 38.9067985, "is_disabled": 0, "name": "43e79676c7c572ac0ef070a0450d9d68", "fusion_lat": 0.0, "rental_uris": {"ios": "https://dc.lft.to/lastmile_qr_scan", "android": "https://dc.lft.to/lastmile_qr_scan"}, "lon": -76.97797583333333, "type": "electric_scooter"}, {"bike_id": "ea61238624a773289033f55abd99e55d", "is_reserved": 0, "fusion_lon": 0.0, "lat": 38.92557166666667, "is_disabled": 0, "name": "ea61238624a773289033f55abd99e55d", "fusion_lat": 0.0, "rental_uris": {"ios": "https://dc.lft.to/lastmile_qr_scan", "android": "https://dc.lft.to/lastmile_qr_scan"}, "lon": -77.00135333333333, "type": "electric_bike"}, {"bike_id": "81355f13f9103e0dc3b2989edd31e375", "is_reserved": 0, "fusion_lon": 0.0, "lat": 38.906153, "is_disabled": 0, "name": "81355f13f9103e0dc3b2989edd31e375", "fusion_lat": 0.0, "rental_uris": {"ios": "https://dc.lft.to/lastmile_qr_scan", "android": "https://dc.lft.to/lastmile_qr_scan"}, "lon": -77.06514683333333, "type": "electric_scooter"}, {"bike_id": "18c1ca8dbbac835efaffba4117ce0830", "is_reserved": 0, "fusion_lon": 0.0, "lat": 38.911121333333334, "is_disabled": 0, "name": "18c1ca8dbbac835efaffba4117ce0830", "fusion_lat": 0.0, "rental_uris": {"ios": "https://dc.lft.to/lastmile_qr_scan", "android": "https://dc.lft.to/lastmile_qr_scan"}, "lon": -77.04930016666667, "type": "electric_scooter"}, {"bike_id": "de4f9314c39356183f31f0fbf2bf57b6", "is_reserved": 0, "fusion_lon": 0.0, "lat": 38.92463, "is_disabled": 0, "name": "de4f9314c39356183f31f0fbf2bf57b6", "fusion_lat": 0.0, "rental_uris": {"ios": "https://dc.lft.to/lastmile_qr_scan", "android": "https://dc.lft.to/lastmile_qr_scan"}, "lon": -77.20835383333333, "type": "electric_bike"}, {"bike_id": "43e9cc92e7bc156fc8c9599b3feeda68", "is_reserved": 0, "fusion_lon": 0.0, "lat": 38.910996833333336, "is_disabled": 0, "name": "43e9cc92e7bc156fc8c9599b3feeda68", "fusion_lat": 0.0, "rental_uris": {"ios": "https://dc.lft.to/lastmile_qr_scan", "android": "https://dc.lft.to/lastmile_qr_scan"}, "lon": -77.04671483333334, "type": "electric_scooter"}, {"bike_id": "e6c33961f8d52b565c9b61c31db056ad", "is_reserved": 0, "fusion_lon": 0.0, "lat": 38.90833633333333, "is_disabled": 0, "name": "e6c33961f8d52b565c9b61c31db056ad", "fusion_lat": 0.0, "rental_uris": {"ios": "https://dc.lft.to/lastmile_qr_scan", "android": "https://dc.lft.to/lastmile_qr_scan"}, "lon": -76.9969945, "type": "electric_scooter"}, {"bike_id": "ecb6a4f41a3d3898ddad57c14aacadf6", "is_reserved": 0, "fusion_lon": 0.0, "lat": 38.934205166666665, "is_disabled": 0, "name": "ecb6a4f41a3d3898ddad57c14aacadf6", "fusion_lat": 0.0, "rental_uris": {"ios": "https://dc.lft.to/lastmile_qr_scan", "android": "https://dc.lft.to/lastmile_qr_scan"}, "lon": -77.03409316666666, "type": "electric_scooter"}, {"bike_id": "18aa1ae3d82e6310492533081cf94adf", "is_reserved": 0, "fusion_lon": 0.0, "lat": 38.902175166666666, "is_disabled": 0, "name": "18aa1ae3d82e6310492533081cf94adf", "fusion_lat": 0.0, "rental_uris": {"ios": "https://dc.lft.to/lastmile_qr_scan", "android": "https://dc.lft.to/lastmile_qr_scan"}, "lon": -77.06066933333334, "type": "electric_scooter"}, {"bike_id": "78c3ebdab5be8755be07b5cff8b17bbe", "is_reserved": 0, "fusion_lon": 0.0, "lat": 38.9238155, "is_disabled": 0, "name": "78c3ebdab5be8755be07b5cff8b17bbe", "fusion_lat": 0.0, "rental_uris": {"ios": "https://dc.lft.to/lastmile_qr_scan", "android": "https://dc.lft.to/lastmile_qr_scan"}, "lon": -77.0431655, "type": "electric_scooter"}, {"bike_id": "22e1a82c33b36d2127accb59ec16903f", "is_reserved": 0, "fusion_lon": 0.0, "lat": 38.89824266666667, "is_disabled": 0, "name": "22e1a82c33b36d2127accb59ec16903f", "fusion_lat": 0.0, "rental_uris": {"ios": "https://dc.lft.to/lastmile_qr_scan", "android": "https://dc.lft.to/lastmile_qr_scan"}, "lon": -76.94652466666666, "type": "electric_scooter"}, {"bike_id": "a5ae27317922b3e503cdcc27fcc2fa4a", "is_reserved": 0, "fusion_lon": 0.0, "lat": 38.896821333333335, "is_disabled": 0, "name": "a5ae27317922b3e503cdcc27fcc2fa4a", "fusion_lat": 0.0, "rental_uris": {"ios": "https://dc.lft.to/lastmile_qr_scan", "android": "https://dc.lft.to/lastmile_qr_scan"}, "lon": -77.026086, "type": "electric_scooter"}, {"bike_id": "e5fb519d25e2e208779d877bc804fdf6", "is_reserved": 0, "fusion_lon": 0.0, "lat": 38.923748833333335, "is_disabled": 0, "name": "e5fb519d25e2e208779d877bc804fdf6", "fusion_lat": 0.0, "rental_uris": {"ios": "https://dc.lft.to/lastmile_qr_scan", "android": "https://dc.lft.to/lastmile_qr_scan"}, "lon": -77.01911383333334, "type": "electric_scooter"}, {"bike_id": "6f62b2d1e3b7419f9f490d2a0d371bac", "is_reserved": 0, "fusion_lon": 0.0, "lat": 38.8983065, "is_disabled": 0, "name": "6f62b2d1e3b7419f9f490d2a0d371bac", "fusion_lat": 0.0, "rental_uris": {"ios": "https://dc.lft.to/lastmile_qr_scan", "android": "https://dc.lft.to/lastmile_qr_scan"}, "lon": -76.94650083333333, "type": "electric_scooter"}, {"bike_id": "94ad9d7a0ed681ce99a8c6041f3213b7", "is_reserved": 0, "fusion_lon": 0.0, "lat": 38.92251816666667, "is_disabled": 0, "name": "94ad9d7a0ed681ce99a8c6041f3213b7", "fusion_lat": 0.0, "rental_uris": {"ios": "https://dc.lft.to/lastmile_qr_scan", "android": "https://dc.lft.to/lastmile_qr_scan"}, "lon": -77.03461733333333, "type": "electric_scooter"}, {"bike_id": "2f2791595770f9577eadb03277b859b0", "is_reserved": 0, "fusion_lon": 0.0, "lat": 38.9027095, "is_disabled": 0, "name": "2f2791595770f9577eadb03277b859b0", "fusion_lat": 0.0, "rental_uris": {"ios": "https://dc.lft.to/lastmile_qr_scan", "android": "https://dc.lft.to/lastmile_qr_scan"}, "lon": -77.0384235, "type": "electric_scooter"}, {"bike_id": "a7dc64039e095b8b2ceb673e20f2c5c7", "is_reserved": 0, "fusion_lon": 0.0, "lat": 38.9316255, "is_disabled": 0, "name": "a7dc64039e095b8b2ceb673e20f2c5c7", "fusion_lat": 0.0, "rental_uris": {"ios": "https://dc.lft.to/lastmile_qr_scan", "android": "https://dc.lft.to/lastmile_qr_scan"}, "lon": -77.05637416666667, "type": "electric_scooter"}, {"bike_id": "568eca04be914a930ed083f0019e29af", "is_reserved": 0, "fusion_lon": 0.0, "lat": 38.8877325, "is_disabled": 0, "name": "568eca04be914a930ed083f0019e29af", "fusion_lat": 0.0, "rental_uris": {"ios": "https://dc.lft.to/lastmile_qr_scan", "android": "https://dc.lft.to/lastmile_qr_scan"}, "lon": -76.93264816666667, "type": "electric_scooter"}, {"bike_id": "6224f229fdac4112ee9744d74ef45dfe", "is_reserved": 0, "fusion_lon": 0.0, "lat": 38.92967733333333, "is_disabled": 0, "name": "6224f229fdac4112ee9744d74ef45dfe", "fusion_lat": 0.0, "rental_uris": {"ios": "https://dc.lft.to/lastmile_qr_scan", "android": "https://dc.lft.to/lastmile_qr_scan"}, "lon": -77.00530016666667, "type": "electric_scooter"}, {"bike_id": "fbcc2a604ca93781a97f76e0c3f5fb6f", "is_reserved": 0, "fusion_lon": 0.0, "lat": 38.897757, "is_disabled": 0, "name": "fbcc2a604ca93781a97f76e0c3f5fb6f", "fusion_lat": 0.0, "rental_uris": {"ios": "https://dc.lft.to/lastmile_qr_scan", "android": "https://dc.lft.to/lastmile_qr_scan"}, "lon": -77.05467166666666, "type": "electric_scooter"}, {"bike_id": "3f5da0556a9a9f142cff5eac8a0ddef8", "is_reserved": 0, "fusion_lon": 0.0, "lat": 38.95623033333333, "is_disabled": 0, "name": "3f5da0556a9a9f142cff5eac8a0ddef8", "fusion_lat": 0.0, "rental_uris": {"ios": "https://dc.lft.to/lastmile_qr_scan", "android": "https://dc.lft.to/lastmile_qr_scan"}, "lon": -77.02788533333333, "type": "electric_scooter"}, {"bike_id": "f19ab43aa6a887998640fd66162ce2fe", "is_reserved": 0, "fusion_lon": 0.0, "lat": 38.90232483333333, "is_disabled": 0, "name": "f19ab43aa6a887998640fd66162ce2fe", "fusion_lat": 0.0, "rental_uris": {"ios": "https://dc.lft.to/lastmile_qr_scan", "android": "https://dc.lft.to/lastmile_qr_scan"}, "lon": -77.044244, "type": "electric_scooter"}, {"bike_id": "95b0daaf2b8525a7a19360b0f3a8a90a", "is_reserved": 0, "fusion_lon": 0.0, "lat": 38.845787666666666, "is_disabled": 0, "name": "95b0daaf2b8525a7a19360b0f3a8a90a", "fusion_lat": 0.0, "rental_uris": {"ios": "https://dc.lft.to/lastmile_qr_scan", "android": "https://dc.lft.to/lastmile_qr_scan"}, "lon": -77.096199, "type": "electric_bike"}, {"bike_id": "9211eca661d0896c3a8d3d9331b9ff98", "is_reserved": 0, "fusion_lon": 0.0, "lat": 38.905313166666666, "is_disabled": 0, "name": "9211eca661d0896c3a8d3d9331b9ff98", "fusion_lat": 0.0, "rental_uris": {"ios": "https://dc.lft.to/lastmile_qr_scan", "android": "https://dc.lft.to/lastmile_qr_scan"}, "lon": -77.05767866666666, "type": "electric_scooter"}, {"bike_id": "9f4f6eb640eaf7ca42dc5d237499ba8d", "is_reserved": 0, "fusion_lon": 0.0, "lat": 38.917988333333334, "is_disabled": 0, "name": "9f4f6eb640eaf7ca42dc5d237499ba8d", "fusion_lat": 0.0, "rental_uris": {"ios": "https://dc.lft.to/lastmile_qr_scan", "android": "https://dc.lft.to/lastmile_qr_scan"}, "lon": -77.03437933333333, "type": "electric_scooter"}, {"bike_id": "cb9ef4033090c7edf663e486d292ea7d", "is_reserved": 0, "fusion_lon": 0.0, "lat": 38.9296305, "is_disabled": 0, "name": "cb9ef4033090c7edf663e486d292ea7d", "fusion_lat": 0.0, "rental_uris": {"ios": "https://dc.lft.to/lastmile_qr_scan", "android": "https://dc.lft.to/lastmile_qr_scan"}, "lon": -77.01147783333333, "type": "electric_scooter"}, {"bike_id": "3385380ca52a99941c75d48df86280ce", "is_reserved": 0, "fusion_lon": 0.0, "lat": 38.86367283333333, "is_disabled": 0, "name": "3385380ca52a99941c75d48df86280ce", "fusion_lat": 0.0, "rental_uris": {"ios": "https://dc.lft.to/lastmile_qr_scan", "android": "https://dc.lft.to/lastmile_qr_scan"}, "lon": -77.0136075, "type": "electric_scooter"}, {"bike_id": "f7736e66ebce23e4fd94f9143aef1f95", "is_reserved": 0, "fusion_lon": 0.0, "lat": 38.921619666666665, "is_disabled": 0, "name": "f7736e66ebce23e4fd94f9143aef1f95", "fusion_lat": 0.0, "rental_uris": {"ios": "https://dc.lft.to/lastmile_qr_scan", "android": "https://dc.lft.to/lastmile_qr_scan"}, "lon": -77.04685433333333, "type": "electric_scooter"}, {"bike_id": "008ff2dee1cdcde3ada6b4aad8bb7727", "is_reserved": 0, "fusion_lon": 0.0, "lat": 38.88490766666666, "is_disabled": 0, "name": "008ff2dee1cdcde3ada6b4aad8bb7727", "fusion_lat": 0.0, "rental_uris": {"ios": "https://dc.lft.to/lastmile_qr_scan", "android": "https://dc.lft.to/lastmile_qr_scan"}, "lon": -77.007231, "type": "electric_scooter"}, {"bike_id": "81f60194868e50e8baf18e3a010f2916", "is_reserved": 0, "fusion_lon": 0.0, "lat": 38.871264833333335, "is_disabled": 0, "name": "81f60194868e50e8baf18e3a010f2916", "fusion_lat": 0.0, "rental_uris": {"ios": "https://dc.lft.to/lastmile_qr_scan", "android": "https://dc.lft.to/lastmile_qr_scan"}, "lon": -77.00597666666667, "type": "electric_scooter"}, {"bike_id": "d1e65a5bcb53cbd0884470c5c8e53150", "is_reserved": 0, "fusion_lon": 0.0, "lat": 38.959117166666665, "is_disabled": 0, "name": "d1e65a5bcb53cbd0884470c5c8e53150", "fusion_lat": 0.0, "rental_uris": {"ios": "https://dc.lft.to/lastmile_qr_scan", "android": "https://dc.lft.to/lastmile_qr_scan"}, "lon": -77.08077533333334, "type": "electric_scooter"}, {"bike_id": "cdda7fa776d371bea2342ec1b3642e5e", "is_reserved": 0, "fusion_lon": 0.0, "lat": 38.918086333333335, "is_disabled": 0, "name": "cdda7fa776d371bea2342ec1b3642e5e", "fusion_lat": 0.0, "rental_uris": {"ios": "https://dc.lft.to/lastmile_qr_scan", "android": "https://dc.lft.to/lastmile_qr_scan"}, "lon": -77.03441466666666, "type": "electric_scooter"}, {"bike_id": "17ea06cdea86ba6cd597d9cbf89dab3b", "is_reserved": 0, "fusion_lon": 0.0, "lat": 38.933987, "is_disabled": 0, "name": "17ea06cdea86ba6cd597d9cbf89dab3b", "fusion_lat": 0.0, "rental_uris": {"ios": "https://dc.lft.to/lastmile_qr_scan", "android": "https://dc.lft.to/lastmile_qr_scan"}, "lon": -77.03876366666667, "type": "electric_scooter"}, {"bike_id": "171d58d89b047c10792519cac66de597", "is_reserved": 0, "fusion_lon": 0.0, "lat": 38.880269166666665, "is_disabled": 0, "name": "171d58d89b047c10792519cac66de597", "fusion_lat": 0.0, "rental_uris": {"ios": "https://dc.lft.to/lastmile_qr_scan", "android": "https://dc.lft.to/lastmile_qr_scan"}, "lon": -76.98831533333333, "type": "electric_scooter"}, {"bike_id": "ec92cf9ff4c8ba1c9cbc2a7a4019b32a", "is_reserved": 0, "fusion_lon": 0.0, "lat": 38.88314883333334, "is_disabled": 0, "name": "ec92cf9ff4c8ba1c9cbc2a7a4019b32a", "fusion_lat": 0.0, "rental_uris": {"ios": "https://dc.lft.to/lastmile_qr_scan", "android": "https://dc.lft.to/lastmile_qr_scan"}, "lon": -77.00595316666667, "type": "electric_scooter"}, {"bike_id": "219b818d5658ffe77c99c2378224e3e0", "is_reserved": 0, "fusion_lon": 0.0, "lat": 38.906511, "is_disabled": 0, "name": "219b818d5658ffe77c99c2378224e3e0", "fusion_lat": 0.0, "rental_uris": {"ios": "https://dc.lft.to/lastmile_qr_scan", "android": "https://dc.lft.to/lastmile_qr_scan"}, "lon": -77.0390925, "type": "electric_scooter"}, {"bike_id": "ef72492316d1cd48e80c536f09910e99", "is_reserved": 0, "fusion_lon": 0.0, "lat": 38.90697866666667, "is_disabled": 0, "name": "ef72492316d1cd48e80c536f09910e99", "fusion_lat": 0.0, "rental_uris": {"ios": "https://dc.lft.to/lastmile_qr_scan", "android": "https://dc.lft.to/lastmile_qr_scan"}, "lon": -76.95186033333333, "type": "electric_bike"}, {"bike_id": "de21900e0f3d550e0a70cd37c08b86ee", "is_reserved": 0, "fusion_lon": 0.0, "lat": 38.94416283333333, "is_disabled": 0, "name": "de21900e0f3d550e0a70cd37c08b86ee", "fusion_lat": 0.0, "rental_uris": {"ios": "https://dc.lft.to/lastmile_qr_scan", "android": "https://dc.lft.to/lastmile_qr_scan"}, "lon": -77.05517816666666, "type": "electric_scooter"}, {"bike_id": "828755d04f37818ef377edbbcabc79c6", "is_reserved": 0, "fusion_lon": 0.0, "lat": 38.901395666666666, "is_disabled": 0, "name": "828755d04f37818ef377edbbcabc79c6", "fusion_lat": 0.0, "rental_uris": {"ios": "https://dc.lft.to/lastmile_qr_scan", "android": "https://dc.lft.to/lastmile_qr_scan"}, "lon": -77.03318533333334, "type": "electric_scooter"}, {"bike_id": "f2ba171add0eb2b8816baa2362ee181f", "is_reserved": 0, "fusion_lon": 0.0, "lat": 38.92949083333333, "is_disabled": 0, "name": "f2ba171add0eb2b8816baa2362ee181f", "fusion_lat": 0.0, "rental_uris": {"ios": "https://dc.lft.to/lastmile_qr_scan", "android": "https://dc.lft.to/lastmile_qr_scan"}, "lon": -77.044039, "type": "electric_scooter"}, {"bike_id": "83b198e9f356bcba7d8ce49b23783bfb", "is_reserved": 0, "fusion_lon": 0.0, "lat": 38.932023, "is_disabled": 0, "name": "83b198e9f356bcba7d8ce49b23783bfb", "fusion_lat": 0.0, "rental_uris": {"ios": "https://dc.lft.to/lastmile_qr_scan", "android": "https://dc.lft.to/lastmile_qr_scan"}, "lon": -77.03867083333333, "type": "electric_scooter"}, {"bike_id": "e21d52175665e7e76df991a722b3b37c", "is_reserved": 0, "fusion_lon": 0.0, "lat": 38.802267666666665, "is_disabled": 0, "name": "e21d52175665e7e76df991a722b3b37c", "fusion_lat": 0.0, "rental_uris": {"ios": "https://dc.lft.to/lastmile_qr_scan", "android": "https://dc.lft.to/lastmile_qr_scan"}, "lon": -77.07916216666666, "type": "electric_bike"}, {"bike_id": "6f64b8d566b2ddc87183c0ced2c28063", "is_reserved": 0, "fusion_lon": 0.0, "lat": 38.91707666666667, "is_disabled": 0, "name": "6f64b8d566b2ddc87183c0ced2c28063", "fusion_lat": 0.0, "rental_uris": {"ios": "https://dc.lft.to/lastmile_qr_scan", "android": "https://dc.lft.to/lastmile_qr_scan"}, "lon": -77.01214366666666, "type": "electric_scooter"}, {"bike_id": "5347ac146897c658f97f4206b5d30a30", "is_reserved": 0, "fusion_lon": 0.0, "lat": 38.92033266666667, "is_disabled": 0, "name": "5347ac146897c658f97f4206b5d30a30", "fusion_lat": 0.0, "rental_uris": {"ios": "https://dc.lft.to/lastmile_qr_scan", "android": "https://dc.lft.to/lastmile_qr_scan"}, "lon": -77.01218, "type": "electric_bike"}, {"bike_id": "ac22c363e5361fd4bfc25c9b9c2a24af", "is_reserved": 0, "fusion_lon": 0.0, "lat": 38.90398, "is_disabled": 0, "name": "ac22c363e5361fd4bfc25c9b9c2a24af", "fusion_lat": 0.0, "rental_uris": {"ios": "https://dc.lft.to/lastmile_qr_scan", "android": "https://dc.lft.to/lastmile_qr_scan"}, "lon": -77.03233283333333, "type": "electric_scooter"}, {"bike_id": "c286072b35c3be80f9452bc8ba09a366", "is_reserved": 0, "fusion_lon": 0.0, "lat": 38.9592625, "is_disabled": 0, "name": "c286072b35c3be80f9452bc8ba09a366", "fusion_lat": 0.0, "rental_uris": {"ios": "https://dc.lft.to/lastmile_qr_scan", "android": "https://dc.lft.to/lastmile_qr_scan"}, "lon": -77.03117766666666, "type": "electric_scooter"}, {"bike_id": "f1c639e7b2ee52beb98c5c9e146ae4a3", "is_reserved": 0, "fusion_lon": 0.0, "lat": 38.892176666666664, "is_disabled": 0, "name": "f1c639e7b2ee52beb98c5c9e146ae4a3", "fusion_lat": 0.0, "rental_uris": {"ios": "https://dc.lft.to/lastmile_qr_scan", "android": "https://dc.lft.to/lastmile_qr_scan"}, "lon": -77.02627266666667, "type": "electric_scooter"}, {"bike_id": "d0a7a84b80b7d4fa9ef8569d8c8904ce", "is_reserved": 0, "fusion_lon": 0.0, "lat": 38.904459333333335, "is_disabled": 0, "name": "d0a7a84b80b7d4fa9ef8569d8c8904ce", "fusion_lat": 0.0, "rental_uris": {"ios": "https://dc.lft.to/lastmile_qr_scan", "android": "https://dc.lft.to/lastmile_qr_scan"}, "lon": -77.03229616666667, "type": "electric_scooter"}, {"bike_id": "18b989bd77b8f794a2bf612ed48be4b9", "is_reserved": 0, "fusion_lon": 0.0, "lat": 38.90438433333333, "is_disabled": 0, "name": "18b989bd77b8f794a2bf612ed48be4b9", "fusion_lat": 0.0, "rental_uris": {"ios": "https://dc.lft.to/lastmile_qr_scan", "android": "https://dc.lft.to/lastmile_qr_scan"}, "lon": -77.036437, "type": "electric_scooter"}, {"bike_id": "e24846f8a80ec9bc86552715b51caa66", "is_reserved": 0, "fusion_lon": 0.0, "lat": 38.90559316666667, "is_disabled": 0, "name": "e24846f8a80ec9bc86552715b51caa66", "fusion_lat": 0.0, "rental_uris": {"ios": "https://dc.lft.to/lastmile_qr_scan", "android": "https://dc.lft.to/lastmile_qr_scan"}, "lon": -77.045315, "type": "electric_scooter"}, {"bike_id": "76939f56c2be8408d2d272595d78179f", "is_reserved": 0, "fusion_lon": 0.0, "lat": 38.90363266666667, "is_disabled": 0, "name": "76939f56c2be8408d2d272595d78179f", "fusion_lat": 0.0, "rental_uris": {"ios": "https://dc.lft.to/lastmile_qr_scan", "android": "https://dc.lft.to/lastmile_qr_scan"}, "lon": -77.044627, "type": "electric_scooter"}, {"bike_id": "5fb5acd651bc90ddc0b06b3a3b0e190f", "is_reserved": 0, "fusion_lon": 0.0, "lat": 38.92242933333333, "is_disabled": 0, "name": "5fb5acd651bc90ddc0b06b3a3b0e190f", "fusion_lat": 0.0, "rental_uris": {"ios": "https://dc.lft.to/lastmile_qr_scan", "android": "https://dc.lft.to/lastmile_qr_scan"}, "lon": -77.030878, "type": "electric_scooter"}, {"bike_id": "e291e2e2cf54366cef86cdb07872b15b", "is_reserved": 0, "fusion_lon": 0.0, "lat": 38.91357816666667, "is_disabled": 0, "name": "e291e2e2cf54366cef86cdb07872b15b", "fusion_lat": 0.0, "rental_uris": {"ios": "https://dc.lft.to/lastmile_qr_scan", "android": "https://dc.lft.to/lastmile_qr_scan"}, "lon": -77.01758183333334, "type": "electric_scooter"}, {"bike_id": "cc5b928173f9906c1af32c13741f0c80", "is_reserved": 0, "fusion_lon": 0.0, "lat": 38.91401233333333, "is_disabled": 0, "name": "cc5b928173f9906c1af32c13741f0c80", "fusion_lat": 0.0, "rental_uris": {"ios": "https://dc.lft.to/lastmile_qr_scan", "android": "https://dc.lft.to/lastmile_qr_scan"}, "lon": -77.008377, "type": "electric_scooter"}, {"bike_id": "1bcd9b98f67d651510cc0aa5b0cb3856", "is_reserved": 0, "fusion_lon": 0.0, "lat": 38.907320166666665, "is_disabled": 0, "name": "1bcd9b98f67d651510cc0aa5b0cb3856", "fusion_lat": 0.0, "rental_uris": {"ios": "https://dc.lft.to/lastmile_qr_scan", "android": "https://dc.lft.to/lastmile_qr_scan"}, "lon": -77.070326, "type": "electric_bike"}, {"bike_id": "c93038d8a2e70bb6e4e01c5764b03221", "is_reserved": 0, "fusion_lon": 0.0, "lat": 38.885043333333336, "is_disabled": 0, "name": "c93038d8a2e70bb6e4e01c5764b03221", "fusion_lat": 0.0, "rental_uris": {"ios": "https://dc.lft.to/lastmile_qr_scan", "android": "https://dc.lft.to/lastmile_qr_scan"}, "lon": -77.0056685, "type": "electric_scooter"}, {"bike_id": "08f0079c615de9f3c00f8e50bc373584", "is_reserved": 0, "fusion_lon": 0.0, "lat": 38.905025, "is_disabled": 0, "name": "08f0079c615de9f3c00f8e50bc373584", "fusion_lat": 0.0, "rental_uris": {"ios": "https://dc.lft.to/lastmile_qr_scan", "android": "https://dc.lft.to/lastmile_qr_scan"}, "lon": -76.99015266666666, "type": "electric_scooter"}, {"bike_id": "1fedf77035d6f3a701c48079d648a9f8", "is_reserved": 0, "fusion_lon": 0.0, "lat": 38.92059783333333, "is_disabled": 0, "name": "1fedf77035d6f3a701c48079d648a9f8", "fusion_lat": 0.0, "rental_uris": {"ios": "https://dc.lft.to/lastmile_qr_scan", "android": "https://dc.lft.to/lastmile_qr_scan"}, "lon": -77.033425, "type": "electric_scooter"}, {"bike_id": "14a81f5529db21d92fabdbbdf705d7c2", "is_reserved": 0, "fusion_lon": 0.0, "lat": 38.9027655, "is_disabled": 0, "name": "14a81f5529db21d92fabdbbdf705d7c2", "fusion_lat": 0.0, "rental_uris": {"ios": "https://dc.lft.to/lastmile_qr_scan", "android": "https://dc.lft.to/lastmile_qr_scan"}, "lon": -77.03823383333334, "type": "electric_scooter"}, {"bike_id": "b0a106f134f6b6021f5d9f3ca2305fe1", "is_reserved": 0, "fusion_lon": 0.0, "lat": 38.899549666666665, "is_disabled": 0, "name": "b0a106f134f6b6021f5d9f3ca2305fe1", "fusion_lat": 0.0, "rental_uris": {"ios": "https://dc.lft.to/lastmile_qr_scan", "android": "https://dc.lft.to/lastmile_qr_scan"}, "lon": -77.03175266666666, "type": "electric_scooter"}, {"bike_id": "ea4f038cb469b21967ac8bfe9ce6dbd9", "is_reserved": 0, "fusion_lon": 0.0, "lat": 38.9397895, "is_disabled": 0, "name": "ea4f038cb469b21967ac8bfe9ce6dbd9", "fusion_lat": 0.0, "rental_uris": {"ios": "https://dc.lft.to/lastmile_qr_scan", "android": "https://dc.lft.to/lastmile_qr_scan"}, "lon": -77.02879066666667, "type": "electric_scooter"}, {"bike_id": "1e38bd0204c2b90b3c51f25758bd3e58", "is_reserved": 0, "fusion_lon": 0.0, "lat": 38.966245666666666, "is_disabled": 0, "name": "1e38bd0204c2b90b3c51f25758bd3e58", "fusion_lat": 0.0, "rental_uris": {"ios": "https://dc.lft.to/lastmile_qr_scan", "android": "https://dc.lft.to/lastmile_qr_scan"}, "lon": -76.97669116666667, "type": "electric_bike"}, {"bike_id": "c6a52eeb4065e175542ea9cd28298d96", "is_reserved": 0, "fusion_lon": 0.0, "lat": 38.90767683333333, "is_disabled": 0, "name": "c6a52eeb4065e175542ea9cd28298d96", "fusion_lat": 0.0, "rental_uris": {"ios": "https://dc.lft.to/lastmile_qr_scan", "android": "https://dc.lft.to/lastmile_qr_scan"}, "lon": -77.06911683333334, "type": "electric_scooter"}, {"bike_id": "a7e0ce02c0adbe269acc367f5e45eefd", "is_reserved": 0, "fusion_lon": 0.0, "lat": 38.90965633333333, "is_disabled": 0, "name": "a7e0ce02c0adbe269acc367f5e45eefd", "fusion_lat": 0.0, "rental_uris": {"ios": "https://dc.lft.to/lastmile_qr_scan", "android": "https://dc.lft.to/lastmile_qr_scan"}, "lon": -77.03275216666667, "type": "electric_scooter"}, {"bike_id": "07bc112dedb3a60ca3fb3e81d4c5b377", "is_reserved": 0, "fusion_lon": 0.0, "lat": 38.930662166666664, "is_disabled": 0, "name": "07bc112dedb3a60ca3fb3e81d4c5b377", "fusion_lat": 0.0, "rental_uris": {"ios": "https://dc.lft.to/lastmile_qr_scan", "android": "https://dc.lft.to/lastmile_qr_scan"}, "lon": -77.03810416666667, "type": "electric_scooter"}, {"bike_id": "5cbf2aff9a03de12030093060dc8af8b", "is_reserved": 0, "fusion_lon": 0.0, "lat": 38.916669166666665, "is_disabled": 0, "name": "5cbf2aff9a03de12030093060dc8af8b", "fusion_lat": 0.0, "rental_uris": {"ios": "https://dc.lft.to/lastmile_qr_scan", "android": "https://dc.lft.to/lastmile_qr_scan"}, "lon": -77.02305966666667, "type": "electric_scooter"}, {"bike_id": "a973fb0a57d3f2e453831a451a2f8526", "is_reserved": 0, "fusion_lon": 0.0, "lat": 38.99940083333333, "is_disabled": 0, "name": "a973fb0a57d3f2e453831a451a2f8526", "fusion_lat": 0.0, "rental_uris": {"ios": "https://dc.lft.to/lastmile_qr_scan", "android": "https://dc.lft.to/lastmile_qr_scan"}, "lon": -77.01765983333334, "type": "electric_bike"}, {"bike_id": "1c8543266103e07f6c8cc122de812d7d", "is_reserved": 0, "fusion_lon": 0.0, "lat": 38.8669925, "is_disabled": 0, "name": "1c8543266103e07f6c8cc122de812d7d", "fusion_lat": 0.0, "rental_uris": {"ios": "https://dc.lft.to/lastmile_qr_scan", "android": "https://dc.lft.to/lastmile_qr_scan"}, "lon": -76.987086, "type": "electric_scooter"}, {"bike_id": "abf7ffa83bd872a05074042bb16e19fd", "is_reserved": 0, "fusion_lon": 0.0, "lat": 39.088583166666666, "is_disabled": 0, "name": "abf7ffa83bd872a05074042bb16e19fd", "fusion_lat": 0.0, "rental_uris": {"ios": "https://dc.lft.to/lastmile_qr_scan", "android": "https://dc.lft.to/lastmile_qr_scan"}, "lon": -77.17840983333333, "type": "electric_bike"}, {"bike_id": "dac97e286ae31e2888d50abce967a480", "is_reserved": 0, "fusion_lon": 0.0, "lat": 38.956455, "is_disabled": 0, "name": "dac97e286ae31e2888d50abce967a480", "fusion_lat": 0.0, "rental_uris": {"ios": "https://dc.lft.to/lastmile_qr_scan", "android": "https://dc.lft.to/lastmile_qr_scan"}, "lon": -77.0328035, "type": "electric_scooter"}, {"bike_id": "1cd7fb10504d0e803fb87dfa0a1dae52", "is_reserved": 0, "fusion_lon": 0.0, "lat": 38.95340483333333, "is_disabled": 0, "name": "1cd7fb10504d0e803fb87dfa0a1dae52", "fusion_lat": 0.0, "rental_uris": {"ios": "https://dc.lft.to/lastmile_qr_scan", "android": "https://dc.lft.to/lastmile_qr_scan"}, "lon": -77.0095435, "type": "electric_bike"}, {"bike_id": "e2f9001a8bfddb55c2c38471756d0017", "is_reserved": 0, "fusion_lon": 0.0, "lat": 38.90724933333333, "is_disabled": 0, "name": "e2f9001a8bfddb55c2c38471756d0017", "fusion_lat": 0.0, "rental_uris": {"ios": "https://dc.lft.to/lastmile_qr_scan", "android": "https://dc.lft.to/lastmile_qr_scan"}, "lon": -77.04345683333334, "type": "electric_scooter"}, {"bike_id": "9dcd762fe6da6689e3f331cb3fc66d9c", "is_reserved": 0, "fusion_lon": 0.0, "lat": 38.905164166666665, "is_disabled": 0, "name": "9dcd762fe6da6689e3f331cb3fc66d9c", "fusion_lat": 0.0, "rental_uris": {"ios": "https://dc.lft.to/lastmile_qr_scan", "android": "https://dc.lft.to/lastmile_qr_scan"}, "lon": -77.05156233333334, "type": "electric_scooter"}, {"bike_id": "aef11cf0a687024c92ba089ebfafb958", "is_reserved": 0, "fusion_lon": 0.0, "lat": 38.935387, "is_disabled": 0, "name": "aef11cf0a687024c92ba089ebfafb958", "fusion_lat": 0.0, "rental_uris": {"ios": "https://dc.lft.to/lastmile_qr_scan", "android": "https://dc.lft.to/lastmile_qr_scan"}, "lon": -77.03422666666667, "type": "electric_scooter"}, {"bike_id": "e1d2dc703b25be8d9381cebbc1599ef0", "is_reserved": 0, "fusion_lon": 0.0, "lat": 38.86538866666667, "is_disabled": 0, "name": "e1d2dc703b25be8d9381cebbc1599ef0", "fusion_lat": 0.0, "rental_uris": {"ios": "https://dc.lft.to/lastmile_qr_scan", "android": "https://dc.lft.to/lastmile_qr_scan"}, "lon": -76.98707016666667, "type": "electric_scooter"}, {"bike_id": "aacd3b04c8242efcfc65c7aacff72ec5", "is_reserved": 0, "fusion_lon": 0.0, "lat": 38.9574845, "is_disabled": 0, "name": "aacd3b04c8242efcfc65c7aacff72ec5", "fusion_lat": 0.0, "rental_uris": {"ios": "https://dc.lft.to/lastmile_qr_scan", "android": "https://dc.lft.to/lastmile_qr_scan"}, "lon": -77.0241405, "type": "electric_scooter"}, {"bike_id": "2d3d064e273a3507a6d9e951e45e59e5", "is_reserved": 0, "fusion_lon": 0.0, "lat": 38.92856883333333, "is_disabled": 0, "name": "2d3d064e273a3507a6d9e951e45e59e5", "fusion_lat": 0.0, "rental_uris": {"ios": "https://dc.lft.to/lastmile_qr_scan", "android": "https://dc.lft.to/lastmile_qr_scan"}, "lon": -77.22218916666667, "type": "electric_bike"}, {"bike_id": "29e02062c0d878f285f603231ed4bf5b", "is_reserved": 0, "fusion_lon": 0.0, "lat": 38.8665745, "is_disabled": 0, "name": "29e02062c0d878f285f603231ed4bf5b", "fusion_lat": 0.0, "rental_uris": {"ios": "https://dc.lft.to/lastmile_qr_scan", "android": "https://dc.lft.to/lastmile_qr_scan"}, "lon": -76.98881233333333, "type": "electric_scooter"}, {"bike_id": "e91d821cd881e414c65a4ac4914441a7", "is_reserved": 0, "fusion_lon": 0.0, "lat": 39.051982, "is_disabled": 0, "name": "e91d821cd881e414c65a4ac4914441a7", "fusion_lat": 0.0, "rental_uris": {"ios": "https://dc.lft.to/lastmile_qr_scan", "android": "https://dc.lft.to/lastmile_qr_scan"}, "lon": -77.10922266666667, "type": "electric_bike"}, {"bike_id": "f4531ace0208beda3b302442088393fd", "is_reserved": 0, "fusion_lon": 0.0, "lat": 38.91555266666667, "is_disabled": 0, "name": "f4531ace0208beda3b302442088393fd", "fusion_lat": 0.0, "rental_uris": {"ios": "https://dc.lft.to/lastmile_qr_scan", "android": "https://dc.lft.to/lastmile_qr_scan"}, "lon": -77.03936733333333, "type": "electric_scooter"}, {"bike_id": "e2ff6133c82187bf40a56bde912a8a3c", "is_reserved": 0, "fusion_lon": 0.0, "lat": 38.915553, "is_disabled": 0, "name": "e2ff6133c82187bf40a56bde912a8a3c", "fusion_lat": 0.0, "rental_uris": {"ios": "https://dc.lft.to/lastmile_qr_scan", "android": "https://dc.lft.to/lastmile_qr_scan"}, "lon": -77.03168916666667, "type": "electric_scooter"}, {"bike_id": "a70d7fb0928c39f36458b2273f0196ba", "is_reserved": 0, "fusion_lon": 0.0, "lat": 38.933319, "is_disabled": 0, "name": "a70d7fb0928c39f36458b2273f0196ba", "fusion_lat": 0.0, "rental_uris": {"ios": "https://dc.lft.to/lastmile_qr_scan", "android": "https://dc.lft.to/lastmile_qr_scan"}, "lon": -77.0326515, "type": "electric_scooter"}, {"bike_id": "971d4b78ea1487c77a04e3e7799b5c57", "is_reserved": 0, "fusion_lon": 0.0, "lat": 38.9011845, "is_disabled": 0, "name": "971d4b78ea1487c77a04e3e7799b5c57", "fusion_lat": 0.0, "rental_uris": {"ios": "https://dc.lft.to/lastmile_qr_scan", "android": "https://dc.lft.to/lastmile_qr_scan"}, "lon": -77.042229, "type": "electric_scooter"}, {"bike_id": "35fe7a60215e316ddb3894e5272d610b", "is_reserved": 0, "fusion_lon": 0.0, "lat": 38.92514716666667, "is_disabled": 0, "name": "35fe7a60215e316ddb3894e5272d610b", "fusion_lat": 0.0, "rental_uris": {"ios": "https://dc.lft.to/lastmile_qr_scan", "android": "https://dc.lft.to/lastmile_qr_scan"}, "lon": -77.0331885, "type": "electric_scooter"}, {"bike_id": "b1e76849374e47fa445b086c7f47917c", "is_reserved": 0, "fusion_lon": 0.0, "lat": 38.8922425, "is_disabled": 0, "name": "b1e76849374e47fa445b086c7f47917c", "fusion_lat": 0.0, "rental_uris": {"ios": "https://dc.lft.to/lastmile_qr_scan", "android": "https://dc.lft.to/lastmile_qr_scan"}, "lon": -77.04333733333333, "type": "electric_scooter"}, {"bike_id": "f465021b1814171f9a9fd7343bdf3728", "is_reserved": 0, "fusion_lon": 0.0, "lat": 38.8821125, "is_disabled": 0, "name": "f465021b1814171f9a9fd7343bdf3728", "fusion_lat": 0.0, "rental_uris": {"ios": "https://dc.lft.to/lastmile_qr_scan", "android": "https://dc.lft.to/lastmile_qr_scan"}, "lon": -76.9269615, "type": "electric_scooter"}, {"bike_id": "9778c7541b94ab602aaed0f0ee37f16b", "is_reserved": 0, "fusion_lon": 0.0, "lat": 38.9251595, "is_disabled": 0, "name": "9778c7541b94ab602aaed0f0ee37f16b", "fusion_lat": 0.0, "rental_uris": {"ios": "https://dc.lft.to/lastmile_qr_scan", "android": "https://dc.lft.to/lastmile_qr_scan"}, "lon": -77.00172616666667, "type": "electric_scooter"}, {"bike_id": "eeac3e3a5d37a0f317a04b0f620e6c81", "is_reserved": 0, "fusion_lon": 0.0, "lat": 38.90613916666667, "is_disabled": 0, "name": "eeac3e3a5d37a0f317a04b0f620e6c81", "fusion_lat": 0.0, "rental_uris": {"ios": "https://dc.lft.to/lastmile_qr_scan", "android": "https://dc.lft.to/lastmile_qr_scan"}, "lon": -77.07482633333333, "type": "electric_scooter"}, {"bike_id": "b97522bd39a15b1fbc88dc65ebed97ad", "is_reserved": 0, "fusion_lon": 0.0, "lat": 38.8960935, "is_disabled": 0, "name": "b97522bd39a15b1fbc88dc65ebed97ad", "fusion_lat": 0.0, "rental_uris": {"ios": "https://dc.lft.to/lastmile_qr_scan", "android": "https://dc.lft.to/lastmile_qr_scan"}, "lon": -77.00922716666666, "type": "electric_scooter"}, {"bike_id": "e82db2aa186ab75311f25532c344dfd0", "is_reserved": 0, "fusion_lon": 0.0, "lat": 38.92034616666667, "is_disabled": 0, "name": "e82db2aa186ab75311f25532c344dfd0", "fusion_lat": 0.0, "rental_uris": {"ios": "https://dc.lft.to/lastmile_qr_scan", "android": "https://dc.lft.to/lastmile_qr_scan"}, "lon": -77.03863283333334, "type": "electric_scooter"}, {"bike_id": "07309bfcca1fc96d9355e047e09855ce", "is_reserved": 0, "fusion_lon": 0.0, "lat": 38.92364166666667, "is_disabled": 0, "name": "07309bfcca1fc96d9355e047e09855ce", "fusion_lat": 0.0, "rental_uris": {"ios": "https://dc.lft.to/lastmile_qr_scan", "android": "https://dc.lft.to/lastmile_qr_scan"}, "lon": -77.05838666666666, "type": "electric_scooter"}, {"bike_id": "c0efc1b4c7fd2036ff4e5ff75f4c4395", "is_reserved": 0, "fusion_lon": 0.0, "lat": 38.9223165, "is_disabled": 0, "name": "c0efc1b4c7fd2036ff4e5ff75f4c4395", "fusion_lat": 0.0, "rental_uris": {"ios": "https://dc.lft.to/lastmile_qr_scan", "android": "https://dc.lft.to/lastmile_qr_scan"}, "lon": -77.04135966666666, "type": "electric_scooter"}, {"bike_id": "fee5c8a0e2bb4ef559861e4264748ad2", "is_reserved": 0, "fusion_lon": 0.0, "lat": 38.902819, "is_disabled": 0, "name": "fee5c8a0e2bb4ef559861e4264748ad2", "fusion_lat": 0.0, "rental_uris": {"ios": "https://dc.lft.to/lastmile_qr_scan", "android": "https://dc.lft.to/lastmile_qr_scan"}, "lon": -77.03644766666666, "type": "electric_scooter"}, {"bike_id": "18d48f8a29643f9b1e6333b1927ee60d", "is_reserved": 0, "fusion_lon": 0.0, "lat": 38.91981166666667, "is_disabled": 0, "name": "18d48f8a29643f9b1e6333b1927ee60d", "fusion_lat": 0.0, "rental_uris": {"ios": "https://dc.lft.to/lastmile_qr_scan", "android": "https://dc.lft.to/lastmile_qr_scan"}, "lon": -77.04176883333334, "type": "electric_scooter"}, {"bike_id": "0cac4e9ca7b03aec0b6bc3f0b6656b72", "is_reserved": 0, "fusion_lon": 0.0, "lat": 38.91851616666667, "is_disabled": 0, "name": "0cac4e9ca7b03aec0b6bc3f0b6656b72", "fusion_lat": 0.0, "rental_uris": {"ios": "https://dc.lft.to/lastmile_qr_scan", "android": "https://dc.lft.to/lastmile_qr_scan"}, "lon": -76.96094016666666, "type": "electric_bike"}, {"bike_id": "2d915b174b7b27faa749c5b4496fe60a", "is_reserved": 0, "fusion_lon": 0.0, "lat": 38.923205, "is_disabled": 0, "name": "2d915b174b7b27faa749c5b4496fe60a", "fusion_lat": 0.0, "rental_uris": {"ios": "https://dc.lft.to/lastmile_qr_scan", "android": "https://dc.lft.to/lastmile_qr_scan"}, "lon": -77.04486416666667, "type": "electric_scooter"}, {"bike_id": "f025eefbab087f0a12a617e93f67a29a", "is_reserved": 0, "fusion_lon": 0.0, "lat": 38.89778833333333, "is_disabled": 0, "name": "f025eefbab087f0a12a617e93f67a29a", "fusion_lat": 0.0, "rental_uris": {"ios": "https://dc.lft.to/lastmile_qr_scan", "android": "https://dc.lft.to/lastmile_qr_scan"}, "lon": -77.00759133333334, "type": "electric_bike"}, {"bike_id": "e4843d965ca03fe7e987ed1700bc7e66", "is_reserved": 0, "fusion_lon": 0.0, "lat": 38.824463, "is_disabled": 0, "name": "e4843d965ca03fe7e987ed1700bc7e66", "fusion_lat": 0.0, "rental_uris": {"ios": "https://dc.lft.to/lastmile_qr_scan", "android": "https://dc.lft.to/lastmile_qr_scan"}, "lon": -77.0704455, "type": "electric_bike"}, {"bike_id": "7c64c5d45fe1462fd5c4e930a6b638db", "is_reserved": 0, "fusion_lon": 0.0, "lat": 38.890245166666666, "is_disabled": 0, "name": "7c64c5d45fe1462fd5c4e930a6b638db", "fusion_lat": 0.0, "rental_uris": {"ios": "https://dc.lft.to/lastmile_qr_scan", "android": "https://dc.lft.to/lastmile_qr_scan"}, "lon": -76.93687366666667, "type": "electric_scooter"}, {"bike_id": "90af83efaaa2f32a133bb8a4c676b1b7", "is_reserved": 0, "fusion_lon": 0.0, "lat": 38.90666216666666, "is_disabled": 0, "name": "90af83efaaa2f32a133bb8a4c676b1b7", "fusion_lat": 0.0, "rental_uris": {"ios": "https://dc.lft.to/lastmile_qr_scan", "android": "https://dc.lft.to/lastmile_qr_scan"}, "lon": -76.99964516666667, "type": "electric_bike"}, {"bike_id": "6685217204c79b73a809d8d7dd8c8eb9", "is_reserved": 0, "fusion_lon": 0.0, "lat": 38.8923445, "is_disabled": 0, "name": "6685217204c79b73a809d8d7dd8c8eb9", "fusion_lat": 0.0, "rental_uris": {"ios": "https://dc.lft.to/lastmile_qr_scan", "android": "https://dc.lft.to/lastmile_qr_scan"}, "lon": -77.03209116666666, "type": "electric_scooter"}, {"bike_id": "f3011f478bb17e75228d8f243dfec66f", "is_reserved": 0, "fusion_lon": 0.0, "lat": 38.9036245, "is_disabled": 0, "name": "f3011f478bb17e75228d8f243dfec66f", "fusion_lat": 0.0, "rental_uris": {"ios": "https://dc.lft.to/lastmile_qr_scan", "android": "https://dc.lft.to/lastmile_qr_scan"}, "lon": -77.03841333333334, "type": "electric_scooter"}, {"bike_id": "d830bdd5281fc31c1ad0d06cfd30c3b4", "is_reserved": 0, "fusion_lon": 0.0, "lat": 38.908556, "is_disabled": 0, "name": "d830bdd5281fc31c1ad0d06cfd30c3b4", "fusion_lat": 0.0, "rental_uris": {"ios": "https://dc.lft.to/lastmile_qr_scan", "android": "https://dc.lft.to/lastmile_qr_scan"}, "lon": -77.02729783333334, "type": "electric_scooter"}, {"bike_id": "3ae710f1551e2762f89b1565a422fb29", "is_reserved": 0, "fusion_lon": 0.0, "lat": 38.96575683333333, "is_disabled": 0, "name": "3ae710f1551e2762f89b1565a422fb29", "fusion_lat": 0.0, "rental_uris": {"ios": "https://dc.lft.to/lastmile_qr_scan", "android": "https://dc.lft.to/lastmile_qr_scan"}, "lon": -76.95485316666667, "type": "electric_bike"}, {"bike_id": "c9ebdb23ae2c351c820e29541ace0cae", "is_reserved": 0, "fusion_lon": 0.0, "lat": 38.88006583333333, "is_disabled": 0, "name": "c9ebdb23ae2c351c820e29541ace0cae", "fusion_lat": 0.0, "rental_uris": {"ios": "https://dc.lft.to/lastmile_qr_scan", "android": "https://dc.lft.to/lastmile_qr_scan"}, "lon": -76.91593033333334, "type": "electric_bike"}, {"bike_id": "8fa0199cd9c58e2eb95701c67dc7795c", "is_reserved": 0, "fusion_lon": 0.0, "lat": 38.908989166666665, "is_disabled": 0, "name": "8fa0199cd9c58e2eb95701c67dc7795c", "fusion_lat": 0.0, "rental_uris": {"ios": "https://dc.lft.to/lastmile_qr_scan", "android": "https://dc.lft.to/lastmile_qr_scan"}, "lon": -77.08621216666667, "type": "electric_scooter"}, {"bike_id": "3cb529ef00adee2bc9fdc1c903bab4b8", "is_reserved": 0, "fusion_lon": 0.0, "lat": 38.90330183333333, "is_disabled": 0, "name": "3cb529ef00adee2bc9fdc1c903bab4b8", "fusion_lat": 0.0, "rental_uris": {"ios": "https://dc.lft.to/lastmile_qr_scan", "android": "https://dc.lft.to/lastmile_qr_scan"}, "lon": -77.03814933333334, "type": "electric_scooter"}, {"bike_id": "e64544bed9da21384ee51354656c6041", "is_reserved": 0, "fusion_lon": 0.0, "lat": 38.9157125, "is_disabled": 0, "name": "e64544bed9da21384ee51354656c6041", "fusion_lat": 0.0, "rental_uris": {"ios": "https://dc.lft.to/lastmile_qr_scan", "android": "https://dc.lft.to/lastmile_qr_scan"}, "lon": -77.04652566666667, "type": "electric_scooter"}, {"bike_id": "37c06a485e5f8f4bbc69684a23851df6", "is_reserved": 0, "fusion_lon": 0.0, "lat": 38.91696916666667, "is_disabled": 0, "name": "37c06a485e5f8f4bbc69684a23851df6", "fusion_lat": 0.0, "rental_uris": {"ios": "https://dc.lft.to/lastmile_qr_scan", "android": "https://dc.lft.to/lastmile_qr_scan"}, "lon": -77.04104266666667, "type": "electric_scooter"}, {"bike_id": "6b3e0eba382a319cc605cf14e631ddf1", "is_reserved": 0, "fusion_lon": 0.0, "lat": 38.874820666666665, "is_disabled": 0, "name": "6b3e0eba382a319cc605cf14e631ddf1", "fusion_lat": 0.0, "rental_uris": {"ios": "https://dc.lft.to/lastmile_qr_scan", "android": "https://dc.lft.to/lastmile_qr_scan"}, "lon": -77.002414, "type": "electric_bike"}, {"bike_id": "4187b551f6a516162679a798e236741c", "is_reserved": 0, "fusion_lon": 0.0, "lat": 38.919605833333335, "is_disabled": 0, "name": "4187b551f6a516162679a798e236741c", "fusion_lat": 0.0, "rental_uris": {"ios": "https://dc.lft.to/lastmile_qr_scan", "android": "https://dc.lft.to/lastmile_qr_scan"}, "lon": -76.9727045, "type": "electric_bike"}, {"bike_id": "dafb909241c858f8bce489d06d7174a3", "is_reserved": 0, "fusion_lon": 0.0, "lat": 38.898765166666664, "is_disabled": 0, "name": "dafb909241c858f8bce489d06d7174a3", "fusion_lat": 0.0, "rental_uris": {"ios": "https://dc.lft.to/lastmile_qr_scan", "android": "https://dc.lft.to/lastmile_qr_scan"}, "lon": -76.93158116666666, "type": "electric_scooter"}, {"bike_id": "eefc47fd564bbc72e29af4cf3f829fda", "is_reserved": 0, "fusion_lon": 0.0, "lat": 38.9021655, "is_disabled": 0, "name": "eefc47fd564bbc72e29af4cf3f829fda", "fusion_lat": 0.0, "rental_uris": {"ios": "https://dc.lft.to/lastmile_qr_scan", "android": "https://dc.lft.to/lastmile_qr_scan"}, "lon": -77.028327, "type": "electric_scooter"}, {"bike_id": "96126d69cc855d4a5c0d13d25d618547", "is_reserved": 0, "fusion_lon": 0.0, "lat": 38.901358333333334, "is_disabled": 0, "name": "96126d69cc855d4a5c0d13d25d618547", "fusion_lat": 0.0, "rental_uris": {"ios": "https://dc.lft.to/lastmile_qr_scan", "android": "https://dc.lft.to/lastmile_qr_scan"}, "lon": -77.044766, "type": "electric_scooter"}, {"bike_id": "9f35ba217c41033a77a549c96e081356", "is_reserved": 0, "fusion_lon": 0.0, "lat": 38.936115, "is_disabled": 0, "name": "9f35ba217c41033a77a549c96e081356", "fusion_lat": 0.0, "rental_uris": {"ios": "https://dc.lft.to/lastmile_qr_scan", "android": "https://dc.lft.to/lastmile_qr_scan"}, "lon": -77.03207966666666, "type": "electric_scooter"}, {"bike_id": "abb6c40a361c3646433ff9b11f911ed6", "is_reserved": 0, "fusion_lon": 0.0, "lat": 38.93349933333333, "is_disabled": 0, "name": "abb6c40a361c3646433ff9b11f911ed6", "fusion_lat": 0.0, "rental_uris": {"ios": "https://dc.lft.to/lastmile_qr_scan", "android": "https://dc.lft.to/lastmile_qr_scan"}, "lon": -77.058626, "type": "electric_scooter"}, {"bike_id": "a7ffc40b370ffac6064b6edc327d8b67", "is_reserved": 0, "fusion_lon": 0.0, "lat": 38.9081835, "is_disabled": 0, "name": "a7ffc40b370ffac6064b6edc327d8b67", "fusion_lat": 0.0, "rental_uris": {"ios": "https://dc.lft.to/lastmile_qr_scan", "android": "https://dc.lft.to/lastmile_qr_scan"}, "lon": -77.039313, "type": "electric_scooter"}, {"bike_id": "3d1720e31e338eead7bfc729b19c0558", "is_reserved": 0, "fusion_lon": 0.0, "lat": 38.86241283333333, "is_disabled": 0, "name": "3d1720e31e338eead7bfc729b19c0558", "fusion_lat": 0.0, "rental_uris": {"ios": "https://dc.lft.to/lastmile_qr_scan", "android": "https://dc.lft.to/lastmile_qr_scan"}, "lon": -76.99482133333333, "type": "electric_scooter"}, {"bike_id": "9f690ed3b5b52cbbf1b9b4dc8ac67090", "is_reserved": 0, "fusion_lon": 0.0, "lat": 38.911098333333335, "is_disabled": 0, "name": "9f690ed3b5b52cbbf1b9b4dc8ac67090", "fusion_lat": 0.0, "rental_uris": {"ios": "https://dc.lft.to/lastmile_qr_scan", "android": "https://dc.lft.to/lastmile_qr_scan"}, "lon": -77.06524133333333, "type": "electric_scooter"}, {"bike_id": "8d4e53599d5fd3a3fa8d9782735b7a96", "is_reserved": 0, "fusion_lon": 0.0, "lat": 38.898524, "is_disabled": 0, "name": "8d4e53599d5fd3a3fa8d9782735b7a96", "fusion_lat": 0.0, "rental_uris": {"ios": "https://dc.lft.to/lastmile_qr_scan", "android": "https://dc.lft.to/lastmile_qr_scan"}, "lon": -77.030147, "type": "electric_scooter"}, {"bike_id": "016690f74d60dca80366389951fd38dc", "is_reserved": 0, "fusion_lon": 0.0, "lat": 38.900077333333336, "is_disabled": 0, "name": "016690f74d60dca80366389951fd38dc", "fusion_lat": 0.0, "rental_uris": {"ios": "https://dc.lft.to/lastmile_qr_scan", "android": "https://dc.lft.to/lastmile_qr_scan"}, "lon": -77.0112735, "type": "electric_scooter"}, {"bike_id": "67d3f18cdafad6ba618d36ec2d2fc266", "is_reserved": 0, "fusion_lon": 0.0, "lat": 38.9029335, "is_disabled": 0, "name": "67d3f18cdafad6ba618d36ec2d2fc266", "fusion_lat": 0.0, "rental_uris": {"ios": "https://dc.lft.to/lastmile_qr_scan", "android": "https://dc.lft.to/lastmile_qr_scan"}, "lon": -77.0397685, "type": "electric_scooter"}, {"bike_id": "73d7bd8f9b4bfccc1da0a40fdde7c07a", "is_reserved": 0, "fusion_lon": 0.0, "lat": 38.9051375, "is_disabled": 0, "name": "73d7bd8f9b4bfccc1da0a40fdde7c07a", "fusion_lat": 0.0, "rental_uris": {"ios": "https://dc.lft.to/lastmile_qr_scan", "android": "https://dc.lft.to/lastmile_qr_scan"}, "lon": -77.04142883333333, "type": "electric_scooter"}, {"bike_id": "2467a27718f9ab2a26c3d996477bb9eb", "is_reserved": 0, "fusion_lon": 0.0, "lat": 38.891672, "is_disabled": 0, "name": "2467a27718f9ab2a26c3d996477bb9eb", "fusion_lat": 0.0, "rental_uris": {"ios": "https://dc.lft.to/lastmile_qr_scan", "android": "https://dc.lft.to/lastmile_qr_scan"}, "lon": -77.01544033333333, "type": "electric_scooter"}, {"bike_id": "44d6797eb4c08a628206bdc0f3024a67", "is_reserved": 0, "fusion_lon": 0.0, "lat": 38.9184295, "is_disabled": 0, "name": "44d6797eb4c08a628206bdc0f3024a67", "fusion_lat": 0.0, "rental_uris": {"ios": "https://dc.lft.to/lastmile_qr_scan", "android": "https://dc.lft.to/lastmile_qr_scan"}, "lon": -77.03893583333333, "type": "electric_scooter"}, {"bike_id": "c7713aa04774f3fb2cf08314faa46749", "is_reserved": 0, "fusion_lon": 0.0, "lat": 38.8768565, "is_disabled": 0, "name": "c7713aa04774f3fb2cf08314faa46749", "fusion_lat": 0.0, "rental_uris": {"ios": "https://dc.lft.to/lastmile_qr_scan", "android": "https://dc.lft.to/lastmile_qr_scan"}, "lon": -77.002979, "type": "electric_scooter"}, {"bike_id": "d52004cb077f91300759a96799b1c91b", "is_reserved": 0, "fusion_lon": 0.0, "lat": 38.919064, "is_disabled": 0, "name": "d52004cb077f91300759a96799b1c91b", "fusion_lat": 0.0, "rental_uris": {"ios": "https://dc.lft.to/lastmile_qr_scan", "android": "https://dc.lft.to/lastmile_qr_scan"}, "lon": -77.01971666666667, "type": "electric_scooter"}, {"bike_id": "7c5a37f9ec53e56d960187b3db03c82f", "is_reserved": 0, "fusion_lon": 0.0, "lat": 38.8764755, "is_disabled": 0, "name": "7c5a37f9ec53e56d960187b3db03c82f", "fusion_lat": 0.0, "rental_uris": {"ios": "https://dc.lft.to/lastmile_qr_scan", "android": "https://dc.lft.to/lastmile_qr_scan"}, "lon": -76.9958635, "type": "electric_scooter"}, {"bike_id": "c847b6c372b24f6811a9951fe538fe6b", "is_reserved": 0, "fusion_lon": 0.0, "lat": 38.90270433333333, "is_disabled": 0, "name": "c847b6c372b24f6811a9951fe538fe6b", "fusion_lat": 0.0, "rental_uris": {"ios": "https://dc.lft.to/lastmile_qr_scan", "android": "https://dc.lft.to/lastmile_qr_scan"}, "lon": -77.03839283333333, "type": "electric_scooter"}, {"bike_id": "f94b8b7d8f77cff99889c933768ef48e", "is_reserved": 0, "fusion_lon": 0.0, "lat": 38.900140666666665, "is_disabled": 0, "name": "f94b8b7d8f77cff99889c933768ef48e", "fusion_lat": 0.0, "rental_uris": {"ios": "https://dc.lft.to/lastmile_qr_scan", "android": "https://dc.lft.to/lastmile_qr_scan"}, "lon": -77.01120116666667, "type": "electric_scooter"}, {"bike_id": "473acd5afa0fb9f84fb3472030baac81", "is_reserved": 0, "fusion_lon": 0.0, "lat": 38.927378, "is_disabled": 0, "name": "473acd5afa0fb9f84fb3472030baac81", "fusion_lat": 0.0, "rental_uris": {"ios": "https://dc.lft.to/lastmile_qr_scan", "android": "https://dc.lft.to/lastmile_qr_scan"}, "lon": -77.03354833333333, "type": "electric_scooter"}, {"bike_id": "88b1857842d81ec9ee15d260ffbf7ee5", "is_reserved": 0, "fusion_lon": 0.0, "lat": 38.91286866666667, "is_disabled": 0, "name": "88b1857842d81ec9ee15d260ffbf7ee5", "fusion_lat": 0.0, "rental_uris": {"ios": "https://dc.lft.to/lastmile_qr_scan", "android": "https://dc.lft.to/lastmile_qr_scan"}, "lon": -77.04486833333333, "type": "electric_bike"}, {"bike_id": "0efda001319e7ecf8f23f40bade51fff", "is_reserved": 0, "fusion_lon": 0.0, "lat": 38.914325166666664, "is_disabled": 0, "name": "0efda001319e7ecf8f23f40bade51fff", "fusion_lat": 0.0, "rental_uris": {"ios": "https://dc.lft.to/lastmile_qr_scan", "android": "https://dc.lft.to/lastmile_qr_scan"}, "lon": -77.02811883333334, "type": "electric_scooter"}, {"bike_id": "2003b8597c64b8c14492ab4f7cc0ddfc", "is_reserved": 0, "fusion_lon": 0.0, "lat": 38.89803333333333, "is_disabled": 0, "name": "2003b8597c64b8c14492ab4f7cc0ddfc", "fusion_lat": 0.0, "rental_uris": {"ios": "https://dc.lft.to/lastmile_qr_scan", "android": "https://dc.lft.to/lastmile_qr_scan"}, "lon": -77.03292, "type": "electric_scooter"}, {"bike_id": "6945cfd3bd508b241d39faa5d7f7036e", "is_reserved": 0, "fusion_lon": 0.0, "lat": 38.89834366666667, "is_disabled": 0, "name": "6945cfd3bd508b241d39faa5d7f7036e", "fusion_lat": 0.0, "rental_uris": {"ios": "https://dc.lft.to/lastmile_qr_scan", "android": "https://dc.lft.to/lastmile_qr_scan"}, "lon": -76.9463415, "type": "electric_scooter"}, {"bike_id": "e8665b68af1ebe55d60d58347b5a2591", "is_reserved": 0, "fusion_lon": 0.0, "lat": 38.92593683333333, "is_disabled": 0, "name": "e8665b68af1ebe55d60d58347b5a2591", "fusion_lat": 0.0, "rental_uris": {"ios": "https://dc.lft.to/lastmile_qr_scan", "android": "https://dc.lft.to/lastmile_qr_scan"}, "lon": -77.00483633333333, "type": "electric_scooter"}, {"bike_id": "60ba1445aaa6dabb424bd5f80c944a8a", "is_reserved": 0, "fusion_lon": 0.0, "lat": 38.90928233333333, "is_disabled": 0, "name": "60ba1445aaa6dabb424bd5f80c944a8a", "fusion_lat": 0.0, "rental_uris": {"ios": "https://dc.lft.to/lastmile_qr_scan", "android": "https://dc.lft.to/lastmile_qr_scan"}, "lon": -76.999748, "type": "electric_scooter"}, {"bike_id": "58f60b2c12632937343302e783fc1b8b", "is_reserved": 0, "fusion_lon": 0.0, "lat": 38.915421333333335, "is_disabled": 0, "name": "58f60b2c12632937343302e783fc1b8b", "fusion_lat": 0.0, "rental_uris": {"ios": "https://dc.lft.to/lastmile_qr_scan", "android": "https://dc.lft.to/lastmile_qr_scan"}, "lon": -77.03792916666667, "type": "electric_scooter"}, {"bike_id": "70dea8aa36498c4e08599d03bf96549e", "is_reserved": 0, "fusion_lon": 0.0, "lat": 38.9353075, "is_disabled": 0, "name": "70dea8aa36498c4e08599d03bf96549e", "fusion_lat": 0.0, "rental_uris": {"ios": "https://dc.lft.to/lastmile_qr_scan", "android": "https://dc.lft.to/lastmile_qr_scan"}, "lon": -77.0285005, "type": "electric_scooter"}, {"bike_id": "fa16183a58072a4ca49c070670f9f347", "is_reserved": 0, "fusion_lon": 0.0, "lat": 38.89222633333333, "is_disabled": 0, "name": "fa16183a58072a4ca49c070670f9f347", "fusion_lat": 0.0, "rental_uris": {"ios": "https://dc.lft.to/lastmile_qr_scan", "android": "https://dc.lft.to/lastmile_qr_scan"}, "lon": -77.028167, "type": "electric_scooter"}, {"bike_id": "3a33652f64fc2a998154f4cb7bb1dbff", "is_reserved": 0, "fusion_lon": 0.0, "lat": 38.88361783333333, "is_disabled": 0, "name": "3a33652f64fc2a998154f4cb7bb1dbff", "fusion_lat": 0.0, "rental_uris": {"ios": "https://dc.lft.to/lastmile_qr_scan", "android": "https://dc.lft.to/lastmile_qr_scan"}, "lon": -77.03174383333334, "type": "electric_scooter"}, {"bike_id": "221d1d5e02a8f5778c7274ea9e933ff9", "is_reserved": 0, "fusion_lon": 0.0, "lat": 38.903603833333335, "is_disabled": 0, "name": "221d1d5e02a8f5778c7274ea9e933ff9", "fusion_lat": 0.0, "rental_uris": {"ios": "https://dc.lft.to/lastmile_qr_scan", "android": "https://dc.lft.to/lastmile_qr_scan"}, "lon": -77.03169516666667, "type": "electric_scooter"}, {"bike_id": "96a816472db4198be26c7b5533f2aa56", "is_reserved": 0, "fusion_lon": 0.0, "lat": 38.90684483333333, "is_disabled": 0, "name": "96a816472db4198be26c7b5533f2aa56", "fusion_lat": 0.0, "rental_uris": {"ios": "https://dc.lft.to/lastmile_qr_scan", "android": "https://dc.lft.to/lastmile_qr_scan"}, "lon": -77.07568633333334, "type": "electric_scooter"}, {"bike_id": "279b5fdb434d8a8067941a98edc79369", "is_reserved": 0, "fusion_lon": 0.0, "lat": 38.8923155, "is_disabled": 0, "name": "279b5fdb434d8a8067941a98edc79369", "fusion_lat": 0.0, "rental_uris": {"ios": "https://dc.lft.to/lastmile_qr_scan", "android": "https://dc.lft.to/lastmile_qr_scan"}, "lon": -77.04997966666667, "type": "electric_scooter"}, {"bike_id": "75658cc73c7421ef84ccc80a77b0800c", "is_reserved": 0, "fusion_lon": 0.0, "lat": 38.880306166666664, "is_disabled": 0, "name": "75658cc73c7421ef84ccc80a77b0800c", "fusion_lat": 0.0, "rental_uris": {"ios": "https://dc.lft.to/lastmile_qr_scan", "android": "https://dc.lft.to/lastmile_qr_scan"}, "lon": -76.93137516666667, "type": "electric_scooter"}, {"bike_id": "6fee7130a4e17d0db8605466d6416b80", "is_reserved": 0, "fusion_lon": 0.0, "lat": 38.897318166666665, "is_disabled": 0, "name": "6fee7130a4e17d0db8605466d6416b80", "fusion_lat": 0.0, "rental_uris": {"ios": "https://dc.lft.to/lastmile_qr_scan", "android": "https://dc.lft.to/lastmile_qr_scan"}, "lon": -76.94714433333333, "type": "electric_scooter"}, {"bike_id": "023ad9b0fdc7af9dccd170861007c442", "is_reserved": 0, "fusion_lon": 0.0, "lat": 38.899775, "is_disabled": 0, "name": "023ad9b0fdc7af9dccd170861007c442", "fusion_lat": 0.0, "rental_uris": {"ios": "https://dc.lft.to/lastmile_qr_scan", "android": "https://dc.lft.to/lastmile_qr_scan"}, "lon": -77.05573383333333, "type": "electric_scooter"}, {"bike_id": "ee7aafd7d123c902fdd1d5d6bda83555", "is_reserved": 0, "fusion_lon": 0.0, "lat": 38.927967333333335, "is_disabled": 0, "name": "ee7aafd7d123c902fdd1d5d6bda83555", "fusion_lat": 0.0, "rental_uris": {"ios": "https://dc.lft.to/lastmile_qr_scan", "android": "https://dc.lft.to/lastmile_qr_scan"}, "lon": -77.05356816666666, "type": "electric_scooter"}, {"bike_id": "f59c498b3a0af1ec1027558b056bd87a", "is_reserved": 0, "fusion_lon": 0.0, "lat": 38.895002833333336, "is_disabled": 0, "name": "f59c498b3a0af1ec1027558b056bd87a", "fusion_lat": 0.0, "rental_uris": {"ios": "https://dc.lft.to/lastmile_qr_scan", "android": "https://dc.lft.to/lastmile_qr_scan"}, "lon": -77.023958, "type": "electric_scooter"}, {"bike_id": "b6c3c3946ea63d668d35c29c8e6cc406", "is_reserved": 0, "fusion_lon": 0.0, "lat": 38.92403066666667, "is_disabled": 0, "name": "b6c3c3946ea63d668d35c29c8e6cc406", "fusion_lat": 0.0, "rental_uris": {"ios": "https://dc.lft.to/lastmile_qr_scan", "android": "https://dc.lft.to/lastmile_qr_scan"}, "lon": -77.01944516666667, "type": "electric_scooter"}, {"bike_id": "11323317c698a9324e55d0eb318fe444", "is_reserved": 0, "fusion_lon": 0.0, "lat": 38.905767, "is_disabled": 0, "name": "11323317c698a9324e55d0eb318fe444", "fusion_lat": 0.0, "rental_uris": {"ios": "https://dc.lft.to/lastmile_qr_scan", "android": "https://dc.lft.to/lastmile_qr_scan"}, "lon": -77.04021716666666, "type": "electric_scooter"}, {"bike_id": "941914f2e9675366d9329efa9ccff509", "is_reserved": 0, "fusion_lon": 0.0, "lat": 38.82732266666667, "is_disabled": 0, "name": "941914f2e9675366d9329efa9ccff509", "fusion_lat": 0.0, "rental_uris": {"ios": "https://dc.lft.to/lastmile_qr_scan", "android": "https://dc.lft.to/lastmile_qr_scan"}, "lon": -77.008592, "type": "electric_bike"}, {"bike_id": "8dd85ef572e911de9af4cfc5537c72f5", "is_reserved": 0, "fusion_lon": 0.0, "lat": 38.90056466666667, "is_disabled": 0, "name": "8dd85ef572e911de9af4cfc5537c72f5", "fusion_lat": 0.0, "rental_uris": {"ios": "https://dc.lft.to/lastmile_qr_scan", "android": "https://dc.lft.to/lastmile_qr_scan"}, "lon": -77.0317885, "type": "electric_scooter"}, {"bike_id": "42fdbc2328ece974d8dfe29a69394c68", "is_reserved": 0, "fusion_lon": 0.0, "lat": 38.88495283333334, "is_disabled": 0, "name": "42fdbc2328ece974d8dfe29a69394c68", "fusion_lat": 0.0, "rental_uris": {"ios": "https://dc.lft.to/lastmile_qr_scan", "android": "https://dc.lft.to/lastmile_qr_scan"}, "lon": -77.00727016666667, "type": "electric_scooter"}, {"bike_id": "65103eabc715e3fbd914de42490550f3", "is_reserved": 0, "fusion_lon": 0.0, "lat": 38.918817, "is_disabled": 0, "name": "65103eabc715e3fbd914de42490550f3", "fusion_lat": 0.0, "rental_uris": {"ios": "https://dc.lft.to/lastmile_qr_scan", "android": "https://dc.lft.to/lastmile_qr_scan"}, "lon": -77.04313183333333, "type": "electric_scooter"}, {"bike_id": "14384f7be716780b9d99527cd2982057", "is_reserved": 0, "fusion_lon": 0.0, "lat": 38.90859616666667, "is_disabled": 0, "name": "14384f7be716780b9d99527cd2982057", "fusion_lat": 0.0, "rental_uris": {"ios": "https://dc.lft.to/lastmile_qr_scan", "android": "https://dc.lft.to/lastmile_qr_scan"}, "lon": -77.0272915, "type": "electric_scooter"}, {"bike_id": "d3d14fe385479655b5c2cf8ba8b79b95", "is_reserved": 0, "fusion_lon": 0.0, "lat": 38.89906366666666, "is_disabled": 0, "name": "d3d14fe385479655b5c2cf8ba8b79b95", "fusion_lat": 0.0, "rental_uris": {"ios": "https://dc.lft.to/lastmile_qr_scan", "android": "https://dc.lft.to/lastmile_qr_scan"}, "lon": -77.03279966666666, "type": "electric_scooter"}, {"bike_id": "eee79dfe844c09d8dd2959cbc4350ff3", "is_reserved": 0, "fusion_lon": 0.0, "lat": 38.90723116666667, "is_disabled": 0, "name": "eee79dfe844c09d8dd2959cbc4350ff3", "fusion_lat": 0.0, "rental_uris": {"ios": "https://dc.lft.to/lastmile_qr_scan", "android": "https://dc.lft.to/lastmile_qr_scan"}, "lon": -76.98600483333334, "type": "electric_scooter"}, {"bike_id": "34d179738a7d270df332a5013ebde427", "is_reserved": 0, "fusion_lon": 0.0, "lat": 38.89808216666667, "is_disabled": 0, "name": "34d179738a7d270df332a5013ebde427", "fusion_lat": 0.0, "rental_uris": {"ios": "https://dc.lft.to/lastmile_qr_scan", "android": "https://dc.lft.to/lastmile_qr_scan"}, "lon": -77.00603166666667, "type": "electric_bike"}, {"bike_id": "60991a718305967d8d711fda8da7c6f7", "is_reserved": 0, "fusion_lon": 0.0, "lat": 38.9158915, "is_disabled": 0, "name": "60991a718305967d8d711fda8da7c6f7", "fusion_lat": 0.0, "rental_uris": {"ios": "https://dc.lft.to/lastmile_qr_scan", "android": "https://dc.lft.to/lastmile_qr_scan"}, "lon": -77.04356016666667, "type": "electric_scooter"}, {"bike_id": "cc5b44af70439c74f9f24ceee6fcdd6f", "is_reserved": 0, "fusion_lon": 0.0, "lat": 38.9061245, "is_disabled": 0, "name": "cc5b44af70439c74f9f24ceee6fcdd6f", "fusion_lat": 0.0, "rental_uris": {"ios": "https://dc.lft.to/lastmile_qr_scan", "android": "https://dc.lft.to/lastmile_qr_scan"}, "lon": -77.039878, "type": "electric_scooter"}, {"bike_id": "8506d3cd8ae8a15ffbf94c27e4db82f1", "is_reserved": 0, "fusion_lon": 0.0, "lat": 38.917072833333336, "is_disabled": 0, "name": "8506d3cd8ae8a15ffbf94c27e4db82f1", "fusion_lat": 0.0, "rental_uris": {"ios": "https://dc.lft.to/lastmile_qr_scan", "android": "https://dc.lft.to/lastmile_qr_scan"}, "lon": -77.00811116666667, "type": "electric_scooter"}, {"bike_id": "171b5878b5add23c9e93fb63f6a2a64f", "is_reserved": 0, "fusion_lon": 0.0, "lat": 38.903692, "is_disabled": 0, "name": "171b5878b5add23c9e93fb63f6a2a64f", "fusion_lat": 0.0, "rental_uris": {"ios": "https://dc.lft.to/lastmile_qr_scan", "android": "https://dc.lft.to/lastmile_qr_scan"}, "lon": -77.04474333333333, "type": "electric_scooter"}, {"bike_id": "e24087f53d474983f88c04f4ae257757", "is_reserved": 0, "fusion_lon": 0.0, "lat": 38.95109383333333, "is_disabled": 0, "name": "e24087f53d474983f88c04f4ae257757", "fusion_lat": 0.0, "rental_uris": {"ios": "https://dc.lft.to/lastmile_qr_scan", "android": "https://dc.lft.to/lastmile_qr_scan"}, "lon": -77.01577683333333, "type": "electric_scooter"}, {"bike_id": "5a923ce301458d59fdbfe62abfde474f", "is_reserved": 0, "fusion_lon": 0.0, "lat": 38.930881666666664, "is_disabled": 0, "name": "5a923ce301458d59fdbfe62abfde474f", "fusion_lat": 0.0, "rental_uris": {"ios": "https://dc.lft.to/lastmile_qr_scan", "android": "https://dc.lft.to/lastmile_qr_scan"}, "lon": -77.02506983333333, "type": "electric_scooter"}, {"bike_id": "f7368310d4ab9789a6848a50aedebfeb", "is_reserved": 0, "fusion_lon": 0.0, "lat": 38.90380916666667, "is_disabled": 0, "name": "f7368310d4ab9789a6848a50aedebfeb", "fusion_lat": 0.0, "rental_uris": {"ios": "https://dc.lft.to/lastmile_qr_scan", "android": "https://dc.lft.to/lastmile_qr_scan"}, "lon": -77.0402825, "type": "electric_scooter"}, {"bike_id": "0318b686c4f1082b1d2ec0e84567df10", "is_reserved": 0, "fusion_lon": 0.0, "lat": 38.94014166666667, "is_disabled": 0, "name": "0318b686c4f1082b1d2ec0e84567df10", "fusion_lat": 0.0, "rental_uris": {"ios": "https://dc.lft.to/lastmile_qr_scan", "android": "https://dc.lft.to/lastmile_qr_scan"}, "lon": -77.07168566666667, "type": "electric_scooter"}, {"bike_id": "a97ad7712a089990db67a046cee29940", "is_reserved": 0, "fusion_lon": 0.0, "lat": 38.94482083333333, "is_disabled": 0, "name": "a97ad7712a089990db67a046cee29940", "fusion_lat": 0.0, "rental_uris": {"ios": "https://dc.lft.to/lastmile_qr_scan", "android": "https://dc.lft.to/lastmile_qr_scan"}, "lon": -77.06393116666666, "type": "electric_scooter"}, {"bike_id": "3a867fae4ce29f4e2529950e92eebad7", "is_reserved": 0, "fusion_lon": 0.0, "lat": 38.9156325, "is_disabled": 0, "name": "3a867fae4ce29f4e2529950e92eebad7", "fusion_lat": 0.0, "rental_uris": {"ios": "https://dc.lft.to/lastmile_qr_scan", "android": "https://dc.lft.to/lastmile_qr_scan"}, "lon": -77.0376235, "type": "electric_scooter"}, {"bike_id": "199542517694a7795ebede7ae61c498a", "is_reserved": 0, "fusion_lon": 0.0, "lat": 38.82871333333333, "is_disabled": 0, "name": "199542517694a7795ebede7ae61c498a", "fusion_lat": 0.0, "rental_uris": {"ios": "https://dc.lft.to/lastmile_qr_scan", "android": "https://dc.lft.to/lastmile_qr_scan"}, "lon": -77.11222516666666, "type": "electric_bike"}, {"bike_id": "de1209af036d5f8694b1d3b706cf3a0b", "is_reserved": 0, "fusion_lon": 0.0, "lat": 38.91682983333333, "is_disabled": 0, "name": "de1209af036d5f8694b1d3b706cf3a0b", "fusion_lat": 0.0, "rental_uris": {"ios": "https://dc.lft.to/lastmile_qr_scan", "android": "https://dc.lft.to/lastmile_qr_scan"}, "lon": -77.0363705, "type": "electric_scooter"}, {"bike_id": "e390be7bcf0ce65be69dfaa72246d252", "is_reserved": 0, "fusion_lon": 0.0, "lat": 38.936077, "is_disabled": 0, "name": "e390be7bcf0ce65be69dfaa72246d252", "fusion_lat": 0.0, "rental_uris": {"ios": "https://dc.lft.to/lastmile_qr_scan", "android": "https://dc.lft.to/lastmile_qr_scan"}, "lon": -77.05861283333333, "type": "electric_scooter"}, {"bike_id": "c56a50840c1d7b811290a968ec2ea7fc", "is_reserved": 0, "fusion_lon": 0.0, "lat": 38.88407683333333, "is_disabled": 0, "name": "c56a50840c1d7b811290a968ec2ea7fc", "fusion_lat": 0.0, "rental_uris": {"ios": "https://dc.lft.to/lastmile_qr_scan", "android": "https://dc.lft.to/lastmile_qr_scan"}, "lon": -77.01521883333334, "type": "electric_scooter"}, {"bike_id": "c33add380d01380ba6c4bf184b582664", "is_reserved": 0, "fusion_lon": 0.0, "lat": 38.88739283333334, "is_disabled": 0, "name": "c33add380d01380ba6c4bf184b582664", "fusion_lat": 0.0, "rental_uris": {"ios": "https://dc.lft.to/lastmile_qr_scan", "android": "https://dc.lft.to/lastmile_qr_scan"}, "lon": -77.0153205, "type": "electric_scooter"}, {"bike_id": "20dab60fc7df2c2a2f0287a32928e6da", "is_reserved": 0, "fusion_lon": 0.0, "lat": 38.91800816666667, "is_disabled": 0, "name": "20dab60fc7df2c2a2f0287a32928e6da", "fusion_lat": 0.0, "rental_uris": {"ios": "https://dc.lft.to/lastmile_qr_scan", "android": "https://dc.lft.to/lastmile_qr_scan"}, "lon": -77.0344205, "type": "electric_scooter"}, {"bike_id": "e02643fcf2c68d12c29742a0fe350b58", "is_reserved": 0, "fusion_lon": 0.0, "lat": 38.901472, "is_disabled": 0, "name": "e02643fcf2c68d12c29742a0fe350b58", "fusion_lat": 0.0, "rental_uris": {"ios": "https://dc.lft.to/lastmile_qr_scan", "android": "https://dc.lft.to/lastmile_qr_scan"}, "lon": -77.04399566666666, "type": "electric_scooter"}, {"bike_id": "a0536f1f40718fc88483e3bb206623a3", "is_reserved": 0, "fusion_lon": 0.0, "lat": 38.990916666666664, "is_disabled": 0, "name": "a0536f1f40718fc88483e3bb206623a3", "fusion_lat": 0.0, "rental_uris": {"ios": "https://dc.lft.to/lastmile_qr_scan", "android": "https://dc.lft.to/lastmile_qr_scan"}, "lon": -76.87493716666667, "type": "electric_bike"}, {"bike_id": "98ac7864fd4e59c9ce4a5691374e127a", "is_reserved": 0, "fusion_lon": 0.0, "lat": 38.90007966666667, "is_disabled": 0, "name": "98ac7864fd4e59c9ce4a5691374e127a", "fusion_lat": 0.0, "rental_uris": {"ios": "https://dc.lft.to/lastmile_qr_scan", "android": "https://dc.lft.to/lastmile_qr_scan"}, "lon": -77.03994, "type": "electric_scooter"}, {"bike_id": "d64463c0fc9a62c49cf41fe9affb0193", "is_reserved": 0, "fusion_lon": 0.0, "lat": 38.87852816666667, "is_disabled": 0, "name": "d64463c0fc9a62c49cf41fe9affb0193", "fusion_lat": 0.0, "rental_uris": {"ios": "https://dc.lft.to/lastmile_qr_scan", "android": "https://dc.lft.to/lastmile_qr_scan"}, "lon": -77.02275616666667, "type": "electric_scooter"}, {"bike_id": "feaedb3f902ba36e7414ef177f693b7a", "is_reserved": 0, "fusion_lon": 0.0, "lat": 38.905308833333336, "is_disabled": 0, "name": "feaedb3f902ba36e7414ef177f693b7a", "fusion_lat": 0.0, "rental_uris": {"ios": "https://dc.lft.to/lastmile_qr_scan", "android": "https://dc.lft.to/lastmile_qr_scan"}, "lon": -77.0615895, "type": "electric_scooter"}, {"bike_id": "e017a34e65cb22c76360b28d1af30d4c", "is_reserved": 0, "fusion_lon": 0.0, "lat": 38.9361525, "is_disabled": 0, "name": "e017a34e65cb22c76360b28d1af30d4c", "fusion_lat": 0.0, "rental_uris": {"ios": "https://dc.lft.to/lastmile_qr_scan", "android": "https://dc.lft.to/lastmile_qr_scan"}, "lon": -77.02248533333334, "type": "electric_scooter"}, {"bike_id": "e542ba1d1b08547b69f4034d37343bf2", "is_reserved": 0, "fusion_lon": 0.0, "lat": 38.90726816666667, "is_disabled": 0, "name": "e542ba1d1b08547b69f4034d37343bf2", "fusion_lat": 0.0, "rental_uris": {"ios": "https://dc.lft.to/lastmile_qr_scan", "android": "https://dc.lft.to/lastmile_qr_scan"}, "lon": -77.04032033333333, "type": "electric_scooter"}, {"bike_id": "28c383210a654ca49d4d004b99cf3137", "is_reserved": 0, "fusion_lon": 0.0, "lat": 38.862415166666665, "is_disabled": 0, "name": "28c383210a654ca49d4d004b99cf3137", "fusion_lat": 0.0, "rental_uris": {"ios": "https://dc.lft.to/lastmile_qr_scan", "android": "https://dc.lft.to/lastmile_qr_scan"}, "lon": -76.99493083333333, "type": "electric_scooter"}, {"bike_id": "511d1e3545688feca68c31f7dff3c378", "is_reserved": 0, "fusion_lon": 0.0, "lat": 38.9227065, "is_disabled": 0, "name": "511d1e3545688feca68c31f7dff3c378", "fusion_lat": 0.0, "rental_uris": {"ios": "https://dc.lft.to/lastmile_qr_scan", "android": "https://dc.lft.to/lastmile_qr_scan"}, "lon": -77.0182515, "type": "electric_scooter"}, {"bike_id": "4b5f887d4fb6a604d7a298c033f69933", "is_reserved": 0, "fusion_lon": 0.0, "lat": 38.87011416666667, "is_disabled": 0, "name": "4b5f887d4fb6a604d7a298c033f69933", "fusion_lat": 0.0, "rental_uris": {"ios": "https://dc.lft.to/lastmile_qr_scan", "android": "https://dc.lft.to/lastmile_qr_scan"}, "lon": -77.0122355, "type": "electric_scooter"}, {"bike_id": "8dcc6ccc5535194dd153990b0318db84", "is_reserved": 0, "fusion_lon": 0.0, "lat": 38.82267783333333, "is_disabled": 0, "name": "8dcc6ccc5535194dd153990b0318db84", "fusion_lat": 0.0, "rental_uris": {"ios": "https://dc.lft.to/lastmile_qr_scan", "android": "https://dc.lft.to/lastmile_qr_scan"}, "lon": -77.0580625, "type": "electric_bike"}, {"bike_id": "d731e207cd243e5141dc7685b368f3ec", "is_reserved": 0, "fusion_lon": 0.0, "lat": 38.944637166666666, "is_disabled": 0, "name": "d731e207cd243e5141dc7685b368f3ec", "fusion_lat": 0.0, "rental_uris": {"ios": "https://dc.lft.to/lastmile_qr_scan", "android": "https://dc.lft.to/lastmile_qr_scan"}, "lon": -77.0065625, "type": "electric_scooter"}, {"bike_id": "90223f1539e9ee489bedd62d9a80d4ab", "is_reserved": 0, "fusion_lon": 0.0, "lat": 38.8656665, "is_disabled": 0, "name": "90223f1539e9ee489bedd62d9a80d4ab", "fusion_lat": 0.0, "rental_uris": {"ios": "https://dc.lft.to/lastmile_qr_scan", "android": "https://dc.lft.to/lastmile_qr_scan"}, "lon": -76.98548666666667, "type": "electric_scooter"}, {"bike_id": "9707ad139684ed9b2d2fe89a35be2efa", "is_reserved": 0, "fusion_lon": 0.0, "lat": 38.89391483333333, "is_disabled": 0, "name": "9707ad139684ed9b2d2fe89a35be2efa", "fusion_lat": 0.0, "rental_uris": {"ios": "https://dc.lft.to/lastmile_qr_scan", "android": "https://dc.lft.to/lastmile_qr_scan"}, "lon": -77.00600266666666, "type": "electric_scooter"}, {"bike_id": "122d6f4fccc7d56322e9887640e83737", "is_reserved": 0, "fusion_lon": 0.0, "lat": 38.90789, "is_disabled": 0, "name": "122d6f4fccc7d56322e9887640e83737", "fusion_lat": 0.0, "rental_uris": {"ios": "https://dc.lft.to/lastmile_qr_scan", "android": "https://dc.lft.to/lastmile_qr_scan"}, "lon": -77.03660383333333, "type": "electric_scooter"}, {"bike_id": "5181a914a1aa599c7b6ed53ae200256e", "is_reserved": 0, "fusion_lon": 0.0, "lat": 38.90270983333333, "is_disabled": 0, "name": "5181a914a1aa599c7b6ed53ae200256e", "fusion_lat": 0.0, "rental_uris": {"ios": "https://dc.lft.to/lastmile_qr_scan", "android": "https://dc.lft.to/lastmile_qr_scan"}, "lon": -77.03979383333333, "type": "electric_scooter"}, {"bike_id": "dcfe539a2c4ce072dab5afa0080efa4a", "is_reserved": 0, "fusion_lon": 0.0, "lat": 38.88490433333333, "is_disabled": 0, "name": "dcfe539a2c4ce072dab5afa0080efa4a", "fusion_lat": 0.0, "rental_uris": {"ios": "https://dc.lft.to/lastmile_qr_scan", "android": "https://dc.lft.to/lastmile_qr_scan"}, "lon": -77.00709283333333, "type": "electric_scooter"}, {"bike_id": "6875a43d59338af0d4ebcfffe221acd9", "is_reserved": 0, "fusion_lon": 0.0, "lat": 38.902452833333335, "is_disabled": 0, "name": "6875a43d59338af0d4ebcfffe221acd9", "fusion_lat": 0.0, "rental_uris": {"ios": "https://dc.lft.to/lastmile_qr_scan", "android": "https://dc.lft.to/lastmile_qr_scan"}, "lon": -77.00763716666667, "type": "electric_scooter"}, {"bike_id": "fc8d536c433946797e207ffa6d843603", "is_reserved": 0, "fusion_lon": 0.0, "lat": 38.932346833333334, "is_disabled": 0, "name": "fc8d536c433946797e207ffa6d843603", "fusion_lat": 0.0, "rental_uris": {"ios": "https://dc.lft.to/lastmile_qr_scan", "android": "https://dc.lft.to/lastmile_qr_scan"}, "lon": -77.03832716666666, "type": "electric_scooter"}, {"bike_id": "197be323bcd971990569598977739921", "is_reserved": 0, "fusion_lon": 0.0, "lat": 38.985095, "is_disabled": 0, "name": "197be323bcd971990569598977739921", "fusion_lat": 0.0, "rental_uris": {"ios": "https://dc.lft.to/lastmile_qr_scan", "android": "https://dc.lft.to/lastmile_qr_scan"}, "lon": -76.98192916666666, "type": "electric_bike"}, {"bike_id": "034547df62be667048b5d0677ae43614", "is_reserved": 0, "fusion_lon": 0.0, "lat": 38.9006545, "is_disabled": 0, "name": "034547df62be667048b5d0677ae43614", "fusion_lat": 0.0, "rental_uris": {"ios": "https://dc.lft.to/lastmile_qr_scan", "android": "https://dc.lft.to/lastmile_qr_scan"}, "lon": -76.9871195, "type": "electric_scooter"}, {"bike_id": "ea66a8389bd4d1b2a1d3046ee985a699", "is_reserved": 0, "fusion_lon": 0.0, "lat": 38.86997683333333, "is_disabled": 0, "name": "ea66a8389bd4d1b2a1d3046ee985a699", "fusion_lat": 0.0, "rental_uris": {"ios": "https://dc.lft.to/lastmile_qr_scan", "android": "https://dc.lft.to/lastmile_qr_scan"}, "lon": -76.95982816666667, "type": "electric_bike"},