{"data": {"bikes": [{"name": "795fec67d95a88bee5f73cd8180d885e", "type": "electric_scooter", "lat": 38.866539833333334, "is_reserved": 0, "lon": -76.98889716666666, "fusion_lon": 0.0, "is_disabled": 0, "fusion_lat": 0.0, "bike_id": "795fec67d95a88bee5f73cd8180d885e", "rental_uris": {"ios": "https://dc.lft.to/lastmile_qr_scan", "android": "https://dc.lft.to/lastmile_qr_scan"}}, {"name": "1f8fe73757495c7e4566a58f670a8133", "type": "electric_scooter", "lat": 38.92162366666667, "is_reserved": 0, "lon": -76.99407583333333, "fusion_lon": 0.0, "is_disabled": 0, "fusion_lat": 0.0, "bike_id": "1f8fe73757495c7e4566a58f670a8133", "rental_uris": {"ios": "https://dc.lft.to/lastmile_qr_scan", "android": "https://dc.lft.to/lastmile_qr_scan"}}, {"name": "061099e887d91a5673b7235d8d925306", "type": "electric_scooter", "lat": 38.90023033333333, "is_reserved": 0, "lon": -76.99856216666667, "fusion_lon": 0.0, "is_disabled": 0, "fusion_lat": 0.0, "bike_id": "061099e887d91a5673b7235d8d925306", "rental_uris": {"ios": "https://dc.lft.to/lastmile_qr_scan", "android": "https://dc.lft.to/lastmile_qr_scan"}}, {"name": "ba6563673c938389cc38707b02c0863c", "type": "electric_scooter", "lat": 38.88640316666667, "is_reserved": 0, "lon": -77.02141083333333, "fusion_lon": 0.0, "is_disabled": 0, "fusion_lat": 0.0, "bike_id": "ba6563673c938389cc38707b02c0863c", "rental_uris": {"ios": "https://dc.lft.to/lastmile_qr_scan", "android": "https://dc.lft.to/lastmile_qr_scan"}}, {"name": "2c7cf0408a9938425a554d137990ab2a", "type": "electric_scooter", "lat": 38.9002885, "is_reserved": 0, "lon": -77.0020315, "fusion_lon": 0.0, "is_disabled": 0, "fusion_lat": 0.0, "bike_id": "2c7cf0408a9938425a554d137990ab2a", "rental_uris": {"ios": "https://dc.lft.to/lastmile_qr_scan", "android": "https://dc.lft.to/lastmile_qr_scan"}}, {"name": "2b97a9a5f054b9b5846acc88dd377d3f", "type": "electric_bike", "lat": 38.89611166666667, "is_reserved": 0, "lon": -77.0496435, "fusion_lon": 0.0, "is_disabled": 0, "fusion_lat": 0.0, "bike_id": "2b97a9a5f054b9b5846acc88dd377d3f", "rental_uris": {"ios": "https://dc.lft.to/lastmile_qr_scan", "android": "https://dc.lft.to/lastmile_qr_scan"}}, {"name": "411bf9eb691052f32a0daad1ecaebd30", "type": "electric_scooter", "lat": 38.89012566666667, "is_reserved": 0, "lon": -76.93733316666666, "fusion_lon": 0.0, "is_disabled": 0, "fusion_lat": 0.0, "bike_id": "411bf9eb691052f32a0daad1ecaebd30", "rental_uris": {"ios": "https://dc.lft.to/lastmile_qr_scan", "android": "https://dc.lft.to/lastmile_qr_scan"}}, {"name": "622f9ff4ae681aeda6f59a82a4dc57e7", "type": "electric_scooter", "lat": 38.90375566666667, "is_reserved": 0, "lon": -77.04489716666667, "fusion_lon": 0.0, "is_disabled": 0, "fusion_lat": 0.0, "bike_id": "622f9ff4ae681aeda6f59a82a4dc57e7", "rental_uris": {"ios": "https://dc.lft.to/lastmile_qr_scan", "android": "https://dc.lft.to/lastmile_qr_scan"}}, {"name": "9c27f3cfc94bfaa537a799ecad6cfbfd", "type": "electric_scooter", "lat": 38.901344333333334, "is_reserved": 0, "lon": -77.05005716666666, "fusion_lon": 0.0, "is_disabled": 0, "fusion_lat": 0.0, "bike_id": "9c27f3cfc94bfaa537a799ecad6cfbfd", "rental_uris": {"ios": "https://dc.lft.to/lastmile_qr_scan", "android": "https://dc.lft.to/lastmile_qr_scan"}}, {"name": "72a647e52add334bb66b0316661b21c9", "type": "electric_scooter", "lat": 38.93437016666667, "is_reserved": 0, "lon": -77.072642, "fusion_lon": 0.0, "is_disabled": 0, "fusion_lat": 0.0, "bike_id": "72a647e52add334bb66b0316661b21c9", "rental_uris": {"ios": "https://dc.lft.to/lastmile_qr_scan", "android": "https://dc.lft.to/lastmile_qr_scan"}}, {"name": "651c8b8d01d90af7d9fe2968bc9a01d6", "type": "electric_scooter", "lat": 38.900785, "is_reserved": 0, "lon": -76.93879166666666, "fusion_lon": 0.0, "is_disabled": 0, "fusion_lat": 0.0, "bike_id": "651c8b8d01d90af7d9fe2968bc9a01d6", "rental_uris": {"ios": "https://dc.lft.to/lastmile_qr_scan", "android": "https://dc.lft.to/lastmile_qr_scan"}}, {"name": "04262648f797ac761d798d5019a80169", "type": "electric_scooter", "lat": 38.89685433333333, "is_reserved": 0, "lon": -76.9962415, "fusion_lon": 0.0, "is_disabled": 0, "fusion_lat": 0.0, "bike_id": "04262648f797ac761d798d5019a80169", "rental_uris": {"ios": "https://dc.lft.to/lastmile_qr_scan", "android": "https://dc.lft.to/lastmile_qr_scan"}}, {"name": "710dcebe238da19ebeaff8d3d858ac6b", "type": "electric_scooter", "lat": 38.89729616666666, "is_reserved": 0, "lon": -77.05574733333333, "fusion_lon": 0.0, "is_disabled": 0, "fusion_lat": 0.0, "bike_id": "710dcebe238da19ebeaff8d3d858ac6b", "rental_uris": {"ios": "https://dc.lft.to/lastmile_qr_scan", "android": "https://dc.lft.to/lastmile_qr_scan"}}, {"name": "334445bffcc018add913b6f5ed0d9a6c", "type": "electric_scooter", "lat": 38.91679383333334, "is_reserved": 0, "lon": -77.02962683333334, "fusion_lon": 0.0, "is_disabled": 0, "fusion_lat": 0.0, "bike_id": "334445bffcc018add913b6f5ed0d9a6c", "rental_uris": {"ios": "https://dc.lft.to/lastmile_qr_scan", "android": "https://dc.lft.to/lastmile_qr_scan"}}, {"name": "5d43d026316e987f5282f31e5fc53574", "type": "electric_scooter", "lat": 38.887443166666664, "is_reserved": 0, "lon": -77.029792, "fusion_lon": 0.0, "is_disabled": 0, "fusion_lat": 0.0, "bike_id": "5d43d026316e987f5282f31e5fc53574", "rental_uris": {"ios": "https://dc.lft.to/lastmile_qr_scan", "android": "https://dc.lft.to/lastmile_qr_scan"}}, {"name": "5e356797f2bd3728c35a93dfa76beea5", "type": "electric_scooter", "lat": 38.94177916666666, "is_reserved": 0, "lon": -77.0309345, "fusion_lon": 0.0, "is_disabled": 0, "fusion_lat": 0.0, "bike_id": "5e356797f2bd3728c35a93dfa76beea5", "rental_uris": {"ios": "https://dc.lft.to/lastmile_qr_scan", "android": "https://dc.lft.to/lastmile_qr_scan"}}, {"name": "32bf7a3b50337a6410ff9b6798ec387b", "type": "electric_scooter", "lat": 38.923153, "is_reserved": 0, "lon": -77.04023433333333, "fusion_lon": 0.0, "is_disabled": 0, "fusion_lat": 0.0, "bike_id": "32bf7a3b50337a6410ff9b6798ec387b", "rental_uris": {"ios": "https://dc.lft.to/lastmile_qr_scan", "android": "https://dc.lft.to/lastmile_qr_scan"}}, {"name": "d3919b36799ed48b8c93af3784bd348e", "type": "electric_scooter", "lat": 38.921043833333336, "is_reserved": 0, "lon": -76.9938685, "fusion_lon": 0.0, "is_disabled": 0, "fusion_lat": 0.0, "bike_id": "d3919b36799ed48b8c93af3784bd348e", "rental_uris": {"ios": "https://dc.lft.to/lastmile_qr_scan", "android": "https://dc.lft.to/lastmile_qr_scan"}}, {"name": "11298c43dc8a0a1e768683c11fec81a9", "type": "electric_bike", "lat": 38.8543665, "is_reserved": 0, "lon": -77.11706683333334, "fusion_lon": 0.0, "is_disabled": 0, "fusion_lat": 0.0, "bike_id": "11298c43dc8a0a1e768683c11fec81a9", "rental_uris": {"ios": "https://dc.lft.to/lastmile_qr_scan", "android": "https://dc.lft.to/lastmile_qr_scan"}}, {"name": "738125a16d70c6ee8fd1b25374df6a3c", "type": "electric_scooter", "lat": 38.9268385, "is_reserved": 0, "lon": -77.02155833333333, "fusion_lon": 0.0, "is_disabled": 0, "fusion_lat": 0.0, "bike_id": "738125a16d70c6ee8fd1b25374df6a3c", "rental_uris": {"ios": "https://dc.lft.to/lastmile_qr_scan", "android": "https://dc.lft.to/lastmile_qr_scan"}}, {"name": "f8059b70d10ba886fe31608675e88a5d", "type": "electric_scooter", "lat": 38.89956166666666, "is_reserved": 0, "lon": -77.050515, "fusion_lon": 0.0, "is_disabled": 0, "fusion_lat": 0.0, "bike_id": "f8059b70d10ba886fe31608675e88a5d", "rental_uris": {"ios": "https://dc.lft.to/lastmile_qr_scan", "android": "https://dc.lft.to/lastmile_qr_scan"}}, {"name": "559c8757ce5f37ff8f974c1476427ac0", "type": "electric_scooter", "lat": 38.895261166666664, "is_reserved": 0, "lon": -77.016106, "fusion_lon": 0.0, "is_disabled": 0, "fusion_lat": 0.0, "bike_id": "559c8757ce5f37ff8f974c1476427ac0", "rental_uris": {"ios": "https://dc.lft.to/lastmile_qr_scan", "android": "https://dc.lft.to/lastmile_qr_scan"}}, {"name": "5a401a54c7f6e93723fa93269869b778", "type": "electric_scooter", "lat": 38.93501716666667, "is_reserved": 0, "lon": -77.02853033333334, "fusion_lon": 0.0, "is_disabled": 0, "fusion_lat": 0.0, "bike_id": "5a401a54c7f6e93723fa93269869b778", "rental_uris": {"ios": "https://dc.lft.to/lastmile_qr_scan", "android": "https://dc.lft.to/lastmile_qr_scan"}}, {"name": "273c5c93bee734cc63411c968f7ae69e", "type": "electric_scooter", "lat": 38.885245, "is_reserved": 0, "lon": -77.02113, "fusion_lon": 0.0, "is_disabled": 0, "fusion_lat": 0.0, "bike_id": "273c5c93bee734cc63411c968f7ae69e", "rental_uris": {"ios": "https://dc.lft.to/lastmile_qr_scan", "android": "https://dc.lft.to/lastmile_qr_scan"}}, {"name": "b3b759eabe22f2e042dceee4d7935b9b", "type": "electric_scooter", "lat": 38.90276216666667, "is_reserved": 0, "lon": -77.02896933333334, "fusion_lon": 0.0, "is_disabled": 0, "fusion_lat": 0.0, "bike_id": "b3b759eabe22f2e042dceee4d7935b9b", "rental_uris": {"ios": "https://dc.lft.to/lastmile_qr_scan", "android": "https://dc.lft.to/lastmile_qr_scan"}}, {"name": "c02bfc133c5e11774dd5e5bc3c8f2d66", "type": "electric_scooter", "lat": 38.910727666666666, "is_reserved": 0, "lon": -77.04477016666667, "fusion_lon": 0.0, "is_disabled": 0, "fusion_lat": 0.0, "bike_id": "c02bfc133c5e11774dd5e5bc3c8f2d66", "rental_uris": {"ios": "https://dc.lft.to/lastmile_qr_scan", "android": "https://dc.lft.to/lastmile_qr_scan"}}, {"name": "24b5ebed5a3774704ae68669fd7190f3", "type": "electric_scooter", "lat": 38.91007316666666, "is_reserved": 0, "lon": -77.01883266666667, "fusion_lon": 0.0, "is_disabled": 0, "fusion_lat": 0.0, "bike_id": "24b5ebed5a3774704ae68669fd7190f3", "rental_uris": {"ios": "https://dc.lft.to/lastmile_qr_scan", "android": "https://dc.lft.to/lastmile_qr_scan"}}, {"name": "32d44f413004cefd0d167dc8de7738bb", "type": "electric_bike", "lat": 38.95810783333334, "is_reserved": 0, "lon": -77.01382866666667, "fusion_lon": 0.0, "is_disabled": 0, "fusion_lat": 0.0, "bike_id": "32d44f413004cefd0d167dc8de7738bb", "rental_uris": {"ios": "https://dc.lft.to/lastmile_qr_scan", "android": "https://dc.lft.to/lastmile_qr_scan"}}, {"name": "5f9cc1d261a835f6613accc15ac49233", "type": "electric_scooter", "lat": 38.916714, "is_reserved": 0, "lon": -77.0364335, "fusion_lon": 0.0, "is_disabled": 0, "fusion_lat": 0.0, "bike_id": "5f9cc1d261a835f6613accc15ac49233", "rental_uris": {"ios": "https://dc.lft.to/lastmile_qr_scan", "android": "https://dc.lft.to/lastmile_qr_scan"}}, {"name": "82f4a6b51f78567ae35994bd69292d32", "type": "electric_scooter", "lat": 38.887167166666664, "is_reserved": 0, "lon": -77.02838583333333, "fusion_lon": 0.0, "is_disabled": 0, "fusion_lat": 0.0, "bike_id": "82f4a6b51f78567ae35994bd69292d32", "rental_uris": {"ios": "https://dc.lft.to/lastmile_qr_scan", "android": "https://dc.lft.to/lastmile_qr_scan"}}, {"name": "cbcaefcaa585f9e3c9273de3e6be987f", "type": "electric_scooter", "lat": 38.898509, "is_reserved": 0, "lon": -76.98177883333334, "fusion_lon": 0.0, "is_disabled": 0, "fusion_lat": 0.0, "bike_id": "cbcaefcaa585f9e3c9273de3e6be987f", "rental_uris": {"ios": "https://dc.lft.to/lastmile_qr_scan", "android": "https://dc.lft.to/lastmile_qr_scan"}}, {"name": "dd154517566a588d991a98ee111c4d48", "type": "electric_scooter", "lat": 38.89041, "is_reserved": 0, "lon": -77.02570466666667, "fusion_lon": 0.0, "is_disabled": 0, "fusion_lat": 0.0, "bike_id": "dd154517566a588d991a98ee111c4d48", "rental_uris": {"ios": "https://dc.lft.to/lastmile_qr_scan", "android": "https://dc.lft.to/lastmile_qr_scan"}}, {"name": "db19c846463df857e66ebe1bc28cdc75", "type": "electric_bike", "lat": 38.887117333333336, "is_reserved": 0, "lon": -77.13309716666667, "fusion_lon": 0.0, "is_disabled": 0, "fusion_lat": 0.0, "bike_id": "db19c846463df857e66ebe1bc28cdc75", "rental_uris": {"ios": "https://dc.lft.to/lastmile_qr_scan", "android": "https://dc.lft.to/lastmile_qr_scan"}}, {"name": "08c66f0debfeba4cb4f7b4b8c276cd65", "type": "electric_scooter", "lat": 38.90171483333334, "is_reserved": 0, "lon": -77.00009233333333, "fusion_lon": 0.0, "is_disabled": 0, "fusion_lat": 0.0, "bike_id": "08c66f0debfeba4cb4f7b4b8c276cd65", "rental_uris": {"ios": "https://dc.lft.to/lastmile_qr_scan", "android": "https://dc.lft.to/lastmile_qr_scan"}}, {"name": "3bb71f58ad05737caeda400a87af2074", "type": "electric_scooter", "lat": 38.86355533333333, "is_reserved": 0, "lon": -76.99066933333333, "fusion_lon": 0.0, "is_disabled": 0, "fusion_lat": 0.0, "bike_id": "3bb71f58ad05737caeda400a87af2074", "rental_uris": {"ios": "https://dc.lft.to/lastmile_qr_scan", "android": "https://dc.lft.to/lastmile_qr_scan"}}, {"name": "9daa3c0e1f719f68b2be2aa42ad71310", "type": "electric_scooter", "lat": 38.904488, "is_reserved": 0, "lon": -77.0591935, "fusion_lon": 0.0, "is_disabled": 0, "fusion_lat": 0.0, "bike_id": "9daa3c0e1f719f68b2be2aa42ad71310", "rental_uris": {"ios": "https://dc.lft.to/lastmile_qr_scan", "android": "https://dc.lft.to/lastmile_qr_scan"}}, {"name": "31e7274e097776cf425884c4b3fd645d", "type": "electric_scooter", "lat": 38.903412333333335, "is_reserved": 0, "lon": -77.044577, "fusion_lon": 0.0, "is_disabled": 0, "fusion_lat": 0.0, "bike_id": "31e7274e097776cf425884c4b3fd645d", "rental_uris": {"ios": "https://dc.lft.to/lastmile_qr_scan", "android": "https://dc.lft.to/lastmile_qr_scan"}}, {"name": "f7d9158246a407085ca958d75236f435", "type": "electric_scooter", "lat": 38.905189666666665, "is_reserved": 0, "lon": -77.06587166666667, "fusion_lon": 0.0, "is_disabled": 0, "fusion_lat": 0.0, "bike_id": "f7d9158246a407085ca958d75236f435", "rental_uris": {"ios": "https://dc.lft.to/lastmile_qr_scan", "android": "https://dc.lft.to/lastmile_qr_scan"}}, {"name": "cf8870db3d61bcd2823fc8b7dccd8748", "type": "electric_scooter", "lat": 38.9047175, "is_reserved": 0, "lon": -77.06024433333333, "fusion_lon": 0.0, "is_disabled": 0, "fusion_lat": 0.0, "bike_id": "cf8870db3d61bcd2823fc8b7dccd8748", "rental_uris": {"ios": "https://dc.lft.to/lastmile_qr_scan", "android": "https://dc.lft.to/lastmile_qr_scan"}}, {"name": "0cb04ea2956f6da9601485cdf3bde67c", "type": "electric_bike", "lat": 39.03040633333333, "is_reserved": 0, "lon": -77.09486216666667, "fusion_lon": 0.0, "is_disabled": 0, "fusion_lat": 0.0, "bike_id": "0cb04ea2956f6da9601485cdf3bde67c", "rental_uris": {"ios": "https://dc.lft.to/lastmile_qr_scan", "android": "https://dc.lft.to/lastmile_qr_scan"}}, {"name": "fa6c247cb0526b89f6ea0f5c1f9a843c", "type": "electric_scooter", "lat": 38.907590666666664, "is_reserved": 0, "lon": -77.0218475, "fusion_lon": 0.0, "is_disabled": 0, "fusion_lat": 0.0, "bike_id": "fa6c247cb0526b89f6ea0f5c1f9a843c", "rental_uris": {"ios": "https://dc.lft.to/lastmile_qr_scan", "android": "https://dc.lft.to/lastmile_qr_scan"}}, {"name": "82537573af551e20f40724a2d8e34ba4", "type": "electric_scooter", "lat": 38.902125833333336, "is_reserved": 0, "lon": -77.0503205, "fusion_lon": 0.0, "is_disabled": 0, "fusion_lat": 0.0, "bike_id": "82537573af551e20f40724a2d8e34ba4", "rental_uris": {"ios": "https://dc.lft.to/lastmile_qr_scan", "android": "https://dc.lft.to/lastmile_qr_scan"}}, {"name": "17ad23be361d4b54811fa056c3e60a56", "type": "electric_bike", "lat": 38.970538833333336, "is_reserved": 0, "lon": -76.93616433333334, "fusion_lon": 0.0, "is_disabled": 0, "fusion_lat": 0.0, "bike_id": "17ad23be361d4b54811fa056c3e60a56", "rental_uris": {"ios": "https://dc.lft.to/lastmile_qr_scan", "android": "https://dc.lft.to/lastmile_qr_scan"}}, {"name": "5fe0889a4fe616cbef0298b4f0a4ce6a", "type": "electric_scooter", "lat": 38.92106233333333, "is_reserved": 0, "lon": -77.04228833333333, "fusion_lon": 0.0, "is_disabled": 0, "fusion_lat": 0.0, "bike_id": "5fe0889a4fe616cbef0298b4f0a4ce6a", "rental_uris": {"ios": "https://dc.lft.to/lastmile_qr_scan", "android": "https://dc.lft.to/lastmile_qr_scan"}}, {"name": "5303ec8e9bd766d7a14bed0fa4205a8e", "type": "electric_scooter", "lat": 38.9310765, "is_reserved": 0, "lon": -77.03842783333333, "fusion_lon": 0.0, "is_disabled": 0, "fusion_lat": 0.0, "bike_id": "5303ec8e9bd766d7a14bed0fa4205a8e", "rental_uris": {"ios": "https://dc.lft.to/lastmile_qr_scan", "android": "https://dc.lft.to/lastmile_qr_scan"}}, {"name": "3fff7f73252b8892ccb861af9d1bb973", "type": "electric_scooter", "lat": 38.89351766666667, "is_reserved": 0, "lon": -77.00342283333333, "fusion_lon": 0.0, "is_disabled": 0, "fusion_lat": 0.0, "bike_id": "3fff7f73252b8892ccb861af9d1bb973", "rental_uris": {"ios": "https://dc.lft.to/lastmile_qr_scan", "android": "https://dc.lft.to/lastmile_qr_scan"}}, {"name": "271267120f063ce71326b8b94ac523fb", "type": "electric_scooter", "lat": 38.90606066666667, "is_reserved": 0, "lon": -77.05146483333333, "fusion_lon": 0.0, "is_disabled": 0, "fusion_lat": 0.0, "bike_id": "271267120f063ce71326b8b94ac523fb", "rental_uris": {"ios": "https://dc.lft.to/lastmile_qr_scan", "android": "https://dc.lft.to/lastmile_qr_scan"}}, {"name": "9990a151fb63ed7c93d93d7bc3e167a2", "type": "electric_scooter", "lat": 38.93063983333333, "is_reserved": 0, "lon": -77.0380145, "fusion_lon": 0.0, "is_disabled": 0, "fusion_lat": 0.0, "bike_id": "9990a151fb63ed7c93d93d7bc3e167a2", "rental_uris": {"ios": "https://dc.lft.to/lastmile_qr_scan", "android": "https://dc.lft.to/lastmile_qr_scan"}}, {"name": "33144d4d4624c48e0e6b0a6ab0608a95", "type": "electric_scooter", "lat": 38.879194166666665, "is_reserved": 0, "lon": -77.013465, "fusion_lon": 0.0, "is_disabled": 0, "fusion_lat": 0.0, "bike_id": "33144d4d4624c48e0e6b0a6ab0608a95", "rental_uris": {"ios": "https://dc.lft.to/lastmile_qr_scan", "android": "https://dc.lft.to/lastmile_qr_scan"}}, {"name": "5d589d257cdd2446b9411ad1e755c181", "type": "electric_scooter", "lat": 38.8849895, "is_reserved": 0, "lon": -77.00567466666666, "fusion_lon": 0.0, "is_disabled": 0, "fusion_lat": 0.0, "bike_id": "5d589d257cdd2446b9411ad1e755c181", "rental_uris": {"ios": "https://dc.lft.to/lastmile_qr_scan", "android": "https://dc.lft.to/lastmile_qr_scan"}}, {"name": "3c5be62a1b247b1ba7714d75a09e0418", "type": "electric_scooter", "lat": 38.896421, "is_reserved": 0, "lon": -77.051203, "fusion_lon": 0.0, "is_disabled": 0, "fusion_lat": 0.0, "bike_id": "3c5be62a1b247b1ba7714d75a09e0418", "rental_uris": {"ios": "https://dc.lft.to/lastmile_qr_scan", "android": "https://dc.lft.to/lastmile_qr_scan"}}, {"name": "b3741ebfd1f7a8ec0d48cb69af0ca600", "type": "electric_scooter", "lat": 38.93963133333333, "is_reserved": 0, "lon": -77.053196, "fusion_lon": 0.0, "is_disabled": 0, "fusion_lat": 0.0, "bike_id": "b3741ebfd1f7a8ec0d48cb69af0ca600", "rental_uris": {"ios": "https://dc.lft.to/lastmile_qr_scan", "android": "https://dc.lft.to/lastmile_qr_scan"}}, {"name": "9b2611a19ee50ddade7b3aa00870764e", "type": "electric_scooter", "lat": 38.873317166666666, "is_reserved": 0, "lon": -76.96786349999999, "fusion_lon": 0.0, "is_disabled": 0, "fusion_lat": 0.0, "bike_id": "9b2611a19ee50ddade7b3aa00870764e", "rental_uris": {"ios": "https://dc.lft.to/lastmile_qr_scan", "android": "https://dc.lft.to/lastmile_qr_scan"}}, {"name": "38c4e1e04c29c4d87f96d5f493dee224", "type": "electric_scooter", "lat": 38.9030015, "is_reserved": 0, "lon": -77.06037083333334, "fusion_lon": 0.0, "is_disabled": 0, "fusion_lat": 0.0, "bike_id": "38c4e1e04c29c4d87f96d5f493dee224", "rental_uris": {"ios": "https://dc.lft.to/lastmile_qr_scan", "android": "https://dc.lft.to/lastmile_qr_scan"}}, {"name": "4968fb62eb8c4b86c23e4c47551beda2", "type": "electric_scooter", "lat": 38.915501666666664, "is_reserved": 0, "lon": -77.0415665, "fusion_lon": 0.0, "is_disabled": 0, "fusion_lat": 0.0, "bike_id": "4968fb62eb8c4b86c23e4c47551beda2", "rental_uris": {"ios": "https://dc.lft.to/lastmile_qr_scan", "android": "https://dc.lft.to/lastmile_qr_scan"}}, {"name": "07a25db2208501a42d227660f648fb4f", "type": "electric_scooter", "lat": 38.935751833333335, "is_reserved": 0, "lon": -77.0328175, "fusion_lon": 0.0, "is_disabled": 0, "fusion_lat": 0.0, "bike_id": "07a25db2208501a42d227660f648fb4f", "rental_uris": {"ios": "https://dc.lft.to/lastmile_qr_scan", "android": "https://dc.lft.to/lastmile_qr_scan"}}, {"name": "81426c416de994c680c6ae112b095cf6", "type": "electric_bike", "lat": 38.896039, "is_reserved": 0, "lon": -77.03168716666667, "fusion_lon": 0.0, "is_disabled": 0, "fusion_lat": 0.0, "bike_id": "81426c416de994c680c6ae112b095cf6", "rental_uris": {"ios": "https://dc.lft.to/lastmile_qr_scan", "android": "https://dc.lft.to/lastmile_qr_scan"}}, {"name": "42b6d1ca47223f1c839301975baef4c4", "type": "electric_scooter", "lat": 38.91690633333333, "is_reserved": 0, "lon": -77.03427966666666, "fusion_lon": 0.0, "is_disabled": 0, "fusion_lat": 0.0, "bike_id": "42b6d1ca47223f1c839301975baef4c4", "rental_uris": {"ios": "https://dc.lft.to/lastmile_qr_scan", "android": "https://dc.lft.to/lastmile_qr_scan"}}, {"name": "e322a418c574f25f8db673d26401e9d5", "type": "electric_scooter", "lat": 38.898225, "is_reserved": 0, "lon": -76.94653016666666, "fusion_lon": 0.0, "is_disabled": 0, "fusion_lat": 0.0, "bike_id": "e322a418c574f25f8db673d26401e9d5", "rental_uris": {"ios": "https://dc.lft.to/lastmile_qr_scan", "android": "https://dc.lft.to/lastmile_qr_scan"}}, {"name": "2f45f6bf580001e85c5689ab1945df7c", "type": "electric_scooter", "lat": 38.90150666666667, "is_reserved": 0, "lon": -77.0291475, "fusion_lon": 0.0, "is_disabled": 0, "fusion_lat": 0.0, "bike_id": "2f45f6bf580001e85c5689ab1945df7c", "rental_uris": {"ios": "https://dc.lft.to/lastmile_qr_scan", "android": "https://dc.lft.to/lastmile_qr_scan"}}, {"name": "b334c4df81359f1750c3a77282488e35", "type": "electric_scooter", "lat": 38.93078083333333, "is_reserved": 0, "lon": -77.02797, "fusion_lon": 0.0, "is_disabled": 0, "fusion_lat": 0.0, "bike_id": "b334c4df81359f1750c3a77282488e35", "rental_uris": {"ios": "https://dc.lft.to/lastmile_qr_scan", "android": "https://dc.lft.to/lastmile_qr_scan"}}, {"name": "1abd6583ec717ce4231bfa4e8b802143", "type": "electric_scooter", "lat": 38.93759, "is_reserved": 0, "lon": -77.02268416666666, "fusion_lon": 0.0, "is_disabled": 0, "fusion_lat": 0.0, "bike_id": "1abd6583ec717ce4231bfa4e8b802143", "rental_uris": {"ios": "https://dc.lft.to/lastmile_qr_scan", "android": "https://dc.lft.to/lastmile_qr_scan"}}, {"name": "4e9b2dff7cfb54d9f679e238fd91b15d", "type": "electric_scooter", "lat": 38.9142365, "is_reserved": 0, "lon": -77.03906866666667, "fusion_lon": 0.0, "is_disabled": 0, "fusion_lat": 0.0, "bike_id": "4e9b2dff7cfb54d9f679e238fd91b15d", "rental_uris": {"ios": "https://dc.lft.to/lastmile_qr_scan", "android": "https://dc.lft.to/lastmile_qr_scan"}}, {"name": "003e34d277a5c09afd855b00f933b6f8", "type": "electric_scooter", "lat": 38.8665505, "is_reserved": 0, "lon": -76.99015766666666, "fusion_lon": 0.0, "is_disabled": 0, "fusion_lat": 0.0, "bike_id": "003e34d277a5c09afd855b00f933b6f8", "rental_uris": {"ios": "https://dc.lft.to/lastmile_qr_scan", "android": "https://dc.lft.to/lastmile_qr_scan"}}, {"name": "8b2ae87f01e401bf9410e10cba3a23ca", "type": "electric_scooter", "lat": 38.900621, "is_reserved": 0, "lon": -77.05053083333334, "fusion_lon": 0.0, "is_disabled": 0, "fusion_lat": 0.0, "bike_id": "8b2ae87f01e401bf9410e10cba3a23ca", "rental_uris": {"ios": "https://dc.lft.to/lastmile_qr_scan", "android": "https://dc.lft.to/lastmile_qr_scan"}}, {"name": "288050fb114f5064bc9fa6767df8a200", "type": "electric_bike", "lat": 38.8398285, "is_reserved": 0, "lon": -77.00569233333333, "fusion_lon": 0.0, "is_disabled": 0, "fusion_lat": 0.0, "bike_id": "288050fb114f5064bc9fa6767df8a200", "rental_uris": {"ios": "https://dc.lft.to/lastmile_qr_scan", "android": "https://dc.lft.to/lastmile_qr_scan"}}, {"name": "ead81075c4454c9efc639f2530f79c7f", "type": "electric_scooter", "lat": 38.900531, "is_reserved": 0, "lon": -77.05146966666666, "fusion_lon": 0.0, "is_disabled": 0, "fusion_lat": 0.0, "bike_id": "ead81075c4454c9efc639f2530f79c7f", "rental_uris": {"ios": "https://dc.lft.to/lastmile_qr_scan", "android": "https://dc.lft.to/lastmile_qr_scan"}}, {"name": "80e3539a504e161b705cae7870d93e7e", "type": "electric_scooter", "lat": 38.919865, "is_reserved": 0, "lon": -77.03466816666666, "fusion_lon": 0.0, "is_disabled": 0, "fusion_lat": 0.0, "bike_id": "80e3539a504e161b705cae7870d93e7e", "rental_uris": {"ios": "https://dc.lft.to/lastmile_qr_scan", "android": "https://dc.lft.to/lastmile_qr_scan"}}, {"name": "fc684c76e71b6128194e4d44fd686d97", "type": "electric_scooter", "lat": 38.90534383333333, "is_reserved": 0, "lon": -77.05998583333333, "fusion_lon": 0.0, "is_disabled": 0, "fusion_lat": 0.0, "bike_id": "fc684c76e71b6128194e4d44fd686d97", "rental_uris": {"ios": "https://dc.lft.to/lastmile_qr_scan", "android": "https://dc.lft.to/lastmile_qr_scan"}}, {"name": "ca0dfd5457e260dfd943ed859cddad2c", "type": "electric_scooter", "lat": 38.90360416666667, "is_reserved": 0, "lon": -77.043539, "fusion_lon": 0.0, "is_disabled": 0, "fusion_lat": 0.0, "bike_id": "ca0dfd5457e260dfd943ed859cddad2c", "rental_uris": {"ios": "https://dc.lft.to/lastmile_qr_scan", "android": "https://dc.lft.to/lastmile_qr_scan"}}, {"name": "108f16e90355a7bf2f392d76f50d9516", "type": "electric_scooter", "lat": 38.90025683333333, "is_reserved": 0, "lon": -77.01463033333333, "fusion_lon": 0.0, "is_disabled": 0, "fusion_lat": 0.0, "bike_id": "108f16e90355a7bf2f392d76f50d9516", "rental_uris": {"ios": "https://dc.lft.to/lastmile_qr_scan", "android": "https://dc.lft.to/lastmile_qr_scan"}}, {"name": "342efab5d5373768f0da40b9ec950eaa", "type": "electric_scooter", "lat": 38.908552666666665, "is_reserved": 0, "lon": -77.02727316666666, "fusion_lon": 0.0, "is_disabled": 0, "fusion_lat": 0.0, "bike_id": "342efab5d5373768f0da40b9ec950eaa", "rental_uris": {"ios": "https://dc.lft.to/lastmile_qr_scan", "android": "https://dc.lft.to/lastmile_qr_scan"}}, {"name": "473f812e6455b18f168e3c075f365e43", "type": "electric_scooter", "lat": 38.93300283333333, "is_reserved": 0, "lon": -77.02848283333333, "fusion_lon": 0.0, "is_disabled": 0, "fusion_lat": 0.0, "bike_id": "473f812e6455b18f168e3c075f365e43", "rental_uris": {"ios": "https://dc.lft.to/lastmile_qr_scan", "android": "https://dc.lft.to/lastmile_qr_scan"}}, {"name": "4ff91139a9a7222ae313e4fb1edd852b", "type": "electric_scooter", "lat": 38.93110816666667, "is_reserved": 0, "lon": -77.0381665, "fusion_lon": 0.0, "is_disabled": 0, "fusion_lat": 0.0, "bike_id": "4ff91139a9a7222ae313e4fb1edd852b", "rental_uris": {"ios": "https://dc.lft.to/lastmile_qr_scan", "android": "https://dc.lft.to/lastmile_qr_scan"}}, {"name": "34e7e991971a17af4b7b0160b9a757d9", "type": "electric_scooter", "lat": 38.905168833333335, "is_reserved": 0, "lon": -77.06759566666666, "fusion_lon": 0.0, "is_disabled": 0, "fusion_lat": 0.0, "bike_id": "34e7e991971a17af4b7b0160b9a757d9", "rental_uris": {"ios": "https://dc.lft.to/lastmile_qr_scan", "android": "https://dc.lft.to/lastmile_qr_scan"}}, {"name": "d2c2d8fd204426a4ced527cefd517d90", "type": "electric_scooter", "lat": 38.942887166666665, "is_reserved": 0, "lon": -77.02173783333333, "fusion_lon": 0.0, "is_disabled": 0, "fusion_lat": 0.0, "bike_id": "d2c2d8fd204426a4ced527cefd517d90", "rental_uris": {"ios": "https://dc.lft.to/lastmile_qr_scan", "android": "https://dc.lft.to/lastmile_qr_scan"}}, {"name": "4b15550b498a83d180eb3cd9a514cb95", "type": "electric_scooter", "lat": 38.920589666666665, "is_reserved": 0, "lon": -77.04290083333333, "fusion_lon": 0.0, "is_disabled": 0, "fusion_lat": 0.0, "bike_id": "4b15550b498a83d180eb3cd9a514cb95", "rental_uris": {"ios": "https://dc.lft.to/lastmile_qr_scan", "android": "https://dc.lft.to/lastmile_qr_scan"}}, {"name": "2d875c2b0574efb53e52b7c01337b10e", "type": "electric_scooter", "lat": 38.933905833333334, "is_reserved": 0, "lon": -77.03585083333333, "fusion_lon": 0.0, "is_disabled": 0, "fusion_lat": 0.0, "bike_id": "2d875c2b0574efb53e52b7c01337b10e", "rental_uris": {"ios": "https://dc.lft.to/lastmile_qr_scan", "android": "https://dc.lft.to/lastmile_qr_scan"}}, {"name": "467dd78ce9834ee136e4b75aca6201e5", "type": "electric_scooter", "lat": 38.932494, "is_reserved": 0, "lon": -77.03285016666666, "fusion_lon": 0.0, "is_disabled": 0, "fusion_lat": 0.0, "bike_id": "467dd78ce9834ee136e4b75aca6201e5", "rental_uris": {"ios": "https://dc.lft.to/lastmile_qr_scan", "android": "https://dc.lft.to/lastmile_qr_scan"}}, {"name": "ae80e610023c1b3e0938bffd61ffdf2e", "type": "electric_bike", "lat": 38.8921345, "is_reserved": 0, "lon": -77.10785, "fusion_lon": 0.0, "is_disabled": 0, "fusion_lat": 0.0, "bike_id": "ae80e610023c1b3e0938bffd61ffdf2e", "rental_uris": {"ios": "https://dc.lft.to/lastmile_qr_scan", "android": "https://dc.lft.to/lastmile_qr_scan"}}, {"name": "111b79a175f1cbf7567f26f1a180f840", "type": "electric_scooter", "lat": 38.89816733333333, "is_reserved": 0, "lon": -77.03314183333333, "fusion_lon": 0.0, "is_disabled": 0, "fusion_lat": 0.0, "bike_id": "111b79a175f1cbf7567f26f1a180f840", "rental_uris": {"ios": "https://dc.lft.to/lastmile_qr_scan", "android": "https://dc.lft.to/lastmile_qr_scan"}}, {"name": "8c9ce7ac2e785e7bf38b73afd9c17987", "type": "electric_scooter", "lat": 38.91844733333333, "is_reserved": 0, "lon": -77.03900183333333, "fusion_lon": 0.0, "is_disabled": 0, "fusion_lat": 0.0, "bike_id": "8c9ce7ac2e785e7bf38b73afd9c17987", "rental_uris": {"ios": "https://dc.lft.to/lastmile_qr_scan", "android": "https://dc.lft.to/lastmile_qr_scan"}}, {"name": "c23d3d86c1ec07fd3946b0d63a37080a", "type": "electric_scooter", "lat": 38.94955733333333, "is_reserved": 0, "lon": -77.02726566666666, "fusion_lon": 0.0, "is_disabled": 0, "fusion_lat": 0.0, "bike_id": "c23d3d86c1ec07fd3946b0d63a37080a", "rental_uris": {"ios": "https://dc.lft.to/lastmile_qr_scan", "android": "https://dc.lft.to/lastmile_qr_scan"}}, {"name": "7da7cd39861b88688bdc1d22104f6dd8", "type": "electric_scooter", "lat": 38.918948666666665, "is_reserved": 0, "lon": -77.0196995, "fusion_lon": 0.0, "is_disabled": 0, "fusion_lat": 0.0, "bike_id": "7da7cd39861b88688bdc1d22104f6dd8", "rental_uris": {"ios": "https://dc.lft.to/lastmile_qr_scan", "android": "https://dc.lft.to/lastmile_qr_scan"}}, {"name": "1461c3d0d92a4e28dda60c4718daf13b", "type": "electric_scooter", "lat": 38.877714833333336, "is_reserved": 0, "lon": -77.00361033333333, "fusion_lon": 0.0, "is_disabled": 0, "fusion_lat": 0.0, "bike_id": "1461c3d0d92a4e28dda60c4718daf13b", "rental_uris": {"ios": "https://dc.lft.to/lastmile_qr_scan", "android": "https://dc.lft.to/lastmile_qr_scan"}}, {"name": "c5e8529b42cdc5da1de724a959eef148", "type": "electric_scooter", "lat": 38.876342666666666, "is_reserved": 0, "lon": -76.99595316666667, "fusion_lon": 0.0, "is_disabled": 0, "fusion_lat": 0.0, "bike_id": "c5e8529b42cdc5da1de724a959eef148", "rental_uris": {"ios": "https://dc.lft.to/lastmile_qr_scan", "android": "https://dc.lft.to/lastmile_qr_scan"}}, {"name": "513cdebc0975a2c6c6b494d64b2907a2", "type": "electric_scooter", "lat": 38.884186166666666, "is_reserved": 0, "lon": -76.99699533333333, "fusion_lon": 0.0, "is_disabled": 0, "fusion_lat": 0.0, "bike_id": "513cdebc0975a2c6c6b494d64b2907a2", "rental_uris": {"ios": "https://dc.lft.to/lastmile_qr_scan", "android": "https://dc.lft.to/lastmile_qr_scan"}}, {"name": "4feea5d64a98ab7c65f037897eab2357", "type": "electric_scooter", "lat": 38.90275666666667, "is_reserved": 0, "lon": -77.03844783333334, "fusion_lon": 0.0, "is_disabled": 0, "fusion_lat": 0.0, "bike_id": "4feea5d64a98ab7c65f037897eab2357", "rental_uris": {"ios": "https://dc.lft.to/lastmile_qr_scan", "android": "https://dc.lft.to/lastmile_qr_scan"}}, {"name": "f72c6d83e3eceb783e0665d869801d97", "type": "electric_scooter", "lat": 38.900222166666666, "is_reserved": 0, "lon": -77.01118883333334, "fusion_lon": 0.0, "is_disabled": 0, "fusion_lat": 0.0, "bike_id": "f72c6d83e3eceb783e0665d869801d97", "rental_uris": {"ios": "https://dc.lft.to/lastmile_qr_scan", "android": "https://dc.lft.to/lastmile_qr_scan"}}, {"name": "204b2eed4e8b4627b45f3d9bede5c3f0", "type": "electric_scooter", "lat": 38.9019265, "is_reserved": 0, "lon": -77.02183966666666, "fusion_lon": 0.0, "is_disabled": 0, "fusion_lat": 0.0, "bike_id": "204b2eed4e8b4627b45f3d9bede5c3f0", "rental_uris": {"ios": "https://dc.lft.to/lastmile_qr_scan", "android": "https://dc.lft.to/lastmile_qr_scan"}}, {"name": "f92713dc828831a496fe5b7159881228", "type": "electric_scooter", "lat": 38.89721683333333, "is_reserved": 0, "lon": -77.02189216666666, "fusion_lon": 0.0, "is_disabled": 0, "fusion_lat": 0.0, "bike_id": "f92713dc828831a496fe5b7159881228", "rental_uris": {"ios": "https://dc.lft.to/lastmile_qr_scan", "android": "https://dc.lft.to/lastmile_qr_scan"}}, {"name": "1d3251931c27c6a16e8019e5be543e39", "type": "electric_bike", "lat": 38.9518365, "is_reserved": 0, "lon": -76.93541966666666, "fusion_lon": 0.0, "is_disabled": 0, "fusion_lat": 0.0, "bike_id": "1d3251931c27c6a16e8019e5be543e39", "rental_uris": {"ios": "https://dc.lft.to/lastmile_qr_scan", "android": "https://dc.lft.to/lastmile_qr_scan"}}, {"name": "1765dacb4000327aabbf940f12e6cd51", "type": "electric_bike", "lat": 38.95643233333333, "is_reserved": 0, "lon": -76.99745216666666, "fusion_lon": 0.0, "is_disabled": 0, "fusion_lat": 0.0, "bike_id": "1765dacb4000327aabbf940f12e6cd51", "rental_uris": {"ios": "https://dc.lft.to/lastmile_qr_scan", "android": "https://dc.lft.to/lastmile_qr_scan"}}, {"name": "f1b81e913ec2f88a31bda08e0ab48c84", "type": "electric_scooter", "lat": 38.88320983333333, "is_reserved": 0, "lon": -77.01767583333333, "fusion_lon": 0.0, "is_disabled": 0, "fusion_lat": 0.0, "bike_id": "f1b81e913ec2f88a31bda08e0ab48c84", "rental_uris": {"ios": "https://dc.lft.to/lastmile_qr_scan", "android": "https://dc.lft.to/lastmile_qr_scan"}}, {"name": "ff3c677dc041fc11c1891632996b0c77", "type": "electric_scooter", "lat": 38.91692666666667, "is_reserved": 0, "lon": -77.028976, "fusion_lon": 0.0, "is_disabled": 0, "fusion_lat": 0.0, "bike_id": "ff3c677dc041fc11c1891632996b0c77", "rental_uris": {"ios": "https://dc.lft.to/lastmile_qr_scan", "android": "https://dc.lft.to/lastmile_qr_scan"}}, {"name": "f71c865e53d61222a0ed5d585f6918aa", "type": "electric_scooter", "lat": 38.9170975, "is_reserved": 0, "lon": -77.00116583333333, "fusion_lon": 0.0, "is_disabled": 0, "fusion_lat": 0.0, "bike_id": "f71c865e53d61222a0ed5d585f6918aa", "rental_uris": {"ios": "https://dc.lft.to/lastmile_qr_scan", "android": "https://dc.lft.to/lastmile_qr_scan"}}, {"name": "62a0da4d575963f7d97b43f08b830cc3", "type": "electric_scooter", "lat": 38.92711583333333, "is_reserved": 0, "lon": -77.03850216666666, "fusion_lon": 0.0, "is_disabled": 0, "fusion_lat": 0.0, "bike_id": "62a0da4d575963f7d97b43f08b830cc3", "rental_uris": {"ios": "https://dc.lft.to/lastmile_qr_scan", "android": "https://dc.lft.to/lastmile_qr_scan"}}, {"name": "75bb5b5b2c9b84c9c83c172978dcdd5e", "type": "electric_scooter", "lat": 38.91692366666667, "is_reserved": 0, "lon": -77.03482166666667, "fusion_lon": 0.0, "is_disabled": 0, "fusion_lat": 0.0, "bike_id": "75bb5b5b2c9b84c9c83c172978dcdd5e", "rental_uris": {"ios": "https://dc.lft.to/lastmile_qr_scan", "android": "https://dc.lft.to/lastmile_qr_scan"}}, {"name": "a723e51e216d4a7ddd79236783f4c296", "type": "electric_bike", "lat": 38.87393616666667, "is_reserved": 0, "lon": -77.0003285, "fusion_lon": 0.0, "is_disabled": 0, "fusion_lat": 0.0, "bike_id": "a723e51e216d4a7ddd79236783f4c296", "rental_uris": {"ios": "https://dc.lft.to/lastmile_qr_scan", "android": "https://dc.lft.to/lastmile_qr_scan"}}, {"name": "809fbf50d7569b64c34183051df7f5f3", "type": "electric_scooter", "lat": 38.884274166666664, "is_reserved": 0, "lon": -76.957623, "fusion_lon": 0.0, "is_disabled": 0, "fusion_lat": 0.0, "bike_id": "809fbf50d7569b64c34183051df7f5f3", "rental_uris": {"ios": "https://dc.lft.to/lastmile_qr_scan", "android": "https://dc.lft.to/lastmile_qr_scan"}}, {"name": "1bf01da814efa424b30903c8dbfb1570", "type": "electric_scooter", "lat": 38.92418383333333, "is_reserved": 0, "lon": -77.01952816666666, "fusion_lon": 0.0, "is_disabled": 0, "fusion_lat": 0.0, "bike_id": "1bf01da814efa424b30903c8dbfb1570", "rental_uris": {"ios": "https://dc.lft.to/lastmile_qr_scan", "android": "https://dc.lft.to/lastmile_qr_scan"}}, {"name": "640ffb47fa927ea103f2d66cc54af294", "type": "electric_scooter", "lat": 38.91672966666667, "is_reserved": 0, "lon": -77.02715566666667, "fusion_lon": 0.0, "is_disabled": 0, "fusion_lat": 0.0, "bike_id": "640ffb47fa927ea103f2d66cc54af294", "rental_uris": {"ios": "https://dc.lft.to/lastmile_qr_scan", "android": "https://dc.lft.to/lastmile_qr_scan"}}, {"name": "ec35880200d50cf9169a17a16ff27a47", "type": "electric_bike", "lat": 38.95475666666667, "is_reserved": 0, "lon": -77.08241116666666, "fusion_lon": 0.0, "is_disabled": 0, "fusion_lat": 0.0, "bike_id": "ec35880200d50cf9169a17a16ff27a47", "rental_uris": {"ios": "https://dc.lft.to/lastmile_qr_scan", "android": "https://dc.lft.to/lastmile_qr_scan"}}, {"name": "5d227d054360f38fa9d45d5a05b6c20a", "type": "electric_scooter", "lat": 38.92053966666667, "is_reserved": 0, "lon": -77.04256416666666, "fusion_lon": 0.0, "is_disabled": 0, "fusion_lat": 0.0, "bike_id": "5d227d054360f38fa9d45d5a05b6c20a", "rental_uris": {"ios": "https://dc.lft.to/lastmile_qr_scan", "android": "https://dc.lft.to/lastmile_qr_scan"}}, {"name": "cf83719c73ab862246db96e67407be80", "type": "electric_scooter", "lat": 38.909586, "is_reserved": 0, "lon": -77.03923383333333, "fusion_lon": 0.0, "is_disabled": 0, "fusion_lat": 0.0, "bike_id": "cf83719c73ab862246db96e67407be80", "rental_uris": {"ios": "https://dc.lft.to/lastmile_qr_scan", "android": "https://dc.lft.to/lastmile_qr_scan"}}, {"name": "56194ccbd90570488a0bc53f675c5cb9", "type": "electric_scooter", "lat": 38.8983115, "is_reserved": 0, "lon": -76.94636216666666, "fusion_lon": 0.0, "is_disabled": 0, "fusion_lat": 0.0, "bike_id": "56194ccbd90570488a0bc53f675c5cb9", "rental_uris": {"ios": "https://dc.lft.to/lastmile_qr_scan", "android": "https://dc.lft.to/lastmile_qr_scan"}}, {"name": "6cf5b3fa1e43411b1ecbaf0d228c4bd3", "type": "electric_scooter", "lat": 38.92251233333333, "is_reserved": 0, "lon": -77.03522183333334, "fusion_lon": 0.0, "is_disabled": 0, "fusion_lat": 0.0, "bike_id": "6cf5b3fa1e43411b1ecbaf0d228c4bd3", "rental_uris": {"ios": "https://dc.lft.to/lastmile_qr_scan", "android": "https://dc.lft.to/lastmile_qr_scan"}}, {"name": "0b0ffe7c9e795a515fbb206c0a9e9e97", "type": "electric_scooter", "lat": 38.89479216666667, "is_reserved": 0, "lon": -77.01092366666667, "fusion_lon": 0.0, "is_disabled": 0, "fusion_lat": 0.0, "bike_id": "0b0ffe7c9e795a515fbb206c0a9e9e97", "rental_uris": {"ios": "https://dc.lft.to/lastmile_qr_scan", "android": "https://dc.lft.to/lastmile_qr_scan"}}, {"name": "32dd739f5cd08bda491bc4d2ffa73b0e", "type": "electric_scooter", "lat": 38.863564333333336, "is_reserved": 0, "lon": -76.9906835, "fusion_lon": 0.0, "is_disabled": 0, "fusion_lat": 0.0, "bike_id": "32dd739f5cd08bda491bc4d2ffa73b0e", "rental_uris": {"ios": "https://dc.lft.to/lastmile_qr_scan", "android": "https://dc.lft.to/lastmile_qr_scan"}}, {"name": "9f4b79c8262a38c3cbbaa4e3bbb5e12b", "type": "electric_scooter", "lat": 38.904512833333335, "is_reserved": 0, "lon": -77.04898466666667, "fusion_lon": 0.0, "is_disabled": 0, "fusion_lat": 0.0, "bike_id": "9f4b79c8262a38c3cbbaa4e3bbb5e12b", "rental_uris": {"ios": "https://dc.lft.to/lastmile_qr_scan", "android": "https://dc.lft.to/lastmile_qr_scan"}}, {"name": "81577bd23e73deb653474db8eb595bb7", "type": "electric_scooter", "lat": 38.900198, "is_reserved": 0, "lon": -77.03240966666667, "fusion_lon": 0.0, "is_disabled": 0, "fusion_lat": 0.0, "bike_id": "81577bd23e73deb653474db8eb595bb7", "rental_uris": {"ios": "https://dc.lft.to/lastmile_qr_scan", "android": "https://dc.lft.to/lastmile_qr_scan"}}, {"name": "8105f3241b7f027fd9ac5abc47679b37", "type": "electric_scooter", "lat": 38.904945166666664, "is_reserved": 0, "lon": -77.04347733333333, "fusion_lon": 0.0, "is_disabled": 0, "fusion_lat": 0.0, "bike_id": "8105f3241b7f027fd9ac5abc47679b37", "rental_uris": {"ios": "https://dc.lft.to/lastmile_qr_scan", "android": "https://dc.lft.to/lastmile_qr_scan"}}, {"name": "b4f9114eecd765a885e7821c4c04cf65", "type": "electric_scooter", "lat": 38.9132585, "is_reserved": 0, "lon": -77.00224716666666, "fusion_lon": 0.0, "is_disabled": 0, "fusion_lat": 0.0, "bike_id": "b4f9114eecd765a885e7821c4c04cf65", "rental_uris": {"ios": "https://dc.lft.to/lastmile_qr_scan", "android": "https://dc.lft.to/lastmile_qr_scan"}}, {"name": "22a3a0f9b5239268d308151065c223bd", "type": "electric_scooter", "lat": 38.920879666666664, "is_reserved": 0, "lon": -77.02594766666667, "fusion_lon": 0.0, "is_disabled": 0, "fusion_lat": 0.0, "bike_id": "22a3a0f9b5239268d308151065c223bd", "rental_uris": {"ios": "https://dc.lft.to/lastmile_qr_scan", "android": "https://dc.lft.to/lastmile_qr_scan"}}, {"name": "db23040b0bee99168e1813b329895b4d", "type": "electric_scooter", "lat": 38.92591133333333, "is_reserved": 0, "lon": -77.00483666666666, "fusion_lon": 0.0, "is_disabled": 0, "fusion_lat": 0.0, "bike_id": "db23040b0bee99168e1813b329895b4d", "rental_uris": {"ios": "https://dc.lft.to/lastmile_qr_scan", "android": "https://dc.lft.to/lastmile_qr_scan"}}, {"name": "27aff3f5062cf2456dd676fc583a3869", "type": "electric_scooter", "lat": 38.904359166666666, "is_reserved": 0, "lon": -76.98491383333334, "fusion_lon": 0.0, "is_disabled": 0, "fusion_lat": 0.0, "bike_id": "27aff3f5062cf2456dd676fc583a3869", "rental_uris": {"ios": "https://dc.lft.to/lastmile_qr_scan", "android": "https://dc.lft.to/lastmile_qr_scan"}}, {"name": "c71b975f3f4b8b498ac4f6da9f5e7d2f", "type": "electric_scooter", "lat": 38.91806066666667, "is_reserved": 0, "lon": -77.02788033333333, "fusion_lon": 0.0, "is_disabled": 0, "fusion_lat": 0.0, "bike_id": "c71b975f3f4b8b498ac4f6da9f5e7d2f", "rental_uris": {"ios": "https://dc.lft.to/lastmile_qr_scan", "android": "https://dc.lft.to/lastmile_qr_scan"}}, {"name": "8108e93ccc7b4b2bd1db6cc7daaf259c", "type": "electric_scooter", "lat": 38.90670166666666, "is_reserved": 0, "lon": -77.03866966666666, "fusion_lon": 0.0, "is_disabled": 0, "fusion_lat": 0.0, "bike_id": "8108e93ccc7b4b2bd1db6cc7daaf259c", "rental_uris": {"ios": "https://dc.lft.to/lastmile_qr_scan", "android": "https://dc.lft.to/lastmile_qr_scan"}}, {"name": "bd96b58d85b73701cdc8a280eebdeb6f", "type": "electric_scooter", "lat": 38.88515433333333, "is_reserved": 0, "lon": -77.0335005, "fusion_lon": 0.0, "is_disabled": 0, "fusion_lat": 0.0, "bike_id": "bd96b58d85b73701cdc8a280eebdeb6f", "rental_uris": {"ios": "https://dc.lft.to/lastmile_qr_scan", "android": "https://dc.lft.to/lastmile_qr_scan"}}, {"name": "02ee2171fc86896dc44026195755e77f", "type": "electric_scooter", "lat": 38.903913833333334, "is_reserved": 0, "lon": -77.01766333333333, "fusion_lon": 0.0, "is_disabled": 0, "fusion_lat": 0.0, "bike_id": "02ee2171fc86896dc44026195755e77f", "rental_uris": {"ios": "https://dc.lft.to/lastmile_qr_scan", "android": "https://dc.lft.to/lastmile_qr_scan"}}, {"name": "17210dee0550d36f57e40c1402420f5f", "type": "electric_scooter", "lat": 38.903853, "is_reserved": 0, "lon": -77.04201233333333, "fusion_lon": 0.0, "is_disabled": 0, "fusion_lat": 0.0, "bike_id": "17210dee0550d36f57e40c1402420f5f", "rental_uris": {"ios": "https://dc.lft.to/lastmile_qr_scan", "android": "https://dc.lft.to/lastmile_qr_scan"}}, {"name": "776ab1559fb6fd9e084418a4978093cc", "type": "electric_scooter", "lat": 38.905665166666665, "is_reserved": 0, "lon": -77.0391015, "fusion_lon": 0.0, "is_disabled": 0, "fusion_lat": 0.0, "bike_id": "776ab1559fb6fd9e084418a4978093cc", "rental_uris": {"ios": "https://dc.lft.to/lastmile_qr_scan", "android": "https://dc.lft.to/lastmile_qr_scan"}}, {"name": "83949b936e4b056ab6d4c37b080a6d3f", "type": "electric_scooter", "lat": 38.920134, "is_reserved": 0, "lon": -77.03866366666666, "fusion_lon": 0.0, "is_disabled": 0, "fusion_lat": 0.0, "bike_id": "83949b936e4b056ab6d4c37b080a6d3f", "rental_uris": {"ios": "https://dc.lft.to/lastmile_qr_scan", "android": "https://dc.lft.to/lastmile_qr_scan"}}, {"name": "15ec6df96db84f558ab21f7fca38680f", "type": "electric_scooter", "lat": 38.9175495, "is_reserved": 0, "lon": -77.0248885, "fusion_lon": 0.0, "is_disabled": 0, "fusion_lat": 0.0, "bike_id": "15ec6df96db84f558ab21f7fca38680f", "rental_uris": {"ios": "https://dc.lft.to/lastmile_qr_scan", "android": "https://dc.lft.to/lastmile_qr_scan"}}, {"name": "700781a3506fb7c3530dbec5a533561d", "type": "electric_scooter", "lat": 38.88518833333333, "is_reserved": 0, "lon": -76.977098, "fusion_lon": 0.0, "is_disabled": 0, "fusion_lat": 0.0, "bike_id": "700781a3506fb7c3530dbec5a533561d", "rental_uris": {"ios": "https://dc.lft.to/lastmile_qr_scan", "android": "https://dc.lft.to/lastmile_qr_scan"}}, {"name": "45110ddcec163bb6606b89df251a859d", "type": "electric_scooter", "lat": 38.89223033333333, "is_reserved": 0, "lon": -77.03209583333333, "fusion_lon": 0.0, "is_disabled": 0, "fusion_lat": 0.0, "bike_id": "45110ddcec163bb6606b89df251a859d", "rental_uris": {"ios": "https://dc.lft.to/lastmile_qr_scan", "android": "https://dc.lft.to/lastmile_qr_scan"}}, {"name": "71a1ee133f4d688ff72a438f9dbb6db1", "type": "electric_scooter", "lat": 38.93166, "is_reserved": 0, "lon": -77.0285045, "fusion_lon": 0.0, "is_disabled": 0, "fusion_lat": 0.0, "bike_id": "71a1ee133f4d688ff72a438f9dbb6db1", "rental_uris": {"ios": "https://dc.lft.to/lastmile_qr_scan", "android": "https://dc.lft.to/lastmile_qr_scan"}}, {"name": "2edc55bd3e0b60695a0c153871c22da9", "type": "electric_scooter", "lat": 38.940089666666665, "is_reserved": 0, "lon": -77.07173283333333, "fusion_lon": 0.0, "is_disabled": 0, "fusion_lat": 0.0, "bike_id": "2edc55bd3e0b60695a0c153871c22da9", "rental_uris": {"ios": "https://dc.lft.to/lastmile_qr_scan", "android": "https://dc.lft.to/lastmile_qr_scan"}}, {"name": "e0e93001bd36ef9f9ebaa8203a4ab16d", "type": "electric_scooter", "lat": 38.919213, "is_reserved": 0, "lon": -77.00976966666667, "fusion_lon": 0.0, "is_disabled": 0, "fusion_lat": 0.0, "bike_id": "e0e93001bd36ef9f9ebaa8203a4ab16d", "rental_uris": {"ios": "https://dc.lft.to/lastmile_qr_scan", "android": "https://dc.lft.to/lastmile_qr_scan"}}, {"name": "e4d1f579494d7ef2b084ccc3421cb527", "type": "electric_bike", "lat": 38.861657666666666, "is_reserved": 0, "lon": -76.95064316666667, "fusion_lon": 0.0, "is_disabled": 0, "fusion_lat": 0.0, "bike_id": "e4d1f579494d7ef2b084ccc3421cb527", "rental_uris": {"ios": "https://dc.lft.to/lastmile_qr_scan", "android": "https://dc.lft.to/lastmile_qr_scan"}}, {"name": "9fd1d0d611f086b1669ec314eaa07b3d", "type": "electric_scooter", "lat": 38.917146833333334, "is_reserved": 0, "lon": -77.03858933333333, "fusion_lon": 0.0, "is_disabled": 0, "fusion_lat": 0.0, "bike_id": "9fd1d0d611f086b1669ec314eaa07b3d", "rental_uris": {"ios": "https://dc.lft.to/lastmile_qr_scan", "android": "https://dc.lft.to/lastmile_qr_scan"}}, {"name": "51d9a7fc0baba69504a031b34deab8da", "type": "electric_scooter", "lat": 38.90020583333333, "is_reserved": 0, "lon": -77.02387583333334, "fusion_lon": 0.0, "is_disabled": 0, "fusion_lat": 0.0, "bike_id": "51d9a7fc0baba69504a031b34deab8da", "rental_uris": {"ios": "https://dc.lft.to/lastmile_qr_scan", "android": "https://dc.lft.to/lastmile_qr_scan"}}, {"name": "588fba3ab1dce53fb8ba95a5ab7dc40b", "type": "electric_scooter", "lat": 38.9030395, "is_reserved": 0, "lon": -77.04348683333333, "fusion_lon": 0.0, "is_disabled": 0, "fusion_lat": 0.0, "bike_id": "588fba3ab1dce53fb8ba95a5ab7dc40b", "rental_uris": {"ios": "https://dc.lft.to/lastmile_qr_scan", "android": "https://dc.lft.to/lastmile_qr_scan"}}, {"name": "1513c61acdb123efe86eee4db4cce794", "type": "electric_scooter", "lat": 38.90085, "is_reserved": 0, "lon": -77.04910383333333, "fusion_lon": 0.0, "is_disabled": 0, "fusion_lat": 0.0, "bike_id": "1513c61acdb123efe86eee4db4cce794", "rental_uris": {"ios": "https://dc.lft.to/lastmile_qr_scan", "android": "https://dc.lft.to/lastmile_qr_scan"}}, {"name": "08d4da29abef51563c7346aacbedd43a", "type": "electric_scooter", "lat": 38.91820766666667, "is_reserved": 0, "lon": -77.0344375, "fusion_lon": 0.0, "is_disabled": 0, "fusion_lat": 0.0, "bike_id": "08d4da29abef51563c7346aacbedd43a", "rental_uris": {"ios": "https://dc.lft.to/lastmile_qr_scan", "android": "https://dc.lft.to/lastmile_qr_scan"}}, {"name": "7e70c60e8b0526e9c47fd592b5ed87f5", "type": "electric_scooter", "lat": 38.90514116666667, "is_reserved": 0, "lon": -77.069379, "fusion_lon": 0.0, "is_disabled": 0, "fusion_lat": 0.0, "bike_id": "7e70c60e8b0526e9c47fd592b5ed87f5", "rental_uris": {"ios": "https://dc.lft.to/lastmile_qr_scan", "android": "https://dc.lft.to/lastmile_qr_scan"}}, {"name": "636cffdc72f39761a2a61ecb4ab6cbe9", "type": "electric_scooter", "lat": 38.9233595, "is_reserved": 0, "lon": -77.0190755, "fusion_lon": 0.0, "is_disabled": 0, "fusion_lat": 0.0, "bike_id": "636cffdc72f39761a2a61ecb4ab6cbe9", "rental_uris": {"ios": "https://dc.lft.to/lastmile_qr_scan", "android": "https://dc.lft.to/lastmile_qr_scan"}}, {"name": "93a30cf0d74f3a5b1705570b72b82916", "type": "electric_scooter", "lat": 38.89237683333333, "is_reserved": 0, "lon": -77.0320095, "fusion_lon": 0.0, "is_disabled": 0, "fusion_lat": 0.0, "bike_id": "93a30cf0d74f3a5b1705570b72b82916", "rental_uris": {"ios": "https://dc.lft.to/lastmile_qr_scan", "android": "https://dc.lft.to/lastmile_qr_scan"}}, {"name": "c6cdd94d184746409ebc13f37e7c12ba", "type": "electric_scooter", "lat": 38.923286833333336, "is_reserved": 0, "lon": -77.03898216666667, "fusion_lon": 0.0, "is_disabled": 0, "fusion_lat": 0.0, "bike_id": "c6cdd94d184746409ebc13f37e7c12ba", "rental_uris": {"ios": "https://dc.lft.to/lastmile_qr_scan", "android": "https://dc.lft.to/lastmile_qr_scan"}}, {"name": "e3da96be7e6ea683b2c82bf2be99ef44", "type": "electric_scooter", "lat": 38.901321833333334, "is_reserved": 0, "lon": -77.04466016666667, "fusion_lon": 0.0, "is_disabled": 0, "fusion_lat": 0.0, "bike_id": "e3da96be7e6ea683b2c82bf2be99ef44", "rental_uris": {"ios": "https://dc.lft.to/lastmile_qr_scan", "android": "https://dc.lft.to/lastmile_qr_scan"}}, {"name": "dcaea32f9dc67ecf38a3f17e76758944", "type": "electric_scooter", "lat": 38.926816, "is_reserved": 0, "lon": -77.03761183333333, "fusion_lon": 0.0, "is_disabled": 0, "fusion_lat": 0.0, "bike_id": "dcaea32f9dc67ecf38a3f17e76758944", "rental_uris": {"ios": "https://dc.lft.to/lastmile_qr_scan", "android": "https://dc.lft.to/lastmile_qr_scan"}}, {"name": "826d401cd8b78f69c431d280372cd6e9", "type": "electric_scooter", "lat": 38.903267166666666, "is_reserved": 0, "lon": -77.038839, "fusion_lon": 0.0, "is_disabled": 0, "fusion_lat": 0.0, "bike_id": "826d401cd8b78f69c431d280372cd6e9", "rental_uris": {"ios": "https://dc.lft.to/lastmile_qr_scan", "android": "https://dc.lft.to/lastmile_qr_scan"}}, {"name": "3f6e832151f25b344d05c864cd8cfb53", "type": "electric_scooter", "lat": 38.9157675, "is_reserved": 0, "lon": -77.04682366666667, "fusion_lon": 0.0, "is_disabled": 0, "fusion_lat": 0.0, "bike_id": "3f6e832151f25b344d05c864cd8cfb53", "rental_uris": {"ios": "https://dc.lft.to/lastmile_qr_scan", "android": "https://dc.lft.to/lastmile_qr_scan"}}, {"name": "36ae448d971333344fd8b12a8bcc3a45", "type": "electric_scooter", "lat": 38.949417333333336, "is_reserved": 0, "lon": -77.0162215, "fusion_lon": 0.0, "is_disabled": 0, "fusion_lat": 0.0, "bike_id": "36ae448d971333344fd8b12a8bcc3a45", "rental_uris": {"ios": "https://dc.lft.to/lastmile_qr_scan", "android": "https://dc.lft.to/lastmile_qr_scan"}}, {"name": "79886c8519555f2c066e40b9d98420b8", "type": "electric_bike", "lat": 38.90220983333333, "is_reserved": 0, "lon": -77.043704, "fusion_lon": 0.0, "is_disabled": 0, "fusion_lat": 0.0, "bike_id": "79886c8519555f2c066e40b9d98420b8", "rental_uris": {"ios": "https://dc.lft.to/lastmile_qr_scan", "android": "https://dc.lft.to/lastmile_qr_scan"}}, {"name": "682abdb8ef65a9c3ae93ca43a77a5abc", "type": "electric_bike", "lat": 38.87477883333333, "is_reserved": 0, "lon": -77.00243733333333, "fusion_lon": 0.0, "is_disabled": 0, "fusion_lat": 0.0, "bike_id": "682abdb8ef65a9c3ae93ca43a77a5abc", "rental_uris": {"ios": "https://dc.lft.to/lastmile_qr_scan", "android": "https://dc.lft.to/lastmile_qr_scan"}}, {"name": "100f17782a690419743c8b8f3c87cc10", "type": "electric_bike", "lat": 38.91953133333333, "is_reserved": 0, "lon": -76.972676, "fusion_lon": 0.0, "is_disabled": 0, "fusion_lat": 0.0, "bike_id": "100f17782a690419743c8b8f3c87cc10", "rental_uris": {"ios": "https://dc.lft.to/lastmile_qr_scan", "android": "https://dc.lft.to/lastmile_qr_scan"}}, {"name": "1902cfe1f058aa3df4fe2b4132f2009c", "type": "electric_scooter", "lat": 38.900713833333334, "is_reserved": 0, "lon": -77.02594483333333, "fusion_lon": 0.0, "is_disabled": 0, "fusion_lat": 0.0, "bike_id": "1902cfe1f058aa3df4fe2b4132f2009c", "rental_uris": {"ios": "https://dc.lft.to/lastmile_qr_scan", "android": "https://dc.lft.to/lastmile_qr_scan"}}, {"name": "a6b94de2fe00500a1de4f33c6de0bdf7", "type": "electric_scooter", "lat": 38.89877533333333, "is_reserved": 0, "lon": -76.9315875, "fusion_lon": 0.0, "is_disabled": 0, "fusion_lat": 0.0, "bike_id": "a6b94de2fe00500a1de4f33c6de0bdf7", "rental_uris": {"ios": "https://dc.lft.to/lastmile_qr_scan", "android": "https://dc.lft.to/lastmile_qr_scan"}}, {"name": "5d57ffaec1223574253e228ac765dcdc", "type": "electric_scooter", "lat": 38.906567333333335, "is_reserved": 0, "lon": -77.03865633333334, "fusion_lon": 0.0, "is_disabled": 0, "fusion_lat": 0.0, "bike_id": "5d57ffaec1223574253e228ac765dcdc", "rental_uris": {"ios": "https://dc.lft.to/lastmile_qr_scan", "android": "https://dc.lft.to/lastmile_qr_scan"}}, {"name": "3e12ceb14479f4333267495663357f9a", "type": "electric_bike", "lat": 38.90424433333333, "is_reserved": 0, "lon": -77.0500855, "fusion_lon": 0.0, "is_disabled": 0, "fusion_lat": 0.0, "bike_id": "3e12ceb14479f4333267495663357f9a", "rental_uris": {"ios": "https://dc.lft.to/lastmile_qr_scan", "android": "https://dc.lft.to/lastmile_qr_scan"}}, {"name": "65b478282fa6b479e0ab934fd020bc8b", "type": "electric_scooter", "lat": 38.90274083333333, "is_reserved": 0, "lon": -77.05926316666667, "fusion_lon": 0.0, "is_disabled": 0, "fusion_lat": 0.0, "bike_id": "65b478282fa6b479e0ab934fd020bc8b", "rental_uris": {"ios": "https://dc.lft.to/lastmile_qr_scan", "android": "https://dc.lft.to/lastmile_qr_scan"}}, {"name": "854213656a169e8bdef00bf9ea0bd965", "type": "electric_scooter", "lat": 38.90384433333333, "is_reserved": 0, "lon": -77.03852516666667, "fusion_lon": 0.0, "is_disabled": 0, "fusion_lat": 0.0, "bike_id": "854213656a169e8bdef00bf9ea0bd965", "rental_uris": {"ios": "https://dc.lft.to/lastmile_qr_scan", "android": "https://dc.lft.to/lastmile_qr_scan"}}, {"name": "3935c6c95e7fbb5c70e78a81645759c2", "type": "electric_scooter", "lat": 38.90483416666667, "is_reserved": 0, "lon": -77.04375733333333, "fusion_lon": 0.0, "is_disabled": 0, "fusion_lat": 0.0, "bike_id": "3935c6c95e7fbb5c70e78a81645759c2", "rental_uris": {"ios": "https://dc.lft.to/lastmile_qr_scan", "android": "https://dc.lft.to/lastmile_qr_scan"}}, {"name": "dc033fdd0d0f1ef265ebf068fad52268", "type": "electric_scooter", "lat": 38.903368666666665, "is_reserved": 0, "lon": -77.02602616666667, "fusion_lon": 0.0, "is_disabled": 0, "fusion_lat": 0.0, "bike_id": "dc033fdd0d0f1ef265ebf068fad52268", "rental_uris": {"ios": "https://dc.lft.to/lastmile_qr_scan", "android": "https://dc.lft.to/lastmile_qr_scan"}}, {"name": "e3415767a0b80c0fa7ade24c8c0d7568", "type": "electric_scooter", "lat": 38.906593, "is_reserved": 0, "lon": -77.03855716666666, "fusion_lon": 0.0, "is_disabled": 0, "fusion_lat": 0.0, "bike_id": "e3415767a0b80c0fa7ade24c8c0d7568", "rental_uris": {"ios": "https://dc.lft.to/lastmile_qr_scan", "android": "https://dc.lft.to/lastmile_qr_scan"}}, {"name": "55bf2db1695df941f5de2097d6317bbf", "type": "electric_scooter", "lat": 38.896202333333335, "is_reserved": 0, "lon": -76.9985425, "fusion_lon": 0.0, "is_disabled": 0, "fusion_lat": 0.0, "bike_id": "55bf2db1695df941f5de2097d6317bbf", "rental_uris": {"ios": "https://dc.lft.to/lastmile_qr_scan", "android": "https://dc.lft.to/lastmile_qr_scan"}}, {"name": "ef5c563bd58a7c23c9147cd39ef95ddf", "type": "electric_scooter", "lat": 38.90743533333333, "is_reserved": 0, "lon": -77.03853183333334, "fusion_lon": 0.0, "is_disabled": 0, "fusion_lat": 0.0, "bike_id": "ef5c563bd58a7c23c9147cd39ef95ddf", "rental_uris": {"ios": "https://dc.lft.to/lastmile_qr_scan", "android": "https://dc.lft.to/lastmile_qr_scan"}}, {"name": "847f614624281c6591295cc53f68e729", "type": "electric_scooter", "lat": 38.90642316666667, "is_reserved": 0, "lon": -77.01146383333334, "fusion_lon": 0.0, "is_disabled": 0, "fusion_lat": 0.0, "bike_id": "847f614624281c6591295cc53f68e729", "rental_uris": {"ios": "https://dc.lft.to/lastmile_qr_scan", "android": "https://dc.lft.to/lastmile_qr_scan"}}, {"name": "a27fe0873078abb535f9575cddb4bb90", "type": "electric_scooter", "lat": 38.89219833333333, "is_reserved": 0, "lon": -77.04264983333333, "fusion_lon": 0.0, "is_disabled": 0, "fusion_lat": 0.0, "bike_id": "a27fe0873078abb535f9575cddb4bb90", "rental_uris": {"ios": "https://dc.lft.to/lastmile_qr_scan", "android": "https://dc.lft.to/lastmile_qr_scan"}}, {"name": "e5c1f0b4c85216c59c472dc3a6b65c84", "type": "electric_scooter", "lat": 38.92636, "is_reserved": 0, "lon": -77.0384885, "fusion_lon": 0.0, "is_disabled": 0, "fusion_lat": 0.0, "bike_id": "e5c1f0b4c85216c59c472dc3a6b65c84", "rental_uris": {"ios": "https://dc.lft.to/lastmile_qr_scan", "android": "https://dc.lft.to/lastmile_qr_scan"}}, {"name": "db0896dd5f48e8fe6082d2e727245057", "type": "electric_scooter", "lat": 38.90677516666667, "is_reserved": 0, "lon": -77.0135135, "fusion_lon": 0.0, "is_disabled": 0, "fusion_lat": 0.0, "bike_id": "db0896dd5f48e8fe6082d2e727245057", "rental_uris": {"ios": "https://dc.lft.to/lastmile_qr_scan", "android": "https://dc.lft.to/lastmile_qr_scan"}}, {"name": "4e3425685ace8a17272225a4bf22d1d1", "type": "electric_scooter", "lat": 38.90723766666667, "is_reserved": 0, "lon": -77.04355016666666, "fusion_lon": 0.0, "is_disabled": 0, "fusion_lat": 0.0, "bike_id": "4e3425685ace8a17272225a4bf22d1d1", "rental_uris": {"ios": "https://dc.lft.to/lastmile_qr_scan", "android": "https://dc.lft.to/lastmile_qr_scan"}}, {"name": "be13a77a58c3f01df69d007da71c0260", "type": "electric_scooter", "lat": 38.917948, "is_reserved": 0, "lon": -77.03172466666666, "fusion_lon": 0.0, "is_disabled": 0, "fusion_lat": 0.0, "bike_id": "be13a77a58c3f01df69d007da71c0260", "rental_uris": {"ios": "https://dc.lft.to/lastmile_qr_scan", "android": "https://dc.lft.to/lastmile_qr_scan"}}, {"name": "7325d529665eb39c4cc2c6318f1da302", "type": "electric_scooter", "lat": 38.92721016666667, "is_reserved": 0, "lon": -77.030808, "fusion_lon": 0.0, "is_disabled": 0, "fusion_lat": 0.0, "bike_id": "7325d529665eb39c4cc2c6318f1da302", "rental_uris": {"ios": "https://dc.lft.to/lastmile_qr_scan", "android": "https://dc.lft.to/lastmile_qr_scan"}}, {"name": "90c8983e915126e4334f99eebb65ba67", "type": "electric_scooter", "lat": 38.93252416666667, "is_reserved": 0, "lon": -77.03281383333334, "fusion_lon": 0.0, "is_disabled": 0, "fusion_lat": 0.0, "bike_id": "90c8983e915126e4334f99eebb65ba67", "rental_uris": {"ios": "https://dc.lft.to/lastmile_qr_scan", "android": "https://dc.lft.to/lastmile_qr_scan"}}, {"name": "c40f5f7de9d07688e1746a70e2c84a76", "type": "electric_scooter", "lat": 38.922444666666664, "is_reserved": 0, "lon": -77.0101695, "fusion_lon": 0.0, "is_disabled": 0, "fusion_lat": 0.0, "bike_id": "c40f5f7de9d07688e1746a70e2c84a76", "rental_uris": {"ios": "https://dc.lft.to/lastmile_qr_scan", "android": "https://dc.lft.to/lastmile_qr_scan"}}, {"name": "03320901661903b72cda024bd2860ad2", "type": "electric_scooter", "lat": 38.8981485, "is_reserved": 0, "lon": -77.03306916666666, "fusion_lon": 0.0, "is_disabled": 0, "fusion_lat": 0.0, "bike_id": "03320901661903b72cda024bd2860ad2", "rental_uris": {"ios": "https://dc.lft.to/lastmile_qr_scan", "android": "https://dc.lft.to/lastmile_qr_scan"}}, {"name": "67c42cbde69f43803027959fb38f556b", "type": "electric_bike", "lat": 38.869044833333334, "is_reserved": 0, "lon": -77.13181516666667, "fusion_lon": 0.0, "is_disabled": 0, "fusion_lat": 0.0, "bike_id": "67c42cbde69f43803027959fb38f556b", "rental_uris": {"ios": "https://dc.lft.to/lastmile_qr_scan", "android": "https://dc.lft.to/lastmile_qr_scan"}}, {"name": "36c4655a30d488dbcb10cb3ad20203f7", "type": "electric_scooter", "lat": 38.896279666666665, "is_reserved": 0, "lon": -77.02831166666667, "fusion_lon": 0.0, "is_disabled": 0, "fusion_lat": 0.0, "bike_id": "36c4655a30d488dbcb10cb3ad20203f7", "rental_uris": {"ios": "https://dc.lft.to/lastmile_qr_scan", "android": "https://dc.lft.to/lastmile_qr_scan"}}, {"name": "16344447b2037fb61aacca42c68f208a", "type": "electric_scooter", "lat": 38.908559, "is_reserved": 0, "lon": -77.04426116666667, "fusion_lon": 0.0, "is_disabled": 0, "fusion_lat": 0.0, "bike_id": "16344447b2037fb61aacca42c68f208a", "rental_uris": {"ios": "https://dc.lft.to/lastmile_qr_scan", "android": "https://dc.lft.to/lastmile_qr_scan"}}, {"name": "184c7e31a52e031fd724c12edb5ebddb", "type": "electric_scooter", "lat": 38.93565433333333, "is_reserved": 0, "lon": -77.03736666666667, "fusion_lon": 0.0, "is_disabled": 0, "fusion_lat": 0.0, "bike_id": "184c7e31a52e031fd724c12edb5ebddb", "rental_uris": {"ios": "https://dc.lft.to/lastmile_qr_scan", "android": "https://dc.lft.to/lastmile_qr_scan"}}, {"name": "dfdfd7e07807fa8241e9a05be5ea703e", "type": "electric_bike", "lat": 38.94892733333333, "is_reserved": 0, "lon": -76.96372183333334, "fusion_lon": 0.0, "is_disabled": 0, "fusion_lat": 0.0, "bike_id": "dfdfd7e07807fa8241e9a05be5ea703e", "rental_uris": {"ios": "https://dc.lft.to/lastmile_qr_scan", "android": "https://dc.lft.to/lastmile_qr_scan"}}, {"name": "da8deeef7dd181745e9f4007b0252b6c", "type": "electric_scooter", "lat": 38.884902, "is_reserved": 0, "lon": -77.00727133333334, "fusion_lon": 0.0, "is_disabled": 0, "fusion_lat": 0.0, "bike_id": "da8deeef7dd181745e9f4007b0252b6c", "rental_uris": {"ios": "https://dc.lft.to/lastmile_qr_scan", "android": "https://dc.lft.to/lastmile_qr_scan"}}, {"name": "aa6483ae7cde19389a37cad3de8e3184", "type": "electric_scooter", "lat": 38.952482833333335, "is_reserved": 0, "lon": -77.00179433333334, "fusion_lon": 0.0, "is_disabled": 0, "fusion_lat": 0.0, "bike_id": "aa6483ae7cde19389a37cad3de8e3184", "rental_uris": {"ios": "https://dc.lft.to/lastmile_qr_scan", "android": "https://dc.lft.to/lastmile_qr_scan"}}, {"name": "5b5aa5738810943769684e08920dd862", "type": "electric_scooter", "lat": 38.930816666666665, "is_reserved": 0, "lon": -77.02796466666666, "fusion_lon": 0.0, "is_disabled": 0, "fusion_lat": 0.0, "bike_id": "5b5aa5738810943769684e08920dd862", "rental_uris": {"ios": "https://dc.lft.to/lastmile_qr_scan", "android": "https://dc.lft.to/lastmile_qr_scan"}}, {"name": "eb6073f923d3debc3172ab1568d5436b", "type": "electric_bike", "lat": 38.930559333333335, "is_reserved": 0, "lon": -76.9732815, "fusion_lon": 0.0, "is_disabled": 0, "fusion_lat": 0.0, "bike_id": "eb6073f923d3debc3172ab1568d5436b", "rental_uris": {"ios": "https://dc.lft.to/lastmile_qr_scan", "android": "https://dc.lft.to/lastmile_qr_scan"}}, {"name": "669f9eb72afa22daefa02d081f90f143", "type": "electric_scooter", "lat": 38.9300125, "is_reserved": 0, "lon": -77.05548216666666, "fusion_lon": 0.0, "is_disabled": 0, "fusion_lat": 0.0, "bike_id": "669f9eb72afa22daefa02d081f90f143", "rental_uris": {"ios": "https://dc.lft.to/lastmile_qr_scan", "android": "https://dc.lft.to/lastmile_qr_scan"}}, {"name": "ca4f8e0a432cb8ed74a13bd595a554ca", "type": "electric_scooter", "lat": 38.898492833333336, "is_reserved": 0, "lon": -77.026815, "fusion_lon": 0.0, "is_disabled": 0, "fusion_lat": 0.0, "bike_id": "ca4f8e0a432cb8ed74a13bd595a554ca", "rental_uris": {"ios": "https://dc.lft.to/lastmile_qr_scan", "android": "https://dc.lft.to/lastmile_qr_scan"}}, {"name": "bb72c6a68dbed38c2de0d0da49be690e", "type": "electric_scooter", "lat": 38.88337833333333, "is_reserved": 0, "lon": -76.99350533333333, "fusion_lon": 0.0, "is_disabled": 0, "fusion_lat": 0.0, "bike_id": "bb72c6a68dbed38c2de0d0da49be690e", "rental_uris": {"ios": "https://dc.lft.to/lastmile_qr_scan", "android": "https://dc.lft.to/lastmile_qr_scan"}}, {"name": "23a8d0817a1ef999d376be3729c12fe9", "type": "electric_scooter", "lat": 38.92409, "is_reserved": 0, "lon": -77.01972183333334, "fusion_lon": 0.0, "is_disabled": 0, "fusion_lat": 0.0, "bike_id": "23a8d0817a1ef999d376be3729c12fe9", "rental_uris": {"ios": "https://dc.lft.to/lastmile_qr_scan", "android": "https://dc.lft.to/lastmile_qr_scan"}}, {"name": "9c177e8931890c62a5e8ac96b32586ee", "type": "electric_scooter", "lat": 38.91711516666667, "is_reserved": 0, "lon": -77.025513, "fusion_lon": 0.0, "is_disabled": 0, "fusion_lat": 0.0, "bike_id": "9c177e8931890c62a5e8ac96b32586ee", "rental_uris": {"ios": "https://dc.lft.to/lastmile_qr_scan", "android": "https://dc.lft.to/lastmile_qr_scan"}}, {"name": "4f10986c05544486fcca42f16fdd4696", "type": "electric_scooter", "lat": 38.88775866666667, "is_reserved": 0, "lon": -77.03141216666667, "fusion_lon": 0.0, "is_disabled": 0, "fusion_lat": 0.0, "bike_id": "4f10986c05544486fcca42f16fdd4696", "rental_uris": {"ios": "https://dc.lft.to/lastmile_qr_scan", "android": "https://dc.lft.to/lastmile_qr_scan"}}, {"name": "2e1b2b59c00a79b810e9504344ee4d2e", "type": "electric_scooter", "lat": 38.88741383333333, "is_reserved": 0, "lon": -77.02028166666666, "fusion_lon": 0.0, "is_disabled": 0, "fusion_lat": 0.0, "bike_id": "2e1b2b59c00a79b810e9504344ee4d2e", "rental_uris": {"ios": "https://dc.lft.to/lastmile_qr_scan", "android": "https://dc.lft.to/lastmile_qr_scan"}}, {"name": "cefb39e3f76236c6f10c2ab899c01100", "type": "electric_scooter", "lat": 38.925777833333335, "is_reserved": 0, "lon": -77.03918766666666, "fusion_lon": 0.0, "is_disabled": 0, "fusion_lat": 0.0, "bike_id": "cefb39e3f76236c6f10c2ab899c01100", "rental_uris": {"ios": "https://dc.lft.to/lastmile_qr_scan", "android": "https://dc.lft.to/lastmile_qr_scan"}}, {"name": "ba458062b3d4a8204951b11f04f792d8", "type": "electric_scooter", "lat": 38.883260666666665, "is_reserved": 0, "lon": -77.0173925, "fusion_lon": 0.0, "is_disabled": 0, "fusion_lat": 0.0, "bike_id": "ba458062b3d4a8204951b11f04f792d8", "rental_uris": {"ios": "https://dc.lft.to/lastmile_qr_scan", "android": "https://dc.lft.to/lastmile_qr_scan"}}, {"name": "cbd0381dc4777c777bef10b79154e433", "type": "electric_scooter", "lat": 38.917082, "is_reserved": 0, "lon": -77.0311275, "fusion_lon": 0.0, "is_disabled": 0, "fusion_lat": 0.0, "bike_id": "cbd0381dc4777c777bef10b79154e433", "rental_uris": {"ios": "https://dc.lft.to/lastmile_qr_scan", "android": "https://dc.lft.to/lastmile_qr_scan"}}, {"name": "9cc2b509d6877af4a99cb97e9eabea22", "type": "electric_scooter", "lat": 38.9194, "is_reserved": 0, "lon": -77.0134945, "fusion_lon": 0.0, "is_disabled": 0, "fusion_lat": 0.0, "bike_id": "9cc2b509d6877af4a99cb97e9eabea22", "rental_uris": {"ios": "https://dc.lft.to/lastmile_qr_scan", "android": "https://dc.lft.to/lastmile_qr_scan"}}, {"name": "4a4f5e5b3ed505157b9e94c8a629198e", "type": "electric_scooter", "lat": 38.89676383333333, "is_reserved": 0, "lon": -77.02951983333334, "fusion_lon": 0.0, "is_disabled": 0, "fusion_lat": 0.0, "bike_id": "4a4f5e5b3ed505157b9e94c8a629198e", "rental_uris": {"ios": "https://dc.lft.to/lastmile_qr_scan", "android": "https://dc.lft.to/lastmile_qr_scan"}}, {"name": "710324704e81c822d3577134f252ef8f", "type": "electric_scooter", "lat": 38.89817983333333, "is_reserved": 0, "lon": -77.02933283333333, "fusion_lon": 0.0, "is_disabled": 0, "fusion_lat": 0.0, "bike_id": "710324704e81c822d3577134f252ef8f", "rental_uris": {"ios": "https://dc.lft.to/lastmile_qr_scan", "android": "https://dc.lft.to/lastmile_qr_scan"}}, {"name": "b6eb9a715a9f450fbb169abb7f3f49ef", "type": "electric_scooter", "lat": 38.94434866666667, "is_reserved": 0, "lon": -77.06351683333334, "fusion_lon": 0.0, "is_disabled": 0, "fusion_lat": 0.0, "bike_id": "b6eb9a715a9f450fbb169abb7f3f49ef", "rental_uris": {"ios": "https://dc.lft.to/lastmile_qr_scan", "android": "https://dc.lft.to/lastmile_qr_scan"}}, {"name": "ce925e494840c1d975fe0772987e92b8", "type": "electric_scooter", "lat": 38.92449966666667, "is_reserved": 0, "lon": -77.00211416666667, "fusion_lon": 0.0, "is_disabled": 0, "fusion_lat": 0.0, "bike_id": "ce925e494840c1d975fe0772987e92b8", "rental_uris": {"ios": "https://dc.lft.to/lastmile_qr_scan", "android": "https://dc.lft.to/lastmile_qr_scan"}}, {"name": "6b9f6ea3265dd38e846187787ebfdb76", "type": "electric_scooter", "lat": 38.91425566666667, "is_reserved": 0, "lon": -77.03213783333334, "fusion_lon": 0.0, "is_disabled": 0, "fusion_lat": 0.0, "bike_id": "6b9f6ea3265dd38e846187787ebfdb76", "rental_uris": {"ios": "https://dc.lft.to/lastmile_qr_scan", "android": "https://dc.lft.to/lastmile_qr_scan"}}, {"name": "48fc59674d0735c92f2b7bad3964aa86", "type": "electric_bike", "lat": 38.85531966666667, "is_reserved": 0, "lon": -77.113299, "fusion_lon": 0.0, "is_disabled": 0, "fusion_lat": 0.0, "bike_id": "48fc59674d0735c92f2b7bad3964aa86", "rental_uris": {"ios": "https://dc.lft.to/lastmile_qr_scan", "android": "https://dc.lft.to/lastmile_qr_scan"}}, {"name": "68f63b871bd3d8fa5ddcc6a8986d5136", "type": "electric_scooter", "lat": 38.91622783333333, "is_reserved": 0, "lon": -77.03158666666667, "fusion_lon": 0.0, "is_disabled": 0, "fusion_lat": 0.0, "bike_id": "68f63b871bd3d8fa5ddcc6a8986d5136", "rental_uris": {"ios": "https://dc.lft.to/lastmile_qr_scan", "android": "https://dc.lft.to/lastmile_qr_scan"}}, {"name": "893b56f0d5e3be371cfc13a0a2873ddd", "type": "electric_scooter", "lat": 38.91186833333333, "is_reserved": 0, "lon": -76.99620633333333, "fusion_lon": 0.0, "is_disabled": 0, "fusion_lat": 0.0, "bike_id": "893b56f0d5e3be371cfc13a0a2873ddd", "rental_uris": {"ios": "https://dc.lft.to/lastmile_qr_scan", "android": "https://dc.lft.to/lastmile_qr_scan"}}, {"name": "24ab4db0213e62acbe04e4a30816ad40", "type": "electric_scooter", "lat": 38.8921635, "is_reserved": 0, "lon": -77.04266316666667, "fusion_lon": 0.0, "is_disabled": 0, "fusion_lat": 0.0, "bike_id": "24ab4db0213e62acbe04e4a30816ad40", "rental_uris": {"ios": "https://dc.lft.to/lastmile_qr_scan", "android": "https://dc.lft.to/lastmile_qr_scan"}}, {"name": "831eb052f3ad73abbb384cdc05bba121", "type": "electric_scooter", "lat": 38.903713, "is_reserved": 0, "lon": -77.0316895, "fusion_lon": 0.0, "is_disabled": 0, "fusion_lat": 0.0, "bike_id": "831eb052f3ad73abbb384cdc05bba121", "rental_uris": {"ios": "https://dc.lft.to/lastmile_qr_scan", "android": "https://dc.lft.to/lastmile_qr_scan"}}, {"name": "91eaecd0851f6b7c5aeb0efe13933f19", "type": "electric_scooter", "lat": 38.90572183333333, "is_reserved": 0, "lon": -77.03468833333334, "fusion_lon": 0.0, "is_disabled": 0, "fusion_lat": 0.0, "bike_id": "91eaecd0851f6b7c5aeb0efe13933f19", "rental_uris": {"ios": "https://dc.lft.to/lastmile_qr_scan", "android": "https://dc.lft.to/lastmile_qr_scan"}}, {"name": "78f0db78a34e5c0722a938a638b8c6c3", "type": "electric_scooter", "lat": 38.910077666666666, "is_reserved": 0, "lon": -76.99396966666667, "fusion_lon": 0.0, "is_disabled": 0, "fusion_lat": 0.0, "bike_id": "78f0db78a34e5c0722a938a638b8c6c3", "rental_uris": {"ios": "https://dc.lft.to/lastmile_qr_scan", "android": "https://dc.lft.to/lastmile_qr_scan"}}, {"name": "6585ba5d9ff115206e73562ee8241cdf", "type": "electric_scooter", "lat": 38.93293516666667, "is_reserved": 0, "lon": -77.028012, "fusion_lon": 0.0, "is_disabled": 0, "fusion_lat": 0.0, "bike_id": "6585ba5d9ff115206e73562ee8241cdf", "rental_uris": {"ios": "https://dc.lft.to/lastmile_qr_scan", "android": "https://dc.lft.to/lastmile_qr_scan"}}, {"name": "22b4978bc404652e86f7e208bafafe67", "type": "electric_scooter", "lat": 38.917074166666666, "is_reserved": 0, "lon": -77.03232516666667, "fusion_lon": 0.0, "is_disabled": 0, "fusion_lat": 0.0, "bike_id": "22b4978bc404652e86f7e208bafafe67", "rental_uris": {"ios": "https://dc.lft.to/lastmile_qr_scan", "android": "https://dc.lft.to/lastmile_qr_scan"}}, {"name": "93352fc3fcef9946103ae684490f41a0", "type": "electric_bike", "lat": 38.857941833333335, "is_reserved": 0, "lon": -76.98755666666666, "fusion_lon": 0.0, "is_disabled": 0, "fusion_lat": 0.0, "bike_id": "93352fc3fcef9946103ae684490f41a0", "rental_uris": {"ios": "https://dc.lft.to/lastmile_qr_scan", "android": "https://dc.lft.to/lastmile_qr_scan"}}, {"name": "08e9350a4e7e04cb278f08a7ff745eb7", "type": "electric_scooter", "lat": 38.920274166666665, "is_reserved": 0, "lon": -77.011183, "fusion_lon": 0.0, "is_disabled": 0, "fusion_lat": 0.0, "bike_id": "08e9350a4e7e04cb278f08a7ff745eb7", "rental_uris": {"ios": "https://dc.lft.to/lastmile_qr_scan", "android": "https://dc.lft.to/lastmile_qr_scan"}}, {"name": "24a47e248fed2bfd73d163cee9188ce6", "type": "electric_scooter", "lat": 38.96104833333333, "is_reserved": 0, "lon": -77.02813083333334, "fusion_lon": 0.0, "is_disabled": 0, "fusion_lat": 0.0, "bike_id": "24a47e248fed2bfd73d163cee9188ce6", "rental_uris": {"ios": "https://dc.lft.to/lastmile_qr_scan", "android": "https://dc.lft.to/lastmile_qr_scan"}}, {"name": "72dd079a90e613bb8530aa5f6b60fe4a", "type": "electric_scooter", "lat": 38.9038615, "is_reserved": 0, "lon": -77.0420235, "fusion_lon": 0.0, "is_disabled": 0, "fusion_lat": 0.0, "bike_id": "72dd079a90e613bb8530aa5f6b60fe4a", "rental_uris": {"ios": "https://dc.lft.to/lastmile_qr_scan", "android": "https://dc.lft.to/lastmile_qr_scan"}}, {"name": "014b3f988b84b1e5ee33d931ce08be91", "type": "electric_scooter", "lat": 38.915539833333334, "is_reserved": 0, "lon": -77.07276016666667, "fusion_lon": 0.0, "is_disabled": 0, "fusion_lat": 0.0, "bike_id": "014b3f988b84b1e5ee33d931ce08be91", "rental_uris": {"ios": "https://dc.lft.to/lastmile_qr_scan", "android": "https://dc.lft.to/lastmile_qr_scan"}}, {"name": "04f1681361afef6d7dbf90a54aed0d9d", "type": "electric_scooter", "lat": 38.9104775, "is_reserved": 0, "lon": -77.0168715, "fusion_lon": 0.0, "is_disabled": 0, "fusion_lat": 0.0, "bike_id": "04f1681361afef6d7dbf90a54aed0d9d", "rental_uris": {"ios": "https://dc.lft.to/lastmile_qr_scan", "android": "https://dc.lft.to/lastmile_qr_scan"}}, {"name": "7a070776edf98f7358e69908c0a0ddc3", "type": "electric_scooter", "lat": 38.9197825, "is_reserved": 0, "lon": -77.0414515, "fusion_lon": 0.0, "is_disabled": 0, "fusion_lat": 0.0, "bike_id": "7a070776edf98f7358e69908c0a0ddc3", "rental_uris": {"ios": "https://dc.lft.to/lastmile_qr_scan", "android": "https://dc.lft.to/lastmile_qr_scan"}}, {"name": "3ef4e45ca02f6086d1ba2889754dc6fe", "type": "electric_scooter", "lat": 38.84289616666667, "is_reserved": 0, "lon": -76.999471, "fusion_lon": 0.0, "is_disabled": 0, "fusion_lat": 0.0, "bike_id": "3ef4e45ca02f6086d1ba2889754dc6fe", "rental_uris": {"ios": "https://dc.lft.to/lastmile_qr_scan", "android": "https://dc.lft.to/lastmile_qr_scan"}}, {"name": "37dbeab2bed404b95bb349f3d285d6e1", "type": "electric_scooter", "lat": 38.925723, "is_reserved": 0, "lon": -77.0527385, "fusion_lon": 0.0, "is_disabled": 0, "fusion_lat": 0.0, "bike_id": "37dbeab2bed404b95bb349f3d285d6e1", "rental_uris": {"ios": "https://dc.lft.to/lastmile_qr_scan", "android": "https://dc.lft.to/lastmile_qr_scan"}}, {"name": "d1aacc8616ad30729071eb13aa74fe8a", "type": "electric_scooter", "lat": 38.89219583333333, "is_reserved": 0, "lon": -77.03339133333333, "fusion_lon": 0.0, "is_disabled": 0, "fusion_lat": 0.0, "bike_id": "d1aacc8616ad30729071eb13aa74fe8a", "rental_uris": {"ios": "https://dc.lft.to/lastmile_qr_scan", "android": "https://dc.lft.to/lastmile_qr_scan"}}, {"name": "0ca976ca72f4027ee625fc825a8d9796", "type": "electric_scooter", "lat": 38.924855666666666, "is_reserved": 0, "lon": -77.02142383333333, "fusion_lon": 0.0, "is_disabled": 0, "fusion_lat": 0.0, "bike_id": "0ca976ca72f4027ee625fc825a8d9796", "rental_uris": {"ios": "https://dc.lft.to/lastmile_qr_scan", "android": "https://dc.lft.to/lastmile_qr_scan"}}, {"name": "3bb9abec10de14a61698460c7e3c55fd", "type": "electric_scooter", "lat": 38.90420733333333, "is_reserved": 0, "lon": -77.02948566666667, "fusion_lon": 0.0, "is_disabled": 0, "fusion_lat": 0.0, "bike_id": "3bb9abec10de14a61698460c7e3c55fd", "rental_uris": {"ios": "https://dc.lft.to/lastmile_qr_scan", "android": "https://dc.lft.to/lastmile_qr_scan"}}, {"name": "effaa6f73245a3c9cf538c367496f9ae", "type": "electric_scooter", "lat": 38.904553166666666, "is_reserved": 0, "lon": -76.99507, "fusion_lon": 0.0, "is_disabled": 0, "fusion_lat": 0.0, "bike_id": "effaa6f73245a3c9cf538c367496f9ae", "rental_uris": {"ios": "https://dc.lft.to/lastmile_qr_scan", "android": "https://dc.lft.to/lastmile_qr_scan"}}, {"name": "125b7038eb63113f01a7e121856e4424", "type": "electric_scooter", "lat": 38.887207833333335, "is_reserved": 0, "lon": -77.02826283333333, "fusion_lon": 0.0, "is_disabled": 0, "fusion_lat": 0.0, "bike_id": "125b7038eb63113f01a7e121856e4424", "rental_uris": {"ios": "https://dc.lft.to/lastmile_qr_scan", "android": "https://dc.lft.to/lastmile_qr_scan"}}, {"name": "358983eab5e5d32e0f1925ce3843f56f", "type": "electric_scooter", "lat": 38.922965833333336, "is_reserved": 0, "lon": -77.04147733333333, "fusion_lon": 0.0, "is_disabled": 0, "fusion_lat": 0.0, "bike_id": "358983eab5e5d32e0f1925ce3843f56f", "rental_uris": {"ios": "https://dc.lft.to/lastmile_qr_scan", "android": "https://dc.lft.to/lastmile_qr_scan"}}, {"name": "216a1622c7c5d87c65282f25ef1ab75e", "type": "electric_scooter", "lat": 38.896268166666665, "is_reserved": 0, "lon": -77.03228616666667, "fusion_lon": 0.0, "is_disabled": 0, "fusion_lat": 0.0, "bike_id": "216a1622c7c5d87c65282f25ef1ab75e", "rental_uris": {"ios": "https://dc.lft.to/lastmile_qr_scan", "android": "https://dc.lft.to/lastmile_qr_scan"}}, {"name": "35f8ab2321cf5daee2430eb3b6869a7d", "type": "electric_scooter", "lat": 38.8960495, "is_reserved": 0, "lon": -77.04511683333334, "fusion_lon": 0.0, "is_disabled": 0, "fusion_lat": 0.0, "bike_id": "35f8ab2321cf5daee2430eb3b6869a7d", "rental_uris": {"ios": "https://dc.lft.to/lastmile_qr_scan", "android": "https://dc.lft.to/lastmile_qr_scan"}}, {"name": "e65fac73b75e3ce107693a973c351d8f", "type": "electric_scooter", "lat": 38.96818433333333, "is_reserved": 0, "lon": -77.0178805, "fusion_lon": 0.0, "is_disabled": 0, "fusion_lat": 0.0, "bike_id": "e65fac73b75e3ce107693a973c351d8f", "rental_uris": {"ios": "https://dc.lft.to/lastmile_qr_scan", "android": "https://dc.lft.to/lastmile_qr_scan"}}, {"name": "667dfbde63552195012b1545730f5fdc", "type": "electric_scooter", "lat": 38.93972866666667, "is_reserved": 0, "lon": -77.0358695, "fusion_lon": 0.0, "is_disabled": 0, "fusion_lat": 0.0, "bike_id": "667dfbde63552195012b1545730f5fdc", "rental_uris": {"ios": "https://dc.lft.to/lastmile_qr_scan", "android": "https://dc.lft.to/lastmile_qr_scan"}}, {"name": "530984cb4f80c57ebf49e46e4406217a", "type": "electric_scooter", "lat": 38.9324695, "is_reserved": 0, "lon": -77.03281616666666, "fusion_lon": 0.0, "is_disabled": 0, "fusion_lat": 0.0, "bike_id": "530984cb4f80c57ebf49e46e4406217a", "rental_uris": {"ios": "https://dc.lft.to/lastmile_qr_scan", "android": "https://dc.lft.to/lastmile_qr_scan"}}, {"name": "df77240c90d1b4513484d02ace94f0d4", "type": "electric_scooter", "lat": 38.861996166666664, "is_reserved": 0, "lon": -76.99467983333334, "fusion_lon": 0.0, "is_disabled": 0, "fusion_lat": 0.0, "bike_id": "df77240c90d1b4513484d02ace94f0d4", "rental_uris": {"ios": "https://dc.lft.to/lastmile_qr_scan", "android": "https://dc.lft.to/lastmile_qr_scan"}}, {"name": "0356020f4dd18937f6db4320085d9def", "type": "electric_scooter", "lat": 38.914236, "is_reserved": 0, "lon": -77.03908316666667, "fusion_lon": 0.0, "is_disabled": 0, "fusion_lat": 0.0, "bike_id": "0356020f4dd18937f6db4320085d9def", "rental_uris": {"ios": "https://dc.lft.to/lastmile_qr_scan", "android": "https://dc.lft.to/lastmile_qr_scan"}}, {"name": "3644f4126dc1302903c1b4bde612eea2", "type": "electric_scooter", "lat": 38.929726333333335, "is_reserved": 0, "lon": -77.03270666666667, "fusion_lon": 0.0, "is_disabled": 0, "fusion_lat": 0.0, "bike_id": "3644f4126dc1302903c1b4bde612eea2", "rental_uris": {"ios": "https://dc.lft.to/lastmile_qr_scan", "android": "https://dc.lft.to/lastmile_qr_scan"}}, {"name": "286f93910108bd7bc10577c4577949c8", "type": "electric_scooter", "lat": 38.90025083333333, "is_reserved": 0, "lon": -77.01156516666667, "fusion_lon": 0.0, "is_disabled": 0, "fusion_lat": 0.0, "bike_id": "286f93910108bd7bc10577c4577949c8", "rental_uris": {"ios": "https://dc.lft.to/lastmile_qr_scan", "android": "https://dc.lft.to/lastmile_qr_scan"}}, {"name": "a1fe4ee392a3ee406469f757ff4963e0", "type": "electric_scooter", "lat": 38.877334833333336, "is_reserved": 0, "lon": -76.97285633333334, "fusion_lon": 0.0, "is_disabled": 0, "fusion_lat": 0.0, "bike_id": "a1fe4ee392a3ee406469f757ff4963e0", "rental_uris": {"ios": "https://dc.lft.to/lastmile_qr_scan", "android": "https://dc.lft.to/lastmile_qr_scan"}}, {"name": "7d710b5865031197506c890ebe411f38", "type": "electric_scooter", "lat": 38.948302, "is_reserved": 0, "lon": -77.02551266666667, "fusion_lon": 0.0, "is_disabled": 0, "fusion_lat": 0.0, "bike_id": "7d710b5865031197506c890ebe411f38", "rental_uris": {"ios": "https://dc.lft.to/lastmile_qr_scan", "android": "https://dc.lft.to/lastmile_qr_scan"}}, {"name": "a2daad0b94850efc0f26a34a6faf204e", "type": "electric_scooter", "lat": 38.90381516666667, "is_reserved": 0, "lon": -77.01750983333334, "fusion_lon": 0.0, "is_disabled": 0, "fusion_lat": 0.0, "bike_id": "a2daad0b94850efc0f26a34a6faf204e", "rental_uris": {"ios": "https://dc.lft.to/lastmile_qr_scan", "android": "https://dc.lft.to/lastmile_qr_scan"}}, {"name": "ffd151199582dce67ebf07d0bd82e905", "type": "electric_scooter", "lat": 38.93497883333333, "is_reserved": 0, "lon": -77.027263, "fusion_lon": 0.0, "is_disabled": 0, "fusion_lat": 0.0, "bike_id": "ffd151199582dce67ebf07d0bd82e905", "rental_uris": {"ios": "https://dc.lft.to/lastmile_qr_scan", "android": "https://dc.lft.to/lastmile_qr_scan"}}, {"name": "85d8af034b2387ea2fd4f608a35cd2ba", "type": "electric_scooter", "lat": 38.90447433333333, "is_reserved": 0, "lon": -77.02897266666666, "fusion_lon": 0.0, "is_disabled": 0, "fusion_lat": 0.0, "bike_id": "85d8af034b2387ea2fd4f608a35cd2ba", "rental_uris": {"ios": "https://dc.lft.to/lastmile_qr_scan", "android": "https://dc.lft.to/lastmile_qr_scan"}}, {"name": "9a640e0fc2e6fc5caf90a9090fb2b0d4", "type": "electric_scooter", "lat": 38.894794, "is_reserved": 0, "lon": -77.05017666666667, "fusion_lon": 0.0, "is_disabled": 0, "fusion_lat": 0.0, "bike_id": "9a640e0fc2e6fc5caf90a9090fb2b0d4", "rental_uris": {"ios": "https://dc.lft.to/lastmile_qr_scan", "android": "https://dc.lft.to/lastmile_qr_scan"}}, {"name": "a962b3091faaff5575b930e7da7fee33", "type": "electric_bike", "lat": 38.90332733333334, "is_reserved": 0, "lon": -77.04509683333333, "fusion_lon": 0.0, "is_disabled": 0, "fusion_lat": 0.0, "bike_id": "a962b3091faaff5575b930e7da7fee33", "rental_uris": {"ios": "https://dc.lft.to/lastmile_qr_scan", "android": "https://dc.lft.to/lastmile_qr_scan"}}, {"name": "ab6c67fbc9c2aaf6455f1c077951bda6", "type": "electric_scooter", "lat": 38.924458, "is_reserved": 0, "lon": -76.99332733333334, "fusion_lon": 0.0, "is_disabled": 0, "fusion_lat": 0.0, "bike_id": "ab6c67fbc9c2aaf6455f1c077951bda6", "rental_uris": {"ios": "https://dc.lft.to/lastmile_qr_scan", "android": "https://dc.lft.to/lastmile_qr_scan"}}, {"name": "5608022e84e62cab3be6052594c230e7", "type": "electric_bike", "lat": 38.961266, "is_reserved": 0, "lon": -77.032721, "fusion_lon": 0.0, "is_disabled": 0, "fusion_lat": 0.0, "bike_id": "5608022e84e62cab3be6052594c230e7", "rental_uris": {"ios": "https://dc.lft.to/lastmile_qr_scan", "android": "https://dc.lft.to/lastmile_qr_scan"}}, {"name": "6222e297c4f77c79c38db25ea0814f56", "type": "electric_scooter", "lat": 38.87861633333333, "is_reserved": 0, "lon": -77.02310466666667, "fusion_lon": 0.0, "is_disabled": 0, "fusion_lat": 0.0, "bike_id": "6222e297c4f77c79c38db25ea0814f56", "rental_uris": {"ios": "https://dc.lft.to/lastmile_qr_scan", "android": "https://dc.lft.to/lastmile_qr_scan"}}, {"name": "3e23a09a7760ca607bf77e7a7427b7a6", "type": "electric_scooter", "lat": 38.94391016666667, "is_reserved": 0, "lon": -77.038986, "fusion_lon": 0.0, "is_disabled": 0, "fusion_lat": 0.0, "bike_id": "3e23a09a7760ca607bf77e7a7427b7a6", "rental_uris": {"ios": "https://dc.lft.to/lastmile_qr_scan", "android": "https://dc.lft.to/lastmile_qr_scan"}}, {"name": "252ea63e69aad189158c796ad3e472d4", "type": "electric_scooter", "lat": 38.9148905, "is_reserved": 0, "lon": -77.042143, "fusion_lon": 0.0, "is_disabled": 0, "fusion_lat": 0.0, "bike_id": "252ea63e69aad189158c796ad3e472d4", "rental_uris": {"ios": "https://dc.lft.to/lastmile_qr_scan", "android": "https://dc.lft.to/lastmile_qr_scan"}}, {"name": "30b450c13f7b3b613a54def09d5d2e04", "type": "electric_scooter", "lat": 38.92585016666666, "is_reserved": 0, "lon": -77.03991066666667, "fusion_lon": 0.0, "is_disabled": 0, "fusion_lat": 0.0, "bike_id": "30b450c13f7b3b613a54def09d5d2e04", "rental_uris": {"ios": "https://dc.lft.to/lastmile_qr_scan", "android": "https://dc.lft.to/lastmile_qr_scan"}}, {"name": "aa9e99689a4bb25f329dcc2fb122f7ce", "type": "electric_scooter", "lat": 38.917364166666665, "is_reserved": 0, "lon": -77.01029666666666, "fusion_lon": 0.0, "is_disabled": 0, "fusion_lat": 0.0, "bike_id": "aa9e99689a4bb25f329dcc2fb122f7ce", "rental_uris": {"ios": "https://dc.lft.to/lastmile_qr_scan", "android": "https://dc.lft.to/lastmile_qr_scan"}}, {"name": "78409c10f8689bead9986f505313cfeb", "type": "electric_scooter", "lat": 38.915516333333336, "is_reserved": 0, "lon": -77.0461375, "fusion_lon": 0.0, "is_disabled": 0, "fusion_lat": 0.0, "bike_id": "78409c10f8689bead9986f505313cfeb", "rental_uris": {"ios": "https://dc.lft.to/lastmile_qr_scan", "android": "https://dc.lft.to/lastmile_qr_scan"}}, {"name": "d4abfdc26d27d7bf31de9f5f4437f021", "type": "electric_scooter", "lat": 38.89873433333333, "is_reserved": 0, "lon": -76.9315955, "fusion_lon": 0.0, "is_disabled": 0, "fusion_lat": 0.0, "bike_id": "d4abfdc26d27d7bf31de9f5f4437f021", "rental_uris": {"ios": "https://dc.lft.to/lastmile_qr_scan", "android": "https://dc.lft.to/lastmile_qr_scan"}}, {"name": "a1c908671959f0c811b7ac301caac1f1", "type": "electric_scooter", "lat": 38.90881816666667, "is_reserved": 0, "lon": -77.00569916666667, "fusion_lon": 0.0, "is_disabled": 0, "fusion_lat": 0.0, "bike_id": "a1c908671959f0c811b7ac301caac1f1", "rental_uris": {"ios": "https://dc.lft.to/lastmile_qr_scan", "android": "https://dc.lft.to/lastmile_qr_scan"}}, {"name": "e04646c862838c2c874e19d273ae0790", "type": "electric_scooter", "lat": 38.901077, "is_reserved": 0, "lon": -77.04370166666666, "fusion_lon": 0.0, "is_disabled": 0, "fusion_lat": 0.0, "bike_id": "e04646c862838c2c874e19d273ae0790", "rental_uris": {"ios": "https://dc.lft.to/lastmile_qr_scan", "android": "https://dc.lft.to/lastmile_qr_scan"}}, {"name": "4f81f416b1f600ae78e37f5395b7697c", "type": "electric_scooter", "lat": 38.915681, "is_reserved": 0, "lon": -77.02286233333334, "fusion_lon": 0.0, "is_disabled": 0, "fusion_lat": 0.0, "bike_id": "4f81f416b1f600ae78e37f5395b7697c", "rental_uris": {"ios": "https://dc.lft.to/lastmile_qr_scan", "android": "https://dc.lft.to/lastmile_qr_scan"}}, {"name": "0fdc5a079ba06f03bf7f4dfbcd913883", "type": "electric_scooter", "lat": 38.86533766666667, "is_reserved": 0, "lon": -76.9870615, "fusion_lon": 0.0, "is_disabled": 0, "fusion_lat": 0.0, "bike_id": "0fdc5a079ba06f03bf7f4dfbcd913883", "rental_uris": {"ios": "https://dc.lft.to/lastmile_qr_scan", "android": "https://dc.lft.to/lastmile_qr_scan"}}, {"name": "ffca34d1a9412ef290ad93d0a257ffd7", "type": "electric_bike", "lat": 38.938833, "is_reserved": 0, "lon": -76.95412383333333, "fusion_lon": 0.0, "is_disabled": 0, "fusion_lat": 0.0, "bike_id": "ffca34d1a9412ef290ad93d0a257ffd7", "rental_uris": {"ios": "https://dc.lft.to/lastmile_qr_scan", "android": "https://dc.lft.to/lastmile_qr_scan"}}, {"name": "6364ff13f9c52fb79befbb14ed0fcd92", "type": "electric_bike", "lat": 39.0885545, "is_reserved": 0, "lon": -77.178449, "fusion_lon": 0.0, "is_disabled": 0, "fusion_lat": 0.0, "bike_id": "6364ff13f9c52fb79befbb14ed0fcd92", "rental_uris": {"ios": "https://dc.lft.to/lastmile_qr_scan", "android": "https://dc.lft.to/lastmile_qr_scan"}}, {"name": "d10fc1053067288ad0617803a2895604", "type": "electric_bike", "lat": 38.953270833333335, "is_reserved": 0, "lon": -77.0095795, "fusion_lon": 0.0, "is_disabled": 0, "fusion_lat": 0.0, "bike_id": "d10fc1053067288ad0617803a2895604", "rental_uris": {"ios": "https://dc.lft.to/lastmile_qr_scan", "android": "https://dc.lft.to/lastmile_qr_scan"}}, {"name": "6ea5b464941adca26e1d3d7e0bdccccb", "type": "electric_scooter", "lat": 38.957472833333334, "is_reserved": 0, "lon": -77.02416916666667, "fusion_lon": 0.0, "is_disabled": 0, "fusion_lat": 0.0, "bike_id": "6ea5b464941adca26e1d3d7e0bdccccb", "rental_uris": {"ios": "https://dc.lft.to/lastmile_qr_scan", "android": "https://dc.lft.to/lastmile_qr_scan"}}, {"name": "d951132cb477a41b8eeb51efdf013976", "type": "electric_scooter", "lat": 38.907249, "is_reserved": 0, "lon": -77.04357783333333, "fusion_lon": 0.0, "is_disabled": 0, "fusion_lat": 0.0, "bike_id": "d951132cb477a41b8eeb51efdf013976", "rental_uris": {"ios": "https://dc.lft.to/lastmile_qr_scan", "android": "https://dc.lft.to/lastmile_qr_scan"}}, {"name": "82ab35191c900997e0fa1880f96f8960", "type": "electric_scooter", "lat": 38.9564665, "is_reserved": 0, "lon": -77.032902, "fusion_lon": 0.0, "is_disabled": 0, "fusion_lat": 0.0, "bike_id": "82ab35191c900997e0fa1880f96f8960", "rental_uris": {"ios": "https://dc.lft.to/lastmile_qr_scan", "android": "https://dc.lft.to/lastmile_qr_scan"}}, {"name": "4ae21703ae7702a70a3f0af5337c2c6a", "type": "electric_scooter", "lat": 38.906557166666666, "is_reserved": 0, "lon": -77.0514665, "fusion_lon": 0.0, "is_disabled": 0, "fusion_lat": 0.0, "bike_id": "4ae21703ae7702a70a3f0af5337c2c6a", "rental_uris": {"ios": "https://dc.lft.to/lastmile_qr_scan", "android": "https://dc.lft.to/lastmile_qr_scan"}}, {"name": "55d777ea5306343f6e79d85bdf51e376", "type": "electric_scooter", "lat": 38.902543333333334, "is_reserved": 0, "lon": -77.0175565, "fusion_lon": 0.0, "is_disabled": 0, "fusion_lat": 0.0, "bike_id": "55d777ea5306343f6e79d85bdf51e376", "rental_uris": {"ios": "https://dc.lft.to/lastmile_qr_scan", "android": "https://dc.lft.to/lastmile_qr_scan"}}, {"name": "a4f69c9a8cdba9b61af965a3fafba22d", "type": "electric_bike", "lat": 38.928523, "is_reserved": 0, "lon": -77.22216033333333, "fusion_lon": 0.0, "is_disabled": 0, "fusion_lat": 0.0, "bike_id": "a4f69c9a8cdba9b61af965a3fafba22d", "rental_uris": {"ios": "https://dc.lft.to/lastmile_qr_scan", "android": "https://dc.lft.to/lastmile_qr_scan"}}, {"name": "81937c354ee9ac1d9055f5a682a77054", "type": "electric_scooter", "lat": 38.93540016666667, "is_reserved": 0, "lon": -77.03417016666667, "fusion_lon": 0.0, "is_disabled": 0, "fusion_lat": 0.0, "bike_id": "81937c354ee9ac1d9055f5a682a77054", "rental_uris": {"ios": "https://dc.lft.to/lastmile_qr_scan", "android": "https://dc.lft.to/lastmile_qr_scan"}}, {"name": "3c4eda07d1074396fd7ca15cf7c4294b", "type": "electric_scooter", "lat": 38.88493783333333, "is_reserved": 0, "lon": -77.00895466666667, "fusion_lon": 0.0, "is_disabled": 0, "fusion_lat": 0.0, "bike_id": "3c4eda07d1074396fd7ca15cf7c4294b", "rental_uris": {"ios": "https://dc.lft.to/lastmile_qr_scan", "android": "https://dc.lft.to/lastmile_qr_scan"}}, {"name": "eef662f5045a3d6c64f4f664dd785ec3", "type": "electric_bike", "lat": 38.948281, "is_reserved": 0, "lon": -77.0390225, "fusion_lon": 0.0, "is_disabled": 0, "fusion_lat": 0.0, "bike_id": "eef662f5045a3d6c64f4f664dd785ec3", "rental_uris": {"ios": "https://dc.lft.to/lastmile_qr_scan", "android": "https://dc.lft.to/lastmile_qr_scan"}}, {"name": "b861e1ca12ac1992870b441e81cb07f2", "type": "electric_scooter", "lat": 38.894638666666665, "is_reserved": 0, "lon": -77.03069383333333, "fusion_lon": 0.0, "is_disabled": 0, "fusion_lat": 0.0, "bike_id": "b861e1ca12ac1992870b441e81cb07f2", "rental_uris": {"ios": "https://dc.lft.to/lastmile_qr_scan", "android": "https://dc.lft.to/lastmile_qr_scan"}}, {"name": "e4a230d3367f3f150bb9cf3270b42d40", "type": "electric_scooter", "lat": 38.907303166666665, "is_reserved": 0, "lon": -77.03448116666667, "fusion_lon": 0.0, "is_disabled": 0, "fusion_lat": 0.0, "bike_id": "e4a230d3367f3f150bb9cf3270b42d40", "rental_uris": {"ios": "https://dc.lft.to/lastmile_qr_scan", "android": "https://dc.lft.to/lastmile_qr_scan"}}, {"name": "9945f6719c7b3ee5a165b36712a0dd8c", "type": "electric_scooter", "lat": 38.93622, "is_reserved": 0, "lon": -77.03694566666667, "fusion_lon": 0.0, "is_disabled": 0, "fusion_lat": 0.0, "bike_id": "9945f6719c7b3ee5a165b36712a0dd8c", "rental_uris": {"ios": "https://dc.lft.to/lastmile_qr_scan", "android": "https://dc.lft.to/lastmile_qr_scan"}}, {"name": "68e2e07569ff3b0ae472be87a950b661", "type": "electric_scooter", "lat": 38.91212316666667, "is_reserved": 0, "lon": -77.0761055, "fusion_lon": 0.0, "is_disabled": 0, "fusion_lat": 0.0, "bike_id": "68e2e07569ff3b0ae472be87a950b661", "rental_uris": {"ios": "https://dc.lft.to/lastmile_qr_scan", "android": "https://dc.lft.to/lastmile_qr_scan"}}, {"name": "ac99b13f8cc441c50951cff131f69ecc", "type": "electric_scooter", "lat": 38.90599066666667, "is_reserved": 0, "lon": -77.04044816666666, "fusion_lon": 0.0, "is_disabled": 0, "fusion_lat": 0.0, "bike_id": "ac99b13f8cc441c50951cff131f69ecc", "rental_uris": {"ios": "https://dc.lft.to/lastmile_qr_scan", "android": "https://dc.lft.to/lastmile_qr_scan"}}, {"name": "5cdd3a6c046176a22db905af994b9083", "type": "electric_scooter", "lat": 38.93902666666666, "is_reserved": 0, "lon": -77.07733316666666, "fusion_lon": 0.0, "is_disabled": 0, "fusion_lat": 0.0, "bike_id": "5cdd3a6c046176a22db905af994b9083", "rental_uris": {"ios": "https://dc.lft.to/lastmile_qr_scan", "android": "https://dc.lft.to/lastmile_qr_scan"}}, {"name": "786480fe6962324a53756057e39a0431", "type": "electric_scooter", "lat": 38.933743666666665, "is_reserved": 0, "lon": -77.03464233333334, "fusion_lon": 0.0, "is_disabled": 0, "fusion_lat": 0.0, "bike_id": "786480fe6962324a53756057e39a0431", "rental_uris": {"ios": "https://dc.lft.to/lastmile_qr_scan", "android": "https://dc.lft.to/lastmile_qr_scan"}}, {"name": "4a2e49b2e82936d5550cb6d2d3253172", "type": "electric_scooter", "lat": 38.90007683333333, "is_reserved": 0, "lon": -76.99119583333334, "fusion_lon": 0.0, "is_disabled": 0, "fusion_lat": 0.0, "bike_id": "4a2e49b2e82936d5550cb6d2d3253172", "rental_uris": {"ios": "https://dc.lft.to/lastmile_qr_scan", "android": "https://dc.lft.to/lastmile_qr_scan"}}, {"name": "6fe9ecfb3690affe27108f1664b9663e", "type": "electric_scooter", "lat": 38.925816, "is_reserved": 0, "lon": -77.00473266666667, "fusion_lon": 0.0, "is_disabled": 0, "fusion_lat": 0.0, "bike_id": "6fe9ecfb3690affe27108f1664b9663e", "rental_uris": {"ios": "https://dc.lft.to/lastmile_qr_scan", "android": "https://dc.lft.to/lastmile_qr_scan"}}, {"name": "5b8ef13b63e5b664bff5ff477cb76885", "type": "electric_scooter", "lat": 38.89901666666667, "is_reserved": 0, "lon": -77.032887, "fusion_lon": 0.0, "is_disabled": 0, "fusion_lat": 0.0, "bike_id": "5b8ef13b63e5b664bff5ff477cb76885", "rental_uris": {"ios": "https://dc.lft.to/lastmile_qr_scan", "android": "https://dc.lft.to/lastmile_qr_scan"}}, {"name": "2bdc96c911347ddcab9a7f376c44ffe6", "type": "electric_scooter", "lat": 38.9026215, "is_reserved": 0, "lon": -77.04613516666667, "fusion_lon": 0.0, "is_disabled": 0, "fusion_lat": 0.0, "bike_id": "2bdc96c911347ddcab9a7f376c44ffe6", "rental_uris": {"ios": "https://dc.lft.to/lastmile_qr_scan", "android": "https://dc.lft.to/lastmile_qr_scan"}}, {"name": "d6d6f4535e1cb1408250190b2701f2b1", "type": "electric_scooter", "lat": 38.935842666666666, "is_reserved": 0, "lon": -77.02764416666666, "fusion_lon": 0.0, "is_disabled": 0, "fusion_lat": 0.0, "bike_id": "d6d6f4535e1cb1408250190b2701f2b1", "rental_uris": {"ios": "https://dc.lft.to/lastmile_qr_scan", "android": "https://dc.lft.to/lastmile_qr_scan"}}, {"name": "96db6115951f4b3ac824de703c034bc2", "type": "electric_bike", "lat": 38.8681635, "is_reserved": 0, "lon": -76.980314, "fusion_lon": 0.0, "is_disabled": 0, "fusion_lat": 0.0, "bike_id": "96db6115951f4b3ac824de703c034bc2", "rental_uris": {"ios": "https://dc.lft.to/lastmile_qr_scan", "android": "https://dc.lft.to/lastmile_qr_scan"}}, {"name": "0f5de95110dd45ca7cd59bb68f0f7306", "type": "electric_scooter", "lat": 38.8766535, "is_reserved": 0, "lon": -77.0044305, "fusion_lon": 0.0, "is_disabled": 0, "fusion_lat": 0.0, "bike_id": "0f5de95110dd45ca7cd59bb68f0f7306", "rental_uris": {"ios": "https://dc.lft.to/lastmile_qr_scan", "android": "https://dc.lft.to/lastmile_qr_scan"}}, {"name": "d514eaaa56ce0bf53d64ec58e0ac501b", "type": "electric_scooter", "lat": 38.9042115, "is_reserved": 0, "lon": -77.048506, "fusion_lon": 0.0, "is_disabled": 0, "fusion_lat": 0.0, "bike_id": "d514eaaa56ce0bf53d64ec58e0ac501b", "rental_uris": {"ios": "https://dc.lft.to/lastmile_qr_scan", "android": "https://dc.lft.to/lastmile_qr_scan"}}, {"name": "c21418acffc1781dbfe32669adf4d6ba", "type": "electric_scooter", "lat": 38.890299666666664, "is_reserved": 0, "lon": -76.93626883333333, "fusion_lon": 0.0, "is_disabled": 0, "fusion_lat": 0.0, "bike_id": "c21418acffc1781dbfe32669adf4d6ba", "rental_uris": {"ios": "https://dc.lft.to/lastmile_qr_scan", "android": "https://dc.lft.to/lastmile_qr_scan"}}, {"name": "8b9b21c45a616eb9f621013ecafc3044", "type": "electric_scooter", "lat": 38.8850585, "is_reserved": 0, "lon": -77.015385, "fusion_lon": 0.0, "is_disabled": 0, "fusion_lat": 0.0, "bike_id": "8b9b21c45a616eb9f621013ecafc3044", "rental_uris": {"ios": "https://dc.lft.to/lastmile_qr_scan", "android": "https://dc.lft.to/lastmile_qr_scan"}}, {"name": "202b231dc85de839ceb75bb6d1c5b226", "type": "electric_scooter", "lat": 38.9187345, "is_reserved": 0, "lon": -77.01630533333334, "fusion_lon": 0.0, "is_disabled": 0, "fusion_lat": 0.0, "bike_id": "202b231dc85de839ceb75bb6d1c5b226", "rental_uris": {"ios": "https://dc.lft.to/lastmile_qr_scan", "android": "https://dc.lft.to/lastmile_qr_scan"}}, {"name": "b9e1609aae32ec5c63a25ad2d0cb3814", "type": "electric_scooter", "lat": 38.893376833333335, "is_reserved": 0, "lon": -76.98468466666667, "fusion_lon": 0.0, "is_disabled": 0, "fusion_lat": 0.0, "bike_id": "b9e1609aae32ec5c63a25ad2d0cb3814", "rental_uris": {"ios": "https://dc.lft.to/lastmile_qr_scan", "android": "https://dc.lft.to/lastmile_qr_scan"}}, {"name": "da90a7ee48279b216c93507a2d0d4c41", "type": "electric_scooter", "lat": 38.93285216666666, "is_reserved": 0, "lon": -77.03634616666666, "fusion_lon": 0.0, "is_disabled": 0, "fusion_lat": 0.0, "bike_id": "da90a7ee48279b216c93507a2d0d4c41", "rental_uris": {"ios": "https://dc.lft.to/lastmile_qr_scan", "android": "https://dc.lft.to/lastmile_qr_scan"}}, {"name": "22c19e4a7f1a4bb61929aa3055851c86", "type": "electric_scooter", "lat": 38.913296333333335, "is_reserved": 0, "lon": -77.048669, "fusion_lon": 0.0, "is_disabled": 0, "fusion_lat": 0.0, "bike_id": "22c19e4a7f1a4bb61929aa3055851c86", "rental_uris": {"ios": "https://dc.lft.to/lastmile_qr_scan", "android": "https://dc.lft.to/lastmile_qr_scan"}}, {"name": "d8da1dae1e659654740864d501e7a77f", "type": "electric_scooter", "lat": 38.9263375, "is_reserved": 0, "lon": -77.03791533333333, "fusion_lon": 0.0, "is_disabled": 0, "fusion_lat": 0.0, "bike_id": "d8da1dae1e659654740864d501e7a77f", "rental_uris": {"ios": "https://dc.lft.to/lastmile_qr_scan", "android": "https://dc.lft.to/lastmile_qr_scan"}}, {"name": "eb319e26446c1fdae8c08c675914cfb7", "type": "electric_scooter", "lat": 38.93947283333333, "is_reserved": 0, "lon": -77.0326605, "fusion_lon": 0.0, "is_disabled": 0, "fusion_lat": 0.0, "bike_id": "eb319e26446c1fdae8c08c675914cfb7", "rental_uris": {"ios": "https://dc.lft.to/lastmile_qr_scan", "android": "https://dc.lft.to/lastmile_qr_scan"}}, {"name": "71e1eac19e6965924335ef0ab267d9b2", "type": "electric_scooter", "lat": 38.924860833333334, "is_reserved": 0, "lon": -77.02710116666667, "fusion_lon": 0.0, "is_disabled": 0, "fusion_lat": 0.0, "bike_id": "71e1eac19e6965924335ef0ab267d9b2", "rental_uris": {"ios": "https://dc.lft.to/lastmile_qr_scan", "android": "https://dc.lft.to/lastmile_qr_scan"}},