{"data": {"bikes": [{"lat": 38.84808666666667, "is_disabled": 0, "type": "electric_bike", "lon": -77.07895833333333, "bike_id": "90e24e9e0c0c9dcfba0fda78104def5f", "fusion_lat": 0.0, "name": "90e24e9e0c0c9dcfba0fda78104def5f", "is_reserved": 0, "rental_uris": {"android": "https://dc.lft.to/lastmile_qr_scan", "ios": "https://dc.lft.to/lastmile_qr_scan"}, "fusion_lon": 0.0}, {"lat": 38.90002616666666, "is_disabled": 0, "type": "electric_scooter", "lon": -77.033366, "bike_id": "85352b8cc84c5154c9633a15622c34ff", "fusion_lat": 0.0, "name": "85352b8cc84c5154c9633a15622c34ff", "is_reserved": 0, "rental_uris": {"android": "https://dc.lft.to/lastmile_qr_scan", "ios": "https://dc.lft.to/lastmile_qr_scan"}, "fusion_lon": 0.0}, {"lat": 38.88427633333333, "is_disabled": 0, "type": "electric_scooter", "lon": -76.9575245, "bike_id": "f9ff8115ccffc30af7ebd8f4338e1279", "fusion_lat": 0.0, "name": "f9ff8115ccffc30af7ebd8f4338e1279", "is_reserved": 0, "rental_uris": {"android": "https://dc.lft.to/lastmile_qr_scan", "ios": "https://dc.lft.to/lastmile_qr_scan"}, "fusion_lon": 0.0}, {"lat": 38.89765666666667, "is_disabled": 0, "type": "electric_scooter", "lon": -77.0319575, "bike_id": "7bab0d7d4eae33f008f9bd12070bb7a5", "fusion_lat": 0.0, "name": "7bab0d7d4eae33f008f9bd12070bb7a5", "is_reserved": 0, "rental_uris": {"android": "https://dc.lft.to/lastmile_qr_scan", "ios": "https://dc.lft.to/lastmile_qr_scan"}, "fusion_lon": 0.0}, {"lat": 38.922716666666666, "is_disabled": 0, "type": "electric_scooter", "lon": -77.01966883333333, "bike_id": "a2a25841bf4c45c71046f318123958d2", "fusion_lat": 0.0, "name": "a2a25841bf4c45c71046f318123958d2", "is_reserved": 0, "rental_uris": {"android": "https://dc.lft.to/lastmile_qr_scan", "ios": "https://dc.lft.to/lastmile_qr_scan"}, "fusion_lon": 0.0}, {"lat": 38.90546533333333, "is_disabled": 0, "type": "electric_scooter", "lon": -77.0323985, "bike_id": "2a02332ece64cf3b23b0b2cd5b02022f", "fusion_lat": 0.0, "name": "2a02332ece64cf3b23b0b2cd5b02022f", "is_reserved": 0, "rental_uris": {"android": "https://dc.lft.to/lastmile_qr_scan", "ios": "https://dc.lft.to/lastmile_qr_scan"}, "fusion_lon": 0.0}, {"lat": 38.89763, "is_disabled": 0, "type": "electric_scooter", "lon": -76.94183783333334, "bike_id": "1b3a28f28630e9cd7803bef160172780", "fusion_lat": 0.0, "name": "1b3a28f28630e9cd7803bef160172780", "is_reserved": 0, "rental_uris": {"android": "https://dc.lft.to/lastmile_qr_scan", "ios": "https://dc.lft.to/lastmile_qr_scan"}, "fusion_lon": 0.0}, {"lat": 38.855065833333335, "is_disabled": 0, "type": "electric_bike", "lon": -76.98429, "bike_id": "318d28921700550a31fc11bd72599f5c", "fusion_lat": 0.0, "name": "318d28921700550a31fc11bd72599f5c", "is_reserved": 0, "rental_uris": {"android": "https://dc.lft.to/lastmile_qr_scan", "ios": "https://dc.lft.to/lastmile_qr_scan"}, "fusion_lon": 0.0}, {"lat": 38.9085565, "is_disabled": 0, "type": "electric_scooter", "lon": -77.04635816666666, "bike_id": "58667e4b3fbccb12a8c218941785eed1", "fusion_lat": 0.0, "name": "58667e4b3fbccb12a8c218941785eed1", "is_reserved": 0, "rental_uris": {"android": "https://dc.lft.to/lastmile_qr_scan", "ios": "https://dc.lft.to/lastmile_qr_scan"}, "fusion_lon": 0.0}, {"lat": 38.897534666666665, "is_disabled": 0, "type": "electric_scooter", "lon": -77.03263866666667, "bike_id": "5d6d0ebf6c21db0b2d371aa23794f8f9", "fusion_lat": 0.0, "name": "5d6d0ebf6c21db0b2d371aa23794f8f9", "is_reserved": 0, "rental_uris": {"android": "https://dc.lft.to/lastmile_qr_scan", "ios": "https://dc.lft.to/lastmile_qr_scan"}, "fusion_lon": 0.0}, {"lat": 38.873448833333335, "is_disabled": 0, "type": "electric_scooter", "lon": -76.9916385, "bike_id": "4791c53e0398559b43c182d901b9ccdb", "fusion_lat": 0.0, "name": "4791c53e0398559b43c182d901b9ccdb", "is_reserved": 0, "rental_uris": {"android": "https://dc.lft.to/lastmile_qr_scan", "ios": "https://dc.lft.to/lastmile_qr_scan"}, "fusion_lon": 0.0}, {"lat": 38.89773816666667, "is_disabled": 0, "type": "electric_scooter", "lon": -77.03208966666666, "bike_id": "81398479f4141a7251d641419c15e278", "fusion_lat": 0.0, "name": "81398479f4141a7251d641419c15e278", "is_reserved": 0, "rental_uris": {"android": "https://dc.lft.to/lastmile_qr_scan", "ios": "https://dc.lft.to/lastmile_qr_scan"}, "fusion_lon": 0.0}, {"lat": 38.89266416666667, "is_disabled": 0, "type": "electric_scooter", "lon": -76.94157983333334, "bike_id": "04a927624a89179e3132656b611fb71a", "fusion_lat": 0.0, "name": "04a927624a89179e3132656b611fb71a", "is_reserved": 0, "rental_uris": {"android": "https://dc.lft.to/lastmile_qr_scan", "ios": "https://dc.lft.to/lastmile_qr_scan"}, "fusion_lon": 0.0}, {"lat": 38.90029933333334, "is_disabled": 0, "type": "electric_scooter", "lon": -76.987999, "bike_id": "8b1cfad6580f97e129c72b1964afe6ab", "fusion_lat": 0.0, "name": "8b1cfad6580f97e129c72b1964afe6ab", "is_reserved": 0, "rental_uris": {"android": "https://dc.lft.to/lastmile_qr_scan", "ios": "https://dc.lft.to/lastmile_qr_scan"}, "fusion_lon": 0.0}, {"lat": 38.899167, "is_disabled": 0, "type": "electric_scooter", "lon": -76.933463, "bike_id": "b6c5a5f04b93aae248338798063de675", "fusion_lat": 0.0, "name": "b6c5a5f04b93aae248338798063de675", "is_reserved": 0, "rental_uris": {"android": "https://dc.lft.to/lastmile_qr_scan", "ios": "https://dc.lft.to/lastmile_qr_scan"}, "fusion_lon": 0.0}, {"lat": 38.91270466666667, "is_disabled": 0, "type": "electric_scooter", "lon": -77.03323133333333, "bike_id": "57b1de3b4ef1f3db9eba7d447f399ad8", "fusion_lat": 0.0, "name": "57b1de3b4ef1f3db9eba7d447f399ad8", "is_reserved": 0, "rental_uris": {"android": "https://dc.lft.to/lastmile_qr_scan", "ios": "https://dc.lft.to/lastmile_qr_scan"}, "fusion_lon": 0.0}, {"lat": 38.911659, "is_disabled": 0, "type": "electric_bike", "lon": -77.0364025, "bike_id": "9b684143e62d61e1337fc1a8582313e7", "fusion_lat": 0.0, "name": "9b684143e62d61e1337fc1a8582313e7", "is_reserved": 0, "rental_uris": {"android": "https://dc.lft.to/lastmile_qr_scan", "ios": "https://dc.lft.to/lastmile_qr_scan"}, "fusion_lon": 0.0}, {"lat": 38.90377133333333, "is_disabled": 0, "type": "electric_scooter", "lon": -77.01630116666666, "bike_id": "5976d8be66eb94bcbf78d482188cb2b0", "fusion_lat": 0.0, "name": "5976d8be66eb94bcbf78d482188cb2b0", "is_reserved": 0, "rental_uris": {"android": "https://dc.lft.to/lastmile_qr_scan", "ios": "https://dc.lft.to/lastmile_qr_scan"}, "fusion_lon": 0.0}, {"lat": 38.858103166666666, "is_disabled": 0, "type": "electric_scooter", "lon": -76.9898645, "bike_id": "13f891d4f56e48323d90c60889aecf51", "fusion_lat": 0.0, "name": "13f891d4f56e48323d90c60889aecf51", "is_reserved": 0, "rental_uris": {"android": "https://dc.lft.to/lastmile_qr_scan", "ios": "https://dc.lft.to/lastmile_qr_scan"}, "fusion_lon": 0.0}, {"lat": 38.88516383333334, "is_disabled": 0, "type": "electric_scooter", "lon": -77.03347866666667, "bike_id": "959a961d97a343a0809ff35cc3ca682e", "fusion_lat": 0.0, "name": "959a961d97a343a0809ff35cc3ca682e", "is_reserved": 0, "rental_uris": {"android": "https://dc.lft.to/lastmile_qr_scan", "ios": "https://dc.lft.to/lastmile_qr_scan"}, "fusion_lon": 0.0}, {"lat": 38.91698683333333, "is_disabled": 0, "type": "electric_scooter", "lon": -77.04333283333334, "bike_id": "743de0e89d2dbf115b184c3c8e90c870", "fusion_lat": 0.0, "name": "743de0e89d2dbf115b184c3c8e90c870", "is_reserved": 0, "rental_uris": {"android": "https://dc.lft.to/lastmile_qr_scan", "ios": "https://dc.lft.to/lastmile_qr_scan"}, "fusion_lon": 0.0}, {"lat": 38.897414833333336, "is_disabled": 0, "type": "electric_scooter", "lon": -77.04535833333334, "bike_id": "9acd3bddd30351da87b0d9cd9d5f8ed0", "fusion_lat": 0.0, "name": "9acd3bddd30351da87b0d9cd9d5f8ed0", "is_reserved": 0, "rental_uris": {"android": "https://dc.lft.to/lastmile_qr_scan", "ios": "https://dc.lft.to/lastmile_qr_scan"}, "fusion_lon": 0.0}, {"lat": 38.9398695, "is_disabled": 0, "type": "electric_scooter", "lon": -77.071734, "bike_id": "fdb070aa6d4640b774b3eb8f761f3908", "fusion_lat": 0.0, "name": "fdb070aa6d4640b774b3eb8f761f3908", "is_reserved": 0, "rental_uris": {"android": "https://dc.lft.to/lastmile_qr_scan", "ios": "https://dc.lft.to/lastmile_qr_scan"}, "fusion_lon": 0.0}, {"lat": 38.90538, "is_disabled": 0, "type": "electric_scooter", "lon": -76.98647783333334, "bike_id": "9a3349f8a81c4e91bae538d7eceb5a3f", "fusion_lat": 0.0, "name": "9a3349f8a81c4e91bae538d7eceb5a3f", "is_reserved": 0, "rental_uris": {"android": "https://dc.lft.to/lastmile_qr_scan", "ios": "https://dc.lft.to/lastmile_qr_scan"}, "fusion_lon": 0.0}, {"lat": 38.904319666666666, "is_disabled": 0, "type": "electric_scooter", "lon": -77.020828, "bike_id": "3a72cf8f027e96924f165da6f454d724", "fusion_lat": 0.0, "name": "3a72cf8f027e96924f165da6f454d724", "is_reserved": 0, "rental_uris": {"android": "https://dc.lft.to/lastmile_qr_scan", "ios": "https://dc.lft.to/lastmile_qr_scan"}, "fusion_lon": 0.0}, {"lat": 38.90287933333333, "is_disabled": 0, "type": "electric_scooter", "lon": -77.025883, "bike_id": "e319a8749e9f1326898741aa0b248d24", "fusion_lat": 0.0, "name": "e319a8749e9f1326898741aa0b248d24", "is_reserved": 0, "rental_uris": {"android": "https://dc.lft.to/lastmile_qr_scan", "ios": "https://dc.lft.to/lastmile_qr_scan"}, "fusion_lon": 0.0}, {"lat": 38.94167083333333, "is_disabled": 0, "type": "electric_scooter", "lon": -77.023495, "bike_id": "cc08954fc668854eac7f5f78daed3686", "fusion_lat": 0.0, "name": "cc08954fc668854eac7f5f78daed3686", "is_reserved": 0, "rental_uris": {"android": "https://dc.lft.to/lastmile_qr_scan", "ios": "https://dc.lft.to/lastmile_qr_scan"}, "fusion_lon": 0.0}, {"lat": 38.8937975, "is_disabled": 0, "type": "electric_scooter", "lon": -76.94975966666667, "bike_id": "cd905c2b2fbec2146b8099ebcdfa7de6", "fusion_lat": 0.0, "name": "cd905c2b2fbec2146b8099ebcdfa7de6", "is_reserved": 0, "rental_uris": {"android": "https://dc.lft.to/lastmile_qr_scan", "ios": "https://dc.lft.to/lastmile_qr_scan"}, "fusion_lon": 0.0}, {"lat": 38.84659333333333, "is_disabled": 0, "type": "electric_bike", "lon": -76.97929033333334, "bike_id": "ca4ef73cf7df5af1cc1b281f84c465e2", "fusion_lat": 0.0, "name": "ca4ef73cf7df5af1cc1b281f84c465e2", "is_reserved": 0, "rental_uris": {"android": "https://dc.lft.to/lastmile_qr_scan", "ios": "https://dc.lft.to/lastmile_qr_scan"}, "fusion_lon": 0.0}, {"lat": 38.869125, "is_disabled": 0, "type": "electric_bike", "lon": -77.13175116666666, "bike_id": "8a606a4b76d44e0b85a8f05880ea1488", "fusion_lat": 0.0, "name": "8a606a4b76d44e0b85a8f05880ea1488", "is_reserved": 0, "rental_uris": {"android": "https://dc.lft.to/lastmile_qr_scan", "ios": "https://dc.lft.to/lastmile_qr_scan"}, "fusion_lon": 0.0}, {"lat": 38.925963833333334, "is_disabled": 0, "type": "electric_scooter", "lon": -77.03223983333334, "bike_id": "70189564013e62351ab98bee65a41d4d", "fusion_lat": 0.0, "name": "70189564013e62351ab98bee65a41d4d", "is_reserved": 0, "rental_uris": {"android": "https://dc.lft.to/lastmile_qr_scan", "ios": "https://dc.lft.to/lastmile_qr_scan"}, "fusion_lon": 0.0}, {"lat": 38.8947785, "is_disabled": 0, "type": "electric_scooter", "lon": -77.0211595, "bike_id": "d2e3c1260ff93a05b6041b9744066f54", "fusion_lat": 0.0, "name": "d2e3c1260ff93a05b6041b9744066f54", "is_reserved": 0, "rental_uris": {"android": "https://dc.lft.to/lastmile_qr_scan", "ios": "https://dc.lft.to/lastmile_qr_scan"}, "fusion_lon": 0.0}, {"lat": 38.910512833333335, "is_disabled": 0, "type": "electric_scooter", "lon": -77.01511183333334, "bike_id": "97845b1c4c9ee2e867bbc5746db60d61", "fusion_lat": 0.0, "name": "97845b1c4c9ee2e867bbc5746db60d61", "is_reserved": 0, "rental_uris": {"android": "https://dc.lft.to/lastmile_qr_scan", "ios": "https://dc.lft.to/lastmile_qr_scan"}, "fusion_lon": 0.0}, {"lat": 38.932828, "is_disabled": 0, "type": "electric_scooter", "lon": -77.03972616666667, "bike_id": "b8d689ec24199a005121d7c4397a9629", "fusion_lat": 0.0, "name": "b8d689ec24199a005121d7c4397a9629", "is_reserved": 0, "rental_uris": {"android": "https://dc.lft.to/lastmile_qr_scan", "ios": "https://dc.lft.to/lastmile_qr_scan"}, "fusion_lon": 0.0}, {"lat": 38.9428985, "is_disabled": 0, "type": "electric_scooter", "lon": -77.07713316666667, "bike_id": "3a2f5964461170287defa64a795b4a04", "fusion_lat": 0.0, "name": "3a2f5964461170287defa64a795b4a04", "is_reserved": 0, "rental_uris": {"android": "https://dc.lft.to/lastmile_qr_scan", "ios": "https://dc.lft.to/lastmile_qr_scan"}, "fusion_lon": 0.0}, {"lat": 38.92484016666667, "is_disabled": 0, "type": "electric_scooter", "lon": -77.05207033333333, "bike_id": "a16ac4739a72c1fdec73b2e02aaee0f5", "fusion_lat": 0.0, "name": "a16ac4739a72c1fdec73b2e02aaee0f5", "is_reserved": 0, "rental_uris": {"android": "https://dc.lft.to/lastmile_qr_scan", "ios": "https://dc.lft.to/lastmile_qr_scan"}, "fusion_lon": 0.0}, {"lat": 38.9317515, "is_disabled": 0, "type": "electric_scooter", "lon": -77.02816416666667, "bike_id": "5d2f8efd3b17e858625de8aaf0deedb6", "fusion_lat": 0.0, "name": "5d2f8efd3b17e858625de8aaf0deedb6", "is_reserved": 0, "rental_uris": {"android": "https://dc.lft.to/lastmile_qr_scan", "ios": "https://dc.lft.to/lastmile_qr_scan"}, "fusion_lon": 0.0}, {"lat": 38.894966, "is_disabled": 0, "type": "electric_scooter", "lon": -77.0228345, "bike_id": "0399bccc644985406f4d68ec245d48cc", "fusion_lat": 0.0, "name": "0399bccc644985406f4d68ec245d48cc", "is_reserved": 0, "rental_uris": {"android": "https://dc.lft.to/lastmile_qr_scan", "ios": "https://dc.lft.to/lastmile_qr_scan"}, "fusion_lon": 0.0}, {"lat": 38.91910333333333, "is_disabled": 0, "type": "electric_scooter", "lon": -77.046265, "bike_id": "b8044cb3f0d3f98def5fcbe0f8a4c646", "fusion_lat": 0.0, "name": "b8044cb3f0d3f98def5fcbe0f8a4c646", "is_reserved": 0, "rental_uris": {"android": "https://dc.lft.to/lastmile_qr_scan", "ios": "https://dc.lft.to/lastmile_qr_scan"}, "fusion_lon": 0.0}, {"lat": 38.91211166666667, "is_disabled": 0, "type": "electric_scooter", "lon": -77.03844666666667, "bike_id": "32dd8b858d3cad6b05ea79542ce863bf", "fusion_lat": 0.0, "name": "32dd8b858d3cad6b05ea79542ce863bf", "is_reserved": 0, "rental_uris": {"android": "https://dc.lft.to/lastmile_qr_scan", "ios": "https://dc.lft.to/lastmile_qr_scan"}, "fusion_lon": 0.0}, {"lat": 38.904034333333335, "is_disabled": 0, "type": "electric_scooter", "lon": -77.0434735, "bike_id": "68437bbc6b70808011381aacd771298b", "fusion_lat": 0.0, "name": "68437bbc6b70808011381aacd771298b", "is_reserved": 0, "rental_uris": {"android": "https://dc.lft.to/lastmile_qr_scan", "ios": "https://dc.lft.to/lastmile_qr_scan"}, "fusion_lon": 0.0}, {"lat": 38.9360695, "is_disabled": 0, "type": "electric_scooter", "lon": -77.058602, "bike_id": "21c3cfcc940602e916953fa326d6f751", "fusion_lat": 0.0, "name": "21c3cfcc940602e916953fa326d6f751", "is_reserved": 0, "rental_uris": {"android": "https://dc.lft.to/lastmile_qr_scan", "ios": "https://dc.lft.to/lastmile_qr_scan"}, "fusion_lon": 0.0}, {"lat": 38.90977933333333, "is_disabled": 0, "type": "electric_scooter", "lon": -77.04805033333334, "bike_id": "249ac02893c6d6bc34e6cfe1379f3583", "fusion_lat": 0.0, "name": "249ac02893c6d6bc34e6cfe1379f3583", "is_reserved": 0, "rental_uris": {"android": "https://dc.lft.to/lastmile_qr_scan", "ios": "https://dc.lft.to/lastmile_qr_scan"}, "fusion_lon": 0.0}, {"lat": 38.865295833333334, "is_disabled": 0, "type": "electric_scooter", "lon": -76.99032266666667, "bike_id": "48fe60e474267634908e24c79fc6142a", "fusion_lat": 0.0, "name": "48fe60e474267634908e24c79fc6142a", "is_reserved": 0, "rental_uris": {"android": "https://dc.lft.to/lastmile_qr_scan", "ios": "https://dc.lft.to/lastmile_qr_scan"}, "fusion_lon": 0.0}, {"lat": 38.90654133333334, "is_disabled": 0, "type": "electric_scooter", "lon": -77.02945, "bike_id": "836a83200aaa51a593dadab5629b4fbc", "fusion_lat": 0.0, "name": "836a83200aaa51a593dadab5629b4fbc", "is_reserved": 0, "rental_uris": {"android": "https://dc.lft.to/lastmile_qr_scan", "ios": "https://dc.lft.to/lastmile_qr_scan"}, "fusion_lon": 0.0}, {"lat": 38.87687366666667, "is_disabled": 0, "type": "electric_scooter", "lon": -77.01785733333334, "bike_id": "203c5e4348ca6df2f802f3193d421ec3", "fusion_lat": 0.0, "name": "203c5e4348ca6df2f802f3193d421ec3", "is_reserved": 0, "rental_uris": {"android": "https://dc.lft.to/lastmile_qr_scan", "ios": "https://dc.lft.to/lastmile_qr_scan"}, "fusion_lon": 0.0}, {"lat": 38.86376666666666, "is_disabled": 0, "type": "electric_scooter", "lon": -76.99061916666666, "bike_id": "fe14109347ed358f1c3913bc42fb59f0", "fusion_lat": 0.0, "name": "fe14109347ed358f1c3913bc42fb59f0", "is_reserved": 0, "rental_uris": {"android": "https://dc.lft.to/lastmile_qr_scan", "ios": "https://dc.lft.to/lastmile_qr_scan"}, "fusion_lon": 0.0}, {"lat": 38.86486766666667, "is_disabled": 0, "type": "electric_bike", "lon": -77.056918, "bike_id": "2c309fc521181ca279ca8e50ab983feb", "fusion_lat": 0.0, "name": "2c309fc521181ca279ca8e50ab983feb", "is_reserved": 0, "rental_uris": {"android": "https://dc.lft.to/lastmile_qr_scan", "ios": "https://dc.lft.to/lastmile_qr_scan"}, "fusion_lon": 0.0}, {"lat": 38.90642666666667, "is_disabled": 0, "type": "electric_scooter", "lon": -77.00835033333334, "bike_id": "5538dfe12d4971c0b2686b7dd03ad909", "fusion_lat": 0.0, "name": "5538dfe12d4971c0b2686b7dd03ad909", "is_reserved": 0, "rental_uris": {"android": "https://dc.lft.to/lastmile_qr_scan", "ios": "https://dc.lft.to/lastmile_qr_scan"}, "fusion_lon": 0.0}, {"lat": 38.917097166666665, "is_disabled": 0, "type": "electric_scooter", "lon": -77.0302475, "bike_id": "25cee7bebc422272afd69ef6c22e66fe", "fusion_lat": 0.0, "name": "25cee7bebc422272afd69ef6c22e66fe", "is_reserved": 0, "rental_uris": {"android": "https://dc.lft.to/lastmile_qr_scan", "ios": "https://dc.lft.to/lastmile_qr_scan"}, "fusion_lon": 0.0}, {"lat": 38.909796666666665, "is_disabled": 0, "type": "electric_scooter", "lon": -77.05254816666667, "bike_id": "f2e61f8176deebeb3e3173fcdca94dfc", "fusion_lat": 0.0, "name": "f2e61f8176deebeb3e3173fcdca94dfc", "is_reserved": 0, "rental_uris": {"android": "https://dc.lft.to/lastmile_qr_scan", "ios": "https://dc.lft.to/lastmile_qr_scan"}, "fusion_lon": 0.0}, {"lat": 38.89738933333334, "is_disabled": 0, "type": "electric_scooter", "lon": -77.000069, "bike_id": "4f000ebfd6470970e217bdf81757cd2d", "fusion_lat": 0.0, "name": "4f000ebfd6470970e217bdf81757cd2d", "is_reserved": 0, "rental_uris": {"android": "https://dc.lft.to/lastmile_qr_scan", "ios": "https://dc.lft.to/lastmile_qr_scan"}, "fusion_lon": 0.0}, {"lat": 38.916936, "is_disabled": 0, "type": "electric_scooter", "lon": -77.02510983333333, "bike_id": "5ea615a8e0bc23738ef6ecb0d2703033", "fusion_lat": 0.0, "name": "5ea615a8e0bc23738ef6ecb0d2703033", "is_reserved": 0, "rental_uris": {"android": "https://dc.lft.to/lastmile_qr_scan", "ios": "https://dc.lft.to/lastmile_qr_scan"}, "fusion_lon": 0.0}, {"lat": 38.86663633333333, "is_disabled": 0, "type": "electric_scooter", "lon": -76.98904983333334, "bike_id": "69147756a2946dfa93bb96753ca30965", "fusion_lat": 0.0, "name": "69147756a2946dfa93bb96753ca30965", "is_reserved": 0, "rental_uris": {"android": "https://dc.lft.to/lastmile_qr_scan", "ios": "https://dc.lft.to/lastmile_qr_scan"}, "fusion_lon": 0.0}, {"lat": 38.91315183333333, "is_disabled": 0, "type": "electric_scooter", "lon": -77.03650433333334, "bike_id": "02ebaf2d9727379d8e9c359e38e6ca3f", "fusion_lat": 0.0, "name": "02ebaf2d9727379d8e9c359e38e6ca3f", "is_reserved": 0, "rental_uris": {"android": "https://dc.lft.to/lastmile_qr_scan", "ios": "https://dc.lft.to/lastmile_qr_scan"}, "fusion_lon": 0.0}, {"lat": 38.92969083333333, "is_disabled": 0, "type": "electric_scooter", "lon": -77.03176833333333, "bike_id": "bb3397b5795bc4273855b023add788a2", "fusion_lat": 0.0, "name": "bb3397b5795bc4273855b023add788a2", "is_reserved": 0, "rental_uris": {"android": "https://dc.lft.to/lastmile_qr_scan", "ios": "https://dc.lft.to/lastmile_qr_scan"}, "fusion_lon": 0.0}, {"lat": 38.9172395, "is_disabled": 0, "type": "electric_scooter", "lon": -77.02706483333333, "bike_id": "28c6c75e8b37c9e2b8b66f2d63861ce1", "fusion_lat": 0.0, "name": "28c6c75e8b37c9e2b8b66f2d63861ce1", "is_reserved": 0, "rental_uris": {"android": "https://dc.lft.to/lastmile_qr_scan", "ios": "https://dc.lft.to/lastmile_qr_scan"}, "fusion_lon": 0.0}, {"lat": 38.9283845, "is_disabled": 0, "type": "electric_scooter", "lon": -77.05422016666667, "bike_id": "5e458823ac2cff2d407facb4ac1f76a0", "fusion_lat": 0.0, "name": "5e458823ac2cff2d407facb4ac1f76a0", "is_reserved": 0, "rental_uris": {"android": "https://dc.lft.to/lastmile_qr_scan", "ios": "https://dc.lft.to/lastmile_qr_scan"}, "fusion_lon": 0.0}, {"lat": 38.92746616666667, "is_disabled": 0, "type": "electric_scooter", "lon": -77.03560266666666, "bike_id": "b81ba4e8b5cef111d026534f7aedd6d5", "fusion_lat": 0.0, "name": "b81ba4e8b5cef111d026534f7aedd6d5", "is_reserved": 0, "rental_uris": {"android": "https://dc.lft.to/lastmile_qr_scan", "ios": "https://dc.lft.to/lastmile_qr_scan"}, "fusion_lon": 0.0}, {"lat": 38.9202555, "is_disabled": 0, "type": "electric_scooter", "lon": -77.031231, "bike_id": "f6cfc6dc7b26d486699a7b41dc7141d0", "fusion_lat": 0.0, "name": "f6cfc6dc7b26d486699a7b41dc7141d0", "is_reserved": 0, "rental_uris": {"android": "https://dc.lft.to/lastmile_qr_scan", "ios": "https://dc.lft.to/lastmile_qr_scan"}, "fusion_lon": 0.0}, {"lat": 38.93225566666667, "is_disabled": 0, "type": "electric_scooter", "lon": -77.03392466666666, "bike_id": "128f06176819ab96d23f727013ac7e07", "fusion_lat": 0.0, "name": "128f06176819ab96d23f727013ac7e07", "is_reserved": 0, "rental_uris": {"android": "https://dc.lft.to/lastmile_qr_scan", "ios": "https://dc.lft.to/lastmile_qr_scan"}, "fusion_lon": 0.0}, {"lat": 38.915812, "is_disabled": 0, "type": "electric_scooter", "lon": -77.0501485, "bike_id": "f695d16b6e7929ac9ec5f448cc2bd7cd", "fusion_lat": 0.0, "name": "f695d16b6e7929ac9ec5f448cc2bd7cd", "is_reserved": 0, "rental_uris": {"android": "https://dc.lft.to/lastmile_qr_scan", "ios": "https://dc.lft.to/lastmile_qr_scan"}, "fusion_lon": 0.0}, {"lat": 38.9210475, "is_disabled": 0, "type": "electric_scooter", "lon": -77.04689583333334, "bike_id": "e929af6e8b3fd7a1769ade844cc3e527", "fusion_lat": 0.0, "name": "e929af6e8b3fd7a1769ade844cc3e527", "is_reserved": 0, "rental_uris": {"android": "https://dc.lft.to/lastmile_qr_scan", "ios": "https://dc.lft.to/lastmile_qr_scan"}, "fusion_lon": 0.0}, {"lat": 38.884967, "is_disabled": 0, "type": "electric_scooter", "lon": -77.007082, "bike_id": "e4c8d2847b59ade5faf145fb86057d53", "fusion_lat": 0.0, "name": "e4c8d2847b59ade5faf145fb86057d53", "is_reserved": 0, "rental_uris": {"android": "https://dc.lft.to/lastmile_qr_scan", "ios": "https://dc.lft.to/lastmile_qr_scan"}, "fusion_lon": 0.0}, {"lat": 38.9051745, "is_disabled": 0, "type": "electric_scooter", "lon": -77.0344815, "bike_id": "898f2d9d7805a0435a7032ba821bc38b", "fusion_lat": 0.0, "name": "898f2d9d7805a0435a7032ba821bc38b", "is_reserved": 0, "rental_uris": {"android": "https://dc.lft.to/lastmile_qr_scan", "ios": "https://dc.lft.to/lastmile_qr_scan"}, "fusion_lon": 0.0}, {"lat": 38.9282535, "is_disabled": 0, "type": "electric_scooter", "lon": -77.02256133333333, "bike_id": "272e0374bb4bb7219c72e5eedb43a352", "fusion_lat": 0.0, "name": "272e0374bb4bb7219c72e5eedb43a352", "is_reserved": 0, "rental_uris": {"android": "https://dc.lft.to/lastmile_qr_scan", "ios": "https://dc.lft.to/lastmile_qr_scan"}, "fusion_lon": 0.0}, {"lat": 38.89539083333333, "is_disabled": 0, "type": "electric_scooter", "lon": -76.9488785, "bike_id": "e69d513bb519c24427d8bd13b74f0842", "fusion_lat": 0.0, "name": "e69d513bb519c24427d8bd13b74f0842", "is_reserved": 0, "rental_uris": {"android": "https://dc.lft.to/lastmile_qr_scan", "ios": "https://dc.lft.to/lastmile_qr_scan"}, "fusion_lon": 0.0}, {"lat": 38.922501833333335, "is_disabled": 0, "type": "electric_scooter", "lon": -77.01936033333334, "bike_id": "9dedf20a8cbbe7dfc9e8e48455f7725c", "fusion_lat": 0.0, "name": "9dedf20a8cbbe7dfc9e8e48455f7725c", "is_reserved": 0, "rental_uris": {"android": "https://dc.lft.to/lastmile_qr_scan", "ios": "https://dc.lft.to/lastmile_qr_scan"}, "fusion_lon": 0.0}, {"lat": 38.872503333333334, "is_disabled": 0, "type": "electric_scooter", "lon": -76.97723816666667, "bike_id": "80cf5471c0c93ab7b8c73c93487f5f2f", "fusion_lat": 0.0, "name": "80cf5471c0c93ab7b8c73c93487f5f2f", "is_reserved": 0, "rental_uris": {"android": "https://dc.lft.to/lastmile_qr_scan", "ios": "https://dc.lft.to/lastmile_qr_scan"}, "fusion_lon": 0.0}, {"lat": 38.943234833333335, "is_disabled": 0, "type": "electric_scooter", "lon": -77.061284, "bike_id": "bf6e54c970867eacfc77db670d01ca45", "fusion_lat": 0.0, "name": "bf6e54c970867eacfc77db670d01ca45", "is_reserved": 0, "rental_uris": {"android": "https://dc.lft.to/lastmile_qr_scan", "ios": "https://dc.lft.to/lastmile_qr_scan"}, "fusion_lon": 0.0}, {"lat": 38.928393, "is_disabled": 0, "type": "electric_scooter", "lon": -77.05422266666666, "bike_id": "6910a40a8d1778513b25a3c7746f8146", "fusion_lat": 0.0, "name": "6910a40a8d1778513b25a3c7746f8146", "is_reserved": 0, "rental_uris": {"android": "https://dc.lft.to/lastmile_qr_scan", "ios": "https://dc.lft.to/lastmile_qr_scan"}, "fusion_lon": 0.0}, {"lat": 38.908900333333335, "is_disabled": 0, "type": "electric_scooter", "lon": -77.0432495, "bike_id": "c0bb8237b60039faf054be1f85220855", "fusion_lat": 0.0, "name": "c0bb8237b60039faf054be1f85220855", "is_reserved": 0, "rental_uris": {"android": "https://dc.lft.to/lastmile_qr_scan", "ios": "https://dc.lft.to/lastmile_qr_scan"}, "fusion_lon": 0.0}, {"lat": 38.901026, "is_disabled": 0, "type": "electric_scooter", "lon": -77.04992666666666, "bike_id": "7951d219256faeccdf0047b5c29ce66c", "fusion_lat": 0.0, "name": "7951d219256faeccdf0047b5c29ce66c", "is_reserved": 0, "rental_uris": {"android": "https://dc.lft.to/lastmile_qr_scan", "ios": "https://dc.lft.to/lastmile_qr_scan"}, "fusion_lon": 0.0}, {"lat": 38.919373666666665, "is_disabled": 0, "type": "electric_scooter", "lon": -77.081337, "bike_id": "0974342be6a21b15d191ca941e338d2d", "fusion_lat": 0.0, "name": "0974342be6a21b15d191ca941e338d2d", "is_reserved": 0, "rental_uris": {"android": "https://dc.lft.to/lastmile_qr_scan", "ios": "https://dc.lft.to/lastmile_qr_scan"}, "fusion_lon": 0.0}, {"lat": 38.91311133333333, "is_disabled": 0, "type": "electric_scooter", "lon": -77.04155083333333, "bike_id": "3231e08541491c7b677df3d3f14b5454", "fusion_lat": 0.0, "name": "3231e08541491c7b677df3d3f14b5454", "is_reserved": 0, "rental_uris": {"android": "https://dc.lft.to/lastmile_qr_scan", "ios": "https://dc.lft.to/lastmile_qr_scan"}, "fusion_lon": 0.0}, {"lat": 38.91690283333333, "is_disabled": 0, "type": "electric_scooter", "lon": -77.02949883333334, "bike_id": "97a18924fc7432e7e34f96a00917d589", "fusion_lat": 0.0, "name": "97a18924fc7432e7e34f96a00917d589", "is_reserved": 0, "rental_uris": {"android": "https://dc.lft.to/lastmile_qr_scan", "ios": "https://dc.lft.to/lastmile_qr_scan"}, "fusion_lon": 0.0}, {"lat": 38.999981166666664, "is_disabled": 0, "type": "electric_bike", "lon": -76.9249455, "bike_id": "2614a77f75094a457c19df5a4677c605", "fusion_lat": 0.0, "name": "2614a77f75094a457c19df5a4677c605", "is_reserved": 0, "rental_uris": {"android": "https://dc.lft.to/lastmile_qr_scan", "ios": "https://dc.lft.to/lastmile_qr_scan"}, "fusion_lon": 0.0}, {"lat": 38.93191316666667, "is_disabled": 0, "type": "electric_scooter", "lon": -77.02824266666667, "bike_id": "a2b9d62c305caedc88d8f658594f6edc", "fusion_lat": 0.0, "name": "a2b9d62c305caedc88d8f658594f6edc", "is_reserved": 0, "rental_uris": {"android": "https://dc.lft.to/lastmile_qr_scan", "ios": "https://dc.lft.to/lastmile_qr_scan"}, "fusion_lon": 0.0}, {"lat": 38.8610835, "is_disabled": 0, "type": "electric_scooter", "lon": -76.9833425, "bike_id": "ea45db4c315156971b01ecbdd9f0fded", "fusion_lat": 0.0, "name": "ea45db4c315156971b01ecbdd9f0fded", "is_reserved": 0, "rental_uris": {"android": "https://dc.lft.to/lastmile_qr_scan", "ios": "https://dc.lft.to/lastmile_qr_scan"}, "fusion_lon": 0.0}, {"lat": 38.936598000000004, "is_disabled": 0, "type": "electric_scooter", "lon": -77.0239085, "bike_id": "0dbe1bc3a798a0d406d1ca19676186f4", "fusion_lat": 0.0, "name": "0dbe1bc3a798a0d406d1ca19676186f4", "is_reserved": 0, "rental_uris": {"android": "https://dc.lft.to/lastmile_qr_scan", "ios": "https://dc.lft.to/lastmile_qr_scan"}, "fusion_lon": 0.0}, {"lat": 38.900637, "is_disabled": 0, "type": "electric_scooter", "lon": -76.93385716666667, "bike_id": "a4588e57af91189d7031e377f85a58a6", "fusion_lat": 0.0, "name": "a4588e57af91189d7031e377f85a58a6", "is_reserved": 0, "rental_uris": {"android": "https://dc.lft.to/lastmile_qr_scan", "ios": "https://dc.lft.to/lastmile_qr_scan"}, "fusion_lon": 0.0}, {"lat": 38.8910415, "is_disabled": 0, "type": "electric_scooter", "lon": -76.95235566666666, "bike_id": "31851001b21214abf593313f0098d4e8", "fusion_lat": 0.0, "name": "31851001b21214abf593313f0098d4e8", "is_reserved": 0, "rental_uris": {"android": "https://dc.lft.to/lastmile_qr_scan", "ios": "https://dc.lft.to/lastmile_qr_scan"}, "fusion_lon": 0.0}, {"lat": 38.86633, "is_disabled": 0, "type": "electric_scooter", "lon": -76.98714216666667, "bike_id": "c9ff597655401ddaad0ad0e8d67f7603", "fusion_lat": 0.0, "name": "c9ff597655401ddaad0ad0e8d67f7603", "is_reserved": 0, "rental_uris": {"android": "https://dc.lft.to/lastmile_qr_scan", "ios": "https://dc.lft.to/lastmile_qr_scan"}, "fusion_lon": 0.0}, {"lat": 38.95641833333333, "is_disabled": 0, "type": "electric_bike", "lon": -76.93884966666667, "bike_id": "c48b4fa9b33c3b44f2e20d2391b7a22d", "fusion_lat": 0.0, "name": "c48b4fa9b33c3b44f2e20d2391b7a22d", "is_reserved": 0, "rental_uris": {"android": "https://dc.lft.to/lastmile_qr_scan", "ios": "https://dc.lft.to/lastmile_qr_scan"}, "fusion_lon": 0.0}, {"lat": 38.8427575, "is_disabled": 0, "type": "electric_bike", "lon": -76.988448, "bike_id": "92196ca4ae1255215deceb45b10c1a86", "fusion_lat": 0.0, "name": "92196ca4ae1255215deceb45b10c1a86", "is_reserved": 0, "rental_uris": {"android": "https://dc.lft.to/lastmile_qr_scan", "ios": "https://dc.lft.to/lastmile_qr_scan"}, "fusion_lon": 0.0}, {"lat": 38.9443585, "is_disabled": 0, "type": "electric_scooter", "lon": -77.063013, "bike_id": "88905089a25160c9517bf298f38e0bf1", "fusion_lat": 0.0, "name": "88905089a25160c9517bf298f38e0bf1", "is_reserved": 0, "rental_uris": {"android": "https://dc.lft.to/lastmile_qr_scan", "ios": "https://dc.lft.to/lastmile_qr_scan"}, "fusion_lon": 0.0}, {"lat": 38.91537566666667, "is_disabled": 0, "type": "electric_scooter", "lon": -77.01359183333334, "bike_id": "0e0f5b35fb3c641ece2e9fa79e83912c", "fusion_lat": 0.0, "name": "0e0f5b35fb3c641ece2e9fa79e83912c", "is_reserved": 0, "rental_uris": {"android": "https://dc.lft.to/lastmile_qr_scan", "ios": "https://dc.lft.to/lastmile_qr_scan"}, "fusion_lon": 0.0}, {"lat": 38.90575066666667, "is_disabled": 0, "type": "electric_scooter", "lon": -77.00585883333333, "bike_id": "0a188d237189cd8795cbb932d3639eec", "fusion_lat": 0.0, "name": "0a188d237189cd8795cbb932d3639eec", "is_reserved": 0, "rental_uris": {"android": "https://dc.lft.to/lastmile_qr_scan", "ios": "https://dc.lft.to/lastmile_qr_scan"}, "fusion_lon": 0.0}, {"lat": 38.90138183333333, "is_disabled": 0, "type": "electric_scooter", "lon": -77.00064133333333, "bike_id": "787facb1548203d3f0afc584c4ca5079", "fusion_lat": 0.0, "name": "787facb1548203d3f0afc584c4ca5079", "is_reserved": 0, "rental_uris": {"android": "https://dc.lft.to/lastmile_qr_scan", "ios": "https://dc.lft.to/lastmile_qr_scan"}, "fusion_lon": 0.0}, {"lat": 38.906164833333335, "is_disabled": 0, "type": "electric_scooter", "lon": -77.0127925, "bike_id": "69cbdd68af510781a2708c228b371203", "fusion_lat": 0.0, "name": "69cbdd68af510781a2708c228b371203", "is_reserved": 0, "rental_uris": {"android": "https://dc.lft.to/lastmile_qr_scan", "ios": "https://dc.lft.to/lastmile_qr_scan"}, "fusion_lon": 0.0}, {"lat": 38.9153455, "is_disabled": 0, "type": "electric_scooter", "lon": -77.02179633333333, "bike_id": "ad777f258499b299cc7789b7e33b2486", "fusion_lat": 0.0, "name": "ad777f258499b299cc7789b7e33b2486", "is_reserved": 0, "rental_uris": {"android": "https://dc.lft.to/lastmile_qr_scan", "ios": "https://dc.lft.to/lastmile_qr_scan"}, "fusion_lon": 0.0}, {"lat": 38.8924035, "is_disabled": 0, "type": "electric_scooter", "lon": -77.02805, "bike_id": "aefde2637d0b300d5a1d70102aa7ca93", "fusion_lat": 0.0, "name": "aefde2637d0b300d5a1d70102aa7ca93", "is_reserved": 0, "rental_uris": {"android": "https://dc.lft.to/lastmile_qr_scan", "ios": "https://dc.lft.to/lastmile_qr_scan"}, "fusion_lon": 0.0}, {"lat": 38.900437333333336, "is_disabled": 0, "type": "electric_scooter", "lon": -76.98836016666667, "bike_id": "a08e1f15b29c546a11a2c421c1ca9829", "fusion_lat": 0.0, "name": "a08e1f15b29c546a11a2c421c1ca9829", "is_reserved": 0, "rental_uris": {"android": "https://dc.lft.to/lastmile_qr_scan", "ios": "https://dc.lft.to/lastmile_qr_scan"}, "fusion_lon": 0.0}, {"lat": 38.906768666666665, "is_disabled": 0, "type": "electric_scooter", "lon": -77.03646933333333, "bike_id": "d81520a91948c1ffa88dd4342f888975", "fusion_lat": 0.0, "name": "d81520a91948c1ffa88dd4342f888975", "is_reserved": 0, "rental_uris": {"android": "https://dc.lft.to/lastmile_qr_scan", "ios": "https://dc.lft.to/lastmile_qr_scan"}, "fusion_lon": 0.0}, {"lat": 38.89988816666666, "is_disabled": 0, "type": "electric_scooter", "lon": -77.05095316666667, "bike_id": "53bebe72097e326ed22295444404aa29", "fusion_lat": 0.0, "name": "53bebe72097e326ed22295444404aa29", "is_reserved": 0, "rental_uris": {"android": "https://dc.lft.to/lastmile_qr_scan", "ios": "https://dc.lft.to/lastmile_qr_scan"}, "fusion_lon": 0.0}, {"lat": 38.897826333333335, "is_disabled": 0, "type": "electric_bike", "lon": -76.9044405, "bike_id": "04f47439f3a57ca980830dd7e42070cc", "fusion_lat": 0.0, "name": "04f47439f3a57ca980830dd7e42070cc", "is_reserved": 0, "rental_uris": {"android": "https://dc.lft.to/lastmile_qr_scan", "ios": "https://dc.lft.to/lastmile_qr_scan"}, "fusion_lon": 0.0}, {"lat": 38.91925483333333, "is_disabled": 0, "type": "electric_scooter", "lon": -77.01289966666667, "bike_id": "5c340e2b9531c39bde2eeb0e6f5b6c53", "fusion_lat": 0.0, "name": "5c340e2b9531c39bde2eeb0e6f5b6c53", "is_reserved": 0, "rental_uris": {"android": "https://dc.lft.to/lastmile_qr_scan", "ios": "https://dc.lft.to/lastmile_qr_scan"}, "fusion_lon": 0.0}, {"lat": 38.8851805, "is_disabled": 0, "type": "electric_scooter", "lon": -77.002678, "bike_id": "6a9e42434111fac7bf4209ab38d4c8da", "fusion_lat": 0.0, "name": "6a9e42434111fac7bf4209ab38d4c8da", "is_reserved": 0, "rental_uris": {"android": "https://dc.lft.to/lastmile_qr_scan", "ios": "https://dc.lft.to/lastmile_qr_scan"}, "fusion_lon": 0.0}, {"lat": 38.918524166666664, "is_disabled": 0, "type": "electric_scooter", "lon": -76.96531233333333, "bike_id": "f1425c3a1c427d63e62f535034443519", "fusion_lat": 0.0, "name": "f1425c3a1c427d63e62f535034443519", "is_reserved": 0, "rental_uris": {"android": "https://dc.lft.to/lastmile_qr_scan", "ios": "https://dc.lft.to/lastmile_qr_scan"}, "fusion_lon": 0.0}, {"lat": 38.92312066666667, "is_disabled": 0, "type": "electric_bike", "lon": -77.03659416666666, "bike_id": "2190cfc9b702c329a781ff4af7ea51e2", "fusion_lat": 0.0, "name": "2190cfc9b702c329a781ff4af7ea51e2", "is_reserved": 0, "rental_uris": {"android": "https://dc.lft.to/lastmile_qr_scan", "ios": "https://dc.lft.to/lastmile_qr_scan"}, "fusion_lon": 0.0}, {"lat": 38.8950905, "is_disabled": 0, "type": "electric_scooter", "lon": -77.02747333333333, "bike_id": "0a00ca0a20ab8b9b5a3d59bdeeef4d31", "fusion_lat": 0.0, "name": "0a00ca0a20ab8b9b5a3d59bdeeef4d31", "is_reserved": 0, "rental_uris": {"android": "https://dc.lft.to/lastmile_qr_scan", "ios": "https://dc.lft.to/lastmile_qr_scan"}, "fusion_lon": 0.0}, {"lat": 38.84631616666667, "is_disabled": 0, "type": "electric_bike", "lon": -77.06935633333333, "bike_id": "692e914faad31b127034f4451d89dfc2", "fusion_lat": 0.0, "name": "692e914faad31b127034f4451d89dfc2", "is_reserved": 0, "rental_uris": {"android": "https://dc.lft.to/lastmile_qr_scan", "ios": "https://dc.lft.to/lastmile_qr_scan"}, "fusion_lon": 0.0}, {"lat": 38.91860916666667, "is_disabled": 0, "type": "electric_scooter", "lon": -77.0243845, "bike_id": "08e358819947c9061ba01a7885bed63d", "fusion_lat": 0.0, "name": "08e358819947c9061ba01a7885bed63d", "is_reserved": 0, "rental_uris": {"android": "https://dc.lft.to/lastmile_qr_scan", "ios": "https://dc.lft.to/lastmile_qr_scan"}, "fusion_lon": 0.0}, {"lat": 38.923833, "is_disabled": 0, "type": "electric_scooter", "lon": -77.03074266666667, "bike_id": "c15976ddd422702f46128202a7e03aae", "fusion_lat": 0.0, "name": "c15976ddd422702f46128202a7e03aae", "is_reserved": 0, "rental_uris": {"android": "https://dc.lft.to/lastmile_qr_scan", "ios": "https://dc.lft.to/lastmile_qr_scan"}, "fusion_lon": 0.0}, {"lat": 38.91989933333333, "is_disabled": 0, "type": "electric_scooter", "lon": -77.04162933333333, "bike_id": "8770b506a22cce3d2b7b1e727affa9f4", "fusion_lat": 0.0, "name": "8770b506a22cce3d2b7b1e727affa9f4", "is_reserved": 0, "rental_uris": {"android": "https://dc.lft.to/lastmile_qr_scan", "ios": "https://dc.lft.to/lastmile_qr_scan"}, "fusion_lon": 0.0}, {"lat": 38.892784166666665, "is_disabled": 0, "type": "electric_scooter", "lon": -77.05028216666666, "bike_id": "c8b75c9a28a29d088eaccf65fca79d6b", "fusion_lat": 0.0, "name": "c8b75c9a28a29d088eaccf65fca79d6b", "is_reserved": 0, "rental_uris": {"android": "https://dc.lft.to/lastmile_qr_scan", "ios": "https://dc.lft.to/lastmile_qr_scan"}, "fusion_lon": 0.0}, {"lat": 38.87630466666667, "is_disabled": 0, "type": "electric_scooter", "lon": -76.96525416666667, "bike_id": "d800f697b39787e76d17691dfd3fe05a", "fusion_lat": 0.0, "name": "d800f697b39787e76d17691dfd3fe05a", "is_reserved": 0, "rental_uris": {"android": "https://dc.lft.to/lastmile_qr_scan", "ios": "https://dc.lft.to/lastmile_qr_scan"}, "fusion_lon": 0.0}, {"lat": 38.937696833333334, "is_disabled": 0, "type": "electric_scooter", "lon": -77.023712, "bike_id": "82f58653bcc5c297434282844f08fcaf", "fusion_lat": 0.0, "name": "82f58653bcc5c297434282844f08fcaf", "is_reserved": 0, "rental_uris": {"android": "https://dc.lft.to/lastmile_qr_scan", "ios": "https://dc.lft.to/lastmile_qr_scan"}, "fusion_lon": 0.0}, {"lat": 38.925957, "is_disabled": 0, "type": "electric_scooter", "lon": -77.03435333333333, "bike_id": "7406b54375948df51f828059baeffefa", "fusion_lat": 0.0, "name": "7406b54375948df51f828059baeffefa", "is_reserved": 0, "rental_uris": {"android": "https://dc.lft.to/lastmile_qr_scan", "ios": "https://dc.lft.to/lastmile_qr_scan"}, "fusion_lon": 0.0}, {"lat": 38.907318833333335, "is_disabled": 0, "type": "electric_scooter", "lon": -77.04782933333334, "bike_id": "0678c7faf447b6d4180dbfa18ad8c455", "fusion_lat": 0.0, "name": "0678c7faf447b6d4180dbfa18ad8c455", "is_reserved": 0, "rental_uris": {"android": "https://dc.lft.to/lastmile_qr_scan", "ios": "https://dc.lft.to/lastmile_qr_scan"}, "fusion_lon": 0.0}, {"lat": 38.9168195, "is_disabled": 0, "type": "electric_scooter", "lon": -77.02713633333333, "bike_id": "ff5fcfe2db1bc050b3f785814f600d02", "fusion_lat": 0.0, "name": "ff5fcfe2db1bc050b3f785814f600d02", "is_reserved": 0, "rental_uris": {"android": "https://dc.lft.to/lastmile_qr_scan", "ios": "https://dc.lft.to/lastmile_qr_scan"}, "fusion_lon": 0.0}, {"lat": 38.919298, "is_disabled": 0, "type": "electric_scooter", "lon": -77.024753, "bike_id": "f0ff5fb2c5782a541027f2851d181297", "fusion_lat": 0.0, "name": "f0ff5fb2c5782a541027f2851d181297", "is_reserved": 0, "rental_uris": {"android": "https://dc.lft.to/lastmile_qr_scan", "ios": "https://dc.lft.to/lastmile_qr_scan"}, "fusion_lon": 0.0}, {"lat": 38.86060916666667, "is_disabled": 0, "type": "electric_scooter", "lon": -76.98508466666667, "bike_id": "2f703b414fda18ad58136a89944d6e31", "fusion_lat": 0.0, "name": "2f703b414fda18ad58136a89944d6e31", "is_reserved": 0, "rental_uris": {"android": "https://dc.lft.to/lastmile_qr_scan", "ios": "https://dc.lft.to/lastmile_qr_scan"}, "fusion_lon": 0.0}, {"lat": 38.896235833333336, "is_disabled": 0, "type": "electric_scooter", "lon": -77.04479033333334, "bike_id": "eb7586b0d585a594a545279e0e1af573", "fusion_lat": 0.0, "name": "eb7586b0d585a594a545279e0e1af573", "is_reserved": 0, "rental_uris": {"android": "https://dc.lft.to/lastmile_qr_scan", "ios": "https://dc.lft.to/lastmile_qr_scan"}, "fusion_lon": 0.0}, {"lat": 38.84293183333333, "is_disabled": 0, "type": "electric_scooter", "lon": -76.99946166666666, "bike_id": "480af1880404969a4eba7d5db5ffb254", "fusion_lat": 0.0, "name": "480af1880404969a4eba7d5db5ffb254", "is_reserved": 0, "rental_uris": {"android": "https://dc.lft.to/lastmile_qr_scan", "ios": "https://dc.lft.to/lastmile_qr_scan"}, "fusion_lon": 0.0}, {"lat": 38.900352833333336, "is_disabled": 0, "type": "electric_scooter", "lon": -77.00195266666667, "bike_id": "3f58953620786fb781f680461c739667", "fusion_lat": 0.0, "name": "3f58953620786fb781f680461c739667", "is_reserved": 0, "rental_uris": {"android": "https://dc.lft.to/lastmile_qr_scan", "ios": "https://dc.lft.to/lastmile_qr_scan"}, "fusion_lon": 0.0}, {"lat": 38.95074183333333, "is_disabled": 0, "type": "electric_scooter", "lon": -77.0665535, "bike_id": "71405004a9c2df2bc498352ac9a31622", "fusion_lat": 0.0, "name": "71405004a9c2df2bc498352ac9a31622", "is_reserved": 0, "rental_uris": {"android": "https://dc.lft.to/lastmile_qr_scan", "ios": "https://dc.lft.to/lastmile_qr_scan"}, "fusion_lon": 0.0}, {"lat": 38.90138183333333, "is_disabled": 0, "type": "electric_scooter", "lon": -77.01817083333333, "bike_id": "f29eb65c9eef95a2a3d02d4efdb31603", "fusion_lat": 0.0, "name": "f29eb65c9eef95a2a3d02d4efdb31603", "is_reserved": 0, "rental_uris": {"android": "https://dc.lft.to/lastmile_qr_scan", "ios": "https://dc.lft.to/lastmile_qr_scan"}, "fusion_lon": 0.0}, {"lat": 38.89856566666667, "is_disabled": 0, "type": "electric_scooter", "lon": -77.02431916666667, "bike_id": "346d3591b61a174b7511ab93444050eb", "fusion_lat": 0.0, "name": "346d3591b61a174b7511ab93444050eb", "is_reserved": 0, "rental_uris": {"android": "https://dc.lft.to/lastmile_qr_scan", "ios": "https://dc.lft.to/lastmile_qr_scan"}, "fusion_lon": 0.0}, {"lat": 38.94098366666667, "is_disabled": 0, "type": "electric_scooter", "lon": -77.032782, "bike_id": "3feef779390ca45d3cae44a92975f770", "fusion_lat": 0.0, "name": "3feef779390ca45d3cae44a92975f770", "is_reserved": 0, "rental_uris": {"android": "https://dc.lft.to/lastmile_qr_scan", "ios": "https://dc.lft.to/lastmile_qr_scan"}, "fusion_lon": 0.0}, {"lat": 38.89124433333333, "is_disabled": 0, "type": "electric_scooter", "lon": -76.94090833333334, "bike_id": "9adef9bf8bb098d58729abb74d6b3be4", "fusion_lat": 0.0, "name": "9adef9bf8bb098d58729abb74d6b3be4", "is_reserved": 0, "rental_uris": {"android": "https://dc.lft.to/lastmile_qr_scan", "ios": "https://dc.lft.to/lastmile_qr_scan"}, "fusion_lon": 0.0}, {"lat": 38.90384983333333, "is_disabled": 0, "type": "electric_scooter", "lon": -77.03299716666666, "bike_id": "ebae4284500e885129a6b5f9cf2b18b4", "fusion_lat": 0.0, "name": "ebae4284500e885129a6b5f9cf2b18b4", "is_reserved": 0, "rental_uris": {"android": "https://dc.lft.to/lastmile_qr_scan", "ios": "https://dc.lft.to/lastmile_qr_scan"}, "fusion_lon": 0.0}, {"lat": 38.932914333333336, "is_disabled": 0, "type": "electric_bike", "lon": -77.036345, "bike_id": "b1201e44ce3f57bf654dcc1bc3975539", "fusion_lat": 0.0, "name": "b1201e44ce3f57bf654dcc1bc3975539", "is_reserved": 0, "rental_uris": {"android": "https://dc.lft.to/lastmile_qr_scan", "ios": "https://dc.lft.to/lastmile_qr_scan"}, "fusion_lon": 0.0}, {"lat": 38.9108545, "is_disabled": 0, "type": "electric_scooter", "lon": -77.07636933333333, "bike_id": "4eefe52445c7d39ed1d0fa33f5a1b0b1", "fusion_lat": 0.0, "name": "4eefe52445c7d39ed1d0fa33f5a1b0b1", "is_reserved": 0, "rental_uris": {"android": "https://dc.lft.to/lastmile_qr_scan", "ios": "https://dc.lft.to/lastmile_qr_scan"}, "fusion_lon": 0.0}, {"lat": 38.90010316666667, "is_disabled": 0, "type": "electric_scooter", "lon": -76.99852616666666, "bike_id": "2bb8063173bf696f3fe2bd7cb55d1a8f", "fusion_lat": 0.0, "name": "2bb8063173bf696f3fe2bd7cb55d1a8f", "is_reserved": 0, "rental_uris": {"android": "https://dc.lft.to/lastmile_qr_scan", "ios": "https://dc.lft.to/lastmile_qr_scan"}, "fusion_lon": 0.0}, {"lat": 39.01597483333333, "is_disabled": 0, "type": "electric_bike", "lon": -77.04425316666666, "bike_id": "d9218b975bf886f8cc385832b6abfec6", "fusion_lat": 0.0, "name": "d9218b975bf886f8cc385832b6abfec6", "is_reserved": 0, "rental_uris": {"android": "https://dc.lft.to/lastmile_qr_scan", "ios": "https://dc.lft.to/lastmile_qr_scan"}, "fusion_lon": 0.0}, {"lat": 38.905197666666666, "is_disabled": 0, "type": "electric_scooter", "lon": -77.06874833333333, "bike_id": "99853fb2d708269babc1ef4e90999eb9", "fusion_lat": 0.0, "name": "99853fb2d708269babc1ef4e90999eb9", "is_reserved": 0, "rental_uris": {"android": "https://dc.lft.to/lastmile_qr_scan", "ios": "https://dc.lft.to/lastmile_qr_scan"}, "fusion_lon": 0.0}, {"lat": 38.9332465, "is_disabled": 0, "type": "electric_scooter", "lon": -77.0570775, "bike_id": "a1f5a9b49a32aa39ee98550d1bb9b85e", "fusion_lat": 0.0, "name": "a1f5a9b49a32aa39ee98550d1bb9b85e", "is_reserved": 0, "rental_uris": {"android": "https://dc.lft.to/lastmile_qr_scan", "ios": "https://dc.lft.to/lastmile_qr_scan"}, "fusion_lon": 0.0}, {"lat": 38.90136116666667, "is_disabled": 0, "type": "electric_scooter", "lon": -77.0181675, "bike_id": "ae70de31fdab17a5940234e217c47c80", "fusion_lat": 0.0, "name": "ae70de31fdab17a5940234e217c47c80", "is_reserved": 0, "rental_uris": {"android": "https://dc.lft.to/lastmile_qr_scan", "ios": "https://dc.lft.to/lastmile_qr_scan"}, "fusion_lon": 0.0}, {"lat": 38.93550233333333, "is_disabled": 0, "type": "electric_scooter", "lon": -77.0341715, "bike_id": "15d37e9ce043f2517c2355f2aa6ef3b5", "fusion_lat": 0.0, "name": "15d37e9ce043f2517c2355f2aa6ef3b5", "is_reserved": 0, "rental_uris": {"android": "https://dc.lft.to/lastmile_qr_scan", "ios": "https://dc.lft.to/lastmile_qr_scan"}, "fusion_lon": 0.0}, {"lat": 38.8842375, "is_disabled": 0, "type": "electric_scooter", "lon": -77.03047483333333, "bike_id": "42931f8a8f9f1f6cc3c8613e5802211c", "fusion_lat": 0.0, "name": "42931f8a8f9f1f6cc3c8613e5802211c", "is_reserved": 0, "rental_uris": {"android": "https://dc.lft.to/lastmile_qr_scan", "ios": "https://dc.lft.to/lastmile_qr_scan"}, "fusion_lon": 0.0}, {"lat": 38.94807433333333, "is_disabled": 0, "type": "electric_scooter", "lon": -77.07906266666667, "bike_id": "b59442f1bc2ace8b19b0f6867adb8373", "fusion_lat": 0.0, "name": "b59442f1bc2ace8b19b0f6867adb8373", "is_reserved": 0, "rental_uris": {"android": "https://dc.lft.to/lastmile_qr_scan", "ios": "https://dc.lft.to/lastmile_qr_scan"}, "fusion_lon": 0.0}, {"lat": 38.91604816666667, "is_disabled": 0, "type": "electric_scooter", "lon": -77.023934, "bike_id": "160d9eefac18615cf0424dd00dfa9b40", "fusion_lat": 0.0, "name": "160d9eefac18615cf0424dd00dfa9b40", "is_reserved": 0, "rental_uris": {"android": "https://dc.lft.to/lastmile_qr_scan", "ios": "https://dc.lft.to/lastmile_qr_scan"}, "fusion_lon": 0.0}, {"lat": 38.9178105, "is_disabled": 0, "type": "electric_scooter", "lon": -77.0410345, "bike_id": "41c476faf91ec5217851bc9f2bfd7640", "fusion_lat": 0.0, "name": "41c476faf91ec5217851bc9f2bfd7640", "is_reserved": 0, "rental_uris": {"android": "https://dc.lft.to/lastmile_qr_scan", "ios": "https://dc.lft.to/lastmile_qr_scan"}, "fusion_lon": 0.0}, {"lat": 38.914041, "is_disabled": 0, "type": "electric_scooter", "lon": -77.02061933333333, "bike_id": "f9f3fb197a629ddc0ca230055a9178be", "fusion_lat": 0.0, "name": "f9f3fb197a629ddc0ca230055a9178be", "is_reserved": 0, "rental_uris": {"android": "https://dc.lft.to/lastmile_qr_scan", "ios": "https://dc.lft.to/lastmile_qr_scan"}, "fusion_lon": 0.0}, {"lat": 38.919898833333335, "is_disabled": 0, "type": "electric_scooter", "lon": -76.97300616666666, "bike_id": "a832478373fbb448bab563271f8eb739", "fusion_lat": 0.0, "name": "a832478373fbb448bab563271f8eb739", "is_reserved": 0, "rental_uris": {"android": "https://dc.lft.to/lastmile_qr_scan", "ios": "https://dc.lft.to/lastmile_qr_scan"}, "fusion_lon": 0.0}, {"lat": 38.965627, "is_disabled": 0, "type": "electric_bike", "lon": -77.0229905, "bike_id": "06ea10e17adc098a1b349bbc2d52a72a", "fusion_lat": 0.0, "name": "06ea10e17adc098a1b349bbc2d52a72a", "is_reserved": 0, "rental_uris": {"android": "https://dc.lft.to/lastmile_qr_scan", "ios": "https://dc.lft.to/lastmile_qr_scan"}, "fusion_lon": 0.0}, {"lat": 38.9086845, "is_disabled": 0, "type": "electric_scooter", "lon": -77.04658933333333, "bike_id": "a41d92e2ebee176431c24bf666759dbc", "fusion_lat": 0.0, "name": "a41d92e2ebee176431c24bf666759dbc", "is_reserved": 0, "rental_uris": {"android": "https://dc.lft.to/lastmile_qr_scan", "ios": "https://dc.lft.to/lastmile_qr_scan"}, "fusion_lon": 0.0}, {"lat": 38.859776, "is_disabled": 0, "type": "electric_bike", "lon": -77.05626483333333, "bike_id": "811f24243d2d117a32ca6cd0558b62b1", "fusion_lat": 0.0, "name": "811f24243d2d117a32ca6cd0558b62b1", "is_reserved": 0, "rental_uris": {"android": "https://dc.lft.to/lastmile_qr_scan", "ios": "https://dc.lft.to/lastmile_qr_scan"}, "fusion_lon": 0.0}, {"lat": 38.928626666666666, "is_disabled": 0, "type": "electric_bike", "lon": -77.036881, "bike_id": "eea205a932e63c934cccbe6f894dcc16", "fusion_lat": 0.0, "name": "eea205a932e63c934cccbe6f894dcc16", "is_reserved": 0, "rental_uris": {"android": "https://dc.lft.to/lastmile_qr_scan", "ios": "https://dc.lft.to/lastmile_qr_scan"}, "fusion_lon": 0.0}, {"lat": 38.896626166666664, "is_disabled": 0, "type": "electric_scooter", "lon": -77.0230015, "bike_id": "f106622ca9b2a428e9560980242e7fa1", "fusion_lat": 0.0, "name": "f106622ca9b2a428e9560980242e7fa1", "is_reserved": 0, "rental_uris": {"android": "https://dc.lft.to/lastmile_qr_scan", "ios": "https://dc.lft.to/lastmile_qr_scan"}, "fusion_lon": 0.0}, {"lat": 39.003837833333336, "is_disabled": 0, "type": "electric_bike", "lon": -77.01286883333333, "bike_id": "3d11d8187dcf01a77da0d07cc1b2f2aa", "fusion_lat": 0.0, "name": "3d11d8187dcf01a77da0d07cc1b2f2aa", "is_reserved": 0, "rental_uris": {"android": "https://dc.lft.to/lastmile_qr_scan", "ios": "https://dc.lft.to/lastmile_qr_scan"}, "fusion_lon": 0.0}, {"lat": 38.916143, "is_disabled": 0, "type": "electric_scooter", "lon": -77.04873883333333, "bike_id": "7297f84d7325dbfdf0cb9c1672050dfc", "fusion_lat": 0.0, "name": "7297f84d7325dbfdf0cb9c1672050dfc", "is_reserved": 0, "rental_uris": {"android": "https://dc.lft.to/lastmile_qr_scan", "ios": "https://dc.lft.to/lastmile_qr_scan"}, "fusion_lon": 0.0}, {"lat": 38.89746683333333, "is_disabled": 0, "type": "electric_scooter", "lon": -77.04461433333333, "bike_id": "2dd3cf705f6f68a4164858894a5480c9", "fusion_lat": 0.0, "name": "2dd3cf705f6f68a4164858894a5480c9", "is_reserved": 0, "rental_uris": {"android": "https://dc.lft.to/lastmile_qr_scan", "ios": "https://dc.lft.to/lastmile_qr_scan"}, "fusion_lon": 0.0}, {"lat": 38.91404583333333, "is_disabled": 0, "type": "electric_scooter", "lon": -77.03253833333333, "bike_id": "a91e3e509ab25f98c4ab71baa3d5618e", "fusion_lat": 0.0, "name": "a91e3e509ab25f98c4ab71baa3d5618e", "is_reserved": 0, "rental_uris": {"android": "https://dc.lft.to/lastmile_qr_scan", "ios": "https://dc.lft.to/lastmile_qr_scan"}, "fusion_lon": 0.0}, {"lat": 38.85513016666667, "is_disabled": 0, "type": "electric_bike", "lon": -77.12038916666667, "bike_id": "5052e566125dbead2c8dba6f53761cd0", "fusion_lat": 0.0, "name": "5052e566125dbead2c8dba6f53761cd0", "is_reserved": 0, "rental_uris": {"android": "https://dc.lft.to/lastmile_qr_scan", "ios": "https://dc.lft.to/lastmile_qr_scan"}, "fusion_lon": 0.0}, {"lat": 38.916934166666664, "is_disabled": 0, "type": "electric_scooter", "lon": -77.03268566666667, "bike_id": "0e190ff5fd3ed7ceefd7e615665cac1f", "fusion_lat": 0.0, "name": "0e190ff5fd3ed7ceefd7e615665cac1f", "is_reserved": 0, "rental_uris": {"android": "https://dc.lft.to/lastmile_qr_scan", "ios": "https://dc.lft.to/lastmile_qr_scan"}, "fusion_lon": 0.0}, {"lat": 38.905489, "is_disabled": 0, "type": "electric_scooter", "lon": -77.005421, "bike_id": "1f442369456ab20972e0975de19357cb", "fusion_lat": 0.0, "name": "1f442369456ab20972e0975de19357cb", "is_reserved": 0, "rental_uris": {"android": "https://dc.lft.to/lastmile_qr_scan", "ios": "https://dc.lft.to/lastmile_qr_scan"}, "fusion_lon": 0.0}, {"lat": 38.862771333333335, "is_disabled": 0, "type": "electric_scooter", "lon": -76.99239566666667, "bike_id": "f294cec77ce59eb78dfed7ff4117c547", "fusion_lat": 0.0, "name": "f294cec77ce59eb78dfed7ff4117c547", "is_reserved": 0, "rental_uris": {"android": "https://dc.lft.to/lastmile_qr_scan", "ios": "https://dc.lft.to/lastmile_qr_scan"}, "fusion_lon": 0.0}, {"lat": 38.904708, "is_disabled": 0, "type": "electric_scooter", "lon": -77.02937366666667, "bike_id": "baaef3425e1a82ac9fdf9dc57c8c4d45", "fusion_lat": 0.0, "name": "baaef3425e1a82ac9fdf9dc57c8c4d45", "is_reserved": 0, "rental_uris": {"android": "https://dc.lft.to/lastmile_qr_scan", "ios": "https://dc.lft.to/lastmile_qr_scan"}, "fusion_lon": 0.0}, {"lat": 38.94946433333333, "is_disabled": 0, "type": "electric_scooter", "lon": -77.02019183333333, "bike_id": "f186cf5d302d2241e5526f4fa08ae484", "fusion_lat": 0.0, "name": "f186cf5d302d2241e5526f4fa08ae484", "is_reserved": 0, "rental_uris": {"android": "https://dc.lft.to/lastmile_qr_scan", "ios": "https://dc.lft.to/lastmile_qr_scan"}, "fusion_lon": 0.0}, {"lat": 38.931459833333335, "is_disabled": 0, "type": "electric_scooter", "lon": -77.028215, "bike_id": "44c852c9394d9cdf8cbc5f0dcd6a95db", "fusion_lat": 0.0, "name": "44c852c9394d9cdf8cbc5f0dcd6a95db", "is_reserved": 0, "rental_uris": {"android": "https://dc.lft.to/lastmile_qr_scan", "ios": "https://dc.lft.to/lastmile_qr_scan"}, "fusion_lon": 0.0}, {"lat": 38.91842483333333, "is_disabled": 0, "type": "electric_scooter", "lon": -77.032051, "bike_id": "df7de87ad8bd2bd0f61d9a7c42a89f02", "fusion_lat": 0.0, "name": "df7de87ad8bd2bd0f61d9a7c42a89f02", "is_reserved": 0, "rental_uris": {"android": "https://dc.lft.to/lastmile_qr_scan", "ios": "https://dc.lft.to/lastmile_qr_scan"}, "fusion_lon": 0.0}, {"lat": 38.93571283333333, "is_disabled": 0, "type": "electric_scooter", "lon": -77.03264183333333, "bike_id": "4c289f12d047d6e78025f5911106cca7", "fusion_lat": 0.0, "name": "4c289f12d047d6e78025f5911106cca7", "is_reserved": 0, "rental_uris": {"android": "https://dc.lft.to/lastmile_qr_scan", "ios": "https://dc.lft.to/lastmile_qr_scan"}, "fusion_lon": 0.0}, {"lat": 38.904879, "is_disabled": 0, "type": "electric_scooter", "lon": -77.05741266666666, "bike_id": "85e8fb167be14e59abee8bc68a07885f", "fusion_lat": 0.0, "name": "85e8fb167be14e59abee8bc68a07885f", "is_reserved": 0, "rental_uris": {"android": "https://dc.lft.to/lastmile_qr_scan", "ios": "https://dc.lft.to/lastmile_qr_scan"}, "fusion_lon": 0.0}, {"lat": 38.872125833333335, "is_disabled": 0, "type": "electric_bike", "lon": -77.0152405, "bike_id": "9183007eecc61ba1bf9fba678af83fcf", "fusion_lat": 0.0, "name": "9183007eecc61ba1bf9fba678af83fcf", "is_reserved": 0, "rental_uris": {"android": "https://dc.lft.to/lastmile_qr_scan", "ios": "https://dc.lft.to/lastmile_qr_scan"}, "fusion_lon": 0.0}, {"lat": 38.89646483333333, "is_disabled": 0, "type": "electric_scooter", "lon": -77.00783716666666, "bike_id": "9b265fd2a7b9cb11eade5a991a096d97", "fusion_lat": 0.0, "name": "9b265fd2a7b9cb11eade5a991a096d97", "is_reserved": 0, "rental_uris": {"android": "https://dc.lft.to/lastmile_qr_scan", "ios": "https://dc.lft.to/lastmile_qr_scan"}, "fusion_lon": 0.0}, {"lat": 38.93103033333333, "is_disabled": 0, "type": "electric_scooter", "lon": -76.96722633333333, "bike_id": "f921b3c3bbd2d5a7797f35725f0d54c7", "fusion_lat": 0.0, "name": "f921b3c3bbd2d5a7797f35725f0d54c7", "is_reserved": 0, "rental_uris": {"android": "https://dc.lft.to/lastmile_qr_scan", "ios": "https://dc.lft.to/lastmile_qr_scan"}, "fusion_lon": 0.0}, {"lat": 38.911761, "is_disabled": 0, "type": "electric_scooter", "lon": -77.038422, "bike_id": "8caf8e1eacc658341909a90f45b6f89f", "fusion_lat": 0.0, "name": "8caf8e1eacc658341909a90f45b6f89f", "is_reserved": 0, "rental_uris": {"android": "https://dc.lft.to/lastmile_qr_scan", "ios": "https://dc.lft.to/lastmile_qr_scan"}, "fusion_lon": 0.0}, {"lat": 38.905734, "is_disabled": 0, "type": "electric_scooter", "lon": -76.98872166666666, "bike_id": "fd580e251879265f21c061bed041e779", "fusion_lat": 0.0, "name": "fd580e251879265f21c061bed041e779", "is_reserved": 0, "rental_uris": {"android": "https://dc.lft.to/lastmile_qr_scan", "ios": "https://dc.lft.to/lastmile_qr_scan"}, "fusion_lon": 0.0}, {"lat": 38.86657983333333, "is_disabled": 0, "type": "electric_scooter", "lon": -76.988823, "bike_id": "7e235297fe5712cfcc54b54afc4d3561", "fusion_lat": 0.0, "name": "7e235297fe5712cfcc54b54afc4d3561", "is_reserved": 0, "rental_uris": {"android": "https://dc.lft.to/lastmile_qr_scan", "ios": "https://dc.lft.to/lastmile_qr_scan"}, "fusion_lon": 0.0}, {"lat": 38.9335035, "is_disabled": 0, "type": "electric_scooter", "lon": -77.05862366666666, "bike_id": "bf2e39dd23dddf407e339976909f081d", "fusion_lat": 0.0, "name": "bf2e39dd23dddf407e339976909f081d", "is_reserved": 0, "rental_uris": {"android": "https://dc.lft.to/lastmile_qr_scan", "ios": "https://dc.lft.to/lastmile_qr_scan"}, "fusion_lon": 0.0}, {"lat": 38.9230065, "is_disabled": 0, "type": "electric_scooter", "lon": -77.04145016666666, "bike_id": "e6d116f5d663f6f61400411a0713dc2d", "fusion_lat": 0.0, "name": "e6d116f5d663f6f61400411a0713dc2d", "is_reserved": 0, "rental_uris": {"android": "https://dc.lft.to/lastmile_qr_scan", "ios": "https://dc.lft.to/lastmile_qr_scan"}, "fusion_lon": 0.0}, {"lat": 38.923135, "is_disabled": 0, "type": "electric_scooter", "lon": -77.039585, "bike_id": "83f5efe9c0bc3df0d29352873ffcfa9f", "fusion_lat": 0.0, "name": "83f5efe9c0bc3df0d29352873ffcfa9f", "is_reserved": 0, "rental_uris": {"android": "https://dc.lft.to/lastmile_qr_scan", "ios": "https://dc.lft.to/lastmile_qr_scan"}, "fusion_lon": 0.0}, {"lat": 38.9243225, "is_disabled": 0, "type": "electric_scooter", "lon": -77.0423635, "bike_id": "17ca8a4035696f3a0154e46391ae5f9c", "fusion_lat": 0.0, "name": "17ca8a4035696f3a0154e46391ae5f9c", "is_reserved": 0, "rental_uris": {"android": "https://dc.lft.to/lastmile_qr_scan", "ios": "https://dc.lft.to/lastmile_qr_scan"}, "fusion_lon": 0.0}, {"lat": 38.924918166666664, "is_disabled": 0, "type": "electric_scooter", "lon": -77.05213266666667, "bike_id": "6aee553eb3cc301d348ecf42faf4229f", "fusion_lat": 0.0, "name": "6aee553eb3cc301d348ecf42faf4229f", "is_reserved": 0, "rental_uris": {"android": "https://dc.lft.to/lastmile_qr_scan", "ios": "https://dc.lft.to/lastmile_qr_scan"}, "fusion_lon": 0.0}, {"lat": 38.897596, "is_disabled": 0, "type": "electric_scooter", "lon": -77.051534, "bike_id": "a59d5e62f3939dbd7a220b387da8b2ec", "fusion_lat": 0.0, "name": "a59d5e62f3939dbd7a220b387da8b2ec", "is_reserved": 0, "rental_uris": {"android": "https://dc.lft.to/lastmile_qr_scan", "ios": "https://dc.lft.to/lastmile_qr_scan"}, "fusion_lon": 0.0}, {"lat": 38.89745283333333, "is_disabled": 0, "type": "electric_scooter", "lon": -77.03176883333333, "bike_id": "73c66c3c93e3a5e0f19e68dae3c11a55", "fusion_lat": 0.0, "name": "73c66c3c93e3a5e0f19e68dae3c11a55", "is_reserved": 0, "rental_uris": {"android": "https://dc.lft.to/lastmile_qr_scan", "ios": "https://dc.lft.to/lastmile_qr_scan"}, "fusion_lon": 0.0}, {"lat": 38.86659066666667, "is_disabled": 0, "type": "electric_scooter", "lon": -76.9901225, "bike_id": "04013a8fa82ddda7415b361a5118fc73", "fusion_lat": 0.0, "name": "04013a8fa82ddda7415b361a5118fc73", "is_reserved": 0, "rental_uris": {"android": "https://dc.lft.to/lastmile_qr_scan", "ios": "https://dc.lft.to/lastmile_qr_scan"}, "fusion_lon": 0.0}, {"lat": 38.90830416666667, "is_disabled": 0, "type": "electric_scooter", "lon": -76.94146916666666, "bike_id": "ce6c1ac5ab4585151c465fa0efd172e3", "fusion_lat": 0.0, "name": "ce6c1ac5ab4585151c465fa0efd172e3", "is_reserved": 0, "rental_uris": {"android": "https://dc.lft.to/lastmile_qr_scan", "ios": "https://dc.lft.to/lastmile_qr_scan"}, "fusion_lon": 0.0}, {"lat": 38.921555833333336, "is_disabled": 0, "type": "electric_scooter", "lon": -77.04234166666667, "bike_id": "bf25d662d883524d5c07eae61a33e1f5", "fusion_lat": 0.0, "name": "bf25d662d883524d5c07eae61a33e1f5", "is_reserved": 0, "rental_uris": {"android": "https://dc.lft.to/lastmile_qr_scan", "ios": "https://dc.lft.to/lastmile_qr_scan"}, "fusion_lon": 0.0}, {"lat": 38.92483883333333, "is_disabled": 0, "type": "electric_scooter", "lon": -77.02722, "bike_id": "9b2406a12633ef76849c3ffe3b7b6575", "fusion_lat": 0.0, "name": "9b2406a12633ef76849c3ffe3b7b6575", "is_reserved": 0, "rental_uris": {"android": "https://dc.lft.to/lastmile_qr_scan", "ios": "https://dc.lft.to/lastmile_qr_scan"}, "fusion_lon": 0.0}, {"lat": 38.917288, "is_disabled": 0, "type": "electric_scooter", "lon": -77.04094466666666, "bike_id": "daed03cf3e22602fcc7cac2b82360518", "fusion_lat": 0.0, "name": "daed03cf3e22602fcc7cac2b82360518", "is_reserved": 0, "rental_uris": {"android": "https://dc.lft.to/lastmile_qr_scan", "ios": "https://dc.lft.to/lastmile_qr_scan"}, "fusion_lon": 0.0}, {"lat": 38.91591016666667, "is_disabled": 0, "type": "electric_scooter", "lon": -77.0212745, "bike_id": "907b8fbbf763601a4731a1a2e757f296", "fusion_lat": 0.0, "name": "907b8fbbf763601a4731a1a2e757f296", "is_reserved": 0, "rental_uris": {"android": "https://dc.lft.to/lastmile_qr_scan", "ios": "https://dc.lft.to/lastmile_qr_scan"}, "fusion_lon": 0.0}, {"lat": 38.8962545, "is_disabled": 0, "type": "electric_scooter", "lon": -77.021732, "bike_id": "96d79002c1c7e05d1bd0aa74e910d25d", "fusion_lat": 0.0, "name": "96d79002c1c7e05d1bd0aa74e910d25d", "is_reserved": 0, "rental_uris": {"android": "https://dc.lft.to/lastmile_qr_scan", "ios": "https://dc.lft.to/lastmile_qr_scan"}, "fusion_lon": 0.0}, {"lat": 38.88731, "is_disabled": 0, "type": "electric_scooter", "lon": -77.03217616666667, "bike_id": "727bf13f8ca58a7419db32e5a1b3115b", "fusion_lat": 0.0, "name": "727bf13f8ca58a7419db32e5a1b3115b", "is_reserved": 0, "rental_uris": {"android": "https://dc.lft.to/lastmile_qr_scan", "ios": "https://dc.lft.to/lastmile_qr_scan"}, "fusion_lon": 0.0}, {"lat": 38.90793566666667, "is_disabled": 0, "type": "electric_scooter", "lon": -77.03197416666667, "bike_id": "abfa6608f925a64bbddcadbbd9228411", "fusion_lat": 0.0, "name": "abfa6608f925a64bbddcadbbd9228411", "is_reserved": 0, "rental_uris": {"android": "https://dc.lft.to/lastmile_qr_scan", "ios": "https://dc.lft.to/lastmile_qr_scan"}, "fusion_lon": 0.0}, {"lat": 38.923110333333334, "is_disabled": 0, "type": "electric_scooter", "lon": -77.02015833333333, "bike_id": "053857f1350c445706908160de713b20", "fusion_lat": 0.0, "name": "053857f1350c445706908160de713b20", "is_reserved": 0, "rental_uris": {"android": "https://dc.lft.to/lastmile_qr_scan", "ios": "https://dc.lft.to/lastmile_qr_scan"}, "fusion_lon": 0.0}, {"lat": 38.92471316666666, "is_disabled": 0, "type": "electric_bike", "lon": -77.20837866666666, "bike_id": "9c03b49d1bd4eab9a9412cf6da26d303", "fusion_lat": 0.0, "name": "9c03b49d1bd4eab9a9412cf6da26d303", "is_reserved": 0, "rental_uris": {"android": "https://dc.lft.to/lastmile_qr_scan", "ios": "https://dc.lft.to/lastmile_qr_scan"}, "fusion_lon": 0.0}, {"lat": 38.900355, "is_disabled": 0, "type": "electric_scooter", "lon": -77.00575366666666, "bike_id": "7967eaeaf1bfb1362e5d906c41ca0283", "fusion_lat": 0.0, "name": "7967eaeaf1bfb1362e5d906c41ca0283", "is_reserved": 0, "rental_uris": {"android": "https://dc.lft.to/lastmile_qr_scan", "ios": "https://dc.lft.to/lastmile_qr_scan"}, "fusion_lon": 0.0}, {"lat": 38.874489833333335, "is_disabled": 0, "type": "electric_bike", "lon": -77.10819, "bike_id": "67704a257c87047b8dec27f547f5045f", "fusion_lat": 0.0, "name": "67704a257c87047b8dec27f547f5045f", "is_reserved": 0, "rental_uris": {"android": "https://dc.lft.to/lastmile_qr_scan", "ios": "https://dc.lft.to/lastmile_qr_scan"}, "fusion_lon": 0.0}, {"lat": 38.924181, "is_disabled": 0, "type": "electric_bike", "lon": -77.05040933333333, "bike_id": "8b2af05befada6f322ed4c78d252bf9a", "fusion_lat": 0.0, "name": "8b2af05befada6f322ed4c78d252bf9a", "is_reserved": 0, "rental_uris": {"android": "https://dc.lft.to/lastmile_qr_scan", "ios": "https://dc.lft.to/lastmile_qr_scan"}, "fusion_lon": 0.0}, {"lat": 38.89371833333333, "is_disabled": 0, "type": "electric_scooter", "lon": -77.04794616666666, "bike_id": "6088ce928771112a28f03a3099b31971", "fusion_lat": 0.0, "name": "6088ce928771112a28f03a3099b31971", "is_reserved": 0, "rental_uris": {"android": "https://dc.lft.to/lastmile_qr_scan", "ios": "https://dc.lft.to/lastmile_qr_scan"}, "fusion_lon": 0.0}, {"lat": 38.858103666666665, "is_disabled": 0, "type": "electric_scooter", "lon": -76.98655116666667, "bike_id": "a7dc22c7a978d53a5d9bc7a7425b91aa", "fusion_lat": 0.0, "name": "a7dc22c7a978d53a5d9bc7a7425b91aa", "is_reserved": 0, "rental_uris": {"android": "https://dc.lft.to/lastmile_qr_scan", "ios": "https://dc.lft.to/lastmile_qr_scan"}, "fusion_lon": 0.0}, {"lat": 38.95282366666667, "is_disabled": 0, "type": "electric_scooter", "lon": -77.03652816666667, "bike_id": "da7a5e9151a6612faa905b5c2f24988e", "fusion_lat": 0.0, "name": "da7a5e9151a6612faa905b5c2f24988e", "is_reserved": 0, "rental_uris": {"android": "https://dc.lft.to/lastmile_qr_scan", "ios": "https://dc.lft.to/lastmile_qr_scan"}, "fusion_lon": 0.0}, {"lat": 38.913120666666664, "is_disabled": 0, "type": "electric_scooter", "lon": -77.0453655, "bike_id": "69bde5496dabcbaa4f0ebd44be172105", "fusion_lat": 0.0, "name": "69bde5496dabcbaa4f0ebd44be172105", "is_reserved": 0, "rental_uris": {"android": "https://dc.lft.to/lastmile_qr_scan", "ios": "https://dc.lft.to/lastmile_qr_scan"}, "fusion_lon": 0.0}, {"lat": 38.91789333333333, "is_disabled": 0, "type": "electric_scooter", "lon": -77.04148466666666, "bike_id": "db49d99f23fc040d4f30882b7a1e7c66", "fusion_lat": 0.0, "name": "db49d99f23fc040d4f30882b7a1e7c66", "is_reserved": 0, "rental_uris": {"android": "https://dc.lft.to/lastmile_qr_scan", "ios": "https://dc.lft.to/lastmile_qr_scan"}, "fusion_lon": 0.0}, {"lat": 38.94450916666667, "is_disabled": 0, "type": "electric_scooter", "lon": -77.03279766666667, "bike_id": "b2cde3789ee6a1089bc2572e40be5da4", "fusion_lat": 0.0, "name": "b2cde3789ee6a1089bc2572e40be5da4", "is_reserved": 0, "rental_uris": {"android": "https://dc.lft.to/lastmile_qr_scan", "ios": "https://dc.lft.to/lastmile_qr_scan"}, "fusion_lon": 0.0}, {"lat": 38.930862833333336, "is_disabled": 0, "type": "electric_scooter", "lon": -77.02792516666666, "bike_id": "ceae3473bbfa6d98885b1d3638c21cc4", "fusion_lat": 0.0, "name": "ceae3473bbfa6d98885b1d3638c21cc4", "is_reserved": 0, "rental_uris": {"android": "https://dc.lft.to/lastmile_qr_scan", "ios": "https://dc.lft.to/lastmile_qr_scan"}, "fusion_lon": 0.0}, {"lat": 38.91699033333333, "is_disabled": 0, "type": "electric_scooter", "lon": -77.04336266666667, "bike_id": "931b0e19594eac431fe562bdefb93762", "fusion_lat": 0.0, "name": "931b0e19594eac431fe562bdefb93762", "is_reserved": 0, "rental_uris": {"android": "https://dc.lft.to/lastmile_qr_scan", "ios": "https://dc.lft.to/lastmile_qr_scan"}, "fusion_lon": 0.0}, {"lat": 38.96393233333333, "is_disabled": 0, "type": "electric_scooter", "lon": -77.02590916666666, "bike_id": "0180ebfc61b631b840b6870297919e70", "fusion_lat": 0.0, "name": "0180ebfc61b631b840b6870297919e70", "is_reserved": 0, "rental_uris": {"android": "https://dc.lft.to/lastmile_qr_scan", "ios": "https://dc.lft.to/lastmile_qr_scan"}, "fusion_lon": 0.0}, {"lat": 38.890956, "is_disabled": 0, "type": "electric_scooter", "lon": -76.9430045, "bike_id": "011017e5aec8ea32fb0f659af96b7c62", "fusion_lat": 0.0, "name": "011017e5aec8ea32fb0f659af96b7c62", "is_reserved": 0, "rental_uris": {"android": "https://dc.lft.to/lastmile_qr_scan", "ios": "https://dc.lft.to/lastmile_qr_scan"}, "fusion_lon": 0.0}, {"lat": 38.87905416666667, "is_disabled": 0, "type": "electric_scooter", "lon": -77.00709816666667, "bike_id": "099344db3b3110147c84b122e8774932", "fusion_lat": 0.0, "name": "099344db3b3110147c84b122e8774932", "is_reserved": 0, "rental_uris": {"android": "https://dc.lft.to/lastmile_qr_scan", "ios": "https://dc.lft.to/lastmile_qr_scan"}, "fusion_lon": 0.0}, {"lat": 38.9299715, "is_disabled": 0, "type": "electric_scooter", "lon": -76.99486683333333, "bike_id": "e02cae3446d6bf1526b492522fd4a21d", "fusion_lat": 0.0, "name": "e02cae3446d6bf1526b492522fd4a21d", "is_reserved": 0, "rental_uris": {"android": "https://dc.lft.to/lastmile_qr_scan", "ios": "https://dc.lft.to/lastmile_qr_scan"}, "fusion_lon": 0.0}, {"lat": 38.92997033333333, "is_disabled": 0, "type": "electric_bike", "lon": -77.023137, "bike_id": "a65f5fc20c8d26b1f7666583bfcbf473", "fusion_lat": 0.0, "name": "a65f5fc20c8d26b1f7666583bfcbf473", "is_reserved": 0, "rental_uris": {"android": "https://dc.lft.to/lastmile_qr_scan", "ios": "https://dc.lft.to/lastmile_qr_scan"}, "fusion_lon": 0.0}, {"lat": 38.93483766666667, "is_disabled": 0, "type": "electric_scooter", "lon": -77.0365425, "bike_id": "1e0ab27984dd6e82096aaf5f6482c358", "fusion_lat": 0.0, "name": "1e0ab27984dd6e82096aaf5f6482c358", "is_reserved": 0, "rental_uris": {"android": "https://dc.lft.to/lastmile_qr_scan", "ios": "https://dc.lft.to/lastmile_qr_scan"}, "fusion_lon": 0.0}, {"lat": 38.9236825, "is_disabled": 0, "type": "electric_scooter", "lon": -77.076791, "bike_id": "dd186444a87192b21e18fffaba89897b", "fusion_lat": 0.0, "name": "dd186444a87192b21e18fffaba89897b", "is_reserved": 0, "rental_uris": {"android": "https://dc.lft.to/lastmile_qr_scan", "ios": "https://dc.lft.to/lastmile_qr_scan"}, "fusion_lon": 0.0}, {"lat": 38.929636, "is_disabled": 0, "type": "electric_scooter", "lon": -77.02814933333333, "bike_id": "25e98d53fc0b0e2b695d517db5d0b199", "fusion_lat": 0.0, "name": "25e98d53fc0b0e2b695d517db5d0b199", "is_reserved": 0, "rental_uris": {"android": "https://dc.lft.to/lastmile_qr_scan", "ios": "https://dc.lft.to/lastmile_qr_scan"}, "fusion_lon": 0.0}, {"lat": 38.89292116666667, "is_disabled": 0, "type": "electric_bike", "lon": -77.001441, "bike_id": "1960faad58316e6bae4f94b044afe756", "fusion_lat": 0.0, "name": "1960faad58316e6bae4f94b044afe756", "is_reserved": 0, "rental_uris": {"android": "https://dc.lft.to/lastmile_qr_scan", "ios": "https://dc.lft.to/lastmile_qr_scan"}, "fusion_lon": 0.0}, {"lat": 38.9060635, "is_disabled": 0, "type": "electric_scooter", "lon": -77.05858, "bike_id": "5d75abaffaa6cd2094ce6404284df9ca", "fusion_lat": 0.0, "name": "5d75abaffaa6cd2094ce6404284df9ca", "is_reserved": 0, "rental_uris": {"android": "https://dc.lft.to/lastmile_qr_scan", "ios": "https://dc.lft.to/lastmile_qr_scan"}, "fusion_lon": 0.0}, {"lat": 38.90713216666666, "is_disabled": 0, "type": "electric_scooter", "lon": -77.0440005, "bike_id": "193827a1f46fdcfcbe54923a4145b410", "fusion_lat": 0.0, "name": "193827a1f46fdcfcbe54923a4145b410", "is_reserved": 0, "rental_uris": {"android": "https://dc.lft.to/lastmile_qr_scan", "ios": "https://dc.lft.to/lastmile_qr_scan"}, "fusion_lon": 0.0}, {"lat": 38.89202733333333, "is_disabled": 0, "type": "electric_bike", "lon": -76.97050033333333, "bike_id": "53ac8f9d508a946a58a8eeffc4154b4f", "fusion_lat": 0.0, "name": "53ac8f9d508a946a58a8eeffc4154b4f", "is_reserved": 0, "rental_uris": {"android": "https://dc.lft.to/lastmile_qr_scan", "ios": "https://dc.lft.to/lastmile_qr_scan"}, "fusion_lon": 0.0}, {"lat": 38.8842985, "is_disabled": 0, "type": "electric_bike", "lon": -76.9808205, "bike_id": "9b02b93ce54985283c6c70a441108aaa", "fusion_lat": 0.0, "name": "9b02b93ce54985283c6c70a441108aaa", "is_reserved": 0, "rental_uris": {"android": "https://dc.lft.to/lastmile_qr_scan", "ios": "https://dc.lft.to/lastmile_qr_scan"}, "fusion_lon": 0.0}, {"lat": 38.90308316666667, "is_disabled": 0, "type": "electric_scooter", "lon": -77.0330585, "bike_id": "74aa04951e3e9ad9592b2cf0dbdd7bb1", "fusion_lat": 0.0, "name": "74aa04951e3e9ad9592b2cf0dbdd7bb1", "is_reserved": 0, "rental_uris": {"android": "https://dc.lft.to/lastmile_qr_scan", "ios": "https://dc.lft.to/lastmile_qr_scan"}, "fusion_lon": 0.0}, {"lat": 38.90906233333333, "is_disabled": 0, "type": "electric_scooter", "lon": -77.08618266666667, "bike_id": "cc59c834dca631fa1784aefc552eb96e", "fusion_lat": 0.0, "name": "cc59c834dca631fa1784aefc552eb96e", "is_reserved": 0, "rental_uris": {"android": "https://dc.lft.to/lastmile_qr_scan", "ios": "https://dc.lft.to/lastmile_qr_scan"}, "fusion_lon": 0.0}, {"lat": 38.895295833333336, "is_disabled": 0, "type": "electric_scooter", "lon": -77.01117916666666, "bike_id": "3caeec6a6c76e0e5ba011c24a466798c", "fusion_lat": 0.0, "name": "3caeec6a6c76e0e5ba011c24a466798c", "is_reserved": 0, "rental_uris": {"android": "https://dc.lft.to/lastmile_qr_scan", "ios": "https://dc.lft.to/lastmile_qr_scan"}, "fusion_lon": 0.0}, {"lat": 38.91862666666667, "is_disabled": 0, "type": "electric_scooter", "lon": -77.0742095, "bike_id": "73204dc3e2813df43c0a0fd272554a11", "fusion_lat": 0.0, "name": "73204dc3e2813df43c0a0fd272554a11", "is_reserved": 0, "rental_uris": {"android": "https://dc.lft.to/lastmile_qr_scan", "ios": "https://dc.lft.to/lastmile_qr_scan"}, "fusion_lon": 0.0}, {"lat": 38.8981475, "is_disabled": 0, "type": "electric_scooter", "lon": -77.03300383333334, "bike_id": "cd6372441ac0590d65780d25f0f5e674", "fusion_lat": 0.0, "name": "cd6372441ac0590d65780d25f0f5e674", "is_reserved": 0, "rental_uris": {"android": "https://dc.lft.to/lastmile_qr_scan", "ios": "https://dc.lft.to/lastmile_qr_scan"}, "fusion_lon": 0.0}, {"lat": 38.917542833333336, "is_disabled": 0, "type": "electric_scooter", "lon": -77.03990616666667, "bike_id": "864706c3e9be17461e688e36f0335055", "fusion_lat": 0.0, "name": "864706c3e9be17461e688e36f0335055", "is_reserved": 0, "rental_uris": {"android": "https://dc.lft.to/lastmile_qr_scan", "ios": "https://dc.lft.to/lastmile_qr_scan"}, "fusion_lon": 0.0}, {"lat": 38.89894616666667, "is_disabled": 0, "type": "electric_scooter", "lon": -77.02290933333333, "bike_id": "8e342a7962bc5e692280e0885d26ab74", "fusion_lat": 0.0, "name": "8e342a7962bc5e692280e0885d26ab74", "is_reserved": 0, "rental_uris": {"android": "https://dc.lft.to/lastmile_qr_scan", "ios": "https://dc.lft.to/lastmile_qr_scan"}, "fusion_lon": 0.0}, {"lat": 38.9122205, "is_disabled": 0, "type": "electric_scooter", "lon": -77.004549, "bike_id": "7f29fd6a048b9db30242d1f0ff5eec24", "fusion_lat": 0.0, "name": "7f29fd6a048b9db30242d1f0ff5eec24", "is_reserved": 0, "rental_uris": {"android": "https://dc.lft.to/lastmile_qr_scan", "ios": "https://dc.lft.to/lastmile_qr_scan"}, "fusion_lon": 0.0}, {"lat": 38.91470066666667, "is_disabled": 0, "type": "electric_scooter", "lon": -77.0320615, "bike_id": "a4ac86d12881830024fe658989a59ac5", "fusion_lat": 0.0, "name": "a4ac86d12881830024fe658989a59ac5", "is_reserved": 0, "rental_uris": {"android": "https://dc.lft.to/lastmile_qr_scan", "ios": "https://dc.lft.to/lastmile_qr_scan"}, "fusion_lon": 0.0}, {"lat": 38.8851685, "is_disabled": 0, "type": "electric_scooter", "lon": -77.02099133333333, "bike_id": "5d5080d53121a08e681320b625cbfdad", "fusion_lat": 0.0, "name": "5d5080d53121a08e681320b625cbfdad", "is_reserved": 0, "rental_uris": {"android": "https://dc.lft.to/lastmile_qr_scan", "ios": "https://dc.lft.to/lastmile_qr_scan"}, "fusion_lon": 0.0}, {"lat": 38.80230266666667, "is_disabled": 0, "type": "electric_bike", "lon": -77.0791615, "bike_id": "f8eb1b88c0547d67a6f74d4dfe7562e8", "fusion_lat": 0.0, "name": "f8eb1b88c0547d67a6f74d4dfe7562e8", "is_reserved": 0, "rental_uris": {"android": "https://dc.lft.to/lastmile_qr_scan", "ios": "https://dc.lft.to/lastmile_qr_scan"}, "fusion_lon": 0.0}, {"lat": 38.911162833333336, "is_disabled": 0, "type": "electric_scooter", "lon": -77.03828466666667, "bike_id": "59c570f0deeca8eed195f738e364e7a3", "fusion_lat": 0.0, "name": "59c570f0deeca8eed195f738e364e7a3", "is_reserved": 0, "rental_uris": {"android": "https://dc.lft.to/lastmile_qr_scan", "ios": "https://dc.lft.to/lastmile_qr_scan"}, "fusion_lon": 0.0}, {"lat": 38.89293083333333, "is_disabled": 0, "type": "electric_scooter", "lon": -77.00210466666667, "bike_id": "9f2ffb9cd1bbb9f36099e5fc1bf7886d", "fusion_lat": 0.0, "name": "9f2ffb9cd1bbb9f36099e5fc1bf7886d", "is_reserved": 0, "rental_uris": {"android": "https://dc.lft.to/lastmile_qr_scan", "ios": "https://dc.lft.to/lastmile_qr_scan"}, "fusion_lon": 0.0}, {"lat": 38.85792683333333, "is_disabled": 0, "type": "electric_bike", "lon": -76.98744266666667, "bike_id": "00bb5b707895fed24e5da36849244a82", "fusion_lat": 0.0, "name": "00bb5b707895fed24e5da36849244a82", "is_reserved": 0, "rental_uris": {"android": "https://dc.lft.to/lastmile_qr_scan", "ios": "https://dc.lft.to/lastmile_qr_scan"}, "fusion_lon": 0.0}, {"lat": 38.87095933333333, "is_disabled": 0, "type": "electric_scooter", "lon": -77.01182066666667, "bike_id": "2ece264aafc364b12dc1c5dbd0fb377e", "fusion_lat": 0.0, "name": "2ece264aafc364b12dc1c5dbd0fb377e", "is_reserved": 0, "rental_uris": {"android": "https://dc.lft.to/lastmile_qr_scan", "ios": "https://dc.lft.to/lastmile_qr_scan"}, "fusion_lon": 0.0}, {"lat": 38.93941266666667, "is_disabled": 0, "type": "electric_scooter", "lon": -77.02216716666666, "bike_id": "c17e7fba88276a1342adba8e7516dcc1", "fusion_lat": 0.0, "name": "c17e7fba88276a1342adba8e7516dcc1", "is_reserved": 0, "rental_uris": {"android": "https://dc.lft.to/lastmile_qr_scan", "ios": "https://dc.lft.to/lastmile_qr_scan"}, "fusion_lon": 0.0}, {"lat": 38.939861, "is_disabled": 0, "type": "electric_scooter", "lon": -77.03263616666666, "bike_id": "4aadfa11ab74a7580389b039bb64fb1b", "fusion_lat": 0.0, "name": "4aadfa11ab74a7580389b039bb64fb1b", "is_reserved": 0, "rental_uris": {"android": "https://dc.lft.to/lastmile_qr_scan", "ios": "https://dc.lft.to/lastmile_qr_scan"}, "fusion_lon": 0.0}, {"lat": 38.883038166666665, "is_disabled": 0, "type": "electric_scooter", "lon": -76.98215733333333, "bike_id": "ac446e8263df1e61c6e9225b752741c7", "fusion_lat": 0.0, "name": "ac446e8263df1e61c6e9225b752741c7", "is_reserved": 0, "rental_uris": {"android": "https://dc.lft.to/lastmile_qr_scan", "ios": "https://dc.lft.to/lastmile_qr_scan"}, "fusion_lon": 0.0}, {"lat": 38.863707166666664, "is_disabled": 0, "type": "electric_scooter", "lon": -76.99044866666667, "bike_id": "3c76fa13601046896964e65937c657ac", "fusion_lat": 0.0, "name": "3c76fa13601046896964e65937c657ac", "is_reserved": 0, "rental_uris": {"android": "https://dc.lft.to/lastmile_qr_scan", "ios": "https://dc.lft.to/lastmile_qr_scan"}, "fusion_lon": 0.0}, {"lat": 38.951889666666666, "is_disabled": 0, "type": "electric_bike", "lon": -76.93542083333334, "bike_id": "8c0a0a419214fdffc9ee89ef8e881300", "fusion_lat": 0.0, "name": "8c0a0a419214fdffc9ee89ef8e881300", "is_reserved": 0, "rental_uris": {"android": "https://dc.lft.to/lastmile_qr_scan", "ios": "https://dc.lft.to/lastmile_qr_scan"}, "fusion_lon": 0.0}, {"lat": 38.87734366666667, "is_disabled": 0, "type": "electric_bike", "lon": -77.11844633333334, "bike_id": "005f6ed16d7538a04ec476ecb2a48494", "fusion_lat": 0.0, "name": "005f6ed16d7538a04ec476ecb2a48494", "is_reserved": 0, "rental_uris": {"android": "https://dc.lft.to/lastmile_qr_scan", "ios": "https://dc.lft.to/lastmile_qr_scan"}, "fusion_lon": 0.0}, {"lat": 38.907076833333335, "is_disabled": 0, "type": "electric_scooter", "lon": -76.98691433333333, "bike_id": "d69ff819cc9cfb8172c4f135ceb701b9", "fusion_lat": 0.0, "name": "d69ff819cc9cfb8172c4f135ceb701b9", "is_reserved": 0, "rental_uris": {"android": "https://dc.lft.to/lastmile_qr_scan", "ios": "https://dc.lft.to/lastmile_qr_scan"}, "fusion_lon": 0.0}, {"lat": 38.91888016666667, "is_disabled": 0, "type": "electric_scooter", "lon": -77.04170383333333, "bike_id": "8e034103fa3bf3898148bf0ff66905f8", "fusion_lat": 0.0, "name": "8e034103fa3bf3898148bf0ff66905f8", "is_reserved": 0, "rental_uris": {"android": "https://dc.lft.to/lastmile_qr_scan", "ios": "https://dc.lft.to/lastmile_qr_scan"}, "fusion_lon": 0.0}, {"lat": 38.928825, "is_disabled": 0, "type": "electric_scooter", "lon": -77.02570366666667, "bike_id": "515ed4801b70172b00d34c74ebef2b7b", "fusion_lat": 0.0, "name": "515ed4801b70172b00d34c74ebef2b7b", "is_reserved": 0, "rental_uris": {"android": "https://dc.lft.to/lastmile_qr_scan", "ios": "https://dc.lft.to/lastmile_qr_scan"}, "fusion_lon": 0.0}, {"lat": 38.903809, "is_disabled": 0, "type": "electric_scooter", "lon": -77.04438783333333, "bike_id": "532e873c472a327885045ffa88fcb940", "fusion_lat": 0.0, "name": "532e873c472a327885045ffa88fcb940", "is_reserved": 0, "rental_uris": {"android": "https://dc.lft.to/lastmile_qr_scan", "ios": "https://dc.lft.to/lastmile_qr_scan"}, "fusion_lon": 0.0}, {"lat": 38.92402833333333, "is_disabled": 0, "type": "electric_scooter", "lon": -77.0269755, "bike_id": "6a6bb5ebfd19cf18ca123ade42f893b3", "fusion_lat": 0.0, "name": "6a6bb5ebfd19cf18ca123ade42f893b3", "is_reserved": 0, "rental_uris": {"android": "https://dc.lft.to/lastmile_qr_scan", "ios": "https://dc.lft.to/lastmile_qr_scan"}, "fusion_lon": 0.0}, {"lat": 38.898486166666665, "is_disabled": 0, "type": "electric_scooter", "lon": -77.03028716666667, "bike_id": "b24760559f361b2d67f7d31bad5a8e44", "fusion_lat": 0.0, "name": "b24760559f361b2d67f7d31bad5a8e44", "is_reserved": 0, "rental_uris": {"android": "https://dc.lft.to/lastmile_qr_scan", "ios": "https://dc.lft.to/lastmile_qr_scan"}, "fusion_lon": 0.0}, {"lat": 38.93742133333333, "is_disabled": 0, "type": "electric_scooter", "lon": -77.03612933333334, "bike_id": "d328961c2566edb39ffe955f92093700", "fusion_lat": 0.0, "name": "d328961c2566edb39ffe955f92093700", "is_reserved": 0, "rental_uris": {"android": "https://dc.lft.to/lastmile_qr_scan", "ios": "https://dc.lft.to/lastmile_qr_scan"}, "fusion_lon": 0.0}, {"lat": 38.916195, "is_disabled": 0, "type": "electric_scooter", "lon": -77.03143483333334, "bike_id": "16985bd95bfd59a4a4e2d863af72d8fb", "fusion_lat": 0.0, "name": "16985bd95bfd59a4a4e2d863af72d8fb", "is_reserved": 0, "rental_uris": {"android": "https://dc.lft.to/lastmile_qr_scan", "ios": "https://dc.lft.to/lastmile_qr_scan"}, "fusion_lon": 0.0}, {"lat": 38.940913, "is_disabled": 0, "type": "electric_scooter", "lon": -77.06125233333333, "bike_id": "6f7e492cda042f42e680f9a4eadeb3a6", "fusion_lat": 0.0, "name": "6f7e492cda042f42e680f9a4eadeb3a6", "is_reserved": 0, "rental_uris": {"android": "https://dc.lft.to/lastmile_qr_scan", "ios": "https://dc.lft.to/lastmile_qr_scan"}, "fusion_lon": 0.0}, {"lat": 38.949053666666664, "is_disabled": 0, "type": "electric_bike", "lon": -76.972362, "bike_id": "e5b6051d102ef9b3b1e5b8c402857011", "fusion_lat": 0.0, "name": "e5b6051d102ef9b3b1e5b8c402857011", "is_reserved": 0, "rental_uris": {"android": "https://dc.lft.to/lastmile_qr_scan", "ios": "https://dc.lft.to/lastmile_qr_scan"}, "fusion_lon": 0.0}, {"lat": 38.930674, "is_disabled": 0, "type": "electric_scooter", "lon": -77.0313745, "bike_id": "028e12b5673c2247cc50babf3407a6ea", "fusion_lat": 0.0, "name": "028e12b5673c2247cc50babf3407a6ea", "is_reserved": 0, "rental_uris": {"android": "https://dc.lft.to/lastmile_qr_scan", "ios": "https://dc.lft.to/lastmile_qr_scan"}, "fusion_lon": 0.0}, {"lat": 38.9398305, "is_disabled": 0, "type": "electric_scooter", "lon": -77.02890233333333, "bike_id": "eaa456654f230bf44048d284b30b6b75", "fusion_lat": 0.0, "name": "eaa456654f230bf44048d284b30b6b75", "is_reserved": 0, "rental_uris": {"android": "https://dc.lft.to/lastmile_qr_scan", "ios": "https://dc.lft.to/lastmile_qr_scan"}, "fusion_lon": 0.0}, {"lat": 38.906894333333334, "is_disabled": 0, "type": "electric_bike", "lon": -77.03591, "bike_id": "1a1da86b8d748097f99b245d4855c551", "fusion_lat": 0.0, "name": "1a1da86b8d748097f99b245d4855c551", "is_reserved": 0, "rental_uris": {"android": "https://dc.lft.to/lastmile_qr_scan", "ios": "https://dc.lft.to/lastmile_qr_scan"}, "fusion_lon": 0.0}, {"lat": 38.92891633333333, "is_disabled": 0, "type": "electric_scooter", "lon": -77.01401233333333, "bike_id": "7a00112b7ccb991fb62d7069cbcf647f", "fusion_lat": 0.0, "name": "7a00112b7ccb991fb62d7069cbcf647f", "is_reserved": 0, "rental_uris": {"android": "https://dc.lft.to/lastmile_qr_scan", "ios": "https://dc.lft.to/lastmile_qr_scan"}, "fusion_lon": 0.0}, {"lat": 38.921551, "is_disabled": 0, "type": "electric_scooter", "lon": -77.04214, "bike_id": "38fc46badb394f14f5161b87c7b3b06e", "fusion_lat": 0.0, "name": "38fc46badb394f14f5161b87c7b3b06e", "is_reserved": 0, "rental_uris": {"android": "https://dc.lft.to/lastmile_qr_scan", "ios": "https://dc.lft.to/lastmile_qr_scan"}, "fusion_lon": 0.0}, {"lat": 38.902083166666664, "is_disabled": 0, "type": "electric_scooter", "lon": -77.04697683333333, "bike_id": "5d3890e745ec69444b5004a8b30b67d2", "fusion_lat": 0.0, "name": "5d3890e745ec69444b5004a8b30b67d2", "is_reserved": 0, "rental_uris": {"android": "https://dc.lft.to/lastmile_qr_scan", "ios": "https://dc.lft.to/lastmile_qr_scan"}, "fusion_lon": 0.0}, {"lat": 38.914046, "is_disabled": 0, "type": "electric_scooter", "lon": -77.03058083333333, "bike_id": "7490edbf71712c912fd7af3b3a63c523", "fusion_lat": 0.0, "name": "7490edbf71712c912fd7af3b3a63c523", "is_reserved": 0, "rental_uris": {"android": "https://dc.lft.to/lastmile_qr_scan", "ios": "https://dc.lft.to/lastmile_qr_scan"}, "fusion_lon": 0.0}, {"lat": 38.904780833333334, "is_disabled": 0, "type": "electric_scooter", "lon": -77.00773383333333, "bike_id": "804fd7e8c50db0178502b064e0802e55", "fusion_lat": 0.0, "name": "804fd7e8c50db0178502b064e0802e55", "is_reserved": 0, "rental_uris": {"android": "https://dc.lft.to/lastmile_qr_scan", "ios": "https://dc.lft.to/lastmile_qr_scan"}, "fusion_lon": 0.0}, {"lat": 38.94277833333334, "is_disabled": 0, "type": "electric_scooter", "lon": -77.03254766666667, "bike_id": "1a2817f187562ef706537064e8f41ffb", "fusion_lat": 0.0, "name": "1a2817f187562ef706537064e8f41ffb", "is_reserved": 0, "rental_uris": {"android": "https://dc.lft.to/lastmile_qr_scan", "ios": "https://dc.lft.to/lastmile_qr_scan"}, "fusion_lon": 0.0}, {"lat": 38.89625616666667, "is_disabled": 0, "type": "electric_scooter", "lon": -76.9558855, "bike_id": "fb34ced97d7efa30484244a6ff6fc9fa", "fusion_lat": 0.0, "name": "fb34ced97d7efa30484244a6ff6fc9fa", "is_reserved": 0, "rental_uris": {"android": "https://dc.lft.to/lastmile_qr_scan", "ios": "https://dc.lft.to/lastmile_qr_scan"}, "fusion_lon": 0.0}, {"lat": 38.92024166666667, "is_disabled": 0, "type": "electric_scooter", "lon": -77.04197216666667, "bike_id": "92d765fe266e9f5228052658c1d68c37", "fusion_lat": 0.0, "name": "92d765fe266e9f5228052658c1d68c37", "is_reserved": 0, "rental_uris": {"android": "https://dc.lft.to/lastmile_qr_scan", "ios": "https://dc.lft.to/lastmile_qr_scan"}, "fusion_lon": 0.0}, {"lat": 38.91060516666667, "is_disabled": 0, "type": "electric_scooter", "lon": -77.04572033333334, "bike_id": "3d2d2eda5b9a411f8b4917a39b73064f", "fusion_lat": 0.0, "name": "3d2d2eda5b9a411f8b4917a39b73064f", "is_reserved": 0, "rental_uris": {"android": "https://dc.lft.to/lastmile_qr_scan", "ios": "https://dc.lft.to/lastmile_qr_scan"}, "fusion_lon": 0.0}, {"lat": 38.924148, "is_disabled": 0, "type": "electric_scooter", "lon": -77.03546, "bike_id": "f12d4efab6cb667e8cff7552778e1953", "fusion_lat": 0.0, "name": "f12d4efab6cb667e8cff7552778e1953", "is_reserved": 0, "rental_uris": {"android": "https://dc.lft.to/lastmile_qr_scan", "ios": "https://dc.lft.to/lastmile_qr_scan"}, "fusion_lon": 0.0}, {"lat": 38.9084355, "is_disabled": 0, "type": "electric_scooter", "lon": -77.028132, "bike_id": "c868e68d03d21915446511f5b143ec98", "fusion_lat": 0.0, "name": "c868e68d03d21915446511f5b143ec98", "is_reserved": 0, "rental_uris": {"android": "https://dc.lft.to/lastmile_qr_scan", "ios": "https://dc.lft.to/lastmile_qr_scan"}, "fusion_lon": 0.0}, {"lat": 38.918863, "is_disabled": 0, "type": "electric_scooter", "lon": -77.03913116666666, "bike_id": "8177b3bd77c4e2bad8dbf338f6c98809", "fusion_lat": 0.0, "name": "8177b3bd77c4e2bad8dbf338f6c98809", "is_reserved": 0, "rental_uris": {"android": "https://dc.lft.to/lastmile_qr_scan", "ios": "https://dc.lft.to/lastmile_qr_scan"}, "fusion_lon": 0.0}, {"lat": 38.88664033333333, "is_disabled": 0, "type": "electric_bike", "lon": -77.16234866666667, "bike_id": "e7f203dcd3172955c2b6a9b5de453381", "fusion_lat": 0.0, "name": "e7f203dcd3172955c2b6a9b5de453381", "is_reserved": 0, "rental_uris": {"android": "https://dc.lft.to/lastmile_qr_scan", "ios": "https://dc.lft.to/lastmile_qr_scan"}, "fusion_lon": 0.0}, {"lat": 38.9015535, "is_disabled": 0, "type": "electric_scooter", "lon": -77.04151633333333, "bike_id": "e4d13f6c0997d4e8678616142725445c", "fusion_lat": 0.0, "name": "e4d13f6c0997d4e8678616142725445c", "is_reserved": 0, "rental_uris": {"android": "https://dc.lft.to/lastmile_qr_scan", "ios": "https://dc.lft.to/lastmile_qr_scan"}, "fusion_lon": 0.0}, {"lat": 38.9561765, "is_disabled": 0, "type": "electric_scooter", "lon": -77.02785066666667, "bike_id": "7a6ce98f7f5420ddeabd27832b0fc96a", "fusion_lat": 0.0, "name": "7a6ce98f7f5420ddeabd27832b0fc96a", "is_reserved": 0, "rental_uris": {"android": "https://dc.lft.to/lastmile_qr_scan", "ios": "https://dc.lft.to/lastmile_qr_scan"}, "fusion_lon": 0.0}, {"lat": 38.91269466666667, "is_disabled": 0, "type": "electric_scooter", "lon": -77.0320045, "bike_id": "e67cbef7edb1fc5face4e9cdce0db15b", "fusion_lat": 0.0, "name": "e67cbef7edb1fc5face4e9cdce0db15b", "is_reserved": 0, "rental_uris": {"android": "https://dc.lft.to/lastmile_qr_scan", "ios": "https://dc.lft.to/lastmile_qr_scan"}, "fusion_lon": 0.0}, {"lat": 38.9003925, "is_disabled": 0, "type": "electric_scooter", "lon": -77.0019575, "bike_id": "dde28b1e474e854bac648473e4fbbc27", "fusion_lat": 0.0, "name": "dde28b1e474e854bac648473e4fbbc27", "is_reserved": 0, "rental_uris": {"android": "https://dc.lft.to/lastmile_qr_scan", "ios": "https://dc.lft.to/lastmile_qr_scan"}, "fusion_lon": 0.0}, {"lat": 38.923409, "is_disabled": 0, "type": "electric_scooter", "lon": -77.03500183333334, "bike_id": "eaba35d3c2736666926158c4596780ba", "fusion_lat": 0.0, "name": "eaba35d3c2736666926158c4596780ba", "is_reserved": 0, "rental_uris": {"android": "https://dc.lft.to/lastmile_qr_scan", "ios": "https://dc.lft.to/lastmile_qr_scan"}, "fusion_lon": 0.0}, {"lat": 38.922918, "is_disabled": 0, "type": "electric_scooter", "lon": -77.02963416666667, "bike_id": "5aa26ae06c950a53492ab6a536aa9717", "fusion_lat": 0.0, "name": "5aa26ae06c950a53492ab6a536aa9717", "is_reserved": 0, "rental_uris": {"android": "https://dc.lft.to/lastmile_qr_scan", "ios": "https://dc.lft.to/lastmile_qr_scan"}, "fusion_lon": 0.0}, {"lat": 38.88749816666667, "is_disabled": 0, "type": "electric_scooter", "lon": -77.03149166666667, "bike_id": "b2576fe6ce1401a478fcbbe2c4397311", "fusion_lat": 0.0, "name": "b2576fe6ce1401a478fcbbe2c4397311", "is_reserved": 0, "rental_uris": {"android": "https://dc.lft.to/lastmile_qr_scan", "ios": "https://dc.lft.to/lastmile_qr_scan"}, "fusion_lon": 0.0}, {"lat": 38.9348035, "is_disabled": 0, "type": "electric_scooter", "lon": -77.05788883333334, "bike_id": "2389b4faa30698bc03fa8380b3d4aa78", "fusion_lat": 0.0, "name": "2389b4faa30698bc03fa8380b3d4aa78", "is_reserved": 0, "rental_uris": {"android": "https://dc.lft.to/lastmile_qr_scan", "ios": "https://dc.lft.to/lastmile_qr_scan"}, "fusion_lon": 0.0}, {"lat": 38.9420765, "is_disabled": 0, "type": "electric_bike", "lon": -77.01826016666666, "bike_id": "e17fb70833daa9272f27919e3190d967", "fusion_lat": 0.0, "name": "e17fb70833daa9272f27919e3190d967", "is_reserved": 0, "rental_uris": {"android": "https://dc.lft.to/lastmile_qr_scan", "ios": "https://dc.lft.to/lastmile_qr_scan"}, "fusion_lon": 0.0}, {"lat": 38.858106, "is_disabled": 0, "type": "electric_scooter", "lon": -76.98651666666666, "bike_id": "af3b4afe3d48b76e913ecf04949253c5", "fusion_lat": 0.0, "name": "af3b4afe3d48b76e913ecf04949253c5", "is_reserved": 0, "rental_uris": {"android": "https://dc.lft.to/lastmile_qr_scan", "ios": "https://dc.lft.to/lastmile_qr_scan"}, "fusion_lon": 0.0}, {"lat": 38.92541, "is_disabled": 0, "type": "electric_scooter", "lon": -77.03453166666667, "bike_id": "4cb5f056c524911b0b93698b28854291", "fusion_lat": 0.0, "name": "4cb5f056c524911b0b93698b28854291", "is_reserved": 0, "rental_uris": {"android": "https://dc.lft.to/lastmile_qr_scan", "ios": "https://dc.lft.to/lastmile_qr_scan"}, "fusion_lon": 0.0}, {"lat": 38.86057816666667, "is_disabled": 0, "type": "electric_scooter", "lon": -77.05743933333333, "bike_id": "20309a2807fb30aac713177e75007954", "fusion_lat": 0.0, "name": "20309a2807fb30aac713177e75007954", "is_reserved": 0, "rental_uris": {"android": "https://dc.lft.to/lastmile_qr_scan", "ios": "https://dc.lft.to/lastmile_qr_scan"}, "fusion_lon": 0.0}, {"lat": 38.92240866666667, "is_disabled": 0, "type": "electric_scooter", "lon": -77.04335166666667, "bike_id": "0c424317de29a2cf9f019d79bee730a1", "fusion_lat": 0.0, "name": "0c424317de29a2cf9f019d79bee730a1", "is_reserved": 0, "rental_uris": {"android": "https://dc.lft.to/lastmile_qr_scan", "ios": "https://dc.lft.to/lastmile_qr_scan"}, "fusion_lon": 0.0}, {"lat": 38.91930266666667, "is_disabled": 0, "type": "electric_scooter", "lon": -77.03548716666667, "bike_id": "bd7729c1d69dbc62817d8c8e8b370484", "fusion_lat": 0.0, "name": "bd7729c1d69dbc62817d8c8e8b370484", "is_reserved": 0, "rental_uris": {"android": "https://dc.lft.to/lastmile_qr_scan", "ios": "https://dc.lft.to/lastmile_qr_scan"}, "fusion_lon": 0.0}, {"lat": 38.918738, "is_disabled": 0, "type": "electric_scooter", "lon": -77.04254183333333, "bike_id": "a388a082bf374a5f168fb6fa4cc8e84c", "fusion_lat": 0.0, "name": "a388a082bf374a5f168fb6fa4cc8e84c", "is_reserved": 0, "rental_uris": {"android": "https://dc.lft.to/lastmile_qr_scan", "ios": "https://dc.lft.to/lastmile_qr_scan"}, "fusion_lon": 0.0}, {"lat": 38.921560666666664, "is_disabled": 0, "type": "electric_scooter", "lon": -77.03656166666667, "bike_id": "99a7c92c61d84072f919e78ebeb489b9", "fusion_lat": 0.0, "name": "99a7c92c61d84072f919e78ebeb489b9", "is_reserved": 0, "rental_uris": {"android": "https://dc.lft.to/lastmile_qr_scan", "ios": "https://dc.lft.to/lastmile_qr_scan"}, "fusion_lon": 0.0}, {"lat": 38.91604866666667, "is_disabled": 0, "type": "electric_scooter", "lon": -77.03850566666667, "bike_id": "d028cbe9ff63e6a80b933510a74b159b", "fusion_lat": 0.0, "name": "d028cbe9ff63e6a80b933510a74b159b", "is_reserved": 0, "rental_uris": {"android": "https://dc.lft.to/lastmile_qr_scan", "ios": "https://dc.lft.to/lastmile_qr_scan"}, "fusion_lon": 0.0}, {"lat": 38.9722865, "is_disabled": 0, "type": "electric_bike", "lon": -76.99341783333334, "bike_id": "17162ae461de44e59870d9d82adf5f03", "fusion_lat": 0.0, "name": "17162ae461de44e59870d9d82adf5f03", "is_reserved": 0, "rental_uris": {"android": "https://dc.lft.to/lastmile_qr_scan", "ios": "https://dc.lft.to/lastmile_qr_scan"}, "fusion_lon": 0.0}, {"lat": 38.900322333333335, "is_disabled": 0, "type": "electric_scooter", "lon": -77.033664, "bike_id": "486a761c13094e4d0bbcd61b45198bea", "fusion_lat": 0.0, "name": "486a761c13094e4d0bbcd61b45198bea", "is_reserved": 0, "rental_uris": {"android": "https://dc.lft.to/lastmile_qr_scan", "ios": "https://dc.lft.to/lastmile_qr_scan"}, "fusion_lon": 0.0}, {"lat": 38.90874633333333, "is_disabled": 0, "type": "electric_scooter", "lon": -77.044378, "bike_id": "0c0aef1ebbe4bbcd87630d5200b4afdc", "fusion_lat": 0.0, "name": "0c0aef1ebbe4bbcd87630d5200b4afdc", "is_reserved": 0, "rental_uris": {"android": "https://dc.lft.to/lastmile_qr_scan", "ios": "https://dc.lft.to/lastmile_qr_scan"}, "fusion_lon": 0.0}, {"lat": 38.90628516666666, "is_disabled": 0, "type": "electric_scooter", "lon": -77.043469, "bike_id": "0445d6485c6ae3901ff69b63e11a0f2f", "fusion_lat": 0.0, "name": "0445d6485c6ae3901ff69b63e11a0f2f", "is_reserved": 0, "rental_uris": {"android": "https://dc.lft.to/lastmile_qr_scan", "ios": "https://dc.lft.to/lastmile_qr_scan"}, "fusion_lon": 0.0}, {"lat": 38.89533616666667, "is_disabled": 0, "type": "electric_scooter", "lon": -77.0111845, "bike_id": "383388f5a7c156a56b211fc1bc0a4abc", "fusion_lat": 0.0, "name": "383388f5a7c156a56b211fc1bc0a4abc", "is_reserved": 0, "rental_uris": {"android": "https://dc.lft.to/lastmile_qr_scan", "ios": "https://dc.lft.to/lastmile_qr_scan"}, "fusion_lon": 0.0}, {"lat": 38.912578333333336, "is_disabled": 0, "type": "electric_scooter", "lon": -77.00623533333334, "bike_id": "bb3841d0c168b150a23c1045b7abc2c8", "fusion_lat": 0.0, "name": "bb3841d0c168b150a23c1045b7abc2c8", "is_reserved": 0, "rental_uris": {"android": "https://dc.lft.to/lastmile_qr_scan", "ios": "https://dc.lft.to/lastmile_qr_scan"}, "fusion_lon": 0.0}, {"lat": 38.91954416666667, "is_disabled": 0, "type": "electric_scooter", "lon": -76.980778, "bike_id": "6d2cfb4f96b34e5132c43689fca01030", "fusion_lat": 0.0, "name": "6d2cfb4f96b34e5132c43689fca01030", "is_reserved": 0, "rental_uris": {"android": "https://dc.lft.to/lastmile_qr_scan", "ios": "https://dc.lft.to/lastmile_qr_scan"}, "fusion_lon": 0.0}, {"lat": 38.914066, "is_disabled": 0, "type": "electric_scooter", "lon": -77.03255233333333, "bike_id": "9e2c455e8f8f096838ce0550ddf73384", "fusion_lat": 0.0, "name": "9e2c455e8f8f096838ce0550ddf73384", "is_reserved": 0, "rental_uris": {"android": "https://dc.lft.to/lastmile_qr_scan", "ios": "https://dc.lft.to/lastmile_qr_scan"}, "fusion_lon": 0.0}, {"lat": 38.90621, "is_disabled": 0, "type": "electric_scooter", "lon": -77.03962083333333, "bike_id": "cc19aa93c20173430241f45f46b83b2a", "fusion_lat": 0.0, "name": "cc19aa93c20173430241f45f46b83b2a", "is_reserved": 0, "rental_uris": {"android": "https://dc.lft.to/lastmile_qr_scan", "ios": "https://dc.lft.to/lastmile_qr_scan"}, "fusion_lon": 0.0}, {"lat": 38.903128833333334, "is_disabled": 0, "type": "electric_scooter", "lon": -77.03777783333334, "bike_id": "27988abf9a4ec2537d2722fa4578a530", "fusion_lat": 0.0, "name": "27988abf9a4ec2537d2722fa4578a530", "is_reserved": 0, "rental_uris": {"android": "https://dc.lft.to/lastmile_qr_scan", "ios": "https://dc.lft.to/lastmile_qr_scan"}, "fusion_lon": 0.0}, {"lat": 38.87673516666667, "is_disabled": 0, "type": "electric_scooter", "lon": -77.0148175, "bike_id": "3b99ae723607f11fd27627808b949755", "fusion_lat": 0.0, "name": "3b99ae723607f11fd27627808b949755", "is_reserved": 0, "rental_uris": {"android": "https://dc.lft.to/lastmile_qr_scan", "ios": "https://dc.lft.to/lastmile_qr_scan"}, "fusion_lon": 0.0}, {"lat": 38.91914883333333, "is_disabled": 0, "type": "electric_scooter", "lon": -77.0362655, "bike_id": "4d5cc593f5043c3679467edbf74c7a95", "fusion_lat": 0.0, "name": "4d5cc593f5043c3679467edbf74c7a95", "is_reserved": 0, "rental_uris": {"android": "https://dc.lft.to/lastmile_qr_scan", "ios": "https://dc.lft.to/lastmile_qr_scan"}, "fusion_lon": 0.0}, {"lat": 38.902955, "is_disabled": 0, "type": "electric_scooter", "lon": -77.0208605, "bike_id": "49993b56b2e51f39fe6d894eb156e18f", "fusion_lat": 0.0, "name": "49993b56b2e51f39fe6d894eb156e18f", "is_reserved": 0, "rental_uris": {"android": "https://dc.lft.to/lastmile_qr_scan", "ios": "https://dc.lft.to/lastmile_qr_scan"}, "fusion_lon": 0.0}, {"lat": 38.8843705, "is_disabled": 0, "type": "electric_scooter", "lon": -77.03038433333333, "bike_id": "e21cb7e4a9cf27e41443684fec99c1b1", "fusion_lat": 0.0, "name": "e21cb7e4a9cf27e41443684fec99c1b1", "is_reserved": 0, "rental_uris": {"android": "https://dc.lft.to/lastmile_qr_scan", "ios": "https://dc.lft.to/lastmile_qr_scan"}, "fusion_lon": 0.0}, {"lat": 38.92371133333333, "is_disabled": 0, "type": "electric_scooter", "lon": -77.05756916666667, "bike_id": "5cfa78dc53de7dbfda2dda974a2c40b3", "fusion_lat": 0.0, "name": "5cfa78dc53de7dbfda2dda974a2c40b3", "is_reserved": 0, "rental_uris": {"android": "https://dc.lft.to/lastmile_qr_scan", "ios": "https://dc.lft.to/lastmile_qr_scan"}, "fusion_lon": 0.0},