{"data": {"bikes": [{"lat": 38.906751166666666, "fusion_lat": 0.0, "type": "electric_scooter", "bike_id": "cee08c1cd3cecb9f288e741aec4cbe96", "is_reserved": 0, "rental_uris": {"ios": "https://dc.lft.to/lastmile_qr_scan", "android": "https://dc.lft.to/lastmile_qr_scan"}, "is_disabled": 0, "lon": -77.07122033333333, "name": "cee08c1cd3cecb9f288e741aec4cbe96", "fusion_lon": 0.0}, {"lat": 38.921732, "fusion_lat": 0.0, "type": "electric_scooter", "bike_id": "1dd81c9da739fb285f65381a73f7355d", "is_reserved": 0, "rental_uris": {"ios": "https://dc.lft.to/lastmile_qr_scan", "android": "https://dc.lft.to/lastmile_qr_scan"}, "is_disabled": 0, "lon": -77.0402005, "name": "1dd81c9da739fb285f65381a73f7355d", "fusion_lon": 0.0}, {"lat": 38.823819666666665, "fusion_lat": 0.0, "type": "electric_bike", "bike_id": "43f4b5e3e6e49dd328053dec000d4898", "is_reserved": 0, "rental_uris": {"ios": "https://dc.lft.to/lastmile_qr_scan", "android": "https://dc.lft.to/lastmile_qr_scan"}, "is_disabled": 0, "lon": -77.00225933333333, "name": "43f4b5e3e6e49dd328053dec000d4898", "fusion_lon": 0.0}, {"lat": 38.89358266666667, "fusion_lat": 0.0, "type": "electric_scooter", "bike_id": "01b0f597a456811b71d1d64bb4e0a56f", "is_reserved": 0, "rental_uris": {"ios": "https://dc.lft.to/lastmile_qr_scan", "android": "https://dc.lft.to/lastmile_qr_scan"}, "is_disabled": 0, "lon": -76.949363, "name": "01b0f597a456811b71d1d64bb4e0a56f", "fusion_lon": 0.0}, {"lat": 38.90095983333333, "fusion_lat": 0.0, "type": "electric_scooter", "bike_id": "7179669b58df7e531ca7a87e770f14d5", "is_reserved": 0, "rental_uris": {"ios": "https://dc.lft.to/lastmile_qr_scan", "android": "https://dc.lft.to/lastmile_qr_scan"}, "is_disabled": 0, "lon": -77.0242005, "name": "7179669b58df7e531ca7a87e770f14d5", "fusion_lon": 0.0}, {"lat": 38.91572983333333, "fusion_lat": 0.0, "type": "electric_scooter", "bike_id": "5f0b7b0e7422775604a121b4ec952f22", "is_reserved": 0, "rental_uris": {"ios": "https://dc.lft.to/lastmile_qr_scan", "android": "https://dc.lft.to/lastmile_qr_scan"}, "is_disabled": 0, "lon": -77.03189466666667, "name": "5f0b7b0e7422775604a121b4ec952f22", "fusion_lon": 0.0}, {"lat": 38.921348333333334, "fusion_lat": 0.0, "type": "electric_scooter", "bike_id": "80fd5c6b8dc58a557213d9717e306354", "is_reserved": 0, "rental_uris": {"ios": "https://dc.lft.to/lastmile_qr_scan", "android": "https://dc.lft.to/lastmile_qr_scan"}, "is_disabled": 0, "lon": -77.04422783333334, "name": "80fd5c6b8dc58a557213d9717e306354", "fusion_lon": 0.0}, {"lat": 38.820479666666664, "fusion_lat": 0.0, "type": "electric_bike", "bike_id": "b1e2090d346a8af0cfadb302987ab72f", "is_reserved": 0, "rental_uris": {"ios": "https://dc.lft.to/lastmile_qr_scan", "android": "https://dc.lft.to/lastmile_qr_scan"}, "is_disabled": 0, "lon": -77.05315316666666, "name": "b1e2090d346a8af0cfadb302987ab72f", "fusion_lon": 0.0}, {"lat": 38.89667133333333, "fusion_lat": 0.0, "type": "electric_scooter", "bike_id": "75874079245c69b724c781ee5cbd5e2d", "is_reserved": 0, "rental_uris": {"ios": "https://dc.lft.to/lastmile_qr_scan", "android": "https://dc.lft.to/lastmile_qr_scan"}, "is_disabled": 0, "lon": -77.02372666666666, "name": "75874079245c69b724c781ee5cbd5e2d", "fusion_lon": 0.0}, {"lat": 38.88242566666667, "fusion_lat": 0.0, "type": "electric_bike", "bike_id": "c47c3aa95cbdce22e2459fcc5eb414bc", "is_reserved": 0, "rental_uris": {"ios": "https://dc.lft.to/lastmile_qr_scan", "android": "https://dc.lft.to/lastmile_qr_scan"}, "is_disabled": 0, "lon": -76.96255683333334, "name": "c47c3aa95cbdce22e2459fcc5eb414bc", "fusion_lon": 0.0}, {"lat": 38.91553016666667, "fusion_lat": 0.0, "type": "electric_scooter", "bike_id": "86740169f3234d8f4b545b78fc8fb610", "is_reserved": 0, "rental_uris": {"ios": "https://dc.lft.to/lastmile_qr_scan", "android": "https://dc.lft.to/lastmile_qr_scan"}, "is_disabled": 0, "lon": -76.970176, "name": "86740169f3234d8f4b545b78fc8fb610", "fusion_lon": 0.0}, {"lat": 38.921734666666666, "fusion_lat": 0.0, "type": "electric_scooter", "bike_id": "141595d0bb9cd77e74a2f0ecf8aa04a0", "is_reserved": 0, "rental_uris": {"ios": "https://dc.lft.to/lastmile_qr_scan", "android": "https://dc.lft.to/lastmile_qr_scan"}, "is_disabled": 0, "lon": -77.03259716666666, "name": "141595d0bb9cd77e74a2f0ecf8aa04a0", "fusion_lon": 0.0}, {"lat": 39.0432685, "fusion_lat": 0.0, "type": "electric_bike", "bike_id": "eacc22d26553ced6f2ab00c1f16f5723", "is_reserved": 0, "rental_uris": {"ios": "https://dc.lft.to/lastmile_qr_scan", "android": "https://dc.lft.to/lastmile_qr_scan"}, "is_disabled": 0, "lon": -77.05163383333333, "name": "eacc22d26553ced6f2ab00c1f16f5723", "fusion_lon": 0.0}, {"lat": 38.906599, "fusion_lat": 0.0, "type": "electric_scooter", "bike_id": "60b7b6c2d016771e40ad3286f4332070", "is_reserved": 0, "rental_uris": {"ios": "https://dc.lft.to/lastmile_qr_scan", "android": "https://dc.lft.to/lastmile_qr_scan"}, "is_disabled": 0, "lon": -77.04165233333333, "name": "60b7b6c2d016771e40ad3286f4332070", "fusion_lon": 0.0}, {"lat": 38.9000435, "fusion_lat": 0.0, "type": "electric_scooter", "bike_id": "667633ee3c5cd1f70199cda1c8eddad6", "is_reserved": 0, "rental_uris": {"ios": "https://dc.lft.to/lastmile_qr_scan", "android": "https://dc.lft.to/lastmile_qr_scan"}, "is_disabled": 0, "lon": -76.99633233333333, "name": "667633ee3c5cd1f70199cda1c8eddad6", "fusion_lon": 0.0}, {"lat": 38.90482383333333, "fusion_lat": 0.0, "type": "electric_scooter", "bike_id": "64e143dcd910dd79505cb60cffcdf23e", "is_reserved": 0, "rental_uris": {"ios": "https://dc.lft.to/lastmile_qr_scan", "android": "https://dc.lft.to/lastmile_qr_scan"}, "is_disabled": 0, "lon": -77.04991, "name": "64e143dcd910dd79505cb60cffcdf23e", "fusion_lon": 0.0}, {"lat": 38.8323955, "fusion_lat": 0.0, "type": "electric_bike", "bike_id": "c4c85601a1029ae41b0ed1838c922506", "is_reserved": 0, "rental_uris": {"ios": "https://dc.lft.to/lastmile_qr_scan", "android": "https://dc.lft.to/lastmile_qr_scan"}, "is_disabled": 0, "lon": -76.946166, "name": "c4c85601a1029ae41b0ed1838c922506", "fusion_lon": 0.0}, {"lat": 38.90427066666667, "fusion_lat": 0.0, "type": "electric_scooter", "bike_id": "d55c07379a2678b61537b2f5da93c705", "is_reserved": 0, "rental_uris": {"ios": "https://dc.lft.to/lastmile_qr_scan", "android": "https://dc.lft.to/lastmile_qr_scan"}, "is_disabled": 0, "lon": -77.02771233333333, "name": "d55c07379a2678b61537b2f5da93c705", "fusion_lon": 0.0}, {"lat": 38.92520966666667, "fusion_lat": 0.0, "type": "electric_scooter", "bike_id": "5b106c4ef9c6d0f575c978cf55558974", "is_reserved": 0, "rental_uris": {"ios": "https://dc.lft.to/lastmile_qr_scan", "android": "https://dc.lft.to/lastmile_qr_scan"}, "is_disabled": 0, "lon": -77.023392, "name": "5b106c4ef9c6d0f575c978cf55558974", "fusion_lon": 0.0}, {"lat": 38.88180716666667, "fusion_lat": 0.0, "type": "electric_scooter", "bike_id": "e7bd61b0e80cff88b59b50233a77c87c", "is_reserved": 0, "rental_uris": {"ios": "https://dc.lft.to/lastmile_qr_scan", "android": "https://dc.lft.to/lastmile_qr_scan"}, "is_disabled": 0, "lon": -77.0373975, "name": "e7bd61b0e80cff88b59b50233a77c87c", "fusion_lon": 0.0}, {"lat": 38.893990333333335, "fusion_lat": 0.0, "type": "electric_scooter", "bike_id": "b406a1bc782a77c5a826e2d62e959d9b", "is_reserved": 0, "rental_uris": {"ios": "https://dc.lft.to/lastmile_qr_scan", "android": "https://dc.lft.to/lastmile_qr_scan"}, "is_disabled": 0, "lon": -77.02857733333333, "name": "b406a1bc782a77c5a826e2d62e959d9b", "fusion_lon": 0.0}, {"lat": 38.93258216666667, "fusion_lat": 0.0, "type": "electric_scooter", "bike_id": "f9ead2b3d38bac10d79a446bb68aa167", "is_reserved": 0, "rental_uris": {"ios": "https://dc.lft.to/lastmile_qr_scan", "android": "https://dc.lft.to/lastmile_qr_scan"}, "is_disabled": 0, "lon": -77.03850866666667, "name": "f9ead2b3d38bac10d79a446bb68aa167", "fusion_lon": 0.0}, {"lat": 38.90502683333333, "fusion_lat": 0.0, "type": "electric_scooter", "bike_id": "60dd2b31df5444bedd83149a150401ff", "is_reserved": 0, "rental_uris": {"ios": "https://dc.lft.to/lastmile_qr_scan", "android": "https://dc.lft.to/lastmile_qr_scan"}, "is_disabled": 0, "lon": -77.058076, "name": "60dd2b31df5444bedd83149a150401ff", "fusion_lon": 0.0}, {"lat": 38.90508583333333, "fusion_lat": 0.0, "type": "electric_scooter", "bike_id": "50728df91912e05602e28eb3f05b1d39", "is_reserved": 0, "rental_uris": {"ios": "https://dc.lft.to/lastmile_qr_scan", "android": "https://dc.lft.to/lastmile_qr_scan"}, "is_disabled": 0, "lon": -77.043396, "name": "50728df91912e05602e28eb3f05b1d39", "fusion_lon": 0.0}, {"lat": 39.05049833333333, "fusion_lat": 0.0, "type": "electric_bike", "bike_id": "7af604b173cd241bc8e23d4a2dac197a", "is_reserved": 0, "rental_uris": {"ios": "https://dc.lft.to/lastmile_qr_scan", "android": "https://dc.lft.to/lastmile_qr_scan"}, "is_disabled": 0, "lon": -77.05144016666667, "name": "7af604b173cd241bc8e23d4a2dac197a", "fusion_lon": 0.0}, {"lat": 38.897997333333336, "fusion_lat": 0.0, "type": "electric_scooter", "bike_id": "5b27e27b82f793f416d0058fb6fcabeb", "is_reserved": 0, "rental_uris": {"ios": "https://dc.lft.to/lastmile_qr_scan", "android": "https://dc.lft.to/lastmile_qr_scan"}, "is_disabled": 0, "lon": -77.01187483333334, "name": "5b27e27b82f793f416d0058fb6fcabeb", "fusion_lon": 0.0}, {"lat": 38.8841105, "fusion_lat": 0.0, "type": "electric_scooter", "bike_id": "158a7f932944a42cbbe2c011ad93ab04", "is_reserved": 0, "rental_uris": {"ios": "https://dc.lft.to/lastmile_qr_scan", "android": "https://dc.lft.to/lastmile_qr_scan"}, "is_disabled": 0, "lon": -77.03047016666666, "name": "158a7f932944a42cbbe2c011ad93ab04", "fusion_lon": 0.0}, {"lat": 38.904137666666664, "fusion_lat": 0.0, "type": "electric_scooter", "bike_id": "c4b777306d77940015eb1279fa46beb7", "is_reserved": 0, "rental_uris": {"ios": "https://dc.lft.to/lastmile_qr_scan", "android": "https://dc.lft.to/lastmile_qr_scan"}, "is_disabled": 0, "lon": -76.97333933333333, "name": "c4b777306d77940015eb1279fa46beb7", "fusion_lon": 0.0}, {"lat": 38.909728, "fusion_lat": 0.0, "type": "electric_scooter", "bike_id": "93f6741607e00c349b0ee8aa804945da", "is_reserved": 0, "rental_uris": {"ios": "https://dc.lft.to/lastmile_qr_scan", "android": "https://dc.lft.to/lastmile_qr_scan"}, "is_disabled": 0, "lon": -77.0399685, "name": "93f6741607e00c349b0ee8aa804945da", "fusion_lon": 0.0}, {"lat": 38.90540633333333, "fusion_lat": 0.0, "type": "electric_scooter", "bike_id": "b035a6204b97b3f7ad5bab3d0ce59bb7", "is_reserved": 0, "rental_uris": {"ios": "https://dc.lft.to/lastmile_qr_scan", "android": "https://dc.lft.to/lastmile_qr_scan"}, "is_disabled": 0, "lon": -76.98471183333334, "name": "b035a6204b97b3f7ad5bab3d0ce59bb7", "fusion_lon": 0.0}, {"lat": 38.8764195, "fusion_lat": 0.0, "type": "electric_scooter", "bike_id": "caa0306b03e9f8daf1374afbdbf90e99", "is_reserved": 0, "rental_uris": {"ios": "https://dc.lft.to/lastmile_qr_scan", "android": "https://dc.lft.to/lastmile_qr_scan"}, "is_disabled": 0, "lon": -77.00452166666666, "name": "caa0306b03e9f8daf1374afbdbf90e99", "fusion_lon": 0.0}, {"lat": 38.916962833333336, "fusion_lat": 0.0, "type": "electric_scooter", "bike_id": "3e7fe5a25592ee286ef2dd4f4e96f979", "is_reserved": 0, "rental_uris": {"ios": "https://dc.lft.to/lastmile_qr_scan", "android": "https://dc.lft.to/lastmile_qr_scan"}, "is_disabled": 0, "lon": -77.0244935, "name": "3e7fe5a25592ee286ef2dd4f4e96f979", "fusion_lon": 0.0}, {"lat": 38.919977333333335, "fusion_lat": 0.0, "type": "electric_scooter", "bike_id": "8b8e80b6dbf542cbbc8ec9672b03254e", "is_reserved": 0, "rental_uris": {"ios": "https://dc.lft.to/lastmile_qr_scan", "android": "https://dc.lft.to/lastmile_qr_scan"}, "is_disabled": 0, "lon": -77.03299233333334, "name": "8b8e80b6dbf542cbbc8ec9672b03254e", "fusion_lon": 0.0}, {"lat": 38.9209665, "fusion_lat": 0.0, "type": "electric_scooter", "bike_id": "eb215c81fb55231035a5024a0e37c4b6", "is_reserved": 0, "rental_uris": {"ios": "https://dc.lft.to/lastmile_qr_scan", "android": "https://dc.lft.to/lastmile_qr_scan"}, "is_disabled": 0, "lon": -77.01674466666667, "name": "eb215c81fb55231035a5024a0e37c4b6", "fusion_lon": 0.0}, {"lat": 38.9333615, "fusion_lat": 0.0, "type": "electric_scooter", "bike_id": "332db012ab7ba760edf583dc5b80b2f8", "is_reserved": 0, "rental_uris": {"ios": "https://dc.lft.to/lastmile_qr_scan", "android": "https://dc.lft.to/lastmile_qr_scan"}, "is_disabled": 0, "lon": -77.0342765, "name": "332db012ab7ba760edf583dc5b80b2f8", "fusion_lon": 0.0}, {"lat": 38.9326845, "fusion_lat": 0.0, "type": "electric_scooter", "bike_id": "ce9201a834cd6cf49035ff92e55d042a", "is_reserved": 0, "rental_uris": {"ios": "https://dc.lft.to/lastmile_qr_scan", "android": "https://dc.lft.to/lastmile_qr_scan"}, "is_disabled": 0, "lon": -77.03887883333333, "name": "ce9201a834cd6cf49035ff92e55d042a", "fusion_lon": 0.0}, {"lat": 38.90011, "fusion_lat": 0.0, "type": "electric_scooter", "bike_id": "fd3d1b73ba3cdbf9a44d04954d33cb89", "is_reserved": 0, "rental_uris": {"ios": "https://dc.lft.to/lastmile_qr_scan", "android": "https://dc.lft.to/lastmile_qr_scan"}, "is_disabled": 0, "lon": -76.993483, "name": "fd3d1b73ba3cdbf9a44d04954d33cb89", "fusion_lon": 0.0}, {"lat": 38.901475, "fusion_lat": 0.0, "type": "electric_scooter", "bike_id": "98270c26dbc4e9ec580ec65b49eafcc0", "is_reserved": 0, "rental_uris": {"ios": "https://dc.lft.to/lastmile_qr_scan", "android": "https://dc.lft.to/lastmile_qr_scan"}, "is_disabled": 0, "lon": -77.04334383333334, "name": "98270c26dbc4e9ec580ec65b49eafcc0", "fusion_lon": 0.0}, {"lat": 38.93259583333333, "fusion_lat": 0.0, "type": "electric_scooter", "bike_id": "44dd6b094493910075003cd6c7646399", "is_reserved": 0, "rental_uris": {"ios": "https://dc.lft.to/lastmile_qr_scan", "android": "https://dc.lft.to/lastmile_qr_scan"}, "is_disabled": 0, "lon": -77.03846566666667, "name": "44dd6b094493910075003cd6c7646399", "fusion_lon": 0.0}, {"lat": 38.962256833333335, "fusion_lat": 0.0, "type": "electric_bike", "bike_id": "b247f370d8e4daf10a83f2eb838bba4f", "is_reserved": 0, "rental_uris": {"ios": "https://dc.lft.to/lastmile_qr_scan", "android": "https://dc.lft.to/lastmile_qr_scan"}, "is_disabled": 0, "lon": -77.02623983333334, "name": "b247f370d8e4daf10a83f2eb838bba4f", "fusion_lon": 0.0}, {"lat": 38.906056666666665, "fusion_lat": 0.0, "type": "electric_scooter", "bike_id": "3ebfee7ec5b6eb1f09129640cedeabc8", "is_reserved": 0, "rental_uris": {"ios": "https://dc.lft.to/lastmile_qr_scan", "android": "https://dc.lft.to/lastmile_qr_scan"}, "is_disabled": 0, "lon": -77.02112283333334, "name": "3ebfee7ec5b6eb1f09129640cedeabc8", "fusion_lon": 0.0}, {"lat": 38.9058195, "fusion_lat": 0.0, "type": "electric_scooter", "bike_id": "484622e2e4b38345d51389f8fd07bd65", "is_reserved": 0, "rental_uris": {"ios": "https://dc.lft.to/lastmile_qr_scan", "android": "https://dc.lft.to/lastmile_qr_scan"}, "is_disabled": 0, "lon": -77.0412365, "name": "484622e2e4b38345d51389f8fd07bd65", "fusion_lon": 0.0}, {"lat": 38.911523333333335, "fusion_lat": 0.0, "type": "electric_scooter", "bike_id": "6b281fe3f4fa6ad88a024f9ab9a8a850", "is_reserved": 0, "rental_uris": {"ios": "https://dc.lft.to/lastmile_qr_scan", "android": "https://dc.lft.to/lastmile_qr_scan"}, "is_disabled": 0, "lon": -77.03848666666667, "name": "6b281fe3f4fa6ad88a024f9ab9a8a850", "fusion_lon": 0.0}, {"lat": 38.897119833333335, "fusion_lat": 0.0, "type": "electric_scooter", "bike_id": "3a2d543ee38cc021d87a07201f081117", "is_reserved": 0, "rental_uris": {"ios": "https://dc.lft.to/lastmile_qr_scan", "android": "https://dc.lft.to/lastmile_qr_scan"}, "is_disabled": 0, "lon": -77.03206983333334, "name": "3a2d543ee38cc021d87a07201f081117", "fusion_lon": 0.0}, {"lat": 38.8891575, "fusion_lat": 0.0, "type": "electric_scooter", "bike_id": "e9eb7db1d70a7cecf2595c7926eec4f1", "is_reserved": 0, "rental_uris": {"ios": "https://dc.lft.to/lastmile_qr_scan", "android": "https://dc.lft.to/lastmile_qr_scan"}, "is_disabled": 0, "lon": -76.99174866666667, "name": "e9eb7db1d70a7cecf2595c7926eec4f1", "fusion_lon": 0.0}, {"lat": 38.909204833333334, "fusion_lat": 0.0, "type": "electric_scooter", "bike_id": "8941ab32e6def6761c9306fc5190140d", "is_reserved": 0, "rental_uris": {"ios": "https://dc.lft.to/lastmile_qr_scan", "android": "https://dc.lft.to/lastmile_qr_scan"}, "is_disabled": 0, "lon": -77.04384566666667, "name": "8941ab32e6def6761c9306fc5190140d", "fusion_lon": 0.0}, {"lat": 38.88456033333333, "fusion_lat": 0.0, "type": "electric_scooter", "bike_id": "3faf96940abae97c2d3366b6fdda610a", "is_reserved": 0, "rental_uris": {"ios": "https://dc.lft.to/lastmile_qr_scan", "android": "https://dc.lft.to/lastmile_qr_scan"}, "is_disabled": 0, "lon": -76.92623533333334, "name": "3faf96940abae97c2d3366b6fdda610a", "fusion_lon": 0.0}, {"lat": 38.93499633333333, "fusion_lat": 0.0, "type": "electric_scooter", "bike_id": "35f9499a7da03a127dc89c503f755f6d", "is_reserved": 0, "rental_uris": {"ios": "https://dc.lft.to/lastmile_qr_scan", "android": "https://dc.lft.to/lastmile_qr_scan"}, "is_disabled": 0, "lon": -77.0352075, "name": "35f9499a7da03a127dc89c503f755f6d", "fusion_lon": 0.0}, {"lat": 38.835524166666666, "fusion_lat": 0.0, "type": "electric_bike", "bike_id": "89f7e59d51fc61229866aac7da09a1b0", "is_reserved": 0, "rental_uris": {"ios": "https://dc.lft.to/lastmile_qr_scan", "android": "https://dc.lft.to/lastmile_qr_scan"}, "is_disabled": 0, "lon": -76.98729383333334, "name": "89f7e59d51fc61229866aac7da09a1b0", "fusion_lon": 0.0}, {"lat": 38.899967333333336, "fusion_lat": 0.0, "type": "electric_scooter", "bike_id": "0a7d17dcb7fd9c67bba39edbcead8557", "is_reserved": 0, "rental_uris": {"ios": "https://dc.lft.to/lastmile_qr_scan", "android": "https://dc.lft.to/lastmile_qr_scan"}, "is_disabled": 0, "lon": -77.02199866666666, "name": "0a7d17dcb7fd9c67bba39edbcead8557", "fusion_lon": 0.0}, {"lat": 38.90861666666667, "fusion_lat": 0.0, "type": "electric_scooter", "bike_id": "896d39e92fc2fc8cdc4afa5ed42a7d65", "is_reserved": 0, "rental_uris": {"ios": "https://dc.lft.to/lastmile_qr_scan", "android": "https://dc.lft.to/lastmile_qr_scan"}, "is_disabled": 0, "lon": -77.02543833333333, "name": "896d39e92fc2fc8cdc4afa5ed42a7d65", "fusion_lon": 0.0}, {"lat": 38.91006133333333, "fusion_lat": 0.0, "type": "electric_scooter", "bike_id": "4c68cbde63181ff77e5f3f7c35ddc190", "is_reserved": 0, "rental_uris": {"ios": "https://dc.lft.to/lastmile_qr_scan", "android": "https://dc.lft.to/lastmile_qr_scan"}, "is_disabled": 0, "lon": -77.04367116666667, "name": "4c68cbde63181ff77e5f3f7c35ddc190", "fusion_lon": 0.0}, {"lat": 38.89856233333333, "fusion_lat": 0.0, "type": "electric_scooter", "bike_id": "85746a1db72a97b92e1d4ee126ebe497", "is_reserved": 0, "rental_uris": {"ios": "https://dc.lft.to/lastmile_qr_scan", "android": "https://dc.lft.to/lastmile_qr_scan"}, "is_disabled": 0, "lon": -77.03964483333333, "name": "85746a1db72a97b92e1d4ee126ebe497", "fusion_lon": 0.0}, {"lat": 38.919517, "fusion_lat": 0.0, "type": "electric_scooter", "bike_id": "02c527aa6167dfb824421b6cfa455c23", "is_reserved": 0, "rental_uris": {"ios": "https://dc.lft.to/lastmile_qr_scan", "android": "https://dc.lft.to/lastmile_qr_scan"}, "is_disabled": 0, "lon": -77.04495083333333, "name": "02c527aa6167dfb824421b6cfa455c23", "fusion_lon": 0.0}, {"lat": 38.858947666666666, "fusion_lat": 0.0, "type": "electric_bike", "bike_id": "0cf9cebf0b1c3191b12b43e710c7a3ae", "is_reserved": 0, "rental_uris": {"ios": "https://dc.lft.to/lastmile_qr_scan", "android": "https://dc.lft.to/lastmile_qr_scan"}, "is_disabled": 0, "lon": -77.11866116666667, "name": "0cf9cebf0b1c3191b12b43e710c7a3ae", "fusion_lon": 0.0}, {"lat": 38.9031735, "fusion_lat": 0.0, "type": "electric_scooter", "bike_id": "6f48d229eeefc08d505ae8eece4b939e", "is_reserved": 0, "rental_uris": {"ios": "https://dc.lft.to/lastmile_qr_scan", "android": "https://dc.lft.to/lastmile_qr_scan"}, "is_disabled": 0, "lon": -76.9780045, "name": "6f48d229eeefc08d505ae8eece4b939e", "fusion_lon": 0.0}, {"lat": 38.906268833333336, "fusion_lat": 0.0, "type": "electric_scooter", "bike_id": "6129a7fa0360609c5f9503af86d7446a", "is_reserved": 0, "rental_uris": {"ios": "https://dc.lft.to/lastmile_qr_scan", "android": "https://dc.lft.to/lastmile_qr_scan"}, "is_disabled": 0, "lon": -77.02467733333333, "name": "6129a7fa0360609c5f9503af86d7446a", "fusion_lon": 0.0}, {"lat": 38.91338583333334, "fusion_lat": 0.0, "type": "electric_scooter", "bike_id": "2f98f8a6bf261b4146fde8d12804d347", "is_reserved": 0, "rental_uris": {"ios": "https://dc.lft.to/lastmile_qr_scan", "android": "https://dc.lft.to/lastmile_qr_scan"}, "is_disabled": 0, "lon": -77.0423955, "name": "2f98f8a6bf261b4146fde8d12804d347", "fusion_lon": 0.0}, {"lat": 38.90724083333333, "fusion_lat": 0.0, "type": "electric_scooter", "bike_id": "031103cdf83a805b2b168bda80f17562", "is_reserved": 0, "rental_uris": {"ios": "https://dc.lft.to/lastmile_qr_scan", "android": "https://dc.lft.to/lastmile_qr_scan"}, "is_disabled": 0, "lon": -77.0238205, "name": "031103cdf83a805b2b168bda80f17562", "fusion_lon": 0.0}, {"lat": 38.922337666666664, "fusion_lat": 0.0, "type": "electric_scooter", "bike_id": "242a54a5c22e3885a961b231de924712", "is_reserved": 0, "rental_uris": {"ios": "https://dc.lft.to/lastmile_qr_scan", "android": "https://dc.lft.to/lastmile_qr_scan"}, "is_disabled": 0, "lon": -77.02977583333333, "name": "242a54a5c22e3885a961b231de924712", "fusion_lon": 0.0}, {"lat": 38.947030166666664, "fusion_lat": 0.0, "type": "electric_scooter", "bike_id": "b5240772de83dd6755536f9948560f6a", "is_reserved": 0, "rental_uris": {"ios": "https://dc.lft.to/lastmile_qr_scan", "android": "https://dc.lft.to/lastmile_qr_scan"}, "is_disabled": 0, "lon": -77.03285483333333, "name": "b5240772de83dd6755536f9948560f6a", "fusion_lon": 0.0}, {"lat": 38.90868233333333, "fusion_lat": 0.0, "type": "electric_scooter", "bike_id": "6db143070498af8f2f4885f702d7b396", "is_reserved": 0, "rental_uris": {"ios": "https://dc.lft.to/lastmile_qr_scan", "android": "https://dc.lft.to/lastmile_qr_scan"}, "is_disabled": 0, "lon": -77.04766416666666, "name": "6db143070498af8f2f4885f702d7b396", "fusion_lon": 0.0}, {"lat": 38.90616516666667, "fusion_lat": 0.0, "type": "electric_scooter", "bike_id": "682fa43f4a1d4e11fa076ccab0087abb", "is_reserved": 0, "rental_uris": {"ios": "https://dc.lft.to/lastmile_qr_scan", "android": "https://dc.lft.to/lastmile_qr_scan"}, "is_disabled": 0, "lon": -76.99277233333333, "name": "682fa43f4a1d4e11fa076ccab0087abb", "fusion_lon": 0.0}, {"lat": 38.908696, "fusion_lat": 0.0, "type": "electric_scooter", "bike_id": "58810779e209b5fa287f8cb494b0814c", "is_reserved": 0, "rental_uris": {"ios": "https://dc.lft.to/lastmile_qr_scan", "android": "https://dc.lft.to/lastmile_qr_scan"}, "is_disabled": 0, "lon": -77.024159, "name": "58810779e209b5fa287f8cb494b0814c", "fusion_lon": 0.0}, {"lat": 38.884613, "fusion_lat": 0.0, "type": "electric_scooter", "bike_id": "237e384b431cc0446ab51ef81264ae2e", "is_reserved": 0, "rental_uris": {"ios": "https://dc.lft.to/lastmile_qr_scan", "android": "https://dc.lft.to/lastmile_qr_scan"}, "is_disabled": 0, "lon": -76.95746566666666, "name": "237e384b431cc0446ab51ef81264ae2e", "fusion_lon": 0.0}, {"lat": 38.90038333333333, "fusion_lat": 0.0, "type": "electric_bike", "bike_id": "73098023844d79fcd977f587fb9647f5", "is_reserved": 0, "rental_uris": {"ios": "https://dc.lft.to/lastmile_qr_scan", "android": "https://dc.lft.to/lastmile_qr_scan"}, "is_disabled": 0, "lon": -76.9722735, "name": "73098023844d79fcd977f587fb9647f5", "fusion_lon": 0.0}, {"lat": 38.89753666666667, "fusion_lat": 0.0, "type": "electric_scooter", "bike_id": "ed7877eeb3178423fd374d0198d62350", "is_reserved": 0, "rental_uris": {"ios": "https://dc.lft.to/lastmile_qr_scan", "android": "https://dc.lft.to/lastmile_qr_scan"}, "is_disabled": 0, "lon": -76.92597266666667, "name": "ed7877eeb3178423fd374d0198d62350", "fusion_lon": 0.0}, {"lat": 38.91809666666666, "fusion_lat": 0.0, "type": "electric_scooter", "bike_id": "e214780ea2efb8ff60bffac2b55d353d", "is_reserved": 0, "rental_uris": {"ios": "https://dc.lft.to/lastmile_qr_scan", "android": "https://dc.lft.to/lastmile_qr_scan"}, "is_disabled": 0, "lon": -77.04556033333333, "name": "e214780ea2efb8ff60bffac2b55d353d", "fusion_lon": 0.0}, {"lat": 38.885171666666665, "fusion_lat": 0.0, "type": "electric_scooter", "bike_id": "2ed69b24d3f11c085f996746a2f57af6", "is_reserved": 0, "rental_uris": {"ios": "https://dc.lft.to/lastmile_qr_scan", "android": "https://dc.lft.to/lastmile_qr_scan"}, "is_disabled": 0, "lon": -77.01553866666667, "name": "2ed69b24d3f11c085f996746a2f57af6", "fusion_lon": 0.0}, {"lat": 38.9278245, "fusion_lat": 0.0, "type": "electric_scooter", "bike_id": "25b464b5323af085a6ad4112981ae29f", "is_reserved": 0, "rental_uris": {"ios": "https://dc.lft.to/lastmile_qr_scan", "android": "https://dc.lft.to/lastmile_qr_scan"}, "is_disabled": 0, "lon": -77.02678983333334, "name": "25b464b5323af085a6ad4112981ae29f", "fusion_lon": 0.0}, {"lat": 38.832080166666664, "fusion_lat": 0.0, "type": "electric_scooter", "bike_id": "9b04ab509ca92ef78c69d78b59651788", "is_reserved": 0, "rental_uris": {"ios": "https://dc.lft.to/lastmile_qr_scan", "android": "https://dc.lft.to/lastmile_qr_scan"}, "is_disabled": 0, "lon": -77.0079515, "name": "9b04ab509ca92ef78c69d78b59651788", "fusion_lon": 0.0}, {"lat": 38.876425833333336, "fusion_lat": 0.0, "type": "electric_scooter", "bike_id": "74a68239ce19e81bc6c0a030fa5433ae", "is_reserved": 0, "rental_uris": {"ios": "https://dc.lft.to/lastmile_qr_scan", "android": "https://dc.lft.to/lastmile_qr_scan"}, "is_disabled": 0, "lon": -77.00454816666667, "name": "74a68239ce19e81bc6c0a030fa5433ae", "fusion_lon": 0.0}, {"lat": 38.9039495, "fusion_lat": 0.0, "type": "electric_scooter", "bike_id": "1b44881ee1bafcf75aea5b1cfa75291d", "is_reserved": 0, "rental_uris": {"ios": "https://dc.lft.to/lastmile_qr_scan", "android": "https://dc.lft.to/lastmile_qr_scan"}, "is_disabled": 0, "lon": -77.03431016666667, "name": "1b44881ee1bafcf75aea5b1cfa75291d", "fusion_lon": 0.0}, {"lat": 38.89262316666667, "fusion_lat": 0.0, "type": "electric_scooter", "bike_id": "73c7ed4eede550f191cd72c763dce572", "is_reserved": 0, "rental_uris": {"ios": "https://dc.lft.to/lastmile_qr_scan", "android": "https://dc.lft.to/lastmile_qr_scan"}, "is_disabled": 0, "lon": -77.003588, "name": "73c7ed4eede550f191cd72c763dce572", "fusion_lon": 0.0}, {"lat": 38.91754666666667, "fusion_lat": 0.0, "type": "electric_scooter", "bike_id": "875ed8cdba1479950bcd55abc057d78e", "is_reserved": 0, "rental_uris": {"ios": "https://dc.lft.to/lastmile_qr_scan", "android": "https://dc.lft.to/lastmile_qr_scan"}, "is_disabled": 0, "lon": -77.03207633333334, "name": "875ed8cdba1479950bcd55abc057d78e", "fusion_lon": 0.0}, {"lat": 38.924567833333334, "fusion_lat": 0.0, "type": "electric_scooter", "bike_id": "bf3f6f65a88cf9258f7fcd787a24428c", "is_reserved": 0, "rental_uris": {"ios": "https://dc.lft.to/lastmile_qr_scan", "android": "https://dc.lft.to/lastmile_qr_scan"}, "is_disabled": 0, "lon": -77.0411605, "name": "bf3f6f65a88cf9258f7fcd787a24428c", "fusion_lon": 0.0}, {"lat": 38.86062066666667, "fusion_lat": 0.0, "type": "electric_scooter", "bike_id": "57f1b79801757648ec6111871dd5591b", "is_reserved": 0, "rental_uris": {"ios": "https://dc.lft.to/lastmile_qr_scan", "android": "https://dc.lft.to/lastmile_qr_scan"}, "is_disabled": 0, "lon": -76.98425383333333, "name": "57f1b79801757648ec6111871dd5591b", "fusion_lon": 0.0}, {"lat": 38.89474416666667, "fusion_lat": 0.0, "type": "electric_scooter", "bike_id": "d71d0ec632982506eea8eb6955b724cf", "is_reserved": 0, "rental_uris": {"ios": "https://dc.lft.to/lastmile_qr_scan", "android": "https://dc.lft.to/lastmile_qr_scan"}, "is_disabled": 0, "lon": -77.0279145, "name": "d71d0ec632982506eea8eb6955b724cf", "fusion_lon": 0.0}, {"lat": 38.90535933333334, "fusion_lat": 0.0, "type": "electric_scooter", "bike_id": "5c3fc27b4b93a847383e09f1080d1897", "is_reserved": 0, "rental_uris": {"ios": "https://dc.lft.to/lastmile_qr_scan", "android": "https://dc.lft.to/lastmile_qr_scan"}, "is_disabled": 0, "lon": -76.98109966666667, "name": "5c3fc27b4b93a847383e09f1080d1897", "fusion_lon": 0.0}, {"lat": 38.865166, "fusion_lat": 0.0, "type": "electric_scooter", "bike_id": "9fa146eb62841499a169ac2eb09abc12", "is_reserved": 0, "rental_uris": {"ios": "https://dc.lft.to/lastmile_qr_scan", "android": "https://dc.lft.to/lastmile_qr_scan"}, "is_disabled": 0, "lon": -76.990184, "name": "9fa146eb62841499a169ac2eb09abc12", "fusion_lon": 0.0}, {"lat": 38.940527333333335, "fusion_lat": 0.0, "type": "electric_scooter", "bike_id": "f68f53287400b86ec4d69903e0905f1f", "is_reserved": 0, "rental_uris": {"ios": "https://dc.lft.to/lastmile_qr_scan", "android": "https://dc.lft.to/lastmile_qr_scan"}, "is_disabled": 0, "lon": -77.02979383333333, "name": "f68f53287400b86ec4d69903e0905f1f", "fusion_lon": 0.0}, {"lat": 38.90076783333333, "fusion_lat": 0.0, "type": "electric_scooter", "bike_id": "922328fcf6a86c8b2624a70e6253bc6e", "is_reserved": 0, "rental_uris": {"ios": "https://dc.lft.to/lastmile_qr_scan", "android": "https://dc.lft.to/lastmile_qr_scan"}, "is_disabled": 0, "lon": -77.05016783333333, "name": "922328fcf6a86c8b2624a70e6253bc6e", "fusion_lon": 0.0}, {"lat": 38.915808166666665, "fusion_lat": 0.0, "type": "electric_scooter", "bike_id": "e699fe040063cb70a0c144f58e9227ee", "is_reserved": 0, "rental_uris": {"ios": "https://dc.lft.to/lastmile_qr_scan", "android": "https://dc.lft.to/lastmile_qr_scan"}, "is_disabled": 0, "lon": -77.01234166666667, "name": "e699fe040063cb70a0c144f58e9227ee", "fusion_lon": 0.0}, {"lat": 38.91699116666667, "fusion_lat": 0.0, "type": "electric_scooter", "bike_id": "f23b3dd49fa5fe1a6097a446180495fc", "is_reserved": 0, "rental_uris": {"ios": "https://dc.lft.to/lastmile_qr_scan", "android": "https://dc.lft.to/lastmile_qr_scan"}, "is_disabled": 0, "lon": -77.01054416666666, "name": "f23b3dd49fa5fe1a6097a446180495fc", "fusion_lon": 0.0}, {"lat": 38.899972166666664, "fusion_lat": 0.0, "type": "electric_scooter", "bike_id": "b1c954f83d5cce00a0b6a27d358bdc77", "is_reserved": 0, "rental_uris": {"ios": "https://dc.lft.to/lastmile_qr_scan", "android": "https://dc.lft.to/lastmile_qr_scan"}, "is_disabled": 0, "lon": -77.02326416666666, "name": "b1c954f83d5cce00a0b6a27d358bdc77", "fusion_lon": 0.0}, {"lat": 38.9034565, "fusion_lat": 0.0, "type": "electric_scooter", "bike_id": "292aa5f68b339b9275d91abef2d0a4b1", "is_reserved": 0, "rental_uris": {"ios": "https://dc.lft.to/lastmile_qr_scan", "android": "https://dc.lft.to/lastmile_qr_scan"}, "is_disabled": 0, "lon": -76.99384166666667, "name": "292aa5f68b339b9275d91abef2d0a4b1", "fusion_lon": 0.0}, {"lat": 38.92251133333333, "fusion_lat": 0.0, "type": "electric_scooter", "bike_id": "44e27705d66b34c35f71bf51457e57ff", "is_reserved": 0, "rental_uris": {"ios": "https://dc.lft.to/lastmile_qr_scan", "android": "https://dc.lft.to/lastmile_qr_scan"}, "is_disabled": 0, "lon": -77.0285575, "name": "44e27705d66b34c35f71bf51457e57ff", "fusion_lon": 0.0}, {"lat": 38.903449, "fusion_lat": 0.0, "type": "electric_bike", "bike_id": "5bac264aa33de98e9f16bfc7b9f6e5b0", "is_reserved": 0, "rental_uris": {"ios": "https://dc.lft.to/lastmile_qr_scan", "android": "https://dc.lft.to/lastmile_qr_scan"}, "is_disabled": 0, "lon": -77.04022966666666, "name": "5bac264aa33de98e9f16bfc7b9f6e5b0", "fusion_lon": 0.0}, {"lat": 38.9105525, "fusion_lat": 0.0, "type": "electric_scooter", "bike_id": "ca2a0e30d9fcf9a9eecef154a376113e", "is_reserved": 0, "rental_uris": {"ios": "https://dc.lft.to/lastmile_qr_scan", "android": "https://dc.lft.to/lastmile_qr_scan"}, "is_disabled": 0, "lon": -77.043507, "name": "ca2a0e30d9fcf9a9eecef154a376113e", "fusion_lon": 0.0}, {"lat": 38.90368133333333, "fusion_lat": 0.0, "type": "electric_scooter", "bike_id": "2ba018f83f0bdf185f4c62219ed1ec1f", "is_reserved": 0, "rental_uris": {"ios": "https://dc.lft.to/lastmile_qr_scan", "android": "https://dc.lft.to/lastmile_qr_scan"}, "is_disabled": 0, "lon": -77.05305983333334, "name": "2ba018f83f0bdf185f4c62219ed1ec1f", "fusion_lon": 0.0}, {"lat": 38.922541333333335, "fusion_lat": 0.0, "type": "electric_scooter", "bike_id": "0b3c1bf83693c7f2a79aa8ae9247542f", "is_reserved": 0, "rental_uris": {"ios": "https://dc.lft.to/lastmile_qr_scan", "android": "https://dc.lft.to/lastmile_qr_scan"}, "is_disabled": 0, "lon": -77.02764383333333, "name": "0b3c1bf83693c7f2a79aa8ae9247542f", "fusion_lon": 0.0}, {"lat": 38.9273375, "fusion_lat": 0.0, "type": "electric_scooter", "bike_id": "e4654f0057547776213182cc703ed5b7", "is_reserved": 0, "rental_uris": {"ios": "https://dc.lft.to/lastmile_qr_scan", "android": "https://dc.lft.to/lastmile_qr_scan"}, "is_disabled": 0, "lon": -77.03523516666667, "name": "e4654f0057547776213182cc703ed5b7", "fusion_lon": 0.0}, {"lat": 38.9308085, "fusion_lat": 0.0, "type": "electric_scooter", "bike_id": "bba52b28c251aae1baa784ebef2597d2", "is_reserved": 0, "rental_uris": {"ios": "https://dc.lft.to/lastmile_qr_scan", "android": "https://dc.lft.to/lastmile_qr_scan"}, "is_disabled": 0, "lon": -77.021823, "name": "bba52b28c251aae1baa784ebef2597d2", "fusion_lon": 0.0}, {"lat": 38.912667666666664, "fusion_lat": 0.0, "type": "electric_scooter", "bike_id": "8f920161a3a0c308a70a155deb43d17b", "is_reserved": 0, "rental_uris": {"ios": "https://dc.lft.to/lastmile_qr_scan", "android": "https://dc.lft.to/lastmile_qr_scan"}, "is_disabled": 0, "lon": -77.03146733333334, "name": "8f920161a3a0c308a70a155deb43d17b", "fusion_lon": 0.0}, {"lat": 38.900475, "fusion_lat": 0.0, "type": "electric_scooter", "bike_id": "acf65fba8ec2675b5e025dfd7d8f2fa5", "is_reserved": 0, "rental_uris": {"ios": "https://dc.lft.to/lastmile_qr_scan", "android": "https://dc.lft.to/lastmile_qr_scan"}, "is_disabled": 0, "lon": -77.01275266666667, "name": "acf65fba8ec2675b5e025dfd7d8f2fa5", "fusion_lon": 0.0}, {"lat": 38.9037575, "fusion_lat": 0.0, "type": "electric_scooter", "bike_id": "c701f63a940e8aa683a380442c27ffec", "is_reserved": 0, "rental_uris": {"ios": "https://dc.lft.to/lastmile_qr_scan", "android": "https://dc.lft.to/lastmile_qr_scan"}, "is_disabled": 0, "lon": -77.04355733333334, "name": "c701f63a940e8aa683a380442c27ffec", "fusion_lon": 0.0}, {"lat": 38.86956466666667, "fusion_lat": 0.0, "type": "electric_scooter", "bike_id": "3ea06ac3e61c1ff1f164ee6785fff49a", "is_reserved": 0, "rental_uris": {"ios": "https://dc.lft.to/lastmile_qr_scan", "android": "https://dc.lft.to/lastmile_qr_scan"}, "is_disabled": 0, "lon": -76.98166933333333, "name": "3ea06ac3e61c1ff1f164ee6785fff49a", "fusion_lon": 0.0}, {"lat": 38.900002, "fusion_lat": 0.0, "type": "electric_scooter", "bike_id": "a2af426c27e3b95f31d569bd2ab69692", "is_reserved": 0, "rental_uris": {"ios": "https://dc.lft.to/lastmile_qr_scan", "android": "https://dc.lft.to/lastmile_qr_scan"}, "is_disabled": 0, "lon": -77.00146266666667, "name": "a2af426c27e3b95f31d569bd2ab69692", "fusion_lon": 0.0}, {"lat": 38.85580483333333, "fusion_lat": 0.0, "type": "electric_bike", "bike_id": "faf7bf73a6ff249d37fbd0cf19c5de43", "is_reserved": 0, "rental_uris": {"ios": "https://dc.lft.to/lastmile_qr_scan", "android": "https://dc.lft.to/lastmile_qr_scan"}, "is_disabled": 0, "lon": -77.10735216666667, "name": "faf7bf73a6ff249d37fbd0cf19c5de43", "fusion_lon": 0.0}, {"lat": 38.905435, "fusion_lat": 0.0, "type": "electric_scooter", "bike_id": "ba77c0b2fb87f14fd5b204eca9525241", "is_reserved": 0, "rental_uris": {"ios": "https://dc.lft.to/lastmile_qr_scan", "android": "https://dc.lft.to/lastmile_qr_scan"}, "is_disabled": 0, "lon": -77.04112083333334, "name": "ba77c0b2fb87f14fd5b204eca9525241", "fusion_lon": 0.0}, {"lat": 38.906086333333334, "fusion_lat": 0.0, "type": "electric_scooter", "bike_id": "316081abb1ae87a47ae992bf73e56b3e", "is_reserved": 0, "rental_uris": {"ios": "https://dc.lft.to/lastmile_qr_scan", "android": "https://dc.lft.to/lastmile_qr_scan"}, "is_disabled": 0, "lon": -77.06424266666667, "name": "316081abb1ae87a47ae992bf73e56b3e", "fusion_lon": 0.0}, {"lat": 38.905009166666666, "fusion_lat": 0.0, "type": "electric_scooter", "bike_id": "2eb28a58acf0989fd6074a9fedb69e4c", "is_reserved": 0, "rental_uris": {"ios": "https://dc.lft.to/lastmile_qr_scan", "android": "https://dc.lft.to/lastmile_qr_scan"}, "is_disabled": 0, "lon": -77.06022433333334, "name": "2eb28a58acf0989fd6074a9fedb69e4c", "fusion_lon": 0.0}, {"lat": 38.908987833333335, "fusion_lat": 0.0, "type": "electric_scooter", "bike_id": "4df55a03ebbb2845e1eb8793441f589f", "is_reserved": 0, "rental_uris": {"ios": "https://dc.lft.to/lastmile_qr_scan", "android": "https://dc.lft.to/lastmile_qr_scan"}, "is_disabled": 0, "lon": -77.04469966666667, "name": "4df55a03ebbb2845e1eb8793441f589f", "fusion_lon": 0.0}, {"lat": 38.7998215, "fusion_lat": 0.0, "type": "electric_bike", "bike_id": "cb70efb2b25fdb95c283081c4fd176fd", "is_reserved": 0, "rental_uris": {"ios": "https://dc.lft.to/lastmile_qr_scan", "android": "https://dc.lft.to/lastmile_qr_scan"}, "is_disabled": 0, "lon": -77.12985633333334, "name": "cb70efb2b25fdb95c283081c4fd176fd", "fusion_lon": 0.0}, {"lat": 38.9103795, "fusion_lat": 0.0, "type": "electric_scooter", "bike_id": "58f5d0d2917e6a453a925735966ef770", "is_reserved": 0, "rental_uris": {"ios": "https://dc.lft.to/lastmile_qr_scan", "android": "https://dc.lft.to/lastmile_qr_scan"}, "is_disabled": 0, "lon": -77.04868566666667, "name": "58f5d0d2917e6a453a925735966ef770", "fusion_lon": 0.0}, {"lat": 38.9167665, "fusion_lat": 0.0, "type": "electric_scooter", "bike_id": "c2e908ce8431211971d5eee3dcbd027b", "is_reserved": 0, "rental_uris": {"ios": "https://dc.lft.to/lastmile_qr_scan", "android": "https://dc.lft.to/lastmile_qr_scan"}, "is_disabled": 0, "lon": -77.03687766666667, "name": "c2e908ce8431211971d5eee3dcbd027b", "fusion_lon": 0.0}, {"lat": 38.904668666666666, "fusion_lat": 0.0, "type": "electric_scooter", "bike_id": "6860bd78e3d340aab66ee2428a635d10", "is_reserved": 0, "rental_uris": {"ios": "https://dc.lft.to/lastmile_qr_scan", "android": "https://dc.lft.to/lastmile_qr_scan"}, "is_disabled": 0, "lon": -77.03556783333333, "name": "6860bd78e3d340aab66ee2428a635d10", "fusion_lon": 0.0}, {"lat": 38.934783833333334, "fusion_lat": 0.0, "type": "electric_scooter", "bike_id": "fb26a3fa8e059039be88671e773e0f65", "is_reserved": 0, "rental_uris": {"ios": "https://dc.lft.to/lastmile_qr_scan", "android": "https://dc.lft.to/lastmile_qr_scan"}, "is_disabled": 0, "lon": -77.03581016666666, "name": "fb26a3fa8e059039be88671e773e0f65", "fusion_lon": 0.0}, {"lat": 38.893301, "fusion_lat": 0.0, "type": "electric_scooter", "bike_id": "662d54688e2d8295d789b0b01dc7e222", "is_reserved": 0, "rental_uris": {"ios": "https://dc.lft.to/lastmile_qr_scan", "android": "https://dc.lft.to/lastmile_qr_scan"}, "is_disabled": 0, "lon": -77.0486825, "name": "662d54688e2d8295d789b0b01dc7e222", "fusion_lon": 0.0}, {"lat": 38.862398166666665, "fusion_lat": 0.0, "type": "electric_scooter", "bike_id": "1e3535aaab80e678cbd6a9ee6596f458", "is_reserved": 0, "rental_uris": {"ios": "https://dc.lft.to/lastmile_qr_scan", "android": "https://dc.lft.to/lastmile_qr_scan"}, "is_disabled": 0, "lon": -76.9951565, "name": "1e3535aaab80e678cbd6a9ee6596f458", "fusion_lon": 0.0}, {"lat": 38.916163166666664, "fusion_lat": 0.0, "type": "electric_scooter", "bike_id": "c53a60f4809c29e95bdf2badba742eb0", "is_reserved": 0, "rental_uris": {"ios": "https://dc.lft.to/lastmile_qr_scan", "android": "https://dc.lft.to/lastmile_qr_scan"}, "is_disabled": 0, "lon": -77.02173, "name": "c53a60f4809c29e95bdf2badba742eb0", "fusion_lon": 0.0}, {"lat": 38.91927616666667, "fusion_lat": 0.0, "type": "electric_scooter", "bike_id": "8d41980d9879df4e20729445aa9de503", "is_reserved": 0, "rental_uris": {"ios": "https://dc.lft.to/lastmile_qr_scan", "android": "https://dc.lft.to/lastmile_qr_scan"}, "is_disabled": 0, "lon": -77.04247816666667, "name": "8d41980d9879df4e20729445aa9de503", "fusion_lon": 0.0}, {"lat": 38.931883666666664, "fusion_lat": 0.0, "type": "electric_scooter", "bike_id": "a7e18e8405d185586054b016cb924527", "is_reserved": 0, "rental_uris": {"ios": "https://dc.lft.to/lastmile_qr_scan", "android": "https://dc.lft.to/lastmile_qr_scan"}, "is_disabled": 0, "lon": -77.03883866666666, "name": "a7e18e8405d185586054b016cb924527", "fusion_lon": 0.0}, {"lat": 38.90479533333333, "fusion_lat": 0.0, "type": "electric_scooter", "bike_id": "2e9a74a73f1234ff40e0e8e3dd56bf85", "is_reserved": 0, "rental_uris": {"ios": "https://dc.lft.to/lastmile_qr_scan", "android": "https://dc.lft.to/lastmile_qr_scan"}, "is_disabled": 0, "lon": -77.053359, "name": "2e9a74a73f1234ff40e0e8e3dd56bf85", "fusion_lon": 0.0}, {"lat": 38.90270733333333, "fusion_lat": 0.0, "type": "electric_scooter", "bike_id": "1d38c12fd44597680bac34c35b9776e6", "is_reserved": 0, "rental_uris": {"ios": "https://dc.lft.to/lastmile_qr_scan", "android": "https://dc.lft.to/lastmile_qr_scan"}, "is_disabled": 0, "lon": -77.03961733333334, "name": "1d38c12fd44597680bac34c35b9776e6", "fusion_lon": 0.0}, {"lat": 38.86680333333334, "fusion_lat": 0.0, "type": "electric_scooter", "bike_id": "83c5a6dc7f68a8f5bd1e62b7943d4ab6", "is_reserved": 0, "rental_uris": {"ios": "https://dc.lft.to/lastmile_qr_scan", "android": "https://dc.lft.to/lastmile_qr_scan"}, "is_disabled": 0, "lon": -76.985629, "name": "83c5a6dc7f68a8f5bd1e62b7943d4ab6", "fusion_lon": 0.0}, {"lat": 38.913190666666665, "fusion_lat": 0.0, "type": "electric_bike", "bike_id": "48e29a61e01e1f2da356fdcad2592634", "is_reserved": 0, "rental_uris": {"ios": "https://dc.lft.to/lastmile_qr_scan", "android": "https://dc.lft.to/lastmile_qr_scan"}, "is_disabled": 0, "lon": -77.223145, "name": "48e29a61e01e1f2da356fdcad2592634", "fusion_lon": 0.0}, {"lat": 38.921142, "fusion_lat": 0.0, "type": "electric_scooter", "bike_id": "36f0f8039bacb68a9a1f9e8f92181e15", "is_reserved": 0, "rental_uris": {"ios": "https://dc.lft.to/lastmile_qr_scan", "android": "https://dc.lft.to/lastmile_qr_scan"}, "is_disabled": 0, "lon": -77.030456, "name": "36f0f8039bacb68a9a1f9e8f92181e15", "fusion_lon": 0.0}, {"lat": 38.86373316666667, "fusion_lat": 0.0, "type": "electric_scooter", "bike_id": "b7cb2e4a57dc7eb5a6a5b697f3b894e1", "is_reserved": 0, "rental_uris": {"ios": "https://dc.lft.to/lastmile_qr_scan", "android": "https://dc.lft.to/lastmile_qr_scan"}, "is_disabled": 0, "lon": -76.99063166666667, "name": "b7cb2e4a57dc7eb5a6a5b697f3b894e1", "fusion_lon": 0.0}, {"lat": 38.91571866666666, "fusion_lat": 0.0, "type": "electric_scooter", "bike_id": "2e87ac999e1843f6b27ac073a5101f67", "is_reserved": 0, "rental_uris": {"ios": "https://dc.lft.to/lastmile_qr_scan", "android": "https://dc.lft.to/lastmile_qr_scan"}, "is_disabled": 0, "lon": -77.031678, "name": "2e87ac999e1843f6b27ac073a5101f67", "fusion_lon": 0.0}, {"lat": 38.90383333333333, "fusion_lat": 0.0, "type": "electric_scooter", "bike_id": "2d9bdc482966c554af80d105f57d1213", "is_reserved": 0, "rental_uris": {"ios": "https://dc.lft.to/lastmile_qr_scan", "android": "https://dc.lft.to/lastmile_qr_scan"}, "is_disabled": 0, "lon": -77.01608, "name": "2d9bdc482966c554af80d105f57d1213", "fusion_lon": 0.0}, {"lat": 38.90849166666667, "fusion_lat": 0.0, "type": "electric_scooter", "bike_id": "ffb81b293057c2b5e407492b4dc8f229", "is_reserved": 0, "rental_uris": {"ios": "https://dc.lft.to/lastmile_qr_scan", "android": "https://dc.lft.to/lastmile_qr_scan"}, "is_disabled": 0, "lon": -76.99805166666667, "name": "ffb81b293057c2b5e407492b4dc8f229", "fusion_lon": 0.0}, {"lat": 38.88377066666666, "fusion_lat": 0.0, "type": "electric_scooter", "bike_id": "49929976fd994a999336e5b00ba96f97", "is_reserved": 0, "rental_uris": {"ios": "https://dc.lft.to/lastmile_qr_scan", "android": "https://dc.lft.to/lastmile_qr_scan"}, "is_disabled": 0, "lon": -76.99521216666666, "name": "49929976fd994a999336e5b00ba96f97", "fusion_lon": 0.0}, {"lat": 38.88754683333333, "fusion_lat": 0.0, "type": "electric_scooter", "bike_id": "efc4dbb54725c3e8870ce6de725212d9", "is_reserved": 0, "rental_uris": {"ios": "https://dc.lft.to/lastmile_qr_scan", "android": "https://dc.lft.to/lastmile_qr_scan"}, "is_disabled": 0, "lon": -77.02552383333334, "name": "efc4dbb54725c3e8870ce6de725212d9", "fusion_lon": 0.0}, {"lat": 38.924161833333336, "fusion_lat": 0.0, "type": "electric_scooter", "bike_id": "059b4fccaed12d2aad955356b22c5d7f", "is_reserved": 0, "rental_uris": {"ios": "https://dc.lft.to/lastmile_qr_scan", "android": "https://dc.lft.to/lastmile_qr_scan"}, "is_disabled": 0, "lon": -77.05066283333333, "name": "059b4fccaed12d2aad955356b22c5d7f", "fusion_lon": 0.0}, {"lat": 38.88892633333333, "fusion_lat": 0.0, "type": "electric_scooter", "bike_id": "aaecc9478c955a8d3639c59a5ceacd50", "is_reserved": 0, "rental_uris": {"ios": "https://dc.lft.to/lastmile_qr_scan", "android": "https://dc.lft.to/lastmile_qr_scan"}, "is_disabled": 0, "lon": -76.94780983333334, "name": "aaecc9478c955a8d3639c59a5ceacd50", "fusion_lon": 0.0}, {"lat": 38.9062895, "fusion_lat": 0.0, "type": "electric_scooter", "bike_id": "95fb8c0325db5006adbe4a96c7742289", "is_reserved": 0, "rental_uris": {"ios": "https://dc.lft.to/lastmile_qr_scan", "android": "https://dc.lft.to/lastmile_qr_scan"}, "is_disabled": 0, "lon": -77.046653, "name": "95fb8c0325db5006adbe4a96c7742289", "fusion_lon": 0.0}, {"lat": 38.87210183333333, "fusion_lat": 0.0, "type": "electric_scooter", "bike_id": "28308503a12e9e6ee9229013d4b0b9a1", "is_reserved": 0, "rental_uris": {"ios": "https://dc.lft.to/lastmile_qr_scan", "android": "https://dc.lft.to/lastmile_qr_scan"}, "is_disabled": 0, "lon": -77.00968733333333, "name": "28308503a12e9e6ee9229013d4b0b9a1", "fusion_lon": 0.0}, {"lat": 38.79608016666667, "fusion_lat": 0.0, "type": "electric_bike", "bike_id": "9d32ca6124086bf4dd5285f82616ad3d", "is_reserved": 0, "rental_uris": {"ios": "https://dc.lft.to/lastmile_qr_scan", "android": "https://dc.lft.to/lastmile_qr_scan"}, "is_disabled": 0, "lon": -76.99744566666666, "name": "9d32ca6124086bf4dd5285f82616ad3d", "fusion_lon": 0.0}, {"lat": 38.9036675, "fusion_lat": 0.0, "type": "electric_scooter", "bike_id": "9ad62f792fea6c6e2c2b893b45b63c47", "is_reserved": 0, "rental_uris": {"ios": "https://dc.lft.to/lastmile_qr_scan", "android": "https://dc.lft.to/lastmile_qr_scan"}, "is_disabled": 0, "lon": -77.02705366666666, "name": "9ad62f792fea6c6e2c2b893b45b63c47", "fusion_lon": 0.0}, {"lat": 38.976817, "fusion_lat": 0.0, "type": "electric_scooter", "bike_id": "33606077dbffefe815786430d293fe8b", "is_reserved": 0, "rental_uris": {"ios": "https://dc.lft.to/lastmile_qr_scan", "android": "https://dc.lft.to/lastmile_qr_scan"}, "is_disabled": 0, "lon": -77.016584, "name": "33606077dbffefe815786430d293fe8b", "fusion_lon": 0.0}, {"lat": 38.877905, "fusion_lat": 0.0, "type": "electric_scooter", "bike_id": "11964f9f73e5afa6949d856830f9889a", "is_reserved": 0, "rental_uris": {"ios": "https://dc.lft.to/lastmile_qr_scan", "android": "https://dc.lft.to/lastmile_qr_scan"}, "is_disabled": 0, "lon": -77.00748383333334, "name": "11964f9f73e5afa6949d856830f9889a", "fusion_lon": 0.0}, {"lat": 38.88391, "fusion_lat": 0.0, "type": "electric_scooter", "bike_id": "8a5862180793ab2482fa98ec9580d9c5", "is_reserved": 0, "rental_uris": {"ios": "https://dc.lft.to/lastmile_qr_scan", "android": "https://dc.lft.to/lastmile_qr_scan"}, "is_disabled": 0, "lon": -76.95449316666667, "name": "8a5862180793ab2482fa98ec9580d9c5", "fusion_lon": 0.0}, {"lat": 38.93222466666667, "fusion_lat": 0.0, "type": "electric_scooter", "bike_id": "00dfdd4e97d8910c0de17b8c3b486b3c", "is_reserved": 0, "rental_uris": {"ios": "https://dc.lft.to/lastmile_qr_scan", "android": "https://dc.lft.to/lastmile_qr_scan"}, "is_disabled": 0, "lon": -77.03879033333334, "name": "00dfdd4e97d8910c0de17b8c3b486b3c", "fusion_lon": 0.0}, {"lat": 38.900233166666666, "fusion_lat": 0.0, "type": "electric_scooter", "bike_id": "c84354fe8a69082e8be6151ac0db1890", "is_reserved": 0, "rental_uris": {"ios": "https://dc.lft.to/lastmile_qr_scan", "android": "https://dc.lft.to/lastmile_qr_scan"}, "is_disabled": 0, "lon": -77.00201366666667, "name": "c84354fe8a69082e8be6151ac0db1890", "fusion_lon": 0.0}, {"lat": 38.931018333333334, "fusion_lat": 0.0, "type": "electric_scooter", "bike_id": "5a6ac829158cbaeb561eed1dede27917", "is_reserved": 0, "rental_uris": {"ios": "https://dc.lft.to/lastmile_qr_scan", "android": "https://dc.lft.to/lastmile_qr_scan"}, "is_disabled": 0, "lon": -77.02480166666666, "name": "5a6ac829158cbaeb561eed1dede27917", "fusion_lon": 0.0}, {"lat": 38.9143455, "fusion_lat": 0.0, "type": "electric_scooter", "bike_id": "93c4c375eb7dd4fe618d95743060121c", "is_reserved": 0, "rental_uris": {"ios": "https://dc.lft.to/lastmile_qr_scan", "android": "https://dc.lft.to/lastmile_qr_scan"}, "is_disabled": 0, "lon": -77.02209416666666, "name": "93c4c375eb7dd4fe618d95743060121c", "fusion_lon": 0.0}, {"lat": 38.948411, "fusion_lat": 0.0, "type": "electric_scooter", "bike_id": "e9b91d0a34e4968dd1794575383333a7", "is_reserved": 0, "rental_uris": {"ios": "https://dc.lft.to/lastmile_qr_scan", "android": "https://dc.lft.to/lastmile_qr_scan"}, "is_disabled": 0, "lon": -77.02543633333333, "name": "e9b91d0a34e4968dd1794575383333a7", "fusion_lon": 0.0}, {"lat": 38.899804, "fusion_lat": 0.0, "type": "electric_scooter", "bike_id": "8849b61d4bc5c5fcf9db43e5fe8e94e4", "is_reserved": 0, "rental_uris": {"ios": "https://dc.lft.to/lastmile_qr_scan", "android": "https://dc.lft.to/lastmile_qr_scan"}, "is_disabled": 0, "lon": -77.04651266666667, "name": "8849b61d4bc5c5fcf9db43e5fe8e94e4", "fusion_lon": 0.0}, {"lat": 38.892261166666664, "fusion_lat": 0.0, "type": "electric_scooter", "bike_id": "c36ae704558b64a0e5ab70d37be74c48", "is_reserved": 0, "rental_uris": {"ios": "https://dc.lft.to/lastmile_qr_scan", "android": "https://dc.lft.to/lastmile_qr_scan"}, "is_disabled": 0, "lon": -77.02411683333334, "name": "c36ae704558b64a0e5ab70d37be74c48", "fusion_lon": 0.0}, {"lat": 38.8997685, "fusion_lat": 0.0, "type": "electric_scooter", "bike_id": "9632f2e55640b4feb3f4054e70b93c57", "is_reserved": 0, "rental_uris": {"ios": "https://dc.lft.to/lastmile_qr_scan", "android": "https://dc.lft.to/lastmile_qr_scan"}, "is_disabled": 0, "lon": -77.00681933333334, "name": "9632f2e55640b4feb3f4054e70b93c57", "fusion_lon": 0.0}, {"lat": 38.91569416666667, "fusion_lat": 0.0, "type": "electric_scooter", "bike_id": "581c877b95f5f9756db0064b9c3f5d40", "is_reserved": 0, "rental_uris": {"ios": "https://dc.lft.to/lastmile_qr_scan", "android": "https://dc.lft.to/lastmile_qr_scan"}, "is_disabled": 0, "lon": -77.02287916666667, "name": "581c877b95f5f9756db0064b9c3f5d40", "fusion_lon": 0.0}, {"lat": 38.934223, "fusion_lat": 0.0, "type": "electric_scooter", "bike_id": "24794151000312cf57c0578573d08e27", "is_reserved": 0, "rental_uris": {"ios": "https://dc.lft.to/lastmile_qr_scan", "android": "https://dc.lft.to/lastmile_qr_scan"}, "is_disabled": 0, "lon": -77.03911783333334, "name": "24794151000312cf57c0578573d08e27", "fusion_lon": 0.0}, {"lat": 38.90155133333333, "fusion_lat": 0.0, "type": "electric_scooter", "bike_id": "a1de7e6c451505356bb1075c9196f7e0", "is_reserved": 0, "rental_uris": {"ios": "https://dc.lft.to/lastmile_qr_scan", "android": "https://dc.lft.to/lastmile_qr_scan"}, "is_disabled": 0, "lon": -76.921364, "name": "a1de7e6c451505356bb1075c9196f7e0", "fusion_lon": 0.0}, {"lat": 38.90339316666667, "fusion_lat": 0.0, "type": "electric_scooter", "bike_id": "17b4264d8977491f95914fdacc681064", "is_reserved": 0, "rental_uris": {"ios": "https://dc.lft.to/lastmile_qr_scan", "android": "https://dc.lft.to/lastmile_qr_scan"}, "is_disabled": 0, "lon": -76.97582166666666, "name": "17b4264d8977491f95914fdacc681064", "fusion_lon": 0.0}, {"lat": 38.85425566666667, "fusion_lat": 0.0, "type": "electric_bike", "bike_id": "a3ae01538fc5bb7449b91163b8a959aa", "is_reserved": 0, "rental_uris": {"ios": "https://dc.lft.to/lastmile_qr_scan", "android": "https://dc.lft.to/lastmile_qr_scan"}, "is_disabled": 0, "lon": -77.12077916666667, "name": "a3ae01538fc5bb7449b91163b8a959aa", "fusion_lon": 0.0}, {"lat": 38.86245133333333, "fusion_lat": 0.0, "type": "electric_scooter", "bike_id": "ccf883b1ec4b18adf1f7032a5d150efa", "is_reserved": 0, "rental_uris": {"ios": "https://dc.lft.to/lastmile_qr_scan", "android": "https://dc.lft.to/lastmile_qr_scan"}, "is_disabled": 0, "lon": -76.99492783333334, "name": "ccf883b1ec4b18adf1f7032a5d150efa", "fusion_lon": 0.0}, {"lat": 38.92337233333333, "fusion_lat": 0.0, "type": "electric_scooter", "bike_id": "732cbf7518e0beea5f809a31ca30d414", "is_reserved": 0, "rental_uris": {"ios": "https://dc.lft.to/lastmile_qr_scan", "android": "https://dc.lft.to/lastmile_qr_scan"}, "is_disabled": 0, "lon": -77.02334816666666, "name": "732cbf7518e0beea5f809a31ca30d414", "fusion_lon": 0.0}, {"lat": 38.906969, "fusion_lat": 0.0, "type": "electric_scooter", "bike_id": "ad34105d9a3fade5b475bc050d71e6db", "is_reserved": 0, "rental_uris": {"ios": "https://dc.lft.to/lastmile_qr_scan", "android": "https://dc.lft.to/lastmile_qr_scan"}, "is_disabled": 0, "lon": -77.02591033333333, "name": "ad34105d9a3fade5b475bc050d71e6db", "fusion_lon": 0.0}, {"lat": 38.916576166666665, "fusion_lat": 0.0, "type": "electric_scooter", "bike_id": "d5f691a4f3568411ebd5b5ce00cddcc5", "is_reserved": 0, "rental_uris": {"ios": "https://dc.lft.to/lastmile_qr_scan", "android": "https://dc.lft.to/lastmile_qr_scan"}, "is_disabled": 0, "lon": -77.03446333333333, "name": "d5f691a4f3568411ebd5b5ce00cddcc5", "fusion_lon": 0.0}, {"lat": 38.9788605, "fusion_lat": 0.0, "type": "electric_bike", "bike_id": "be36d8e8fdb76a28b902e0cfd49015a8", "is_reserved": 0, "rental_uris": {"ios": "https://dc.lft.to/lastmile_qr_scan", "android": "https://dc.lft.to/lastmile_qr_scan"}, "is_disabled": 0, "lon": -77.06033033333334, "name": "be36d8e8fdb76a28b902e0cfd49015a8", "fusion_lon": 0.0}, {"lat": 38.90574133333333, "fusion_lat": 0.0, "type": "electric_scooter", "bike_id": "f7634fe5574b2ddae2404694519fc791", "is_reserved": 0, "rental_uris": {"ios": "https://dc.lft.to/lastmile_qr_scan", "android": "https://dc.lft.to/lastmile_qr_scan"}, "is_disabled": 0, "lon": -77.02209716666667, "name": "f7634fe5574b2ddae2404694519fc791", "fusion_lon": 0.0}, {"lat": 38.91241083333333, "fusion_lat": 0.0, "type": "electric_scooter", "bike_id": "d539b318b52eddfc93cda9e16805145f", "is_reserved": 0, "rental_uris": {"ios": "https://dc.lft.to/lastmile_qr_scan", "android": "https://dc.lft.to/lastmile_qr_scan"}, "is_disabled": 0, "lon": -77.03416466666667, "name": "d539b318b52eddfc93cda9e16805145f", "fusion_lon": 0.0}, {"lat": 38.9049795, "fusion_lat": 0.0, "type": "electric_scooter", "bike_id": "8e88716225e2849fc4a385679096fd6f", "is_reserved": 0, "rental_uris": {"ios": "https://dc.lft.to/lastmile_qr_scan", "android": "https://dc.lft.to/lastmile_qr_scan"}, "is_disabled": 0, "lon": -77.061209, "name": "8e88716225e2849fc4a385679096fd6f", "fusion_lon": 0.0}, {"lat": 38.90146133333333, "fusion_lat": 0.0, "type": "electric_scooter", "bike_id": "99322fb2d8973a19b834224d067f606c", "is_reserved": 0, "rental_uris": {"ios": "https://dc.lft.to/lastmile_qr_scan", "android": "https://dc.lft.to/lastmile_qr_scan"}, "is_disabled": 0, "lon": -77.04330733333333, "name": "99322fb2d8973a19b834224d067f606c", "fusion_lon": 0.0}, {"lat": 38.94495916666666, "fusion_lat": 0.0, "type": "electric_scooter", "bike_id": "cf27f57fa37115173cc20e9295ac1f36", "is_reserved": 0, "rental_uris": {"ios": "https://dc.lft.to/lastmile_qr_scan", "android": "https://dc.lft.to/lastmile_qr_scan"}, "is_disabled": 0, "lon": -77.02617283333333, "name": "cf27f57fa37115173cc20e9295ac1f36", "fusion_lon": 0.0}, {"lat": 38.928724333333335, "fusion_lat": 0.0, "type": "electric_scooter", "bike_id": "ada7e569e9f3e706eade0721379eadc0", "is_reserved": 0, "rental_uris": {"ios": "https://dc.lft.to/lastmile_qr_scan", "android": "https://dc.lft.to/lastmile_qr_scan"}, "is_disabled": 0, "lon": -77.021752, "name": "ada7e569e9f3e706eade0721379eadc0", "fusion_lon": 0.0}, {"lat": 38.9170175, "fusion_lat": 0.0, "type": "electric_scooter", "bike_id": "dd73bbc717dadc88135b4f86fe225ee5", "is_reserved": 0, "rental_uris": {"ios": "https://dc.lft.to/lastmile_qr_scan", "android": "https://dc.lft.to/lastmile_qr_scan"}, "is_disabled": 0, "lon": -77.01166233333333, "name": "dd73bbc717dadc88135b4f86fe225ee5", "fusion_lon": 0.0}, {"lat": 38.854405, "fusion_lat": 0.0, "type": "electric_bike", "bike_id": "154d9953ee54cfba28bb9b139bbd9689", "is_reserved": 0, "rental_uris": {"ios": "https://dc.lft.to/lastmile_qr_scan", "android": "https://dc.lft.to/lastmile_qr_scan"}, "is_disabled": 0, "lon": -77.08308566666666, "name": "154d9953ee54cfba28bb9b139bbd9689", "fusion_lon": 0.0}, {"lat": 38.9002235, "fusion_lat": 0.0, "type": "electric_scooter", "bike_id": "bf6f40105445ede5bcf28324864992ad", "is_reserved": 0, "rental_uris": {"ios": "https://dc.lft.to/lastmile_qr_scan", "android": "https://dc.lft.to/lastmile_qr_scan"}, "is_disabled": 0, "lon": -77.00679866666667, "name": "bf6f40105445ede5bcf28324864992ad", "fusion_lon": 0.0}, {"lat": 38.918638, "fusion_lat": 0.0, "type": "electric_scooter", "bike_id": "da6695d7a0b01d550940b241163996b6", "is_reserved": 0, "rental_uris": {"ios": "https://dc.lft.to/lastmile_qr_scan", "android": "https://dc.lft.to/lastmile_qr_scan"}, "is_disabled": 0, "lon": -77.04041316666667, "name": "da6695d7a0b01d550940b241163996b6", "fusion_lon": 0.0}, {"lat": 38.8747185, "fusion_lat": 0.0, "type": "electric_scooter", "bike_id": "552bc9282eb3bb49a5247b413aacf0f9", "is_reserved": 0, "rental_uris": {"ios": "https://dc.lft.to/lastmile_qr_scan", "android": "https://dc.lft.to/lastmile_qr_scan"}, "is_disabled": 0, "lon": -77.00517933333333, "name": "552bc9282eb3bb49a5247b413aacf0f9", "fusion_lon": 0.0}, {"lat": 38.9195715, "fusion_lat": 0.0, "type": "electric_scooter", "bike_id": "06b86bd3acee3422f28151265548893c", "is_reserved": 0, "rental_uris": {"ios": "https://dc.lft.to/lastmile_qr_scan", "android": "https://dc.lft.to/lastmile_qr_scan"}, "is_disabled": 0, "lon": -77.04158683333333, "name": "06b86bd3acee3422f28151265548893c", "fusion_lon": 0.0}, {"lat": 38.905044833333335, "fusion_lat": 0.0, "type": "electric_scooter", "bike_id": "1378ebf9a5f15b140cb051666f2fd3e0", "is_reserved": 0, "rental_uris": {"ios": "https://dc.lft.to/lastmile_qr_scan", "android": "https://dc.lft.to/lastmile_qr_scan"}, "is_disabled": 0, "lon": -77.06028533333334, "name": "1378ebf9a5f15b140cb051666f2fd3e0", "fusion_lon": 0.0}, {"lat": 38.91817433333333, "fusion_lat": 0.0, "type": "electric_scooter", "bike_id": "acbec302ff90125bbec1a55a09bd8636", "is_reserved": 0, "rental_uris": {"ios": "https://dc.lft.to/lastmile_qr_scan", "android": "https://dc.lft.to/lastmile_qr_scan"}, "is_disabled": 0, "lon": -77.031648, "name": "acbec302ff90125bbec1a55a09bd8636", "fusion_lon": 0.0}, {"lat": 38.93515566666667, "fusion_lat": 0.0, "type": "electric_scooter", "bike_id": "0102e11261f90879f194dcbaa9848685", "is_reserved": 0, "rental_uris": {"ios": "https://dc.lft.to/lastmile_qr_scan", "android": "https://dc.lft.to/lastmile_qr_scan"}, "is_disabled": 0, "lon": -77.03287616666667, "name": "0102e11261f90879f194dcbaa9848685", "fusion_lon": 0.0}, {"lat": 38.895460666666665, "fusion_lat": 0.0, "type": "electric_scooter", "bike_id": "e53855976293c2f7927f74dab98dfc17", "is_reserved": 0, "rental_uris": {"ios": "https://dc.lft.to/lastmile_qr_scan", "android": "https://dc.lft.to/lastmile_qr_scan"}, "is_disabled": 0, "lon": -76.92951766666667, "name": "e53855976293c2f7927f74dab98dfc17", "fusion_lon": 0.0}, {"lat": 38.86267816666667, "fusion_lat": 0.0, "type": "electric_bike", "bike_id": "175cc77a9cd82be5994df79821dbf8fd", "is_reserved": 0, "rental_uris": {"ios": "https://dc.lft.to/lastmile_qr_scan", "android": "https://dc.lft.to/lastmile_qr_scan"}, "is_disabled": 0, "lon": -76.98352766666666, "name": "175cc77a9cd82be5994df79821dbf8fd", "fusion_lon": 0.0}, {"lat": 38.857905833333334, "fusion_lat": 0.0, "type": "electric_bike", "bike_id": "274c201f4c364a30d560eaae3030d5fa", "is_reserved": 0, "rental_uris": {"ios": "https://dc.lft.to/lastmile_qr_scan", "android": "https://dc.lft.to/lastmile_qr_scan"}, "is_disabled": 0, "lon": -77.12018333333333, "name": "274c201f4c364a30d560eaae3030d5fa", "fusion_lon": 0.0}, {"lat": 38.916953, "fusion_lat": 0.0, "type": "electric_scooter", "bike_id": "e2ef62d1a64b3542a922f3c0398a7ff1", "is_reserved": 0, "rental_uris": {"ios": "https://dc.lft.to/lastmile_qr_scan", "android": "https://dc.lft.to/lastmile_qr_scan"}, "is_disabled": 0, "lon": -77.041125, "name": "e2ef62d1a64b3542a922f3c0398a7ff1", "fusion_lon": 0.0}, {"lat": 38.909401, "fusion_lat": 0.0, "type": "electric_scooter", "bike_id": "acb3162736ba78c8a4bf28f3c6b94890", "is_reserved": 0, "rental_uris": {"ios": "https://dc.lft.to/lastmile_qr_scan", "android": "https://dc.lft.to/lastmile_qr_scan"}, "is_disabled": 0, "lon": -77.0269225, "name": "acb3162736ba78c8a4bf28f3c6b94890", "fusion_lon": 0.0}, {"lat": 38.89737816666667, "fusion_lat": 0.0, "type": "electric_scooter", "bike_id": "8ee237cb8ad6630d3fc6c518e01c562d", "is_reserved": 0, "rental_uris": {"ios": "https://dc.lft.to/lastmile_qr_scan", "android": "https://dc.lft.to/lastmile_qr_scan"}, "is_disabled": 0, "lon": -77.0442175, "name": "8ee237cb8ad6630d3fc6c518e01c562d", "fusion_lon": 0.0}, {"lat": 38.9203055, "fusion_lat": 0.0, "type": "electric_scooter", "bike_id": "da16ba351ad4b1e4a06452d789e42bbd", "is_reserved": 0, "rental_uris": {"ios": "https://dc.lft.to/lastmile_qr_scan", "android": "https://dc.lft.to/lastmile_qr_scan"}, "is_disabled": 0, "lon": -77.03120433333333, "name": "da16ba351ad4b1e4a06452d789e42bbd", "fusion_lon": 0.0}, {"lat": 38.906264666666665, "fusion_lat": 0.0, "type": "electric_scooter", "bike_id": "5ccec254d8adae24fe1a8bbd8ebc9b4c", "is_reserved": 0, "rental_uris": {"ios": "https://dc.lft.to/lastmile_qr_scan", "android": "https://dc.lft.to/lastmile_qr_scan"}, "is_disabled": 0, "lon": -77.03851866666666, "name": "5ccec254d8adae24fe1a8bbd8ebc9b4c", "fusion_lon": 0.0}, {"lat": 38.905335, "fusion_lat": 0.0, "type": "electric_scooter", "bike_id": "ff0c84820543adca9ecc98e822aee14b", "is_reserved": 0, "rental_uris": {"ios": "https://dc.lft.to/lastmile_qr_scan", "android": "https://dc.lft.to/lastmile_qr_scan"}, "is_disabled": 0, "lon": -76.98098783333333, "name": "ff0c84820543adca9ecc98e822aee14b", "fusion_lon": 0.0}, {"lat": 38.915703666666666, "fusion_lat": 0.0, "type": "electric_scooter", "bike_id": "1e65a84fa234f1f3fd0c774518dce4a5", "is_reserved": 0, "rental_uris": {"ios": "https://dc.lft.to/lastmile_qr_scan", "android": "https://dc.lft.to/lastmile_qr_scan"}, "is_disabled": 0, "lon": -77.03239516666666, "name": "1e65a84fa234f1f3fd0c774518dce4a5", "fusion_lon": 0.0}, {"lat": 38.91772783333333, "fusion_lat": 0.0, "type": "electric_scooter", "bike_id": "b85348b7c6211b5114dc2ef66c9adac7", "is_reserved": 0, "rental_uris": {"ios": "https://dc.lft.to/lastmile_qr_scan", "android": "https://dc.lft.to/lastmile_qr_scan"}, "is_disabled": 0, "lon": -77.04060083333333, "name": "b85348b7c6211b5114dc2ef66c9adac7", "fusion_lon": 0.0}, {"lat": 38.91132416666667, "fusion_lat": 0.0, "type": "electric_scooter", "bike_id": "7afa288bc4eeb480092da3768c45914e", "is_reserved": 0, "rental_uris": {"ios": "https://dc.lft.to/lastmile_qr_scan", "android": "https://dc.lft.to/lastmile_qr_scan"}, "is_disabled": 0, "lon": -77.03178566666666, "name": "7afa288bc4eeb480092da3768c45914e", "fusion_lon": 0.0}, {"lat": 38.92801166666667, "fusion_lat": 0.0, "type": "electric_scooter", "bike_id": "1c83ecce0e38c5975b0f2378b998783d", "is_reserved": 0, "rental_uris": {"ios": "https://dc.lft.to/lastmile_qr_scan", "android": "https://dc.lft.to/lastmile_qr_scan"}, "is_disabled": 0, "lon": -77.0220695, "name": "1c83ecce0e38c5975b0f2378b998783d", "fusion_lon": 0.0}, {"lat": 38.89787116666667, "fusion_lat": 0.0, "type": "electric_scooter", "bike_id": "1dbf9dd40ce5847c4351d3c9c926bcd7", "is_reserved": 0, "rental_uris": {"ios": "https://dc.lft.to/lastmile_qr_scan", "android": "https://dc.lft.to/lastmile_qr_scan"}, "is_disabled": 0, "lon": -77.00901683333333, "name": "1dbf9dd40ce5847c4351d3c9c926bcd7", "fusion_lon": 0.0}, {"lat": 38.911185333333336, "fusion_lat": 0.0, "type": "electric_scooter", "bike_id": "1b2befd20081884fefbe3dd20b63b18c", "is_reserved": 0, "rental_uris": {"ios": "https://dc.lft.to/lastmile_qr_scan", "android": "https://dc.lft.to/lastmile_qr_scan"}, "is_disabled": 0, "lon": -77.03920516666666, "name": "1b2befd20081884fefbe3dd20b63b18c", "fusion_lon": 0.0}, {"lat": 38.891749, "fusion_lat": 0.0, "type": "electric_scooter", "bike_id": "5b1a299f67d319001ce101158fd8ad77", "is_reserved": 0, "rental_uris": {"ios": "https://dc.lft.to/lastmile_qr_scan", "android": "https://dc.lft.to/lastmile_qr_scan"}, "is_disabled": 0, "lon": -77.02014516666667, "name": "5b1a299f67d319001ce101158fd8ad77", "fusion_lon": 0.0}, {"lat": 38.89846583333333, "fusion_lat": 0.0, "type": "electric_scooter", "bike_id": "cf83409b73491fdead773ae2f3f2941f", "is_reserved": 0, "rental_uris": {"ios": "https://dc.lft.to/lastmile_qr_scan", "android": "https://dc.lft.to/lastmile_qr_scan"}, "is_disabled": 0, "lon": -77.03350733333333, "name": "cf83409b73491fdead773ae2f3f2941f", "fusion_lon": 0.0}, {"lat": 38.925094666666666, "fusion_lat": 0.0, "type": "electric_scooter", "bike_id": "8858e4837bc57c14b0ea5eb9f086a13e", "is_reserved": 0, "rental_uris": {"ios": "https://dc.lft.to/lastmile_qr_scan", "android": "https://dc.lft.to/lastmile_qr_scan"}, "is_disabled": 0, "lon": -77.02355966666667, "name": "8858e4837bc57c14b0ea5eb9f086a13e", "fusion_lon": 0.0}, {"lat": 38.87889783333333, "fusion_lat": 0.0, "type": "electric_bike", "bike_id": "48ba2a8adf297b6c06091fda2d7ae6af", "is_reserved": 0, "rental_uris": {"ios": "https://dc.lft.to/lastmile_qr_scan", "android": "https://dc.lft.to/lastmile_qr_scan"}, "is_disabled": 0, "lon": -77.09615716666667, "name": "48ba2a8adf297b6c06091fda2d7ae6af", "fusion_lon": 0.0}, {"lat": 38.900144, "fusion_lat": 0.0, "type": "electric_scooter", "bike_id": "8a41f5349b7eb7f71a771a561c0772f5", "is_reserved": 0, "rental_uris": {"ios": "https://dc.lft.to/lastmile_qr_scan", "android": "https://dc.lft.to/lastmile_qr_scan"}, "is_disabled": 0, "lon": -76.9993305, "name": "8a41f5349b7eb7f71a771a561c0772f5", "fusion_lon": 0.0}, {"lat": 38.90275183333333, "fusion_lat": 0.0, "type": "electric_scooter", "bike_id": "d63ca9061469fdea441515f930b45de9", "is_reserved": 0, "rental_uris": {"ios": "https://dc.lft.to/lastmile_qr_scan", "android": "https://dc.lft.to/lastmile_qr_scan"}, "is_disabled": 0, "lon": -77.0383535, "name": "d63ca9061469fdea441515f930b45de9", "fusion_lon": 0.0}, {"lat": 38.9265605, "fusion_lat": 0.0, "type": "electric_scooter", "bike_id": "075b842bd8e3340acb769757c945e2d0", "is_reserved": 0, "rental_uris": {"ios": "https://dc.lft.to/lastmile_qr_scan", "android": "https://dc.lft.to/lastmile_qr_scan"}, "is_disabled": 0, "lon": -76.99540133333333, "name": "075b842bd8e3340acb769757c945e2d0", "fusion_lon": 0.0}, {"lat": 38.898689, "fusion_lat": 0.0, "type": "electric_scooter", "bike_id": "d2035206c7eb5b512c616ce5f022dda4", "is_reserved": 0, "rental_uris": {"ios": "https://dc.lft.to/lastmile_qr_scan", "android": "https://dc.lft.to/lastmile_qr_scan"}, "is_disabled": 0, "lon": -76.92755, "name": "d2035206c7eb5b512c616ce5f022dda4", "fusion_lon": 0.0}, {"lat": 38.9594475, "fusion_lat": 0.0, "type": "electric_scooter", "bike_id": "4f96992aa54766c32df4f6b9e1189bbf", "is_reserved": 0, "rental_uris": {"ios": "https://dc.lft.to/lastmile_qr_scan", "android": "https://dc.lft.to/lastmile_qr_scan"}, "is_disabled": 0, "lon": -77.030549, "name": "4f96992aa54766c32df4f6b9e1189bbf", "fusion_lon": 0.0}, {"lat": 38.929707, "fusion_lat": 0.0, "type": "electric_scooter", "bike_id": "58b925b5ffbf01c5507eac1f8beedd13", "is_reserved": 0, "rental_uris": {"ios": "https://dc.lft.to/lastmile_qr_scan", "android": "https://dc.lft.to/lastmile_qr_scan"}, "is_disabled": 0, "lon": -77.016887, "name": "58b925b5ffbf01c5507eac1f8beedd13", "fusion_lon": 0.0}, {"lat": 38.90567433333333, "fusion_lat": 0.0, "type": "electric_bike", "bike_id": "8dec99dc820e81fad08735f68233dc89", "is_reserved": 0, "rental_uris": {"ios": "https://dc.lft.to/lastmile_qr_scan", "android": "https://dc.lft.to/lastmile_qr_scan"}, "is_disabled": 0, "lon": -77.00878133333333, "name": "8dec99dc820e81fad08735f68233dc89", "fusion_lon": 0.0}, {"lat": 38.908715, "fusion_lat": 0.0, "type": "electric_scooter", "bike_id": "c1864461dcc84c828f2d4fc74d90d97f", "is_reserved": 0, "rental_uris": {"ios": "https://dc.lft.to/lastmile_qr_scan", "android": "https://dc.lft.to/lastmile_qr_scan"}, "is_disabled": 0, "lon": -77.03224516666667, "name": "c1864461dcc84c828f2d4fc74d90d97f", "fusion_lon": 0.0}, {"lat": 38.90550283333334, "fusion_lat": 0.0, "type": "electric_scooter", "bike_id": "48aed5f13506ed39ac736c05647465dc", "is_reserved": 0, "rental_uris": {"ios": "https://dc.lft.to/lastmile_qr_scan", "android": "https://dc.lft.to/lastmile_qr_scan"}, "is_disabled": 0, "lon": -77.03082966666666, "name": "48aed5f13506ed39ac736c05647465dc", "fusion_lon": 0.0}, {"lat": 38.902193, "fusion_lat": 0.0, "type": "electric_bike", "bike_id": "2247cdda095f985826b7abf384c15c14", "is_reserved": 0, "rental_uris": {"ios": "https://dc.lft.to/lastmile_qr_scan", "android": "https://dc.lft.to/lastmile_qr_scan"}, "is_disabled": 0, "lon": -77.059052, "name": "2247cdda095f985826b7abf384c15c14", "fusion_lon": 0.0}, {"lat": 38.862430333333336, "fusion_lat": 0.0, "type": "electric_scooter", "bike_id": "c025a85fdf142c7ad80e29983cc7fafe", "is_reserved": 0, "rental_uris": {"ios": "https://dc.lft.to/lastmile_qr_scan", "android": "https://dc.lft.to/lastmile_qr_scan"}, "is_disabled": 0, "lon": -76.9951355, "name": "c025a85fdf142c7ad80e29983cc7fafe", "fusion_lon": 0.0}, {"lat": 38.88528316666667, "fusion_lat": 0.0, "type": "electric_scooter", "bike_id": "e4b0a34c52613f160d29dfa47cd4e1b7", "is_reserved": 0, "rental_uris": {"ios": "https://dc.lft.to/lastmile_qr_scan", "android": "https://dc.lft.to/lastmile_qr_scan"}, "is_disabled": 0, "lon": -77.0215795, "name": "e4b0a34c52613f160d29dfa47cd4e1b7", "fusion_lon": 0.0}, {"lat": 38.92940183333333, "fusion_lat": 0.0, "type": "electric_scooter", "bike_id": "801a027a33a0a4dbc019eb8a145720fb", "is_reserved": 0, "rental_uris": {"ios": "https://dc.lft.to/lastmile_qr_scan", "android": "https://dc.lft.to/lastmile_qr_scan"}, "is_disabled": 0, "lon": -77.0199025, "name": "801a027a33a0a4dbc019eb8a145720fb", "fusion_lon": 0.0}, {"lat": 38.858916666666666, "fusion_lat": 0.0, "type": "electric_scooter", "bike_id": "8a8a8fc7623caa57226e52a5644e25f6", "is_reserved": 0, "rental_uris": {"ios": "https://dc.lft.to/lastmile_qr_scan", "android": "https://dc.lft.to/lastmile_qr_scan"}, "is_disabled": 0, "lon": -76.99730083333333, "name": "8a8a8fc7623caa57226e52a5644e25f6", "fusion_lon": 0.0}, {"lat": 38.916879333333334, "fusion_lat": 0.0, "type": "electric_scooter", "bike_id": "c536e52628b4327fb0d11e3cdc539d0c", "is_reserved": 0, "rental_uris": {"ios": "https://dc.lft.to/lastmile_qr_scan", "android": "https://dc.lft.to/lastmile_qr_scan"}, "is_disabled": 0, "lon": -77.0298575, "name": "c536e52628b4327fb0d11e3cdc539d0c", "fusion_lon": 0.0}, {"lat": 38.91953983333333, "fusion_lat": 0.0, "type": "electric_scooter", "bike_id": "41077052924184c0d42f7fc0350c3c4d", "is_reserved": 0, "rental_uris": {"ios": "https://dc.lft.to/lastmile_qr_scan", "android": "https://dc.lft.to/lastmile_qr_scan"}, "is_disabled": 0, "lon": -77.02501183333334, "name": "41077052924184c0d42f7fc0350c3c4d", "fusion_lon": 0.0}, {"lat": 38.916405166666664, "fusion_lat": 0.0, "type": "electric_scooter", "bike_id": "8e7ec0d30718bba0e7242e63ac755a08", "is_reserved": 0, "rental_uris": {"ios": "https://dc.lft.to/lastmile_qr_scan", "android": "https://dc.lft.to/lastmile_qr_scan"}, "is_disabled": 0, "lon": -77.03979633333333, "name": "8e7ec0d30718bba0e7242e63ac755a08", "fusion_lon": 0.0}, {"lat": 38.89987, "fusion_lat": 0.0, "type": "electric_scooter", "bike_id": "81a99d616fcef4dae345e287be77b7a4", "is_reserved": 0, "rental_uris": {"ios": "https://dc.lft.to/lastmile_qr_scan", "android": "https://dc.lft.to/lastmile_qr_scan"}, "is_disabled": 0, "lon": -76.95001183333333, "name": "81a99d616fcef4dae345e287be77b7a4", "fusion_lon": 0.0}, {"lat": 38.9171785, "fusion_lat": 0.0, "type": "electric_scooter", "bike_id": "1445a8acf4a8bc1fc79b31e83f26c4ed", "is_reserved": 0, "rental_uris": {"ios": "https://dc.lft.to/lastmile_qr_scan", "android": "https://dc.lft.to/lastmile_qr_scan"}, "is_disabled": 0, "lon": -77.03443483333334, "name": "1445a8acf4a8bc1fc79b31e83f26c4ed", "fusion_lon": 0.0}, {"lat": 38.9042645, "fusion_lat": 0.0, "type": "electric_scooter", "bike_id": "805218ffbea84bca78a4906d58576401", "is_reserved": 0, "rental_uris": {"ios": "https://dc.lft.to/lastmile_qr_scan", "android": "https://dc.lft.to/lastmile_qr_scan"}, "is_disabled": 0, "lon": -77.03261, "name": "805218ffbea84bca78a4906d58576401", "fusion_lon": 0.0}, {"lat": 38.91227816666667, "fusion_lat": 0.0, "type": "electric_scooter", "bike_id": "730d8792fa3e9ddabeca9f741a6c39d3", "is_reserved": 0, "rental_uris": {"ios": "https://dc.lft.to/lastmile_qr_scan", "android": "https://dc.lft.to/lastmile_qr_scan"}, "is_disabled": 0, "lon": -77.0295515, "name": "730d8792fa3e9ddabeca9f741a6c39d3", "fusion_lon": 0.0}, {"lat": 38.88669616666667, "fusion_lat": 0.0, "type": "electric_bike", "bike_id": "49774bdbd606039dbd563cce40e7855a", "is_reserved": 0, "rental_uris": {"ios": "https://dc.lft.to/lastmile_qr_scan", "android": "https://dc.lft.to/lastmile_qr_scan"}, "is_disabled": 0, "lon": -77.162327, "name": "49774bdbd606039dbd563cce40e7855a", "fusion_lon": 0.0}, {"lat": 38.91036316666667, "fusion_lat": 0.0, "type": "electric_scooter", "bike_id": "4f85e4523710470e395049bb8544f0cc", "is_reserved": 0, "rental_uris": {"ios": "https://dc.lft.to/lastmile_qr_scan", "android": "https://dc.lft.to/lastmile_qr_scan"}, "is_disabled": 0, "lon": -77.00760333333334, "name": "4f85e4523710470e395049bb8544f0cc", "fusion_lon": 0.0}, {"lat": 38.8997505, "fusion_lat": 0.0, "type": "electric_scooter", "bike_id": "31077d2b653e57baa902af51de974e16", "is_reserved": 0, "rental_uris": {"ios": "https://dc.lft.to/lastmile_qr_scan", "android": "https://dc.lft.to/lastmile_qr_scan"}, "is_disabled": 0, "lon": -77.02253933333333, "name": "31077d2b653e57baa902af51de974e16", "fusion_lon": 0.0}, {"lat": 38.921267666666665, "fusion_lat": 0.0, "type": "electric_scooter", "bike_id": "007ae80b01f7a05fbef9ea3731714ffd", "is_reserved": 0, "rental_uris": {"ios": "https://dc.lft.to/lastmile_qr_scan", "android": "https://dc.lft.to/lastmile_qr_scan"}, "is_disabled": 0, "lon": -77.03928416666666, "name": "007ae80b01f7a05fbef9ea3731714ffd", "fusion_lon": 0.0}, {"lat": 38.912933333333335, "fusion_lat": 0.0, "type": "electric_scooter", "bike_id": "6a84b748892d2ab891b8c2b68ea85d2d", "is_reserved": 0, "rental_uris": {"ios": "https://dc.lft.to/lastmile_qr_scan", "android": "https://dc.lft.to/lastmile_qr_scan"}, "is_disabled": 0, "lon": -77.01976816666667, "name": "6a84b748892d2ab891b8c2b68ea85d2d", "fusion_lon": 0.0}, {"lat": 38.90008233333333, "fusion_lat": 0.0, "type": "electric_scooter", "bike_id": "86a3b00ae701cca6ee9d1e6402a23bf2", "is_reserved": 0, "rental_uris": {"ios": "https://dc.lft.to/lastmile_qr_scan", "android": "https://dc.lft.to/lastmile_qr_scan"}, "is_disabled": 0, "lon": -76.97990183333333, "name": "86a3b00ae701cca6ee9d1e6402a23bf2", "fusion_lon": 0.0}, {"lat": 38.91730916666667, "fusion_lat": 0.0, "type": "electric_scooter", "bike_id": "e480d41cc72e16b7d3079370524aa436", "is_reserved": 0, "rental_uris": {"ios": "https://dc.lft.to/lastmile_qr_scan", "android": "https://dc.lft.to/lastmile_qr_scan"}, "is_disabled": 0, "lon": -77.025099, "name": "e480d41cc72e16b7d3079370524aa436", "fusion_lon": 0.0}, {"lat": 38.90251116666666, "fusion_lat": 0.0, "type": "electric_scooter", "bike_id": "db5bf8468389687cd7cf2545e401d51a", "is_reserved": 0, "rental_uris": {"ios": "https://dc.lft.to/lastmile_qr_scan", "android": "https://dc.lft.to/lastmile_qr_scan"}, "is_disabled": 0, "lon": -77.01646116666667, "name": "db5bf8468389687cd7cf2545e401d51a", "fusion_lon": 0.0}, {"lat": 38.88507, "fusion_lat": 0.0, "type": "electric_scooter", "bike_id": "6132878f8d14379fd2957c3b8802799f", "is_reserved": 0, "rental_uris": {"ios": "https://dc.lft.to/lastmile_qr_scan", "android": "https://dc.lft.to/lastmile_qr_scan"}, "is_disabled": 0, "lon": -76.97712483333333, "name": "6132878f8d14379fd2957c3b8802799f", "fusion_lon": 0.0}, {"lat": 38.907321833333334, "fusion_lat": 0.0, "type": "electric_scooter", "bike_id": "c3ea89aaa84b29c9de2a20ee6f73dab2", "is_reserved": 0, "rental_uris": {"ios": "https://dc.lft.to/lastmile_qr_scan", "android": "https://dc.lft.to/lastmile_qr_scan"}, "is_disabled": 0, "lon": -77.041737, "name": "c3ea89aaa84b29c9de2a20ee6f73dab2", "fusion_lon": 0.0}, {"lat": 38.91262233333333, "fusion_lat": 0.0, "type": "electric_scooter", "bike_id": "8a1ad9d4e48e1fd0ad3dd9f18cbea2f8", "is_reserved": 0, "rental_uris": {"ios": "https://dc.lft.to/lastmile_qr_scan", "android": "https://dc.lft.to/lastmile_qr_scan"}, "is_disabled": 0, "lon": -77.0446735, "name": "8a1ad9d4e48e1fd0ad3dd9f18cbea2f8", "fusion_lon": 0.0}, {"lat": 38.90831516666667, "fusion_lat": 0.0, "type": "electric_bike", "bike_id": "f9ce0d557ab9591848c3e8b790dfc9e6", "is_reserved": 0, "rental_uris": {"ios": "https://dc.lft.to/lastmile_qr_scan", "android": "https://dc.lft.to/lastmile_qr_scan"}, "is_disabled": 0, "lon": -76.94158633333333, "name": "f9ce0d557ab9591848c3e8b790dfc9e6", "fusion_lon": 0.0}, {"lat": 38.907759666666664, "fusion_lat": 0.0, "type": "electric_scooter", "bike_id": "1b683e3be78e04a90035b81d4f6eb300", "is_reserved": 0, "rental_uris": {"ios": "https://dc.lft.to/lastmile_qr_scan", "android": "https://dc.lft.to/lastmile_qr_scan"}, "is_disabled": 0, "lon": -77.0205835, "name": "1b683e3be78e04a90035b81d4f6eb300", "fusion_lon": 0.0}, {"lat": 38.898346333333336, "fusion_lat": 0.0, "type": "electric_scooter", "bike_id": "4bc6037bd9cf608987562c762280d30e", "is_reserved": 0, "rental_uris": {"ios": "https://dc.lft.to/lastmile_qr_scan", "android": "https://dc.lft.to/lastmile_qr_scan"}, "is_disabled": 0, "lon": -77.029407, "name": "4bc6037bd9cf608987562c762280d30e", "fusion_lon": 0.0}, {"lat": 38.90091833333334, "fusion_lat": 0.0, "type": "electric_scooter", "bike_id": "48426a87abd19d6b522ad346016ecb89", "is_reserved": 0, "rental_uris": {"ios": "https://dc.lft.to/lastmile_qr_scan", "android": "https://dc.lft.to/lastmile_qr_scan"}, "is_disabled": 0, "lon": -77.0483255, "name": "48426a87abd19d6b522ad346016ecb89", "fusion_lon": 0.0}, {"lat": 38.948964833333335, "fusion_lat": 0.0, "type": "electric_bike", "bike_id": "00eefdc0c78e9200a556daee64680f61", "is_reserved": 0, "rental_uris": {"ios": "https://dc.lft.to/lastmile_qr_scan", "android": "https://dc.lft.to/lastmile_qr_scan"}, "is_disabled": 0, "lon": -76.96373216666667, "name": "00eefdc0c78e9200a556daee64680f61", "fusion_lon": 0.0}, {"lat": 38.862449166666664, "fusion_lat": 0.0, "type": "electric_scooter", "bike_id": "8d4314676d237b10dd3923c1ed4cb7e7", "is_reserved": 0, "rental_uris": {"ios": "https://dc.lft.to/lastmile_qr_scan", "android": "https://dc.lft.to/lastmile_qr_scan"}, "is_disabled": 0, "lon": -76.99264766666667, "name": "8d4314676d237b10dd3923c1ed4cb7e7", "fusion_lon": 0.0}, {"lat": 38.884065166666666, "fusion_lat": 0.0, "type": "electric_bike", "bike_id": "5d0eb7a415f22cff37340ba0a8a6a680", "is_reserved": 0, "rental_uris": {"ios": "https://dc.lft.to/lastmile_qr_scan", "android": "https://dc.lft.to/lastmile_qr_scan"}, "is_disabled": 0, "lon": -76.96057866666666, "name": "5d0eb7a415f22cff37340ba0a8a6a680", "fusion_lon": 0.0}, {"lat": 38.925104833333336, "fusion_lat": 0.0, "type": "electric_scooter", "bike_id": "5e6c87f665db90d905503fb0821a44c0", "is_reserved": 0, "rental_uris": {"ios": "https://dc.lft.to/lastmile_qr_scan", "android": "https://dc.lft.to/lastmile_qr_scan"}, "is_disabled": 0, "lon": -77.0022205, "name": "5e6c87f665db90d905503fb0821a44c0", "fusion_lon": 0.0}, {"lat": 38.905293666666665, "fusion_lat": 0.0, "type": "electric_scooter", "bike_id": "59a8ffa7eca4f74b03c2cc45e8ab2531", "is_reserved": 0, "rental_uris": {"ios": "https://dc.lft.to/lastmile_qr_scan", "android": "https://dc.lft.to/lastmile_qr_scan"}, "is_disabled": 0, "lon": -77.0608855, "name": "59a8ffa7eca4f74b03c2cc45e8ab2531", "fusion_lon": 0.0}, {"lat": 38.90679983333333, "fusion_lat": 0.0, "type": "electric_scooter", "bike_id": "99c682799fd2d1579a4884c44401dd16", "is_reserved": 0, "rental_uris": {"ios": "https://dc.lft.to/lastmile_qr_scan", "android": "https://dc.lft.to/lastmile_qr_scan"}, "is_disabled": 0, "lon": -77.05330116666667, "name": "99c682799fd2d1579a4884c44401dd16", "fusion_lon": 0.0}, {"lat": 38.89241833333333, "fusion_lat": 0.0, "type": "electric_scooter", "bike_id": "d2cc9c619385629ef5243e3a54db0635", "is_reserved": 0, "rental_uris": {"ios": "https://dc.lft.to/lastmile_qr_scan", "android": "https://dc.lft.to/lastmile_qr_scan"}, "is_disabled": 0, "lon": -77.023814, "name": "d2cc9c619385629ef5243e3a54db0635", "fusion_lon": 0.0}, {"lat": 38.918688333333336, "fusion_lat": 0.0, "type": "electric_scooter", "bike_id": "cd6db703aef1959f47e8b1e8a1a7b418", "is_reserved": 0, "rental_uris": {"ios": "https://dc.lft.to/lastmile_qr_scan", "android": "https://dc.lft.to/lastmile_qr_scan"}, "is_disabled": 0, "lon": -77.02700933333334, "name": "cd6db703aef1959f47e8b1e8a1a7b418", "fusion_lon": 0.0}, {"lat": 38.92058216666667, "fusion_lat": 0.0, "type": "electric_scooter", "bike_id": "42475b20417a9b9f542f420278bcb9bf", "is_reserved": 0, "rental_uris": {"ios": "https://dc.lft.to/lastmile_qr_scan", "android": "https://dc.lft.to/lastmile_qr_scan"}, "is_disabled": 0, "lon": -77.02394833333334, "name": "42475b20417a9b9f542f420278bcb9bf", "fusion_lon": 0.0}, {"lat": 38.91868233333334, "fusion_lat": 0.0, "type": "electric_scooter", "bike_id": "d3ba301c9d97127c3f28092ffc9fe7a5", "is_reserved": 0, "rental_uris": {"ios": "https://dc.lft.to/lastmile_qr_scan", "android": "https://dc.lft.to/lastmile_qr_scan"}, "is_disabled": 0, "lon": -77.04154533333333, "name": "d3ba301c9d97127c3f28092ffc9fe7a5", "fusion_lon": 0.0}, {"lat": 38.902491166666664, "fusion_lat": 0.0, "type": "electric_scooter", "bike_id": "1a874a774ee9e8f8267ef46a37201cc3", "is_reserved": 0, "rental_uris": {"ios": "https://dc.lft.to/lastmile_qr_scan", "android": "https://dc.lft.to/lastmile_qr_scan"}, "is_disabled": 0, "lon": -77.03448633333333, "name": "1a874a774ee9e8f8267ef46a37201cc3", "fusion_lon": 0.0}, {"lat": 39.014820666666665, "fusion_lat": 0.0, "type": "electric_bike", "bike_id": "dbfb7d8f882719db42e18fdb2c7a5f6c", "is_reserved": 0, "rental_uris": {"ios": "https://dc.lft.to/lastmile_qr_scan", "android": "https://dc.lft.to/lastmile_qr_scan"}, "is_disabled": 0, "lon": -77.05497283333334, "name": "dbfb7d8f882719db42e18fdb2c7a5f6c", "fusion_lon": 0.0}, {"lat": 38.90201716666667, "fusion_lat": 0.0, "type": "electric_scooter", "bike_id": "0f6b64b87aad4303686339c6c089fd96", "is_reserved": 0, "rental_uris": {"ios": "https://dc.lft.to/lastmile_qr_scan", "android": "https://dc.lft.to/lastmile_qr_scan"}, "is_disabled": 0, "lon": -77.013266, "name": "0f6b64b87aad4303686339c6c089fd96", "fusion_lon": 0.0}, {"lat": 38.928781, "fusion_lat": 0.0, "type": "electric_scooter", "bike_id": "e9bb65c3a172ba23e10dcf166d9edd96", "is_reserved": 0, "rental_uris": {"ios": "https://dc.lft.to/lastmile_qr_scan", "android": "https://dc.lft.to/lastmile_qr_scan"}, "is_disabled": 0, "lon": -77.01231233333333, "name": "e9bb65c3a172ba23e10dcf166d9edd96", "fusion_lon": 0.0}, {"lat": 38.914446833333336, "fusion_lat": 0.0, "type": "electric_scooter", "bike_id": "5a8adbc84fa92141acc4885530e89fa5", "is_reserved": 0, "rental_uris": {"ios": "https://dc.lft.to/lastmile_qr_scan", "android": "https://dc.lft.to/lastmile_qr_scan"}, "is_disabled": 0, "lon": -77.04158883333334, "name": "5a8adbc84fa92141acc4885530e89fa5", "fusion_lon": 0.0}, {"lat": 38.9106545, "fusion_lat": 0.0, "type": "electric_scooter", "bike_id": "c4bf5eeb5a9faeeb2d37759e39ec7c1c", "is_reserved": 0, "rental_uris": {"ios": "https://dc.lft.to/lastmile_qr_scan", "android": "https://dc.lft.to/lastmile_qr_scan"}, "is_disabled": 0, "lon": -77.03714333333333, "name": "c4bf5eeb5a9faeeb2d37759e39ec7c1c", "fusion_lon": 0.0}, {"lat": 38.87465433333333, "fusion_lat": 0.0, "type": "electric_scooter", "bike_id": "268c14f5cfded3f84a8322be2f2ba79e", "is_reserved": 0, "rental_uris": {"ios": "https://dc.lft.to/lastmile_qr_scan", "android": "https://dc.lft.to/lastmile_qr_scan"}, "is_disabled": 0, "lon": -77.01899016666667, "name": "268c14f5cfded3f84a8322be2f2ba79e", "fusion_lon": 0.0}, {"lat": 38.89832416666667, "fusion_lat": 0.0, "type": "electric_scooter", "bike_id": "254e47ce2f36b436e7ec939f90af8424", "is_reserved": 0, "rental_uris": {"ios": "https://dc.lft.to/lastmile_qr_scan", "android": "https://dc.lft.to/lastmile_qr_scan"}, "is_disabled": 0, "lon": -77.033439, "name": "254e47ce2f36b436e7ec939f90af8424", "fusion_lon": 0.0}, {"lat": 38.908387833333336, "fusion_lat": 0.0, "type": "electric_scooter", "bike_id": "75ce1d2e9aefea6e165f380031ae4a03", "is_reserved": 0, "rental_uris": {"ios": "https://dc.lft.to/lastmile_qr_scan", "android": "https://dc.lft.to/lastmile_qr_scan"}, "is_disabled": 0, "lon": -77.00934983333333, "name": "75ce1d2e9aefea6e165f380031ae4a03", "fusion_lon": 0.0}, {"lat": 38.86719333333333, "fusion_lat": 0.0, "type": "electric_scooter", "bike_id": "d93aa017962d3b74d2d893437f02c92c", "is_reserved": 0, "rental_uris": {"ios": "https://dc.lft.to/lastmile_qr_scan", "android": "https://dc.lft.to/lastmile_qr_scan"}, "is_disabled": 0, "lon": -76.9872075, "name": "d93aa017962d3b74d2d893437f02c92c", "fusion_lon": 0.0}, {"lat": 38.930776333333334, "fusion_lat": 0.0, "type": "electric_scooter", "bike_id": "e2caf012d09ef373ab464b57b529301f", "is_reserved": 0, "rental_uris": {"ios": "https://dc.lft.to/lastmile_qr_scan", "android": "https://dc.lft.to/lastmile_qr_scan"}, "is_disabled": 0, "lon": -77.02164366666666, "name": "e2caf012d09ef373ab464b57b529301f", "fusion_lon": 0.0}, {"lat": 38.920747, "fusion_lat": 0.0, "type": "electric_scooter", "bike_id": "63fe4a0cd9c679c64d09a6c46cd6509c", "is_reserved": 0, "rental_uris": {"ios": "https://dc.lft.to/lastmile_qr_scan", "android": "https://dc.lft.to/lastmile_qr_scan"}, "is_disabled": 0, "lon": -77.02215583333333, "name": "63fe4a0cd9c679c64d09a6c46cd6509c", "fusion_lon": 0.0}, {"lat": 38.917066166666665, "fusion_lat": 0.0, "type": "electric_scooter", "bike_id": "b551a3f3511286b705f73f3274ad5fd7", "is_reserved": 0, "rental_uris": {"ios": "https://dc.lft.to/lastmile_qr_scan", "android": "https://dc.lft.to/lastmile_qr_scan"}, "is_disabled": 0, "lon": -77.02465266666667, "name": "b551a3f3511286b705f73f3274ad5fd7", "fusion_lon": 0.0}, {"lat": 38.92018383333333, "fusion_lat": 0.0, "type": "electric_scooter", "bike_id": "fc2a4292b123f35b5b247709e13672ac", "is_reserved": 0, "rental_uris": {"ios": "https://dc.lft.to/lastmile_qr_scan", "android": "https://dc.lft.to/lastmile_qr_scan"}, "is_disabled": 0, "lon": -77.02046716666666, "name": "fc2a4292b123f35b5b247709e13672ac", "fusion_lon": 0.0}, {"lat": 38.95690033333333, "fusion_lat": 0.0, "type": "electric_scooter", "bike_id": "9b6e621d13dc3b802dcbc1f152b3dca7", "is_reserved": 0, "rental_uris": {"ios": "https://dc.lft.to/lastmile_qr_scan", "android": "https://dc.lft.to/lastmile_qr_scan"}, "is_disabled": 0, "lon": -77.02406766666667, "name": "9b6e621d13dc3b802dcbc1f152b3dca7", "fusion_lon": 0.0}, {"lat": 38.885039666666664, "fusion_lat": 0.0, "type": "electric_scooter", "bike_id": "e6430b88ea1550eed791b3a2aff64227", "is_reserved": 0, "rental_uris": {"ios": "https://dc.lft.to/lastmile_qr_scan", "android": "https://dc.lft.to/lastmile_qr_scan"}, "is_disabled": 0, "lon": -77.015179, "name": "e6430b88ea1550eed791b3a2aff64227", "fusion_lon": 0.0}, {"lat": 38.906539, "fusion_lat": 0.0, "type": "electric_scooter", "bike_id": "499aab764c4e620b1fd5613b83b98938", "is_reserved": 0, "rental_uris": {"ios": "https://dc.lft.to/lastmile_qr_scan", "android": "https://dc.lft.to/lastmile_qr_scan"}, "is_disabled": 0, "lon": -77.05122583333333, "name": "499aab764c4e620b1fd5613b83b98938", "fusion_lon": 0.0}, {"lat": 38.908711, "fusion_lat": 0.0, "type": "electric_scooter", "bike_id": "0b1b7ac091a719a50fdb55ab3ddde5e0", "is_reserved": 0, "rental_uris": {"ios": "https://dc.lft.to/lastmile_qr_scan", "android": "https://dc.lft.to/lastmile_qr_scan"}, "is_disabled": 0, "lon": -77.03217366666667, "name": "0b1b7ac091a719a50fdb55ab3ddde5e0", "fusion_lon": 0.0}, {"lat": 38.873390666666666, "fusion_lat": 0.0, "type": "electric_scooter", "bike_id": "6af6647157063af33366ba1703f84994", "is_reserved": 0, "rental_uris": {"ios": "https://dc.lft.to/lastmile_qr_scan", "android": "https://dc.lft.to/lastmile_qr_scan"}, "is_disabled": 0, "lon": -77.002559, "name": "6af6647157063af33366ba1703f84994", "fusion_lon": 0.0}, {"lat": 38.92457983333333, "fusion_lat": 0.0, "type": "electric_scooter", "bike_id": "b2da6eacf988c861af2630ab84893b80", "is_reserved": 0, "rental_uris": {"ios": "https://dc.lft.to/lastmile_qr_scan", "android": "https://dc.lft.to/lastmile_qr_scan"}, "is_disabled": 0, "lon": -77.02224183333334, "name": "b2da6eacf988c861af2630ab84893b80", "fusion_lon": 0.0}, {"lat": 38.860919833333334, "fusion_lat": 0.0, "type": "electric_scooter", "bike_id": "876667e85432f227fd7177cd7ec546fc", "is_reserved": 0, "rental_uris": {"ios": "https://dc.lft.to/lastmile_qr_scan", "android": "https://dc.lft.to/lastmile_qr_scan"}, "is_disabled": 0, "lon": -76.968888, "name": "876667e85432f227fd7177cd7ec546fc", "fusion_lon": 0.0}, {"lat": 38.959023333333334, "fusion_lat": 0.0, "type": "electric_scooter", "bike_id": "dd83891e2d60a23d3ba7928add5c5669", "is_reserved": 0, "rental_uris": {"ios": "https://dc.lft.to/lastmile_qr_scan", "android": "https://dc.lft.to/lastmile_qr_scan"}, "is_disabled": 0, "lon": -77.085977, "name": "dd83891e2d60a23d3ba7928add5c5669", "fusion_lon": 0.0}, {"lat": 38.899047333333336, "fusion_lat": 0.0, "type": "electric_scooter", "bike_id": "767e7f1c374c39550d78493e6a1281f1", "is_reserved": 0, "rental_uris": {"ios": "https://dc.lft.to/lastmile_qr_scan", "android": "https://dc.lft.to/lastmile_qr_scan"}, "is_disabled": 0, "lon": -77.01511433333333, "name": "767e7f1c374c39550d78493e6a1281f1", "fusion_lon": 0.0}, {"lat": 38.874675, "fusion_lat": 0.0, "type": "electric_scooter", "bike_id": "bcadaa3d59833c1ea956e38485780e52", "is_reserved": 0, "rental_uris": {"ios": "https://dc.lft.to/lastmile_qr_scan", "android": "https://dc.lft.to/lastmile_qr_scan"}, "is_disabled": 0, "lon": -77.01596616666667, "name": "bcadaa3d59833c1ea956e38485780e52", "fusion_lon": 0.0}, {"lat": 38.94514133333333, "fusion_lat": 0.0, "type": "electric_scooter", "bike_id": "a7706127b3cdbce996cb10504ce49259", "is_reserved": 0, "rental_uris": {"ios": "https://dc.lft.to/lastmile_qr_scan", "android": "https://dc.lft.to/lastmile_qr_scan"}, "is_disabled": 0, "lon": -77.03375366666667, "name": "a7706127b3cdbce996cb10504ce49259", "fusion_lon": 0.0}, {"lat": 38.90478783333333, "fusion_lat": 0.0, "type": "electric_scooter", "bike_id": "01487e0ecbb07c1e8326653632c51f4e", "is_reserved": 0, "rental_uris": {"ios": "https://dc.lft.to/lastmile_qr_scan", "android": "https://dc.lft.to/lastmile_qr_scan"}, "is_disabled": 0, "lon": -77.05335133333334, "name": "01487e0ecbb07c1e8326653632c51f4e", "fusion_lon": 0.0}, {"lat": 38.907738, "fusion_lat": 0.0, "type": "electric_scooter", "bike_id": "ef3fc2515d16592b6c7e94939f408ce4", "is_reserved": 0, "rental_uris": {"ios": "https://dc.lft.to/lastmile_qr_scan", "android": "https://dc.lft.to/lastmile_qr_scan"}, "is_disabled": 0, "lon": -77.03469183333333, "name": "ef3fc2515d16592b6c7e94939f408ce4", "fusion_lon": 0.0}, {"lat": 38.899916166666664, "fusion_lat": 0.0, "type": "electric_scooter", "bike_id": "b9ed81e9bff2def5bec0f168066d75f4", "is_reserved": 0, "rental_uris": {"ios": "https://dc.lft.to/lastmile_qr_scan", "android": "https://dc.lft.to/lastmile_qr_scan"}, "is_disabled": 0, "lon": -77.02387116666667, "name": "b9ed81e9bff2def5bec0f168066d75f4", "fusion_lon": 0.0}, {"lat": 38.9339705, "fusion_lat": 0.0, "type": "electric_scooter", "bike_id": "0aecb695f37751250f0cbcff68f189a2", "is_reserved": 0, "rental_uris": {"ios": "https://dc.lft.to/lastmile_qr_scan", "android": "https://dc.lft.to/lastmile_qr_scan"}, "is_disabled": 0, "lon": -77.03093666666666, "name": "0aecb695f37751250f0cbcff68f189a2", "fusion_lon": 0.0}, {"lat": 38.90944733333333, "fusion_lat": 0.0, "type": "electric_scooter", "bike_id": "040c43e01c028ea488128bd93d46c8ee", "is_reserved": 0, "rental_uris": {"ios": "https://dc.lft.to/lastmile_qr_scan", "android": "https://dc.lft.to/lastmile_qr_scan"}, "is_disabled": 0, "lon": -77.0318585, "name": "040c43e01c028ea488128bd93d46c8ee", "fusion_lon": 0.0}, {"lat": 38.89843183333333, "fusion_lat": 0.0, "type": "electric_scooter", "bike_id": "a846c510da2d9fca9abcc9b132469829", "is_reserved": 0, "rental_uris": {"ios": "https://dc.lft.to/lastmile_qr_scan", "android": "https://dc.lft.to/lastmile_qr_scan"}, "is_disabled": 0, "lon": -77.03328433333333, "name": "a846c510da2d9fca9abcc9b132469829", "fusion_lon": 0.0}, {"lat": 38.93362966666667, "fusion_lat": 0.0, "type": "electric_scooter", "bike_id": "03c2e057382d6e4705b9706c3c63e4ee", "is_reserved": 0, "rental_uris": {"ios": "https://dc.lft.to/lastmile_qr_scan", "android": "https://dc.lft.to/lastmile_qr_scan"}, "is_disabled": 0, "lon": -77.0885905, "name": "03c2e057382d6e4705b9706c3c63e4ee", "fusion_lon": 0.0}, {"lat": 38.892199166666664, "fusion_lat": 0.0, "type": "electric_scooter", "bike_id": "d2921640b68b26aba62954ff5e68d756", "is_reserved": 0, "rental_uris": {"ios": "https://dc.lft.to/lastmile_qr_scan", "android": "https://dc.lft.to/lastmile_qr_scan"}, "is_disabled": 0, "lon": -77.02806466666667, "name": "d2921640b68b26aba62954ff5e68d756", "fusion_lon": 0.0}, {"lat": 38.9058265, "fusion_lat": 0.0, "type": "electric_scooter", "bike_id": "27946b8f729fd7f3a51b283095709c47", "is_reserved": 0, "rental_uris": {"ios": "https://dc.lft.to/lastmile_qr_scan", "android": "https://dc.lft.to/lastmile_qr_scan"}, "is_disabled": 0, "lon": -77.0513185, "name": "27946b8f729fd7f3a51b283095709c47", "fusion_lon": 0.0}, {"lat": 38.9245855, "fusion_lat": 0.0, "type": "electric_scooter", "bike_id": "d7296e35d5cf69ff57f1da59454ffff2", "is_reserved": 0, "rental_uris": {"ios": "https://dc.lft.to/lastmile_qr_scan", "android": "https://dc.lft.to/lastmile_qr_scan"}, "is_disabled": 0, "lon": -77.0411255, "name": "d7296e35d5cf69ff57f1da59454ffff2", "fusion_lon": 0.0}, {"lat": 38.897348, "fusion_lat": 0.0, "type": "electric_scooter", "bike_id": "c1cae8e62612b37964ed5531ab408006", "is_reserved": 0, "rental_uris": {"ios": "https://dc.lft.to/lastmile_qr_scan", "android": "https://dc.lft.to/lastmile_qr_scan"}, "is_disabled": 0, "lon": -77.02714466666667, "name": "c1cae8e62612b37964ed5531ab408006", "fusion_lon": 0.0}, {"lat": 38.89543533333333, "fusion_lat": 0.0, "type": "electric_scooter", "bike_id": "4c39b72bb527836e94f1e881f4edeb82", "is_reserved": 0, "rental_uris": {"ios": "https://dc.lft.to/lastmile_qr_scan", "android": "https://dc.lft.to/lastmile_qr_scan"}, "is_disabled": 0, "lon": -76.9492535, "name": "4c39b72bb527836e94f1e881f4edeb82", "fusion_lon": 0.0}, {"lat": 38.919412333333334, "fusion_lat": 0.0, "type": "electric_scooter", "bike_id": "47031e84bcc6d3e6c0d4aab391c594be", "is_reserved": 0, "rental_uris": {"ios": "https://dc.lft.to/lastmile_qr_scan", "android": "https://dc.lft.to/lastmile_qr_scan"}, "is_disabled": 0, "lon": -77.0448225, "name": "47031e84bcc6d3e6c0d4aab391c594be", "fusion_lon": 0.0}, {"lat": 38.910398666666666, "fusion_lat": 0.0, "type": "electric_scooter", "bike_id": "9f9db31e31289cf5c20f0a1246d7e6ec", "is_reserved": 0, "rental_uris": {"ios": "https://dc.lft.to/lastmile_qr_scan", "android": "https://dc.lft.to/lastmile_qr_scan"}, "is_disabled": 0, "lon": -77.03445616666667, "name": "9f9db31e31289cf5c20f0a1246d7e6ec", "fusion_lon": 0.0}, {"lat": 38.89793183333333, "fusion_lat": 0.0, "type": "electric_scooter", "bike_id": "248379d3292b782ea1e9afb1815b8b95", "is_reserved": 0, "rental_uris": {"ios": "https://dc.lft.to/lastmile_qr_scan", "android": "https://dc.lft.to/lastmile_qr_scan"}, "is_disabled": 0, "lon": -77.01206033333334, "name": "248379d3292b782ea1e9afb1815b8b95", "fusion_lon": 0.0}, {"lat": 38.92876916666667, "fusion_lat": 0.0, "type": "electric_scooter", "bike_id": "0715aa05b90f8f5f46e62d36da565a1a", "is_reserved": 0, "rental_uris": {"ios": "https://dc.lft.to/lastmile_qr_scan", "android": "https://dc.lft.to/lastmile_qr_scan"}, "is_disabled": 0, "lon": -77.0334, "name": "0715aa05b90f8f5f46e62d36da565a1a", "fusion_lon": 0.0}, {"lat": 38.89991916666666, "fusion_lat": 0.0, "type": "electric_scooter", "bike_id": "6330677dae81fc40f167a808be91a2ef", "is_reserved": 0, "rental_uris": {"ios": "https://dc.lft.to/lastmile_qr_scan", "android": "https://dc.lft.to/lastmile_qr_scan"}, "is_disabled": 0, "lon": -77.00699366666667, "name": "6330677dae81fc40f167a808be91a2ef", "fusion_lon": 0.0}, {"lat": 38.909897666666666, "fusion_lat": 0.0, "type": "electric_scooter", "bike_id": "5e6ce2d2208cc2e086c7c5c1941b552c", "is_reserved": 0, "rental_uris": {"ios": "https://dc.lft.to/lastmile_qr_scan", "android": "https://dc.lft.to/lastmile_qr_scan"}, "is_disabled": 0, "lon": -77.03365533333333, "name": "5e6ce2d2208cc2e086c7c5c1941b552c", "fusion_lon": 0.0}, {"lat": 39.03997, "fusion_lat": 0.0, "type": "electric_bike", "bike_id": "ebeb5684d4d1f230209ce6ac2b4adfc8", "is_reserved": 0, "rental_uris": {"ios": "https://dc.lft.to/lastmile_qr_scan", "android": "https://dc.lft.to/lastmile_qr_scan"}, "is_disabled": 0, "lon": -76.99922933333333, "name": "ebeb5684d4d1f230209ce6ac2b4adfc8", "fusion_lon": 0.0}, {"lat": 38.900312666666665, "fusion_lat": 0.0, "type": "electric_scooter", "bike_id": "4838d47713776830f3110af37c9f6b09", "is_reserved": 0, "rental_uris": {"ios": "https://dc.lft.to/lastmile_qr_scan", "android": "https://dc.lft.to/lastmile_qr_scan"}, "is_disabled": 0, "lon": -76.99857833333333, "name": "4838d47713776830f3110af37c9f6b09", "fusion_lon": 0.0}, {"lat": 38.967285833333335, "fusion_lat": 0.0, "type": "electric_scooter", "bike_id": "191da32f65ae466fd1b73ab15e66293f", "is_reserved": 0, "rental_uris": {"ios": "https://dc.lft.to/lastmile_qr_scan", "android": "https://dc.lft.to/lastmile_qr_scan"}, "is_disabled": 0, "lon": -77.01860366666666, "name": "191da32f65ae466fd1b73ab15e66293f", "fusion_lon": 0.0}, {"lat": 38.885281666666664, "fusion_lat": 0.0, "type": "electric_scooter", "bike_id": "c983b8fb46d8102203f51c960270c880", "is_reserved": 0, "rental_uris": {"ios": "https://dc.lft.to/lastmile_qr_scan", "android": "https://dc.lft.to/lastmile_qr_scan"}, "is_disabled": 0, "lon": -77.01138533333334, "name": "c983b8fb46d8102203f51c960270c880", "fusion_lon": 0.0}, {"lat": 38.90599316666667, "fusion_lat": 0.0, "type": "electric_scooter", "bike_id": "4233a8fbfb38890868c2aba697aa1779", "is_reserved": 0, "rental_uris": {"ios": "https://dc.lft.to/lastmile_qr_scan", "android": "https://dc.lft.to/lastmile_qr_scan"}, "is_disabled": 0, "lon": -77.07011483333334, "name": "4233a8fbfb38890868c2aba697aa1779", "fusion_lon": 0.0}, {"lat": 38.89741583333333, "fusion_lat": 0.0, "type": "electric_scooter", "bike_id": "af03ea255633247e2661852f394894e6", "is_reserved": 0, "rental_uris": {"ios": "https://dc.lft.to/lastmile_qr_scan", "android": "https://dc.lft.to/lastmile_qr_scan"}, "is_disabled": 0, "lon": -77.00767316666666, "name": "af03ea255633247e2661852f394894e6", "fusion_lon": 0.0}, {"lat": 38.94600716666667, "fusion_lat": 0.0, "type": "electric_scooter", "bike_id": "5b24628d35d16dc5f357a1e02f384652", "is_reserved": 0, "rental_uris": {"ios": "https://dc.lft.to/lastmile_qr_scan", "android": "https://dc.lft.to/lastmile_qr_scan"}, "is_disabled": 0, "lon": -77.07032816666667, "name": "5b24628d35d16dc5f357a1e02f384652", "fusion_lon": 0.0}, {"lat": 38.89735016666667, "fusion_lat": 0.0, "type": "electric_scooter", "bike_id": "ae6a6e5b048c5d249fa98efa85f74b42", "is_reserved": 0, "rental_uris": {"ios": "https://dc.lft.to/lastmile_qr_scan", "android": "https://dc.lft.to/lastmile_qr_scan"}, "is_disabled": 0, "lon": -77.05473783333333, "name": "ae6a6e5b048c5d249fa98efa85f74b42", "fusion_lon": 0.0},