{"data": {"bikes": [{"bike_id": "2edea765b4c6616ff6bf95f0700badd4", "type": "electric_scooter", "is_disabled": 0, "lat": 38.940164333333335, "rental_uris": {"ios": "https://dc.lft.to/lastmile_qr_scan", "android": "https://dc.lft.to/lastmile_qr_scan"}, "is_reserved": 0, "fusion_lon": 0.0, "fusion_lat": 0.0, "lon": -77.02639016666667, "name": "2edea765b4c6616ff6bf95f0700badd4"}, {"bike_id": "af275c3c77dd5ac3d69a7b40a48be73a", "type": "electric_scooter", "is_disabled": 0, "lat": 38.91726466666667, "rental_uris": {"ios": "https://dc.lft.to/lastmile_qr_scan", "android": "https://dc.lft.to/lastmile_qr_scan"}, "is_reserved": 0, "fusion_lon": 0.0, "fusion_lat": 0.0, "lon": -77.01905833333333, "name": "af275c3c77dd5ac3d69a7b40a48be73a"}, {"bike_id": "b686911001409ff001814fc4ea83c9c0", "type": "electric_scooter", "is_disabled": 0, "lat": 38.87669266666666, "rental_uris": {"ios": "https://dc.lft.to/lastmile_qr_scan", "android": "https://dc.lft.to/lastmile_qr_scan"}, "is_reserved": 0, "fusion_lon": 0.0, "fusion_lat": 0.0, "lon": -77.00799016666667, "name": "b686911001409ff001814fc4ea83c9c0"}, {"bike_id": "34a130947adbc15a19a92a723acc1724", "type": "electric_scooter", "is_disabled": 0, "lat": 38.9168125, "rental_uris": {"ios": "https://dc.lft.to/lastmile_qr_scan", "android": "https://dc.lft.to/lastmile_qr_scan"}, "is_reserved": 0, "fusion_lon": 0.0, "fusion_lat": 0.0, "lon": -77.03054166666666, "name": "34a130947adbc15a19a92a723acc1724"}, {"bike_id": "1af3d817877b3cd98b84a439c2fd2b22", "type": "electric_scooter", "is_disabled": 0, "lat": 38.939536833333335, "rental_uris": {"ios": "https://dc.lft.to/lastmile_qr_scan", "android": "https://dc.lft.to/lastmile_qr_scan"}, "is_reserved": 0, "fusion_lon": 0.0, "fusion_lat": 0.0, "lon": -77.06065133333334, "name": "1af3d817877b3cd98b84a439c2fd2b22"}, {"bike_id": "86a33d5212735684a12d79f10aecffad", "type": "electric_scooter", "is_disabled": 0, "lat": 38.91187566666667, "rental_uris": {"ios": "https://dc.lft.to/lastmile_qr_scan", "android": "https://dc.lft.to/lastmile_qr_scan"}, "is_reserved": 0, "fusion_lon": 0.0, "fusion_lat": 0.0, "lon": -77.01053166666667, "name": "86a33d5212735684a12d79f10aecffad"}, {"bike_id": "6fd23cf923e46f451f1705548ae6534a", "type": "electric_scooter", "is_disabled": 0, "lat": 38.90714233333333, "rental_uris": {"ios": "https://dc.lft.to/lastmile_qr_scan", "android": "https://dc.lft.to/lastmile_qr_scan"}, "is_reserved": 0, "fusion_lon": 0.0, "fusion_lat": 0.0, "lon": -77.0239235, "name": "6fd23cf923e46f451f1705548ae6534a"}, {"bike_id": "1a635d8220da1a8f113ff7483ae2d855", "type": "electric_scooter", "is_disabled": 0, "lat": 38.91677083333333, "rental_uris": {"ios": "https://dc.lft.to/lastmile_qr_scan", "android": "https://dc.lft.to/lastmile_qr_scan"}, "is_reserved": 0, "fusion_lon": 0.0, "fusion_lat": 0.0, "lon": -77.02285516666667, "name": "1a635d8220da1a8f113ff7483ae2d855"}, {"bike_id": "6e79b296d240759db3044c82e6c7413d", "type": "electric_scooter", "is_disabled": 0, "lat": 38.902369166666666, "rental_uris": {"ios": "https://dc.lft.to/lastmile_qr_scan", "android": "https://dc.lft.to/lastmile_qr_scan"}, "is_reserved": 0, "fusion_lon": 0.0, "fusion_lat": 0.0, "lon": -77.04328866666667, "name": "6e79b296d240759db3044c82e6c7413d"}, {"bike_id": "40fcd0e420b25f346a160fa4ef75821c", "type": "electric_scooter", "is_disabled": 0, "lat": 38.876262833333335, "rental_uris": {"ios": "https://dc.lft.to/lastmile_qr_scan", "android": "https://dc.lft.to/lastmile_qr_scan"}, "is_reserved": 0, "fusion_lon": 0.0, "fusion_lat": 0.0, "lon": -76.96525483333333, "name": "40fcd0e420b25f346a160fa4ef75821c"}, {"bike_id": "f655575b3599e047f9bf9d0bdd50d2c9", "type": "electric_scooter", "is_disabled": 0, "lat": 38.91687533333333, "rental_uris": {"ios": "https://dc.lft.to/lastmile_qr_scan", "android": "https://dc.lft.to/lastmile_qr_scan"}, "is_reserved": 0, "fusion_lon": 0.0, "fusion_lat": 0.0, "lon": -77.03759533333333, "name": "f655575b3599e047f9bf9d0bdd50d2c9"}, {"bike_id": "d35869a9deb2dad28e90c50ff6e7be99", "type": "electric_scooter", "is_disabled": 0, "lat": 38.956152, "rental_uris": {"ios": "https://dc.lft.to/lastmile_qr_scan", "android": "https://dc.lft.to/lastmile_qr_scan"}, "is_reserved": 0, "fusion_lon": 0.0, "fusion_lat": 0.0, "lon": -77.0101665, "name": "d35869a9deb2dad28e90c50ff6e7be99"}, {"bike_id": "5601dff54cdfab9e41d19570e7237df4", "type": "electric_scooter", "is_disabled": 0, "lat": 38.920526833333334, "rental_uris": {"ios": "https://dc.lft.to/lastmile_qr_scan", "android": "https://dc.lft.to/lastmile_qr_scan"}, "is_reserved": 0, "fusion_lon": 0.0, "fusion_lat": 0.0, "lon": -76.9987295, "name": "5601dff54cdfab9e41d19570e7237df4"}, {"bike_id": "fd135bd42df57653bd3580a27591509b", "type": "electric_scooter", "is_disabled": 0, "lat": 38.909761833333334, "rental_uris": {"ios": "https://dc.lft.to/lastmile_qr_scan", "android": "https://dc.lft.to/lastmile_qr_scan"}, "is_reserved": 0, "fusion_lon": 0.0, "fusion_lat": 0.0, "lon": -77.03297116666667, "name": "fd135bd42df57653bd3580a27591509b"}, {"bike_id": "c136f9cbae58e23e01d9158400ccb230", "type": "electric_scooter", "is_disabled": 0, "lat": 38.91446033333333, "rental_uris": {"ios": "https://dc.lft.to/lastmile_qr_scan", "android": "https://dc.lft.to/lastmile_qr_scan"}, "is_reserved": 0, "fusion_lon": 0.0, "fusion_lat": 0.0, "lon": -77.02593116666667, "name": "c136f9cbae58e23e01d9158400ccb230"}, {"bike_id": "c9681bbe60bf89e2341ba39952e30fea", "type": "electric_scooter", "is_disabled": 0, "lat": 38.8617755, "rental_uris": {"ios": "https://dc.lft.to/lastmile_qr_scan", "android": "https://dc.lft.to/lastmile_qr_scan"}, "is_reserved": 0, "fusion_lon": 0.0, "fusion_lat": 0.0, "lon": -77.088364, "name": "c9681bbe60bf89e2341ba39952e30fea"}, {"bike_id": "5ad813d76ede3b316c72f89b025c54c2", "type": "electric_scooter", "is_disabled": 0, "lat": 38.937979166666665, "rental_uris": {"ios": "https://dc.lft.to/lastmile_qr_scan", "android": "https://dc.lft.to/lastmile_qr_scan"}, "is_reserved": 0, "fusion_lon": 0.0, "fusion_lat": 0.0, "lon": -77.02450033333334, "name": "5ad813d76ede3b316c72f89b025c54c2"}, {"bike_id": "7f202a63488d573d479b6d643c48ae28", "type": "electric_scooter", "is_disabled": 0, "lat": 38.9253635, "rental_uris": {"ios": "https://dc.lft.to/lastmile_qr_scan", "android": "https://dc.lft.to/lastmile_qr_scan"}, "is_reserved": 0, "fusion_lon": 0.0, "fusion_lat": 0.0, "lon": -77.0381725, "name": "7f202a63488d573d479b6d643c48ae28"}, {"bike_id": "65fb541eb8035106b46f37780c5c350f", "type": "electric_scooter", "is_disabled": 0, "lat": 38.892195666666666, "rental_uris": {"ios": "https://dc.lft.to/lastmile_qr_scan", "android": "https://dc.lft.to/lastmile_qr_scan"}, "is_reserved": 0, "fusion_lon": 0.0, "fusion_lat": 0.0, "lon": -77.02219516666666, "name": "65fb541eb8035106b46f37780c5c350f"}, {"bike_id": "908282d07cbdb872addddd29d198d5ea", "type": "electric_scooter", "is_disabled": 0, "lat": 38.884241833333334, "rental_uris": {"ios": "https://dc.lft.to/lastmile_qr_scan", "android": "https://dc.lft.to/lastmile_qr_scan"}, "is_reserved": 0, "fusion_lon": 0.0, "fusion_lat": 0.0, "lon": -76.95752816666666, "name": "908282d07cbdb872addddd29d198d5ea"}, {"bike_id": "eadffc38fe9c8e2925a20a8b4d3f5966", "type": "electric_scooter", "is_disabled": 0, "lat": 38.91843433333333, "rental_uris": {"ios": "https://dc.lft.to/lastmile_qr_scan", "android": "https://dc.lft.to/lastmile_qr_scan"}, "is_reserved": 0, "fusion_lon": 0.0, "fusion_lat": 0.0, "lon": -77.02310633333333, "name": "eadffc38fe9c8e2925a20a8b4d3f5966"}, {"bike_id": "649eba5409b384dd2c9718bde4d588b6", "type": "electric_scooter", "is_disabled": 0, "lat": 38.92071116666666, "rental_uris": {"ios": "https://dc.lft.to/lastmile_qr_scan", "android": "https://dc.lft.to/lastmile_qr_scan"}, "is_reserved": 0, "fusion_lon": 0.0, "fusion_lat": 0.0, "lon": -77.02357733333334, "name": "649eba5409b384dd2c9718bde4d588b6"}, {"bike_id": "c029fd4b0bdfeab6ee5ebe7611a6d989", "type": "electric_scooter", "is_disabled": 0, "lat": 38.9027605, "rental_uris": {"ios": "https://dc.lft.to/lastmile_qr_scan", "android": "https://dc.lft.to/lastmile_qr_scan"}, "is_reserved": 0, "fusion_lon": 0.0, "fusion_lat": 0.0, "lon": -77.00346333333333, "name": "c029fd4b0bdfeab6ee5ebe7611a6d989"}, {"bike_id": "968facd0f5f854325874d6cdabf7f68a", "type": "electric_scooter", "is_disabled": 0, "lat": 38.90169933333333, "rental_uris": {"ios": "https://dc.lft.to/lastmile_qr_scan", "android": "https://dc.lft.to/lastmile_qr_scan"}, "is_reserved": 0, "fusion_lon": 0.0, "fusion_lat": 0.0, "lon": -77.02472866666666, "name": "968facd0f5f854325874d6cdabf7f68a"}, {"bike_id": "11e3c0b0081af1a7201f6d6201e23a6f", "type": "electric_scooter", "is_disabled": 0, "lat": 38.917049666666664, "rental_uris": {"ios": "https://dc.lft.to/lastmile_qr_scan", "android": "https://dc.lft.to/lastmile_qr_scan"}, "is_reserved": 0, "fusion_lon": 0.0, "fusion_lat": 0.0, "lon": -77.023798, "name": "11e3c0b0081af1a7201f6d6201e23a6f"}, {"bike_id": "4763c3bc8c3bc8a9e6446264bad73e9b", "type": "electric_scooter", "is_disabled": 0, "lat": 38.91822066666667, "rental_uris": {"ios": "https://dc.lft.to/lastmile_qr_scan", "android": "https://dc.lft.to/lastmile_qr_scan"}, "is_reserved": 0, "fusion_lon": 0.0, "fusion_lat": 0.0, "lon": -77.04504066666667, "name": "4763c3bc8c3bc8a9e6446264bad73e9b"}, {"bike_id": "e397a58e6531469ab88a0510aa8fb896", "type": "electric_scooter", "is_disabled": 0, "lat": 38.9169805, "rental_uris": {"ios": "https://dc.lft.to/lastmile_qr_scan", "android": "https://dc.lft.to/lastmile_qr_scan"}, "is_reserved": 0, "fusion_lon": 0.0, "fusion_lat": 0.0, "lon": -77.03011333333333, "name": "e397a58e6531469ab88a0510aa8fb896"}, {"bike_id": "bdaab21931024bf4478c785ff6be2e05", "type": "electric_scooter", "is_disabled": 0, "lat": 38.890058333333336, "rental_uris": {"ios": "https://dc.lft.to/lastmile_qr_scan", "android": "https://dc.lft.to/lastmile_qr_scan"}, "is_reserved": 0, "fusion_lon": 0.0, "fusion_lat": 0.0, "lon": -76.937461, "name": "bdaab21931024bf4478c785ff6be2e05"}, {"bike_id": "dabf7716a322ce5b033d31825022ad22", "type": "electric_bike", "is_disabled": 0, "lat": 38.9292635, "rental_uris": {"ios": "https://dc.lft.to/lastmile_qr_scan", "android": "https://dc.lft.to/lastmile_qr_scan"}, "is_reserved": 0, "fusion_lon": 0.0, "fusion_lat": 0.0, "lon": -77.03662066666666, "name": "dabf7716a322ce5b033d31825022ad22"}, {"bike_id": "773ec94f150794fa2bc73288a57dc352", "type": "electric_scooter", "is_disabled": 0, "lat": 38.91287283333333, "rental_uris": {"ios": "https://dc.lft.to/lastmile_qr_scan", "android": "https://dc.lft.to/lastmile_qr_scan"}, "is_reserved": 0, "fusion_lon": 0.0, "fusion_lat": 0.0, "lon": -77.03856783333333, "name": "773ec94f150794fa2bc73288a57dc352"}, {"bike_id": "96a9e27cecc4eea821d8c7af5d675e8c", "type": "electric_scooter", "is_disabled": 0, "lat": 38.917095, "rental_uris": {"ios": "https://dc.lft.to/lastmile_qr_scan", "android": "https://dc.lft.to/lastmile_qr_scan"}, "is_reserved": 0, "fusion_lon": 0.0, "fusion_lat": 0.0, "lon": -77.02428783333333, "name": "96a9e27cecc4eea821d8c7af5d675e8c"}, {"bike_id": "7460758b75a8f8d85b79ee535fb7894b", "type": "electric_scooter", "is_disabled": 0, "lat": 38.9072925, "rental_uris": {"ios": "https://dc.lft.to/lastmile_qr_scan", "android": "https://dc.lft.to/lastmile_qr_scan"}, "is_reserved": 0, "fusion_lon": 0.0, "fusion_lat": 0.0, "lon": -77.005732, "name": "7460758b75a8f8d85b79ee535fb7894b"}, {"bike_id": "afa7e4156a53d34674b9ffb440b8159b", "type": "electric_scooter", "is_disabled": 0, "lat": 38.91932216666667, "rental_uris": {"ios": "https://dc.lft.to/lastmile_qr_scan", "android": "https://dc.lft.to/lastmile_qr_scan"}, "is_reserved": 0, "fusion_lon": 0.0, "fusion_lat": 0.0, "lon": -77.03187683333333, "name": "afa7e4156a53d34674b9ffb440b8159b"}, {"bike_id": "d6a104ad8b83338094c9280b5bc8bca8", "type": "electric_scooter", "is_disabled": 0, "lat": 38.86370766666667, "rental_uris": {"ios": "https://dc.lft.to/lastmile_qr_scan", "android": "https://dc.lft.to/lastmile_qr_scan"}, "is_reserved": 0, "fusion_lon": 0.0, "fusion_lat": 0.0, "lon": -76.990536, "name": "d6a104ad8b83338094c9280b5bc8bca8"}, {"bike_id": "88fbce20516cdd5bb4dc1a5fd82023eb", "type": "electric_scooter", "is_disabled": 0, "lat": 38.92706316666667, "rental_uris": {"ios": "https://dc.lft.to/lastmile_qr_scan", "android": "https://dc.lft.to/lastmile_qr_scan"}, "is_reserved": 0, "fusion_lon": 0.0, "fusion_lat": 0.0, "lon": -77.02092533333334, "name": "88fbce20516cdd5bb4dc1a5fd82023eb"}, {"bike_id": "6636c15d6be504100dc8dfb8a0a28b77", "type": "electric_bike", "is_disabled": 0, "lat": 38.90827783333334, "rental_uris": {"ios": "https://dc.lft.to/lastmile_qr_scan", "android": "https://dc.lft.to/lastmile_qr_scan"}, "is_reserved": 0, "fusion_lon": 0.0, "fusion_lat": 0.0, "lon": -76.94155033333334, "name": "6636c15d6be504100dc8dfb8a0a28b77"}, {"bike_id": "4a37dc7b4745fd385332e306723cdb8a", "type": "electric_scooter", "is_disabled": 0, "lat": 38.865047, "rental_uris": {"ios": "https://dc.lft.to/lastmile_qr_scan", "android": "https://dc.lft.to/lastmile_qr_scan"}, "is_reserved": 0, "fusion_lon": 0.0, "fusion_lat": 0.0, "lon": -76.99002166666666, "name": "4a37dc7b4745fd385332e306723cdb8a"}, {"bike_id": "331a9da2d5dce7a0b51e05a31f676b6f", "type": "electric_scooter", "is_disabled": 0, "lat": 38.907181, "rental_uris": {"ios": "https://dc.lft.to/lastmile_qr_scan", "android": "https://dc.lft.to/lastmile_qr_scan"}, "is_reserved": 0, "fusion_lon": 0.0, "fusion_lat": 0.0, "lon": -77.02543983333334, "name": "331a9da2d5dce7a0b51e05a31f676b6f"}, {"bike_id": "deac2cebf397877f29b32cf33d21baf4", "type": "electric_scooter", "is_disabled": 0, "lat": 38.9055125, "rental_uris": {"ios": "https://dc.lft.to/lastmile_qr_scan", "android": "https://dc.lft.to/lastmile_qr_scan"}, "is_reserved": 0, "fusion_lon": 0.0, "fusion_lat": 0.0, "lon": -77.00571166666667, "name": "deac2cebf397877f29b32cf33d21baf4"}, {"bike_id": "78212d6d9ee6ffceee65f892ed059e89", "type": "electric_scooter", "is_disabled": 0, "lat": 38.9162335, "rental_uris": {"ios": "https://dc.lft.to/lastmile_qr_scan", "android": "https://dc.lft.to/lastmile_qr_scan"}, "is_reserved": 0, "fusion_lon": 0.0, "fusion_lat": 0.0, "lon": -77.0480705, "name": "78212d6d9ee6ffceee65f892ed059e89"}, {"bike_id": "faf5de48ce2e2f2ac62d1f162d0e1f00", "type": "electric_scooter", "is_disabled": 0, "lat": 38.8870135, "rental_uris": {"ios": "https://dc.lft.to/lastmile_qr_scan", "android": "https://dc.lft.to/lastmile_qr_scan"}, "is_reserved": 0, "fusion_lon": 0.0, "fusion_lat": 0.0, "lon": -77.013717, "name": "faf5de48ce2e2f2ac62d1f162d0e1f00"}, {"bike_id": "77b4d2d7be27b07d46243f0328f1e984", "type": "electric_scooter", "is_disabled": 0, "lat": 38.923497833333336, "rental_uris": {"ios": "https://dc.lft.to/lastmile_qr_scan", "android": "https://dc.lft.to/lastmile_qr_scan"}, "is_reserved": 0, "fusion_lon": 0.0, "fusion_lat": 0.0, "lon": -77.03525233333333, "name": "77b4d2d7be27b07d46243f0328f1e984"}, {"bike_id": "1eeeaf654186721247ebdbbff3639bf5", "type": "electric_scooter", "is_disabled": 0, "lat": 38.9215385, "rental_uris": {"ios": "https://dc.lft.to/lastmile_qr_scan", "android": "https://dc.lft.to/lastmile_qr_scan"}, "is_reserved": 0, "fusion_lon": 0.0, "fusion_lat": 0.0, "lon": -77.033345, "name": "1eeeaf654186721247ebdbbff3639bf5"}, {"bike_id": "d48045c8b46045e8c89505d6a1a89f1a", "type": "electric_scooter", "is_disabled": 0, "lat": 38.917067333333335, "rental_uris": {"ios": "https://dc.lft.to/lastmile_qr_scan", "android": "https://dc.lft.to/lastmile_qr_scan"}, "is_reserved": 0, "fusion_lon": 0.0, "fusion_lat": 0.0, "lon": -77.02421483333333, "name": "d48045c8b46045e8c89505d6a1a89f1a"}, {"bike_id": "25dc21aceacadf18222c6828cabed2b1", "type": "electric_scooter", "is_disabled": 0, "lat": 38.906910833333335, "rental_uris": {"ios": "https://dc.lft.to/lastmile_qr_scan", "android": "https://dc.lft.to/lastmile_qr_scan"}, "is_reserved": 0, "fusion_lon": 0.0, "fusion_lat": 0.0, "lon": -77.05334833333333, "name": "25dc21aceacadf18222c6828cabed2b1"}, {"bike_id": "7b088c0798c0292e8424d49b204a3a95", "type": "electric_scooter", "is_disabled": 0, "lat": 38.86250866666666, "rental_uris": {"ios": "https://dc.lft.to/lastmile_qr_scan", "android": "https://dc.lft.to/lastmile_qr_scan"}, "is_reserved": 0, "fusion_lon": 0.0, "fusion_lat": 0.0, "lon": -76.99260766666667, "name": "7b088c0798c0292e8424d49b204a3a95"}, {"bike_id": "1cd8ab4a2bab2ee96bc9f12c7cd6b9e1", "type": "electric_scooter", "is_disabled": 0, "lat": 38.93288233333333, "rental_uris": {"ios": "https://dc.lft.to/lastmile_qr_scan", "android": "https://dc.lft.to/lastmile_qr_scan"}, "is_reserved": 0, "fusion_lon": 0.0, "fusion_lat": 0.0, "lon": -77.04033716666666, "name": "1cd8ab4a2bab2ee96bc9f12c7cd6b9e1"}, {"bike_id": "e2b5712e013a791071644c56c8659ec3", "type": "electric_scooter", "is_disabled": 0, "lat": 38.892376666666664, "rental_uris": {"ios": "https://dc.lft.to/lastmile_qr_scan", "android": "https://dc.lft.to/lastmile_qr_scan"}, "is_reserved": 0, "fusion_lon": 0.0, "fusion_lat": 0.0, "lon": -77.02202516666667, "name": "e2b5712e013a791071644c56c8659ec3"}, {"bike_id": "0ebf1dd29399eb30ff6fc1a281ee3e8a", "type": "electric_scooter", "is_disabled": 0, "lat": 38.93004333333333, "rental_uris": {"ios": "https://dc.lft.to/lastmile_qr_scan", "android": "https://dc.lft.to/lastmile_qr_scan"}, "is_reserved": 0, "fusion_lon": 0.0, "fusion_lat": 0.0, "lon": -77.03776583333334, "name": "0ebf1dd29399eb30ff6fc1a281ee3e8a"}, {"bike_id": "27e1b536bb781f3c9bd290a082d5eff1", "type": "electric_scooter", "is_disabled": 0, "lat": 38.93733916666667, "rental_uris": {"ios": "https://dc.lft.to/lastmile_qr_scan", "android": "https://dc.lft.to/lastmile_qr_scan"}, "is_reserved": 0, "fusion_lon": 0.0, "fusion_lat": 0.0, "lon": -77.0596365, "name": "27e1b536bb781f3c9bd290a082d5eff1"}, {"bike_id": "4d8ac8ba435a05cd91722c35996ed97a", "type": "electric_scooter", "is_disabled": 0, "lat": 38.9171665, "rental_uris": {"ios": "https://dc.lft.to/lastmile_qr_scan", "android": "https://dc.lft.to/lastmile_qr_scan"}, "is_reserved": 0, "fusion_lon": 0.0, "fusion_lat": 0.0, "lon": -77.012096, "name": "4d8ac8ba435a05cd91722c35996ed97a"}, {"bike_id": "ee2b63d7ebe34217281ef6232851d212", "type": "electric_scooter", "is_disabled": 0, "lat": 38.916755333333334, "rental_uris": {"ios": "https://dc.lft.to/lastmile_qr_scan", "android": "https://dc.lft.to/lastmile_qr_scan"}, "is_reserved": 0, "fusion_lon": 0.0, "fusion_lat": 0.0, "lon": -77.0228535, "name": "ee2b63d7ebe34217281ef6232851d212"}, {"bike_id": "699c7442d232e2e1b5f1d49798d14307", "type": "electric_scooter", "is_disabled": 0, "lat": 38.89729233333333, "rental_uris": {"ios": "https://dc.lft.to/lastmile_qr_scan", "android": "https://dc.lft.to/lastmile_qr_scan"}, "is_reserved": 0, "fusion_lon": 0.0, "fusion_lat": 0.0, "lon": -77.0547565, "name": "699c7442d232e2e1b5f1d49798d14307"}, {"bike_id": "5affa49d15907afeb4d08de3a02c8e93", "type": "electric_scooter", "is_disabled": 0, "lat": 38.90591783333333, "rental_uris": {"ios": "https://dc.lft.to/lastmile_qr_scan", "android": "https://dc.lft.to/lastmile_qr_scan"}, "is_reserved": 0, "fusion_lon": 0.0, "fusion_lat": 0.0, "lon": -77.0270495, "name": "5affa49d15907afeb4d08de3a02c8e93"}, {"bike_id": "916b5cb0f13370a99578cff10013bcd9", "type": "electric_bike", "is_disabled": 0, "lat": 38.944737833333335, "rental_uris": {"ios": "https://dc.lft.to/lastmile_qr_scan", "android": "https://dc.lft.to/lastmile_qr_scan"}, "is_reserved": 0, "fusion_lon": 0.0, "fusion_lat": 0.0, "lon": -76.986854, "name": "916b5cb0f13370a99578cff10013bcd9"}, {"bike_id": "76f79027395738a52d3b55ec3bb54802", "type": "electric_scooter", "is_disabled": 0, "lat": 38.9122665, "rental_uris": {"ios": "https://dc.lft.to/lastmile_qr_scan", "android": "https://dc.lft.to/lastmile_qr_scan"}, "is_reserved": 0, "fusion_lon": 0.0, "fusion_lat": 0.0, "lon": -76.98786266666667, "name": "76f79027395738a52d3b55ec3bb54802"}, {"bike_id": "f611b69de17f81069d354e7905000425", "type": "electric_bike", "is_disabled": 0, "lat": 38.84963333333334, "rental_uris": {"ios": "https://dc.lft.to/lastmile_qr_scan", "android": "https://dc.lft.to/lastmile_qr_scan"}, "is_reserved": 0, "fusion_lon": 0.0, "fusion_lat": 0.0, "lon": -77.07762516666666, "name": "f611b69de17f81069d354e7905000425"}, {"bike_id": "0df53c12e6bb27c845badf536908ab74", "type": "electric_scooter", "is_disabled": 0, "lat": 38.915029, "rental_uris": {"ios": "https://dc.lft.to/lastmile_qr_scan", "android": "https://dc.lft.to/lastmile_qr_scan"}, "is_reserved": 0, "fusion_lon": 0.0, "fusion_lat": 0.0, "lon": -77.017733, "name": "0df53c12e6bb27c845badf536908ab74"}, {"bike_id": "13a0d03542cc26b73125db7a1aa3a828", "type": "electric_scooter", "is_disabled": 0, "lat": 38.92225666666667, "rental_uris": {"ios": "https://dc.lft.to/lastmile_qr_scan", "android": "https://dc.lft.to/lastmile_qr_scan"}, "is_reserved": 0, "fusion_lon": 0.0, "fusion_lat": 0.0, "lon": -77.03701733333334, "name": "13a0d03542cc26b73125db7a1aa3a828"}, {"bike_id": "0c5285db0d549131d626710c821987dc", "type": "electric_scooter", "is_disabled": 0, "lat": 38.904089166666665, "rental_uris": {"ios": "https://dc.lft.to/lastmile_qr_scan", "android": "https://dc.lft.to/lastmile_qr_scan"}, "is_reserved": 0, "fusion_lon": 0.0, "fusion_lat": 0.0, "lon": -76.97330283333334, "name": "0c5285db0d549131d626710c821987dc"}, {"bike_id": "2070c5bffd92b74f13736c178dc67251", "type": "electric_scooter", "is_disabled": 0, "lat": 38.90418483333333, "rental_uris": {"ios": "https://dc.lft.to/lastmile_qr_scan", "android": "https://dc.lft.to/lastmile_qr_scan"}, "is_reserved": 0, "fusion_lon": 0.0, "fusion_lat": 0.0, "lon": -77.06878933333333, "name": "2070c5bffd92b74f13736c178dc67251"}, {"bike_id": "3eb4e10302cd8e1d0d09f5ab6b268145", "type": "electric_scooter", "is_disabled": 0, "lat": 38.86656166666667, "rental_uris": {"ios": "https://dc.lft.to/lastmile_qr_scan", "android": "https://dc.lft.to/lastmile_qr_scan"}, "is_reserved": 0, "fusion_lon": 0.0, "fusion_lat": 0.0, "lon": -76.98883583333334, "name": "3eb4e10302cd8e1d0d09f5ab6b268145"}, {"bike_id": "9851adbe8592383b52a5bcf1d4720bb6", "type": "electric_scooter", "is_disabled": 0, "lat": 38.90365666666667, "rental_uris": {"ios": "https://dc.lft.to/lastmile_qr_scan", "android": "https://dc.lft.to/lastmile_qr_scan"}, "is_reserved": 0, "fusion_lon": 0.0, "fusion_lat": 0.0, "lon": -77.0219975, "name": "9851adbe8592383b52a5bcf1d4720bb6"}, {"bike_id": "53febba2d334f111ae9a37a62302b084", "type": "electric_scooter", "is_disabled": 0, "lat": 38.918395, "rental_uris": {"ios": "https://dc.lft.to/lastmile_qr_scan", "android": "https://dc.lft.to/lastmile_qr_scan"}, "is_reserved": 0, "fusion_lon": 0.0, "fusion_lat": 0.0, "lon": -77.03183116666666, "name": "53febba2d334f111ae9a37a62302b084"}, {"bike_id": "3c496452efa3ac518a6cb6f1e5a15d9b", "type": "electric_scooter", "is_disabled": 0, "lat": 38.90634633333333, "rental_uris": {"ios": "https://dc.lft.to/lastmile_qr_scan", "android": "https://dc.lft.to/lastmile_qr_scan"}, "is_reserved": 0, "fusion_lon": 0.0, "fusion_lat": 0.0, "lon": -77.05140283333333, "name": "3c496452efa3ac518a6cb6f1e5a15d9b"}, {"bike_id": "3d7b16eea46de660d910e96cd18d8ce0", "type": "electric_scooter", "is_disabled": 0, "lat": 38.91555783333333, "rental_uris": {"ios": "https://dc.lft.to/lastmile_qr_scan", "android": "https://dc.lft.to/lastmile_qr_scan"}, "is_reserved": 0, "fusion_lon": 0.0, "fusion_lat": 0.0, "lon": -77.03837733333333, "name": "3d7b16eea46de660d910e96cd18d8ce0"}, {"bike_id": "26cb74cf7ca0e2fb02b7326ef1b27083", "type": "electric_scooter", "is_disabled": 0, "lat": 38.87563683333333, "rental_uris": {"ios": "https://dc.lft.to/lastmile_qr_scan", "android": "https://dc.lft.to/lastmile_qr_scan"}, "is_reserved": 0, "fusion_lon": 0.0, "fusion_lat": 0.0, "lon": -76.95865733333333, "name": "26cb74cf7ca0e2fb02b7326ef1b27083"}, {"bike_id": "71be9554723b6a959e59c20ae0ea8eeb", "type": "electric_scooter", "is_disabled": 0, "lat": 38.916905666666665, "rental_uris": {"ios": "https://dc.lft.to/lastmile_qr_scan", "android": "https://dc.lft.to/lastmile_qr_scan"}, "is_reserved": 0, "fusion_lon": 0.0, "fusion_lat": 0.0, "lon": -77.02348766666667, "name": "71be9554723b6a959e59c20ae0ea8eeb"}, {"bike_id": "3db1facc12922644e141ad8661cbb272", "type": "electric_scooter", "is_disabled": 0, "lat": 38.909660333333335, "rental_uris": {"ios": "https://dc.lft.to/lastmile_qr_scan", "android": "https://dc.lft.to/lastmile_qr_scan"}, "is_reserved": 0, "fusion_lon": 0.0, "fusion_lat": 0.0, "lon": -77.0258375, "name": "3db1facc12922644e141ad8661cbb272"}, {"bike_id": "6a48ca826fb86bc8d696e85fc542ccda", "type": "electric_scooter", "is_disabled": 0, "lat": 38.9165415, "rental_uris": {"ios": "https://dc.lft.to/lastmile_qr_scan", "android": "https://dc.lft.to/lastmile_qr_scan"}, "is_reserved": 0, "fusion_lon": 0.0, "fusion_lat": 0.0, "lon": -77.022824, "name": "6a48ca826fb86bc8d696e85fc542ccda"}, {"bike_id": "9ef195ddeaa49b9d2e980b26ef9302c4", "type": "electric_bike", "is_disabled": 0, "lat": 39.03702716666667, "rental_uris": {"ios": "https://dc.lft.to/lastmile_qr_scan", "android": "https://dc.lft.to/lastmile_qr_scan"}, "is_reserved": 0, "fusion_lon": 0.0, "fusion_lat": 0.0, "lon": -77.02859716666667, "name": "9ef195ddeaa49b9d2e980b26ef9302c4"}, {"bike_id": "49878eefda0be2d9dec334ddc62a29fc", "type": "electric_scooter", "is_disabled": 0, "lat": 38.934822833333335, "rental_uris": {"ios": "https://dc.lft.to/lastmile_qr_scan", "android": "https://dc.lft.to/lastmile_qr_scan"}, "is_reserved": 0, "fusion_lon": 0.0, "fusion_lat": 0.0, "lon": -77.0341955, "name": "49878eefda0be2d9dec334ddc62a29fc"}, {"bike_id": "6db68db9b460ca2bd98c5ef7b1905a53", "type": "electric_scooter", "is_disabled": 0, "lat": 38.9391815, "rental_uris": {"ios": "https://dc.lft.to/lastmile_qr_scan", "android": "https://dc.lft.to/lastmile_qr_scan"}, "is_reserved": 0, "fusion_lon": 0.0, "fusion_lat": 0.0, "lon": -77.06049183333333, "name": "6db68db9b460ca2bd98c5ef7b1905a53"}, {"bike_id": "bed4bf0c29768ed22417177b9c1d5d74", "type": "electric_scooter", "is_disabled": 0, "lat": 38.901877, "rental_uris": {"ios": "https://dc.lft.to/lastmile_qr_scan", "android": "https://dc.lft.to/lastmile_qr_scan"}, "is_reserved": 0, "fusion_lon": 0.0, "fusion_lat": 0.0, "lon": -77.01297366666667, "name": "bed4bf0c29768ed22417177b9c1d5d74"}, {"bike_id": "a7424d130a86aaf336ac0cf767024953", "type": "electric_scooter", "is_disabled": 0, "lat": 38.90538133333333, "rental_uris": {"ios": "https://dc.lft.to/lastmile_qr_scan", "android": "https://dc.lft.to/lastmile_qr_scan"}, "is_reserved": 0, "fusion_lon": 0.0, "fusion_lat": 0.0, "lon": -76.987844, "name": "a7424d130a86aaf336ac0cf767024953"}, {"bike_id": "ab0552eeea6936d1d628b7ad1fa303b9", "type": "electric_scooter", "is_disabled": 0, "lat": 38.923759, "rental_uris": {"ios": "https://dc.lft.to/lastmile_qr_scan", "android": "https://dc.lft.to/lastmile_qr_scan"}, "is_reserved": 0, "fusion_lon": 0.0, "fusion_lat": 0.0, "lon": -77.030891, "name": "ab0552eeea6936d1d628b7ad1fa303b9"}, {"bike_id": "95c17c0a18e206589e0185da7df3f4e7", "type": "electric_scooter", "is_disabled": 0, "lat": 38.915958833333335, "rental_uris": {"ios": "https://dc.lft.to/lastmile_qr_scan", "android": "https://dc.lft.to/lastmile_qr_scan"}, "is_reserved": 0, "fusion_lon": 0.0, "fusion_lat": 0.0, "lon": -77.00193883333333, "name": "95c17c0a18e206589e0185da7df3f4e7"}, {"bike_id": "7d74119dffd815c391760413731bf04d", "type": "electric_scooter", "is_disabled": 0, "lat": 38.880538, "rental_uris": {"ios": "https://dc.lft.to/lastmile_qr_scan", "android": "https://dc.lft.to/lastmile_qr_scan"}, "is_reserved": 0, "fusion_lon": 0.0, "fusion_lat": 0.0, "lon": -76.932139, "name": "7d74119dffd815c391760413731bf04d"}, {"bike_id": "2320ded1b3680ebec3207d09ebda8741", "type": "electric_scooter", "is_disabled": 0, "lat": 38.89247733333333, "rental_uris": {"ios": "https://dc.lft.to/lastmile_qr_scan", "android": "https://dc.lft.to/lastmile_qr_scan"}, "is_reserved": 0, "fusion_lon": 0.0, "fusion_lat": 0.0, "lon": -77.03957566666666, "name": "2320ded1b3680ebec3207d09ebda8741"}, {"bike_id": "bf712e62369dc89cb6d68c8d4266efda", "type": "electric_scooter", "is_disabled": 0, "lat": 38.926663166666664, "rental_uris": {"ios": "https://dc.lft.to/lastmile_qr_scan", "android": "https://dc.lft.to/lastmile_qr_scan"}, "is_reserved": 0, "fusion_lon": 0.0, "fusion_lat": 0.0, "lon": -76.99535816666666, "name": "bf712e62369dc89cb6d68c8d4266efda"}, {"bike_id": "f4525c4aa6693c82e9eea9b13b939cab", "type": "electric_scooter", "is_disabled": 0, "lat": 38.900686666666665, "rental_uris": {"ios": "https://dc.lft.to/lastmile_qr_scan", "android": "https://dc.lft.to/lastmile_qr_scan"}, "is_reserved": 0, "fusion_lon": 0.0, "fusion_lat": 0.0, "lon": -77.0530785, "name": "f4525c4aa6693c82e9eea9b13b939cab"}, {"bike_id": "ffee5460e32153c22e1c465c2a449c0f", "type": "electric_scooter", "is_disabled": 0, "lat": 38.918539, "rental_uris": {"ios": "https://dc.lft.to/lastmile_qr_scan", "android": "https://dc.lft.to/lastmile_qr_scan"}, "is_reserved": 0, "fusion_lon": 0.0, "fusion_lat": 0.0, "lon": -76.965567, "name": "ffee5460e32153c22e1c465c2a449c0f"}, {"bike_id": "8b5f4372e227f7115c5371d461adec66", "type": "electric_bike", "is_disabled": 0, "lat": 38.877642333333334, "rental_uris": {"ios": "https://dc.lft.to/lastmile_qr_scan", "android": "https://dc.lft.to/lastmile_qr_scan"}, "is_reserved": 0, "fusion_lon": 0.0, "fusion_lat": 0.0, "lon": -77.01049616666667, "name": "8b5f4372e227f7115c5371d461adec66"}, {"bike_id": "62f8f8686b9939abd4e78dcd95da493c", "type": "electric_scooter", "is_disabled": 0, "lat": 38.89882433333333, "rental_uris": {"ios": "https://dc.lft.to/lastmile_qr_scan", "android": "https://dc.lft.to/lastmile_qr_scan"}, "is_reserved": 0, "fusion_lon": 0.0, "fusion_lat": 0.0, "lon": -76.93174466666666, "name": "62f8f8686b9939abd4e78dcd95da493c"}, {"bike_id": "da01d0c5213b57d168c1b3fbff5634e9", "type": "electric_scooter", "is_disabled": 0, "lat": 38.931773166666666, "rental_uris": {"ios": "https://dc.lft.to/lastmile_qr_scan", "android": "https://dc.lft.to/lastmile_qr_scan"}, "is_reserved": 0, "fusion_lon": 0.0, "fusion_lat": 0.0, "lon": -77.02844066666667, "name": "da01d0c5213b57d168c1b3fbff5634e9"}, {"bike_id": "9a36f623e01b4afe7f1227ce4cefb64f", "type": "electric_scooter", "is_disabled": 0, "lat": 38.916922166666666, "rental_uris": {"ios": "https://dc.lft.to/lastmile_qr_scan", "android": "https://dc.lft.to/lastmile_qr_scan"}, "is_reserved": 0, "fusion_lon": 0.0, "fusion_lat": 0.0, "lon": -77.03213316666667, "name": "9a36f623e01b4afe7f1227ce4cefb64f"}, {"bike_id": "b343e231b9bf745e06f7602f8fcbf9d2", "type": "electric_scooter", "is_disabled": 0, "lat": 38.8826575, "rental_uris": {"ios": "https://dc.lft.to/lastmile_qr_scan", "android": "https://dc.lft.to/lastmile_qr_scan"}, "is_reserved": 0, "fusion_lon": 0.0, "fusion_lat": 0.0, "lon": -76.99255533333333, "name": "b343e231b9bf745e06f7602f8fcbf9d2"}, {"bike_id": "0e817783226f1c538c9865e3d5025926", "type": "electric_scooter", "is_disabled": 0, "lat": 38.918669, "rental_uris": {"ios": "https://dc.lft.to/lastmile_qr_scan", "android": "https://dc.lft.to/lastmile_qr_scan"}, "is_reserved": 0, "fusion_lon": 0.0, "fusion_lat": 0.0, "lon": -77.01510366666666, "name": "0e817783226f1c538c9865e3d5025926"}, {"bike_id": "74caf0c4639b183ec2113ac4728ef564", "type": "electric_scooter", "is_disabled": 0, "lat": 38.92151033333333, "rental_uris": {"ios": "https://dc.lft.to/lastmile_qr_scan", "android": "https://dc.lft.to/lastmile_qr_scan"}, "is_reserved": 0, "fusion_lon": 0.0, "fusion_lat": 0.0, "lon": -77.033173, "name": "74caf0c4639b183ec2113ac4728ef564"}, {"bike_id": "ca1dba864cf8c0d6aedf138255c62a64", "type": "electric_scooter", "is_disabled": 0, "lat": 38.94320033333333, "rental_uris": {"ios": "https://dc.lft.to/lastmile_qr_scan", "android": "https://dc.lft.to/lastmile_qr_scan"}, "is_reserved": 0, "fusion_lon": 0.0, "fusion_lat": 0.0, "lon": -77.0148365, "name": "ca1dba864cf8c0d6aedf138255c62a64"}, {"bike_id": "66d39d664b1e8561cee69d6c6232e7f3", "type": "electric_scooter", "is_disabled": 0, "lat": 38.9314915, "rental_uris": {"ios": "https://dc.lft.to/lastmile_qr_scan", "android": "https://dc.lft.to/lastmile_qr_scan"}, "is_reserved": 0, "fusion_lon": 0.0, "fusion_lat": 0.0, "lon": -77.03350983333333, "name": "66d39d664b1e8561cee69d6c6232e7f3"}, {"bike_id": "9c65d9269602773d793c932a84df53e8", "type": "electric_scooter", "is_disabled": 0, "lat": 38.909539333333335, "rental_uris": {"ios": "https://dc.lft.to/lastmile_qr_scan", "android": "https://dc.lft.to/lastmile_qr_scan"}, "is_reserved": 0, "fusion_lon": 0.0, "fusion_lat": 0.0, "lon": -77.032202, "name": "9c65d9269602773d793c932a84df53e8"}, {"bike_id": "fe3a3a7db0aa92c81ccbc31fc6f34635", "type": "electric_scooter", "is_disabled": 0, "lat": 38.91132866666667, "rental_uris": {"ios": "https://dc.lft.to/lastmile_qr_scan", "android": "https://dc.lft.to/lastmile_qr_scan"}, "is_reserved": 0, "fusion_lon": 0.0, "fusion_lat": 0.0, "lon": -77.06535633333333, "name": "fe3a3a7db0aa92c81ccbc31fc6f34635"}, {"bike_id": "4b0614237c456341f3b397b83b635d07", "type": "electric_scooter", "is_disabled": 0, "lat": 38.9039175, "rental_uris": {"ios": "https://dc.lft.to/lastmile_qr_scan", "android": "https://dc.lft.to/lastmile_qr_scan"}, "is_reserved": 0, "fusion_lon": 0.0, "fusion_lat": 0.0, "lon": -77.06857233333334, "name": "4b0614237c456341f3b397b83b635d07"}, {"bike_id": "6ef9812ba6d78d1c750fb26ce5120d2f", "type": "electric_scooter", "is_disabled": 0, "lat": 38.897942666666665, "rental_uris": {"ios": "https://dc.lft.to/lastmile_qr_scan", "android": "https://dc.lft.to/lastmile_qr_scan"}, "is_reserved": 0, "fusion_lon": 0.0, "fusion_lat": 0.0, "lon": -77.023789, "name": "6ef9812ba6d78d1c750fb26ce5120d2f"}, {"bike_id": "478bd8d957bec1add1a48c75d219bdc8", "type": "electric_scooter", "is_disabled": 0, "lat": 38.937184333333335, "rental_uris": {"ios": "https://dc.lft.to/lastmile_qr_scan", "android": "https://dc.lft.to/lastmile_qr_scan"}, "is_reserved": 0, "fusion_lon": 0.0, "fusion_lat": 0.0, "lon": -76.9905455, "name": "478bd8d957bec1add1a48c75d219bdc8"}, {"bike_id": "3933458e1e755dd7eee2f4711865261d", "type": "electric_scooter", "is_disabled": 0, "lat": 38.91271783333333, "rental_uris": {"ios": "https://dc.lft.to/lastmile_qr_scan", "android": "https://dc.lft.to/lastmile_qr_scan"}, "is_reserved": 0, "fusion_lon": 0.0, "fusion_lat": 0.0, "lon": -77.0515875, "name": "3933458e1e755dd7eee2f4711865261d"}, {"bike_id": "205ae75caea1689919e35bac53f6dadd", "type": "electric_scooter", "is_disabled": 0, "lat": 38.916213666666664, "rental_uris": {"ios": "https://dc.lft.to/lastmile_qr_scan", "android": "https://dc.lft.to/lastmile_qr_scan"}, "is_reserved": 0, "fusion_lon": 0.0, "fusion_lat": 0.0, "lon": -77.0385565, "name": "205ae75caea1689919e35bac53f6dadd"}, {"bike_id": "20e0ab4f79acd5e5f5c511ea1ba60dc8", "type": "electric_scooter", "is_disabled": 0, "lat": 38.9570535, "rental_uris": {"ios": "https://dc.lft.to/lastmile_qr_scan", "android": "https://dc.lft.to/lastmile_qr_scan"}, "is_reserved": 0, "fusion_lon": 0.0, "fusion_lat": 0.0, "lon": -77.07746766666666, "name": "20e0ab4f79acd5e5f5c511ea1ba60dc8"}, {"bike_id": "dfcef9db456b2f5a1585625eb2eecc5b", "type": "electric_scooter", "is_disabled": 0, "lat": 38.90842333333333, "rental_uris": {"ios": "https://dc.lft.to/lastmile_qr_scan", "android": "https://dc.lft.to/lastmile_qr_scan"}, "is_reserved": 0, "fusion_lon": 0.0, "fusion_lat": 0.0, "lon": -77.0218395, "name": "dfcef9db456b2f5a1585625eb2eecc5b"}, {"bike_id": "ddbaf1e733311907cae80f3960114834", "type": "electric_bike", "is_disabled": 0, "lat": 38.908293666666665, "rental_uris": {"ios": "https://dc.lft.to/lastmile_qr_scan", "android": "https://dc.lft.to/lastmile_qr_scan"}, "is_reserved": 0, "fusion_lon": 0.0, "fusion_lat": 0.0, "lon": -76.94156916666667, "name": "ddbaf1e733311907cae80f3960114834"}, {"bike_id": "5504dbb9c74ada3102d1ef675e783390", "type": "electric_scooter", "is_disabled": 0, "lat": 38.89341866666667, "rental_uris": {"ios": "https://dc.lft.to/lastmile_qr_scan", "android": "https://dc.lft.to/lastmile_qr_scan"}, "is_reserved": 0, "fusion_lon": 0.0, "fusion_lat": 0.0, "lon": -76.99267666666667, "name": "5504dbb9c74ada3102d1ef675e783390"}, {"bike_id": "384224e00a71e67fe670b46d7b419965", "type": "electric_scooter", "is_disabled": 0, "lat": 38.9097115, "rental_uris": {"ios": "https://dc.lft.to/lastmile_qr_scan", "android": "https://dc.lft.to/lastmile_qr_scan"}, "is_reserved": 0, "fusion_lon": 0.0, "fusion_lat": 0.0, "lon": -77.03222633333333, "name": "384224e00a71e67fe670b46d7b419965"}, {"bike_id": "d6caa26545b45fd9b1314108576aa8cc", "type": "electric_scooter", "is_disabled": 0, "lat": 38.86828283333333, "rental_uris": {"ios": "https://dc.lft.to/lastmile_qr_scan", "android": "https://dc.lft.to/lastmile_qr_scan"}, "is_reserved": 0, "fusion_lon": 0.0, "fusion_lat": 0.0, "lon": -77.011466, "name": "d6caa26545b45fd9b1314108576aa8cc"}, {"bike_id": "a70195e4deb9d3f6a54e3a8779b38079", "type": "electric_bike", "is_disabled": 0, "lat": 38.881314, "rental_uris": {"ios": "https://dc.lft.to/lastmile_qr_scan", "android": "https://dc.lft.to/lastmile_qr_scan"}, "is_reserved": 0, "fusion_lon": 0.0, "fusion_lat": 0.0, "lon": -77.09350833333333, "name": "a70195e4deb9d3f6a54e3a8779b38079"}, {"bike_id": "7030b98fd6cf0cdfb6ca2cdc87f16cc1", "type": "electric_scooter", "is_disabled": 0, "lat": 38.91694916666667, "rental_uris": {"ios": "https://dc.lft.to/lastmile_qr_scan", "android": "https://dc.lft.to/lastmile_qr_scan"}, "is_reserved": 0, "fusion_lon": 0.0, "fusion_lat": 0.0, "lon": -77.02346633333333, "name": "7030b98fd6cf0cdfb6ca2cdc87f16cc1"}, {"bike_id": "37d561be9ebf897df913ee03aa0b2ff3", "type": "electric_bike", "is_disabled": 0, "lat": 39.037328333333335, "rental_uris": {"ios": "https://dc.lft.to/lastmile_qr_scan", "android": "https://dc.lft.to/lastmile_qr_scan"}, "is_reserved": 0, "fusion_lon": 0.0, "fusion_lat": 0.0, "lon": -77.05486733333333, "name": "37d561be9ebf897df913ee03aa0b2ff3"}, {"bike_id": "6b8a37ee3fc49de08f62b0bef517767a", "type": "electric_scooter", "is_disabled": 0, "lat": 38.877460166666665, "rental_uris": {"ios": "https://dc.lft.to/lastmile_qr_scan", "android": "https://dc.lft.to/lastmile_qr_scan"}, "is_reserved": 0, "fusion_lon": 0.0, "fusion_lat": 0.0, "lon": -76.997235, "name": "6b8a37ee3fc49de08f62b0bef517767a"}, {"bike_id": "6a950e3cb10d9cfa45af31de1ac59b26", "type": "electric_bike", "is_disabled": 0, "lat": 39.0549715, "rental_uris": {"ios": "https://dc.lft.to/lastmile_qr_scan", "android": "https://dc.lft.to/lastmile_qr_scan"}, "is_reserved": 0, "fusion_lon": 0.0, "fusion_lat": 0.0, "lon": -77.11789533333334, "name": "6a950e3cb10d9cfa45af31de1ac59b26"}, {"bike_id": "939ef3d516fb210259bb3ea6268a5727", "type": "electric_scooter", "is_disabled": 0, "lat": 38.91023833333333, "rental_uris": {"ios": "https://dc.lft.to/lastmile_qr_scan", "android": "https://dc.lft.to/lastmile_qr_scan"}, "is_reserved": 0, "fusion_lon": 0.0, "fusion_lat": 0.0, "lon": -77.02809483333333, "name": "939ef3d516fb210259bb3ea6268a5727"}, {"bike_id": "02b75ab49b1cfc6d793a7cb8d6e81dfd", "type": "electric_scooter", "is_disabled": 0, "lat": 38.89829916666667, "rental_uris": {"ios": "https://dc.lft.to/lastmile_qr_scan", "android": "https://dc.lft.to/lastmile_qr_scan"}, "is_reserved": 0, "fusion_lon": 0.0, "fusion_lat": 0.0, "lon": -77.04560766666667, "name": "02b75ab49b1cfc6d793a7cb8d6e81dfd"}, {"bike_id": "fa37e9cdd69ece6ee1704ee08abd5d61", "type": "electric_scooter", "is_disabled": 0, "lat": 38.92845533333333, "rental_uris": {"ios": "https://dc.lft.to/lastmile_qr_scan", "android": "https://dc.lft.to/lastmile_qr_scan"}, "is_reserved": 0, "fusion_lon": 0.0, "fusion_lat": 0.0, "lon": -77.0329095, "name": "fa37e9cdd69ece6ee1704ee08abd5d61"}, {"bike_id": "3c9c95452206f997aee5583c2db643e3", "type": "electric_scooter", "is_disabled": 0, "lat": 38.90245266666667, "rental_uris": {"ios": "https://dc.lft.to/lastmile_qr_scan", "android": "https://dc.lft.to/lastmile_qr_scan"}, "is_reserved": 0, "fusion_lon": 0.0, "fusion_lat": 0.0, "lon": -77.02652183333333, "name": "3c9c95452206f997aee5583c2db643e3"}, {"bike_id": "cb224b050760f1cc4dfcbc06e1586ba0", "type": "electric_scooter", "is_disabled": 0, "lat": 38.92261233333333, "rental_uris": {"ios": "https://dc.lft.to/lastmile_qr_scan", "android": "https://dc.lft.to/lastmile_qr_scan"}, "is_reserved": 0, "fusion_lon": 0.0, "fusion_lat": 0.0, "lon": -77.03395333333333, "name": "cb224b050760f1cc4dfcbc06e1586ba0"}, {"bike_id": "be6a44c9f3934b1e9374a3524436938a", "type": "electric_scooter", "is_disabled": 0, "lat": 38.900339333333335, "rental_uris": {"ios": "https://dc.lft.to/lastmile_qr_scan", "android": "https://dc.lft.to/lastmile_qr_scan"}, "is_reserved": 0, "fusion_lon": 0.0, "fusion_lat": 0.0, "lon": -77.03518366666667, "name": "be6a44c9f3934b1e9374a3524436938a"}, {"bike_id": "7a3dc430f7569614cc027e75c1c0f869", "type": "electric_scooter", "is_disabled": 0, "lat": 38.907189333333335, "rental_uris": {"ios": "https://dc.lft.to/lastmile_qr_scan", "android": "https://dc.lft.to/lastmile_qr_scan"}, "is_reserved": 0, "fusion_lon": 0.0, "fusion_lat": 0.0, "lon": -77.03434516666667, "name": "7a3dc430f7569614cc027e75c1c0f869"}, {"bike_id": "cdd4a2885cbb5646402bf21bc9b31b9d", "type": "electric_scooter", "is_disabled": 0, "lat": 38.91827766666667, "rental_uris": {"ios": "https://dc.lft.to/lastmile_qr_scan", "android": "https://dc.lft.to/lastmile_qr_scan"}, "is_reserved": 0, "fusion_lon": 0.0, "fusion_lat": 0.0, "lon": -77.0145865, "name": "cdd4a2885cbb5646402bf21bc9b31b9d"}, {"bike_id": "08aea3d616f633b5bd84f4b2ef57ab17", "type": "electric_scooter", "is_disabled": 0, "lat": 38.91780583333333, "rental_uris": {"ios": "https://dc.lft.to/lastmile_qr_scan", "android": "https://dc.lft.to/lastmile_qr_scan"}, "is_reserved": 0, "fusion_lon": 0.0, "fusion_lat": 0.0, "lon": -77.024151, "name": "08aea3d616f633b5bd84f4b2ef57ab17"}, {"bike_id": "3ec9d6022591783ac436e76aed4292bc", "type": "electric_scooter", "is_disabled": 0, "lat": 38.918416, "rental_uris": {"ios": "https://dc.lft.to/lastmile_qr_scan", "android": "https://dc.lft.to/lastmile_qr_scan"}, "is_reserved": 0, "fusion_lon": 0.0, "fusion_lat": 0.0, "lon": -76.96556333333334, "name": "3ec9d6022591783ac436e76aed4292bc"}, {"bike_id": "d9a61a03f4f980450a0f312bdaecaa5b", "type": "electric_scooter", "is_disabled": 0, "lat": 38.92151583333333, "rental_uris": {"ios": "https://dc.lft.to/lastmile_qr_scan", "android": "https://dc.lft.to/lastmile_qr_scan"}, "is_reserved": 0, "fusion_lon": 0.0, "fusion_lat": 0.0, "lon": -77.0387265, "name": "d9a61a03f4f980450a0f312bdaecaa5b"}, {"bike_id": "ed6717f6cfa986d4fd912445df85c5e9", "type": "electric_scooter", "is_disabled": 0, "lat": 38.886540333333336, "rental_uris": {"ios": "https://dc.lft.to/lastmile_qr_scan", "android": "https://dc.lft.to/lastmile_qr_scan"}, "is_reserved": 0, "fusion_lon": 0.0, "fusion_lat": 0.0, "lon": -77.02826516666667, "name": "ed6717f6cfa986d4fd912445df85c5e9"}, {"bike_id": "aac23452bcadf5fde4a279dc5423e0eb", "type": "electric_scooter", "is_disabled": 0, "lat": 38.91806716666667, "rental_uris": {"ios": "https://dc.lft.to/lastmile_qr_scan", "android": "https://dc.lft.to/lastmile_qr_scan"}, "is_reserved": 0, "fusion_lon": 0.0, "fusion_lat": 0.0, "lon": -77.034362, "name": "aac23452bcadf5fde4a279dc5423e0eb"}, {"bike_id": "652a97ec71076573629253b6c36a7ed6", "type": "electric_scooter", "is_disabled": 0, "lat": 38.986911166666665, "rental_uris": {"ios": "https://dc.lft.to/lastmile_qr_scan", "android": "https://dc.lft.to/lastmile_qr_scan"}, "is_reserved": 0, "fusion_lon": 0.0, "fusion_lat": 0.0, "lon": -77.02978566666667, "name": "652a97ec71076573629253b6c36a7ed6"}, {"bike_id": "b5b48cd1687c940398b151238a8bd9ff", "type": "electric_scooter", "is_disabled": 0, "lat": 38.89224016666667, "rental_uris": {"ios": "https://dc.lft.to/lastmile_qr_scan", "android": "https://dc.lft.to/lastmile_qr_scan"}, "is_reserved": 0, "fusion_lon": 0.0, "fusion_lat": 0.0, "lon": -77.0397745, "name": "b5b48cd1687c940398b151238a8bd9ff"}, {"bike_id": "3b940d933e30d295ad9865c01b6c7f3e", "type": "electric_scooter", "is_disabled": 0, "lat": 38.9096235, "rental_uris": {"ios": "https://dc.lft.to/lastmile_qr_scan", "android": "https://dc.lft.to/lastmile_qr_scan"}, "is_reserved": 0, "fusion_lon": 0.0, "fusion_lat": 0.0, "lon": -77.03221766666667, "name": "3b940d933e30d295ad9865c01b6c7f3e"}, {"bike_id": "10f1d9dca13cca5a4a52edf9115f8e04", "type": "electric_scooter", "is_disabled": 0, "lat": 38.9421125, "rental_uris": {"ios": "https://dc.lft.to/lastmile_qr_scan", "android": "https://dc.lft.to/lastmile_qr_scan"}, "is_reserved": 0, "fusion_lon": 0.0, "fusion_lat": 0.0, "lon": -77.0258315, "name": "10f1d9dca13cca5a4a52edf9115f8e04"}, {"bike_id": "409a7c1ccbe308f689f7b1f4c031f1e3", "type": "electric_scooter", "is_disabled": 0, "lat": 38.93635883333334, "rental_uris": {"ios": "https://dc.lft.to/lastmile_qr_scan", "android": "https://dc.lft.to/lastmile_qr_scan"}, "is_reserved": 0, "fusion_lon": 0.0, "fusion_lat": 0.0, "lon": -77.05883533333333, "name": "409a7c1ccbe308f689f7b1f4c031f1e3"}, {"bike_id": "45ecd125bfdbc12a4a46f13bf21cd774", "type": "electric_scooter", "is_disabled": 0, "lat": 38.91620966666667, "rental_uris": {"ios": "https://dc.lft.to/lastmile_qr_scan", "android": "https://dc.lft.to/lastmile_qr_scan"}, "is_reserved": 0, "fusion_lon": 0.0, "fusion_lat": 0.0, "lon": -77.030445, "name": "45ecd125bfdbc12a4a46f13bf21cd774"}, {"bike_id": "8672186de53b0ec4722b1c4076590eca", "type": "electric_scooter", "is_disabled": 0, "lat": 38.9201715, "rental_uris": {"ios": "https://dc.lft.to/lastmile_qr_scan", "android": "https://dc.lft.to/lastmile_qr_scan"}, "is_reserved": 0, "fusion_lon": 0.0, "fusion_lat": 0.0, "lon": -77.01319983333333, "name": "8672186de53b0ec4722b1c4076590eca"}, {"bike_id": "f3ae2fc22e7748120b365ae73aae4571", "type": "electric_scooter", "is_disabled": 0, "lat": 38.91920916666667, "rental_uris": {"ios": "https://dc.lft.to/lastmile_qr_scan", "android": "https://dc.lft.to/lastmile_qr_scan"}, "is_reserved": 0, "fusion_lon": 0.0, "fusion_lat": 0.0, "lon": -77.025712, "name": "f3ae2fc22e7748120b365ae73aae4571"}, {"bike_id": "b15ab97690b665349d4dcba4315ba91f", "type": "electric_scooter", "is_disabled": 0, "lat": 38.93094416666667, "rental_uris": {"ios": "https://dc.lft.to/lastmile_qr_scan", "android": "https://dc.lft.to/lastmile_qr_scan"}, "is_reserved": 0, "fusion_lon": 0.0, "fusion_lat": 0.0, "lon": -77.03429666666666, "name": "b15ab97690b665349d4dcba4315ba91f"}, {"bike_id": "e9dc2b2642268d5ee83a6d41b311968e", "type": "electric_scooter", "is_disabled": 0, "lat": 38.91986266666667, "rental_uris": {"ios": "https://dc.lft.to/lastmile_qr_scan", "android": "https://dc.lft.to/lastmile_qr_scan"}, "is_reserved": 0, "fusion_lon": 0.0, "fusion_lat": 0.0, "lon": -77.0245865, "name": "e9dc2b2642268d5ee83a6d41b311968e"}, {"bike_id": "309600e74c2d03084f069e47a97e984b", "type": "electric_scooter", "is_disabled": 0, "lat": 38.923922166666664, "rental_uris": {"ios": "https://dc.lft.to/lastmile_qr_scan", "android": "https://dc.lft.to/lastmile_qr_scan"}, "is_reserved": 0, "fusion_lon": 0.0, "fusion_lat": 0.0, "lon": -77.0297375, "name": "309600e74c2d03084f069e47a97e984b"}, {"bike_id": "e1c468006c03ec6d0e6163ef414d27c3", "type": "electric_scooter", "is_disabled": 0, "lat": 38.9313235, "rental_uris": {"ios": "https://dc.lft.to/lastmile_qr_scan", "android": "https://dc.lft.to/lastmile_qr_scan"}, "is_reserved": 0, "fusion_lon": 0.0, "fusion_lat": 0.0, "lon": -77.04341383333333, "name": "e1c468006c03ec6d0e6163ef414d27c3"}, {"bike_id": "50146908ad66d06c37b6875e900528d7", "type": "electric_scooter", "is_disabled": 0, "lat": 38.91328033333333, "rental_uris": {"ios": "https://dc.lft.to/lastmile_qr_scan", "android": "https://dc.lft.to/lastmile_qr_scan"}, "is_reserved": 0, "fusion_lon": 0.0, "fusion_lat": 0.0, "lon": -77.02690333333334, "name": "50146908ad66d06c37b6875e900528d7"}, {"bike_id": "eecfaa4404fa1097c5950049324a167a", "type": "electric_scooter", "is_disabled": 0, "lat": 38.8974635, "rental_uris": {"ios": "https://dc.lft.to/lastmile_qr_scan", "android": "https://dc.lft.to/lastmile_qr_scan"}, "is_reserved": 0, "fusion_lon": 0.0, "fusion_lat": 0.0, "lon": -77.04530116666666, "name": "eecfaa4404fa1097c5950049324a167a"}, {"bike_id": "8bdbf263a1c9f2b0a00babb980bf1d0a", "type": "electric_scooter", "is_disabled": 0, "lat": 38.90872866666667, "rental_uris": {"ios": "https://dc.lft.to/lastmile_qr_scan", "android": "https://dc.lft.to/lastmile_qr_scan"}, "is_reserved": 0, "fusion_lon": 0.0, "fusion_lat": 0.0, "lon": -77.00269333333334, "name": "8bdbf263a1c9f2b0a00babb980bf1d0a"}, {"bike_id": "6766e0092a6163082c2652878542774b", "type": "electric_scooter", "is_disabled": 0, "lat": 38.9303695, "rental_uris": {"ios": "https://dc.lft.to/lastmile_qr_scan", "android": "https://dc.lft.to/lastmile_qr_scan"}, "is_reserved": 0, "fusion_lon": 0.0, "fusion_lat": 0.0, "lon": -77.01820916666667, "name": "6766e0092a6163082c2652878542774b"}, {"bike_id": "dc88f36b6bcec7dccddf1e17d2d7da7c", "type": "electric_scooter", "is_disabled": 0, "lat": 38.908183666666666, "rental_uris": {"ios": "https://dc.lft.to/lastmile_qr_scan", "android": "https://dc.lft.to/lastmile_qr_scan"}, "is_reserved": 0, "fusion_lon": 0.0, "fusion_lat": 0.0, "lon": -77.033372, "name": "dc88f36b6bcec7dccddf1e17d2d7da7c"}, {"bike_id": "656f0b0ec85fc81f63301ea8eec0bcfa", "type": "electric_scooter", "is_disabled": 0, "lat": 38.90144733333333, "rental_uris": {"ios": "https://dc.lft.to/lastmile_qr_scan", "android": "https://dc.lft.to/lastmile_qr_scan"}, "is_reserved": 0, "fusion_lon": 0.0, "fusion_lat": 0.0, "lon": -77.02980816666667, "name": "656f0b0ec85fc81f63301ea8eec0bcfa"}, {"bike_id": "cdc1baca91d9f3fb0cdb830301d70022", "type": "electric_scooter", "is_disabled": 0, "lat": 38.891107833333336, "rental_uris": {"ios": "https://dc.lft.to/lastmile_qr_scan", "android": "https://dc.lft.to/lastmile_qr_scan"}, "is_reserved": 0, "fusion_lon": 0.0, "fusion_lat": 0.0, "lon": -77.01507033333333, "name": "cdc1baca91d9f3fb0cdb830301d70022"}, {"bike_id": "87d442b92ed8f2885470ee530b945c4f", "type": "electric_scooter", "is_disabled": 0, "lat": 38.88429683333333, "rental_uris": {"ios": "https://dc.lft.to/lastmile_qr_scan", "android": "https://dc.lft.to/lastmile_qr_scan"}, "is_reserved": 0, "fusion_lon": 0.0, "fusion_lat": 0.0, "lon": -76.95752066666667, "name": "87d442b92ed8f2885470ee530b945c4f"}, {"bike_id": "7c61af8b5b759ad5cdb6bb4b21711093", "type": "electric_bike", "is_disabled": 0, "lat": 38.86515633333333, "rental_uris": {"ios": "https://dc.lft.to/lastmile_qr_scan", "android": "https://dc.lft.to/lastmile_qr_scan"}, "is_reserved": 0, "fusion_lon": 0.0, "fusion_lat": 0.0, "lon": -77.12936833333333, "name": "7c61af8b5b759ad5cdb6bb4b21711093"}, {"bike_id": "0c9c0bd80be154db2f5c9beb58ee5dfe", "type": "electric_scooter", "is_disabled": 0, "lat": 38.8821215, "rental_uris": {"ios": "https://dc.lft.to/lastmile_qr_scan", "android": "https://dc.lft.to/lastmile_qr_scan"}, "is_reserved": 0, "fusion_lon": 0.0, "fusion_lat": 0.0, "lon": -77.029078, "name": "0c9c0bd80be154db2f5c9beb58ee5dfe"}, {"bike_id": "947630b7b7998311cb14dcf39af678f7", "type": "electric_bike", "is_disabled": 0, "lat": 38.80393683333333, "rental_uris": {"ios": "https://dc.lft.to/lastmile_qr_scan", "android": "https://dc.lft.to/lastmile_qr_scan"}, "is_reserved": 0, "fusion_lon": 0.0, "fusion_lat": 0.0, "lon": -77.05563916666667, "name": "947630b7b7998311cb14dcf39af678f7"}, {"bike_id": "1b44836252c0645654a99fa6a72be523", "type": "electric_scooter", "is_disabled": 0, "lat": 38.901894166666665, "rental_uris": {"ios": "https://dc.lft.to/lastmile_qr_scan", "android": "https://dc.lft.to/lastmile_qr_scan"}, "is_reserved": 0, "fusion_lon": 0.0, "fusion_lat": 0.0, "lon": -76.996792, "name": "1b44836252c0645654a99fa6a72be523"}, {"bike_id": "9520aaf251f124b3f65c5cdcfe5d1704", "type": "electric_scooter", "is_disabled": 0, "lat": 38.91398916666667, "rental_uris": {"ios": "https://dc.lft.to/lastmile_qr_scan", "android": "https://dc.lft.to/lastmile_qr_scan"}, "is_reserved": 0, "fusion_lon": 0.0, "fusion_lat": 0.0, "lon": -77.03947483333333, "name": "9520aaf251f124b3f65c5cdcfe5d1704"}, {"bike_id": "8973b11f6c3d153013d6b56b9298defb", "type": "electric_scooter", "is_disabled": 0, "lat": 38.8969695, "rental_uris": {"ios": "https://dc.lft.to/lastmile_qr_scan", "android": "https://dc.lft.to/lastmile_qr_scan"}, "is_reserved": 0, "fusion_lon": 0.0, "fusion_lat": 0.0, "lon": -76.929999, "name": "8973b11f6c3d153013d6b56b9298defb"}, {"bike_id": "5610b909c8e87bd7fffd9d2dc0931564", "type": "electric_scooter", "is_disabled": 0, "lat": 38.918104166666666, "rental_uris": {"ios": "https://dc.lft.to/lastmile_qr_scan", "android": "https://dc.lft.to/lastmile_qr_scan"}, "is_reserved": 0, "fusion_lon": 0.0, "fusion_lat": 0.0, "lon": -77.02478966666666, "name": "5610b909c8e87bd7fffd9d2dc0931564"}, {"bike_id": "09a1810d40a2e9dc5f0609eaf48ef836", "type": "electric_scooter", "is_disabled": 0, "lat": 38.90778066666667, "rental_uris": {"ios": "https://dc.lft.to/lastmile_qr_scan", "android": "https://dc.lft.to/lastmile_qr_scan"}, "is_reserved": 0, "fusion_lon": 0.0, "fusion_lat": 0.0, "lon": -77.04510733333333, "name": "09a1810d40a2e9dc5f0609eaf48ef836"}, {"bike_id": "d8919e5a561f59e4d4de88f7a4e2ce0a", "type": "electric_scooter", "is_disabled": 0, "lat": 38.931804, "rental_uris": {"ios": "https://dc.lft.to/lastmile_qr_scan", "android": "https://dc.lft.to/lastmile_qr_scan"}, "is_reserved": 0, "fusion_lon": 0.0, "fusion_lat": 0.0, "lon": -77.0253725, "name": "d8919e5a561f59e4d4de88f7a4e2ce0a"}, {"bike_id": "c03a61dce03feef8ce73760dd3f0c3d6", "type": "electric_scooter", "is_disabled": 0, "lat": 38.884682166666664, "rental_uris": {"ios": "https://dc.lft.to/lastmile_qr_scan", "android": "https://dc.lft.to/lastmile_qr_scan"}, "is_reserved": 0, "fusion_lon": 0.0, "fusion_lat": 0.0, "lon": -77.02579683333333, "name": "c03a61dce03feef8ce73760dd3f0c3d6"}, {"bike_id": "52119676a0c3089f0d47eb71f2594035", "type": "electric_scooter", "is_disabled": 0, "lat": 38.96560233333334, "rental_uris": {"ios": "https://dc.lft.to/lastmile_qr_scan", "android": "https://dc.lft.to/lastmile_qr_scan"}, "is_reserved": 0, "fusion_lon": 0.0, "fusion_lat": 0.0, "lon": -77.020231, "name": "52119676a0c3089f0d47eb71f2594035"}, {"bike_id": "604370773c4308519b90fe2a07fd1139", "type": "electric_bike", "is_disabled": 0, "lat": 38.832456666666666, "rental_uris": {"ios": "https://dc.lft.to/lastmile_qr_scan", "android": "https://dc.lft.to/lastmile_qr_scan"}, "is_reserved": 0, "fusion_lon": 0.0, "fusion_lat": 0.0, "lon": -76.946382, "name": "604370773c4308519b90fe2a07fd1139"}, {"bike_id": "b1a7b52a42a43485a407a7446026dfa6", "type": "electric_scooter", "is_disabled": 0, "lat": 38.90566116666667, "rental_uris": {"ios": "https://dc.lft.to/lastmile_qr_scan", "android": "https://dc.lft.to/lastmile_qr_scan"}, "is_reserved": 0, "fusion_lon": 0.0, "fusion_lat": 0.0, "lon": -76.97780116666667, "name": "b1a7b52a42a43485a407a7446026dfa6"}, {"bike_id": "8281381de9b9bb7190ed7f987d3e89b1", "type": "electric_scooter", "is_disabled": 0, "lat": 38.919046333333334, "rental_uris": {"ios": "https://dc.lft.to/lastmile_qr_scan", "android": "https://dc.lft.to/lastmile_qr_scan"}, "is_reserved": 0, "fusion_lon": 0.0, "fusion_lat": 0.0, "lon": -77.03206933333334, "name": "8281381de9b9bb7190ed7f987d3e89b1"}, {"bike_id": "9303f7f61ca99e5d75ee2615d0c933b0", "type": "electric_scooter", "is_disabled": 0, "lat": 38.907024666666665, "rental_uris": {"ios": "https://dc.lft.to/lastmile_qr_scan", "android": "https://dc.lft.to/lastmile_qr_scan"}, "is_reserved": 0, "fusion_lon": 0.0, "fusion_lat": 0.0, "lon": -77.041524, "name": "9303f7f61ca99e5d75ee2615d0c933b0"}, {"bike_id": "f1ecf142ecbcef539038defd2b5b4152", "type": "electric_scooter", "is_disabled": 0, "lat": 38.89573433333333, "rental_uris": {"ios": "https://dc.lft.to/lastmile_qr_scan", "android": "https://dc.lft.to/lastmile_qr_scan"}, "is_reserved": 0, "fusion_lon": 0.0, "fusion_lat": 0.0, "lon": -76.9302865, "name": "f1ecf142ecbcef539038defd2b5b4152"}, {"bike_id": "a465976ebdcda6ef1eebd263c02a0c1d", "type": "electric_scooter", "is_disabled": 0, "lat": 38.91696066666667, "rental_uris": {"ios": "https://dc.lft.to/lastmile_qr_scan", "android": "https://dc.lft.to/lastmile_qr_scan"}, "is_reserved": 0, "fusion_lon": 0.0, "fusion_lat": 0.0, "lon": -77.02959916666667, "name": "a465976ebdcda6ef1eebd263c02a0c1d"}, {"bike_id": "d2464b840783af84cd50fde2ead11b95", "type": "electric_scooter", "is_disabled": 0, "lat": 38.907948833333336, "rental_uris": {"ios": "https://dc.lft.to/lastmile_qr_scan", "android": "https://dc.lft.to/lastmile_qr_scan"}, "is_reserved": 0, "fusion_lon": 0.0, "fusion_lat": 0.0, "lon": -77.00209633333333, "name": "d2464b840783af84cd50fde2ead11b95"}, {"bike_id": "30f3357107e51efed2da42509d738831", "type": "electric_scooter", "is_disabled": 0, "lat": 38.91266816666667, "rental_uris": {"ios": "https://dc.lft.to/lastmile_qr_scan", "android": "https://dc.lft.to/lastmile_qr_scan"}, "is_reserved": 0, "fusion_lon": 0.0, "fusion_lat": 0.0, "lon": -77.02266366666667, "name": "30f3357107e51efed2da42509d738831"}, {"bike_id": "539e48a03e9a6e1b5f4305f7f54b9d04", "type": "electric_scooter", "is_disabled": 0, "lat": 38.939947833333335, "rental_uris": {"ios": "https://dc.lft.to/lastmile_qr_scan", "android": "https://dc.lft.to/lastmile_qr_scan"}, "is_reserved": 0, "fusion_lon": 0.0, "fusion_lat": 0.0, "lon": -77.016951, "name": "539e48a03e9a6e1b5f4305f7f54b9d04"}, {"bike_id": "1971142d22304306da676aa51c45ca30", "type": "electric_scooter", "is_disabled": 0, "lat": 38.916016166666665, "rental_uris": {"ios": "https://dc.lft.to/lastmile_qr_scan", "android": "https://dc.lft.to/lastmile_qr_scan"}, "is_reserved": 0, "fusion_lon": 0.0, "fusion_lat": 0.0, "lon": -77.0239495, "name": "1971142d22304306da676aa51c45ca30"}, {"bike_id": "edf6568db5e382ab10fb3e8cc6015ee1", "type": "electric_scooter", "is_disabled": 0, "lat": 38.896453, "rental_uris": {"ios": "https://dc.lft.to/lastmile_qr_scan", "android": "https://dc.lft.to/lastmile_qr_scan"}, "is_reserved": 0, "fusion_lon": 0.0, "fusion_lat": 0.0, "lon": -77.009179, "name": "edf6568db5e382ab10fb3e8cc6015ee1"}, {"bike_id": "8597f9389f3be1928f8ae27217e06e05", "type": "electric_bike", "is_disabled": 0, "lat": 39.050564333333334, "rental_uris": {"ios": "https://dc.lft.to/lastmile_qr_scan", "android": "https://dc.lft.to/lastmile_qr_scan"}, "is_reserved": 0, "fusion_lon": 0.0, "fusion_lat": 0.0, "lon": -77.05146133333334, "name": "8597f9389f3be1928f8ae27217e06e05"}, {"bike_id": "95c0d53c6f3cf4749c3bcf02b55e1df6", "type": "electric_scooter", "is_disabled": 0, "lat": 38.91107483333333, "rental_uris": {"ios": "https://dc.lft.to/lastmile_qr_scan", "android": "https://dc.lft.to/lastmile_qr_scan"}, "is_reserved": 0, "fusion_lon": 0.0, "fusion_lat": 0.0, "lon": -77.0325715, "name": "95c0d53c6f3cf4749c3bcf02b55e1df6"}, {"bike_id": "34cd8bb6ccbe6544fe2ee1954d05f481", "type": "electric_scooter", "is_disabled": 0, "lat": 38.87756433333333, "rental_uris": {"ios": "https://dc.lft.to/lastmile_qr_scan", "android": "https://dc.lft.to/lastmile_qr_scan"}, "is_reserved": 0, "fusion_lon": 0.0, "fusion_lat": 0.0, "lon": -76.98683066666666, "name": "34cd8bb6ccbe6544fe2ee1954d05f481"}, {"bike_id": "4c5596f00833bca3247528d244862706", "type": "electric_scooter", "is_disabled": 0, "lat": 38.9155645, "rental_uris": {"ios": "https://dc.lft.to/lastmile_qr_scan", "android": "https://dc.lft.to/lastmile_qr_scan"}, "is_reserved": 0, "fusion_lon": 0.0, "fusion_lat": 0.0, "lon": -77.0264455, "name": "4c5596f00833bca3247528d244862706"}, {"bike_id": "63d97cd11431abff7ab3d00b4141bec7", "type": "electric_scooter", "is_disabled": 0, "lat": 38.922405499999996, "rental_uris": {"ios": "https://dc.lft.to/lastmile_qr_scan", "android": "https://dc.lft.to/lastmile_qr_scan"}, "is_reserved": 0, "fusion_lon": 0.0, "fusion_lat": 0.0, "lon": -77.03526566666666, "name": "63d97cd11431abff7ab3d00b4141bec7"}, {"bike_id": "5e0d1687362a6050c894cfc4e43ad55d", "type": "electric_scooter", "is_disabled": 0, "lat": 38.844321, "rental_uris": {"ios": "https://dc.lft.to/lastmile_qr_scan", "android": "https://dc.lft.to/lastmile_qr_scan"}, "is_reserved": 0, "fusion_lon": 0.0, "fusion_lat": 0.0, "lon": -76.99867383333333, "name": "5e0d1687362a6050c894cfc4e43ad55d"}, {"bike_id": "152d9d82c314357552c099b04790ece5", "type": "electric_scooter", "is_disabled": 0, "lat": 38.9126435, "rental_uris": {"ios": "https://dc.lft.to/lastmile_qr_scan", "android": "https://dc.lft.to/lastmile_qr_scan"}, "is_reserved": 0, "fusion_lon": 0.0, "fusion_lat": 0.0, "lon": -77.03018933333334, "name": "152d9d82c314357552c099b04790ece5"}, {"bike_id": "ad401879aa4a8f1bda92d7155b40051d", "type": "electric_scooter", "is_disabled": 0, "lat": 38.917852833333335, "rental_uris": {"ios": "https://dc.lft.to/lastmile_qr_scan", "android": "https://dc.lft.to/lastmile_qr_scan"}, "is_reserved": 0, "fusion_lon": 0.0, "fusion_lat": 0.0, "lon": -77.03638466666666, "name": "ad401879aa4a8f1bda92d7155b40051d"}, {"bike_id": "f89140ffcab227521abea1d262b64155", "type": "electric_scooter", "is_disabled": 0, "lat": 38.9182955, "rental_uris": {"ios": "https://dc.lft.to/lastmile_qr_scan", "android": "https://dc.lft.to/lastmile_qr_scan"}, "is_reserved": 0, "fusion_lon": 0.0, "fusion_lat": 0.0, "lon": -77.03207716666667, "name": "f89140ffcab227521abea1d262b64155"}, {"bike_id": "19da62f577f0b3b933596d0e02a35fdd", "type": "electric_scooter", "is_disabled": 0, "lat": 38.948979333333334, "rental_uris": {"ios": "https://dc.lft.to/lastmile_qr_scan", "android": "https://dc.lft.to/lastmile_qr_scan"}, "is_reserved": 0, "fusion_lon": 0.0, "fusion_lat": 0.0, "lon": -77.0207105, "name": "19da62f577f0b3b933596d0e02a35fdd"}, {"bike_id": "ffa377778781cf1ffdd1442d49eaa3e2", "type": "electric_scooter", "is_disabled": 0, "lat": 38.91440766666667, "rental_uris": {"ios": "https://dc.lft.to/lastmile_qr_scan", "android": "https://dc.lft.to/lastmile_qr_scan"}, "is_reserved": 0, "fusion_lon": 0.0, "fusion_lat": 0.0, "lon": -77.02286683333334, "name": "ffa377778781cf1ffdd1442d49eaa3e2"}, {"bike_id": "c9c875d237dd1f5ceaa438367786ebc2", "type": "electric_scooter", "is_disabled": 0, "lat": 38.91638183333333, "rental_uris": {"ios": "https://dc.lft.to/lastmile_qr_scan", "android": "https://dc.lft.to/lastmile_qr_scan"}, "is_reserved": 0, "fusion_lon": 0.0, "fusion_lat": 0.0, "lon": -77.02274466666667, "name": "c9c875d237dd1f5ceaa438367786ebc2"}, {"bike_id": "81e2574ae06b700d38859a7331f649c9", "type": "electric_scooter", "is_disabled": 0, "lat": 38.85321066666667, "rental_uris": {"ios": "https://dc.lft.to/lastmile_qr_scan", "android": "https://dc.lft.to/lastmile_qr_scan"}, "is_reserved": 0, "fusion_lon": 0.0, "fusion_lat": 0.0, "lon": -76.980048, "name": "81e2574ae06b700d38859a7331f649c9"}, {"bike_id": "4b63a3f7fbff4116faaf592ad3c16b80", "type": "electric_scooter", "is_disabled": 0, "lat": 38.86682866666666, "rental_uris": {"ios": "https://dc.lft.to/lastmile_qr_scan", "android": "https://dc.lft.to/lastmile_qr_scan"}, "is_reserved": 0, "fusion_lon": 0.0, "fusion_lat": 0.0, "lon": -76.98575566666666, "name": "4b63a3f7fbff4116faaf592ad3c16b80"}, {"bike_id": "bb62889e2f401b37090fa013f46c8775", "type": "electric_scooter", "is_disabled": 0, "lat": 38.88847166666667, "rental_uris": {"ios": "https://dc.lft.to/lastmile_qr_scan", "android": "https://dc.lft.to/lastmile_qr_scan"}, "is_reserved": 0, "fusion_lon": 0.0, "fusion_lat": 0.0, "lon": -76.9267735, "name": "bb62889e2f401b37090fa013f46c8775"}, {"bike_id": "d6a187ef42587519d5299a4c17322810", "type": "electric_scooter", "is_disabled": 0, "lat": 38.9193025, "rental_uris": {"ios": "https://dc.lft.to/lastmile_qr_scan", "android": "https://dc.lft.to/lastmile_qr_scan"}, "is_reserved": 0, "fusion_lon": 0.0, "fusion_lat": 0.0, "lon": -77.03186733333334, "name": "d6a187ef42587519d5299a4c17322810"}, {"bike_id": "5963b276ac3f3a19445e6540b0dc29f2", "type": "electric_scooter", "is_disabled": 0, "lat": 38.94269116666667, "rental_uris": {"ios": "https://dc.lft.to/lastmile_qr_scan", "android": "https://dc.lft.to/lastmile_qr_scan"}, "is_reserved": 0, "fusion_lon": 0.0, "fusion_lat": 0.0, "lon": -77.0325885, "name": "5963b276ac3f3a19445e6540b0dc29f2"}, {"bike_id": "ccc87ba8b67bf00926af3941c9f96add", "type": "electric_scooter", "is_disabled": 0, "lat": 38.87866916666667, "rental_uris": {"ios": "https://dc.lft.to/lastmile_qr_scan", "android": "https://dc.lft.to/lastmile_qr_scan"}, "is_reserved": 0, "fusion_lon": 0.0, "fusion_lat": 0.0, "lon": -76.96983683333333, "name": "ccc87ba8b67bf00926af3941c9f96add"}, {"bike_id": "d5ce3b084d8106effb70e1170310f5bf", "type": "electric_scooter", "is_disabled": 0, "lat": 38.91111333333333, "rental_uris": {"ios": "https://dc.lft.to/lastmile_qr_scan", "android": "https://dc.lft.to/lastmile_qr_scan"}, "is_reserved": 0, "fusion_lon": 0.0, "fusion_lat": 0.0, "lon": -77.03835933333333, "name": "d5ce3b084d8106effb70e1170310f5bf"}, {"bike_id": "158b9eae832577c8d4d1f1209f4748d3", "type": "electric_scooter", "is_disabled": 0, "lat": 38.9291265, "rental_uris": {"ios": "https://dc.lft.to/lastmile_qr_scan", "android": "https://dc.lft.to/lastmile_qr_scan"}, "is_reserved": 0, "fusion_lon": 0.0, "fusion_lat": 0.0, "lon": -77.02092166666667, "name": "158b9eae832577c8d4d1f1209f4748d3"}, {"bike_id": "be55ed289af63e8bca89fe21f1d6b2f4", "type": "electric_scooter", "is_disabled": 0, "lat": 38.902297833333336, "rental_uris": {"ios": "https://dc.lft.to/lastmile_qr_scan", "android": "https://dc.lft.to/lastmile_qr_scan"}, "is_reserved": 0, "fusion_lon": 0.0, "fusion_lat": 0.0, "lon": -77.043334, "name": "be55ed289af63e8bca89fe21f1d6b2f4"}, {"bike_id": "f916fc831a1a76ae39d8c13868740dd3", "type": "electric_scooter", "is_disabled": 0, "lat": 38.90531, "rental_uris": {"ios": "https://dc.lft.to/lastmile_qr_scan", "android": "https://dc.lft.to/lastmile_qr_scan"}, "is_reserved": 0, "fusion_lon": 0.0, "fusion_lat": 0.0, "lon": -77.05336933333334, "name": "f916fc831a1a76ae39d8c13868740dd3"}, {"bike_id": "8eaf644398a90ed129717e57c9d91c48", "type": "electric_scooter", "is_disabled": 0, "lat": 38.874201, "rental_uris": {"ios": "https://dc.lft.to/lastmile_qr_scan", "android": "https://dc.lft.to/lastmile_qr_scan"}, "is_reserved": 0, "fusion_lon": 0.0, "fusion_lat": 0.0, "lon": -76.96907666666667, "name": "8eaf644398a90ed129717e57c9d91c48"}, {"bike_id": "bd6ac16c86cce6dcd2707c22dcd5b1e5", "type": "electric_scooter", "is_disabled": 0, "lat": 38.92475666666667, "rental_uris": {"ios": "https://dc.lft.to/lastmile_qr_scan", "android": "https://dc.lft.to/lastmile_qr_scan"}, "is_reserved": 0, "fusion_lon": 0.0, "fusion_lat": 0.0, "lon": -77.028357, "name": "bd6ac16c86cce6dcd2707c22dcd5b1e5"}, {"bike_id": "490092b9ed4d6abbc9fdecbf5ae45015", "type": "electric_scooter", "is_disabled": 0, "lat": 38.900580833333336, "rental_uris": {"ios": "https://dc.lft.to/lastmile_qr_scan", "android": "https://dc.lft.to/lastmile_qr_scan"}, "is_reserved": 0, "fusion_lon": 0.0, "fusion_lat": 0.0, "lon": -76.93471816666667, "name": "490092b9ed4d6abbc9fdecbf5ae45015"}, {"bike_id": "d53b8ccb165eef05e7a57250762be8a6", "type": "electric_bike", "is_disabled": 0, "lat": 39.0578745, "rental_uris": {"ios": "https://dc.lft.to/lastmile_qr_scan", "android": "https://dc.lft.to/lastmile_qr_scan"}, "is_reserved": 0, "fusion_lon": 0.0, "fusion_lat": 0.0, "lon": -77.15019383333333, "name": "d53b8ccb165eef05e7a57250762be8a6"}, {"bike_id": "d67057a73fa4f44cae45ffeead259921", "type": "electric_scooter", "is_disabled": 0, "lat": 38.90203316666667, "rental_uris": {"ios": "https://dc.lft.to/lastmile_qr_scan", "android": "https://dc.lft.to/lastmile_qr_scan"}, "is_reserved": 0, "fusion_lon": 0.0, "fusion_lat": 0.0, "lon": -77.02310533333333, "name": "d67057a73fa4f44cae45ffeead259921"}, {"bike_id": "b42d60f76d3b3c7b11c75170d114e949", "type": "electric_scooter", "is_disabled": 0, "lat": 38.9042185, "rental_uris": {"ios": "https://dc.lft.to/lastmile_qr_scan", "android": "https://dc.lft.to/lastmile_qr_scan"}, "is_reserved": 0, "fusion_lon": 0.0, "fusion_lat": 0.0, "lon": -77.0486055, "name": "b42d60f76d3b3c7b11c75170d114e949"}, {"bike_id": "f40b48369ca34b58cb4a44e48ab1bd7f", "type": "electric_scooter", "is_disabled": 0, "lat": 38.90544383333334, "rental_uris": {"ios": "https://dc.lft.to/lastmile_qr_scan", "android": "https://dc.lft.to/lastmile_qr_scan"}, "is_reserved": 0, "fusion_lon": 0.0, "fusion_lat": 0.0, "lon": -77.00571716666667, "name": "f40b48369ca34b58cb4a44e48ab1bd7f"}, {"bike_id": "271306c13573bb7dd90e9106868a0f43", "type": "electric_scooter", "is_disabled": 0, "lat": 38.91814, "rental_uris": {"ios": "https://dc.lft.to/lastmile_qr_scan", "android": "https://dc.lft.to/lastmile_qr_scan"}, "is_reserved": 0, "fusion_lon": 0.0, "fusion_lat": 0.0, "lon": -77.0247975, "name": "271306c13573bb7dd90e9106868a0f43"}, {"bike_id": "9917ccce4da6b3a87c3f5b8f20f1120f", "type": "electric_scooter", "is_disabled": 0, "lat": 38.892457666666665, "rental_uris": {"ios": "https://dc.lft.to/lastmile_qr_scan", "android": "https://dc.lft.to/lastmile_qr_scan"}, "is_reserved": 0, "fusion_lon": 0.0, "fusion_lat": 0.0, "lon": -77.03350766666667, "name": "9917ccce4da6b3a87c3f5b8f20f1120f"}, {"bike_id": "2c2a51732408a8480485ac60a648d840", "type": "electric_scooter", "is_disabled": 0, "lat": 38.91652583333333, "rental_uris": {"ios": "https://dc.lft.to/lastmile_qr_scan", "android": "https://dc.lft.to/lastmile_qr_scan"}, "is_reserved": 0, "fusion_lon": 0.0, "fusion_lat": 0.0, "lon": -77.02412466666667, "name": "2c2a51732408a8480485ac60a648d840"}, {"bike_id": "7ee34e4f3748f86349fb472420ba852d", "type": "electric_scooter", "is_disabled": 0, "lat": 38.9077985, "rental_uris": {"ios": "https://dc.lft.to/lastmile_qr_scan", "android": "https://dc.lft.to/lastmile_qr_scan"}, "is_reserved": 0, "fusion_lon": 0.0, "fusion_lat": 0.0, "lon": -77.01858866666667, "name": "7ee34e4f3748f86349fb472420ba852d"}, {"bike_id": "f58591c11cf0e8d44420239096fa5baf", "type": "electric_scooter", "is_disabled": 0, "lat": 38.85701483333333, "rental_uris": {"ios": "https://dc.lft.to/lastmile_qr_scan", "android": "https://dc.lft.to/lastmile_qr_scan"}, "is_reserved": 0, "fusion_lon": 0.0, "fusion_lat": 0.0, "lon": -76.989673, "name": "f58591c11cf0e8d44420239096fa5baf"}, {"bike_id": "a0691b46f42c93bc56242ae0daaeced5", "type": "electric_scooter", "is_disabled": 0, "lat": 38.906107, "rental_uris": {"ios": "https://dc.lft.to/lastmile_qr_scan", "android": "https://dc.lft.to/lastmile_qr_scan"}, "is_reserved": 0, "fusion_lon": 0.0, "fusion_lat": 0.0, "lon": -77.02694283333334, "name": "a0691b46f42c93bc56242ae0daaeced5"}, {"bike_id": "0042e7281d43a4973a91caaf87f7b1b2", "type": "electric_bike", "is_disabled": 0, "lat": 38.819849833333336, "rental_uris": {"ios": "https://dc.lft.to/lastmile_qr_scan", "android": "https://dc.lft.to/lastmile_qr_scan"}, "is_reserved": 0, "fusion_lon": 0.0, "fusion_lat": 0.0, "lon": -76.998161, "name": "0042e7281d43a4973a91caaf87f7b1b2"}, {"bike_id": "e7d07cf47f56e5e6faed5c37da0abd94", "type": "electric_scooter", "is_disabled": 0, "lat": 38.90528883333333, "rental_uris": {"ios": "https://dc.lft.to/lastmile_qr_scan", "android": "https://dc.lft.to/lastmile_qr_scan"}, "is_reserved": 0, "fusion_lon": 0.0, "fusion_lat": 0.0, "lon": -77.050125, "name": "e7d07cf47f56e5e6faed5c37da0abd94"}, {"bike_id": "40e443c8e1860be91f47cf4e992edbf6", "type": "electric_scooter", "is_disabled": 0, "lat": 38.8711815, "rental_uris": {"ios": "https://dc.lft.to/lastmile_qr_scan", "android": "https://dc.lft.to/lastmile_qr_scan"}, "is_reserved": 0, "fusion_lon": 0.0, "fusion_lat": 0.0, "lon": -76.98242533333334, "name": "40e443c8e1860be91f47cf4e992edbf6"}, {"bike_id": "3e9829b5bce630b59bd1ac20539d57af", "type": "electric_scooter", "is_disabled": 0, "lat": 38.85206866666667, "rental_uris": {"ios": "https://dc.lft.to/lastmile_qr_scan", "android": "https://dc.lft.to/lastmile_qr_scan"}, "is_reserved": 0, "fusion_lon": 0.0, "fusion_lat": 0.0, "lon": -76.98553866666667, "name": "3e9829b5bce630b59bd1ac20539d57af"}, {"bike_id": "67a7ec2c748edc862ce8190f3da94736", "type": "electric_scooter", "is_disabled": 0, "lat": 38.90361883333333, "rental_uris": {"ios": "https://dc.lft.to/lastmile_qr_scan", "android": "https://dc.lft.to/lastmile_qr_scan"}, "is_reserved": 0, "fusion_lon": 0.0, "fusion_lat": 0.0, "lon": -76.99943733333333, "name": "67a7ec2c748edc862ce8190f3da94736"}, {"bike_id": "e62a46041315d369f4d000061d0aa070", "type": "electric_scooter", "is_disabled": 0, "lat": 38.89836666666667, "rental_uris": {"ios": "https://dc.lft.to/lastmile_qr_scan", "android": "https://dc.lft.to/lastmile_qr_scan"}, "is_reserved": 0, "fusion_lon": 0.0, "fusion_lat": 0.0, "lon": -77.02866783333333, "name": "e62a46041315d369f4d000061d0aa070"}, {"bike_id": "405acc2ee73f3ebde828f29ed198dc58", "type": "electric_scooter", "is_disabled": 0, "lat": 38.905567166666664, "rental_uris": {"ios": "https://dc.lft.to/lastmile_qr_scan", "android": "https://dc.lft.to/lastmile_qr_scan"}, "is_reserved": 0, "fusion_lon": 0.0, "fusion_lat": 0.0, "lon": -77.06521383333333, "name": "405acc2ee73f3ebde828f29ed198dc58"}, {"bike_id": "5ce773dad02fe24d990cb3f5e2d03e0f", "type": "electric_scooter", "is_disabled": 0, "lat": 38.88929816666667, "rental_uris": {"ios": "https://dc.lft.to/lastmile_qr_scan", "android": "https://dc.lft.to/lastmile_qr_scan"}, "is_reserved": 0, "fusion_lon": 0.0, "fusion_lat": 0.0, "lon": -76.93575366666667, "name": "5ce773dad02fe24d990cb3f5e2d03e0f"}, {"bike_id": "f83d1b593606feb7f247c3aa2ae74649", "type": "electric_scooter", "is_disabled": 0, "lat": 38.878433666666666, "rental_uris": {"ios": "https://dc.lft.to/lastmile_qr_scan", "android": "https://dc.lft.to/lastmile_qr_scan"}, "is_reserved": 0, "fusion_lon": 0.0, "fusion_lat": 0.0, "lon": -76.98621683333333, "name": "f83d1b593606feb7f247c3aa2ae74649"}, {"bike_id": "66c5aca1d6913fb05c251a6321d564b6", "type": "electric_bike", "is_disabled": 0, "lat": 38.82174066666666, "rental_uris": {"ios": "https://dc.lft.to/lastmile_qr_scan", "android": "https://dc.lft.to/lastmile_qr_scan"}, "is_reserved": 0, "fusion_lon": 0.0, "fusion_lat": 0.0, "lon": -76.99511783333334, "name": "66c5aca1d6913fb05c251a6321d564b6"}, {"bike_id": "3b68c37b887161c222655473870fd7e4", "type": "electric_scooter", "is_disabled": 0, "lat": 38.90570566666667, "rental_uris": {"ios": "https://dc.lft.to/lastmile_qr_scan", "android": "https://dc.lft.to/lastmile_qr_scan"}, "is_reserved": 0, "fusion_lon": 0.0, "fusion_lat": 0.0, "lon": -77.04242983333333, "name": "3b68c37b887161c222655473870fd7e4"}, {"bike_id": "0d5c69215795e98118232437e15881dd", "type": "electric_bike", "is_disabled": 0, "lat": 39.043109333333334, "rental_uris": {"ios": "https://dc.lft.to/lastmile_qr_scan", "android": "https://dc.lft.to/lastmile_qr_scan"}, "is_reserved": 0, "fusion_lon": 0.0, "fusion_lat": 0.0, "lon": -77.05162616666667, "name": "0d5c69215795e98118232437e15881dd"}, {"bike_id": "d519bd75eb7319e82cf8847d0dbe7df8", "type": "electric_scooter", "is_disabled": 0, "lat": 38.88032483333333, "rental_uris": {"ios": "https://dc.lft.to/lastmile_qr_scan", "android": "https://dc.lft.to/lastmile_qr_scan"}, "is_reserved": 0, "fusion_lon": 0.0, "fusion_lat": 0.0, "lon": -77.00550983333333, "name": "d519bd75eb7319e82cf8847d0dbe7df8"}, {"bike_id": "a929dfb0dcdf51ea16df653fd58ca2c2", "type": "electric_scooter", "is_disabled": 0, "lat": 38.91948, "rental_uris": {"ios": "https://dc.lft.to/lastmile_qr_scan", "android": "https://dc.lft.to/lastmile_qr_scan"}, "is_reserved": 0, "fusion_lon": 0.0, "fusion_lat": 0.0, "lon": -77.02502933333334, "name": "a929dfb0dcdf51ea16df653fd58ca2c2"}, {"bike_id": "a89891efe134da418ddebbd851e3b584", "type": "electric_scooter", "is_disabled": 0, "lat": 38.8885955, "rental_uris": {"ios": "https://dc.lft.to/lastmile_qr_scan", "android": "https://dc.lft.to/lastmile_qr_scan"}, "is_reserved": 0, "fusion_lon": 0.0, "fusion_lat": 0.0, "lon": -76.991435, "name": "a89891efe134da418ddebbd851e3b584"}, {"bike_id": "f3c4ee276f704bf46539a3196ff7dc19", "type": "electric_scooter", "is_disabled": 0, "lat": 38.89356333333333, "rental_uris": {"ios": "https://dc.lft.to/lastmile_qr_scan", "android": "https://dc.lft.to/lastmile_qr_scan"}, "is_reserved": 0, "fusion_lon": 0.0, "fusion_lat": 0.0, "lon": -76.94934716666667, "name": "f3c4ee276f704bf46539a3196ff7dc19"}, {"bike_id": "79ae25c3f83c3779fe34507586b7a1d2", "type": "electric_scooter", "is_disabled": 0, "lat": 38.84636866666666, "rental_uris": {"ios": "https://dc.lft.to/lastmile_qr_scan", "android": "https://dc.lft.to/lastmile_qr_scan"}, "is_reserved": 0, "fusion_lon": 0.0, "fusion_lat": 0.0, "lon": -76.99130983333333, "name": "79ae25c3f83c3779fe34507586b7a1d2"}, {"bike_id": "dee5bff6352894f99373eb814ca0b872", "type": "electric_scooter", "is_disabled": 0, "lat": 38.91964, "rental_uris": {"ios": "https://dc.lft.to/lastmile_qr_scan", "android": "https://dc.lft.to/lastmile_qr_scan"}, "is_reserved": 0, "fusion_lon": 0.0, "fusion_lat": 0.0, "lon": -77.0427215, "name": "dee5bff6352894f99373eb814ca0b872"}, {"bike_id": "f7ef7416ad200abdf43190c834f96ea0", "type": "electric_scooter", "is_disabled": 0, "lat": 38.926672, "rental_uris": {"ios": "https://dc.lft.to/lastmile_qr_scan", "android": "https://dc.lft.to/lastmile_qr_scan"}, "is_reserved": 0, "fusion_lon": 0.0, "fusion_lat": 0.0, "lon": -77.03027016666667, "name": "f7ef7416ad200abdf43190c834f96ea0"}, {"bike_id": "277d5193b4f2709d17d591420cd8b913", "type": "electric_scooter", "is_disabled": 0, "lat": 38.87158516666667, "rental_uris": {"ios": "https://dc.lft.to/lastmile_qr_scan", "android": "https://dc.lft.to/lastmile_qr_scan"}, "is_reserved": 0, "fusion_lon": 0.0, "fusion_lat": 0.0, "lon": -77.013545, "name": "277d5193b4f2709d17d591420cd8b913"}, {"bike_id": "966118baecd4cc3b17cd647567a269da", "type": "electric_scooter", "is_disabled": 0, "lat": 38.92037833333333, "rental_uris": {"ios": "https://dc.lft.to/lastmile_qr_scan", "android": "https://dc.lft.to/lastmile_qr_scan"}, "is_reserved": 0, "fusion_lon": 0.0, "fusion_lat": 0.0, "lon": -77.02420366666666, "name": "966118baecd4cc3b17cd647567a269da"}, {"bike_id": "36780b457df4fda3e5ea2fea0a111639", "type": "electric_scooter", "is_disabled": 0, "lat": 38.904193666666664, "rental_uris": {"ios": "https://dc.lft.to/lastmile_qr_scan", "android": "https://dc.lft.to/lastmile_qr_scan"}, "is_reserved": 0, "fusion_lon": 0.0, "fusion_lat": 0.0, "lon": -77.04861733333334, "name": "36780b457df4fda3e5ea2fea0a111639"}, {"bike_id": "c84c45af1c08e4385bfbe42077fbf2b7", "type": "electric_scooter", "is_disabled": 0, "lat": 38.93078116666667, "rental_uris": {"ios": "https://dc.lft.to/lastmile_qr_scan", "android": "https://dc.lft.to/lastmile_qr_scan"}, "is_reserved": 0, "fusion_lon": 0.0, "fusion_lat": 0.0, "lon": -77.025558, "name": "c84c45af1c08e4385bfbe42077fbf2b7"}, {"bike_id": "ef7922c4635aa68e290c80d7fbbe25ba", "type": "electric_scooter", "is_disabled": 0, "lat": 38.9006115, "rental_uris": {"ios": "https://dc.lft.to/lastmile_qr_scan", "android": "https://dc.lft.to/lastmile_qr_scan"}, "is_reserved": 0, "fusion_lon": 0.0, "fusion_lat": 0.0, "lon": -76.9273855, "name": "ef7922c4635aa68e290c80d7fbbe25ba"}, {"bike_id": "7cd872994bcf13d1cac75ffa568a8571", "type": "electric_scooter", "is_disabled": 0, "lat": 38.949974, "rental_uris": {"ios": "https://dc.lft.to/lastmile_qr_scan", "android": "https://dc.lft.to/lastmile_qr_scan"}, "is_reserved": 0, "fusion_lon": 0.0, "fusion_lat": 0.0, "lon": -77.0182965, "name": "7cd872994bcf13d1cac75ffa568a8571"}, {"bike_id": "f2545bb4756dfa8e1a52aab5f8465fb5", "type": "electric_scooter", "is_disabled": 0, "lat": 38.904996, "rental_uris": {"ios": "https://dc.lft.to/lastmile_qr_scan", "android": "https://dc.lft.to/lastmile_qr_scan"}, "is_reserved": 0, "fusion_lon": 0.0, "fusion_lat": 0.0, "lon": -77.06885, "name": "f2545bb4756dfa8e1a52aab5f8465fb5"}, {"bike_id": "240c8e21cdc64d29f43fc192dcbae236", "type": "electric_scooter", "is_disabled": 0, "lat": 38.90037683333333, "rental_uris": {"ios": "https://dc.lft.to/lastmile_qr_scan", "android": "https://dc.lft.to/lastmile_qr_scan"}, "is_reserved": 0, "fusion_lon": 0.0, "fusion_lat": 0.0, "lon": -76.988315, "name": "240c8e21cdc64d29f43fc192dcbae236"}, {"bike_id": "330a1bfe4dc439c5ec70b18463d4c678", "type": "electric_scooter", "is_disabled": 0, "lat": 38.9075385, "rental_uris": {"ios": "https://dc.lft.to/lastmile_qr_scan", "android": "https://dc.lft.to/lastmile_qr_scan"}, "is_reserved": 0, "fusion_lon": 0.0, "fusion_lat": 0.0, "lon": -77.03447283333334, "name": "330a1bfe4dc439c5ec70b18463d4c678"}, {"bike_id": "4283d12484b9d3750859a4b1f5456989", "type": "electric_scooter", "is_disabled": 0, "lat": 38.87630383333333, "rental_uris": {"ios": "https://dc.lft.to/lastmile_qr_scan", "android": "https://dc.lft.to/lastmile_qr_scan"}, "is_reserved": 0, "fusion_lon": 0.0, "fusion_lat": 0.0, "lon": -76.96523866666666, "name": "4283d12484b9d3750859a4b1f5456989"}, {"bike_id": "a543d42c95b2209a1048d8c85f7881fe", "type": "electric_scooter", "is_disabled": 0, "lat": 38.906207333333334, "rental_uris": {"ios": "https://dc.lft.to/lastmile_qr_scan", "android": "https://dc.lft.to/lastmile_qr_scan"}, "is_reserved": 0, "fusion_lon": 0.0, "fusion_lat": 0.0, "lon": -77.00715716666667, "name": "a543d42c95b2209a1048d8c85f7881fe"}, {"bike_id": "436276c9e7621724fefe5e08cf2d5120", "type": "electric_scooter", "is_disabled": 0, "lat": 38.939193833333334, "rental_uris": {"ios": "https://dc.lft.to/lastmile_qr_scan", "android": "https://dc.lft.to/lastmile_qr_scan"}, "is_reserved": 0, "fusion_lon": 0.0, "fusion_lat": 0.0, "lon": -77.03672133333333, "name": "436276c9e7621724fefe5e08cf2d5120"}, {"bike_id": "e43363beea360d127eb51707a5c94a23", "type": "electric_scooter", "is_disabled": 0, "lat": 38.90632683333333, "rental_uris": {"ios": "https://dc.lft.to/lastmile_qr_scan", "android": "https://dc.lft.to/lastmile_qr_scan"}, "is_reserved": 0, "fusion_lon": 0.0, "fusion_lat": 0.0, "lon": -77.03141433333333, "name": "e43363beea360d127eb51707a5c94a23"}, {"bike_id": "ab077e9edeb8ef1e4b53723e4f138ae4", "type": "electric_scooter", "is_disabled": 0, "lat": 38.900376, "rental_uris": {"ios": "https://dc.lft.to/lastmile_qr_scan", "android": "https://dc.lft.to/lastmile_qr_scan"}, "is_reserved": 0, "fusion_lon": 0.0, "fusion_lat": 0.0, "lon": -77.01312983333334, "name": "ab077e9edeb8ef1e4b53723e4f138ae4"}, {"bike_id": "5ec0d741b58fe000769ff0704548a449", "type": "electric_scooter", "is_disabled": 0, "lat": 38.91547633333333, "rental_uris": {"ios": "https://dc.lft.to/lastmile_qr_scan", "android": "https://dc.lft.to/lastmile_qr_scan"}, "is_reserved": 0, "fusion_lon": 0.0, "fusion_lat": 0.0, "lon": -77.04013616666667, "name": "5ec0d741b58fe000769ff0704548a449"}, {"bike_id": "8cc3c5b1bf5d7e84c2e8524bda379473", "type": "electric_scooter", "is_disabled": 0, "lat": 38.918375833333336, "rental_uris": {"ios": "https://dc.lft.to/lastmile_qr_scan", "android": "https://dc.lft.to/lastmile_qr_scan"}, "is_reserved": 0, "fusion_lon": 0.0, "fusion_lat": 0.0, "lon": -76.96551283333334, "name": "8cc3c5b1bf5d7e84c2e8524bda379473"}, {"bike_id": "6e67f5837151f7c90dfe16205e33cef7", "type": "electric_bike", "is_disabled": 0, "lat": 38.81328466666667, "rental_uris": {"ios": "https://dc.lft.to/lastmile_qr_scan", "android": "https://dc.lft.to/lastmile_qr_scan"}, "is_reserved": 0, "fusion_lon": 0.0, "fusion_lat": 0.0, "lon": -77.05085433333333, "name": "6e67f5837151f7c90dfe16205e33cef7"}, {"bike_id": "32dbf67404f2bc209e94896f1347f3ce", "type": "electric_bike", "is_disabled": 0, "lat": 38.874792, "rental_uris": {"ios": "https://dc.lft.to/lastmile_qr_scan", "android": "https://dc.lft.to/lastmile_qr_scan"}, "is_reserved": 0, "fusion_lon": 0.0, "fusion_lat": 0.0, "lon": -76.96525533333333, "name": "32dbf67404f2bc209e94896f1347f3ce"}, {"bike_id": "7c25634a35e7713054dd97277508c4b3", "type": "electric_scooter", "is_disabled": 0, "lat": 38.9224025, "rental_uris": {"ios": "https://dc.lft.to/lastmile_qr_scan", "android": "https://dc.lft.to/lastmile_qr_scan"}, "is_reserved": 0, "fusion_lon": 0.0, "fusion_lat": 0.0, "lon": -77.035248, "name": "7c25634a35e7713054dd97277508c4b3"}, {"bike_id": "b838ea2574a5f909116ae06b2426757d", "type": "electric_scooter", "is_disabled": 0, "lat": 38.9111135, "rental_uris": {"ios": "https://dc.lft.to/lastmile_qr_scan", "android": "https://dc.lft.to/lastmile_qr_scan"}, "is_reserved": 0, "fusion_lon": 0.0, "fusion_lat": 0.0, "lon": -77.03831533333333, "name": "b838ea2574a5f909116ae06b2426757d"}, {"bike_id": "5767b373458d80be78ceb2b369f77bbf", "type": "electric_scooter", "is_disabled": 0, "lat": 38.90165116666667, "rental_uris": {"ios": "https://dc.lft.to/lastmile_qr_scan", "android": "https://dc.lft.to/lastmile_qr_scan"}, "is_reserved": 0, "fusion_lon": 0.0, "fusion_lat": 0.0, "lon": -76.9302345, "name": "5767b373458d80be78ceb2b369f77bbf"}, {"bike_id": "d594a1b574fff5687bfbe690ac77d0c1", "type": "electric_scooter", "is_disabled": 0, "lat": 38.9565455, "rental_uris": {"ios": "https://dc.lft.to/lastmile_qr_scan", "android": "https://dc.lft.to/lastmile_qr_scan"}, "is_reserved": 0, "fusion_lon": 0.0, "fusion_lat": 0.0, "lon": -77.010026, "name": "d594a1b574fff5687bfbe690ac77d0c1"}, {"bike_id": "9fe5827eab246f97d5d19875a24f5ed3", "type": "electric_scooter", "is_disabled": 0, "lat": 38.956353166666666, "rental_uris": {"ios": "https://dc.lft.to/lastmile_qr_scan", "android": "https://dc.lft.to/lastmile_qr_scan"}, "is_reserved": 0, "fusion_lon": 0.0, "fusion_lat": 0.0, "lon": -77.01163016666666, "name": "9fe5827eab246f97d5d19875a24f5ed3"}, {"bike_id": "7d804df6b7a10ca495b889b71ba9af43", "type": "electric_scooter", "is_disabled": 0, "lat": 38.9324305, "rental_uris": {"ios": "https://dc.lft.to/lastmile_qr_scan", "android": "https://dc.lft.to/lastmile_qr_scan"}, "is_reserved": 0, "fusion_lon": 0.0, "fusion_lat": 0.0, "lon": -77.03893983333333, "name": "7d804df6b7a10ca495b889b71ba9af43"}, {"bike_id": "55bd623230bbcbd04f91fa114d1b4be2", "type": "electric_scooter", "is_disabled": 0, "lat": 38.88699, "rental_uris": {"ios": "https://dc.lft.to/lastmile_qr_scan", "android": "https://dc.lft.to/lastmile_qr_scan"}, "is_reserved": 0, "fusion_lon": 0.0, "fusion_lat": 0.0, "lon": -76.99614566666666, "name": "55bd623230bbcbd04f91fa114d1b4be2"}, {"bike_id": "612379916e3629d8456eadd001ccef5a", "type": "electric_scooter", "is_disabled": 0, "lat": 38.924491, "rental_uris": {"ios": "https://dc.lft.to/lastmile_qr_scan", "android": "https://dc.lft.to/lastmile_qr_scan"}, "is_reserved": 0, "fusion_lon": 0.0, "fusion_lat": 0.0, "lon": -77.0440145, "name": "612379916e3629d8456eadd001ccef5a"}, {"bike_id": "da0195c59ad21c1510058824869b2998", "type": "electric_scooter", "is_disabled": 0, "lat": 38.915034166666665, "rental_uris": {"ios": "https://dc.lft.to/lastmile_qr_scan", "android": "https://dc.lft.to/lastmile_qr_scan"}, "is_reserved": 0, "fusion_lon": 0.0, "fusion_lat": 0.0, "lon": -77.017695, "name": "da0195c59ad21c1510058824869b2998"}, {"bike_id": "a921491532207143e392d6b8482dac7e", "type": "electric_scooter", "is_disabled": 0, "lat": 38.88657083333333, "rental_uris": {"ios": "https://dc.lft.to/lastmile_qr_scan", "android": "https://dc.lft.to/lastmile_qr_scan"}, "is_reserved": 0, "fusion_lon": 0.0, "fusion_lat": 0.0, "lon": -77.00115616666666, "name": "a921491532207143e392d6b8482dac7e"}, {"bike_id": "6c74d255e1b3c8853148854b74fc952f", "type": "electric_scooter", "is_disabled": 0, "lat": 38.90711316666667, "rental_uris": {"ios": "https://dc.lft.to/lastmile_qr_scan", "android": "https://dc.lft.to/lastmile_qr_scan"}, "is_reserved": 0, "fusion_lon": 0.0, "fusion_lat": 0.0, "lon": -77.02384133333334, "name": "6c74d255e1b3c8853148854b74fc952f"}, {"bike_id": "668a4400627111608e51c613e2ad70bf", "type": "electric_scooter", "is_disabled": 0, "lat": 38.9126765, "rental_uris": {"ios": "https://dc.lft.to/lastmile_qr_scan", "android": "https://dc.lft.to/lastmile_qr_scan"}, "is_reserved": 0, "fusion_lon": 0.0, "fusion_lat": 0.0, "lon": -77.0386025, "name": "668a4400627111608e51c613e2ad70bf"}, {"bike_id": "10274e48ffed1d6a7f31775feea1c6d0", "type": "electric_scooter", "is_disabled": 0, "lat": 38.915194666666665, "rental_uris": {"ios": "https://dc.lft.to/lastmile_qr_scan", "android": "https://dc.lft.to/lastmile_qr_scan"}, "is_reserved": 0, "fusion_lon": 0.0, "fusion_lat": 0.0, "lon": -77.01222933333334, "name": "10274e48ffed1d6a7f31775feea1c6d0"}, {"bike_id": "fdcc7e94fe2c38d1cb2a5e456f509d8c", "type": "electric_bike", "is_disabled": 0, "lat": 39.039874, "rental_uris": {"ios": "https://dc.lft.to/lastmile_qr_scan", "android": "https://dc.lft.to/lastmile_qr_scan"}, "is_reserved": 0, "fusion_lon": 0.0, "fusion_lat": 0.0, "lon": -76.99927616666666, "name": "fdcc7e94fe2c38d1cb2a5e456f509d8c"}, {"bike_id": "2e085399499007d5cb38c8d9e21e7c21", "type": "electric_scooter", "is_disabled": 0, "lat": 38.922177833333336, "rental_uris": {"ios": "https://dc.lft.to/lastmile_qr_scan", "android": "https://dc.lft.to/lastmile_qr_scan"}, "is_reserved": 0, "fusion_lon": 0.0, "fusion_lat": 0.0, "lon": -77.0345915, "name": "2e085399499007d5cb38c8d9e21e7c21"}, {"bike_id": "1c23deac02fa781636c001473bf4ecaa", "type": "electric_scooter", "is_disabled": 0, "lat": 38.9080705, "rental_uris": {"ios": "https://dc.lft.to/lastmile_qr_scan", "android": "https://dc.lft.to/lastmile_qr_scan"}, "is_reserved": 0, "fusion_lon": 0.0, "fusion_lat": 0.0, "lon": -77.03444133333333, "name": "1c23deac02fa781636c001473bf4ecaa"}, {"bike_id": "49a3c591bcf3a0b487dbf4f411638f15", "type": "electric_scooter", "is_disabled": 0, "lat": 38.9095655, "rental_uris": {"ios": "https://dc.lft.to/lastmile_qr_scan", "android": "https://dc.lft.to/lastmile_qr_scan"}, "is_reserved": 0, "fusion_lon": 0.0, "fusion_lat": 0.0, "lon": -77.032945, "name": "49a3c591bcf3a0b487dbf4f411638f15"}, {"bike_id": "8899875add7c399594229343e10e10e5", "type": "electric_scooter", "is_disabled": 0, "lat": 38.91703166666667, "rental_uris": {"ios": "https://dc.lft.to/lastmile_qr_scan", "android": "https://dc.lft.to/lastmile_qr_scan"}, "is_reserved": 0, "fusion_lon": 0.0, "fusion_lat": 0.0, "lon": -77.04615333333334, "name": "8899875add7c399594229343e10e10e5"}, {"bike_id": "996c1031cac693ff85d7db408e847647", "type": "electric_scooter", "is_disabled": 0, "lat": 38.903916833333334, "rental_uris": {"ios": "https://dc.lft.to/lastmile_qr_scan", "android": "https://dc.lft.to/lastmile_qr_scan"}, "is_reserved": 0, "fusion_lon": 0.0, "fusion_lat": 0.0, "lon": -77.03817483333333, "name": "996c1031cac693ff85d7db408e847647"}, {"bike_id": "3409f9b87d332a87820f8a7f213fb869", "type": "electric_scooter", "is_disabled": 0, "lat": 38.94031833333333, "rental_uris": {"ios": "https://dc.lft.to/lastmile_qr_scan", "android": "https://dc.lft.to/lastmile_qr_scan"}, "is_reserved": 0, "fusion_lon": 0.0, "fusion_lat": 0.0, "lon": -77.02796116666667, "name": "3409f9b87d332a87820f8a7f213fb869"}, {"bike_id": "3db0cf06df321745eaa4a444c1e5cbc3", "type": "electric_scooter", "is_disabled": 0, "lat": 38.89294983333333, "rental_uris": {"ios": "https://dc.lft.to/lastmile_qr_scan", "android": "https://dc.lft.to/lastmile_qr_scan"}, "is_reserved": 0, "fusion_lon": 0.0, "fusion_lat": 0.0, "lon": -77.04870183333334, "name": "3db0cf06df321745eaa4a444c1e5cbc3"}, {"bike_id": "dda1e39552302c23ec8f91b4ee477dd2", "type": "electric_scooter", "is_disabled": 0, "lat": 38.91872083333333, "rental_uris": {"ios": "https://dc.lft.to/lastmile_qr_scan", "android": "https://dc.lft.to/lastmile_qr_scan"}, "is_reserved": 0, "fusion_lon": 0.0, "fusion_lat": 0.0, "lon": -77.024885, "name": "dda1e39552302c23ec8f91b4ee477dd2"}, {"bike_id": "dcce6a9e1c762ae79b568a02e31378ba", "type": "electric_scooter", "is_disabled": 0, "lat": 38.89241033333333, "rental_uris": {"ios": "https://dc.lft.to/lastmile_qr_scan", "android": "https://dc.lft.to/lastmile_qr_scan"}, "is_reserved": 0, "fusion_lon": 0.0, "fusion_lat": 0.0, "lon": -77.022047, "name": "dcce6a9e1c762ae79b568a02e31378ba"}, {"bike_id": "aebb599bca4eaa844c3efc08a89727df", "type": "electric_scooter", "is_disabled": 0, "lat": 38.909547833333335, "rental_uris": {"ios": "https://dc.lft.to/lastmile_qr_scan", "android": "https://dc.lft.to/lastmile_qr_scan"}, "is_reserved": 0, "fusion_lon": 0.0, "fusion_lat": 0.0, "lon": -77.026039, "name": "aebb599bca4eaa844c3efc08a89727df"}, {"bike_id": "3f5bc9cf0eb9111cb4384a30e1cd0522", "type": "electric_scooter", "is_disabled": 0, "lat": 38.9053125, "rental_uris": {"ios": "https://dc.lft.to/lastmile_qr_scan", "android": "https://dc.lft.to/lastmile_qr_scan"}, "is_reserved": 0, "fusion_lon": 0.0, "fusion_lat": 0.0, "lon": -77.05903633333334, "name": "3f5bc9cf0eb9111cb4384a30e1cd0522"}, {"bike_id": "738163f0e8e3e6dbb8a2cbf7bb0bcdf6", "type": "electric_scooter", "is_disabled": 0, "lat": 38.927535666666664, "rental_uris": {"ios": "https://dc.lft.to/lastmile_qr_scan", "android": "https://dc.lft.to/lastmile_qr_scan"}, "is_reserved": 0, "fusion_lon": 0.0, "fusion_lat": 0.0, "lon": -77.02845983333333, "name": "738163f0e8e3e6dbb8a2cbf7bb0bcdf6"}, {"bike_id": "c3a29887529d0f02df945c915c397e45", "type": "electric_scooter", "is_disabled": 0, "lat": 38.919925166666665, "rental_uris": {"ios": "https://dc.lft.to/lastmile_qr_scan", "android": "https://dc.lft.to/lastmile_qr_scan"}, "is_reserved": 0, "fusion_lon": 0.0, "fusion_lat": 0.0, "lon": -77.022273, "name": "c3a29887529d0f02df945c915c397e45"}, {"bike_id": "4706111a85e439fceea14aff0d84faf1", "type": "electric_scooter", "is_disabled": 0, "lat": 38.89884683333333, "rental_uris": {"ios": "https://dc.lft.to/lastmile_qr_scan", "android": "https://dc.lft.to/lastmile_qr_scan"}, "is_reserved": 0, "fusion_lon": 0.0, "fusion_lat": 0.0, "lon": -76.93175716666667, "name": "4706111a85e439fceea14aff0d84faf1"}, {"bike_id": "a413205a38ce4a155ba6a7013938a52c", "type": "electric_scooter", "is_disabled": 0, "lat": 38.8620965, "rental_uris": {"ios": "https://dc.lft.to/lastmile_qr_scan", "android": "https://dc.lft.to/lastmile_qr_scan"}, "is_reserved": 0, "fusion_lon": 0.0, "fusion_lat": 0.0, "lon": -76.99466583333333, "name": "a413205a38ce4a155ba6a7013938a52c"}, {"bike_id": "57af5f5c03704ad1294c80ac6fc01f09", "type": "electric_scooter", "is_disabled": 0, "lat": 38.898082333333335, "rental_uris": {"ios": "https://dc.lft.to/lastmile_qr_scan", "android": "https://dc.lft.to/lastmile_qr_scan"}, "is_reserved": 0, "fusion_lon": 0.0, "fusion_lat": 0.0, "lon": -77.02203983333334, "name": "57af5f5c03704ad1294c80ac6fc01f09"}, {"bike_id": "379783fbd231099fb6efd39643405b0c", "type": "electric_scooter", "is_disabled": 0, "lat": 38.90771866666667, "rental_uris": {"ios": "https://dc.lft.to/lastmile_qr_scan", "android": "https://dc.lft.to/lastmile_qr_scan"}, "is_reserved": 0, "fusion_lon": 0.0, "fusion_lat": 0.0, "lon": -77.07166833333333, "name": "379783fbd231099fb6efd39643405b0c"}, {"bike_id": "2c03e232493467461cb50aaac41e1568", "type": "electric_scooter", "is_disabled": 0, "lat": 38.90501883333334, "rental_uris": {"ios": "https://dc.lft.to/lastmile_qr_scan", "android": "https://dc.lft.to/lastmile_qr_scan"}, "is_reserved": 0, "fusion_lon": 0.0, "fusion_lat": 0.0, "lon": -77.063827, "name": "2c03e232493467461cb50aaac41e1568"}, {"bike_id": "ec435d8d332bf0589afd82f960c3f0b6", "type": "electric_scooter", "is_disabled": 0, "lat": 38.929111166666665, "rental_uris": {"ios": "https://dc.lft.to/lastmile_qr_scan", "android": "https://dc.lft.to/lastmile_qr_scan"}, "is_reserved": 0, "fusion_lon": 0.0, "fusion_lat": 0.0, "lon": -77.02086566666667, "name": "ec435d8d332bf0589afd82f960c3f0b6"}, {"bike_id": "09e60a00b84dff1a6b0a07b574482fe8", "type": "electric_bike", "is_disabled": 0, "lat": 38.8661825, "rental_uris": {"ios": "https://dc.lft.to/lastmile_qr_scan", "android": "https://dc.lft.to/lastmile_qr_scan"}, "is_reserved": 0, "fusion_lon": 0.0, "fusion_lat": 0.0, "lon": -76.9456455, "name": "09e60a00b84dff1a6b0a07b574482fe8"}, {"bike_id": "c51700099f63a78af703c8a4d117367a", "type": "electric_scooter", "is_disabled": 0, "lat": 38.8950105, "rental_uris": {"ios": "https://dc.lft.to/lastmile_qr_scan", "android": "https://dc.lft.to/lastmile_qr_scan"}, "is_reserved": 0, "fusion_lon": 0.0, "fusion_lat": 0.0, "lon": -77.02205766666667, "name": "c51700099f63a78af703c8a4d117367a"}, {"bike_id": "c8591ef7a80d6a2a4ce6663fa305d316", "type": "electric_scooter", "is_disabled": 0, "lat": 38.91711083333333, "rental_uris": {"ios": "https://dc.lft.to/lastmile_qr_scan", "android": "https://dc.lft.to/lastmile_qr_scan"}, "is_reserved": 0, "fusion_lon": 0.0, "fusion_lat": 0.0, "lon": -77.03662533333333, "name": "c8591ef7a80d6a2a4ce6663fa305d316"}, {"bike_id": "c717e1315585a674245463bfc60841f0", "type": "electric_scooter", "is_disabled": 0, "lat": 38.91349483333333, "rental_uris": {"ios": "https://dc.lft.to/lastmile_qr_scan", "android": "https://dc.lft.to/lastmile_qr_scan"}, "is_reserved": 0, "fusion_lon": 0.0, "fusion_lat": 0.0, "lon": -77.031758, "name": "c717e1315585a674245463bfc60841f0"}, {"bike_id": "446676970a8c19762d597a4baf9d94ab", "type": "electric_scooter", "is_disabled": 0, "lat": 38.92040166666666, "rental_uris": {"ios": "https://dc.lft.to/lastmile_qr_scan", "android": "https://dc.lft.to/lastmile_qr_scan"}, "is_reserved": 0, "fusion_lon": 0.0, "fusion_lat": 0.0, "lon": -77.03387216666667, "name": "446676970a8c19762d597a4baf9d94ab"}, {"bike_id": "683714c8aa8e796193ed290ed090a613", "type": "electric_scooter", "is_disabled": 0, "lat": 38.88084283333333, "rental_uris": {"ios": "https://dc.lft.to/lastmile_qr_scan", "android": "https://dc.lft.to/lastmile_qr_scan"}, "is_reserved": 0, "fusion_lon": 0.0, "fusion_lat": 0.0, "lon": -76.98525716666667, "name": "683714c8aa8e796193ed290ed090a613"}, {"bike_id": "9216c2e95c2db277cbca17b1d840d0a7", "type": "electric_scooter", "is_disabled": 0, "lat": 38.8949145, "rental_uris": {"ios": "https://dc.lft.to/lastmile_qr_scan", "android": "https://dc.lft.to/lastmile_qr_scan"}, "is_reserved": 0, "fusion_lon": 0.0, "fusion_lat": 0.0, "lon": -77.00058733333333, "name": "9216c2e95c2db277cbca17b1d840d0a7"}, {"bike_id": "4d934bef8fe61ccea331b4821a6363ce", "type": "electric_scooter", "is_disabled": 0, "lat": 38.91554033333333, "rental_uris": {"ios": "https://dc.lft.to/lastmile_qr_scan", "android": "https://dc.lft.to/lastmile_qr_scan"}, "is_reserved": 0, "fusion_lon": 0.0, "fusion_lat": 0.0, "lon": -77.03175616666667, "name": "4d934bef8fe61ccea331b4821a6363ce"}, {"bike_id": "5783d131aa3dc9dc2e63ec90312d813a", "type": "electric_scooter", "is_disabled": 0, "lat": 38.8974275, "rental_uris": {"ios": "https://dc.lft.to/lastmile_qr_scan", "android": "https://dc.lft.to/lastmile_qr_scan"}, "is_reserved": 0, "fusion_lon": 0.0, "fusion_lat": 0.0, "lon": -77.000068, "name": "5783d131aa3dc9dc2e63ec90312d813a"}, {"bike_id": "dbdbcb598023339178201d0f3467ef3c", "type": "electric_scooter", "is_disabled": 0, "lat": 38.895448, "rental_uris": {"ios": "https://dc.lft.to/lastmile_qr_scan", "android": "https://dc.lft.to/lastmile_qr_scan"}, "is_reserved": 0, "fusion_lon": 0.0, "fusion_lat": 0.0, "lon": -76.92951283333333, "name": "dbdbcb598023339178201d0f3467ef3c"}, {"bike_id": "68c2f69fe019188b8e3045b7c40cffb9", "type": "electric_scooter", "is_disabled": 0, "lat": 38.90600366666666, "rental_uris": {"ios": "https://dc.lft.to/lastmile_qr_scan", "android": "https://dc.lft.to/lastmile_qr_scan"}, "is_reserved": 0, "fusion_lon": 0.0, "fusion_lat": 0.0, "lon": -77.06277, "name": "68c2f69fe019188b8e3045b7c40cffb9"}, {"bike_id": "15e6ba803e83157c453385c9585c4a16", "type": "electric_scooter", "is_disabled": 0, "lat": 38.907991, "rental_uris": {"ios": "https://dc.lft.to/lastmile_qr_scan", "android": "https://dc.lft.to/lastmile_qr_scan"}, "is_reserved": 0, "fusion_lon": 0.0, "fusion_lat": 0.0, "lon": -77.041968, "name": "15e6ba803e83157c453385c9585c4a16"}, {"bike_id": "7a4357d0bc4f536d3649cf04e8128e61", "type": "electric_scooter", "is_disabled": 0, "lat": 38.9395225, "rental_uris": {"ios": "https://dc.lft.to/lastmile_qr_scan", "android": "https://dc.lft.to/lastmile_qr_scan"}, "is_reserved": 0, "fusion_lon": 0.0, "fusion_lat": 0.0, "lon": -77.07241983333333, "name": "7a4357d0bc4f536d3649cf04e8128e61"},