{"data": {"bikes": [{"rental_uris": {"android": "https://dc.lft.to/lastmile_qr_scan", "ios": "https://dc.lft.to/lastmile_qr_scan"}, "type": "electric_scooter", "lon": -77.03455733333334, "name": "064c90d1f0c54f33cc7f213ccdbef0c8", "bike_id": "064c90d1f0c54f33cc7f213ccdbef0c8", "fusion_lat": 0.0, "is_reserved": 0, "lat": 38.935440666666665, "fusion_lon": 0.0, "is_disabled": 0}, {"rental_uris": {"android": "https://dc.lft.to/lastmile_qr_scan", "ios": "https://dc.lft.to/lastmile_qr_scan"}, "type": "electric_scooter", "lon": -77.02418833333333, "name": "10ea64f878b759e4ef0c3c370fa134c9", "bike_id": "10ea64f878b759e4ef0c3c370fa134c9", "fusion_lat": 0.0, "is_reserved": 0, "lat": 38.92150866666667, "fusion_lon": 0.0, "is_disabled": 0}, {"rental_uris": {"android": "https://dc.lft.to/lastmile_qr_scan", "ios": "https://dc.lft.to/lastmile_qr_scan"}, "type": "electric_scooter", "lon": -77.01537033333334, "name": "7093a9a929da683ae1b0016a349be56c", "bike_id": "7093a9a929da683ae1b0016a349be56c", "fusion_lat": 0.0, "is_reserved": 0, "lat": 38.8793745, "fusion_lon": 0.0, "is_disabled": 0}, {"rental_uris": {"android": "https://dc.lft.to/lastmile_qr_scan", "ios": "https://dc.lft.to/lastmile_qr_scan"}, "type": "electric_bike", "lon": -77.00140166666667, "name": "a6144e8e7ef0075e227e71d2b2799ec1", "bike_id": "a6144e8e7ef0075e227e71d2b2799ec1", "fusion_lat": 0.0, "is_reserved": 0, "lat": 38.9255365, "fusion_lon": 0.0, "is_disabled": 0}, {"rental_uris": {"android": "https://dc.lft.to/lastmile_qr_scan", "ios": "https://dc.lft.to/lastmile_qr_scan"}, "type": "electric_scooter", "lon": -77.04318, "name": "3b5e965eec15ff637cc61a18abe60b0c", "bike_id": "3b5e965eec15ff637cc61a18abe60b0c", "fusion_lat": 0.0, "is_reserved": 0, "lat": 38.904915, "fusion_lon": 0.0, "is_disabled": 0}, {"rental_uris": {"android": "https://dc.lft.to/lastmile_qr_scan", "ios": "https://dc.lft.to/lastmile_qr_scan"}, "type": "electric_scooter", "lon": -77.03354566666667, "name": "f5da20d847fee487e52e189b05a3444e", "bike_id": "f5da20d847fee487e52e189b05a3444e", "fusion_lat": 0.0, "is_reserved": 0, "lat": 38.924446333333336, "fusion_lon": 0.0, "is_disabled": 0}, {"rental_uris": {"android": "https://dc.lft.to/lastmile_qr_scan", "ios": "https://dc.lft.to/lastmile_qr_scan"}, "type": "electric_scooter", "lon": -77.01766266666667, "name": "217d8db3a8138dba6fd1d48ef7b04483", "bike_id": "217d8db3a8138dba6fd1d48ef7b04483", "fusion_lat": 0.0, "is_reserved": 0, "lat": 38.87355483333333, "fusion_lon": 0.0, "is_disabled": 0}, {"rental_uris": {"android": "https://dc.lft.to/lastmile_qr_scan", "ios": "https://dc.lft.to/lastmile_qr_scan"}, "type": "electric_bike", "lon": -76.96174133333334, "name": "377f7d0b09560cb86764bdcef5513a97", "bike_id": "377f7d0b09560cb86764bdcef5513a97", "fusion_lat": 0.0, "is_reserved": 0, "lat": 38.91863, "fusion_lon": 0.0, "is_disabled": 0}, {"rental_uris": {"android": "https://dc.lft.to/lastmile_qr_scan", "ios": "https://dc.lft.to/lastmile_qr_scan"}, "type": "electric_scooter", "lon": -77.03421783333333, "name": "9547ed53e17cbb497118843e6a04713c", "bike_id": "9547ed53e17cbb497118843e6a04713c", "fusion_lat": 0.0, "is_reserved": 0, "lat": 38.9057695, "fusion_lon": 0.0, "is_disabled": 0}, {"rental_uris": {"android": "https://dc.lft.to/lastmile_qr_scan", "ios": "https://dc.lft.to/lastmile_qr_scan"}, "type": "electric_scooter", "lon": -77.02315883333333, "name": "c61ec17870bfbf1e5785156d99835c21", "bike_id": "c61ec17870bfbf1e5785156d99835c21", "fusion_lat": 0.0, "is_reserved": 0, "lat": 38.918403166666664, "fusion_lon": 0.0, "is_disabled": 0}, {"rental_uris": {"android": "https://dc.lft.to/lastmile_qr_scan", "ios": "https://dc.lft.to/lastmile_qr_scan"}, "type": "electric_scooter", "lon": -77.0783075, "name": "f0d34854650e162f6d2064fbffe61305", "bike_id": "f0d34854650e162f6d2064fbffe61305", "fusion_lat": 0.0, "is_reserved": 0, "lat": 38.926822, "fusion_lon": 0.0, "is_disabled": 0}, {"rental_uris": {"android": "https://dc.lft.to/lastmile_qr_scan", "ios": "https://dc.lft.to/lastmile_qr_scan"}, "type": "electric_scooter", "lon": -77.02268983333333, "name": "83632c09d51e36de980938c69825762a", "bike_id": "83632c09d51e36de980938c69825762a", "fusion_lat": 0.0, "is_reserved": 0, "lat": 38.88739116666667, "fusion_lon": 0.0, "is_disabled": 0}, {"rental_uris": {"android": "https://dc.lft.to/lastmile_qr_scan", "ios": "https://dc.lft.to/lastmile_qr_scan"}, "type": "electric_scooter", "lon": -76.99948983333333, "name": "f65e5ec0c68488391cefc763010cdc70", "bike_id": "f65e5ec0c68488391cefc763010cdc70", "fusion_lat": 0.0, "is_reserved": 0, "lat": 38.90860083333333, "fusion_lon": 0.0, "is_disabled": 0}, {"rental_uris": {"android": "https://dc.lft.to/lastmile_qr_scan", "ios": "https://dc.lft.to/lastmile_qr_scan"}, "type": "electric_scooter", "lon": -77.09955066666667, "name": "e965646deca4b5c2bbea28a52f8eb5da", "bike_id": "e965646deca4b5c2bbea28a52f8eb5da", "fusion_lat": 0.0, "is_reserved": 0, "lat": 38.92254633333334, "fusion_lon": 0.0, "is_disabled": 0}, {"rental_uris": {"android": "https://dc.lft.to/lastmile_qr_scan", "ios": "https://dc.lft.to/lastmile_qr_scan"}, "type": "electric_bike", "lon": -77.353094, "name": "c2b92aa39f6fc5696d2c8ec0b04db7a8", "bike_id": "c2b92aa39f6fc5696d2c8ec0b04db7a8", "fusion_lat": 0.0, "is_reserved": 0, "lat": 38.95001633333333, "fusion_lon": 0.0, "is_disabled": 0}, {"rental_uris": {"android": "https://dc.lft.to/lastmile_qr_scan", "ios": "https://dc.lft.to/lastmile_qr_scan"}, "type": "electric_scooter", "lon": -77.01638416666667, "name": "fe4a34cab65041d5c26737f5588e8620", "bike_id": "fe4a34cab65041d5c26737f5588e8620", "fusion_lat": 0.0, "is_reserved": 0, "lat": 38.88297266666667, "fusion_lon": 0.0, "is_disabled": 0}, {"rental_uris": {"android": "https://dc.lft.to/lastmile_qr_scan", "ios": "https://dc.lft.to/lastmile_qr_scan"}, "type": "electric_scooter", "lon": -77.02996733333333, "name": "878859bfd72083c5a4f3ddaf7da704de", "bike_id": "878859bfd72083c5a4f3ddaf7da704de", "fusion_lat": 0.0, "is_reserved": 0, "lat": 38.927959333333334, "fusion_lon": 0.0, "is_disabled": 0}, {"rental_uris": {"android": "https://dc.lft.to/lastmile_qr_scan", "ios": "https://dc.lft.to/lastmile_qr_scan"}, "type": "electric_scooter", "lon": -77.0272225, "name": "2bb1575ea72a446102167d68a22e83fa", "bike_id": "2bb1575ea72a446102167d68a22e83fa", "fusion_lat": 0.0, "is_reserved": 0, "lat": 38.951348833333334, "fusion_lon": 0.0, "is_disabled": 0}, {"rental_uris": {"android": "https://dc.lft.to/lastmile_qr_scan", "ios": "https://dc.lft.to/lastmile_qr_scan"}, "type": "electric_bike", "lon": -77.019975, "name": "f430630b884ba12eaabbf8d39a9263c2", "bike_id": "f430630b884ba12eaabbf8d39a9263c2", "fusion_lat": 0.0, "is_reserved": 0, "lat": 38.960201833333336, "fusion_lon": 0.0, "is_disabled": 0}, {"rental_uris": {"android": "https://dc.lft.to/lastmile_qr_scan", "ios": "https://dc.lft.to/lastmile_qr_scan"}, "type": "electric_scooter", "lon": -77.00605433333334, "name": "28228b1127f65bafef1306934cb268c3", "bike_id": "28228b1127f65bafef1306934cb268c3", "fusion_lat": 0.0, "is_reserved": 0, "lat": 38.90562533333333, "fusion_lon": 0.0, "is_disabled": 0}, {"rental_uris": {"android": "https://dc.lft.to/lastmile_qr_scan", "ios": "https://dc.lft.to/lastmile_qr_scan"}, "type": "electric_scooter", "lon": -76.99718466666667, "name": "74d12953a491dce1bc0600c729b5aa91", "bike_id": "74d12953a491dce1bc0600c729b5aa91", "fusion_lat": 0.0, "is_reserved": 0, "lat": 38.911090333333334, "fusion_lon": 0.0, "is_disabled": 0}, {"rental_uris": {"android": "https://dc.lft.to/lastmile_qr_scan", "ios": "https://dc.lft.to/lastmile_qr_scan"}, "type": "electric_scooter", "lon": -77.063484, "name": "2d1262b1e0d2903fda04e1c764b19574", "bike_id": "2d1262b1e0d2903fda04e1c764b19574", "fusion_lat": 0.0, "is_reserved": 0, "lat": 38.91336616666667, "fusion_lon": 0.0, "is_disabled": 0}, {"rental_uris": {"android": "https://dc.lft.to/lastmile_qr_scan", "ios": "https://dc.lft.to/lastmile_qr_scan"}, "type": "electric_scooter", "lon": -77.03903483333333, "name": "81f1368ac8e8a9882b1580c2252f8dd8", "bike_id": "81f1368ac8e8a9882b1580c2252f8dd8", "fusion_lat": 0.0, "is_reserved": 0, "lat": 38.9222615, "fusion_lon": 0.0, "is_disabled": 0}, {"rental_uris": {"android": "https://dc.lft.to/lastmile_qr_scan", "ios": "https://dc.lft.to/lastmile_qr_scan"}, "type": "electric_scooter", "lon": -77.01770633333334, "name": "60eef6b7a97ec346baec5999b8e3dd88", "bike_id": "60eef6b7a97ec346baec5999b8e3dd88", "fusion_lat": 0.0, "is_reserved": 0, "lat": 38.902006166666666, "fusion_lon": 0.0, "is_disabled": 0}, {"rental_uris": {"android": "https://dc.lft.to/lastmile_qr_scan", "ios": "https://dc.lft.to/lastmile_qr_scan"}, "type": "electric_bike", "lon": -77.00862583333333, "name": "96589ec16548b8681c92be9d1d67d611", "bike_id": "96589ec16548b8681c92be9d1d67d611", "fusion_lat": 0.0, "is_reserved": 0, "lat": 38.82729916666667, "fusion_lon": 0.0, "is_disabled": 0}, {"rental_uris": {"android": "https://dc.lft.to/lastmile_qr_scan", "ios": "https://dc.lft.to/lastmile_qr_scan"}, "type": "electric_scooter", "lon": -77.00758766666667, "name": "ae4bb54ef05268fa796fe9ccf009953a", "bike_id": "ae4bb54ef05268fa796fe9ccf009953a", "fusion_lat": 0.0, "is_reserved": 0, "lat": 38.910283166666666, "fusion_lon": 0.0, "is_disabled": 0}, {"rental_uris": {"android": "https://dc.lft.to/lastmile_qr_scan", "ios": "https://dc.lft.to/lastmile_qr_scan"}, "type": "electric_scooter", "lon": -77.03463066666667, "name": "cef35686812c88e1c3a9c0f1670cb19d", "bike_id": "cef35686812c88e1c3a9c0f1670cb19d", "fusion_lat": 0.0, "is_reserved": 0, "lat": 38.90877733333333, "fusion_lon": 0.0, "is_disabled": 0}, {"rental_uris": {"android": "https://dc.lft.to/lastmile_qr_scan", "ios": "https://dc.lft.to/lastmile_qr_scan"}, "type": "electric_scooter", "lon": -76.99371283333333, "name": "ad121b0601f3f6a1612811c0418421e8", "bike_id": "ad121b0601f3f6a1612811c0418421e8", "fusion_lat": 0.0, "is_reserved": 0, "lat": 38.9239915, "fusion_lon": 0.0, "is_disabled": 0}, {"rental_uris": {"android": "https://dc.lft.to/lastmile_qr_scan", "ios": "https://dc.lft.to/lastmile_qr_scan"}, "type": "electric_scooter", "lon": -76.985682, "name": "a94429aaa755f916c49d34f0b64911fd", "bike_id": "a94429aaa755f916c49d34f0b64911fd", "fusion_lat": 0.0, "is_reserved": 0, "lat": 38.8558865, "fusion_lon": 0.0, "is_disabled": 0}, {"rental_uris": {"android": "https://dc.lft.to/lastmile_qr_scan", "ios": "https://dc.lft.to/lastmile_qr_scan"}, "type": "electric_scooter", "lon": -76.964909, "name": "52e1653432dce1573a500d037007a562", "bike_id": "52e1653432dce1573a500d037007a562", "fusion_lat": 0.0, "is_reserved": 0, "lat": 38.875516166666664, "fusion_lon": 0.0, "is_disabled": 0}, {"rental_uris": {"android": "https://dc.lft.to/lastmile_qr_scan", "ios": "https://dc.lft.to/lastmile_qr_scan"}, "type": "electric_scooter", "lon": -77.01718583333333, "name": "b06b514db2430bb34615cb0657db5ab7", "bike_id": "b06b514db2430bb34615cb0657db5ab7", "fusion_lat": 0.0, "is_reserved": 0, "lat": 38.8793745, "fusion_lon": 0.0, "is_disabled": 0}, {"rental_uris": {"android": "https://dc.lft.to/lastmile_qr_scan", "ios": "https://dc.lft.to/lastmile_qr_scan"}, "type": "electric_scooter", "lon": -77.03836766666667, "name": "487843f2497d07147a62e76eabba7105", "bike_id": "487843f2497d07147a62e76eabba7105", "fusion_lat": 0.0, "is_reserved": 0, "lat": 38.9310465, "fusion_lon": 0.0, "is_disabled": 0}, {"rental_uris": {"android": "https://dc.lft.to/lastmile_qr_scan", "ios": "https://dc.lft.to/lastmile_qr_scan"}, "type": "electric_scooter", "lon": -76.98616633333333, "name": "d72a8bd582dc971bb04e5632ad5d803d", "bike_id": "d72a8bd582dc971bb04e5632ad5d803d", "fusion_lat": 0.0, "is_reserved": 0, "lat": 38.90587566666667, "fusion_lon": 0.0, "is_disabled": 0}, {"rental_uris": {"android": "https://dc.lft.to/lastmile_qr_scan", "ios": "https://dc.lft.to/lastmile_qr_scan"}, "type": "electric_scooter", "lon": -77.07270716666666, "name": "23a8debaf563f02f7070ced847dc4200", "bike_id": "23a8debaf563f02f7070ced847dc4200", "fusion_lat": 0.0, "is_reserved": 0, "lat": 38.9347835, "fusion_lon": 0.0, "is_disabled": 0}, {"rental_uris": {"android": "https://dc.lft.to/lastmile_qr_scan", "ios": "https://dc.lft.to/lastmile_qr_scan"}, "type": "electric_scooter", "lon": -77.02010333333334, "name": "16cc93b6ccc8a2a36f63f834694d0288", "bike_id": "16cc93b6ccc8a2a36f63f834694d0288", "fusion_lat": 0.0, "is_reserved": 0, "lat": 38.87939516666667, "fusion_lon": 0.0, "is_disabled": 0}, {"rental_uris": {"android": "https://dc.lft.to/lastmile_qr_scan", "ios": "https://dc.lft.to/lastmile_qr_scan"}, "type": "electric_scooter", "lon": -77.0247975, "name": "30af757c50f9e21b6f31264975793830", "bike_id": "30af757c50f9e21b6f31264975793830", "fusion_lat": 0.0, "is_reserved": 0, "lat": 38.93878983333333, "fusion_lon": 0.0, "is_disabled": 0}, {"rental_uris": {"android": "https://dc.lft.to/lastmile_qr_scan", "ios": "https://dc.lft.to/lastmile_qr_scan"}, "type": "electric_scooter", "lon": -77.03866083333334, "name": "f281311ef055b63fb222cc7b0d2be570", "bike_id": "f281311ef055b63fb222cc7b0d2be570", "fusion_lat": 0.0, "is_reserved": 0, "lat": 38.91183516666667, "fusion_lon": 0.0, "is_disabled": 0}, {"rental_uris": {"android": "https://dc.lft.to/lastmile_qr_scan", "ios": "https://dc.lft.to/lastmile_qr_scan"}, "type": "electric_scooter", "lon": -77.07363916666667, "name": "de80e85de318cfcd3caffe4eb480f0b0", "bike_id": "de80e85de318cfcd3caffe4eb480f0b0", "fusion_lat": 0.0, "is_reserved": 0, "lat": 38.9432205, "fusion_lon": 0.0, "is_disabled": 0}, {"rental_uris": {"android": "https://dc.lft.to/lastmile_qr_scan", "ios": "https://dc.lft.to/lastmile_qr_scan"}, "type": "electric_scooter", "lon": -77.012584, "name": "716885163b7c4fd6a69b96cbd6d64932", "bike_id": "716885163b7c4fd6a69b96cbd6d64932", "fusion_lat": 0.0, "is_reserved": 0, "lat": 38.908484, "fusion_lon": 0.0, "is_disabled": 0}, {"rental_uris": {"android": "https://dc.lft.to/lastmile_qr_scan", "ios": "https://dc.lft.to/lastmile_qr_scan"}, "type": "electric_scooter", "lon": -76.99490383333334, "name": "8435117e7c2cfe86395b376e3be9f6c5", "bike_id": "8435117e7c2cfe86395b376e3be9f6c5", "fusion_lat": 0.0, "is_reserved": 0, "lat": 38.92081533333333, "fusion_lon": 0.0, "is_disabled": 0}, {"rental_uris": {"android": "https://dc.lft.to/lastmile_qr_scan", "ios": "https://dc.lft.to/lastmile_qr_scan"}, "type": "electric_scooter", "lon": -77.0292545, "name": "84d3ff4ac17214e5aec552a3eddba0fd", "bike_id": "84d3ff4ac17214e5aec552a3eddba0fd", "fusion_lat": 0.0, "is_reserved": 0, "lat": 38.91115166666667, "fusion_lon": 0.0, "is_disabled": 0}, {"rental_uris": {"android": "https://dc.lft.to/lastmile_qr_scan", "ios": "https://dc.lft.to/lastmile_qr_scan"}, "type": "electric_scooter", "lon": -76.97778183333334, "name": "db5996d5906b15203c94aeae2dbbd898", "bike_id": "db5996d5906b15203c94aeae2dbbd898", "fusion_lat": 0.0, "is_reserved": 0, "lat": 38.87003883333333, "fusion_lon": 0.0, "is_disabled": 0}, {"rental_uris": {"android": "https://dc.lft.to/lastmile_qr_scan", "ios": "https://dc.lft.to/lastmile_qr_scan"}, "type": "electric_bike", "lon": -77.01072616666667, "name": "7d4ef622a8c3452eb2ac147460a41ceb", "bike_id": "7d4ef622a8c3452eb2ac147460a41ceb", "fusion_lat": 0.0, "is_reserved": 0, "lat": 38.962637, "fusion_lon": 0.0, "is_disabled": 0}, {"rental_uris": {"android": "https://dc.lft.to/lastmile_qr_scan", "ios": "https://dc.lft.to/lastmile_qr_scan"}, "type": "electric_scooter", "lon": -77.03643533333333, "name": "8bc4712d77ab7e86c0f2af07f9125c9e", "bike_id": "8bc4712d77ab7e86c0f2af07f9125c9e", "fusion_lat": 0.0, "is_reserved": 0, "lat": 38.912234166666664, "fusion_lon": 0.0, "is_disabled": 0}, {"rental_uris": {"android": "https://dc.lft.to/lastmile_qr_scan", "ios": "https://dc.lft.to/lastmile_qr_scan"}, "type": "electric_bike", "lon": -76.9983065, "name": "fc87143d0a07c4e9a87bf9a4c81001e3", "bike_id": "fc87143d0a07c4e9a87bf9a4c81001e3", "fusion_lat": 0.0, "is_reserved": 0, "lat": 38.839135166666665, "fusion_lon": 0.0, "is_disabled": 0}, {"rental_uris": {"android": "https://dc.lft.to/lastmile_qr_scan", "ios": "https://dc.lft.to/lastmile_qr_scan"}, "type": "electric_scooter", "lon": -77.01461133333333, "name": "63a300a0ceff8b4809a57d331e142fb6", "bike_id": "63a300a0ceff8b4809a57d331e142fb6", "fusion_lat": 0.0, "is_reserved": 0, "lat": 38.910334, "fusion_lon": 0.0, "is_disabled": 0}, {"rental_uris": {"android": "https://dc.lft.to/lastmile_qr_scan", "ios": "https://dc.lft.to/lastmile_qr_scan"}, "type": "electric_scooter", "lon": -77.0189175, "name": "33bf623f3abfbd40b91c5f266b5bad46", "bike_id": "33bf623f3abfbd40b91c5f266b5bad46", "fusion_lat": 0.0, "is_reserved": 0, "lat": 38.92942933333333, "fusion_lon": 0.0, "is_disabled": 0}, {"rental_uris": {"android": "https://dc.lft.to/lastmile_qr_scan", "ios": "https://dc.lft.to/lastmile_qr_scan"}, "type": "electric_scooter", "lon": -77.04347766666666, "name": "9056997e2e125d73f0f87e612d13e92d", "bike_id": "9056997e2e125d73f0f87e612d13e92d", "fusion_lat": 0.0, "is_reserved": 0, "lat": 38.921894, "fusion_lon": 0.0, "is_disabled": 0}, {"rental_uris": {"android": "https://dc.lft.to/lastmile_qr_scan", "ios": "https://dc.lft.to/lastmile_qr_scan"}, "type": "electric_bike", "lon": -76.98330366666667, "name": "7b70b55e10bc5d626906bb5b10943f7a", "bike_id": "7b70b55e10bc5d626906bb5b10943f7a", "fusion_lat": 0.0, "is_reserved": 0, "lat": 38.88988366666667, "fusion_lon": 0.0, "is_disabled": 0}, {"rental_uris": {"android": "https://dc.lft.to/lastmile_qr_scan", "ios": "https://dc.lft.to/lastmile_qr_scan"}, "type": "electric_scooter", "lon": -77.021985, "name": "0e9f3fd3e2388af31db553867267bcf5", "bike_id": "0e9f3fd3e2388af31db553867267bcf5", "fusion_lat": 0.0, "is_reserved": 0, "lat": 38.896320333333335, "fusion_lon": 0.0, "is_disabled": 0}, {"rental_uris": {"android": "https://dc.lft.to/lastmile_qr_scan", "ios": "https://dc.lft.to/lastmile_qr_scan"}, "type": "electric_scooter", "lon": -77.0308195, "name": "8e3b16633f83134440d091433e721f10", "bike_id": "8e3b16633f83134440d091433e721f10", "fusion_lat": 0.0, "is_reserved": 0, "lat": 38.927244, "fusion_lon": 0.0, "is_disabled": 0}, {"rental_uris": {"android": "https://dc.lft.to/lastmile_qr_scan", "ios": "https://dc.lft.to/lastmile_qr_scan"}, "type": "electric_bike", "lon": -76.94568783333334, "name": "b162291e052b3c0efeb020402128da3c", "bike_id": "b162291e052b3c0efeb020402128da3c", "fusion_lat": 0.0, "is_reserved": 0, "lat": 38.866226833333336, "fusion_lon": 0.0, "is_disabled": 0}, {"rental_uris": {"android": "https://dc.lft.to/lastmile_qr_scan", "ios": "https://dc.lft.to/lastmile_qr_scan"}, "type": "electric_scooter", "lon": -77.02392983333333, "name": "bfba3b606897d582d31cd79d5fde8e00", "bike_id": "bfba3b606897d582d31cd79d5fde8e00", "fusion_lat": 0.0, "is_reserved": 0, "lat": 38.9071565, "fusion_lon": 0.0, "is_disabled": 0}, {"rental_uris": {"android": "https://dc.lft.to/lastmile_qr_scan", "ios": "https://dc.lft.to/lastmile_qr_scan"}, "type": "electric_scooter", "lon": -76.99682983333334, "name": "03a53b94606094a701f03b054ad443c0", "bike_id": "03a53b94606094a701f03b054ad443c0", "fusion_lat": 0.0, "is_reserved": 0, "lat": 38.8869985, "fusion_lon": 0.0, "is_disabled": 0}, {"rental_uris": {"android": "https://dc.lft.to/lastmile_qr_scan", "ios": "https://dc.lft.to/lastmile_qr_scan"}, "type": "electric_scooter", "lon": -77.03848566666667, "name": "6898cefe1c37127e6bb9614e6e10f898", "bike_id": "6898cefe1c37127e6bb9614e6e10f898", "fusion_lat": 0.0, "is_reserved": 0, "lat": 38.91544316666667, "fusion_lon": 0.0, "is_disabled": 0}, {"rental_uris": {"android": "https://dc.lft.to/lastmile_qr_scan", "ios": "https://dc.lft.to/lastmile_qr_scan"}, "type": "electric_scooter", "lon": -77.04319933333333, "name": "61a781b834280c9345bcbd0da77d0848", "bike_id": "61a781b834280c9345bcbd0da77d0848", "fusion_lat": 0.0, "is_reserved": 0, "lat": 38.89226216666667, "fusion_lon": 0.0, "is_disabled": 0}, {"rental_uris": {"android": "https://dc.lft.to/lastmile_qr_scan", "ios": "https://dc.lft.to/lastmile_qr_scan"}, "type": "electric_bike", "lon": -77.0050645, "name": "3134b034b2fa6c12db1709a92dc65d7e", "bike_id": "3134b034b2fa6c12db1709a92dc65d7e", "fusion_lat": 0.0, "is_reserved": 0, "lat": 38.87534766666667, "fusion_lon": 0.0, "is_disabled": 0}, {"rental_uris": {"android": "https://dc.lft.to/lastmile_qr_scan", "ios": "https://dc.lft.to/lastmile_qr_scan"}, "type": "electric_scooter", "lon": -77.03765533333333, "name": "b72acd9e6cc259f4dd18b11a8dddcaed", "bike_id": "b72acd9e6cc259f4dd18b11a8dddcaed", "fusion_lat": 0.0, "is_reserved": 0, "lat": 38.90677983333333, "fusion_lon": 0.0, "is_disabled": 0}, {"rental_uris": {"android": "https://dc.lft.to/lastmile_qr_scan", "ios": "https://dc.lft.to/lastmile_qr_scan"}, "type": "electric_scooter", "lon": -76.99610366666667, "name": "55663d1157286413d991f5772346fcd1", "bike_id": "55663d1157286413d991f5772346fcd1", "fusion_lat": 0.0, "is_reserved": 0, "lat": 38.89762916666667, "fusion_lon": 0.0, "is_disabled": 0}, {"rental_uris": {"android": "https://dc.lft.to/lastmile_qr_scan", "ios": "https://dc.lft.to/lastmile_qr_scan"}, "type": "electric_scooter", "lon": -77.0689115, "name": "c78661fd4f0d048521ef2cef262ebe64", "bike_id": "c78661fd4f0d048521ef2cef262ebe64", "fusion_lat": 0.0, "is_reserved": 0, "lat": 38.90512, "fusion_lon": 0.0, "is_disabled": 0}, {"rental_uris": {"android": "https://dc.lft.to/lastmile_qr_scan", "ios": "https://dc.lft.to/lastmile_qr_scan"}, "type": "electric_scooter", "lon": -77.0183945, "name": "6098d83b0d6605eef92bfa28af8fdb6d", "bike_id": "6098d83b0d6605eef92bfa28af8fdb6d", "fusion_lat": 0.0, "is_reserved": 0, "lat": 38.90962233333333, "fusion_lon": 0.0, "is_disabled": 0}, {"rental_uris": {"android": "https://dc.lft.to/lastmile_qr_scan", "ios": "https://dc.lft.to/lastmile_qr_scan"}, "type": "electric_scooter", "lon": -77.02172033333333, "name": "ede36dbf77be204ffd2713e43204ab79", "bike_id": "ede36dbf77be204ffd2713e43204ab79", "fusion_lat": 0.0, "is_reserved": 0, "lat": 38.88748366666667, "fusion_lon": 0.0, "is_disabled": 0}, {"rental_uris": {"android": "https://dc.lft.to/lastmile_qr_scan", "ios": "https://dc.lft.to/lastmile_qr_scan"}, "type": "electric_scooter", "lon": -77.05073933333334, "name": "eaa5b25cad11c517408e95d7d7910d94", "bike_id": "eaa5b25cad11c517408e95d7d7910d94", "fusion_lat": 0.0, "is_reserved": 0, "lat": 38.924638333333334, "fusion_lon": 0.0, "is_disabled": 0}, {"rental_uris": {"android": "https://dc.lft.to/lastmile_qr_scan", "ios": "https://dc.lft.to/lastmile_qr_scan"}, "type": "electric_scooter", "lon": -77.06041116666667, "name": "179d4742f497663b0e921ece408772e0", "bike_id": "179d4742f497663b0e921ece408772e0", "fusion_lat": 0.0, "is_reserved": 0, "lat": 38.93915116666667, "fusion_lon": 0.0, "is_disabled": 0}, {"rental_uris": {"android": "https://dc.lft.to/lastmile_qr_scan", "ios": "https://dc.lft.to/lastmile_qr_scan"}, "type": "electric_scooter", "lon": -77.05137416666666, "name": "fd560a62902bf2ed0bfc0a817d2d0ab0", "bike_id": "fd560a62902bf2ed0bfc0a817d2d0ab0", "fusion_lat": 0.0, "is_reserved": 0, "lat": 38.90444683333333, "fusion_lon": 0.0, "is_disabled": 0}, {"rental_uris": {"android": "https://dc.lft.to/lastmile_qr_scan", "ios": "https://dc.lft.to/lastmile_qr_scan"}, "type": "electric_scooter", "lon": -77.02300116666666, "name": "42f3aa6b2aae37197526f2d0230b5a88", "bike_id": "42f3aa6b2aae37197526f2d0230b5a88", "fusion_lat": 0.0, "is_reserved": 0, "lat": 38.90883516666667, "fusion_lon": 0.0, "is_disabled": 0}, {"rental_uris": {"android": "https://dc.lft.to/lastmile_qr_scan", "ios": "https://dc.lft.to/lastmile_qr_scan"}, "type": "electric_scooter", "lon": -77.02979633333334, "name": "eb31653084d74f1aa2132b674423485f", "bike_id": "eb31653084d74f1aa2132b674423485f", "fusion_lat": 0.0, "is_reserved": 0, "lat": 38.90729483333333, "fusion_lon": 0.0, "is_disabled": 0}, {"rental_uris": {"android": "https://dc.lft.to/lastmile_qr_scan", "ios": "https://dc.lft.to/lastmile_qr_scan"}, "type": "electric_scooter", "lon": -77.04237566666667, "name": "cd8444f3019623002c624a25d4485f6d", "bike_id": "cd8444f3019623002c624a25d4485f6d", "fusion_lat": 0.0, "is_reserved": 0, "lat": 38.945544, "fusion_lon": 0.0, "is_disabled": 0}, {"rental_uris": {"android": "https://dc.lft.to/lastmile_qr_scan", "ios": "https://dc.lft.to/lastmile_qr_scan"}, "type": "electric_scooter", "lon": -77.0638675, "name": "70a5ddf78d7ff4e2e009e3ae7d907f7b", "bike_id": "70a5ddf78d7ff4e2e009e3ae7d907f7b", "fusion_lat": 0.0, "is_reserved": 0, "lat": 38.929078, "fusion_lon": 0.0, "is_disabled": 0}, {"rental_uris": {"android": "https://dc.lft.to/lastmile_qr_scan", "ios": "https://dc.lft.to/lastmile_qr_scan"}, "type": "electric_scooter", "lon": -77.00146933333333, "name": "037de6b2464fb0f8ef5a33d870d524cf", "bike_id": "037de6b2464fb0f8ef5a33d870d524cf", "fusion_lat": 0.0, "is_reserved": 0, "lat": 38.900149, "fusion_lon": 0.0, "is_disabled": 0}, {"rental_uris": {"android": "https://dc.lft.to/lastmile_qr_scan", "ios": "https://dc.lft.to/lastmile_qr_scan"}, "type": "electric_scooter", "lon": -77.02394433333333, "name": "a8f4490e14e862b6b59d7ee120b61fbf", "bike_id": "a8f4490e14e862b6b59d7ee120b61fbf", "fusion_lat": 0.0, "is_reserved": 0, "lat": 38.920773, "fusion_lon": 0.0, "is_disabled": 0}, {"rental_uris": {"android": "https://dc.lft.to/lastmile_qr_scan", "ios": "https://dc.lft.to/lastmile_qr_scan"}, "type": "electric_scooter", "lon": -77.04523583333334, "name": "15c96fdb279018b7adf4489bc56f7ee2", "bike_id": "15c96fdb279018b7adf4489bc56f7ee2", "fusion_lat": 0.0, "is_reserved": 0, "lat": 38.9183655, "fusion_lon": 0.0, "is_disabled": 0}, {"rental_uris": {"android": "https://dc.lft.to/lastmile_qr_scan", "ios": "https://dc.lft.to/lastmile_qr_scan"}, "type": "electric_scooter", "lon": -76.94122183333333, "name": "668e469b47e173c28ecb5404177743e5", "bike_id": "668e469b47e173c28ecb5404177743e5", "fusion_lat": 0.0, "is_reserved": 0, "lat": 38.9079565, "fusion_lon": 0.0, "is_disabled": 0}, {"rental_uris": {"android": "https://dc.lft.to/lastmile_qr_scan", "ios": "https://dc.lft.to/lastmile_qr_scan"}, "type": "electric_scooter", "lon": -77.03200133333333, "name": "43926300df97a373739d87e8737dcb6a", "bike_id": "43926300df97a373739d87e8737dcb6a", "fusion_lat": 0.0, "is_reserved": 0, "lat": 38.913428333333336, "fusion_lon": 0.0, "is_disabled": 0}, {"rental_uris": {"android": "https://dc.lft.to/lastmile_qr_scan", "ios": "https://dc.lft.to/lastmile_qr_scan"}, "type": "electric_scooter", "lon": -77.03665583333333, "name": "240c3cc0717648fb0d7c887a1fa51e4d", "bike_id": "240c3cc0717648fb0d7c887a1fa51e4d", "fusion_lat": 0.0, "is_reserved": 0, "lat": 38.913896, "fusion_lon": 0.0, "is_disabled": 0}, {"rental_uris": {"android": "https://dc.lft.to/lastmile_qr_scan", "ios": "https://dc.lft.to/lastmile_qr_scan"}, "type": "electric_scooter", "lon": -77.05518966666666, "name": "52c10f96db9bc61fbeefe70396b3bd5f", "bike_id": "52c10f96db9bc61fbeefe70396b3bd5f", "fusion_lat": 0.0, "is_reserved": 0, "lat": 38.94415333333333, "fusion_lon": 0.0, "is_disabled": 0}, {"rental_uris": {"android": "https://dc.lft.to/lastmile_qr_scan", "ios": "https://dc.lft.to/lastmile_qr_scan"}, "type": "electric_scooter", "lon": -76.94843333333333, "name": "6ad1bc150615485fdf6b55239cd1e67a", "bike_id": "6ad1bc150615485fdf6b55239cd1e67a", "fusion_lat": 0.0, "is_reserved": 0, "lat": 38.894875666666664, "fusion_lon": 0.0, "is_disabled": 0}, {"rental_uris": {"android": "https://dc.lft.to/lastmile_qr_scan", "ios": "https://dc.lft.to/lastmile_qr_scan"}, "type": "electric_scooter", "lon": -77.030068, "name": "a72a1c42a87c3b4195a895f88aee697a", "bike_id": "a72a1c42a87c3b4195a895f88aee697a", "fusion_lat": 0.0, "is_reserved": 0, "lat": 38.931240333333335, "fusion_lon": 0.0, "is_disabled": 0}, {"rental_uris": {"android": "https://dc.lft.to/lastmile_qr_scan", "ios": "https://dc.lft.to/lastmile_qr_scan"}, "type": "electric_scooter", "lon": -77.02409516666667, "name": "37735a2227974a3972d7208b340e455c", "bike_id": "37735a2227974a3972d7208b340e455c", "fusion_lat": 0.0, "is_reserved": 0, "lat": 38.893755, "fusion_lon": 0.0, "is_disabled": 0}, {"rental_uris": {"android": "https://dc.lft.to/lastmile_qr_scan", "ios": "https://dc.lft.to/lastmile_qr_scan"}, "type": "electric_scooter", "lon": -77.04585583333333, "name": "d248da3a3ef9080d27d6dbafedd40824", "bike_id": "d248da3a3ef9080d27d6dbafedd40824", "fusion_lat": 0.0, "is_reserved": 0, "lat": 38.92121783333333, "fusion_lon": 0.0, "is_disabled": 0}, {"rental_uris": {"android": "https://dc.lft.to/lastmile_qr_scan", "ios": "https://dc.lft.to/lastmile_qr_scan"}, "type": "electric_scooter", "lon": -77.00109966666666, "name": "a37e099ed3c203cb57e4dca2ce9f1984", "bike_id": "a37e099ed3c203cb57e4dca2ce9f1984", "fusion_lat": 0.0, "is_reserved": 0, "lat": 38.91633733333333, "fusion_lon": 0.0, "is_disabled": 0}, {"rental_uris": {"android": "https://dc.lft.to/lastmile_qr_scan", "ios": "https://dc.lft.to/lastmile_qr_scan"}, "type": "electric_scooter", "lon": -76.94857366666666, "name": "4799ba9cb2a8b79e5184797a8e1db55f", "bike_id": "4799ba9cb2a8b79e5184797a8e1db55f", "fusion_lat": 0.0, "is_reserved": 0, "lat": 38.883048, "fusion_lon": 0.0, "is_disabled": 0}, {"rental_uris": {"android": "https://dc.lft.to/lastmile_qr_scan", "ios": "https://dc.lft.to/lastmile_qr_scan"}, "type": "electric_scooter", "lon": -77.05882116666666, "name": "61780f56f6aa396d112a87863cdb41c6", "bike_id": "61780f56f6aa396d112a87863cdb41c6", "fusion_lat": 0.0, "is_reserved": 0, "lat": 38.936380666666665, "fusion_lon": 0.0, "is_disabled": 0}, {"rental_uris": {"android": "https://dc.lft.to/lastmile_qr_scan", "ios": "https://dc.lft.to/lastmile_qr_scan"}, "type": "electric_scooter", "lon": -76.98922316666666, "name": "d2cb9dead075cff8d1b3b12d771effbf", "bike_id": "d2cb9dead075cff8d1b3b12d771effbf", "fusion_lat": 0.0, "is_reserved": 0, "lat": 38.902253, "fusion_lon": 0.0, "is_disabled": 0}, {"rental_uris": {"android": "https://dc.lft.to/lastmile_qr_scan", "ios": "https://dc.lft.to/lastmile_qr_scan"}, "type": "electric_scooter", "lon": -76.98606066666666, "name": "bdf6de065d359d90bd424e9cf24c0ac1", "bike_id": "bdf6de065d359d90bd424e9cf24c0ac1", "fusion_lat": 0.0, "is_reserved": 0, "lat": 38.8544325, "fusion_lon": 0.0, "is_disabled": 0}, {"rental_uris": {"android": "https://dc.lft.to/lastmile_qr_scan", "ios": "https://dc.lft.to/lastmile_qr_scan"}, "type": "electric_bike", "lon": -76.99388283333333, "name": "a943fe897048e1b3c39075b2d6ecdd34", "bike_id": "a943fe897048e1b3c39075b2d6ecdd34", "fusion_lat": 0.0, "is_reserved": 0, "lat": 38.9228715, "fusion_lon": 0.0, "is_disabled": 0}, {"rental_uris": {"android": "https://dc.lft.to/lastmile_qr_scan", "ios": "https://dc.lft.to/lastmile_qr_scan"}, "type": "electric_scooter", "lon": -77.03146266666667, "name": "a079858c07c0d02c9d8ec997f77dd078", "bike_id": "a079858c07c0d02c9d8ec997f77dd078", "fusion_lat": 0.0, "is_reserved": 0, "lat": 38.88749266666667, "fusion_lon": 0.0, "is_disabled": 0}, {"rental_uris": {"android": "https://dc.lft.to/lastmile_qr_scan", "ios": "https://dc.lft.to/lastmile_qr_scan"}, "type": "electric_scooter", "lon": -77.03502383333333, "name": "7ef206ab4f6322a2d8ccfacba58d59ab", "bike_id": "7ef206ab4f6322a2d8ccfacba58d59ab", "fusion_lat": 0.0, "is_reserved": 0, "lat": 38.92634433333333, "fusion_lon": 0.0, "is_disabled": 0}, {"rental_uris": {"android": "https://dc.lft.to/lastmile_qr_scan", "ios": "https://dc.lft.to/lastmile_qr_scan"}, "type": "electric_scooter", "lon": -77.03429716666666, "name": "94b4ff7b046049981f4518b0b419f241", "bike_id": "94b4ff7b046049981f4518b0b419f241", "fusion_lat": 0.0, "is_reserved": 0, "lat": 38.90268916666667, "fusion_lon": 0.0, "is_disabled": 0}, {"rental_uris": {"android": "https://dc.lft.to/lastmile_qr_scan", "ios": "https://dc.lft.to/lastmile_qr_scan"}, "type": "electric_scooter", "lon": -77.03172916666666, "name": "ec211f300a5181104acf95b76b9f1597", "bike_id": "ec211f300a5181104acf95b76b9f1597", "fusion_lat": 0.0, "is_reserved": 0, "lat": 38.90051116666667, "fusion_lon": 0.0, "is_disabled": 0}, {"rental_uris": {"android": "https://dc.lft.to/lastmile_qr_scan", "ios": "https://dc.lft.to/lastmile_qr_scan"}, "type": "electric_scooter", "lon": -77.029462, "name": "1b84a7a2a7e7b5d072738c830f0cc8f4", "bike_id": "1b84a7a2a7e7b5d072738c830f0cc8f4", "fusion_lat": 0.0, "is_reserved": 0, "lat": 38.906608166666665, "fusion_lon": 0.0, "is_disabled": 0}, {"rental_uris": {"android": "https://dc.lft.to/lastmile_qr_scan", "ios": "https://dc.lft.to/lastmile_qr_scan"}, "type": "electric_scooter", "lon": -77.02369816666666, "name": "7b23ea9dfe6fd1916578b48cf9d9844a", "bike_id": "7b23ea9dfe6fd1916578b48cf9d9844a", "fusion_lat": 0.0, "is_reserved": 0, "lat": 38.917804333333336, "fusion_lon": 0.0, "is_disabled": 0}, {"rental_uris": {"android": "https://dc.lft.to/lastmile_qr_scan", "ios": "https://dc.lft.to/lastmile_qr_scan"}, "type": "electric_scooter", "lon": -77.03683533333333, "name": "a453492dcd4b5758993b34ede543e893", "bike_id": "a453492dcd4b5758993b34ede543e893", "fusion_lat": 0.0, "is_reserved": 0, "lat": 38.916786, "fusion_lon": 0.0, "is_disabled": 0}, {"rental_uris": {"android": "https://dc.lft.to/lastmile_qr_scan", "ios": "https://dc.lft.to/lastmile_qr_scan"}, "type": "electric_scooter", "lon": -77.03208433333333, "name": "d1564245030380c67cee4cb386c6576e", "bike_id": "d1564245030380c67cee4cb386c6576e", "fusion_lat": 0.0, "is_reserved": 0, "lat": 38.90767266666667, "fusion_lon": 0.0, "is_disabled": 0}, {"rental_uris": {"android": "https://dc.lft.to/lastmile_qr_scan", "ios": "https://dc.lft.to/lastmile_qr_scan"}, "type": "electric_scooter", "lon": -77.00198483333334, "name": "1b0b01d64e5d0a94e0e3ebf8aeb22975", "bike_id": "1b0b01d64e5d0a94e0e3ebf8aeb22975", "fusion_lat": 0.0, "is_reserved": 0, "lat": 38.9143315, "fusion_lon": 0.0, "is_disabled": 0}, {"rental_uris": {"android": "https://dc.lft.to/lastmile_qr_scan", "ios": "https://dc.lft.to/lastmile_qr_scan"}, "type": "electric_scooter", "lon": -77.01205833333333, "name": "04b74b9990503267528268623aeacf1c", "bike_id": "04b74b9990503267528268623aeacf1c", "fusion_lat": 0.0, "is_reserved": 0, "lat": 38.913082833333334, "fusion_lon": 0.0, "is_disabled": 0}, {"rental_uris": {"android": "https://dc.lft.to/lastmile_qr_scan", "ios": "https://dc.lft.to/lastmile_qr_scan"}, "type": "electric_bike", "lon": -77.07149766666667, "name": "9c3bd091b37d8bcdabc145ff4419d3af", "bike_id": "9c3bd091b37d8bcdabc145ff4419d3af", "fusion_lat": 0.0, "is_reserved": 0, "lat": 38.93343816666667, "fusion_lon": 0.0, "is_disabled": 0}, {"rental_uris": {"android": "https://dc.lft.to/lastmile_qr_scan", "ios": "https://dc.lft.to/lastmile_qr_scan"}, "type": "electric_scooter", "lon": -76.98319916666667, "name": "e88b2ae48c9d3791cbcc1967a59613e1", "bike_id": "e88b2ae48c9d3791cbcc1967a59613e1", "fusion_lat": 0.0, "is_reserved": 0, "lat": 38.9074605, "fusion_lon": 0.0, "is_disabled": 0}, {"rental_uris": {"android": "https://dc.lft.to/lastmile_qr_scan", "ios": "https://dc.lft.to/lastmile_qr_scan"}, "type": "electric_scooter", "lon": -77.0117335, "name": "201c0b1cbf24022d5b537fc7fc84a42f", "bike_id": "201c0b1cbf24022d5b537fc7fc84a42f", "fusion_lat": 0.0, "is_reserved": 0, "lat": 38.900315166666665, "fusion_lon": 0.0, "is_disabled": 0}, {"rental_uris": {"android": "https://dc.lft.to/lastmile_qr_scan", "ios": "https://dc.lft.to/lastmile_qr_scan"}, "type": "electric_scooter", "lon": -77.02685683333333, "name": "769e40e50eadd7b9e63562378b14a94d", "bike_id": "769e40e50eadd7b9e63562378b14a94d", "fusion_lat": 0.0, "is_reserved": 0, "lat": 38.909590333333334, "fusion_lon": 0.0, "is_disabled": 0}, {"rental_uris": {"android": "https://dc.lft.to/lastmile_qr_scan", "ios": "https://dc.lft.to/lastmile_qr_scan"}, "type": "electric_scooter", "lon": -77.02642266666666, "name": "07b1a9e54db06860e20d1d079714cd2d", "bike_id": "07b1a9e54db06860e20d1d079714cd2d", "fusion_lat": 0.0, "is_reserved": 0, "lat": 38.902531833333335, "fusion_lon": 0.0, "is_disabled": 0}, {"rental_uris": {"android": "https://dc.lft.to/lastmile_qr_scan", "ios": "https://dc.lft.to/lastmile_qr_scan"}, "type": "electric_bike", "lon": -77.10684366666666, "name": "7af83ae859c4f0c541182a9137c9e4b7", "bike_id": "7af83ae859c4f0c541182a9137c9e4b7", "fusion_lat": 0.0, "is_reserved": 0, "lat": 38.935820166666666, "fusion_lon": 0.0, "is_disabled": 0}, {"rental_uris": {"android": "https://dc.lft.to/lastmile_qr_scan", "ios": "https://dc.lft.to/lastmile_qr_scan"}, "type": "electric_scooter", "lon": -77.001967, "name": "3a2b805cd5e86892f44802bc3891394c", "bike_id": "3a2b805cd5e86892f44802bc3891394c", "fusion_lat": 0.0, "is_reserved": 0, "lat": 38.87835283333333, "fusion_lon": 0.0, "is_disabled": 0}, {"rental_uris": {"android": "https://dc.lft.to/lastmile_qr_scan", "ios": "https://dc.lft.to/lastmile_qr_scan"}, "type": "electric_scooter", "lon": -77.0139315, "name": "ef7894509c99d8c359bfbc4e407f005e", "bike_id": "ef7894509c99d8c359bfbc4e407f005e", "fusion_lat": 0.0, "is_reserved": 0, "lat": 38.88029216666666, "fusion_lon": 0.0, "is_disabled": 0}, {"rental_uris": {"android": "https://dc.lft.to/lastmile_qr_scan", "ios": "https://dc.lft.to/lastmile_qr_scan"}, "type": "electric_scooter", "lon": -77.04227583333333, "name": "fba2cb5afa85783db3cc7d7599126eb1", "bike_id": "fba2cb5afa85783db3cc7d7599126eb1", "fusion_lat": 0.0, "is_reserved": 0, "lat": 38.917093, "fusion_lon": 0.0, "is_disabled": 0}, {"rental_uris": {"android": "https://dc.lft.to/lastmile_qr_scan", "ios": "https://dc.lft.to/lastmile_qr_scan"}, "type": "electric_scooter", "lon": -77.021196, "name": "fafa4d9c3995240176da4ad1a8a015c0", "bike_id": "fafa4d9c3995240176da4ad1a8a015c0", "fusion_lat": 0.0, "is_reserved": 0, "lat": 38.89465583333333, "fusion_lon": 0.0, "is_disabled": 0}, {"rental_uris": {"android": "https://dc.lft.to/lastmile_qr_scan", "ios": "https://dc.lft.to/lastmile_qr_scan"}, "type": "electric_scooter", "lon": -77.0447985, "name": "a0702e8d6554bcdae98b7baa2d3e588e", "bike_id": "a0702e8d6554bcdae98b7baa2d3e588e", "fusion_lat": 0.0, "is_reserved": 0, "lat": 38.9036995, "fusion_lon": 0.0, "is_disabled": 0}, {"rental_uris": {"android": "https://dc.lft.to/lastmile_qr_scan", "ios": "https://dc.lft.to/lastmile_qr_scan"}, "type": "electric_scooter", "lon": -76.98533716666667, "name": "ae086ff4db0bc655065664d3ef2e1752", "bike_id": "ae086ff4db0bc655065664d3ef2e1752", "fusion_lat": 0.0, "is_reserved": 0, "lat": 38.858516333333334, "fusion_lon": 0.0, "is_disabled": 0}, {"rental_uris": {"android": "https://dc.lft.to/lastmile_qr_scan", "ios": "https://dc.lft.to/lastmile_qr_scan"}, "type": "electric_scooter", "lon": -77.07108416666667, "name": "fe421fd51bb500b5a175efcd71ab8136", "bike_id": "fe421fd51bb500b5a175efcd71ab8136", "fusion_lat": 0.0, "is_reserved": 0, "lat": 38.91419483333333, "fusion_lon": 0.0, "is_disabled": 0}, {"rental_uris": {"android": "https://dc.lft.to/lastmile_qr_scan", "ios": "https://dc.lft.to/lastmile_qr_scan"}, "type": "electric_scooter", "lon": -77.03053583333333, "name": "6e641422cea6f5aa0d585a7dbd0722e3", "bike_id": "6e641422cea6f5aa0d585a7dbd0722e3", "fusion_lat": 0.0, "is_reserved": 0, "lat": 38.9057175, "fusion_lon": 0.0, "is_disabled": 0}, {"rental_uris": {"android": "https://dc.lft.to/lastmile_qr_scan", "ios": "https://dc.lft.to/lastmile_qr_scan"}, "type": "electric_scooter", "lon": -77.03077816666666, "name": "c6c0d6c1bcbda7ca277a6d3e64c13669", "bike_id": "c6c0d6c1bcbda7ca277a6d3e64c13669", "fusion_lat": 0.0, "is_reserved": 0, "lat": 38.916541333333335, "fusion_lon": 0.0, "is_disabled": 0}, {"rental_uris": {"android": "https://dc.lft.to/lastmile_qr_scan", "ios": "https://dc.lft.to/lastmile_qr_scan"}, "type": "electric_scooter", "lon": -77.04497233333333, "name": "6ba4a5743bb50dafdae70d867e7be5fb", "bike_id": "6ba4a5743bb50dafdae70d867e7be5fb", "fusion_lat": 0.0, "is_reserved": 0, "lat": 38.896463833333335, "fusion_lon": 0.0, "is_disabled": 0}, {"rental_uris": {"android": "https://dc.lft.to/lastmile_qr_scan", "ios": "https://dc.lft.to/lastmile_qr_scan"}, "type": "electric_scooter", "lon": -76.99738883333333, "name": "7054428e114e97d236bbd25071530125", "bike_id": "7054428e114e97d236bbd25071530125", "fusion_lat": 0.0, "is_reserved": 0, "lat": 38.900519833333334, "fusion_lon": 0.0, "is_disabled": 0}, {"rental_uris": {"android": "https://dc.lft.to/lastmile_qr_scan", "ios": "https://dc.lft.to/lastmile_qr_scan"}, "type": "electric_scooter", "lon": -77.0487645, "name": "909d1af93570ab352a7d72eb696ca35a", "bike_id": "909d1af93570ab352a7d72eb696ca35a", "fusion_lat": 0.0, "is_reserved": 0, "lat": 38.892947666666664, "fusion_lon": 0.0, "is_disabled": 0}, {"rental_uris": {"android": "https://dc.lft.to/lastmile_qr_scan", "ios": "https://dc.lft.to/lastmile_qr_scan"}, "type": "electric_scooter", "lon": -76.979113, "name": "6531b527ee15c24581010ee527f6bcd3", "bike_id": "6531b527ee15c24581010ee527f6bcd3", "fusion_lat": 0.0, "is_reserved": 0, "lat": 38.89432266666667, "fusion_lon": 0.0, "is_disabled": 0}, {"rental_uris": {"android": "https://dc.lft.to/lastmile_qr_scan", "ios": "https://dc.lft.to/lastmile_qr_scan"}, "type": "electric_scooter", "lon": -77.02613516666666, "name": "a2761d2c86db0fc5c08acffb1f5930e2", "bike_id": "a2761d2c86db0fc5c08acffb1f5930e2", "fusion_lat": 0.0, "is_reserved": 0, "lat": 38.8859435, "fusion_lon": 0.0, "is_disabled": 0}, {"rental_uris": {"android": "https://dc.lft.to/lastmile_qr_scan", "ios": "https://dc.lft.to/lastmile_qr_scan"}, "type": "electric_scooter", "lon": -77.02168766666666, "name": "5f409d50bc3866aa8faab3391c99ba15", "bike_id": "5f409d50bc3866aa8faab3391c99ba15", "fusion_lat": 0.0, "is_reserved": 0, "lat": 38.89732516666667, "fusion_lon": 0.0, "is_disabled": 0}, {"rental_uris": {"android": "https://dc.lft.to/lastmile_qr_scan", "ios": "https://dc.lft.to/lastmile_qr_scan"}, "type": "electric_scooter", "lon": -77.0334795, "name": "efa8a9c53afba92e94901448ee73d5a4", "bike_id": "efa8a9c53afba92e94901448ee73d5a4", "fusion_lat": 0.0, "is_reserved": 0, "lat": 38.922446, "fusion_lon": 0.0, "is_disabled": 0}, {"rental_uris": {"android": "https://dc.lft.to/lastmile_qr_scan", "ios": "https://dc.lft.to/lastmile_qr_scan"}, "type": "electric_scooter", "lon": -77.0223065, "name": "501b40c4a73ab69bab8e1454e8154f68", "bike_id": "501b40c4a73ab69bab8e1454e8154f68", "fusion_lat": 0.0, "is_reserved": 0, "lat": 38.915683666666666, "fusion_lon": 0.0, "is_disabled": 0}, {"rental_uris": {"android": "https://dc.lft.to/lastmile_qr_scan", "ios": "https://dc.lft.to/lastmile_qr_scan"}, "type": "electric_bike", "lon": -77.126268, "name": "605da1a855b5fdb0c889042ee9136ebf", "bike_id": "605da1a855b5fdb0c889042ee9136ebf", "fusion_lat": 0.0, "is_reserved": 0, "lat": 39.058117833333334, "fusion_lon": 0.0, "is_disabled": 0}, {"rental_uris": {"android": "https://dc.lft.to/lastmile_qr_scan", "ios": "https://dc.lft.to/lastmile_qr_scan"}, "type": "electric_scooter", "lon": -77.03271066666667, "name": "141e85c87186554c7732efbb0efa178f", "bike_id": "141e85c87186554c7732efbb0efa178f", "fusion_lat": 0.0, "is_reserved": 0, "lat": 38.9207165, "fusion_lon": 0.0, "is_disabled": 0}, {"rental_uris": {"android": "https://dc.lft.to/lastmile_qr_scan", "ios": "https://dc.lft.to/lastmile_qr_scan"}, "type": "electric_bike", "lon": -76.9873955, "name": "bfe3794c332c789d7489cdd79c67f0e5", "bike_id": "bfe3794c332c789d7489cdd79c67f0e5", "fusion_lat": 0.0, "is_reserved": 0, "lat": 38.857927, "fusion_lon": 0.0, "is_disabled": 0}, {"rental_uris": {"android": "https://dc.lft.to/lastmile_qr_scan", "ios": "https://dc.lft.to/lastmile_qr_scan"}, "type": "electric_bike", "lon": -76.9809145, "name": "784fb5962416a4ea4ac00a191dd3f1b7", "bike_id": "784fb5962416a4ea4ac00a191dd3f1b7", "fusion_lat": 0.0, "is_reserved": 0, "lat": 38.95358, "fusion_lon": 0.0, "is_disabled": 0}, {"rental_uris": {"android": "https://dc.lft.to/lastmile_qr_scan", "ios": "https://dc.lft.to/lastmile_qr_scan"}, "type": "electric_scooter", "lon": -77.02958783333334, "name": "4d95b448f598cc1c98b958bceb8fdbd0", "bike_id": "4d95b448f598cc1c98b958bceb8fdbd0", "fusion_lat": 0.0, "is_reserved": 0, "lat": 38.89223616666666, "fusion_lon": 0.0, "is_disabled": 0}, {"rental_uris": {"android": "https://dc.lft.to/lastmile_qr_scan", "ios": "https://dc.lft.to/lastmile_qr_scan"}, "type": "electric_scooter", "lon": -77.03872433333333, "name": "c1f1e44344b33b722954cc30989829f3", "bike_id": "c1f1e44344b33b722954cc30989829f3", "fusion_lat": 0.0, "is_reserved": 0, "lat": 38.93243616666667, "fusion_lon": 0.0, "is_disabled": 0}, {"rental_uris": {"android": "https://dc.lft.to/lastmile_qr_scan", "ios": "https://dc.lft.to/lastmile_qr_scan"}, "type": "electric_scooter", "lon": -77.01732383333334, "name": "b2753675ff1f9653ad0f3c2a08189144", "bike_id": "b2753675ff1f9653ad0f3c2a08189144", "fusion_lat": 0.0, "is_reserved": 0, "lat": 38.94206666666667, "fusion_lon": 0.0, "is_disabled": 0}, {"rental_uris": {"android": "https://dc.lft.to/lastmile_qr_scan", "ios": "https://dc.lft.to/lastmile_qr_scan"}, "type": "electric_scooter", "lon": -77.04808083333333, "name": "c1b454d79cf388ffb0f15c45df7d3541", "bike_id": "c1b454d79cf388ffb0f15c45df7d3541", "fusion_lat": 0.0, "is_reserved": 0, "lat": 38.9192085, "fusion_lon": 0.0, "is_disabled": 0}, {"rental_uris": {"android": "https://dc.lft.to/lastmile_qr_scan", "ios": "https://dc.lft.to/lastmile_qr_scan"}, "type": "electric_scooter", "lon": -77.03064883333333, "name": "8cca823a4543670d77fb585b0cb9754e", "bike_id": "8cca823a4543670d77fb585b0cb9754e", "fusion_lat": 0.0, "is_reserved": 0, "lat": 38.880456833333334, "fusion_lon": 0.0, "is_disabled": 0}, {"rental_uris": {"android": "https://dc.lft.to/lastmile_qr_scan", "ios": "https://dc.lft.to/lastmile_qr_scan"}, "type": "electric_scooter", "lon": -77.03940016666667, "name": "4d7ab3788c244f0bffbc622e6477e384", "bike_id": "4d7ab3788c244f0bffbc622e6477e384", "fusion_lat": 0.0, "is_reserved": 0, "lat": 38.9169365, "fusion_lon": 0.0, "is_disabled": 0}, {"rental_uris": {"android": "https://dc.lft.to/lastmile_qr_scan", "ios": "https://dc.lft.to/lastmile_qr_scan"}, "type": "electric_scooter", "lon": -76.92947483333333, "name": "f577d335cd985d5182325383d2822fdc", "bike_id": "f577d335cd985d5182325383d2822fdc", "fusion_lat": 0.0, "is_reserved": 0, "lat": 38.898803666666666, "fusion_lon": 0.0, "is_disabled": 0}, {"rental_uris": {"android": "https://dc.lft.to/lastmile_qr_scan", "ios": "https://dc.lft.to/lastmile_qr_scan"}, "type": "electric_scooter", "lon": -77.00078233333333, "name": "ef2308cc06d153e8ba628cf7a2d5ed97", "bike_id": "ef2308cc06d153e8ba628cf7a2d5ed97", "fusion_lat": 0.0, "is_reserved": 0, "lat": 38.89730333333333, "fusion_lon": 0.0, "is_disabled": 0}, {"rental_uris": {"android": "https://dc.lft.to/lastmile_qr_scan", "ios": "https://dc.lft.to/lastmile_qr_scan"}, "type": "electric_scooter", "lon": -77.05001416666667, "name": "567ca5b157429ae4beedef32369cc56d", "bike_id": "567ca5b157429ae4beedef32369cc56d", "fusion_lat": 0.0, "is_reserved": 0, "lat": 38.900840333333335, "fusion_lon": 0.0, "is_disabled": 0}, {"rental_uris": {"android": "https://dc.lft.to/lastmile_qr_scan", "ios": "https://dc.lft.to/lastmile_qr_scan"}, "type": "electric_scooter", "lon": -77.03852, "name": "30bee7a378ed44928f38b85e536cec17", "bike_id": "30bee7a378ed44928f38b85e536cec17", "fusion_lat": 0.0, "is_reserved": 0, "lat": 38.91542616666667, "fusion_lon": 0.0, "is_disabled": 0}, {"rental_uris": {"android": "https://dc.lft.to/lastmile_qr_scan", "ios": "https://dc.lft.to/lastmile_qr_scan"}, "type": "electric_scooter", "lon": -76.991428, "name": "0fe97e87af134d5072faec9843dda9c2", "bike_id": "0fe97e87af134d5072faec9843dda9c2", "fusion_lat": 0.0, "is_reserved": 0, "lat": 38.87912683333333, "fusion_lon": 0.0, "is_disabled": 0}, {"rental_uris": {"android": "https://dc.lft.to/lastmile_qr_scan", "ios": "https://dc.lft.to/lastmile_qr_scan"}, "type": "electric_scooter", "lon": -77.03417133333333, "name": "71b47d0dfe697a9fa2333f1e1a88eafb", "bike_id": "71b47d0dfe697a9fa2333f1e1a88eafb", "fusion_lat": 0.0, "is_reserved": 0, "lat": 38.92945616666667, "fusion_lon": 0.0, "is_disabled": 0}, {"rental_uris": {"android": "https://dc.lft.to/lastmile_qr_scan", "ios": "https://dc.lft.to/lastmile_qr_scan"}, "type": "electric_scooter", "lon": -77.0120715, "name": "ff746f5018c7cbc2ec33c5b14f72b55b", "bike_id": "ff746f5018c7cbc2ec33c5b14f72b55b", "fusion_lat": 0.0, "is_reserved": 0, "lat": 38.8933415, "fusion_lon": 0.0, "is_disabled": 0}, {"rental_uris": {"android": "https://dc.lft.to/lastmile_qr_scan", "ios": "https://dc.lft.to/lastmile_qr_scan"}, "type": "electric_bike", "lon": -76.99734566666666, "name": "63a9f25dc3b7a15592e19544b445938e", "bike_id": "63a9f25dc3b7a15592e19544b445938e", "fusion_lat": 0.0, "is_reserved": 0, "lat": 38.890897833333334, "fusion_lon": 0.0, "is_disabled": 0}, {"rental_uris": {"android": "https://dc.lft.to/lastmile_qr_scan", "ios": "https://dc.lft.to/lastmile_qr_scan"}, "type": "electric_bike", "lon": -77.095646, "name": "3c8fd0705c85047527fd5181085f4ca4", "bike_id": "3c8fd0705c85047527fd5181085f4ca4", "fusion_lat": 0.0, "is_reserved": 0, "lat": 38.985355166666665, "fusion_lon": 0.0, "is_disabled": 0}, {"rental_uris": {"android": "https://dc.lft.to/lastmile_qr_scan", "ios": "https://dc.lft.to/lastmile_qr_scan"}, "type": "electric_scooter", "lon": -77.03652633333333, "name": "e5fc301bad42a8d1c8e8b68e49e5eb76", "bike_id": "e5fc301bad42a8d1c8e8b68e49e5eb76", "fusion_lat": 0.0, "is_reserved": 0, "lat": 38.92103133333333, "fusion_lon": 0.0, "is_disabled": 0}, {"rental_uris": {"android": "https://dc.lft.to/lastmile_qr_scan", "ios": "https://dc.lft.to/lastmile_qr_scan"}, "type": "electric_scooter", "lon": -77.02800116666667, "name": "9cd8e3934fe67f633c58efb8deee85a5", "bike_id": "9cd8e3934fe67f633c58efb8deee85a5", "fusion_lat": 0.0, "is_reserved": 0, "lat": 38.9062025, "fusion_lon": 0.0, "is_disabled": 0}, {"rental_uris": {"android": "https://dc.lft.to/lastmile_qr_scan", "ios": "https://dc.lft.to/lastmile_qr_scan"}, "type": "electric_scooter", "lon": -77.0344105, "name": "0dd285694b32db90bb858184d2f79426", "bike_id": "0dd285694b32db90bb858184d2f79426", "fusion_lat": 0.0, "is_reserved": 0, "lat": 38.91804066666667, "fusion_lon": 0.0, "is_disabled": 0}, {"rental_uris": {"android": "https://dc.lft.to/lastmile_qr_scan", "ios": "https://dc.lft.to/lastmile_qr_scan"}, "type": "electric_scooter", "lon": -77.03909283333333, "name": "4e4e8ae1671207d6a70be0a23e51e455", "bike_id": "4e4e8ae1671207d6a70be0a23e51e455", "fusion_lat": 0.0, "is_reserved": 0, "lat": 38.92479, "fusion_lon": 0.0, "is_disabled": 0}, {"rental_uris": {"android": "https://dc.lft.to/lastmile_qr_scan", "ios": "https://dc.lft.to/lastmile_qr_scan"}, "type": "electric_scooter", "lon": -77.03474583333333, "name": "2dc809d0fd0d9f6f620af42a4c1e3a34", "bike_id": "2dc809d0fd0d9f6f620af42a4c1e3a34", "fusion_lat": 0.0, "is_reserved": 0, "lat": 38.90257533333333, "fusion_lon": 0.0, "is_disabled": 0}, {"rental_uris": {"android": "https://dc.lft.to/lastmile_qr_scan", "ios": "https://dc.lft.to/lastmile_qr_scan"}, "type": "electric_bike", "lon": -76.99758583333333, "name": "797bf878aba1eebec382a7deb48a6d54", "bike_id": "797bf878aba1eebec382a7deb48a6d54", "fusion_lat": 0.0, "is_reserved": 0, "lat": 39.005947, "fusion_lon": 0.0, "is_disabled": 0}, {"rental_uris": {"android": "https://dc.lft.to/lastmile_qr_scan", "ios": "https://dc.lft.to/lastmile_qr_scan"}, "type": "electric_scooter", "lon": -77.01202183333334, "name": "75fe40ab3a6dd378046251b10331a30c", "bike_id": "75fe40ab3a6dd378046251b10331a30c", "fusion_lat": 0.0, "is_reserved": 0, "lat": 38.87155583333333, "fusion_lon": 0.0, "is_disabled": 0}, {"rental_uris": {"android": "https://dc.lft.to/lastmile_qr_scan", "ios": "https://dc.lft.to/lastmile_qr_scan"}, "type": "electric_scooter", "lon": -77.008825, "name": "38e0a65de9545dd9a8ecbe3d6ff00f20", "bike_id": "38e0a65de9545dd9a8ecbe3d6ff00f20", "fusion_lat": 0.0, "is_reserved": 0, "lat": 38.87629333333334, "fusion_lon": 0.0, "is_disabled": 0}, {"rental_uris": {"android": "https://dc.lft.to/lastmile_qr_scan", "ios": "https://dc.lft.to/lastmile_qr_scan"}, "type": "electric_bike", "lon": -77.131784, "name": "c11e23cc20a4a3465aacc557efcdc0fd", "bike_id": "c11e23cc20a4a3465aacc557efcdc0fd", "fusion_lat": 0.0, "is_reserved": 0, "lat": 38.86908616666667, "fusion_lon": 0.0, "is_disabled": 0}, {"rental_uris": {"android": "https://dc.lft.to/lastmile_qr_scan", "ios": "https://dc.lft.to/lastmile_qr_scan"}, "type": "electric_scooter", "lon": -77.02580533333334, "name": "59140f129ecf1ee25ca0ac1309de3643", "bike_id": "59140f129ecf1ee25ca0ac1309de3643", "fusion_lat": 0.0, "is_reserved": 0, "lat": 38.897073666666664, "fusion_lon": 0.0, "is_disabled": 0}, {"rental_uris": {"android": "https://dc.lft.to/lastmile_qr_scan", "ios": "https://dc.lft.to/lastmile_qr_scan"}, "type": "electric_scooter", "lon": -77.0467215, "name": "489d6b3069a915c92dc7515833e1d1ab", "bike_id": "489d6b3069a915c92dc7515833e1d1ab", "fusion_lat": 0.0, "is_reserved": 0, "lat": 38.91567966666667, "fusion_lon": 0.0, "is_disabled": 0}, {"rental_uris": {"android": "https://dc.lft.to/lastmile_qr_scan", "ios": "https://dc.lft.to/lastmile_qr_scan"}, "type": "electric_scooter", "lon": -76.9989535, "name": "4b98254adcbebb4fe8473cec892cb8fd", "bike_id": "4b98254adcbebb4fe8473cec892cb8fd", "fusion_lat": 0.0, "is_reserved": 0, "lat": 38.90043416666666, "fusion_lon": 0.0, "is_disabled": 0}, {"rental_uris": {"android": "https://dc.lft.to/lastmile_qr_scan", "ios": "https://dc.lft.to/lastmile_qr_scan"}, "type": "electric_scooter", "lon": -77.04017666666667, "name": "41eff58c950eca96dc86a4633103e4af", "bike_id": "41eff58c950eca96dc86a4633103e4af", "fusion_lat": 0.0, "is_reserved": 0, "lat": 38.924615333333335, "fusion_lon": 0.0, "is_disabled": 0}, {"rental_uris": {"android": "https://dc.lft.to/lastmile_qr_scan", "ios": "https://dc.lft.to/lastmile_qr_scan"}, "type": "electric_scooter", "lon": -77.0477155, "name": "4f16fa3e13e30819b1ef8beca99e1f9d", "bike_id": "4f16fa3e13e30819b1ef8beca99e1f9d", "fusion_lat": 0.0, "is_reserved": 0, "lat": 38.91751416666666, "fusion_lon": 0.0, "is_disabled": 0}, {"rental_uris": {"android": "https://dc.lft.to/lastmile_qr_scan", "ios": "https://dc.lft.to/lastmile_qr_scan"}, "type": "electric_scooter", "lon": -77.04145616666666, "name": "b5155785886b2a765bda99b2ae1736ba", "bike_id": "b5155785886b2a765bda99b2ae1736ba", "fusion_lat": 0.0, "is_reserved": 0, "lat": 38.919730666666666, "fusion_lon": 0.0, "is_disabled": 0}, {"rental_uris": {"android": "https://dc.lft.to/lastmile_qr_scan", "ios": "https://dc.lft.to/lastmile_qr_scan"}, "type": "electric_scooter", "lon": -76.997204, "name": "a95b941318219e647edfc9888c46e727", "bike_id": "a95b941318219e647edfc9888c46e727", "fusion_lat": 0.0, "is_reserved": 0, "lat": 38.898994333333334, "fusion_lon": 0.0, "is_disabled": 0}, {"rental_uris": {"android": "https://dc.lft.to/lastmile_qr_scan", "ios": "https://dc.lft.to/lastmile_qr_scan"}, "type": "electric_scooter", "lon": -76.99023783333334, "name": "6daff2580f2c49ee46bce503a45dc6f8", "bike_id": "6daff2580f2c49ee46bce503a45dc6f8", "fusion_lat": 0.0, "is_reserved": 0, "lat": 38.86406683333333, "fusion_lon": 0.0, "is_disabled": 0}, {"rental_uris": {"android": "https://dc.lft.to/lastmile_qr_scan", "ios": "https://dc.lft.to/lastmile_qr_scan"}, "type": "electric_scooter", "lon": -77.0390465, "name": "042381be2f071cf6e5514ed20aab852f", "bike_id": "042381be2f071cf6e5514ed20aab852f", "fusion_lat": 0.0, "is_reserved": 0, "lat": 38.914174833333334, "fusion_lon": 0.0, "is_disabled": 0}, {"rental_uris": {"android": "https://dc.lft.to/lastmile_qr_scan", "ios": "https://dc.lft.to/lastmile_qr_scan"}, "type": "electric_scooter", "lon": -77.06763383333333, "name": "8a8c959e6102b5fdb6db5336294fbfa5", "bike_id": "8a8c959e6102b5fdb6db5336294fbfa5", "fusion_lat": 0.0, "is_reserved": 0, "lat": 38.9035625, "fusion_lon": 0.0, "is_disabled": 0}, {"rental_uris": {"android": "https://dc.lft.to/lastmile_qr_scan", "ios": "https://dc.lft.to/lastmile_qr_scan"}, "type": "electric_scooter", "lon": -77.03050183333333, "name": "cbcb660c49a7c1e10c957562a01fb0f8", "bike_id": "cbcb660c49a7c1e10c957562a01fb0f8", "fusion_lat": 0.0, "is_reserved": 0, "lat": 38.884072833333335, "fusion_lon": 0.0, "is_disabled": 0}, {"rental_uris": {"android": "https://dc.lft.to/lastmile_qr_scan", "ios": "https://dc.lft.to/lastmile_qr_scan"}, "type": "electric_scooter", "lon": -76.99383016666667, "name": "699327b51ac1ff7c2d0feed5ca55610e", "bike_id": "699327b51ac1ff7c2d0feed5ca55610e", "fusion_lat": 0.0, "is_reserved": 0, "lat": 38.88709333333333, "fusion_lon": 0.0, "is_disabled": 0}, {"rental_uris": {"android": "https://dc.lft.to/lastmile_qr_scan", "ios": "https://dc.lft.to/lastmile_qr_scan"}, "type": "electric_scooter", "lon": -77.005919, "name": "011bc923bf787a5b26856563187b78bb", "bike_id": "011bc923bf787a5b26856563187b78bb", "fusion_lat": 0.0, "is_reserved": 0, "lat": 38.908254, "fusion_lon": 0.0, "is_disabled": 0}, {"rental_uris": {"android": "https://dc.lft.to/lastmile_qr_scan", "ios": "https://dc.lft.to/lastmile_qr_scan"}, "type": "electric_scooter", "lon": -77.04865866666667, "name": "cfd3b5973bc4a020698aa88444095b92", "bike_id": "cfd3b5973bc4a020698aa88444095b92", "fusion_lat": 0.0, "is_reserved": 0, "lat": 38.9008975, "fusion_lon": 0.0, "is_disabled": 0}, {"rental_uris": {"android": "https://dc.lft.to/lastmile_qr_scan", "ios": "https://dc.lft.to/lastmile_qr_scan"}, "type": "electric_scooter", "lon": -77.06105366666667, "name": "af3d25210e66452673652878100c71a6", "bike_id": "af3d25210e66452673652878100c71a6", "fusion_lat": 0.0, "is_reserved": 0, "lat": 38.9437125, "fusion_lon": 0.0, "is_disabled": 0}, {"rental_uris": {"android": "https://dc.lft.to/lastmile_qr_scan", "ios": "https://dc.lft.to/lastmile_qr_scan"}, "type": "electric_scooter", "lon": -77.03670016666666, "name": "3f8c984ea2618fd4a04b0f9a606bb683", "bike_id": "3f8c984ea2618fd4a04b0f9a606bb683", "fusion_lat": 0.0, "is_reserved": 0, "lat": 38.90272983333333, "fusion_lon": 0.0, "is_disabled": 0}, {"rental_uris": {"android": "https://dc.lft.to/lastmile_qr_scan", "ios": "https://dc.lft.to/lastmile_qr_scan"}, "type": "electric_scooter", "lon": -77.02022016666666, "name": "7912e6648f1e2ee7d0e3941bb9c1f937", "bike_id": "7912e6648f1e2ee7d0e3941bb9c1f937", "fusion_lat": 0.0, "is_reserved": 0, "lat": 38.9244785, "fusion_lon": 0.0, "is_disabled": 0}, {"rental_uris": {"android": "https://dc.lft.to/lastmile_qr_scan", "ios": "https://dc.lft.to/lastmile_qr_scan"}, "type": "electric_scooter", "lon": -76.99062066666667, "name": "295c074f80b84f81aea3a833120b3043", "bike_id": "295c074f80b84f81aea3a833120b3043", "fusion_lat": 0.0, "is_reserved": 0, "lat": 38.929466, "fusion_lon": 0.0, "is_disabled": 0}, {"rental_uris": {"android": "https://dc.lft.to/lastmile_qr_scan", "ios": "https://dc.lft.to/lastmile_qr_scan"}, "type": "electric_scooter", "lon": -76.980002, "name": "491b9f3c1fd3e559735d9a394d100ad0", "bike_id": "491b9f3c1fd3e559735d9a394d100ad0", "fusion_lat": 0.0, "is_reserved": 0, "lat": 38.853245333333334, "fusion_lon": 0.0, "is_disabled": 0}, {"rental_uris": {"android": "https://dc.lft.to/lastmile_qr_scan", "ios": "https://dc.lft.to/lastmile_qr_scan"}, "type": "electric_scooter", "lon": -77.034396, "name": "41173893ab1a53a37ba7e6e9a74cbf2f", "bike_id": "41173893ab1a53a37ba7e6e9a74cbf2f", "fusion_lat": 0.0, "is_reserved": 0, "lat": 38.918300333333335, "fusion_lon": 0.0, "is_disabled": 0}, {"rental_uris": {"android": "https://dc.lft.to/lastmile_qr_scan", "ios": "https://dc.lft.to/lastmile_qr_scan"}, "type": "electric_scooter", "lon": -77.034753, "name": "8afbca711a6b9a1ac3bcf35d98b4de76", "bike_id": "8afbca711a6b9a1ac3bcf35d98b4de76", "fusion_lat": 0.0, "is_reserved": 0, "lat": 38.9287635, "fusion_lon": 0.0, "is_disabled": 0}, {"rental_uris": {"android": "https://dc.lft.to/lastmile_qr_scan", "ios": "https://dc.lft.to/lastmile_qr_scan"}, "type": "electric_bike", "lon": -76.97948866666667, "name": "d3d04fe176aa3baf08f755269f75becc", "bike_id": "d3d04fe176aa3baf08f755269f75becc", "fusion_lat": 0.0, "is_reserved": 0, "lat": 38.898053166666664, "fusion_lon": 0.0, "is_disabled": 0}, {"rental_uris": {"android": "https://dc.lft.to/lastmile_qr_scan", "ios": "https://dc.lft.to/lastmile_qr_scan"}, "type": "electric_scooter", "lon": -77.06188833333333, "name": "d75645456c005477464217c31b6a21ef", "bike_id": "d75645456c005477464217c31b6a21ef", "fusion_lat": 0.0, "is_reserved": 0, "lat": 38.930174666666666, "fusion_lon": 0.0, "is_disabled": 0}, {"rental_uris": {"android": "https://dc.lft.to/lastmile_qr_scan", "ios": "https://dc.lft.to/lastmile_qr_scan"}, "type": "electric_scooter", "lon": -76.99025733333333, "name": "e634ef25a14272bd2ea03ea9869c1fab", "bike_id": "e634ef25a14272bd2ea03ea9869c1fab", "fusion_lat": 0.0, "is_reserved": 0, "lat": 38.86077016666667, "fusion_lon": 0.0, "is_disabled": 0}, {"rental_uris": {"android": "https://dc.lft.to/lastmile_qr_scan", "ios": "https://dc.lft.to/lastmile_qr_scan"}, "type": "electric_scooter", "lon": -77.014431, "name": "495eec030fec333ca46458ce0b469bd4", "bike_id": "495eec030fec333ca46458ce0b469bd4", "fusion_lat": 0.0, "is_reserved": 0, "lat": 38.877809666666664, "fusion_lon": 0.0, "is_disabled": 0}, {"rental_uris": {"android": "https://dc.lft.to/lastmile_qr_scan", "ios": "https://dc.lft.to/lastmile_qr_scan"}, "type": "electric_scooter", "lon": -77.02670233333333, "name": "25287e320d3e96fbef2db3ccf881f903", "bike_id": "25287e320d3e96fbef2db3ccf881f903", "fusion_lat": 0.0, "is_reserved": 0, "lat": 38.928731, "fusion_lon": 0.0, "is_disabled": 0}, {"rental_uris": {"android": "https://dc.lft.to/lastmile_qr_scan", "ios": "https://dc.lft.to/lastmile_qr_scan"}, "type": "electric_scooter", "lon": -77.03153066666667, "name": "3a53ad56222affa625197465655c428d", "bike_id": "3a53ad56222affa625197465655c428d", "fusion_lat": 0.0, "is_reserved": 0, "lat": 38.92792683333333, "fusion_lon": 0.0, "is_disabled": 0}, {"rental_uris": {"android": "https://dc.lft.to/lastmile_qr_scan", "ios": "https://dc.lft.to/lastmile_qr_scan"}, "type": "electric_bike", "lon": -77.344125, "name": "6fedfa59f4c7626c3acdcf6ca9e0a0d6", "bike_id": "6fedfa59f4c7626c3acdcf6ca9e0a0d6", "fusion_lat": 0.0, "is_reserved": 0, "lat": 38.94593833333333, "fusion_lon": 0.0, "is_disabled": 0}, {"rental_uris": {"android": "https://dc.lft.to/lastmile_qr_scan", "ios": "https://dc.lft.to/lastmile_qr_scan"}, "type": "electric_scooter", "lon": -77.02958466666666, "name": "5b1e634ac10e4eb64303d0b62544f73b", "bike_id": "5b1e634ac10e4eb64303d0b62544f73b", "fusion_lat": 0.0, "is_reserved": 0, "lat": 38.917224, "fusion_lon": 0.0, "is_disabled": 0}, {"rental_uris": {"android": "https://dc.lft.to/lastmile_qr_scan", "ios": "https://dc.lft.to/lastmile_qr_scan"}, "type": "electric_scooter", "lon": -76.9485565, "name": "80c77f04b341164b01ea20f5a6ac7b1e", "bike_id": "80c77f04b341164b01ea20f5a6ac7b1e", "fusion_lat": 0.0, "is_reserved": 0, "lat": 38.88301033333333, "fusion_lon": 0.0, "is_disabled": 0}, {"rental_uris": {"android": "https://dc.lft.to/lastmile_qr_scan", "ios": "https://dc.lft.to/lastmile_qr_scan"}, "type": "electric_scooter", "lon": -77.04877283333333, "name": "580a02ac9c343829484e9657861559bf", "bike_id": "580a02ac9c343829484e9657861559bf", "fusion_lat": 0.0, "is_reserved": 0, "lat": 38.90647216666667, "fusion_lon": 0.0, "is_disabled": 0}, {"rental_uris": {"android": "https://dc.lft.to/lastmile_qr_scan", "ios": "https://dc.lft.to/lastmile_qr_scan"}, "type": "electric_bike", "lon": -77.14325616666666, "name": "663fd1bdc41ba0e0212ec0c8a2cbd004", "bike_id": "663fd1bdc41ba0e0212ec0c8a2cbd004", "fusion_lat": 0.0, "is_reserved": 0, "lat": 39.054577333333334, "fusion_lon": 0.0, "is_disabled": 0}, {"rental_uris": {"android": "https://dc.lft.to/lastmile_qr_scan", "ios": "https://dc.lft.to/lastmile_qr_scan"}, "type": "electric_scooter", "lon": -77.01144466666666, "name": "25499564b073fe70c58036e89ba6b4ae", "bike_id": "25499564b073fe70c58036e89ba6b4ae", "fusion_lat": 0.0, "is_reserved": 0, "lat": 38.90315366666667, "fusion_lon": 0.0, "is_disabled": 0}, {"rental_uris": {"android": "https://dc.lft.to/lastmile_qr_scan", "ios": "https://dc.lft.to/lastmile_qr_scan"}, "type": "electric_bike", "lon": -77.10129333333333, "name": "4a6c2c436d412d29547150120635f2d4", "bike_id": "4a6c2c436d412d29547150120635f2d4", "fusion_lat": 0.0, "is_reserved": 0, "lat": 38.85213616666667, "fusion_lon": 0.0, "is_disabled": 0}, {"rental_uris": {"android": "https://dc.lft.to/lastmile_qr_scan", "ios": "https://dc.lft.to/lastmile_qr_scan"}, "type": "electric_scooter", "lon": -77.04380666666667, "name": "aac99716d9b93e966b70434714e42a35", "bike_id": "aac99716d9b93e966b70434714e42a35", "fusion_lat": 0.0, "is_reserved": 0, "lat": 38.923627, "fusion_lon": 0.0, "is_disabled": 0}, {"rental_uris": {"android": "https://dc.lft.to/lastmile_qr_scan", "ios": "https://dc.lft.to/lastmile_qr_scan"}, "type": "electric_scooter", "lon": -77.0307005, "name": "43e4f05d69f8a64137ac349f40e473a2", "bike_id": "43e4f05d69f8a64137ac349f40e473a2", "fusion_lat": 0.0, "is_reserved": 0, "lat": 38.9224885, "fusion_lon": 0.0, "is_disabled": 0}, {"rental_uris": {"android": "https://dc.lft.to/lastmile_qr_scan", "ios": "https://dc.lft.to/lastmile_qr_scan"}, "type": "electric_scooter", "lon": -77.03515016666667, "name": "f3fdb4c321f50bc3e8ccc13e46a48aa7", "bike_id": "f3fdb4c321f50bc3e8ccc13e46a48aa7", "fusion_lat": 0.0, "is_reserved": 0, "lat": 38.9035765, "fusion_lon": 0.0, "is_disabled": 0}, {"rental_uris": {"android": "https://dc.lft.to/lastmile_qr_scan", "ios": "https://dc.lft.to/lastmile_qr_scan"}, "type": "electric_scooter", "lon": -76.99492, "name": "99199ce5fcaee10645c6fc99d1d3a73d", "bike_id": "99199ce5fcaee10645c6fc99d1d3a73d", "fusion_lat": 0.0, "is_reserved": 0, "lat": 38.86221833333333, "fusion_lon": 0.0, "is_disabled": 0}, {"rental_uris": {"android": "https://dc.lft.to/lastmile_qr_scan", "ios": "https://dc.lft.to/lastmile_qr_scan"}, "type": "electric_scooter", "lon": -77.033888, "name": "a07fa7e37ebbbc779f3f99c50e9486ca", "bike_id": "a07fa7e37ebbbc779f3f99c50e9486ca", "fusion_lat": 0.0, "is_reserved": 0, "lat": 38.920554833333334, "fusion_lon": 0.0, "is_disabled": 0}, {"rental_uris": {"android": "https://dc.lft.to/lastmile_qr_scan", "ios": "https://dc.lft.to/lastmile_qr_scan"}, "type": "electric_scooter", "lon": -77.02976916666667, "name": "320134f0a87483f3271f5a506b76b893", "bike_id": "320134f0a87483f3271f5a506b76b893", "fusion_lat": 0.0, "is_reserved": 0, "lat": 38.9623225, "fusion_lon": 0.0, "is_disabled": 0}, {"rental_uris": {"android": "https://dc.lft.to/lastmile_qr_scan", "ios": "https://dc.lft.to/lastmile_qr_scan"}, "type": "electric_bike", "lon": -77.0211555, "name": "2fc9bb29c7739bf187b923d963b5136a", "bike_id": "2fc9bb29c7739bf187b923d963b5136a", "fusion_lat": 0.0, "is_reserved": 0, "lat": 38.935975666666664, "fusion_lon": 0.0, "is_disabled": 0}, {"rental_uris": {"android": "https://dc.lft.to/lastmile_qr_scan", "ios": "https://dc.lft.to/lastmile_qr_scan"}, "type": "electric_bike", "lon": -76.97907683333334, "name": "a38999598fe77d509cc03c2e7393d170", "bike_id": "a38999598fe77d509cc03c2e7393d170", "fusion_lat": 0.0, "is_reserved": 0, "lat": 38.888380166666664, "fusion_lon": 0.0, "is_disabled": 0}, {"rental_uris": {"android": "https://dc.lft.to/lastmile_qr_scan", "ios": "https://dc.lft.to/lastmile_qr_scan"}, "type": "electric_scooter", "lon": -77.017637, "name": "21890adddd5689863db111bd7fdb3902", "bike_id": "21890adddd5689863db111bd7fdb3902", "fusion_lat": 0.0, "is_reserved": 0, "lat": 38.872952833333336, "fusion_lon": 0.0, "is_disabled": 0}, {"rental_uris": {"android": "https://dc.lft.to/lastmile_qr_scan", "ios": "https://dc.lft.to/lastmile_qr_scan"}, "type": "electric_scooter", "lon": -76.99003616666667, "name": "b97d70da786993c5b5c464694e0ed931", "bike_id": "b97d70da786993c5b5c464694e0ed931", "fusion_lat": 0.0, "is_reserved": 0, "lat": 38.8650895, "fusion_lon": 0.0, "is_disabled": 0}, {"rental_uris": {"android": "https://dc.lft.to/lastmile_qr_scan", "ios": "https://dc.lft.to/lastmile_qr_scan"}, "type": "electric_scooter", "lon": -77.01129783333333, "name": "908ff1d2cc581771519978c06190dc41", "bike_id": "908ff1d2cc581771519978c06190dc41", "fusion_lat": 0.0, "is_reserved": 0, "lat": 38.90731366666667, "fusion_lon": 0.0, "is_disabled": 0}, {"rental_uris": {"android": "https://dc.lft.to/lastmile_qr_scan", "ios": "https://dc.lft.to/lastmile_qr_scan"}, "type": "electric_scooter", "lon": -77.0514365, "name": "d82fd7eecfbac825e01b3a90412c6bdd", "bike_id": "d82fd7eecfbac825e01b3a90412c6bdd", "fusion_lat": 0.0, "is_reserved": 0, "lat": 38.9080245, "fusion_lon": 0.0, "is_disabled": 0}, {"rental_uris": {"android": "https://dc.lft.to/lastmile_qr_scan", "ios": "https://dc.lft.to/lastmile_qr_scan"}, "type": "electric_scooter", "lon": -77.05298666666667, "name": "e501bd12d7d552211904d2575c210439", "bike_id": "e501bd12d7d552211904d2575c210439", "fusion_lat": 0.0, "is_reserved": 0, "lat": 38.927838, "fusion_lon": 0.0, "is_disabled": 0}, {"rental_uris": {"android": "https://dc.lft.to/lastmile_qr_scan", "ios": "https://dc.lft.to/lastmile_qr_scan"}, "type": "electric_scooter", "lon": -77.03889833333334, "name": "0e62858ae319d8b9bd3200672d6408b2", "bike_id": "0e62858ae319d8b9bd3200672d6408b2", "fusion_lat": 0.0, "is_reserved": 0, "lat": 38.922303, "fusion_lon": 0.0, "is_disabled": 0}, {"rental_uris": {"android": "https://dc.lft.to/lastmile_qr_scan", "ios": "https://dc.lft.to/lastmile_qr_scan"}, "type": "electric_scooter", "lon": -77.028617, "name": "051d757a968726aac4370ec830c8d220", "bike_id": "051d757a968726aac4370ec830c8d220", "fusion_lat": 0.0, "is_reserved": 0, "lat": 38.92228766666667, "fusion_lon": 0.0, "is_disabled": 0}, {"rental_uris": {"android": "https://dc.lft.to/lastmile_qr_scan", "ios": "https://dc.lft.to/lastmile_qr_scan"}, "type": "electric_scooter", "lon": -77.0326235, "name": "9afef3758cbedb3dc2fc31c5253824de", "bike_id": "9afef3758cbedb3dc2fc31c5253824de", "fusion_lat": 0.0, "is_reserved": 0, "lat": 38.936651, "fusion_lon": 0.0, "is_disabled": 0}, {"rental_uris": {"android": "https://dc.lft.to/lastmile_qr_scan", "ios": "https://dc.lft.to/lastmile_qr_scan"}, "type": "electric_scooter", "lon": -77.00228716666666, "name": "0ad52890cec3ee8505f60f0120454fb8", "bike_id": "0ad52890cec3ee8505f60f0120454fb8", "fusion_lat": 0.0, "is_reserved": 0, "lat": 38.90847316666667, "fusion_lon": 0.0, "is_disabled": 0}, {"rental_uris": {"android": "https://dc.lft.to/lastmile_qr_scan", "ios": "https://dc.lft.to/lastmile_qr_scan"}, "type": "electric_scooter", "lon": -76.94814383333333, "name": "36306832c43ed05e3f16ea1dae1755c1", "bike_id": "36306832c43ed05e3f16ea1dae1755c1", "fusion_lat": 0.0, "is_reserved": 0, "lat": 38.89346183333333, "fusion_lon": 0.0, "is_disabled": 0}, {"rental_uris": {"android": "https://dc.lft.to/lastmile_qr_scan", "ios": "https://dc.lft.to/lastmile_qr_scan"}, "type": "electric_scooter", "lon": -76.93431183333334, "name": "30642767f41ce19596595dc3c59accd7", "bike_id": "30642767f41ce19596595dc3c59accd7", "fusion_lat": 0.0, "is_reserved": 0, "lat": 38.89964333333333, "fusion_lon": 0.0, "is_disabled": 0}, {"rental_uris": {"android": "https://dc.lft.to/lastmile_qr_scan", "ios": "https://dc.lft.to/lastmile_qr_scan"}, "type": "electric_scooter", "lon": -77.01205766666666, "name": "a19727f89b12c804d2b93354e1ca2100", "bike_id": "a19727f89b12c804d2b93354e1ca2100", "fusion_lat": 0.0, "is_reserved": 0, "lat": 38.9066915, "fusion_lon": 0.0, "is_disabled": 0}, {"rental_uris": {"android": "https://dc.lft.to/lastmile_qr_scan", "ios": "https://dc.lft.to/lastmile_qr_scan"}, "type": "electric_scooter", "lon": -76.99603516666667, "name": "6f8d5f0b7898f8e579231c29e9b8d1ed", "bike_id": "6f8d5f0b7898f8e579231c29e9b8d1ed", "fusion_lat": 0.0, "is_reserved": 0, "lat": 38.92613816666667, "fusion_lon": 0.0, "is_disabled": 0}, {"rental_uris": {"android": "https://dc.lft.to/lastmile_qr_scan", "ios": "https://dc.lft.to/lastmile_qr_scan"}, "type": "electric_scooter", "lon": -76.991452, "name": "b00625280d5a51923e3f4d0c7306706b", "bike_id": "b00625280d5a51923e3f4d0c7306706b", "fusion_lat": 0.0, "is_reserved": 0, "lat": 38.882263333333334, "fusion_lon": 0.0, "is_disabled": 0}, {"rental_uris": {"android": "https://dc.lft.to/lastmile_qr_scan", "ios": "https://dc.lft.to/lastmile_qr_scan"}, "type": "electric_scooter", "lon": -77.0383855, "name": "1fb53e02b2f4172cc2d84d3835d36841", "bike_id": "1fb53e02b2f4172cc2d84d3835d36841", "fusion_lat": 0.0, "is_reserved": 0, "lat": 38.91565, "fusion_lon": 0.0, "is_disabled": 0}, {"rental_uris": {"android": "https://dc.lft.to/lastmile_qr_scan", "ios": "https://dc.lft.to/lastmile_qr_scan"}, "type": "electric_scooter", "lon": -77.0105395, "name": "a57f74239ea6abb8154bc6e82e8fa002", "bike_id": "a57f74239ea6abb8154bc6e82e8fa002", "fusion_lat": 0.0, "is_reserved": 0, "lat": 38.92990416666667, "fusion_lon": 0.0, "is_disabled": 0}, {"rental_uris": {"android": "https://dc.lft.to/lastmile_qr_scan", "ios": "https://dc.lft.to/lastmile_qr_scan"}, "type": "electric_scooter", "lon": -77.04317566666667, "name": "d118e27986e69a47d1ac9ae98615cc62", "bike_id": "d118e27986e69a47d1ac9ae98615cc62", "fusion_lat": 0.0, "is_reserved": 0, "lat": 38.89225533333333, "fusion_lon": 0.0, "is_disabled": 0}, {"rental_uris": {"android": "https://dc.lft.to/lastmile_qr_scan", "ios": "https://dc.lft.to/lastmile_qr_scan"}, "type": "electric_bike", "lon": -77.0647265, "name": "d416e53b1dd0b434510fe9073f37e784", "bike_id": "d416e53b1dd0b434510fe9073f37e784", "fusion_lat": 0.0, "is_reserved": 0, "lat": 38.973852, "fusion_lon": 0.0, "is_disabled": 0}, {"rental_uris": {"android": "https://dc.lft.to/lastmile_qr_scan", "ios": "https://dc.lft.to/lastmile_qr_scan"}, "type": "electric_scooter", "lon": -77.04675583333334, "name": "d9b22ddb0cf4abd4a0d7192171939845", "bike_id": "d9b22ddb0cf4abd4a0d7192171939845", "fusion_lat": 0.0, "is_reserved": 0, "lat": 38.90847516666667, "fusion_lon": 0.0, "is_disabled": 0}, {"rental_uris": {"android": "https://dc.lft.to/lastmile_qr_scan", "ios": "https://dc.lft.to/lastmile_qr_scan"}, "type": "electric_bike", "lon": -77.02586066666667, "name": "3afc2dd71ea71f30441e0d540793ef99", "bike_id": "3afc2dd71ea71f30441e0d540793ef99", "fusion_lat": 0.0, "is_reserved": 0, "lat": 38.982364, "fusion_lon": 0.0, "is_disabled": 0}, {"rental_uris": {"android": "https://dc.lft.to/lastmile_qr_scan", "ios": "https://dc.lft.to/lastmile_qr_scan"}, "type": "electric_scooter", "lon": -77.042258, "name": "12e17d3cba0247eda8ccc9650fbb4208", "bike_id": "12e17d3cba0247eda8ccc9650fbb4208", "fusion_lat": 0.0, "is_reserved": 0, "lat": 38.911087333333334, "fusion_lon": 0.0, "is_disabled": 0}, {"rental_uris": {"android": "https://dc.lft.to/lastmile_qr_scan", "ios": "https://dc.lft.to/lastmile_qr_scan"}, "type": "electric_scooter", "lon": -77.03344633333333, "name": "b5f09b17cc8419ba66dcb11fc86d6247", "bike_id": "b5f09b17cc8419ba66dcb11fc86d6247", "fusion_lat": 0.0, "is_reserved": 0, "lat": 38.903736333333335, "fusion_lon": 0.0, "is_disabled": 0}, {"rental_uris": {"android": "https://dc.lft.to/lastmile_qr_scan", "ios": "https://dc.lft.to/lastmile_qr_scan"}, "type": "electric_scooter", "lon": -76.9916875, "name": "c0c607ca034982f89de43a24a7c6dd20", "bike_id": "c0c607ca034982f89de43a24a7c6dd20", "fusion_lat": 0.0, "is_reserved": 0, "lat": 38.87924566666667, "fusion_lon": 0.0, "is_disabled": 0}, {"rental_uris": {"android": "https://dc.lft.to/lastmile_qr_scan", "ios": "https://dc.lft.to/lastmile_qr_scan"}, "type": "electric_scooter", "lon": -77.02349916666667, "name": "cb91c66fd91f6d2c0dfc2d8647fde2ca", "bike_id": "cb91c66fd91f6d2c0dfc2d8647fde2ca", "fusion_lat": 0.0, "is_reserved": 0, "lat": 38.9226405, "fusion_lon": 0.0, "is_disabled": 0}, {"rental_uris": {"android": "https://dc.lft.to/lastmile_qr_scan", "ios": "https://dc.lft.to/lastmile_qr_scan"}, "type": "electric_scooter", "lon": -76.99095766666667, "name": "afab56fb2491177f3254471e7d532f68", "bike_id": "afab56fb2491177f3254471e7d532f68", "fusion_lat": 0.0, "is_reserved": 0, "lat": 38.863576, "fusion_lon": 0.0, "is_disabled": 0}, {"rental_uris": {"android": "https://dc.lft.to/lastmile_qr_scan", "ios": "https://dc.lft.to/lastmile_qr_scan"}, "type": "electric_scooter", "lon": -77.02305316666667, "name": "c5849c748beaa94e387d846c88703c00", "bike_id": "c5849c748beaa94e387d846c88703c00", "fusion_lat": 0.0, "is_reserved": 0, "lat": 38.916148, "fusion_lon": 0.0, "is_disabled": 0}, {"rental_uris": {"android": "https://dc.lft.to/lastmile_qr_scan", "ios": "https://dc.lft.to/lastmile_qr_scan"}, "type": "electric_scooter", "lon": -77.0204855, "name": "3824954cf485d802e40d05551b1181ce", "bike_id": "3824954cf485d802e40d05551b1181ce", "fusion_lat": 0.0, "is_reserved": 0, "lat": 38.899695, "fusion_lon": 0.0, "is_disabled": 0}, {"rental_uris": {"android": "https://dc.lft.to/lastmile_qr_scan", "ios": "https://dc.lft.to/lastmile_qr_scan"}, "type": "electric_scooter", "lon": -77.016944, "name": "0429fed3d6bd7b51511db6f7095f528b", "bike_id": "0429fed3d6bd7b51511db6f7095f528b", "fusion_lat": 0.0, "is_reserved": 0, "lat": 38.91103733333333, "fusion_lon": 0.0, "is_disabled": 0}, {"rental_uris": {"android": "https://dc.lft.to/lastmile_qr_scan", "ios": "https://dc.lft.to/lastmile_qr_scan"}, "type": "electric_scooter", "lon": -77.01006933333333, "name": "13e1c5f36a883ef916c56bfd061a16d1", "bike_id": "13e1c5f36a883ef916c56bfd061a16d1", "fusion_lat": 0.0, "is_reserved": 0, "lat": 38.906581833333334, "fusion_lon": 0.0, "is_disabled": 0}, {"rental_uris": {"android": "https://dc.lft.to/lastmile_qr_scan", "ios": "https://dc.lft.to/lastmile_qr_scan"}, "type": "electric_bike", "lon": -76.952051, "name": "7d6ca90a36df27c99660578a6ccc0aaa", "bike_id": "7d6ca90a36df27c99660578a6ccc0aaa", "fusion_lat": 0.0, "is_reserved": 0, "lat": 38.936702333333336, "fusion_lon": 0.0, "is_disabled": 0}, {"rental_uris": {"android": "https://dc.lft.to/lastmile_qr_scan", "ios": "https://dc.lft.to/lastmile_qr_scan"}, "type": "electric_scooter", "lon": -77.02727033333333, "name": "c27ecdf99360f2da292cfa09204fed5c", "bike_id": "c27ecdf99360f2da292cfa09204fed5c", "fusion_lat": 0.0, "is_reserved": 0, "lat": 38.9398025, "fusion_lon": 0.0, "is_disabled": 0}, {"rental_uris": {"android": "https://dc.lft.to/lastmile_qr_scan", "ios": "https://dc.lft.to/lastmile_qr_scan"}, "type": "electric_scooter", "lon": -76.98726733333334, "name": "a50a60eee46fda7c737a9176aeeb6d7c", "bike_id": "a50a60eee46fda7c737a9176aeeb6d7c", "fusion_lat": 0.0, "is_reserved": 0, "lat": 38.867206, "fusion_lon": 0.0, "is_disabled": 0}, {"rental_uris": {"android": "https://dc.lft.to/lastmile_qr_scan", "ios": "https://dc.lft.to/lastmile_qr_scan"}, "type": "electric_scooter", "lon": -77.04878216666667, "name": "b1f7862ab70f0e1bf21baa8311b6cab1", "bike_id": "b1f7862ab70f0e1bf21baa8311b6cab1", "fusion_lat": 0.0, "is_reserved": 0, "lat": 38.90373366666667, "fusion_lon": 0.0, "is_disabled": 0}, {"rental_uris": {"android": "https://dc.lft.to/lastmile_qr_scan", "ios": "https://dc.lft.to/lastmile_qr_scan"}, "type": "electric_scooter", "lon": -77.06449416666666, "name": "2915e98cea4cd88f25e09bfbe42ede0b", "bike_id": "2915e98cea4cd88f25e09bfbe42ede0b", "fusion_lat": 0.0, "is_reserved": 0, "lat": 38.9098925, "fusion_lon": 0.0, "is_disabled": 0}, {"rental_uris": {"android": "https://dc.lft.to/lastmile_qr_scan", "ios": "https://dc.lft.to/lastmile_qr_scan"}, "type": "electric_scooter", "lon": -77.01997033333333, "name": "3d94fbfa314a4190de1b542ff843c6c4", "bike_id": "3d94fbfa314a4190de1b542ff843c6c4", "fusion_lat": 0.0, "is_reserved": 0, "lat": 38.90258433333333, "fusion_lon": 0.0, "is_disabled": 0}, {"rental_uris": {"android": "https://dc.lft.to/lastmile_qr_scan", "ios": "https://dc.lft.to/lastmile_qr_scan"}, "type": "electric_scooter", "lon": -77.0275795, "name": "8fa1e43c3fabceabadd5d5fca83d63a4", "bike_id": "8fa1e43c3fabceabadd5d5fca83d63a4", "fusion_lat": 0.0, "is_reserved": 0, "lat": 38.95398, "fusion_lon": 0.0, "is_disabled": 0}, {"rental_uris": {"android": "https://dc.lft.to/lastmile_qr_scan", "ios": "https://dc.lft.to/lastmile_qr_scan"}, "type": "electric_scooter", "lon": -77.01692316666667, "name": "093549d0f5cb8560be1f4c7926a1c97b", "bike_id": "093549d0f5cb8560be1f4c7926a1c97b", "fusion_lat": 0.0, "is_reserved": 0, "lat": 38.883273, "fusion_lon": 0.0, "is_disabled": 0}, {"rental_uris": {"android": "https://dc.lft.to/lastmile_qr_scan", "ios": "https://dc.lft.to/lastmile_qr_scan"}, "type": "electric_bike", "lon": -76.93186633333333, "name": "655bcb7ef029be4de73b3fe6a633a2c8", "bike_id": "655bcb7ef029be4de73b3fe6a633a2c8", "fusion_lat": 0.0, "is_reserved": 0, "lat": 38.89854916666667, "fusion_lon": 0.0, "is_disabled": 0}, {"rental_uris": {"android": "https://dc.lft.to/lastmile_qr_scan", "ios": "https://dc.lft.to/lastmile_qr_scan"}, "type": "electric_scooter", "lon": -76.99033166666666, "name": "cdb4794ac86a29802a173076145f8e2a", "bike_id": "cdb4794ac86a29802a173076145f8e2a", "fusion_lat": 0.0, "is_reserved": 0, "lat": 38.888747333333335, "fusion_lon": 0.0, "is_disabled": 0}, {"rental_uris": {"android": "https://dc.lft.to/lastmile_qr_scan", "ios": "https://dc.lft.to/lastmile_qr_scan"}, "type": "electric_scooter", "lon": -77.03443666666666, "name": "9fea149326611d6abeee63717daddbf0", "bike_id": "9fea149326611d6abeee63717daddbf0", "fusion_lat": 0.0, "is_reserved": 0, "lat": 38.92864383333333, "fusion_lon": 0.0, "is_disabled": 0}, {"rental_uris": {"android": "https://dc.lft.to/lastmile_qr_scan", "ios": "https://dc.lft.to/lastmile_qr_scan"}, "type": "electric_scooter", "lon": -77.02881316666667, "name": "c877fa36e95ad7a27459380d8eceb567", "bike_id": "c877fa36e95ad7a27459380d8eceb567", "fusion_lat": 0.0, "is_reserved": 0, "lat": 38.90365333333333, "fusion_lon": 0.0, "is_disabled": 0}, {"rental_uris": {"android": "https://dc.lft.to/lastmile_qr_scan", "ios": "https://dc.lft.to/lastmile_qr_scan"}, "type": "electric_scooter", "lon": -77.019681, "name": "dfb550f5b81c6a6cc39c3f72ea541ffc", "bike_id": "dfb550f5b81c6a6cc39c3f72ea541ffc", "fusion_lat": 0.0, "is_reserved": 0, "lat": 38.87627616666666, "fusion_lon": 0.0, "is_disabled": 0}, {"rental_uris": {"android": "https://dc.lft.to/lastmile_qr_scan", "ios": "https://dc.lft.to/lastmile_qr_scan"}, "type": "electric_scooter", "lon": -76.937866, "name": "e64b29826be0ebce864830099e1f5dbd", "bike_id": "e64b29826be0ebce864830099e1f5dbd", "fusion_lat": 0.0, "is_reserved": 0, "lat": 38.899710166666665, "fusion_lon": 0.0, "is_disabled": 0}, {"rental_uris": {"android": "https://dc.lft.to/lastmile_qr_scan", "ios": "https://dc.lft.to/lastmile_qr_scan"}, "type": "electric_scooter", "lon": -76.99027266666667, "name": "26a80301985df1ad7fee86b86b20e408", "bike_id": "26a80301985df1ad7fee86b86b20e408", "fusion_lat": 0.0, "is_reserved": 0, "lat": 38.8640585, "fusion_lon": 0.0, "is_disabled": 0}, {"rental_uris": {"android": "https://dc.lft.to/lastmile_qr_scan", "ios": "https://dc.lft.to/lastmile_qr_scan"}, "type": "electric_scooter", "lon": -77.038367, "name": "0134e92497ef7d71bcfcb43b6f265426", "bike_id": "0134e92497ef7d71bcfcb43b6f265426", "fusion_lat": 0.0, "is_reserved": 0, "lat": 38.90329966666667, "fusion_lon": 0.0, "is_disabled": 0}, {"rental_uris": {"android": "https://dc.lft.to/lastmile_qr_scan", "ios": "https://dc.lft.to/lastmile_qr_scan"}, "type": "electric_scooter", "lon": -76.99018966666667, "name": "939ce8dd76e876606a81b9e9ed4f341e", "bike_id": "939ce8dd76e876606a81b9e9ed4f341e", "fusion_lat": 0.0, "is_reserved": 0, "lat": 38.9015005, "fusion_lon": 0.0, "is_disabled": 0}, {"rental_uris": {"android": "https://dc.lft.to/lastmile_qr_scan", "ios": "https://dc.lft.to/lastmile_qr_scan"}, "type": "electric_scooter", "lon": -77.07080783333333, "name": "7aa0e82ec4e5083608c9534e8b7475f3", "bike_id": "7aa0e82ec4e5083608c9534e8b7475f3", "fusion_lat": 0.0, "is_reserved": 0, "lat": 38.93904833333333, "fusion_lon": 0.0, "is_disabled": 0}, {"rental_uris": {"android": "https://dc.lft.to/lastmile_qr_scan", "ios": "https://dc.lft.to/lastmile_qr_scan"}, "type": "electric_scooter", "lon": -77.02647216666666, "name": "e3b262f9007c307a916deabec87b9189", "bike_id": "e3b262f9007c307a916deabec87b9189", "fusion_lat": 0.0, "is_reserved": 0, "lat": 38.90253583333333, "fusion_lon": 0.0, "is_disabled": 0}, {"rental_uris": {"android": "https://dc.lft.to/lastmile_qr_scan", "ios": "https://dc.lft.to/lastmile_qr_scan"}, "type": "electric_bike", "lon": -77.069509, "name": "4f93adce5584f2b0116b46ee21b47130", "bike_id": "4f93adce5584f2b0116b46ee21b47130", "fusion_lat": 0.0, "is_reserved": 0, "lat": 38.9904105, "fusion_lon": 0.0, "is_disabled": 0}, {"rental_uris": {"android": "https://dc.lft.to/lastmile_qr_scan", "ios": "https://dc.lft.to/lastmile_qr_scan"}, "type": "electric_scooter", "lon": -77.03485083333334, "name": "0a3301ac778f59fdaac0c2e7524c3076", "bike_id": "0a3301ac778f59fdaac0c2e7524c3076", "fusion_lat": 0.0, "is_reserved": 0, "lat": 38.92479266666667, "fusion_lon": 0.0, "is_disabled": 0}, {"rental_uris": {"android": "https://dc.lft.to/lastmile_qr_scan", "ios": "https://dc.lft.to/lastmile_qr_scan"}, "type": "electric_scooter", "lon": -76.98244916666667, "name": "a5e750c45f51273df4fed91f5049b120", "bike_id": "a5e750c45f51273df4fed91f5049b120", "fusion_lat": 0.0, "is_reserved": 0, "lat": 38.9031175, "fusion_lon": 0.0, "is_disabled": 0}, {"rental_uris": {"android": "https://dc.lft.to/lastmile_qr_scan", "ios": "https://dc.lft.to/lastmile_qr_scan"}, "type": "electric_scooter", "lon": -77.02504316666666, "name": "1ec03dbc13c7755aa5f005875d354b69", "bike_id": "1ec03dbc13c7755aa5f005875d354b69", "fusion_lat": 0.0, "is_reserved": 0, "lat": 38.9264245, "fusion_lon": 0.0, "is_disabled": 0}, {"rental_uris": {"android": "https://dc.lft.to/lastmile_qr_scan", "ios": "https://dc.lft.to/lastmile_qr_scan"}, "type": "electric_bike", "lon": -77.02873116666666, "name": "fbc07a43559411c41b7de9429d822938", "bike_id": "fbc07a43559411c41b7de9429d822938", "fusion_lat": 0.0, "is_reserved": 0, "lat": 38.97946, "fusion_lon": 0.0, "is_disabled": 0}, {"rental_uris": {"android": "https://dc.lft.to/lastmile_qr_scan", "ios": "https://dc.lft.to/lastmile_qr_scan"}, "type": "electric_scooter", "lon": -77.03240883333333, "name": "f8af8e2f23ed75245ff300583d71242c", "bike_id": "f8af8e2f23ed75245ff300583d71242c", "fusion_lat": 0.0, "is_reserved": 0, "lat": 38.915947833333334, "fusion_lon": 0.0, "is_disabled": 0}, {"rental_uris": {"android": "https://dc.lft.to/lastmile_qr_scan", "ios": "https://dc.lft.to/lastmile_qr_scan"}, "type": "electric_scooter", "lon": -77.04610033333333, "name": "74ff3bf2a047fef68940d6984c8af839", "bike_id": "74ff3bf2a047fef68940d6984c8af839", "fusion_lat": 0.0, "is_reserved": 0, "lat": 38.90675316666667, "fusion_lon": 0.0, "is_disabled": 0}, {"rental_uris": {"android": "https://dc.lft.to/lastmile_qr_scan", "ios": "https://dc.lft.to/lastmile_qr_scan"}, "type": "electric_scooter", "lon": -77.02414383333333, "name": "08512f35f22099bc4c10e5679a8d1c56", "bike_id": "08512f35f22099bc4c10e5679a8d1c56", "fusion_lat": 0.0, "is_reserved": 0, "lat": 38.957348, "fusion_lon": 0.0, "is_disabled": 0}, {"rental_uris": {"android": "https://dc.lft.to/lastmile_qr_scan", "ios": "https://dc.lft.to/lastmile_qr_scan"}, "type": "electric_scooter", "lon": -76.94823983333333, "name": "c7185d80e011e52c899bcd9405f05449", "bike_id": "c7185d80e011e52c899bcd9405f05449", "fusion_lat": 0.0, "is_reserved": 0, "lat": 38.885157166666666, "fusion_lon": 0.0, "is_disabled": 0}, {"rental_uris": {"android": "https://dc.lft.to/lastmile_qr_scan", "ios": "https://dc.lft.to/lastmile_qr_scan"}, "type": "electric_scooter", "lon": -77.03843266666667, "name": "e79f4c734123b6076b9ef4c01ea25712", "bike_id": "e79f4c734123b6076b9ef4c01ea25712", "fusion_lat": 0.0, "is_reserved": 0, "lat": 38.91215033333334, "fusion_lon": 0.0, "is_disabled": 0}, {"rental_uris": {"android": "https://dc.lft.to/lastmile_qr_scan", "ios": "https://dc.lft.to/lastmile_qr_scan"}, "type": "electric_scooter", "lon": -77.01945933333333, "name": "6f4e43fd2943813705395ba9a78f5d32", "bike_id": "6f4e43fd2943813705395ba9a78f5d32", "fusion_lat": 0.0, "is_reserved": 0, "lat": 38.92255816666667, "fusion_lon": 0.0, "is_disabled": 0}, {"rental_uris": {"android": "https://dc.lft.to/lastmile_qr_scan", "ios": "https://dc.lft.to/lastmile_qr_scan"}, "type": "electric_scooter", "lon": -77.06271783333334, "name": "12e6633dfbf7df9a3ecef10ca48192e9", "bike_id": "12e6633dfbf7df9a3ecef10ca48192e9", "fusion_lat": 0.0, "is_reserved": 0, "lat": 38.906231, "fusion_lon": 0.0, "is_disabled": 0}, {"rental_uris": {"android": "https://dc.lft.to/lastmile_qr_scan", "ios": "https://dc.lft.to/lastmile_qr_scan"}, "type": "electric_scooter", "lon": -77.04158416666667, "name": "70a63e9a3929a09b55dcf9f15b4a503b", "bike_id": "70a63e9a3929a09b55dcf9f15b4a503b", "fusion_lat": 0.0, "is_reserved": 0, "lat": 38.89266033333333, "fusion_lon": 0.0, "is_disabled": 0}, {"rental_uris": {"android": "https://dc.lft.to/lastmile_qr_scan", "ios": "https://dc.lft.to/lastmile_qr_scan"}, "type": "electric_scooter", "lon": -77.02195283333333, "name": "2b81fb71254da626acc1fb9c502f2000", "bike_id": "2b81fb71254da626acc1fb9c502f2000", "fusion_lat": 0.0, "is_reserved": 0, "lat": 38.89496716666667, "fusion_lon": 0.0, "is_disabled": 0}, {"rental_uris": {"android": "https://dc.lft.to/lastmile_qr_scan", "ios": "https://dc.lft.to/lastmile_qr_scan"}, "type": "electric_scooter", "lon": -76.985968, "name": "c27527989cdf772f2f6794f6d8c264c7", "bike_id": "c27527989cdf772f2f6794f6d8c264c7", "fusion_lat": 0.0, "is_reserved": 0, "lat": 38.90011283333333, "fusion_lon": 0.0, "is_disabled": 0}, {"rental_uris": {"android": "https://dc.lft.to/lastmile_qr_scan", "ios": "https://dc.lft.to/lastmile_qr_scan"}, "type": "electric_scooter", "lon": -76.99854133333334, "name": "ee5d22183d13e44d0283fdf2f2bd9108", "bike_id": "ee5d22183d13e44d0283fdf2f2bd9108", "fusion_lat": 0.0, "is_reserved": 0, "lat": 38.9000255, "fusion_lon": 0.0, "is_disabled": 0}, {"rental_uris": {"android": "https://dc.lft.to/lastmile_qr_scan", "ios": "https://dc.lft.to/lastmile_qr_scan"}, "type": "electric_scooter", "lon": -77.02678266666666, "name": "cea921a7bab297578bdc09a590e32c3e", "bike_id": "cea921a7bab297578bdc09a590e32c3e", "fusion_lat": 0.0, "is_reserved": 0, "lat": 38.90962916666667, "fusion_lon": 0.0, "is_disabled": 0}, {"rental_uris": {"android": "https://dc.lft.to/lastmile_qr_scan", "ios": "https://dc.lft.to/lastmile_qr_scan"}, "type": "electric_scooter", "lon": -77.0489955, "name": "34297e981e0f572a3a0db0f988754cfa", "bike_id": "34297e981e0f572a3a0db0f988754cfa", "fusion_lat": 0.0, "is_reserved": 0, "lat": 38.89253883333333, "fusion_lon": 0.0, "is_disabled": 0}, {"rental_uris": {"android": "https://dc.lft.to/lastmile_qr_scan", "ios": "https://dc.lft.to/lastmile_qr_scan"}, "type": "electric_scooter", "lon": -77.02373816666666, "name": "2934e3298f1443923a8d0ce34fd92ac2", "bike_id": "2934e3298f1443923a8d0ce34fd92ac2", "fusion_lat": 0.0, "is_reserved": 0, "lat": 38.892221666666664, "fusion_lon": 0.0, "is_disabled": 0}, {"rental_uris": {"android": "https://dc.lft.to/lastmile_qr_scan", "ios": "https://dc.lft.to/lastmile_qr_scan"}, "type": "electric_scooter", "lon": -76.99585333333333, "name": "1243c08c4d9f57d8d0b2f44a9f46e0a1", "bike_id": "1243c08c4d9f57d8d0b2f44a9f46e0a1", "fusion_lat": 0.0, "is_reserved": 0, "lat": 38.9206975, "fusion_lon": 0.0, "is_disabled": 0}, {"rental_uris": {"android": "https://dc.lft.to/lastmile_qr_scan", "ios": "https://dc.lft.to/lastmile_qr_scan"}, "type": "electric_scooter", "lon": -77.00811833333333, "name": "7eccd67a95ae3d497cb7079decaa793a", "bike_id": "7eccd67a95ae3d497cb7079decaa793a", "fusion_lat": 0.0, "is_reserved": 0, "lat": 38.876433666666664, "fusion_lon": 0.0, "is_disabled": 0}, {"rental_uris": {"android": "https://dc.lft.to/lastmile_qr_scan", "ios": "https://dc.lft.to/lastmile_qr_scan"}, "type": "electric_scooter", "lon": -77.01821183333334, "name": "9d572633b181ecbec2f70418fadfda7b", "bike_id": "9d572633b181ecbec2f70418fadfda7b", "fusion_lat": 0.0, "is_reserved": 0, "lat": 38.90808783333333, "fusion_lon": 0.0, "is_disabled": 0}, {"rental_uris": {"android": "https://dc.lft.to/lastmile_qr_scan", "ios": "https://dc.lft.to/lastmile_qr_scan"}, "type": "electric_scooter", "lon": -77.04330316666666, "name": "f2e0df63d75e5392b999bb333237bf01", "bike_id": "f2e0df63d75e5392b999bb333237bf01", "fusion_lat": 0.0, "is_reserved": 0, "lat": 38.903336833333334, "fusion_lon": 0.0, "is_disabled": 0}, {"rental_uris": {"android": "https://dc.lft.to/lastmile_qr_scan", "ios": "https://dc.lft.to/lastmile_qr_scan"}, "type": "electric_bike", "lon": -77.012145, "name": "9c96be59d467cac7770ad787ba24dfc5", "bike_id": "9c96be59d467cac7770ad787ba24dfc5", "fusion_lat": 0.0, "is_reserved": 0, "lat": 38.870855166666665, "fusion_lon": 0.0, "is_disabled": 0}, {"rental_uris": {"android": "https://dc.lft.to/lastmile_qr_scan", "ios": "https://dc.lft.to/lastmile_qr_scan"}, "type": "electric_scooter", "lon": -76.96503766666666, "name": "17b0416f4b48b27b4e8a2ec83b408769", "bike_id": "17b0416f4b48b27b4e8a2ec83b408769", "fusion_lat": 0.0, "is_reserved": 0, "lat": 38.8765305, "fusion_lon": 0.0, "is_disabled": 0}, {"rental_uris": {"android": "https://dc.lft.to/lastmile_qr_scan", "ios": "https://dc.lft.to/lastmile_qr_scan"}, "type": "electric_scooter", "lon": -77.034984, "name": "6ff150886fe53441a76e577d78464df7", "bike_id": "6ff150886fe53441a76e577d78464df7", "fusion_lat": 0.0, "is_reserved": 0, "lat": 38.918798833333334, "fusion_lon": 0.0, "is_disabled": 0}, {"rental_uris": {"android": "https://dc.lft.to/lastmile_qr_scan", "ios": "https://dc.lft.to/lastmile_qr_scan"}, "type": "electric_scooter", "lon": -77.04387833333334, "name": "9cac3fff499f4ae9db5ba2e0d5c76dd6", "bike_id": "9cac3fff499f4ae9db5ba2e0d5c76dd6", "fusion_lat": 0.0, "is_reserved": 0, "lat": 38.9227735, "fusion_lon": 0.0, "is_disabled": 0}, {"rental_uris": {"android": "https://dc.lft.to/lastmile_qr_scan", "ios": "https://dc.lft.to/lastmile_qr_scan"}, "type": "electric_scooter", "lon": -77.04314183333334, "name": "6b2eba58c6d52c89943cc714a9451797", "bike_id": "6b2eba58c6d52c89943cc714a9451797", "fusion_lat": 0.0, "is_reserved": 0, "lat": 38.903860333333334, "fusion_lon": 0.0, "is_disabled": 0}, {"rental_uris": {"android": "https://dc.lft.to/lastmile_qr_scan", "ios": "https://dc.lft.to/lastmile_qr_scan"}, "type": "electric_scooter", "lon": -76.98308266666666, "name": "c1135330859bb0429148c4bb174b69e4", "bike_id": "c1135330859bb0429148c4bb174b69e4", "fusion_lat": 0.0, "is_reserved": 0, "lat": 38.8689105, "fusion_lon": 0.0, "is_disabled": 0}, {"rental_uris": {"android": "https://dc.lft.to/lastmile_qr_scan", "ios": "https://dc.lft.to/lastmile_qr_scan"}, "type": "electric_scooter", "lon": -77.04147416666666, "name": "21052cbdbc2430a9640429d15d95b0ee", "bike_id": "21052cbdbc2430a9640429d15d95b0ee", "fusion_lat": 0.0, "is_reserved": 0, "lat": 38.906276166666665, "fusion_lon": 0.0, "is_disabled": 0}, {"rental_uris": {"android": "https://dc.lft.to/lastmile_qr_scan", "ios": "https://dc.lft.to/lastmile_qr_scan"}, "type": "electric_bike", "lon": -77.1091095, "name": "eea86bd588148c5566173925005ccdd6", "bike_id": "eea86bd588148c5566173925005ccdd6", "fusion_lat": 0.0, "is_reserved": 0, "lat": 39.0520585, "fusion_lon": 0.0, "is_disabled": 0}, {"rental_uris": {"android": "https://dc.lft.to/lastmile_qr_scan", "ios": "https://dc.lft.to/lastmile_qr_scan"}, "type": "electric_scooter", "lon": -76.99031716666667, "name": "a8661ddd6d3b28661d0e3fec99486475", "bike_id": "a8661ddd6d3b28661d0e3fec99486475", "fusion_lat": 0.0, "is_reserved": 0, "lat": 38.8587075, "fusion_lon": 0.0, "is_disabled": 0}, {"rental_uris": {"android": "https://dc.lft.to/lastmile_qr_scan", "ios": "https://dc.lft.to/lastmile_qr_scan"}, "type": "electric_scooter", "lon": -76.95000566666667, "name": "8ce02913b76a76ef69e986920f22c536", "bike_id": "8ce02913b76a76ef69e986920f22c536", "fusion_lat": 0.0, "is_reserved": 0, "lat": 38.893930166666664, "fusion_lon": 0.0, "is_disabled": 0}, {"rental_uris": {"android": "https://dc.lft.to/lastmile_qr_scan", "ios": "https://dc.lft.to/lastmile_qr_scan"}, "type": "electric_scooter", "lon": -77.00746916666667, "name": "2d6b7061befe673e05801608f8a6aca4", "bike_id": "2d6b7061befe673e05801608f8a6aca4", "fusion_lat": 0.0, "is_reserved": 0, "lat": 38.87914583333333, "fusion_lon": 0.0, "is_disabled": 0}, {"rental_uris": {"android": "https://dc.lft.to/lastmile_qr_scan", "ios": "https://dc.lft.to/lastmile_qr_scan"}, "type": "electric_scooter", "lon": -77.04790033333333, "name": "69d91c3525f4b55fa07c590a73916a2f", "bike_id": "69d91c3525f4b55fa07c590a73916a2f", "fusion_lat": 0.0, "is_reserved": 0, "lat": 38.919165166666666, "fusion_lon": 0.0, "is_disabled": 0}, {"rental_uris": {"android": "https://dc.lft.to/lastmile_qr_scan", "ios": "https://dc.lft.to/lastmile_qr_scan"}, "type": "electric_scooter", "lon": -77.02709633333333, "name": "5d601bc6bcc72dd2008e8c68473e64e9", "bike_id": "5d601bc6bcc72dd2008e8c68473e64e9", "fusion_lat": 0.0, "is_reserved": 0, "lat": 38.92468783333333, "fusion_lon": 0.0, "is_disabled": 0}, {"rental_uris": {"android": "https://dc.lft.to/lastmile_qr_scan", "ios": "https://dc.lft.to/lastmile_qr_scan"}, "type": "electric_scooter", "lon": -77.032249, "name": "ef8c5ee46fe9bcae9f0d352ba0a85b31", "bike_id": "ef8c5ee46fe9bcae9f0d352ba0a85b31", "fusion_lat": 0.0, "is_reserved": 0, "lat": 38.90860583333333, "fusion_lon": 0.0, "is_disabled": 0}, {"rental_uris": {"android": "https://dc.lft.to/lastmile_qr_scan", "ios": "https://dc.lft.to/lastmile_qr_scan"}, "type": "electric_scooter", "lon": -77.030381, "name": "923c0b8226ab72cb94a66de3d4604f67", "bike_id": "923c0b8226ab72cb94a66de3d4604f67", "fusion_lat": 0.0, "is_reserved": 0, "lat": 38.884022333333334, "fusion_lon": 0.0, "is_disabled": 0}, {"rental_uris": {"android": "https://dc.lft.to/lastmile_qr_scan", "ios": "https://dc.lft.to/lastmile_qr_scan"}, "type": "electric_scooter", "lon": -76.97184216666666, "name": "e9ad0cbfaaa46e9bd66553c05d3526c7", "bike_id": "e9ad0cbfaaa46e9bd66553c05d3526c7", "fusion_lat": 0.0, "is_reserved": 0, "lat": 38.91267033333333, "fusion_lon": 0.0, "is_disabled": 0}, {"rental_uris": {"android": "https://dc.lft.to/lastmile_qr_scan", "ios": "https://dc.lft.to/lastmile_qr_scan"}, "type": "electric_scooter", "lon": -77.0545115, "name": "d820189d8b872f770371d962fe027c87", "bike_id": "d820189d8b872f770371d962fe027c87", "fusion_lat": 0.0, "is_reserved": 0, "lat": 38.929006, "fusion_lon": 0.0, "is_disabled": 0}, {"rental_uris": {"android": "https://dc.lft.to/lastmile_qr_scan", "ios": "https://dc.lft.to/lastmile_qr_scan"}, "type": "electric_scooter", "lon": -77.04355883333334, "name": "7819e69975cccd50c847121a9692176a", "bike_id": "7819e69975cccd50c847121a9692176a", "fusion_lat": 0.0, "is_reserved": 0, "lat": 38.921591666666664, "fusion_lon": 0.0, "is_disabled": 0}, {"rental_uris": {"android": "https://dc.lft.to/lastmile_qr_scan", "ios": "https://dc.lft.to/lastmile_qr_scan"}, "type": "electric_scooter", "lon": -77.03999733333333, "name": "a3725cdf570e593bc22e4233d22b97a8", "bike_id": "a3725cdf570e593bc22e4233d22b97a8", "fusion_lat": 0.0, "is_reserved": 0, "lat": 38.91416, "fusion_lon": 0.0, "is_disabled": 0}, {"rental_uris": {"android": "https://dc.lft.to/lastmile_qr_scan", "ios": "https://dc.lft.to/lastmile_qr_scan"}, "type": "electric_scooter", "lon": -77.02154116666667, "name": "d0a5139ec4912a9a38ea8e21aea067f3", "bike_id": "d0a5139ec4912a9a38ea8e21aea067f3", "fusion_lat": 0.0, "is_reserved": 0, "lat": 38.879265833333335, "fusion_lon": 0.0, "is_disabled": 0}, {"rental_uris": {"android": "https://dc.lft.to/lastmile_qr_scan", "ios": "https://dc.lft.to/lastmile_qr_scan"}, "type": "electric_scooter", "lon": -77.024015, "name": "adeadcfb4797727a36cf25474d8bdb00", "bike_id": "adeadcfb4797727a36cf25474d8bdb00", "fusion_lat": 0.0, "is_reserved": 0, "lat": 38.8839225, "fusion_lon": 0.0, "is_disabled": 0}, {"rental_uris": {"android": "https://dc.lft.to/lastmile_qr_scan", "ios": "https://dc.lft.to/lastmile_qr_scan"}, "type": "electric_bike", "lon": -76.9688705, "name": "11793c0736dce7e76b691821436eabea", "bike_id": "11793c0736dce7e76b691821436eabea", "fusion_lat": 0.0, "is_reserved": 0, "lat": 38.8460225, "fusion_lon": 0.0, "is_disabled": 0}, {"rental_uris": {"android": "https://dc.lft.to/lastmile_qr_scan", "ios": "https://dc.lft.to/lastmile_qr_scan"},