{"data": {"bikes": [{"fusion_lat": 0.0, "name": "596442267d1940468a8341d16d7225f8", "is_disabled": 0, "rental_uris": {"android": "https://dc.lft.to/lastmile_qr_scan", "ios": "https://dc.lft.to/lastmile_qr_scan"}, "fusion_lon": 0.0, "lat": 38.9141955, "bike_id": "596442267d1940468a8341d16d7225f8", "type": "electric_scooter", "is_reserved": 0, "lon": -77.0317255}, {"fusion_lat": 0.0, "name": "767a40efb6055946a0c3a004c3f674bf", "is_disabled": 0, "rental_uris": {"android": "https://dc.lft.to/lastmile_qr_scan", "ios": "https://dc.lft.to/lastmile_qr_scan"}, "fusion_lon": 0.0, "lat": 38.948958166666664, "bike_id": "767a40efb6055946a0c3a004c3f674bf", "type": "electric_bike", "is_reserved": 0, "lon": -76.96374183333333}, {"fusion_lat": 0.0, "name": "d126b271263445cb9bf5f189682c7f1d", "is_disabled": 0, "rental_uris": {"android": "https://dc.lft.to/lastmile_qr_scan", "ios": "https://dc.lft.to/lastmile_qr_scan"}, "fusion_lon": 0.0, "lat": 38.915802666666664, "bike_id": "d126b271263445cb9bf5f189682c7f1d", "type": "electric_scooter", "is_reserved": 0, "lon": -77.03195783333334}, {"fusion_lat": 0.0, "name": "9116aa941d5c9eb1596a60f10b56100c", "is_disabled": 0, "rental_uris": {"android": "https://dc.lft.to/lastmile_qr_scan", "ios": "https://dc.lft.to/lastmile_qr_scan"}, "fusion_lon": 0.0, "lat": 38.89971716666667, "bike_id": "9116aa941d5c9eb1596a60f10b56100c", "type": "electric_scooter", "is_reserved": 0, "lon": -77.0191035}, {"fusion_lat": 0.0, "name": "083e04059db200a23a865eaed5f89757", "is_disabled": 0, "rental_uris": {"android": "https://dc.lft.to/lastmile_qr_scan", "ios": "https://dc.lft.to/lastmile_qr_scan"}, "fusion_lon": 0.0, "lat": 38.94086633333333, "bike_id": "083e04059db200a23a865eaed5f89757", "type": "electric_scooter", "is_reserved": 0, "lon": -77.06184716666667}, {"fusion_lat": 0.0, "name": "f5a357bee7848a99dc74f77c899538ed", "is_disabled": 0, "rental_uris": {"android": "https://dc.lft.to/lastmile_qr_scan", "ios": "https://dc.lft.to/lastmile_qr_scan"}, "fusion_lon": 0.0, "lat": 38.883925833333336, "bike_id": "f5a357bee7848a99dc74f77c899538ed", "type": "electric_scooter", "is_reserved": 0, "lon": -76.930481}, {"fusion_lat": 0.0, "name": "fe235344cdfb9f28bdf573e8cb47210c", "is_disabled": 0, "rental_uris": {"android": "https://dc.lft.to/lastmile_qr_scan", "ios": "https://dc.lft.to/lastmile_qr_scan"}, "fusion_lon": 0.0, "lat": 38.916963833333334, "bike_id": "fe235344cdfb9f28bdf573e8cb47210c", "type": "electric_scooter", "is_reserved": 0, "lon": -77.02826116666667}, {"fusion_lat": 0.0, "name": "e60ef06ca42c2c5afceedee10dfc76f1", "is_disabled": 0, "rental_uris": {"android": "https://dc.lft.to/lastmile_qr_scan", "ios": "https://dc.lft.to/lastmile_qr_scan"}, "fusion_lon": 0.0, "lat": 38.930577666666665, "bike_id": "e60ef06ca42c2c5afceedee10dfc76f1", "type": "electric_scooter", "is_reserved": 0, "lon": -77.02321833333333}, {"fusion_lat": 0.0, "name": "78ca6a2dc5aee65d3711723bc3f7835b", "is_disabled": 0, "rental_uris": {"android": "https://dc.lft.to/lastmile_qr_scan", "ios": "https://dc.lft.to/lastmile_qr_scan"}, "fusion_lon": 0.0, "lat": 38.923107, "bike_id": "78ca6a2dc5aee65d3711723bc3f7835b", "type": "electric_scooter", "is_reserved": 0, "lon": -77.0440185}, {"fusion_lat": 0.0, "name": "7756587f6b3dd108b44f6032c6498c49", "is_disabled": 0, "rental_uris": {"android": "https://dc.lft.to/lastmile_qr_scan", "ios": "https://dc.lft.to/lastmile_qr_scan"}, "fusion_lon": 0.0, "lat": 38.898328666666664, "bike_id": "7756587f6b3dd108b44f6032c6498c49", "type": "electric_scooter", "is_reserved": 0, "lon": -77.03161916666667}, {"fusion_lat": 0.0, "name": "e6e563b0312cfdd5dfb3453f647ed8d9", "is_disabled": 0, "rental_uris": {"android": "https://dc.lft.to/lastmile_qr_scan", "ios": "https://dc.lft.to/lastmile_qr_scan"}, "fusion_lon": 0.0, "lat": 38.89586366666666, "bike_id": "e6e563b0312cfdd5dfb3453f647ed8d9", "type": "electric_scooter", "is_reserved": 0, "lon": -77.029844}, {"fusion_lat": 0.0, "name": "7b72a6d52d34b8528ba03979c2769b21", "is_disabled": 0, "rental_uris": {"android": "https://dc.lft.to/lastmile_qr_scan", "ios": "https://dc.lft.to/lastmile_qr_scan"}, "fusion_lon": 0.0, "lat": 38.9002465, "bike_id": "7b72a6d52d34b8528ba03979c2769b21", "type": "electric_scooter", "is_reserved": 0, "lon": -77.01189633333334}, {"fusion_lat": 0.0, "name": "fa0f2d98d39200e39d6c114df899e7e3", "is_disabled": 0, "rental_uris": {"android": "https://dc.lft.to/lastmile_qr_scan", "ios": "https://dc.lft.to/lastmile_qr_scan"}, "fusion_lon": 0.0, "lat": 38.92097483333333, "bike_id": "fa0f2d98d39200e39d6c114df899e7e3", "type": "electric_scooter", "is_reserved": 0, "lon": -77.02310466666667}, {"fusion_lat": 0.0, "name": "a1c9815e040dee981e2db5e809da01c5", "is_disabled": 0, "rental_uris": {"android": "https://dc.lft.to/lastmile_qr_scan", "ios": "https://dc.lft.to/lastmile_qr_scan"}, "fusion_lon": 0.0, "lat": 38.8874, "bike_id": "a1c9815e040dee981e2db5e809da01c5", "type": "electric_scooter", "is_reserved": 0, "lon": -77.025793}, {"fusion_lat": 0.0, "name": "6d80c08f05891503ac84af22182a05af", "is_disabled": 0, "rental_uris": {"android": "https://dc.lft.to/lastmile_qr_scan", "ios": "https://dc.lft.to/lastmile_qr_scan"}, "fusion_lon": 0.0, "lat": 38.8849955, "bike_id": "6d80c08f05891503ac84af22182a05af", "type": "electric_scooter", "is_reserved": 0, "lon": -77.020786}, {"fusion_lat": 0.0, "name": "aa7df872a666c520d74bddca42837a14", "is_disabled": 0, "rental_uris": {"android": "https://dc.lft.to/lastmile_qr_scan", "ios": "https://dc.lft.to/lastmile_qr_scan"}, "fusion_lon": 0.0, "lat": 38.8833025, "bike_id": "aa7df872a666c520d74bddca42837a14", "type": "electric_scooter", "is_reserved": 0, "lon": -77.01777483333333}, {"fusion_lat": 0.0, "name": "5b4a9a0bb499243a36952772ab9e1079", "is_disabled": 0, "rental_uris": {"android": "https://dc.lft.to/lastmile_qr_scan", "ios": "https://dc.lft.to/lastmile_qr_scan"}, "fusion_lon": 0.0, "lat": 38.92375066666666, "bike_id": "5b4a9a0bb499243a36952772ab9e1079", "type": "electric_scooter", "is_reserved": 0, "lon": -77.031348}, {"fusion_lat": 0.0, "name": "9705d2a69589aa0a1018da075181a12a", "is_disabled": 0, "rental_uris": {"android": "https://dc.lft.to/lastmile_qr_scan", "ios": "https://dc.lft.to/lastmile_qr_scan"}, "fusion_lon": 0.0, "lat": 38.9170105, "bike_id": "9705d2a69589aa0a1018da075181a12a", "type": "electric_scooter", "is_reserved": 0, "lon": -77.03321183333334}, {"fusion_lat": 0.0, "name": "3e438419ce61c7b4e0155f44a36a973e", "is_disabled": 0, "rental_uris": {"android": "https://dc.lft.to/lastmile_qr_scan", "ios": "https://dc.lft.to/lastmile_qr_scan"}, "fusion_lon": 0.0, "lat": 38.88984333333333, "bike_id": "3e438419ce61c7b4e0155f44a36a973e", "type": "electric_scooter", "is_reserved": 0, "lon": -76.987406}, {"fusion_lat": 0.0, "name": "6b6682dfee26899c30e5eb2d9e44c0d0", "is_disabled": 0, "rental_uris": {"android": "https://dc.lft.to/lastmile_qr_scan", "ios": "https://dc.lft.to/lastmile_qr_scan"}, "fusion_lon": 0.0, "lat": 38.89867383333333, "bike_id": "6b6682dfee26899c30e5eb2d9e44c0d0", "type": "electric_scooter", "is_reserved": 0, "lon": -77.03959266666666}, {"fusion_lat": 0.0, "name": "824bdceb8425da673ce07e0cccda7bae", "is_disabled": 0, "rental_uris": {"android": "https://dc.lft.to/lastmile_qr_scan", "ios": "https://dc.lft.to/lastmile_qr_scan"}, "fusion_lon": 0.0, "lat": 38.930990666666666, "bike_id": "824bdceb8425da673ce07e0cccda7bae", "type": "electric_scooter", "is_reserved": 0, "lon": -77.02551083333333}, {"fusion_lat": 0.0, "name": "6d427e87e190081f24dd8363aa452277", "is_disabled": 0, "rental_uris": {"android": "https://dc.lft.to/lastmile_qr_scan", "ios": "https://dc.lft.to/lastmile_qr_scan"}, "fusion_lon": 0.0, "lat": 38.956394, "bike_id": "6d427e87e190081f24dd8363aa452277", "type": "electric_scooter", "is_reserved": 0, "lon": -77.03303283333334}, {"fusion_lat": 0.0, "name": "646889a9b21b9106b8d61b07636ddf13", "is_disabled": 0, "rental_uris": {"android": "https://dc.lft.to/lastmile_qr_scan", "ios": "https://dc.lft.to/lastmile_qr_scan"}, "fusion_lon": 0.0, "lat": 38.917727666666664, "bike_id": "646889a9b21b9106b8d61b07636ddf13", "type": "electric_scooter", "is_reserved": 0, "lon": -77.041007}, {"fusion_lat": 0.0, "name": "3ce84cad161180c955a6bc67a5f7bc44", "is_disabled": 0, "rental_uris": {"android": "https://dc.lft.to/lastmile_qr_scan", "ios": "https://dc.lft.to/lastmile_qr_scan"}, "fusion_lon": 0.0, "lat": 38.8644685, "bike_id": "3ce84cad161180c955a6bc67a5f7bc44", "type": "electric_scooter", "is_reserved": 0, "lon": -76.97998866666667}, {"fusion_lat": 0.0, "name": "eefb075bbddea162a2bf444c10b39992", "is_disabled": 0, "rental_uris": {"android": "https://dc.lft.to/lastmile_qr_scan", "ios": "https://dc.lft.to/lastmile_qr_scan"}, "fusion_lon": 0.0, "lat": 38.89222816666667, "bike_id": "eefb075bbddea162a2bf444c10b39992", "type": "electric_scooter", "is_reserved": 0, "lon": -77.02668333333334}, {"fusion_lat": 0.0, "name": "96a707a098b792a25da9dde580401f4d", "is_disabled": 0, "rental_uris": {"android": "https://dc.lft.to/lastmile_qr_scan", "ios": "https://dc.lft.to/lastmile_qr_scan"}, "fusion_lon": 0.0, "lat": 38.9026965, "bike_id": "96a707a098b792a25da9dde580401f4d", "type": "electric_scooter", "is_reserved": 0, "lon": -77.0384825}, {"fusion_lat": 0.0, "name": "c3d51e841c4d5a6d9d87e12fd720881e", "is_disabled": 0, "rental_uris": {"android": "https://dc.lft.to/lastmile_qr_scan", "ios": "https://dc.lft.to/lastmile_qr_scan"}, "fusion_lon": 0.0, "lat": 38.84728, "bike_id": "c3d51e841c4d5a6d9d87e12fd720881e", "type": "electric_scooter", "is_reserved": 0, "lon": -76.9825105}, {"fusion_lat": 0.0, "name": "d4f2ca4c9147187740aca8716df3389b", "is_disabled": 0, "rental_uris": {"android": "https://dc.lft.to/lastmile_qr_scan", "ios": "https://dc.lft.to/lastmile_qr_scan"}, "fusion_lon": 0.0, "lat": 38.91561333333333, "bike_id": "d4f2ca4c9147187740aca8716df3389b", "type": "electric_scooter", "is_reserved": 0, "lon": -77.03161233333333}, {"fusion_lat": 0.0, "name": "a25e147e13170bf874500d6e1b96472f", "is_disabled": 0, "rental_uris": {"android": "https://dc.lft.to/lastmile_qr_scan", "ios": "https://dc.lft.to/lastmile_qr_scan"}, "fusion_lon": 0.0, "lat": 38.87879566666667, "bike_id": "a25e147e13170bf874500d6e1b96472f", "type": "electric_scooter", "is_reserved": 0, "lon": -77.0231745}, {"fusion_lat": 0.0, "name": "6ce2399e66c14088d813bcf919a7df4a", "is_disabled": 0, "rental_uris": {"android": "https://dc.lft.to/lastmile_qr_scan", "ios": "https://dc.lft.to/lastmile_qr_scan"}, "fusion_lon": 0.0, "lat": 38.92078583333333, "bike_id": "6ce2399e66c14088d813bcf919a7df4a", "type": "electric_scooter", "is_reserved": 0, "lon": -77.01834083333334}, {"fusion_lat": 0.0, "name": "ca0d8e8ea8cad26a1b947e0e0af63d8b", "is_disabled": 0, "rental_uris": {"android": "https://dc.lft.to/lastmile_qr_scan", "ios": "https://dc.lft.to/lastmile_qr_scan"}, "fusion_lon": 0.0, "lat": 38.911006, "bike_id": "ca0d8e8ea8cad26a1b947e0e0af63d8b", "type": "electric_scooter", "is_reserved": 0, "lon": -77.0448685}, {"fusion_lat": 0.0, "name": "a4c7ac7f3b8125bc5ecf6db4b7ff4be0", "is_disabled": 0, "rental_uris": {"android": "https://dc.lft.to/lastmile_qr_scan", "ios": "https://dc.lft.to/lastmile_qr_scan"}, "fusion_lon": 0.0, "lat": 38.91629666666667, "bike_id": "a4c7ac7f3b8125bc5ecf6db4b7ff4be0", "type": "electric_scooter", "is_reserved": 0, "lon": -77.03215266666666}, {"fusion_lat": 0.0, "name": "f095bb7073ce96d81ac21deea2133af6", "is_disabled": 0, "rental_uris": {"android": "https://dc.lft.to/lastmile_qr_scan", "ios": "https://dc.lft.to/lastmile_qr_scan"}, "fusion_lon": 0.0, "lat": 38.92237133333333, "bike_id": "f095bb7073ce96d81ac21deea2133af6", "type": "electric_scooter", "is_reserved": 0, "lon": -77.03423783333334}, {"fusion_lat": 0.0, "name": "40c0fff8a32e00ba0bde62391285b1c9", "is_disabled": 0, "rental_uris": {"android": "https://dc.lft.to/lastmile_qr_scan", "ios": "https://dc.lft.to/lastmile_qr_scan"}, "fusion_lon": 0.0, "lat": 38.91549, "bike_id": "40c0fff8a32e00ba0bde62391285b1c9", "type": "electric_scooter", "is_reserved": 0, "lon": -77.03256366666666}, {"fusion_lat": 0.0, "name": "e0daafd933e15f709505d23c76a2d158", "is_disabled": 0, "rental_uris": {"android": "https://dc.lft.to/lastmile_qr_scan", "ios": "https://dc.lft.to/lastmile_qr_scan"}, "fusion_lon": 0.0, "lat": 38.90973116666667, "bike_id": "e0daafd933e15f709505d23c76a2d158", "type": "electric_scooter", "is_reserved": 0, "lon": -77.032948}, {"fusion_lat": 0.0, "name": "8bb6e4b182c3b4b5c863039755f7305d", "is_disabled": 0, "rental_uris": {"android": "https://dc.lft.to/lastmile_qr_scan", "ios": "https://dc.lft.to/lastmile_qr_scan"}, "fusion_lon": 0.0, "lat": 38.9308735, "bike_id": "8bb6e4b182c3b4b5c863039755f7305d", "type": "electric_scooter", "is_reserved": 0, "lon": -77.0373515}, {"fusion_lat": 0.0, "name": "b6efab7aef0372b3a987415fafb69d91", "is_disabled": 0, "rental_uris": {"android": "https://dc.lft.to/lastmile_qr_scan", "ios": "https://dc.lft.to/lastmile_qr_scan"}, "fusion_lon": 0.0, "lat": 38.90785566666667, "bike_id": "b6efab7aef0372b3a987415fafb69d91", "type": "electric_scooter", "is_reserved": 0, "lon": -77.0353525}, {"fusion_lat": 0.0, "name": "9d62526e4b0cb79a9e1e5d887bec6606", "is_disabled": 0, "rental_uris": {"android": "https://dc.lft.to/lastmile_qr_scan", "ios": "https://dc.lft.to/lastmile_qr_scan"}, "fusion_lon": 0.0, "lat": 38.80014833333333, "bike_id": "9d62526e4b0cb79a9e1e5d887bec6606", "type": "electric_bike", "is_reserved": 0, "lon": -77.0547975}, {"fusion_lat": 0.0, "name": "3d437f2dfaddc2e3632d39ebaab58836", "is_disabled": 0, "rental_uris": {"android": "https://dc.lft.to/lastmile_qr_scan", "ios": "https://dc.lft.to/lastmile_qr_scan"}, "fusion_lon": 0.0, "lat": 38.898698, "bike_id": "3d437f2dfaddc2e3632d39ebaab58836", "type": "electric_scooter", "is_reserved": 0, "lon": -77.04874666666667}, {"fusion_lat": 0.0, "name": "3baa9a3a7b34e31b1dfd2e50545279f2", "is_disabled": 0, "rental_uris": {"android": "https://dc.lft.to/lastmile_qr_scan", "ios": "https://dc.lft.to/lastmile_qr_scan"}, "fusion_lon": 0.0, "lat": 38.90476533333333, "bike_id": "3baa9a3a7b34e31b1dfd2e50545279f2", "type": "electric_scooter", "is_reserved": 0, "lon": -77.04352283333333}, {"fusion_lat": 0.0, "name": "a1f063187c9174fa012287a47b156773", "is_disabled": 0, "rental_uris": {"android": "https://dc.lft.to/lastmile_qr_scan", "ios": "https://dc.lft.to/lastmile_qr_scan"}, "fusion_lon": 0.0, "lat": 38.913514666666664, "bike_id": "a1f063187c9174fa012287a47b156773", "type": "electric_scooter", "is_reserved": 0, "lon": -77.031851}, {"fusion_lat": 0.0, "name": "331273e5f87abae157dfab6ef3360816", "is_disabled": 0, "rental_uris": {"android": "https://dc.lft.to/lastmile_qr_scan", "ios": "https://dc.lft.to/lastmile_qr_scan"}, "fusion_lon": 0.0, "lat": 38.87685483333333, "bike_id": "331273e5f87abae157dfab6ef3360816", "type": "electric_scooter", "is_reserved": 0, "lon": -77.017551}, {"fusion_lat": 0.0, "name": "a7ae1b879163a643e6060e1408da9663", "is_disabled": 0, "rental_uris": {"android": "https://dc.lft.to/lastmile_qr_scan", "ios": "https://dc.lft.to/lastmile_qr_scan"}, "fusion_lon": 0.0, "lat": 38.938714, "bike_id": "a7ae1b879163a643e6060e1408da9663", "type": "electric_scooter", "is_reserved": 0, "lon": -77.032178}, {"fusion_lat": 0.0, "name": "3e178ba915c15542d727cea2798114c0", "is_disabled": 0, "rental_uris": {"android": "https://dc.lft.to/lastmile_qr_scan", "ios": "https://dc.lft.to/lastmile_qr_scan"}, "fusion_lon": 0.0, "lat": 38.886481333333336, "bike_id": "3e178ba915c15542d727cea2798114c0", "type": "electric_scooter", "is_reserved": 0, "lon": -77.01549683333333}, {"fusion_lat": 0.0, "name": "2dc57b4df2d39a09c64210d603b4097f", "is_disabled": 0, "rental_uris": {"android": "https://dc.lft.to/lastmile_qr_scan", "ios": "https://dc.lft.to/lastmile_qr_scan"}, "fusion_lon": 0.0, "lat": 38.9219435, "bike_id": "2dc57b4df2d39a09c64210d603b4097f", "type": "electric_scooter", "is_reserved": 0, "lon": -77.0297325}, {"fusion_lat": 0.0, "name": "275b1724147228dd29b95cbcfba70cc2", "is_disabled": 0, "rental_uris": {"android": "https://dc.lft.to/lastmile_qr_scan", "ios": "https://dc.lft.to/lastmile_qr_scan"}, "fusion_lon": 0.0, "lat": 38.835488833333336, "bike_id": "275b1724147228dd29b95cbcfba70cc2", "type": "electric_bike", "is_reserved": 0, "lon": -76.98726233333333}, {"fusion_lat": 0.0, "name": "7839962280fb90b0539a6b3590f735fc", "is_disabled": 0, "rental_uris": {"android": "https://dc.lft.to/lastmile_qr_scan", "ios": "https://dc.lft.to/lastmile_qr_scan"}, "fusion_lon": 0.0, "lat": 38.84385916666667, "bike_id": "7839962280fb90b0539a6b3590f735fc", "type": "electric_scooter", "is_reserved": 0, "lon": -76.9895625}, {"fusion_lat": 0.0, "name": "2df901264291bc9f3fc74ef802912249", "is_disabled": 0, "rental_uris": {"android": "https://dc.lft.to/lastmile_qr_scan", "ios": "https://dc.lft.to/lastmile_qr_scan"}, "fusion_lon": 0.0, "lat": 38.932542833333336, "bike_id": "2df901264291bc9f3fc74ef802912249", "type": "electric_scooter", "is_reserved": 0, "lon": -77.03270283333333}, {"fusion_lat": 0.0, "name": "337330744f4919fe6dfc1ec5ec21662f", "is_disabled": 0, "rental_uris": {"android": "https://dc.lft.to/lastmile_qr_scan", "ios": "https://dc.lft.to/lastmile_qr_scan"}, "fusion_lon": 0.0, "lat": 38.892218, "bike_id": "337330744f4919fe6dfc1ec5ec21662f", "type": "electric_scooter", "is_reserved": 0, "lon": -77.03097883333334}, {"fusion_lat": 0.0, "name": "1ecc5f079131a605d316c071717cd2bc", "is_disabled": 0, "rental_uris": {"android": "https://dc.lft.to/lastmile_qr_scan", "ios": "https://dc.lft.to/lastmile_qr_scan"}, "fusion_lon": 0.0, "lat": 38.93435916666667, "bike_id": "1ecc5f079131a605d316c071717cd2bc", "type": "electric_scooter", "is_reserved": 0, "lon": -77.03993333333334}, {"fusion_lat": 0.0, "name": "ae009fcb2ccc16d1986a8ff1858f7732", "is_disabled": 0, "rental_uris": {"android": "https://dc.lft.to/lastmile_qr_scan", "ios": "https://dc.lft.to/lastmile_qr_scan"}, "fusion_lon": 0.0, "lat": 38.900637, "bike_id": "ae009fcb2ccc16d1986a8ff1858f7732", "type": "electric_scooter", "is_reserved": 0, "lon": -76.93385966666666}, {"fusion_lat": 0.0, "name": "e8f39761472d094fdf7d72569a22a3e4", "is_disabled": 0, "rental_uris": {"android": "https://dc.lft.to/lastmile_qr_scan", "ios": "https://dc.lft.to/lastmile_qr_scan"}, "fusion_lon": 0.0, "lat": 38.899492333333335, "bike_id": "e8f39761472d094fdf7d72569a22a3e4", "type": "electric_scooter", "is_reserved": 0, "lon": -77.041782}, {"fusion_lat": 0.0, "name": "32204e4780e83e5e77a10d6e48fbeec2", "is_disabled": 0, "rental_uris": {"android": "https://dc.lft.to/lastmile_qr_scan", "ios": "https://dc.lft.to/lastmile_qr_scan"}, "fusion_lon": 0.0, "lat": 38.9284485, "bike_id": "32204e4780e83e5e77a10d6e48fbeec2", "type": "electric_scooter", "is_reserved": 0, "lon": -77.036426}, {"fusion_lat": 0.0, "name": "1c454803f92c75ab17ef31f94245408e", "is_disabled": 0, "rental_uris": {"android": "https://dc.lft.to/lastmile_qr_scan", "ios": "https://dc.lft.to/lastmile_qr_scan"}, "fusion_lon": 0.0, "lat": 38.92096266666667, "bike_id": "1c454803f92c75ab17ef31f94245408e", "type": "electric_scooter", "is_reserved": 0, "lon": -77.0231235}, {"fusion_lat": 0.0, "name": "00ea4f90ca8f260611c86ddc2f4e2653", "is_disabled": 0, "rental_uris": {"android": "https://dc.lft.to/lastmile_qr_scan", "ios": "https://dc.lft.to/lastmile_qr_scan"}, "fusion_lon": 0.0, "lat": 38.95885116666667, "bike_id": "00ea4f90ca8f260611c86ddc2f4e2653", "type": "electric_scooter", "is_reserved": 0, "lon": -77.01167266666667}, {"fusion_lat": 0.0, "name": "8fdab3c45b0bd52c00c318163eff5070", "is_disabled": 0, "rental_uris": {"android": "https://dc.lft.to/lastmile_qr_scan", "ios": "https://dc.lft.to/lastmile_qr_scan"}, "fusion_lon": 0.0, "lat": 38.91265933333333, "bike_id": "8fdab3c45b0bd52c00c318163eff5070", "type": "electric_scooter", "is_reserved": 0, "lon": -77.01311516666667}, {"fusion_lat": 0.0, "name": "093618e63034cd5555ecbba371d2c183", "is_disabled": 0, "rental_uris": {"android": "https://dc.lft.to/lastmile_qr_scan", "ios": "https://dc.lft.to/lastmile_qr_scan"}, "fusion_lon": 0.0, "lat": 38.87661333333333, "bike_id": "093618e63034cd5555ecbba371d2c183", "type": "electric_scooter", "is_reserved": 0, "lon": -77.00916716666667}, {"fusion_lat": 0.0, "name": "bb5d69c679c29b70e44b87296503981c", "is_disabled": 0, "rental_uris": {"android": "https://dc.lft.to/lastmile_qr_scan", "ios": "https://dc.lft.to/lastmile_qr_scan"}, "fusion_lon": 0.0, "lat": 38.95180283333333, "bike_id": "bb5d69c679c29b70e44b87296503981c", "type": "electric_scooter", "is_reserved": 0, "lon": -77.02727566666667}, {"fusion_lat": 0.0, "name": "79de4cb9d42f89fabf362c0a5bfc9e0c", "is_disabled": 0, "rental_uris": {"android": "https://dc.lft.to/lastmile_qr_scan", "ios": "https://dc.lft.to/lastmile_qr_scan"}, "fusion_lon": 0.0, "lat": 38.85788316666667, "bike_id": "79de4cb9d42f89fabf362c0a5bfc9e0c", "type": "electric_bike", "is_reserved": 0, "lon": -77.12018866666666}, {"fusion_lat": 0.0, "name": "878e7935650e54022130d7c1db2c49fd", "is_disabled": 0, "rental_uris": {"android": "https://dc.lft.to/lastmile_qr_scan", "ios": "https://dc.lft.to/lastmile_qr_scan"}, "fusion_lon": 0.0, "lat": 38.992202666666664, "bike_id": "878e7935650e54022130d7c1db2c49fd", "type": "electric_bike", "is_reserved": 0, "lon": -76.94433283333333}, {"fusion_lat": 0.0, "name": "15708d93fe418e5d38df8995a4169123", "is_disabled": 0, "rental_uris": {"android": "https://dc.lft.to/lastmile_qr_scan", "ios": "https://dc.lft.to/lastmile_qr_scan"}, "fusion_lon": 0.0, "lat": 38.88740583333333, "bike_id": "15708d93fe418e5d38df8995a4169123", "type": "electric_scooter", "is_reserved": 0, "lon": -77.0152805}, {"fusion_lat": 0.0, "name": "e92ae0b6cf6bc1e89c6223dc67be505c", "is_disabled": 0, "rental_uris": {"android": "https://dc.lft.to/lastmile_qr_scan", "ios": "https://dc.lft.to/lastmile_qr_scan"}, "fusion_lon": 0.0, "lat": 38.922324, "bike_id": "e92ae0b6cf6bc1e89c6223dc67be505c", "type": "electric_scooter", "is_reserved": 0, "lon": -77.0464765}, {"fusion_lat": 0.0, "name": "2172e737b0916c18adb5a36ba68eebfb", "is_disabled": 0, "rental_uris": {"android": "https://dc.lft.to/lastmile_qr_scan", "ios": "https://dc.lft.to/lastmile_qr_scan"}, "fusion_lon": 0.0, "lat": 38.964768, "bike_id": "2172e737b0916c18adb5a36ba68eebfb", "type": "electric_scooter", "is_reserved": 0, "lon": -77.0119395}, {"fusion_lat": 0.0, "name": "25a25058dc74464f96f62497db1796d3", "is_disabled": 0, "rental_uris": {"android": "https://dc.lft.to/lastmile_qr_scan", "ios": "https://dc.lft.to/lastmile_qr_scan"}, "fusion_lon": 0.0, "lat": 38.85524183333333, "bike_id": "25a25058dc74464f96f62497db1796d3", "type": "electric_bike", "is_reserved": 0, "lon": -77.12050566666667}, {"fusion_lat": 0.0, "name": "1fb1f89f16c7c99ac8587649d4d6d333", "is_disabled": 0, "rental_uris": {"android": "https://dc.lft.to/lastmile_qr_scan", "ios": "https://dc.lft.to/lastmile_qr_scan"}, "fusion_lon": 0.0, "lat": 38.921312, "bike_id": "1fb1f89f16c7c99ac8587649d4d6d333", "type": "electric_scooter", "is_reserved": 0, "lon": -77.044217}, {"fusion_lat": 0.0, "name": "8806c3e9b93baae63489aeea827314ed", "is_disabled": 0, "rental_uris": {"android": "https://dc.lft.to/lastmile_qr_scan", "ios": "https://dc.lft.to/lastmile_qr_scan"}, "fusion_lon": 0.0, "lat": 38.915549166666665, "bike_id": "8806c3e9b93baae63489aeea827314ed", "type": "electric_scooter", "is_reserved": 0, "lon": -77.03214183333333}, {"fusion_lat": 0.0, "name": "34632a337e4cb26b5b7d24fa8f38e956", "is_disabled": 0, "rental_uris": {"android": "https://dc.lft.to/lastmile_qr_scan", "ios": "https://dc.lft.to/lastmile_qr_scan"}, "fusion_lon": 0.0, "lat": 38.87845633333333, "bike_id": "34632a337e4cb26b5b7d24fa8f38e956", "type": "electric_scooter", "is_reserved": 0, "lon": -76.9300965}, {"fusion_lat": 0.0, "name": "97436e46fb8cbefc3113fef1c5c96aca", "is_disabled": 0, "rental_uris": {"android": "https://dc.lft.to/lastmile_qr_scan", "ios": "https://dc.lft.to/lastmile_qr_scan"}, "fusion_lon": 0.0, "lat": 38.89826083333333, "bike_id": "97436e46fb8cbefc3113fef1c5c96aca", "type": "electric_scooter", "is_reserved": 0, "lon": -77.033211}, {"fusion_lat": 0.0, "name": "be57bd2890d3eb72a92830e9ac03712d", "is_disabled": 0, "rental_uris": {"android": "https://dc.lft.to/lastmile_qr_scan", "ios": "https://dc.lft.to/lastmile_qr_scan"}, "fusion_lon": 0.0, "lat": 38.92877983333333, "bike_id": "be57bd2890d3eb72a92830e9ac03712d", "type": "electric_scooter", "is_reserved": 0, "lon": -77.035158}, {"fusion_lat": 0.0, "name": "af8a0412e2caffa4d9f6028fde256fde", "is_disabled": 0, "rental_uris": {"android": "https://dc.lft.to/lastmile_qr_scan", "ios": "https://dc.lft.to/lastmile_qr_scan"}, "fusion_lon": 0.0, "lat": 38.90959133333333, "bike_id": "af8a0412e2caffa4d9f6028fde256fde", "type": "electric_bike", "is_reserved": 0, "lon": -77.22890383333333}, {"fusion_lat": 0.0, "name": "9e35aa20157f33d184808570e4d3e765", "is_disabled": 0, "rental_uris": {"android": "https://dc.lft.to/lastmile_qr_scan", "ios": "https://dc.lft.to/lastmile_qr_scan"}, "fusion_lon": 0.0, "lat": 38.909733, "bike_id": "9e35aa20157f33d184808570e4d3e765", "type": "electric_scooter", "is_reserved": 0, "lon": -77.03255033333333}, {"fusion_lat": 0.0, "name": "0255f940c12438333246e2ce4ee2ea2e", "is_disabled": 0, "rental_uris": {"android": "https://dc.lft.to/lastmile_qr_scan", "ios": "https://dc.lft.to/lastmile_qr_scan"}, "fusion_lon": 0.0, "lat": 38.901541, "bike_id": "0255f940c12438333246e2ce4ee2ea2e", "type": "electric_scooter", "is_reserved": 0, "lon": -76.990205}, {"fusion_lat": 0.0, "name": "0229e8051cb27f988e442162761d2433", "is_disabled": 0, "rental_uris": {"android": "https://dc.lft.to/lastmile_qr_scan", "ios": "https://dc.lft.to/lastmile_qr_scan"}, "fusion_lon": 0.0, "lat": 38.934917666666664, "bike_id": "0229e8051cb27f988e442162761d2433", "type": "electric_scooter", "is_reserved": 0, "lon": -77.030817}, {"fusion_lat": 0.0, "name": "dbdcb84fafc3273bf11c3b64dbd97fd9", "is_disabled": 0, "rental_uris": {"android": "https://dc.lft.to/lastmile_qr_scan", "ios": "https://dc.lft.to/lastmile_qr_scan"}, "fusion_lon": 0.0, "lat": 38.8967055, "bike_id": "dbdcb84fafc3273bf11c3b64dbd97fd9", "type": "electric_scooter", "is_reserved": 0, "lon": -77.05465566666666}, {"fusion_lat": 0.0, "name": "6ee94fca09ce9c459bcbe919e70cc196", "is_disabled": 0, "rental_uris": {"android": "https://dc.lft.to/lastmile_qr_scan", "ios": "https://dc.lft.to/lastmile_qr_scan"}, "fusion_lon": 0.0, "lat": 38.885240833333334, "bike_id": "6ee94fca09ce9c459bcbe919e70cc196", "type": "electric_scooter", "is_reserved": 0, "lon": -76.97705216666667}, {"fusion_lat": 0.0, "name": "723be8ea0b97529d782d6e714b52f462", "is_disabled": 0, "rental_uris": {"android": "https://dc.lft.to/lastmile_qr_scan", "ios": "https://dc.lft.to/lastmile_qr_scan"}, "fusion_lon": 0.0, "lat": 38.871785, "bike_id": "723be8ea0b97529d782d6e714b52f462", "type": "electric_scooter", "is_reserved": 0, "lon": -77.00610383333333}, {"fusion_lat": 0.0, "name": "d984be46f89b5154b5a7d11d03ef5394", "is_disabled": 0, "rental_uris": {"android": "https://dc.lft.to/lastmile_qr_scan", "ios": "https://dc.lft.to/lastmile_qr_scan"}, "fusion_lon": 0.0, "lat": 38.901249666666665, "bike_id": "d984be46f89b5154b5a7d11d03ef5394", "type": "electric_scooter", "is_reserved": 0, "lon": -77.044834}, {"fusion_lat": 0.0, "name": "a7ad203269710b93804fa789537ec8c4", "is_disabled": 0, "rental_uris": {"android": "https://dc.lft.to/lastmile_qr_scan", "ios": "https://dc.lft.to/lastmile_qr_scan"}, "fusion_lon": 0.0, "lat": 38.925555833333334, "bike_id": "a7ad203269710b93804fa789537ec8c4", "type": "electric_scooter", "is_reserved": 0, "lon": -77.02285266666667}, {"fusion_lat": 0.0, "name": "a3fb48ef48fa86b3252dfc3fdcf21011", "is_disabled": 0, "rental_uris": {"android": "https://dc.lft.to/lastmile_qr_scan", "ios": "https://dc.lft.to/lastmile_qr_scan"}, "fusion_lon": 0.0, "lat": 38.900523, "bike_id": "a3fb48ef48fa86b3252dfc3fdcf21011", "type": "electric_scooter", "is_reserved": 0, "lon": -76.99729616666667}, {"fusion_lat": 0.0, "name": "6d971b9d24688a9e88f0bd2b92f9cef8", "is_disabled": 0, "rental_uris": {"android": "https://dc.lft.to/lastmile_qr_scan", "ios": "https://dc.lft.to/lastmile_qr_scan"}, "fusion_lon": 0.0, "lat": 38.88069466666666, "bike_id": "6d971b9d24688a9e88f0bd2b92f9cef8", "type": "electric_scooter", "is_reserved": 0, "lon": -76.932173}, {"fusion_lat": 0.0, "name": "bfe97a17330dfc510f600dc18fef15e7", "is_disabled": 0, "rental_uris": {"android": "https://dc.lft.to/lastmile_qr_scan", "ios": "https://dc.lft.to/lastmile_qr_scan"}, "fusion_lon": 0.0, "lat": 38.9027485, "bike_id": "bfe97a17330dfc510f600dc18fef15e7", "type": "electric_scooter", "is_reserved": 0, "lon": -76.9873015}, {"fusion_lat": 0.0, "name": "85fed0bdf9d9d8ce17a1b538c89b8960", "is_disabled": 0, "rental_uris": {"android": "https://dc.lft.to/lastmile_qr_scan", "ios": "https://dc.lft.to/lastmile_qr_scan"}, "fusion_lon": 0.0, "lat": 38.923134166666664, "bike_id": "85fed0bdf9d9d8ce17a1b538c89b8960", "type": "electric_scooter", "is_reserved": 0, "lon": -77.01949916666666}, {"fusion_lat": 0.0, "name": "29a7f7d5c86cbeb1d1eda10b91ef4708", "is_disabled": 0, "rental_uris": {"android": "https://dc.lft.to/lastmile_qr_scan", "ios": "https://dc.lft.to/lastmile_qr_scan"}, "fusion_lon": 0.0, "lat": 38.930487166666666, "bike_id": "29a7f7d5c86cbeb1d1eda10b91ef4708", "type": "electric_scooter", "is_reserved": 0, "lon": -77.03803033333334}, {"fusion_lat": 0.0, "name": "f6fbc4215077aeb3baaa41e068ba252f", "is_disabled": 0, "rental_uris": {"android": "https://dc.lft.to/lastmile_qr_scan", "ios": "https://dc.lft.to/lastmile_qr_scan"}, "fusion_lon": 0.0, "lat": 38.8874155, "bike_id": "f6fbc4215077aeb3baaa41e068ba252f", "type": "electric_scooter", "is_reserved": 0, "lon": -77.01523516666667}, {"fusion_lat": 0.0, "name": "c88c992c79e9f3c8dd765ee88b516d4e", "is_disabled": 0, "rental_uris": {"android": "https://dc.lft.to/lastmile_qr_scan", "ios": "https://dc.lft.to/lastmile_qr_scan"}, "fusion_lon": 0.0, "lat": 38.9047405, "bike_id": "c88c992c79e9f3c8dd765ee88b516d4e", "type": "electric_scooter", "is_reserved": 0, "lon": -77.03465483333333}, {"fusion_lat": 0.0, "name": "9d4cca0f983c05d92372fa2fedf09ff1", "is_disabled": 0, "rental_uris": {"android": "https://dc.lft.to/lastmile_qr_scan", "ios": "https://dc.lft.to/lastmile_qr_scan"}, "fusion_lon": 0.0, "lat": 38.89760483333333, "bike_id": "9d4cca0f983c05d92372fa2fedf09ff1", "type": "electric_scooter", "is_reserved": 0, "lon": -77.00896233333333}, {"fusion_lat": 0.0, "name": "144bc39de476255083ab41dbc0ce4963", "is_disabled": 0, "rental_uris": {"android": "https://dc.lft.to/lastmile_qr_scan", "ios": "https://dc.lft.to/lastmile_qr_scan"}, "fusion_lon": 0.0, "lat": 38.883238666666664, "bike_id": "144bc39de476255083ab41dbc0ce4963", "type": "electric_scooter", "is_reserved": 0, "lon": -77.01720333333333}, {"fusion_lat": 0.0, "name": "13b1cb918fef58722ae137262ba9db29", "is_disabled": 0, "rental_uris": {"android": "https://dc.lft.to/lastmile_qr_scan", "ios": "https://dc.lft.to/lastmile_qr_scan"}, "fusion_lon": 0.0, "lat": 38.90976933333334, "bike_id": "13b1cb918fef58722ae137262ba9db29", "type": "electric_scooter", "is_reserved": 0, "lon": -77.06504833333334}, {"fusion_lat": 0.0, "name": "ed5df1b40f0fc75608988f46769486fc", "is_disabled": 0, "rental_uris": {"android": "https://dc.lft.to/lastmile_qr_scan", "ios": "https://dc.lft.to/lastmile_qr_scan"}, "fusion_lon": 0.0, "lat": 38.920777333333334, "bike_id": "ed5df1b40f0fc75608988f46769486fc", "type": "electric_scooter", "is_reserved": 0, "lon": -77.02515416666667}, {"fusion_lat": 0.0, "name": "ead35765243ec9d83e5fda7f595f48ac", "is_disabled": 0, "rental_uris": {"android": "https://dc.lft.to/lastmile_qr_scan", "ios": "https://dc.lft.to/lastmile_qr_scan"}, "fusion_lon": 0.0, "lat": 38.8961975, "bike_id": "ead35765243ec9d83e5fda7f595f48ac", "type": "electric_scooter", "is_reserved": 0, "lon": -77.00906366666666}, {"fusion_lat": 0.0, "name": "5773ca0583ec0baae91dec1686b7e795", "is_disabled": 0, "rental_uris": {"android": "https://dc.lft.to/lastmile_qr_scan", "ios": "https://dc.lft.to/lastmile_qr_scan"}, "fusion_lon": 0.0, "lat": 39.0525525, "bike_id": "5773ca0583ec0baae91dec1686b7e795", "type": "electric_bike", "is_reserved": 0, "lon": -77.0806635}, {"fusion_lat": 0.0, "name": "165a2b7af6c6ee2f71c62f395c4280e8", "is_disabled": 0, "rental_uris": {"android": "https://dc.lft.to/lastmile_qr_scan", "ios": "https://dc.lft.to/lastmile_qr_scan"}, "fusion_lon": 0.0, "lat": 38.919096333333336, "bike_id": "165a2b7af6c6ee2f71c62f395c4280e8", "type": "electric_scooter", "is_reserved": 0, "lon": -77.04101083333333}, {"fusion_lat": 0.0, "name": "1c0dc2025715efe717ed4fd1ea4cf927", "is_disabled": 0, "rental_uris": {"android": "https://dc.lft.to/lastmile_qr_scan", "ios": "https://dc.lft.to/lastmile_qr_scan"}, "fusion_lon": 0.0, "lat": 38.883369, "bike_id": "1c0dc2025715efe717ed4fd1ea4cf927", "type": "electric_scooter", "is_reserved": 0, "lon": -77.017647}, {"fusion_lat": 0.0, "name": "9a92b64be62e37b17a07f04869e9234d", "is_disabled": 0, "rental_uris": {"android": "https://dc.lft.to/lastmile_qr_scan", "ios": "https://dc.lft.to/lastmile_qr_scan"}, "fusion_lon": 0.0, "lat": 38.89877633333333, "bike_id": "9a92b64be62e37b17a07f04869e9234d", "type": "electric_scooter", "is_reserved": 0, "lon": -76.9318305}, {"fusion_lat": 0.0, "name": "99ab2bb5a20c93f5f04ab069a122434b", "is_disabled": 0, "rental_uris": {"android": "https://dc.lft.to/lastmile_qr_scan", "ios": "https://dc.lft.to/lastmile_qr_scan"}, "fusion_lon": 0.0, "lat": 38.911874, "bike_id": "99ab2bb5a20c93f5f04ab069a122434b", "type": "electric_scooter", "is_reserved": 0, "lon": -77.03866016666667}, {"fusion_lat": 0.0, "name": "d12d5e88690ac3d895aa7695968cae14", "is_disabled": 0, "rental_uris": {"android": "https://dc.lft.to/lastmile_qr_scan", "ios": "https://dc.lft.to/lastmile_qr_scan"}, "fusion_lon": 0.0, "lat": 38.904930666666665, "bike_id": "d12d5e88690ac3d895aa7695968cae14", "type": "electric_bike", "is_reserved": 0, "lon": -76.97579983333333}, {"fusion_lat": 0.0, "name": "4077dc0473c5d3697a53bc3c5d9618f9", "is_disabled": 0, "rental_uris": {"android": "https://dc.lft.to/lastmile_qr_scan", "ios": "https://dc.lft.to/lastmile_qr_scan"}, "fusion_lon": 0.0, "lat": 38.90719833333333, "bike_id": "4077dc0473c5d3697a53bc3c5d9618f9", "type": "electric_scooter", "is_reserved": 0, "lon": -77.02977766666666}, {"fusion_lat": 0.0, "name": "1d54df0d31d3b3cdb48650b2478da630", "is_disabled": 0, "rental_uris": {"android": "https://dc.lft.to/lastmile_qr_scan", "ios": "https://dc.lft.to/lastmile_qr_scan"}, "fusion_lon": 0.0, "lat": 38.87689016666667, "bike_id": "1d54df0d31d3b3cdb48650b2478da630", "type": "electric_scooter", "is_reserved": 0, "lon": -76.994299}, {"fusion_lat": 0.0, "name": "465ed0cc5314681e280bb23ff2e941a4", "is_disabled": 0, "rental_uris": {"android": "https://dc.lft.to/lastmile_qr_scan", "ios": "https://dc.lft.to/lastmile_qr_scan"}, "fusion_lon": 0.0, "lat": 38.96131883333334, "bike_id": "465ed0cc5314681e280bb23ff2e941a4", "type": "electric_scooter", "is_reserved": 0, "lon": -77.0278425}, {"fusion_lat": 0.0, "name": "29a8ab8b9585f6c1964b17b4190b9fbf", "is_disabled": 0, "rental_uris": {"android": "https://dc.lft.to/lastmile_qr_scan", "ios": "https://dc.lft.to/lastmile_qr_scan"}, "fusion_lon": 0.0, "lat": 38.922393, "bike_id": "29a8ab8b9585f6c1964b17b4190b9fbf", "type": "electric_scooter", "is_reserved": 0, "lon": -77.04638966666667}, {"fusion_lat": 0.0, "name": "f9f2c2f062fa0daba2f11e5889f5c395", "is_disabled": 0, "rental_uris": {"android": "https://dc.lft.to/lastmile_qr_scan", "ios": "https://dc.lft.to/lastmile_qr_scan"}, "fusion_lon": 0.0, "lat": 38.8890485, "bike_id": "f9f2c2f062fa0daba2f11e5889f5c395", "type": "electric_scooter", "is_reserved": 0, "lon": -76.99203716666666}, {"fusion_lat": 0.0, "name": "4e58ccd96c03b91f7cbbda8a47ac5f33", "is_disabled": 0, "rental_uris": {"android": "https://dc.lft.to/lastmile_qr_scan", "ios": "https://dc.lft.to/lastmile_qr_scan"}, "fusion_lon": 0.0, "lat": 38.975188, "bike_id": "4e58ccd96c03b91f7cbbda8a47ac5f33", "type": "electric_scooter", "is_reserved": 0, "lon": -77.0173405}, {"fusion_lat": 0.0, "name": "f22802694ea00c39c142f12bfe7a6b19", "is_disabled": 0, "rental_uris": {"android": "https://dc.lft.to/lastmile_qr_scan", "ios": "https://dc.lft.to/lastmile_qr_scan"}, "fusion_lon": 0.0, "lat": 38.913002666666664, "bike_id": "f22802694ea00c39c142f12bfe7a6b19", "type": "electric_scooter", "is_reserved": 0, "lon": -77.012125}, {"fusion_lat": 0.0, "name": "206a7cdc723e6f5e6c0dd790ad0ed5f0", "is_disabled": 0, "rental_uris": {"android": "https://dc.lft.to/lastmile_qr_scan", "ios": "https://dc.lft.to/lastmile_qr_scan"}, "fusion_lon": 0.0, "lat": 38.905208333333334, "bike_id": "206a7cdc723e6f5e6c0dd790ad0ed5f0", "type": "electric_scooter", "is_reserved": 0, "lon": -77.06134516666667}, {"fusion_lat": 0.0, "name": "7653fc11084060931174822e711cb964", "is_disabled": 0, "rental_uris": {"android": "https://dc.lft.to/lastmile_qr_scan", "ios": "https://dc.lft.to/lastmile_qr_scan"}, "fusion_lon": 0.0, "lat": 38.8935695, "bike_id": "7653fc11084060931174822e711cb964", "type": "electric_bike", "is_reserved": 0, "lon": -77.18743266666667}, {"fusion_lat": 0.0, "name": "96fa901325a9fe84480edb8eb483239c", "is_disabled": 0, "rental_uris": {"android": "https://dc.lft.to/lastmile_qr_scan", "ios": "https://dc.lft.to/lastmile_qr_scan"}, "fusion_lon": 0.0, "lat": 38.93456583333333, "bike_id": "96fa901325a9fe84480edb8eb483239c", "type": "electric_scooter", "is_reserved": 0, "lon": -77.02722816666666}, {"fusion_lat": 0.0, "name": "3409233ac03236631305eeeed10742da", "is_disabled": 0, "rental_uris": {"android": "https://dc.lft.to/lastmile_qr_scan", "ios": "https://dc.lft.to/lastmile_qr_scan"}, "fusion_lon": 0.0, "lat": 38.8820025, "bike_id": "3409233ac03236631305eeeed10742da", "type": "electric_scooter", "is_reserved": 0, "lon": -76.99488233333334}, {"fusion_lat": 0.0, "name": "4bc022a00b0f2c778cecdf1ca721ea5d", "is_disabled": 0, "rental_uris": {"android": "https://dc.lft.to/lastmile_qr_scan", "ios": "https://dc.lft.to/lastmile_qr_scan"}, "fusion_lon": 0.0, "lat": 38.90958166666667, "bike_id": "4bc022a00b0f2c778cecdf1ca721ea5d", "type": "electric_scooter", "is_reserved": 0, "lon": -77.02383033333334}, {"fusion_lat": 0.0, "name": "6ef33312fe617a7cfe15d6f1260c0036", "is_disabled": 0, "rental_uris": {"android": "https://dc.lft.to/lastmile_qr_scan", "ios": "https://dc.lft.to/lastmile_qr_scan"}, "fusion_lon": 0.0, "lat": 38.924206833333336, "bike_id": "6ef33312fe617a7cfe15d6f1260c0036", "type": "electric_scooter", "is_reserved": 0, "lon": -77.01949516666667}, {"fusion_lat": 0.0, "name": "1424d1f8a6415a43a2835e293481008e", "is_disabled": 0, "rental_uris": {"android": "https://dc.lft.to/lastmile_qr_scan", "ios": "https://dc.lft.to/lastmile_qr_scan"}, "fusion_lon": 0.0, "lat": 38.928458, "bike_id": "1424d1f8a6415a43a2835e293481008e", "type": "electric_scooter", "is_reserved": 0, "lon": -77.03274016666667}, {"fusion_lat": 0.0, "name": "d587e2a328ac7eb1aec3d68389005801", "is_disabled": 0, "rental_uris": {"android": "https://dc.lft.to/lastmile_qr_scan", "ios": "https://dc.lft.to/lastmile_qr_scan"}, "fusion_lon": 0.0, "lat": 38.941613833333335, "bike_id": "d587e2a328ac7eb1aec3d68389005801", "type": "electric_scooter", "is_reserved": 0, "lon": -77.02501516666666}, {"fusion_lat": 0.0, "name": "69ad9cd48fd83e164e7bf037d21eab96", "is_disabled": 0, "rental_uris": {"android": "https://dc.lft.to/lastmile_qr_scan", "ios": "https://dc.lft.to/lastmile_qr_scan"}, "fusion_lon": 0.0, "lat": 38.924930833333335, "bike_id": "69ad9cd48fd83e164e7bf037d21eab96", "type": "electric_scooter", "is_reserved": 0, "lon": -77.05191916666666}, {"fusion_lat": 0.0, "name": "deb404cc2c01751f934d8d9a470d0a0f", "is_disabled": 0, "rental_uris": {"android": "https://dc.lft.to/lastmile_qr_scan", "ios": "https://dc.lft.to/lastmile_qr_scan"}, "fusion_lon": 0.0, "lat": 38.894886, "bike_id": "deb404cc2c01751f934d8d9a470d0a0f", "type": "electric_scooter", "is_reserved": 0, "lon": -77.0097575}, {"fusion_lat": 0.0, "name": "f3169ce670fe37a61723de280aadaa09", "is_disabled": 0, "rental_uris": {"android": "https://dc.lft.to/lastmile_qr_scan", "ios": "https://dc.lft.to/lastmile_qr_scan"}, "fusion_lon": 0.0, "lat": 38.89430316666667, "bike_id": "f3169ce670fe37a61723de280aadaa09", "type": "electric_scooter", "is_reserved": 0, "lon": -77.00100583333334}, {"fusion_lat": 0.0, "name": "91c6d00011bd00643b412d66bd1cf795", "is_disabled": 0, "rental_uris": {"android": "https://dc.lft.to/lastmile_qr_scan", "ios": "https://dc.lft.to/lastmile_qr_scan"}, "fusion_lon": 0.0, "lat": 38.897245833333336, "bike_id": "91c6d00011bd00643b412d66bd1cf795", "type": "electric_scooter", "is_reserved": 0, "lon": -77.032049}, {"fusion_lat": 0.0, "name": "775d029dfb30f8b97db80f9c59c77e8c", "is_disabled": 0, "rental_uris": {"android": "https://dc.lft.to/lastmile_qr_scan", "ios": "https://dc.lft.to/lastmile_qr_scan"}, "fusion_lon": 0.0, "lat": 38.922847833333336, "bike_id": "775d029dfb30f8b97db80f9c59c77e8c", "type": "electric_scooter", "is_reserved": 0, "lon": -77.02983966666666}, {"fusion_lat": 0.0, "name": "14bb4d380a7a66a7c8036da21b44063a", "is_disabled": 0, "rental_uris": {"android": "https://dc.lft.to/lastmile_qr_scan", "ios": "https://dc.lft.to/lastmile_qr_scan"}, "fusion_lon": 0.0, "lat": 38.90433316666667, "bike_id": "14bb4d380a7a66a7c8036da21b44063a", "type": "electric_scooter", "is_reserved": 0, "lon": -77.04349883333333}, {"fusion_lat": 0.0, "name": "233bf519c25c94ed9cf52e80a390395f", "is_disabled": 0, "rental_uris": {"android": "https://dc.lft.to/lastmile_qr_scan", "ios": "https://dc.lft.to/lastmile_qr_scan"}, "fusion_lon": 0.0, "lat": 38.940565666666664, "bike_id": "233bf519c25c94ed9cf52e80a390395f", "type": "electric_bike", "is_reserved": 0, "lon": -76.90421566666667}, {"fusion_lat": 0.0, "name": "ae9274e57301a1d0bfd27f894da9dadb", "is_disabled": 0, "rental_uris": {"android": "https://dc.lft.to/lastmile_qr_scan", "ios": "https://dc.lft.to/lastmile_qr_scan"}, "fusion_lon": 0.0, "lat": 38.89512233333333, "bike_id": "ae9274e57301a1d0bfd27f894da9dadb", "type": "electric_scooter", "is_reserved": 0, "lon": -77.041601}, {"fusion_lat": 0.0, "name": "4e5552b32f57ee9369cf2f6ef009e399", "is_disabled": 0, "rental_uris": {"android": "https://dc.lft.to/lastmile_qr_scan", "ios": "https://dc.lft.to/lastmile_qr_scan"}, "fusion_lon": 0.0, "lat": 38.915746666666664, "bike_id": "4e5552b32f57ee9369cf2f6ef009e399", "type": "electric_scooter", "is_reserved": 0, "lon": -77.01246266666666}, {"fusion_lat": 0.0, "name": "37ae68dee58366879c4d4500bec8a66a", "is_disabled": 0, "rental_uris": {"android": "https://dc.lft.to/lastmile_qr_scan", "ios": "https://dc.lft.to/lastmile_qr_scan"}, "fusion_lon": 0.0, "lat": 38.915311833333334, "bike_id": "37ae68dee58366879c4d4500bec8a66a", "type": "electric_scooter", "is_reserved": 0, "lon": -77.0320145}, {"fusion_lat": 0.0, "name": "74b1bfdb7a777a70088ef1218f19b847", "is_disabled": 0, "rental_uris": {"android": "https://dc.lft.to/lastmile_qr_scan", "ios": "https://dc.lft.to/lastmile_qr_scan"}, "fusion_lon": 0.0, "lat": 38.90244766666667, "bike_id": "74b1bfdb7a777a70088ef1218f19b847", "type": "electric_scooter", "is_reserved": 0, "lon": -77.04448866666667}, {"fusion_lat": 0.0, "name": "888aaa427782563f7b8be71a9e79aff8", "is_disabled": 0, "rental_uris": {"android": "https://dc.lft.to/lastmile_qr_scan", "ios": "https://dc.lft.to/lastmile_qr_scan"}, "fusion_lon": 0.0, "lat": 38.90686316666667, "bike_id": "888aaa427782563f7b8be71a9e79aff8", "type": "electric_scooter", "is_reserved": 0, "lon": -77.010933}, {"fusion_lat": 0.0, "name": "ab6af1377f06ceb54e86899d6b92f60a", "is_disabled": 0, "rental_uris": {"android": "https://dc.lft.to/lastmile_qr_scan", "ios": "https://dc.lft.to/lastmile_qr_scan"}, "fusion_lon": 0.0, "lat": 38.91669183333333, "bike_id": "ab6af1377f06ceb54e86899d6b92f60a", "type": "electric_scooter", "is_reserved": 0, "lon": -77.03463883333333}, {"fusion_lat": 0.0, "name": "128caa4b2516e12b50ddcb6be2b93724", "is_disabled": 0, "rental_uris": {"android": "https://dc.lft.to/lastmile_qr_scan", "ios": "https://dc.lft.to/lastmile_qr_scan"}, "fusion_lon": 0.0, "lat": 38.97522283333333, "bike_id": "128caa4b2516e12b50ddcb6be2b93724", "type": "electric_bike", "is_reserved": 0, "lon": -77.01685816666667}, {"fusion_lat": 0.0, "name": "d0919d69ddcb30871f52dcd7cf697134", "is_disabled": 0, "rental_uris": {"android": "https://dc.lft.to/lastmile_qr_scan", "ios": "https://dc.lft.to/lastmile_qr_scan"}, "fusion_lon": 0.0, "lat": 38.90416066666667, "bike_id": "d0919d69ddcb30871f52dcd7cf697134", "type": "electric_scooter", "is_reserved": 0, "lon": -77.001396}, {"fusion_lat": 0.0, "name": "a986593d79ec6df1a9009eb7749f88e6", "is_disabled": 0, "rental_uris": {"android": "https://dc.lft.to/lastmile_qr_scan", "ios": "https://dc.lft.to/lastmile_qr_scan"}, "fusion_lon": 0.0, "lat": 38.994474833333335, "bike_id": "a986593d79ec6df1a9009eb7749f88e6", "type": "electric_bike", "is_reserved": 0, "lon": -76.9958785}, {"fusion_lat": 0.0, "name": "1a30ed1a65d533feb5bc9a9f5e3d1cfd", "is_disabled": 0, "rental_uris": {"android": "https://dc.lft.to/lastmile_qr_scan", "ios": "https://dc.lft.to/lastmile_qr_scan"}, "fusion_lon": 0.0, "lat": 38.89259466666667, "bike_id": "1a30ed1a65d533feb5bc9a9f5e3d1cfd", "type": "electric_scooter", "is_reserved": 0, "lon": -77.04663983333333}, {"fusion_lat": 0.0, "name": "16ee31b82989437bbe7920f9b19e1fa9", "is_disabled": 0, "rental_uris": {"android": "https://dc.lft.to/lastmile_qr_scan", "ios": "https://dc.lft.to/lastmile_qr_scan"}, "fusion_lon": 0.0, "lat": 38.91825133333333, "bike_id": "16ee31b82989437bbe7920f9b19e1fa9", "type": "electric_scooter", "is_reserved": 0, "lon": -77.040261}, {"fusion_lat": 0.0, "name": "8206684b57ac84ce05a9b99cc13a495f", "is_disabled": 0, "rental_uris": {"android": "https://dc.lft.to/lastmile_qr_scan", "ios": "https://dc.lft.to/lastmile_qr_scan"}, "fusion_lon": 0.0, "lat": 38.92913216666667, "bike_id": "8206684b57ac84ce05a9b99cc13a495f", "type": "electric_scooter", "is_reserved": 0, "lon": -77.032623}, {"fusion_lat": 0.0, "name": "b6fa76c9aff2a1aadbeed7a939f55d76", "is_disabled": 0, "rental_uris": {"android": "https://dc.lft.to/lastmile_qr_scan", "ios": "https://dc.lft.to/lastmile_qr_scan"}, "fusion_lon": 0.0, "lat": 38.923314833333336, "bike_id": "b6fa76c9aff2a1aadbeed7a939f55d76", "type": "electric_scooter", "is_reserved": 0, "lon": -77.019651}, {"fusion_lat": 0.0, "name": "33306cea95cd71403584f20aafaf0923", "is_disabled": 0, "rental_uris": {"android": "https://dc.lft.to/lastmile_qr_scan", "ios": "https://dc.lft.to/lastmile_qr_scan"}, "fusion_lon": 0.0, "lat": 38.874948333333336, "bike_id": "33306cea95cd71403584f20aafaf0923", "type": "electric_scooter", "is_reserved": 0, "lon": -77.00152016666667}, {"fusion_lat": 0.0, "name": "117b92f64f7342fcd84b6d5f8ffa9285", "is_disabled": 0, "rental_uris": {"android": "https://dc.lft.to/lastmile_qr_scan", "ios": "https://dc.lft.to/lastmile_qr_scan"}, "fusion_lon": 0.0, "lat": 38.8984805, "bike_id": "117b92f64f7342fcd84b6d5f8ffa9285", "type": "electric_scooter", "is_reserved": 0, "lon": -77.01885233333333}, {"fusion_lat": 0.0, "name": "f82fe9494c73cebf4de4f9a357813b8c", "is_disabled": 0, "rental_uris": {"android": "https://dc.lft.to/lastmile_qr_scan", "ios": "https://dc.lft.to/lastmile_qr_scan"}, "fusion_lon": 0.0, "lat": 38.90758483333333, "bike_id": "f82fe9494c73cebf4de4f9a357813b8c", "type": "electric_scooter", "is_reserved": 0, "lon": -77.00740766666667}, {"fusion_lat": 0.0, "name": "8e8ca25a29fa21a22b2ab7487a3d325a", "is_disabled": 0, "rental_uris": {"android": "https://dc.lft.to/lastmile_qr_scan", "ios": "https://dc.lft.to/lastmile_qr_scan"}, "fusion_lon": 0.0, "lat": 38.938044, "bike_id": "8e8ca25a29fa21a22b2ab7487a3d325a", "type": "electric_scooter", "is_reserved": 0, "lon": -77.06857733333334}, {"fusion_lat": 0.0, "name": "209a48a20c75056c9df5032955d980fa", "is_disabled": 0, "rental_uris": {"android": "https://dc.lft.to/lastmile_qr_scan", "ios": "https://dc.lft.to/lastmile_qr_scan"}, "fusion_lon": 0.0, "lat": 38.92853433333333, "bike_id": "209a48a20c75056c9df5032955d980fa", "type": "electric_scooter", "is_reserved": 0, "lon": -76.997684}, {"fusion_lat": 0.0, "name": "72a82d0f7cbcf989227e7b818196bc84", "is_disabled": 0, "rental_uris": {"android": "https://dc.lft.to/lastmile_qr_scan", "ios": "https://dc.lft.to/lastmile_qr_scan"}, "fusion_lon": 0.0, "lat": 38.89959566666667, "bike_id": "72a82d0f7cbcf989227e7b818196bc84", "type": "electric_scooter", "is_reserved": 0, "lon": -77.04896116666667}, {"fusion_lat": 0.0, "name": "1b360d86ec08001115316750e84d6f6c", "is_disabled": 0, "rental_uris": {"android": "https://dc.lft.to/lastmile_qr_scan", "ios": "https://dc.lft.to/lastmile_qr_scan"}, "fusion_lon": 0.0, "lat": 38.948212, "bike_id": "1b360d86ec08001115316750e84d6f6c", "type": "electric_bike", "is_reserved": 0, "lon": -77.0294525}, {"fusion_lat": 0.0, "name": "fcae7a9ece02cabeba246cccbaccfdee", "is_disabled": 0, "rental_uris": {"android": "https://dc.lft.to/lastmile_qr_scan", "ios": "https://dc.lft.to/lastmile_qr_scan"}, "fusion_lon": 0.0, "lat": 38.9020515, "bike_id": "fcae7a9ece02cabeba246cccbaccfdee", "type": "electric_scooter", "is_reserved": 0, "lon": -77.02229}, {"fusion_lat": 0.0, "name": "8029f21ce1bc3959fd460db85512dd56", "is_disabled": 0, "rental_uris": {"android": "https://dc.lft.to/lastmile_qr_scan", "ios": "https://dc.lft.to/lastmile_qr_scan"}, "fusion_lon": 0.0, "lat": 38.94473166666667, "bike_id": "8029f21ce1bc3959fd460db85512dd56", "type": "electric_scooter", "is_reserved": 0, "lon": -77.023574}, {"fusion_lat": 0.0, "name": "0f677f759f0fc430c99d660012f23cdf", "is_disabled": 0, "rental_uris": {"android": "https://dc.lft.to/lastmile_qr_scan", "ios": "https://dc.lft.to/lastmile_qr_scan"}, "fusion_lon": 0.0, "lat": 39.002963666666666, "bike_id": "0f677f759f0fc430c99d660012f23cdf", "type": "electric_bike", "is_reserved": 0, "lon": -76.90295383333333}, {"fusion_lat": 0.0, "name": "3b076b1fb69b86084b6a6560ff4955cd", "is_disabled": 0, "rental_uris": {"android": "https://dc.lft.to/lastmile_qr_scan", "ios": "https://dc.lft.to/lastmile_qr_scan"}, "fusion_lon": 0.0, "lat": 38.91472916666667, "bike_id": "3b076b1fb69b86084b6a6560ff4955cd", "type": "electric_scooter", "is_reserved": 0, "lon": -77.02398716666667}, {"fusion_lat": 0.0, "name": "cc70f08b331746db6f5fe3f1918ff029", "is_disabled": 0, "rental_uris": {"android": "https://dc.lft.to/lastmile_qr_scan", "ios": "https://dc.lft.to/lastmile_qr_scan"}, "fusion_lon": 0.0, "lat": 38.923583666666666, "bike_id": "cc70f08b331746db6f5fe3f1918ff029", "type": "electric_scooter", "is_reserved": 0, "lon": -77.01952283333334}, {"fusion_lat": 0.0, "name": "4436ec3fc867c31d3f782ec47a75121a", "is_disabled": 0, "rental_uris": {"android": "https://dc.lft.to/lastmile_qr_scan", "ios": "https://dc.lft.to/lastmile_qr_scan"}, "fusion_lon": 0.0, "lat": 38.91182533333333, "bike_id": "4436ec3fc867c31d3f782ec47a75121a", "type": "electric_scooter", "is_reserved": 0, "lon": -77.03840833333334}, {"fusion_lat": 0.0, "name": "380c7c3d13fb73d7efd02c480d5f4e89", "is_disabled": 0, "rental_uris": {"android": "https://dc.lft.to/lastmile_qr_scan", "ios": "https://dc.lft.to/lastmile_qr_scan"}, "fusion_lon": 0.0, "lat": 38.923942833333335, "bike_id": "380c7c3d13fb73d7efd02c480d5f4e89", "type": "electric_bike", "is_reserved": 0, "lon": -76.999995}, {"fusion_lat": 0.0, "name": "9b60710ff0a3616b6b06e23df7848e14", "is_disabled": 0, "rental_uris": {"android": "https://dc.lft.to/lastmile_qr_scan", "ios": "https://dc.lft.to/lastmile_qr_scan"}, "fusion_lon": 0.0, "lat": 38.933257, "bike_id": "9b60710ff0a3616b6b06e23df7848e14", "type": "electric_scooter", "is_reserved": 0, "lon": -77.03432366666667}, {"fusion_lat": 0.0, "name": "c85b2c147e927ccd2a2a9bc24802a02c", "is_disabled": 0, "rental_uris": {"android": "https://dc.lft.to/lastmile_qr_scan", "ios": "https://dc.lft.to/lastmile_qr_scan"}, "fusion_lon": 0.0, "lat": 38.92378, "bike_id": "c85b2c147e927ccd2a2a9bc24802a02c", "type": "electric_scooter", "is_reserved": 0, "lon": -77.05149533333334}, {"fusion_lat": 0.0, "name": "2065eb615c1dbdc16cf17086012c308e", "is_disabled": 0, "rental_uris": {"android": "https://dc.lft.to/lastmile_qr_scan", "ios": "https://dc.lft.to/lastmile_qr_scan"}, "fusion_lon": 0.0, "lat": 38.884890666666664, "bike_id": "2065eb615c1dbdc16cf17086012c308e", "type": "electric_scooter", "is_reserved": 0, "lon": -77.00710466666666}, {"fusion_lat": 0.0, "name": "09485da8f33fd461335d222456acc98e", "is_disabled": 0, "rental_uris": {"android": "https://dc.lft.to/lastmile_qr_scan", "ios": "https://dc.lft.to/lastmile_qr_scan"}, "fusion_lon": 0.0, "lat": 38.86766033333333, "bike_id": "09485da8f33fd461335d222456acc98e", "type": "electric_scooter", "is_reserved": 0, "lon": -76.98277766666666}, {"fusion_lat": 0.0, "name": "da267bd0570caac444ff20cdae6470e1", "is_disabled": 0, "rental_uris": {"android": "https://dc.lft.to/lastmile_qr_scan", "ios": "https://dc.lft.to/lastmile_qr_scan"}, "fusion_lon": 0.0, "lat": 38.902475333333335, "bike_id": "da267bd0570caac444ff20cdae6470e1", "type": "electric_scooter", "is_reserved": 0, "lon": -77.01742383333334}, {"fusion_lat": 0.0, "name": "4aed7a8a7d2b46ef4527425d53cdd78a", "is_disabled": 0, "rental_uris": {"android": "https://dc.lft.to/lastmile_qr_scan", "ios": "https://dc.lft.to/lastmile_qr_scan"}, "fusion_lon": 0.0, "lat": 38.8889935, "bike_id": "4aed7a8a7d2b46ef4527425d53cdd78a", "type": "electric_scooter", "is_reserved": 0, "lon": -76.9772845}, {"fusion_lat": 0.0, "name": "2ca33eac0a47e51fd966d4eb3076ca2f", "is_disabled": 0, "rental_uris": {"android": "https://dc.lft.to/lastmile_qr_scan", "ios": "https://dc.lft.to/lastmile_qr_scan"}, "fusion_lon": 0.0, "lat": 38.90030933333333, "bike_id": "2ca33eac0a47e51fd966d4eb3076ca2f", "type": "electric_scooter", "is_reserved": 0, "lon": -77.01173416666667}, {"fusion_lat": 0.0, "name": "6775783203437a218ed37e1648b6c566", "is_disabled": 0, "rental_uris": {"android": "https://dc.lft.to/lastmile_qr_scan", "ios": "https://dc.lft.to/lastmile_qr_scan"}, "fusion_lon": 0.0, "lat": 38.9112105, "bike_id": "6775783203437a218ed37e1648b6c566", "type": "electric_scooter", "is_reserved": 0, "lon": -77.03833133333333}, {"fusion_lat": 0.0, "name": "096b36a414676c45a538ce18f0441d0c", "is_disabled": 0, "rental_uris": {"android": "https://dc.lft.to/lastmile_qr_scan", "ios": "https://dc.lft.to/lastmile_qr_scan"}, "fusion_lon": 0.0, "lat": 38.9086895, "bike_id": "096b36a414676c45a538ce18f0441d0c", "type": "electric_scooter", "is_reserved": 0, "lon": -77.03189516666667}, {"fusion_lat": 0.0, "name": "203c7eee670c416a1f1414a056e651b2", "is_disabled": 0, "rental_uris": {"android": "https://dc.lft.to/lastmile_qr_scan", "ios": "https://dc.lft.to/lastmile_qr_scan"}, "fusion_lon": 0.0, "lat": 38.932611666666666, "bike_id": "203c7eee670c416a1f1414a056e651b2", "type": "electric_scooter", "is_reserved": 0, "lon": -77.0662015}, {"fusion_lat": 0.0, "name": "a25a75679445f15b88e95f3ff85c640b", "is_disabled": 0, "rental_uris": {"android": "https://dc.lft.to/lastmile_qr_scan", "ios": "https://dc.lft.to/lastmile_qr_scan"}, "fusion_lon": 0.0, "lat": 38.92035166666667, "bike_id": "a25a75679445f15b88e95f3ff85c640b", "type": "electric_scooter", "is_reserved": 0, "lon": -77.02589716666667}, {"fusion_lat": 0.0, "name": "58a58a2a240f5a2fcd7a55eeeebc209c", "is_disabled": 0, "rental_uris": {"android": "https://dc.lft.to/lastmile_qr_scan", "ios": "https://dc.lft.to/lastmile_qr_scan"}, "fusion_lon": 0.0, "lat": 38.8922265, "bike_id": "58a58a2a240f5a2fcd7a55eeeebc209c", "type": "electric_scooter", "is_reserved": 0, "lon": -77.0313055}, {"fusion_lat": 0.0, "name": "2f708a175a6157c7eec07efc8a2615d1", "is_disabled": 0, "rental_uris": {"android": "https://dc.lft.to/lastmile_qr_scan", "ios": "https://dc.lft.to/lastmile_qr_scan"}, "fusion_lon": 0.0, "lat": 38.887201, "bike_id": "2f708a175a6157c7eec07efc8a2615d1", "type": "electric_scooter", "is_reserved": 0, "lon": -76.9968645}, {"fusion_lat": 0.0, "name": "ad2440d8075550abc8125aa5f3d6b331", "is_disabled": 0, "rental_uris": {"android": "https://dc.lft.to/lastmile_qr_scan", "ios": "https://dc.lft.to/lastmile_qr_scan"}, "fusion_lon": 0.0, "lat": 38.936718166666665, "bike_id": "ad2440d8075550abc8125aa5f3d6b331", "type": "electric_scooter", "is_reserved": 0, "lon": -77.03594016666666}, {"fusion_lat": 0.0, "name": "0b3e77dd3608f02a7c0cdf414e9a92b6", "is_disabled": 0, "rental_uris": {"android": "https://dc.lft.to/lastmile_qr_scan", "ios": "https://dc.lft.to/lastmile_qr_scan"}, "fusion_lon": 0.0, "lat": 38.865554333333336, "bike_id": "0b3e77dd3608f02a7c0cdf414e9a92b6", "type": "electric_scooter", "is_reserved": 0, "lon": -76.9785785}, {"fusion_lat": 0.0, "name": "a1ff6a04d217ad44124c222b19485f3e", "is_disabled": 0, "rental_uris": {"android": "https://dc.lft.to/lastmile_qr_scan", "ios": "https://dc.lft.to/lastmile_qr_scan"}, "fusion_lon": 0.0, "lat": 38.884126333333334, "bike_id": "a1ff6a04d217ad44124c222b19485f3e", "type": "electric_scooter", "is_reserved": 0, "lon": -76.98605416666666}, {"fusion_lat": 0.0, "name": "3a154f779a1b5f5a12a509d1c1ffa497", "is_disabled": 0, "rental_uris": {"android": "https://dc.lft.to/lastmile_qr_scan", "ios": "https://dc.lft.to/lastmile_qr_scan"}, "fusion_lon": 0.0, "lat": 38.89946316666666, "bike_id": "3a154f779a1b5f5a12a509d1c1ffa497", "type": "electric_scooter", "is_reserved": 0, "lon": -76.98157833333333}, {"fusion_lat": 0.0, "name": "e53df26d879f7f147406e9ce34c3122f", "is_disabled": 0, "rental_uris": {"android": "https://dc.lft.to/lastmile_qr_scan", "ios": "https://dc.lft.to/lastmile_qr_scan"}, "fusion_lon": 0.0, "lat": 38.9244185, "bike_id": "e53df26d879f7f147406e9ce34c3122f", "type": "electric_scooter", "is_reserved": 0, "lon": -77.03405383333333}, {"fusion_lat": 0.0, "name": "a44750b3f06f51e6138397cbacf626aa", "is_disabled": 0, "rental_uris": {"android": "https://dc.lft.to/lastmile_qr_scan", "ios": "https://dc.lft.to/lastmile_qr_scan"}, "fusion_lon": 0.0, "lat": 38.94442183333334, "bike_id": "a44750b3f06f51e6138397cbacf626aa", "type": "electric_scooter", "is_reserved": 0, "lon": -77.063503}, {"fusion_lat": 0.0, "name": "6e31eb8f538d9933a702b03d5e3c38fa", "is_disabled": 0, "rental_uris": {"android": "https://dc.lft.to/lastmile_qr_scan", "ios": "https://dc.lft.to/lastmile_qr_scan"}, "fusion_lon": 0.0, "lat": 38.89849816666667, "bike_id": "6e31eb8f538d9933a702b03d5e3c38fa", "type": "electric_scooter", "is_reserved": 0, "lon": -77.02859283333333}, {"fusion_lat": 0.0, "name": "853bd05aa581dec97c4d10f0bf0e003e", "is_disabled": 0, "rental_uris": {"android": "https://dc.lft.to/lastmile_qr_scan", "ios": "https://dc.lft.to/lastmile_qr_scan"}, "fusion_lon": 0.0, "lat": 38.89231933333333, "bike_id": "853bd05aa581dec97c4d10f0bf0e003e", "type": "electric_scooter", "is_reserved": 0, "lon": -77.0211065}, {"fusion_lat": 0.0, "name": "768276af0a6e940850bb10c4406a8a66", "is_disabled": 0, "rental_uris": {"android": "https://dc.lft.to/lastmile_qr_scan", "ios": "https://dc.lft.to/lastmile_qr_scan"}, "fusion_lon": 0.0, "lat": 38.85581466666667, "bike_id": "768276af0a6e940850bb10c4406a8a66", "type": "electric_scooter", "is_reserved": 0, "lon": -76.96657133333333}, {"fusion_lat": 0.0, "name": "d5593bf3aec95a08e9db67a4bd3e51e4", "is_disabled": 0, "rental_uris": {"android": "https://dc.lft.to/lastmile_qr_scan", "ios": "https://dc.lft.to/lastmile_qr_scan"}, "fusion_lon": 0.0, "lat": 38.90311783333333, "bike_id": "d5593bf3aec95a08e9db67a4bd3e51e4", "type": "electric_scooter", "is_reserved": 0, "lon": -77.04499666666666}, {"fusion_lat": 0.0, "name": "48f46054094568de85b2c2575df78d24", "is_disabled": 0, "rental_uris": {"android": "https://dc.lft.to/lastmile_qr_scan", "ios": "https://dc.lft.to/lastmile_qr_scan"}, "fusion_lon": 0.0, "lat": 38.899207833333335, "bike_id": "48f46054094568de85b2c2575df78d24", "type": "electric_scooter", "is_reserved": 0, "lon": -76.98534933333333}, {"fusion_lat": 0.0, "name": "97a2e17a880c0ec726fed98a27b48a2b", "is_disabled": 0, "rental_uris": {"android": "https://dc.lft.to/lastmile_qr_scan", "ios": "https://dc.lft.to/lastmile_qr_scan"}, "fusion_lon": 0.0, "lat": 38.9003445, "bike_id": "97a2e17a880c0ec726fed98a27b48a2b", "type": "electric_scooter", "is_reserved": 0, "lon": -77.01178083333333}, {"fusion_lat": 0.0, "name": "26ef2af958d04515a63826e6bf91e099", "is_disabled": 0, "rental_uris": {"android": "https://dc.lft.to/lastmile_qr_scan", "ios": "https://dc.lft.to/lastmile_qr_scan"}, "fusion_lon": 0.0, "lat": 38.904394, "bike_id": "26ef2af958d04515a63826e6bf91e099", "type": "electric_scooter", "is_reserved": 0, "lon": -77.04080283333333}, {"fusion_lat": 0.0, "name": "6bf391dc3d730ec652c7c7ba19a373a5", "is_disabled": 0, "rental_uris": {"android": "https://dc.lft.to/lastmile_qr_scan", "ios": "https://dc.lft.to/lastmile_qr_scan"}, "fusion_lon": 0.0, "lat": 38.9203525, "bike_id": "6bf391dc3d730ec652c7c7ba19a373a5", "type": "electric_scooter", "is_reserved": 0, "lon": -77.0408565}, {"fusion_lat": 0.0, "name": "80490b05d8040469fb8fa440a7887578", "is_disabled": 0, "rental_uris": {"android": "https://dc.lft.to/lastmile_qr_scan", "ios": "https://dc.lft.to/lastmile_qr_scan"}, "fusion_lon": 0.0, "lat": 38.92370916666667, "bike_id": "80490b05d8040469fb8fa440a7887578", "type": "electric_scooter", "is_reserved": 0, "lon": -77.0502565}, {"fusion_lat": 0.0, "name": "6c8f12e831be7983b569db09d5f6056d", "is_disabled": 0, "rental_uris": {"android": "https://dc.lft.to/lastmile_qr_scan", "ios": "https://dc.lft.to/lastmile_qr_scan"}, "fusion_lon": 0.0, "lat": 38.924025666666665, "bike_id": "6c8f12e831be7983b569db09d5f6056d", "type": "electric_scooter", "is_reserved": 0, "lon": -77.04298016666667}, {"fusion_lat": 0.0, "name": "0146583f6fbac4a0ca8d8c270469b29c", "is_disabled": 0, "rental_uris": {"android": "https://dc.lft.to/lastmile_qr_scan", "ios": "https://dc.lft.to/lastmile_qr_scan"}, "fusion_lon": 0.0, "lat": 38.91689483333333, "bike_id": "0146583f6fbac4a0ca8d8c270469b29c", "type": "electric_scooter", "is_reserved": 0, "lon": -77.02949416666667}, {"fusion_lat": 0.0, "name": "76e0afc2247ce8fe843d22b961bd87ab", "is_disabled": 0, "rental_uris": {"android": "https://dc.lft.to/lastmile_qr_scan", "ios": "https://dc.lft.to/lastmile_qr_scan"}, "fusion_lon": 0.0, "lat": 38.9155655, "bike_id": "76e0afc2247ce8fe843d22b961bd87ab", "type": "electric_scooter", "is_reserved": 0, "lon": -77.03861483333333}, {"fusion_lat": 0.0, "name": "cb383ca32615130bf7e4cd918850ba9b", "is_disabled": 0, "rental_uris": {"android": "https://dc.lft.to/lastmile_qr_scan", "ios": "https://dc.lft.to/lastmile_qr_scan"}, "fusion_lon": 0.0, "lat": 38.92163083333333, "bike_id": "cb383ca32615130bf7e4cd918850ba9b", "type": "electric_scooter", "is_reserved": 0, "lon": -77.03379083333333}, {"fusion_lat": 0.0, "name": "e26a82da1120ea271bab6895d6b9c1db", "is_disabled": 0, "rental_uris": {"android": "https://dc.lft.to/lastmile_qr_scan", "ios": "https://dc.lft.to/lastmile_qr_scan"}, "fusion_lon": 0.0, "lat": 38.89713833333333, "bike_id": "e26a82da1120ea271bab6895d6b9c1db", "type": "electric_scooter", "is_reserved": 0, "lon": -77.013062}, {"fusion_lat": 0.0, "name": "756e3160b42bd50e56652171bec575ee", "is_disabled": 0, "rental_uris": {"android": "https://dc.lft.to/lastmile_qr_scan", "ios": "https://dc.lft.to/lastmile_qr_scan"}, "fusion_lon": 0.0, "lat": 38.913238, "bike_id": "756e3160b42bd50e56652171bec575ee", "type": "electric_scooter", "is_reserved": 0, "lon": -77.03164216666667}, {"fusion_lat": 0.0, "name": "de92618e0d49161f57dd86e9602eb035", "is_disabled": 0, "rental_uris": {"android": "https://dc.lft.to/lastmile_qr_scan", "ios": "https://dc.lft.to/lastmile_qr_scan"}, "fusion_lon": 0.0, "lat": 38.9289215, "bike_id": "de92618e0d49161f57dd86e9602eb035", "type": "electric_scooter", "is_reserved": 0, "lon": -77.03236683333333}, {"fusion_lat": 0.0, "name": "3daec9fcc92261637ff6e523e0ec8ae7", "is_disabled": 0, "rental_uris": {"android": "https://dc.lft.to/lastmile_qr_scan", "ios": "https://dc.lft.to/lastmile_qr_scan"}, "fusion_lon": 0.0, "lat": 38.917385833333334, "bike_id": "3daec9fcc92261637ff6e523e0ec8ae7", "type": "electric_scooter", "is_reserved": 0, "lon": -77.03204066666666}, {"fusion_lat": 0.0, "name": "76eae2e8c50814b9e72b37120eed197c", "is_disabled": 0, "rental_uris": {"android": "https://dc.lft.to/lastmile_qr_scan", "ios": "https://dc.lft.to/lastmile_qr_scan"}, "fusion_lon": 0.0, "lat": 38.904285333333334, "bike_id": "76eae2e8c50814b9e72b37120eed197c", "type": "electric_scooter", "is_reserved": 0, "lon": -76.94976366666667}, {"fusion_lat": 0.0, "name": "2b8f984af834653b91cbe5d0335c8d83", "is_disabled": 0, "rental_uris": {"android": "https://dc.lft.to/lastmile_qr_scan", "ios": "https://dc.lft.to/lastmile_qr_scan"}, "fusion_lon": 0.0, "lat": 38.91180266666667, "bike_id": "2b8f984af834653b91cbe5d0335c8d83", "type": "electric_scooter", "is_reserved": 0, "lon": -77.060913}, {"fusion_lat": 0.0, "name": "a08547a36a7c27b6f331fea108326aa9", "is_disabled": 0, "rental_uris": {"android": "https://dc.lft.to/lastmile_qr_scan", "ios": "https://dc.lft.to/lastmile_qr_scan"}, "fusion_lon": 0.0, "lat": 38.900150833333335, "bike_id": "a08547a36a7c27b6f331fea108326aa9", "type": "electric_scooter", "is_reserved": 0, "lon": -77.00672383333334}, {"fusion_lat": 0.0, "name": "8546bc38d1d5e4b1a9d5bcf928afd9c7", "is_disabled": 0, "rental_uris": {"android": "https://dc.lft.to/lastmile_qr_scan", "ios": "https://dc.lft.to/lastmile_qr_scan"}, "fusion_lon": 0.0, "lat": 38.88531533333333, "bike_id": "8546bc38d1d5e4b1a9d5bcf928afd9c7", "type": "electric_scooter", "is_reserved": 0, "lon": -77.0151585}, {"fusion_lat": 0.0, "name": "4e9ea56c30c8a5f5a22306150b36c354", "is_disabled": 0, "rental_uris": {"android": "https://dc.lft.to/lastmile_qr_scan", "ios": "https://dc.lft.to/lastmile_qr_scan"}, "fusion_lon": 0.0, "lat": 38.91485133333333, "bike_id": "4e9ea56c30c8a5f5a22306150b36c354", "type": "electric_scooter", "is_reserved": 0, "lon": -77.02294666666667}, {"fusion_lat": 0.0, "name": "dcd7b8d84d0e3fc7a980292e2739fc2b", "is_disabled": 0, "rental_uris": {"android": "https://dc.lft.to/lastmile_qr_scan", "ios": "https://dc.lft.to/lastmile_qr_scan"}, "fusion_lon": 0.0, "lat": 38.89248, "bike_id": "dcd7b8d84d0e3fc7a980292e2739fc2b", "type": "electric_scooter", "is_reserved": 0, "lon": -77.04656516666667}, {"fusion_lat": 0.0, "name": "8fd2a4b4dcfe5d338854ffcdeba81bff", "is_disabled": 0, "rental_uris": {"android": "https://dc.lft.to/lastmile_qr_scan", "ios": "https://dc.lft.to/lastmile_qr_scan"}, "fusion_lon": 0.0, "lat": 38.8923805, "bike_id": "8fd2a4b4dcfe5d338854ffcdeba81bff", "type": "electric_scooter", "is_reserved": 0, "lon": -77.0487525}, {"fusion_lat": 0.0, "name": "52f18c1999644fd4dd4a4ee5b4e62c9d", "is_disabled": 0, "rental_uris": {"android": "https://dc.lft.to/lastmile_qr_scan", "ios": "https://dc.lft.to/lastmile_qr_scan"}, "fusion_lon": 0.0, "lat": 38.90514983333333, "bike_id": "52f18c1999644fd4dd4a4ee5b4e62c9d", "type": "electric_scooter", "is_reserved": 0, "lon": -77.0514135}, {"fusion_lat": 0.0, "name": "8a990b1c3f8b280842845213f0e4c6ef", "is_disabled": 0, "rental_uris": {"android": "https://dc.lft.to/lastmile_qr_scan", "ios": "https://dc.lft.to/lastmile_qr_scan"}, "fusion_lon": 0.0, "lat": 38.90228033333333, "bike_id": "8a990b1c3f8b280842845213f0e4c6ef", "type": "electric_scooter", "is_reserved": 0, "lon": -77.04758383333333}, {"fusion_lat": 0.0, "name": "9b32a80ef7f6d34e43975b18cabd55e4", "is_disabled": 0, "rental_uris": {"android": "https://dc.lft.to/lastmile_qr_scan", "ios": "https://dc.lft.to/lastmile_qr_scan"}, "fusion_lon": 0.0, "lat": 38.85611733333333, "bike_id": "9b32a80ef7f6d34e43975b18cabd55e4", "type": "electric_scooter", "is_reserved": 0, "lon": -76.97271366666666}, {"fusion_lat": 0.0, "name": "a595c1ee471131ceb854673d3aa589dd", "is_disabled": 0, "rental_uris": {"android": "https://dc.lft.to/lastmile_qr_scan", "ios": "https://dc.lft.to/lastmile_qr_scan"}, "fusion_lon": 0.0, "lat": 38.9211135, "bike_id": "a595c1ee471131ceb854673d3aa589dd", "type": "electric_bike", "is_reserved": 0, "lon": -77.06328366666666}, {"fusion_lat": 0.0, "name": "5414169d12050823b485c20e938ed4c1", "is_disabled": 0, "rental_uris": {"android": "https://dc.lft.to/lastmile_qr_scan", "ios": "https://dc.lft.to/lastmile_qr_scan"}, "fusion_lon": 0.0, "lat": 38.930854, "bike_id": "5414169d12050823b485c20e938ed4c1", "type": "electric_scooter", "is_reserved": 0, "lon": -77.0374475}, {"fusion_lat": 0.0, "name": "68cccd93e3a3960aa0305e29e888fffc", "is_disabled": 0, "rental_uris": {"android": "https://dc.lft.to/lastmile_qr_scan", "ios": "https://dc.lft.to/lastmile_qr_scan"}, "fusion_lon": 0.0, "lat": 38.978454166666666, "bike_id": "68cccd93e3a3960aa0305e29e888fffc", "type": "electric_bike", "is_reserved": 0, "lon": -77.09079433333333}, {"fusion_lat": 0.0, "name": "bde0619d77147c5a030ed540146773ec", "is_disabled": 0, "rental_uris": {"android": "https://dc.lft.to/lastmile_qr_scan", "ios": "https://dc.lft.to/lastmile_qr_scan"}, "fusion_lon": 0.0, "lat": 38.9210375, "bike_id": "bde0619d77147c5a030ed540146773ec", "type": "electric_scooter", "is_reserved": 0, "lon": -77.04695016666666}, {"fusion_lat": 0.0, "name": "e25d1149b176a71bbb76e84b66711bbd", "is_disabled": 0, "rental_uris": {"android": "https://dc.lft.to/lastmile_qr_scan", "ios": "https://dc.lft.to/lastmile_qr_scan"}, "fusion_lon": 0.0, "lat": 38.90970866666667, "bike_id": "e25d1149b176a71bbb76e84b66711bbd", "type": "electric_scooter", "is_reserved": 0, "lon": -77.04527383333334}, {"fusion_lat": 0.0, "name": "c3279443f83cc181c21544d71816633e", "is_disabled": 0, "rental_uris": {"android": "https://dc.lft.to/lastmile_qr_scan", "ios": "https://dc.lft.to/lastmile_qr_scan"}, "fusion_lon": 0.0, "lat": 38.8922545, "bike_id": "c3279443f83cc181c21544d71816633e", "type": "electric_scooter", "is_reserved": 0, "lon": -77.0419525}, {"fusion_lat": 0.0, "name": "fb4c7c8cf1b861b5d9042e872aa89014", "is_disabled": 0, "rental_uris": {"android": "https://dc.lft.to/lastmile_qr_scan", "ios": "https://dc.lft.to/lastmile_qr_scan"}, "fusion_lon": 0.0, "lat": 38.905195666666664, "bike_id": "fb4c7c8cf1b861b5d9042e872aa89014", "type": "electric_scooter", "is_reserved": 0, "lon": -77.0465295}, {"fusion_lat": 0.0, "name": "796bb4f50814a41c25420a699d8f8528", "is_disabled": 0, "rental_uris": {"android": "https://dc.lft.to/lastmile_qr_scan", "ios": "https://dc.lft.to/lastmile_qr_scan"}, "fusion_lon": 0.0, "lat": 38.89787466666667, "bike_id": "796bb4f50814a41c25420a699d8f8528", "type": "electric_bike", "is_reserved": 0, "lon": -76.99033883333334}, {"fusion_lat": 0.0, "name": "d2dca8154ea339d0049d36bcd696476c", "is_disabled": 0, "rental_uris": {"android": "https://dc.lft.to/lastmile_qr_scan", "ios": "https://dc.lft.to/lastmile_qr_scan"}, "fusion_lon": 0.0, "lat": 38.90239566666666, "bike_id": "d2dca8154ea339d0049d36bcd696476c", "type": "electric_scooter", "is_reserved": 0, "lon": -77.0383165}, {"fusion_lat": 0.0, "name": "95e56768bd29d01615f00ae1dd55b52e", "is_disabled": 0, "rental_uris": {"android": "https://dc.lft.to/lastmile_qr_scan", "ios": "https://dc.lft.to/lastmile_qr_scan"}, "fusion_lon": 0.0, "lat": 38.93873166666667, "bike_id": "95e56768bd29d01615f00ae1dd55b52e", "type": "electric_scooter", "is_reserved": 0, "lon": -77.02473566666667}, {"fusion_lat": 0.0, "name": "5e82881727e25ad1acc7769d54eccbc5", "is_disabled": 0, "rental_uris": {"android": "https://dc.lft.to/lastmile_qr_scan", "ios": "https://dc.lft.to/lastmile_qr_scan"}, "fusion_lon": 0.0, "lat": 38.8646135, "bike_id": "5e82881727e25ad1acc7769d54eccbc5", "type": "electric_bike", "is_reserved": 0, "lon": -76.9453895}, {"fusion_lat": 0.0, "name": "f962cc0707caf829893acb1161156d07", "is_disabled": 0, "rental_uris": {"android": "https://dc.lft.to/lastmile_qr_scan", "ios": "https://dc.lft.to/lastmile_qr_scan"}, "fusion_lon": 0.0, "lat": 38.92840616666667, "bike_id": "f962cc0707caf829893acb1161156d07", "type": "electric_scooter", "is_reserved": 0, "lon": -77.01421733333333}, {"fusion_lat": 0.0, "name": "74d81d623b03b1f47d757f4e4806bad7", "is_disabled": 0, "rental_uris": {"android": "https://dc.lft.to/lastmile_qr_scan", "ios": "https://dc.lft.to/lastmile_qr_scan"}, "fusion_lon": 0.0, "lat": 38.8848815, "bike_id": "74d81d623b03b1f47d757f4e4806bad7", "type": "electric_scooter", "is_reserved": 0, "lon": -77.00712116666666}, {"fusion_lat": 0.0, "name": "94a03083537433abbbed3e3e53e61b8f", "is_disabled": 0, "rental_uris": {"android": "https://dc.lft.to/lastmile_qr_scan", "ios": "https://dc.lft.to/lastmile_qr_scan"}, "fusion_lon": 0.0, "lat": 38.92201416666666, "bike_id": "94a03083537433abbbed3e3e53e61b8f", "type": "electric_scooter", "is_reserved": 0, "lon": -77.04120366666666}, {"fusion_lat": 0.0, "name": "734dff5659c4acafd6aa9be96e83ee54", "is_disabled": 0, "rental_uris": {"android": "https://dc.lft.to/lastmile_qr_scan", "ios": "https://dc.lft.to/lastmile_qr_scan"}, "fusion_lon": 0.0, "lat": 38.93117766666667, "bike_id": "734dff5659c4acafd6aa9be96e83ee54", "type": "electric_scooter", "is_reserved": 0, "lon": -77.023448}, {"fusion_lat": 0.0, "name": "8ca2ab348e70a5443f8c68ae8637425c", "is_disabled": 0, "rental_uris": {"android": "https://dc.lft.to/lastmile_qr_scan", "ios": "https://dc.lft.to/lastmile_qr_scan"}, "fusion_lon": 0.0, "lat": 38.88525766666667, "bike_id": "8ca2ab348e70a5443f8c68ae8637425c", "type": "electric_scooter", "is_reserved": 0, "lon": -77.01518616666667}, {"fusion_lat": 0.0, "name": "7c3a0a361649107aded4829933a5e90f", "is_disabled": 0, "rental_uris": {"android": "https://dc.lft.to/lastmile_qr_scan", "ios": "https://dc.lft.to/lastmile_qr_scan"}, "fusion_lon": 0.0, "lat": 38.91430416666667, "bike_id": "7c3a0a361649107aded4829933a5e90f", "type": "electric_scooter", "is_reserved": 0, "lon": -77.06420183333333}, {"fusion_lat": 0.0, "name": "8e99911a2e6594f3e1347d33d008b6de", "is_disabled": 0, "rental_uris": {"android": "https://dc.lft.to/lastmile_qr_scan", "ios": "https://dc.lft.to/lastmile_qr_scan"}, "fusion_lon": 0.0, "lat": 38.8874565, "bike_id": "8e99911a2e6594f3e1347d33d008b6de", "type": "electric_scooter", "is_reserved": 0, "lon": -77.0177855}, {"fusion_lat": 0.0, "name": "ec45096dc7c9e42fc0af9e6512afc526", "is_disabled": 0, "rental_uris": {"android": "https://dc.lft.to/lastmile_qr_scan", "ios": "https://dc.lft.to/lastmile_qr_scan"}, "fusion_lon": 0.0, "lat": 38.89526933333333, "bike_id": "ec45096dc7c9e42fc0af9e6512afc526", "type": "electric_scooter", "is_reserved": 0, "lon": -77.00338916666666}, {"fusion_lat": 0.0, "name": "450fbfb5467bdbd58fe5bb002cedfe30", "is_disabled": 0, "rental_uris": {"android": "https://dc.lft.to/lastmile_qr_scan", "ios": "https://dc.lft.to/lastmile_qr_scan"}, "fusion_lon": 0.0, "lat": 38.884119, "bike_id": "450fbfb5467bdbd58fe5bb002cedfe30", "type": "electric_scooter", "is_reserved": 0, "lon": -77.02652533333334}, {"fusion_lat": 0.0, "name": "aecee17fcd3faddcddc05316ee8ef651", "is_disabled": 0, "rental_uris": {"android": "https://dc.lft.to/lastmile_qr_scan", "ios": "https://dc.lft.to/lastmile_qr_scan"}, "fusion_lon": 0.0, "lat": 38.920792166666665, "bike_id": "aecee17fcd3faddcddc05316ee8ef651", "type": "electric_bike", "is_reserved": 0, "lon": -76.98948733333333}, {"fusion_lat": 0.0, "name": "a8978c8eb077483bb23a10366d941c3d", "is_disabled": 0, "rental_uris": {"android": "https://dc.lft.to/lastmile_qr_scan", "ios": "https://dc.lft.to/lastmile_qr_scan"}, "fusion_lon": 0.0, "lat": 38.87464583333333, "bike_id": "a8978c8eb077483bb23a10366d941c3d", "type": "electric_scooter", "is_reserved": 0, "lon": -77.009665}, {"fusion_lat": 0.0, "name": "8879f4a060f6baf616024f3ad93fa08b", "is_disabled": 0, "rental_uris": {"android": "https://dc.lft.to/lastmile_qr_scan", "ios": "https://dc.lft.to/lastmile_qr_scan"}, "fusion_lon": 0.0, "lat": 38.89555083333333, "bike_id": "8879f4a060f6baf616024f3ad93fa08b", "type": "electric_scooter", "is_reserved": 0, "lon": -76.99841266666667}, {"fusion_lat": 0.0, "name": "4882956cd7a67bd69358245049427949", "is_disabled": 0, "rental_uris": {"android": "https://dc.lft.to/lastmile_qr_scan", "ios": "https://dc.lft.to/lastmile_qr_scan"}, "fusion_lon": 0.0, "lat": 38.884951, "bike_id": "4882956cd7a67bd69358245049427949", "type": "electric_scooter", "is_reserved": 0, "lon": -77.0072505}, {"fusion_lat": 0.0, "name": "0329c86d4cc8440215de9c4374b23d1f", "is_disabled": 0, "rental_uris": {"android": "https://dc.lft.to/lastmile_qr_scan", "ios": "https://dc.lft.to/lastmile_qr_scan"}, "fusion_lon": 0.0, "lat": 38.86066783333333, "bike_id": "0329c86d4cc8440215de9c4374b23d1f", "type": "electric_scooter", "is_reserved": 0, "lon": -76.98497333333333}, {"fusion_lat": 0.0, "name": "7f82fa3a202514a385f1cea8892985fd", "is_disabled": 0, "rental_uris": {"android": "https://dc.lft.to/lastmile_qr_scan", "ios": "https://dc.lft.to/lastmile_qr_scan"}, "fusion_lon": 0.0, "lat": 38.98502783333333, "bike_id": "7f82fa3a202514a385f1cea8892985fd", "type": "electric_bike", "is_reserved": 0, "lon": -76.98203833333334}, {"fusion_lat": 0.0, "name": "d55eab125a49b63e3ad3030d94fe135b", "is_disabled": 0, "rental_uris": {"android": "https://dc.lft.to/lastmile_qr_scan", "ios": "https://dc.lft.to/lastmile_qr_scan"}, "fusion_lon": 0.0, "lat": 38.884026, "bike_id": "d55eab125a49b63e3ad3030d94fe135b", "type": "electric_scooter", "is_reserved": 0, "lon": -76.98587916666666}, {"fusion_lat": 0.0, "name": "f12917a34503d52d40b64614186ded46", "is_disabled": 0, "rental_uris": {"android": "https://dc.lft.to/lastmile_qr_scan", "ios": "https://dc.lft.to/lastmile_qr_scan"}, "fusion_lon": 0.0, "lat": 38.9024265, "bike_id": "f12917a34503d52d40b64614186ded46", "type": "electric_scooter", "is_reserved": 0, "lon": -77.00201566666667}, {"fusion_lat": 0.0, "name": "878673794d6b3ce3ea9682c582383ccb", "is_disabled": 0, "rental_uris": {"android": "https://dc.lft.to/lastmile_qr_scan", "ios": "https://dc.lft.to/lastmile_qr_scan"}, "fusion_lon": 0.0, "lat": 38.910703166666664, "bike_id": "878673794d6b3ce3ea9682c582383ccb", "type": "electric_scooter", "is_reserved": 0, "lon": -77.02204983333333}, {"fusion_lat": 0.0, "name": "cc3a2d283017d21362663558b794c3a0", "is_disabled": 0, "rental_uris": {"android": "https://dc.lft.to/lastmile_qr_scan", "ios": "https://dc.lft.to/lastmile_qr_scan"}, "fusion_lon": 0.0, "lat": 38.915744333333336, "bike_id": "cc3a2d283017d21362663558b794c3a0", "type": "electric_scooter", "is_reserved": 0, "lon": -77.03203516666666}, {"fusion_lat": 0.0, "name": "289364c2734dce8dcd39942f86515fa6", "is_disabled": 0, "rental_uris": {"android": "https://dc.lft.to/lastmile_qr_scan", "ios": "https://dc.lft.to/lastmile_qr_scan"}, "fusion_lon": 0.0, "lat": 38.94227733333334, "bike_id": "289364c2734dce8dcd39942f86515fa6", "type": "electric_scooter", "is_reserved": 0, "lon": -77.01386083333334}, {"fusion_lat": 0.0, "name": "95ea3aff43b3c14b18c92b628c0ed332", "is_disabled": 0, "rental_uris": {"android": "https://dc.lft.to/lastmile_qr_scan", "ios": "https://dc.lft.to/lastmile_qr_scan"}, "fusion_lon": 0.0, "lat": 38.91006466666666, "bike_id": "95ea3aff43b3c14b18c92b628c0ed332", "type": "electric_scooter", "is_reserved": 0, "lon": -76.99409266666666}, {"fusion_lat": 0.0, "name": "31c484251be163a7014bac96f25d6e5a", "is_disabled": 0, "rental_uris": {"android": "https://dc.lft.to/lastmile_qr_scan", "ios": "https://dc.lft.to/lastmile_qr_scan"}, "fusion_lon": 0.0, "lat": 38.9614745, "bike_id": "31c484251be163a7014bac96f25d6e5a", "type": "electric_scooter", "is_reserved": 0, "lon": -77.02815816666667}, {"fusion_lat": 0.0, "name": "9eb942cb3051818986ae74623fd2d8f2", "is_disabled": 0, "rental_uris": {"android": "https://dc.lft.to/lastmile_qr_scan", "ios": "https://dc.lft.to/lastmile_qr_scan"}, "fusion_lon": 0.0, "lat": 38.937043, "bike_id": "9eb942cb3051818986ae74623fd2d8f2", "type": "electric_scooter", "is_reserved": 0, "lon": -77.03282216666666}, {"fusion_lat": 0.0, "name": "ff59d781af2f246a5de60dc8605a2505", "is_disabled": 0, "rental_uris": {"android": "https://dc.lft.to/lastmile_qr_scan", "ios": "https://dc.lft.to/lastmile_qr_scan"}, "fusion_lon": 0.0, "lat": 38.905764166666664, "bike_id": "ff59d781af2f246a5de60dc8605a2505", "type": "electric_scooter", "is_reserved": 0, "lon": -77.051401}, {"fusion_lat": 0.0, "name": "39e128131d18a844500e6e6c425eb4f7", "is_disabled": 0, "rental_uris": {"android": "https://dc.lft.to/lastmile_qr_scan", "ios": "https://dc.lft.to/lastmile_qr_scan"}, "fusion_lon": 0.0, "lat": 38.901343833333335, "bike_id": "39e128131d18a844500e6e6c425eb4f7", "type": "electric_scooter", "is_reserved": 0, "lon": -77.03913983333334}, {"fusion_lat": 0.0, "name": "ef73094de2648081e16e9fab77eb6848", "is_disabled": 0, "rental_uris": {"android": "https://dc.lft.to/lastmile_qr_scan", "ios": "https://dc.lft.to/lastmile_qr_scan"}, "fusion_lon": 0.0, "lat": 38.885292166666666, "bike_id": "ef73094de2648081e16e9fab77eb6848", "type": "electric_scooter", "is_reserved": 0, "lon": -77.01511816666667}, {"fusion_lat": 0.0, "name": "bf72561c91e2744fadca13fb7122278e", "is_disabled": 0, "rental_uris": {"android": "https://dc.lft.to/lastmile_qr_scan", "ios": "https://dc.lft.to/lastmile_qr_scan"}, "fusion_lon": 0.0, "lat": 38.902337833333334, "bike_id": "bf72561c91e2744fadca13fb7122278e", "type": "electric_scooter", "is_reserved": 0, "lon": -77.05944516666666}, {"fusion_lat": 0.0, "name": "5a2db39150a2fa3b14e89b397fddbbca", "is_disabled": 0, "rental_uris": {"android": "https://dc.lft.to/lastmile_qr_scan", "ios": "https://dc.lft.to/lastmile_qr_scan"}, "fusion_lon": 0.0, "lat": 38.883774, "bike_id": "5a2db39150a2fa3b14e89b397fddbbca", "type": "electric_scooter", "is_reserved": 0, "lon": -76.99574366666667}, {"fusion_lat": 0.0, "name": "45f1b23d9fc869cc45c36bb0b2553b41", "is_disabled": 0, "rental_uris": {"android": "https://dc.lft.to/lastmile_qr_scan", "ios": "https://dc.lft.to/lastmile_qr_scan"}, "fusion_lon": 0.0, "lat": 38.91640683333333, "bike_id": "45f1b23d9fc869cc45c36bb0b2553b41", "type": "electric_scooter", "is_reserved": 0, "lon": -77.0231685}, {"fusion_lat": 0.0, "name": "7f3f7005776591418ee5e9c19df8fced", "is_disabled": 0, "rental_uris": {"android": "https://dc.lft.to/lastmile_qr_scan", "ios": "https://dc.lft.to/lastmile_qr_scan"}, "fusion_lon": 0.0, "lat": 38.9236, "bike_id": "7f3f7005776591418ee5e9c19df8fced", "type": "electric_scooter", "is_reserved": 0, "lon": -77.050487}, {"fusion_lat": 0.0, "name": "93062eb9b28a444267cbe7a58c42b8b4", "is_disabled": 0, "rental_uris": {"android": "https://dc.lft.to/lastmile_qr_scan", "ios": "https://dc.lft.to/lastmile_qr_scan"}, "fusion_lon": 0.0, "lat": 38.92081316666667, "bike_id": "93062eb9b28a444267cbe7a58c42b8b4", "type": "electric_bike", "is_reserved": 0, "lon": -76.98943283333334}, {"fusion_lat": 0.0, "name": "1ebf9719e01124d4d2260a44c3861e30", "is_disabled": 0, "rental_uris": {"android": "https://dc.lft.to/lastmile_qr_scan", "ios": "https://dc.lft.to/lastmile_qr_scan"}, "fusion_lon": 0.0, "lat": 38.92281033333333, "bike_id": "1ebf9719e01124d4d2260a44c3861e30", "type": "electric_scooter", "is_reserved": 0, "lon": -77.04245633333333}, {"fusion_lat": 0.0, "name": "0c01ea5067e6218c4c393cb23fbc8661", "is_disabled": 0, "rental_uris": {"android": "https://dc.lft.to/lastmile_qr_scan", "ios": "https://dc.lft.to/lastmile_qr_scan"}, "fusion_lon": 0.0, "lat": 38.91158216666667, "bike_id": "0c01ea5067e6218c4c393cb23fbc8661", "type": "electric_bike", "is_reserved": 0, "lon": -77.00295116666666}, {"fusion_lat": 0.0, "name": "4d6004a0729de825817576b920649bfc", "is_disabled": 0, "rental_uris": {"android": "https://dc.lft.to/lastmile_qr_scan", "ios": "https://dc.lft.to/lastmile_qr_scan"}, "fusion_lon": 0.0, "lat": 38.93184083333333, "bike_id": "4d6004a0729de825817576b920649bfc", "type": "electric_scooter", "is_reserved": 0, "lon": -77.04300916666666}, {"fusion_lat": 0.0, "name": "d8635de028ec43de038bc507b49ae5e8", "is_disabled": 0, "rental_uris": {"android": "https://dc.lft.to/lastmile_qr_scan", "ios": "https://dc.lft.to/lastmile_qr_scan"}, "fusion_lon": 0.0, "lat": 38.8922845, "bike_id": "d8635de028ec43de038bc507b49ae5e8", "type": "electric_scooter", "is_reserved": 0, "lon": -77.0432595}, {"fusion_lat": 0.0, "name": "854fd26ad8f471be0ddea42ffefa3d62", "is_disabled": 0, "rental_uris": {"android": "https://dc.lft.to/lastmile_qr_scan", "ios": "https://dc.lft.to/lastmile_qr_scan"}, "fusion_lon": 0.0, "lat": 38.903245, "bike_id": "854fd26ad8f471be0ddea42ffefa3d62", "type": "electric_scooter", "is_reserved": 0, "lon": -77.06525733333334}, {"fusion_lat": 0.0, "name": "98214fcd626d0612b1d57739f1e0f2db", "is_disabled": 0, "rental_uris": {"android": "https://dc.lft.to/lastmile_qr_scan", "ios": "https://dc.lft.to/lastmile_qr_scan"}, "fusion_lon": 0.0, "lat": 38.90559566666667, "bike_id": "98214fcd626d0612b1d57739f1e0f2db", "type": "electric_scooter", "is_reserved": 0, "lon": -77.01312933333334}, {"fusion_lat": 0.0, "name": "dbc30e9f6f008cdff7134ac72e8a7a9c", "is_disabled": 0, "rental_uris": {"android": "https://dc.lft.to/lastmile_qr_scan", "ios": "https://dc.lft.to/lastmile_qr_scan"}, "fusion_lon": 0.0, "lat": 38.89643783333333, "bike_id": "dbc30e9f6f008cdff7134ac72e8a7a9c", "type": "electric_scooter", "is_reserved": 0, "lon": -77.04654116666667}, {"fusion_lat": 0.0, "name": "89ee4e60f2b203430369e103ede2cba9", "is_disabled": 0, "rental_uris": {"android": "https://dc.lft.to/lastmile_qr_scan", "ios": "https://dc.lft.to/lastmile_qr_scan"}, "fusion_lon": 0.0, "lat": 38.9178965, "bike_id": "89ee4e60f2b203430369e103ede2cba9", "type": "electric_scooter", "is_reserved": 0, "lon": -77.0346505}, {"fusion_lat": 0.0, "name": "2414ebd4bf4bf962df245fd35aa4ee1e", "is_disabled": 0, "rental_uris": {"android": "https://dc.lft.to/lastmile_qr_scan", "ios": "https://dc.lft.to/lastmile_qr_scan"}, "fusion_lon": 0.0, "lat": 38.9306725, "bike_id": "2414ebd4bf4bf962df245fd35aa4ee1e", "type": "electric_scooter", "is_reserved": 0, "lon": -77.02970866666666}, {"fusion_lat": 0.0, "name": "f72f996e08dc3fc7aeec89acfa895eac", "is_disabled": 0, "rental_uris": {"android": "https://dc.lft.to/lastmile_qr_scan", "ios": "https://dc.lft.to/lastmile_qr_scan"}, "fusion_lon": 0.0, "lat": 38.8922355, "bike_id": "f72f996e08dc3fc7aeec89acfa895eac", "type": "electric_scooter", "is_reserved": 0, "lon": -77.043097}, {"fusion_lat": 0.0, "name": "65d3bbf2aa3adc954c8a16c8b1563dc4", "is_disabled": 0, "rental_uris": {"android": "https://dc.lft.to/lastmile_qr_scan", "ios": "https://dc.lft.to/lastmile_qr_scan"}, "fusion_lon": 0.0, "lat": 38.92222066666667, "bike_id": "65d3bbf2aa3adc954c8a16c8b1563dc4", "type": "electric_bike", "is_reserved": 0, "lon": -77.2013885}, {"fusion_lat": 0.0, "name": "99d13ac7e2aa32dd721777731749e0ae", "is_disabled": 0, "rental_uris": {"android": "https://dc.lft.to/lastmile_qr_scan", "ios": "https://dc.lft.to/lastmile_qr_scan"}, "fusion_lon": 0.0, "lat": 38.85850333333333, "bike_id": "99d13ac7e2aa32dd721777731749e0ae", "type": "electric_bike", "is_reserved": 0, "lon": -77.0975535}, {"fusion_lat": 0.0, "name": "ec6e6afd26e1f06d9cbacc6e8669dc8c", "is_disabled": 0, "rental_uris": {"android": "https://dc.lft.to/lastmile_qr_scan", "ios": "https://dc.lft.to/lastmile_qr_scan"}, "fusion_lon": 0.0, "lat": 38.96131366666667, "bike_id": "ec6e6afd26e1f06d9cbacc6e8669dc8c", "type": "electric_scooter", "is_reserved": 0, "lon": -77.0852835}, {"fusion_lat": 0.0, "name": "6529db136d86401ee6a175fc44d9d795", "is_disabled": 0, "rental_uris": {"android": "https://dc.lft.to/lastmile_qr_scan", "ios": "https://dc.lft.to/lastmile_qr_scan"}, "fusion_lon": 0.0, "lat": 38.887479, "bike_id": "6529db136d86401ee6a175fc44d9d795", "type": "electric_scooter", "is_reserved": 0, "lon": -76.98356333333334}, {"fusion_lat": 0.0, "name": "4f92de81cb3d62112362abf5cb86fc43", "is_disabled": 0, "rental_uris": {"android": "https://dc.lft.to/lastmile_qr_scan", "ios": "https://dc.lft.to/lastmile_qr_scan"}, "fusion_lon": 0.0, "lat": 38.928429666666666, "bike_id": "4f92de81cb3d62112362abf5cb86fc43", "type": "electric_scooter", "is_reserved": 0, "lon": -77.014117}, {"fusion_lat": 0.0, "name": "ad382945f1d36e30c800f90cb18ac5e7", "is_disabled": 0, "rental_uris": {"android": "https://dc.lft.to/lastmile_qr_scan", "ios": "https://dc.lft.to/lastmile_qr_scan"}, "fusion_lon": 0.0, "lat": 38.883999833333334, "bike_id": "ad382945f1d36e30c800f90cb18ac5e7", "type": "electric_scooter", "is_reserved": 0, "lon": -77.02513116666667}, {"fusion_lat": 0.0, "name": "849aeb685addf99fd971e26a7f4b9771", "is_disabled": 0, "rental_uris": {"android": "https://dc.lft.to/lastmile_qr_scan", "ios": "https://dc.lft.to/lastmile_qr_scan"}, "fusion_lon": 0.0, "lat": 38.89401766666667, "bike_id": "849aeb685addf99fd971e26a7f4b9771", "type": "electric_scooter", "is_reserved": 0, "lon": -76.99490166666666}, {"fusion_lat": 0.0, "name": "ccf964e8ec4f5abd217b55e739fd8271", "is_disabled": 0, "rental_uris": {"android": "https://dc.lft.to/lastmile_qr_scan", "ios": "https://dc.lft.to/lastmile_qr_scan"}, "fusion_lon": 0.0, "lat": 38.924296, "bike_id": "ccf964e8ec4f5abd217b55e739fd8271", "type": "electric_scooter", "is_reserved": 0, "lon": -77.01956816666667}, {"fusion_lat": 0.0, "name": "c740d6a9d50e73b7c714264c9b9dffaa", "is_disabled": 0, "rental_uris": {"android": "https://dc.lft.to/lastmile_qr_scan", "ios": "https://dc.lft.to/lastmile_qr_scan"}, "fusion_lon": 0.0, "lat": 38.928305333333334, "bike_id": "c740d6a9d50e73b7c714264c9b9dffaa", "type": "electric_scooter", "is_reserved": 0, "lon": -77.05440816666666}, {"fusion_lat": 0.0, "name": "7a7bcb1f91a82562f8765d392bc67722", "is_disabled": 0, "rental_uris": {"android": "https://dc.lft.to/lastmile_qr_scan", "ios": "https://dc.lft.to/lastmile_qr_scan"}, "fusion_lon": 0.0, "lat": 38.9078245, "bike_id": "7a7bcb1f91a82562f8765d392bc67722", "type": "electric_scooter", "is_reserved": 0, "lon": -77.0350655}, {"fusion_lat": 0.0, "name": "422dfc72248417b63c24d9ec44fc6f0d", "is_disabled": 0, "rental_uris": {"android": "https://dc.lft.to/lastmile_qr_scan", "ios": "https://dc.lft.to/lastmile_qr_scan"}, "fusion_lon": 0.0, "lat": 38.9230175, "bike_id": "422dfc72248417b63c24d9ec44fc6f0d", "type": "electric_scooter", "is_reserved": 0, "lon": -77.04176883333334}, {"fusion_lat": 0.0, "name": "9ffc35a63933eb956dbbd015d24f4c63", "is_disabled": 0, "rental_uris": {"android": "https://dc.lft.to/lastmile_qr_scan", "ios": "https://dc.lft.to/lastmile_qr_scan"}, "fusion_lon": 0.0, "lat": 38.9231325, "bike_id": "9ffc35a63933eb956dbbd015d24f4c63", "type": "electric_scooter", "is_reserved": 0, "lon": -76.98645916666666}, {"fusion_lat": 0.0, "name": "192b221a544f65ea4abdea9aca62d8b5", "is_disabled": 0, "rental_uris": {"android": "https://dc.lft.to/lastmile_qr_scan", "ios": "https://dc.lft.to/lastmile_qr_scan"}, "fusion_lon": 0.0, "lat": 38.90578383333333, "bike_id": "192b221a544f65ea4abdea9aca62d8b5", "type": "electric_scooter", "is_reserved": 0, "lon": -77.04344666666667}, {"fusion_lat": 0.0, "name": "6581c595f810805b50bd613890822643", "is_disabled": 0, "rental_uris": {"android": "https://dc.lft.to/lastmile_qr_scan", "ios": "https://dc.lft.to/lastmile_qr_scan"}, "fusion_lon": 0.0, "lat": 38.90067166666667, "bike_id": "6581c595f810805b50bd613890822643", "type": "electric_scooter", "is_reserved": 0, "lon": -77.0542225}, {"fusion_lat": 0.0, "name": "31f7e6d470a5301d137a2b635514b595", "is_disabled": 0, "rental_uris": {"android": "https://dc.lft.to/lastmile_qr_scan", "ios": "https://dc.lft.to/lastmile_qr_scan"}, "fusion_lon": 0.0, "lat": 38.899849, "bike_id": "31f7e6d470a5301d137a2b635514b595", "type": "electric_scooter", "is_reserved": 0, "lon": -77.0067725}, {"fusion_lat": 0.0, "name": "de5bb35395b3fd70b365948577d4e863", "is_disabled": 0, "rental_uris": {"android": "https://dc.lft.to/lastmile_qr_scan", "ios": "https://dc.lft.to/lastmile_qr_scan"}, "fusion_lon": 0.0, "lat": 38.88325583333334, "bike_id": "de5bb35395b3fd70b365948577d4e863", "type": "electric_bike", "is_reserved": 0, "lon": -76.96057183333333}, {"fusion_lat": 0.0, "name": "4a0e02ae30ce8d21e6e881b1481249c5", "is_disabled": 0, "rental_uris": {"android": "https://dc.lft.to/lastmile_qr_scan", "ios": "https://dc.lft.to/lastmile_qr_scan"}, "fusion_lon": 0.0, "lat": 38.905272333333336, "bike_id": "4a0e02ae30ce8d21e6e881b1481249c5", "type": "electric_scooter", "is_reserved": 0, "lon": -77.05138083333334}, {"fusion_lat": 0.0, "name": "6b63acd07df1140c82586d0beb2cbcfa", "is_disabled": 0, "rental_uris": {"android": "https://dc.lft.to/lastmile_qr_scan", "ios": "https://dc.lft.to/lastmile_qr_scan"}, "fusion_lon": 0.0, "lat": 38.91646183333334, "bike_id": "6b63acd07df1140c82586d0beb2cbcfa", "type": "electric_scooter", "is_reserved": 0, "lon": -77.022825}, {"fusion_lat": 0.0, "name": "ddd21add5ead12cb4311541632f70a53", "is_disabled": 0, "rental_uris": {"android": "https://dc.lft.to/lastmile_qr_scan", "ios": "https://dc.lft.to/lastmile_qr_scan"}, "fusion_lon": 0.0, "lat": 38.885564333333335, "bike_id": "ddd21add5ead12cb4311541632f70a53", "type": "electric_scooter", "is_reserved": 0, "lon": -76.97720033333333}, {"fusion_lat": 0.0, "name": "faffeddd2dc0f9d0ab65c9e87a046b84", "is_disabled": 0, "rental_uris": {"android": "https://dc.lft.to/lastmile_qr_scan", "ios": "https://dc.lft.to/lastmile_qr_scan"}, "fusion_lon": 0.0, "lat": 38.8861665, "bike_id": "faffeddd2dc0f9d0ab65c9e87a046b84", "type": "electric_scooter", "is_reserved": 0, "lon": -77.0124935}, {"fusion_lat": 0.0, "name": "d0fb766c6555e64dbc282529bd00336e", "is_disabled": 0, "rental_uris": {"android": "https://dc.lft.to/lastmile_qr_scan", "ios": "https://dc.lft.to/lastmile_qr_scan"}, "fusion_lon": 0.0, "lat": 38.906020833333336, "bike_id": "d0fb766c6555e64dbc282529bd00336e", "type": "electric_scooter", "is_reserved": 0, "lon": -77.003474}, {"fusion_lat": 0.0, "name": "0fe72aba78bd63990cc3ea08d6f18575", "is_disabled": 0, "rental_uris": {"android": "https://dc.lft.to/lastmile_qr_scan", "ios": "https://dc.lft.to/lastmile_qr_scan"}, "fusion_lon": 0.0, "lat": 38.9232135, "bike_id": "0fe72aba78bd63990cc3ea08d6f18575", "type": "electric_scooter", "is_reserved": 0, "lon": -77.02892366666667}, {"fusion_lat": 0.0, "name": "b1113d52591f798f725ffaed49052685", "is_disabled": 0, "rental_uris": {"android": "https://dc.lft.to/lastmile_qr_scan", "ios": "https://dc.lft.to/lastmile_qr_scan"}, "fusion_lon": 0.0, "lat": 38.9192145, "bike_id": "b1113d52591f798f725ffaed49052685", "type": "electric_scooter", "is_reserved": 0, "lon": -77.009689}, {"fusion_lat": 0.0, "name": "f719021f0132dafd0fda7831a25cab4c", "is_disabled": 0, "rental_uris": {"android": "https://dc.lft.to/lastmile_qr_scan", "ios": "https://dc.lft.to/lastmile_qr_scan"}, "fusion_lon": 0.0, "lat": 38.91416666666667, "bike_id": "f719021f0132dafd0fda7831a25cab4c", "type": "electric_scooter", "is_reserved": 0, "lon": -77.03174316666667}, {"fusion_lat": 0.0, "name": "8d1c159e6731a15ead3e2476017512cd", "is_disabled": 0, "rental_uris": {"android": "https://dc.lft.to/lastmile_qr_scan", "ios": "https://dc.lft.to/lastmile_qr_scan"}, "fusion_lon": 0.0, "lat": 38.902369666666665, "bike_id": "8d1c159e6731a15ead3e2476017512cd", "type": "electric_scooter", "is_reserved": 0, "lon": -77.037674}, {"fusion_lat": 0.0, "name": "743f10a20a656813538dc93d2f505a2c", "is_disabled": 0, "rental_uris": {"android": "https://dc.lft.to/lastmile_qr_scan", "ios": "https://dc.lft.to/lastmile_qr_scan"}, "fusion_lon": 0.0, "lat": 38.95222583333333, "bike_id": "743f10a20a656813538dc93d2f505a2c", "type": "electric_scooter", "is_reserved": 0, "lon": -77.08215483333333}, {"fusion_lat": 0.0, "name": "5b1908398c748ce99df6eaed3b75edde", "is_disabled": 0, "rental_uris": {"android": "https://dc.lft.to/lastmile_qr_scan", "ios": "https://dc.lft.to/lastmile_qr_scan"}, "fusion_lon": 0.0, "lat": 38.932526833333334, "bike_id": "5b1908398c748ce99df6eaed3b75edde", "type": "electric_scooter", "is_reserved": 0, "lon": -77.02052616666667}, {"fusion_lat": 0.0, "name": "97a5c8cfd8b64ea0a41c199fbff38298", "is_disabled": 0, "rental_uris": {"android": "https://dc.lft.to/lastmile_qr_scan", "ios": "https://dc.lft.to/lastmile_qr_scan"}, "fusion_lon": 0.0, "lat": 38.907736, "bike_id": "97a5c8cfd8b64ea0a41c199fbff38298", "type": "electric_scooter", "is_reserved": 0, "lon": -77.05598716666667}, {"fusion_lat": 0.0, "name": "3b170e3a249f9ccbc4b5e9df0f00e8d1", "is_disabled": 0, "rental_uris": {"android": "https://dc.lft.to/lastmile_qr_scan", "ios": "https://dc.lft.to/lastmile_qr_scan"}, "fusion_lon": 0.0, "lat": 38.93866583333333, "bike_id": "3b170e3a249f9ccbc4b5e9df0f00e8d1", "type": "electric_scooter", "is_reserved": 0, "lon": -77.0249055}, {"fusion_lat": 0.0, "name": "1087b9630ba73abce623a8d36accaf7c", "is_disabled": 0, "rental_uris": {"android": "https://dc.lft.to/lastmile_qr_scan", "ios": "https://dc.lft.to/lastmile_qr_scan"}, "fusion_lon": 0.0, "lat": 38.87949316666667, "bike_id": "1087b9630ba73abce623a8d36accaf7c", "type": "electric_scooter", "is_reserved": 0, "lon": -77.00874816666666}, {"fusion_lat": 0.0, "name": "6eaa96ed3c8585a0883dff56b5610c0d", "is_disabled": 0, "rental_uris": {"android": "https://dc.lft.to/lastmile_qr_scan", "ios": "https://dc.lft.to/lastmile_qr_scan"}, "fusion_lon": 0.0, "lat": 38.854175833333336, "bike_id": "6eaa96ed3c8585a0883dff56b5610c0d", "type": "electric_bike", "is_reserved": 0, "lon": -77.12075566666667}, {"fusion_lat": 0.0, "name": "72b4f59e4f4dff39b286b1d7c68e938f", "is_disabled": 0, "rental_uris": {"android": "https://dc.lft.to/lastmile_qr_scan", "ios": "https://dc.lft.to/lastmile_qr_scan"}, "fusion_lon": 0.0, "lat": 38.892234333333334, "bike_id": "72b4f59e4f4dff39b286b1d7c68e938f", "type": "electric_scooter", "is_reserved": 0, "lon": -77.033098}, {"fusion_lat": 0.0, "name": "664c7f4e5493295c889e460ae9153367", "is_disabled": 0, "rental_uris": {"android": "https://dc.lft.to/lastmile_qr_scan", "ios": "https://dc.lft.to/lastmile_qr_scan"}, "fusion_lon": 0.0, "lat": 38.9241105, "bike_id": "664c7f4e5493295c889e460ae9153367", "type": "electric_scooter", "is_reserved": 0, "lon": -76.99733433333333}, {"fusion_lat": 0.0, "name": "0dea6eab22cb6170c2eaeeb6bab4b7de", "is_disabled": 0, "rental_uris": {"android": "https://dc.lft.to/lastmile_qr_scan", "ios": "https://dc.lft.to/lastmile_qr_scan"}, "fusion_lon": 0.0, "lat": 38.883006333333334, "bike_id": "0dea6eab22cb6170c2eaeeb6bab4b7de", "type": "electric_scooter", "is_reserved": 0, "lon": -76.94857166666667}, {"fusion_lat": 0.0, "name": "af84c683b510b6c67f34bd8dba534803", "is_disabled": 0, "rental_uris": {"android": "https://dc.lft.to/lastmile_qr_scan", "ios": "https://dc.lft.to/lastmile_qr_scan"}, "fusion_lon": 0.0, "lat": 38.9199925, "bike_id": "af84c683b510b6c67f34bd8dba534803", "type": "electric_scooter", "is_reserved": 0, "lon": -77.07189666666666}, {"fusion_lat": 0.0, "name": "4b497a0dcc7e1450fbad6fe695f7acfb", "is_disabled": 0, "rental_uris": {"android": "https://dc.lft.to/lastmile_qr_scan", "ios": "https://dc.lft.to/lastmile_qr_scan"}, "fusion_lon": 0.0, "lat": 38.90016583333333, "bike_id": "4b497a0dcc7e1450fbad6fe695f7acfb", "type": "electric_scooter", "is_reserved": 0, "lon": -77.03506416666667}, {"fusion_lat": 0.0, "name": "72301f7f53cdc0ab62a431dd5c13c7d6", "is_disabled": 0, "rental_uris": {"android": "https://dc.lft.to/lastmile_qr_scan", "ios": "https://dc.lft.to/lastmile_qr_scan"}, "fusion_lon": 0.0, "lat": 38.88429716666667, "bike_id": "72301f7f53cdc0ab62a431dd5c13c7d6", "type": "electric_scooter", "is_reserved": 0, "lon": -76.95749816666667}, {"fusion_lat": 0.0, "name": "b8af9d33a471cd20f260cc1f5587489f", "is_disabled": 0, "rental_uris": {"android": "https://dc.lft.to/lastmile_qr_scan", "ios": "https://dc.lft.to/lastmile_qr_scan"}, "fusion_lon": 0.0, "lat": 38.898398666666665, "bike_id": "b8af9d33a471cd20f260cc1f5587489f", "type": "electric_scooter", "is_reserved": 0, "lon": -77.01338483333333}, {"fusion_lat": 0.0, "name": "9616d9bba1feb7fea378260c6c64a8a3", "is_disabled": 0, "rental_uris": {"android": "https://dc.lft.to/lastmile_qr_scan", "ios": "https://dc.lft.to/lastmile_qr_scan"}, "fusion_lon": 0.0, "lat": 38.92513916666667, "bike_id": "9616d9bba1feb7fea378260c6c64a8a3", "type": "electric_scooter", "is_reserved": 0, "lon": -77.02284283333333}, {"fusion_lat": 0.0, "name": "1ae3e114c3a83d93b5d1bcc2d7111a84", "is_disabled": 0, "rental_uris": {"android": "https://dc.lft.to/lastmile_qr_scan", "ios": "https://dc.lft.to/lastmile_qr_scan"},