{"data": {"bikes": [{"is_reserved": 0, "lat": 38.90585383333333, "rental_uris": {"android": "https://dc.lft.to/lastmile_qr_scan", "ios": "https://dc.lft.to/lastmile_qr_scan"}, "bike_id": "d3500cf71e4d836fdc7f667eec322ccf", "fusion_lon": 0.0, "fusion_lat": 0.0, "is_disabled": 0, "name": "d3500cf71e4d836fdc7f667eec322ccf", "type": "electric_scooter", "lon": -76.98620966666667}, {"is_reserved": 0, "lat": 38.906796666666665, "rental_uris": {"android": "https://dc.lft.to/lastmile_qr_scan", "ios": "https://dc.lft.to/lastmile_qr_scan"}, "bike_id": "49f807664cd049522341ecc81e729162", "fusion_lon": 0.0, "fusion_lat": 0.0, "is_disabled": 0, "name": "49f807664cd049522341ecc81e729162", "type": "electric_scooter", "lon": -77.02691966666667}, {"is_reserved": 0, "lat": 38.912638, "rental_uris": {"android": "https://dc.lft.to/lastmile_qr_scan", "ios": "https://dc.lft.to/lastmile_qr_scan"}, "bike_id": "af0c80023cbbaccc42645fc126cfd1af", "fusion_lon": 0.0, "fusion_lat": 0.0, "is_disabled": 0, "name": "af0c80023cbbaccc42645fc126cfd1af", "type": "electric_scooter", "lon": -77.03137783333334}, {"is_reserved": 0, "lat": 38.84505633333333, "rental_uris": {"android": "https://dc.lft.to/lastmile_qr_scan", "ios": "https://dc.lft.to/lastmile_qr_scan"}, "bike_id": "bf2447402d8b2c3e491443fd19019650", "fusion_lon": 0.0, "fusion_lat": 0.0, "is_disabled": 0, "name": "bf2447402d8b2c3e491443fd19019650", "type": "electric_bike", "lon": -76.9935165}, {"is_reserved": 0, "lat": 38.901421, "rental_uris": {"android": "https://dc.lft.to/lastmile_qr_scan", "ios": "https://dc.lft.to/lastmile_qr_scan"}, "bike_id": "cdb58ecc424b15b9188b277e01e89742", "fusion_lon": 0.0, "fusion_lat": 0.0, "is_disabled": 0, "name": "cdb58ecc424b15b9188b277e01e89742", "type": "electric_scooter", "lon": -77.04182616666667}, {"is_reserved": 0, "lat": 38.925493, "rental_uris": {"android": "https://dc.lft.to/lastmile_qr_scan", "ios": "https://dc.lft.to/lastmile_qr_scan"}, "bike_id": "ffa669d056cea546cf54ed6a54689f43", "fusion_lon": 0.0, "fusion_lat": 0.0, "is_disabled": 0, "name": "ffa669d056cea546cf54ed6a54689f43", "type": "electric_scooter", "lon": -77.052626}, {"is_reserved": 0, "lat": 38.9023945, "rental_uris": {"android": "https://dc.lft.to/lastmile_qr_scan", "ios": "https://dc.lft.to/lastmile_qr_scan"}, "bike_id": "887d29f6005101fdf2c8a9e67a7408dd", "fusion_lon": 0.0, "fusion_lat": 0.0, "is_disabled": 0, "name": "887d29f6005101fdf2c8a9e67a7408dd", "type": "electric_scooter", "lon": -77.037817}, {"is_reserved": 0, "lat": 38.86709166666667, "rental_uris": {"android": "https://dc.lft.to/lastmile_qr_scan", "ios": "https://dc.lft.to/lastmile_qr_scan"}, "bike_id": "d05fc1df58972d82f35e3128ea64f9f0", "fusion_lon": 0.0, "fusion_lat": 0.0, "is_disabled": 0, "name": "d05fc1df58972d82f35e3128ea64f9f0", "type": "electric_scooter", "lon": -76.98725116666667}, {"is_reserved": 0, "lat": 38.91280316666667, "rental_uris": {"android": "https://dc.lft.to/lastmile_qr_scan", "ios": "https://dc.lft.to/lastmile_qr_scan"}, "bike_id": "f7220d2110dcf8a18b32da71488834dd", "fusion_lon": 0.0, "fusion_lat": 0.0, "is_disabled": 0, "name": "f7220d2110dcf8a18b32da71488834dd", "type": "electric_scooter", "lon": -77.04506983333333}, {"is_reserved": 0, "lat": 38.8853305, "rental_uris": {"android": "https://dc.lft.to/lastmile_qr_scan", "ios": "https://dc.lft.to/lastmile_qr_scan"}, "bike_id": "976e2d41971d73c4fb651b374c72cbaf", "fusion_lon": 0.0, "fusion_lat": 0.0, "is_disabled": 0, "name": "976e2d41971d73c4fb651b374c72cbaf", "type": "electric_scooter", "lon": -76.99827016666667}, {"is_reserved": 0, "lat": 38.9181805, "rental_uris": {"android": "https://dc.lft.to/lastmile_qr_scan", "ios": "https://dc.lft.to/lastmile_qr_scan"}, "bike_id": "b28b2f9a1425274eeccee3186e4e0e8e", "fusion_lon": 0.0, "fusion_lat": 0.0, "is_disabled": 0, "name": "b28b2f9a1425274eeccee3186e4e0e8e", "type": "electric_scooter", "lon": -77.02953183333334}, {"is_reserved": 0, "lat": 38.896867666666665, "rental_uris": {"android": "https://dc.lft.to/lastmile_qr_scan", "ios": "https://dc.lft.to/lastmile_qr_scan"}, "bike_id": "b5d8791b61ef6b8e5ef0845e056989e7", "fusion_lon": 0.0, "fusion_lat": 0.0, "is_disabled": 0, "name": "b5d8791b61ef6b8e5ef0845e056989e7", "type": "electric_scooter", "lon": -77.00497516666667}, {"is_reserved": 0, "lat": 38.8543175, "rental_uris": {"android": "https://dc.lft.to/lastmile_qr_scan", "ios": "https://dc.lft.to/lastmile_qr_scan"}, "bike_id": "e0322d962306386ce930ebe7321a504b", "fusion_lon": 0.0, "fusion_lat": 0.0, "is_disabled": 0, "name": "e0322d962306386ce930ebe7321a504b", "type": "electric_bike", "lon": -76.90969883333334}, {"is_reserved": 0, "lat": 38.87636083333334, "rental_uris": {"android": "https://dc.lft.to/lastmile_qr_scan", "ios": "https://dc.lft.to/lastmile_qr_scan"}, "bike_id": "52b80ff3f4cf6e8a6945eb25b5277a01", "fusion_lon": 0.0, "fusion_lat": 0.0, "is_disabled": 0, "name": "52b80ff3f4cf6e8a6945eb25b5277a01", "type": "electric_scooter", "lon": -77.009178}, {"is_reserved": 0, "lat": 38.8762785, "rental_uris": {"android": "https://dc.lft.to/lastmile_qr_scan", "ios": "https://dc.lft.to/lastmile_qr_scan"}, "bike_id": "9bf464174d117ef0033b4a22a799cec0", "fusion_lon": 0.0, "fusion_lat": 0.0, "is_disabled": 0, "name": "9bf464174d117ef0033b4a22a799cec0", "type": "electric_scooter", "lon": -76.96527366666666}, {"is_reserved": 0, "lat": 38.89994033333333, "rental_uris": {"android": "https://dc.lft.to/lastmile_qr_scan", "ios": "https://dc.lft.to/lastmile_qr_scan"}, "bike_id": "e74394af30988fa12d6831250c5bb9e0", "fusion_lon": 0.0, "fusion_lat": 0.0, "is_disabled": 0, "name": "e74394af30988fa12d6831250c5bb9e0", "type": "electric_scooter", "lon": -76.99857766666666}, {"is_reserved": 0, "lat": 38.923626, "rental_uris": {"android": "https://dc.lft.to/lastmile_qr_scan", "ios": "https://dc.lft.to/lastmile_qr_scan"}, "bike_id": "a96a03e8028603c395c908282de905f3", "fusion_lon": 0.0, "fusion_lat": 0.0, "is_disabled": 0, "name": "a96a03e8028603c395c908282de905f3", "type": "electric_scooter", "lon": -77.05126066666666}, {"is_reserved": 0, "lat": 38.90246166666667, "rental_uris": {"android": "https://dc.lft.to/lastmile_qr_scan", "ios": "https://dc.lft.to/lastmile_qr_scan"}, "bike_id": "3eaf07a098bf043092a0a1ec77871649", "fusion_lon": 0.0, "fusion_lat": 0.0, "is_disabled": 0, "name": "3eaf07a098bf043092a0a1ec77871649", "type": "electric_scooter", "lon": -77.04364533333333}, {"is_reserved": 0, "lat": 38.932319, "rental_uris": {"android": "https://dc.lft.to/lastmile_qr_scan", "ios": "https://dc.lft.to/lastmile_qr_scan"}, "bike_id": "189e02dfeebafceff01453ccdb78c65d", "fusion_lon": 0.0, "fusion_lat": 0.0, "is_disabled": 0, "name": "189e02dfeebafceff01453ccdb78c65d", "type": "electric_scooter", "lon": -77.0388395}, {"is_reserved": 0, "lat": 38.93577666666667, "rental_uris": {"android": "https://dc.lft.to/lastmile_qr_scan", "ios": "https://dc.lft.to/lastmile_qr_scan"}, "bike_id": "64472c42f41c30fb469a5ebf8cc71715", "fusion_lon": 0.0, "fusion_lat": 0.0, "is_disabled": 0, "name": "64472c42f41c30fb469a5ebf8cc71715", "type": "electric_scooter", "lon": -77.02122583333333}, {"is_reserved": 0, "lat": 38.924668833333335, "rental_uris": {"android": "https://dc.lft.to/lastmile_qr_scan", "ios": "https://dc.lft.to/lastmile_qr_scan"}, "bike_id": "ed26fb12f4d3e2ff488c1f9a86465c87", "fusion_lon": 0.0, "fusion_lat": 0.0, "is_disabled": 0, "name": "ed26fb12f4d3e2ff488c1f9a86465c87", "type": "electric_scooter", "lon": -77.05225983333334}, {"is_reserved": 0, "lat": 38.92206683333333, "rental_uris": {"android": "https://dc.lft.to/lastmile_qr_scan", "ios": "https://dc.lft.to/lastmile_qr_scan"}, "bike_id": "5b755e1673e571856f39f29bee782722", "fusion_lon": 0.0, "fusion_lat": 0.0, "is_disabled": 0, "name": "5b755e1673e571856f39f29bee782722", "type": "electric_scooter", "lon": -77.04012633333333}, {"is_reserved": 0, "lat": 38.91412066666667, "rental_uris": {"android": "https://dc.lft.to/lastmile_qr_scan", "ios": "https://dc.lft.to/lastmile_qr_scan"}, "bike_id": "bbeaec6ee75f8fb934bf978dba257f35", "fusion_lon": 0.0, "fusion_lat": 0.0, "is_disabled": 0, "name": "bbeaec6ee75f8fb934bf978dba257f35", "type": "electric_scooter", "lon": -77.02600866666667}, {"is_reserved": 0, "lat": 38.944816833333334, "rental_uris": {"android": "https://dc.lft.to/lastmile_qr_scan", "ios": "https://dc.lft.to/lastmile_qr_scan"}, "bike_id": "82ac0d309b0365ec60382f44730912c4", "fusion_lon": 0.0, "fusion_lat": 0.0, "is_disabled": 0, "name": "82ac0d309b0365ec60382f44730912c4", "type": "electric_scooter", "lon": -77.06393016666667}, {"is_reserved": 0, "lat": 38.89844133333333, "rental_uris": {"android": "https://dc.lft.to/lastmile_qr_scan", "ios": "https://dc.lft.to/lastmile_qr_scan"}, "bike_id": "d5a336a4a6bb0d416ad8871c90bd2832", "fusion_lon": 0.0, "fusion_lat": 0.0, "is_disabled": 0, "name": "d5a336a4a6bb0d416ad8871c90bd2832", "type": "electric_scooter", "lon": -76.94633683333333}, {"is_reserved": 0, "lat": 39.015658, "rental_uris": {"android": "https://dc.lft.to/lastmile_qr_scan", "ios": "https://dc.lft.to/lastmile_qr_scan"}, "bike_id": "af4526468c13c457cb8420745354f492", "fusion_lon": 0.0, "fusion_lat": 0.0, "is_disabled": 0, "name": "af4526468c13c457cb8420745354f492", "type": "electric_bike", "lon": -77.04413383333333}, {"is_reserved": 0, "lat": 38.89935, "rental_uris": {"android": "https://dc.lft.to/lastmile_qr_scan", "ios": "https://dc.lft.to/lastmile_qr_scan"}, "bike_id": "218d9991b703605eb22017018f00e332", "fusion_lon": 0.0, "fusion_lat": 0.0, "is_disabled": 0, "name": "218d9991b703605eb22017018f00e332", "type": "electric_scooter", "lon": -77.02196033333334}, {"is_reserved": 0, "lat": 38.95405, "rental_uris": {"android": "https://dc.lft.to/lastmile_qr_scan", "ios": "https://dc.lft.to/lastmile_qr_scan"}, "bike_id": "6c088bf35dda2325800ef0e2b3bc3050", "fusion_lon": 0.0, "fusion_lat": 0.0, "is_disabled": 0, "name": "6c088bf35dda2325800ef0e2b3bc3050", "type": "electric_scooter", "lon": -77.036281}, {"is_reserved": 0, "lat": 38.91808433333333, "rental_uris": {"android": "https://dc.lft.to/lastmile_qr_scan", "ios": "https://dc.lft.to/lastmile_qr_scan"}, "bike_id": "888cfbfa25ae1abc094c59d535b063c2", "fusion_lon": 0.0, "fusion_lat": 0.0, "is_disabled": 0, "name": "888cfbfa25ae1abc094c59d535b063c2", "type": "electric_scooter", "lon": -77.04026383333333}, {"is_reserved": 0, "lat": 38.89905616666667, "rental_uris": {"android": "https://dc.lft.to/lastmile_qr_scan", "ios": "https://dc.lft.to/lastmile_qr_scan"}, "bike_id": "3a02e69b3b43dbf1d64f9efea2de9ff2", "fusion_lon": 0.0, "fusion_lat": 0.0, "is_disabled": 0, "name": "3a02e69b3b43dbf1d64f9efea2de9ff2", "type": "electric_scooter", "lon": -77.03283333333333}, {"is_reserved": 0, "lat": 38.907712833333335, "rental_uris": {"android": "https://dc.lft.to/lastmile_qr_scan", "ios": "https://dc.lft.to/lastmile_qr_scan"}, "bike_id": "72153e0b1abca9ce61799f7ae17f33c8", "fusion_lon": 0.0, "fusion_lat": 0.0, "is_disabled": 0, "name": "72153e0b1abca9ce61799f7ae17f33c8", "type": "electric_scooter", "lon": -77.0425935}, {"is_reserved": 0, "lat": 38.8813835, "rental_uris": {"android": "https://dc.lft.to/lastmile_qr_scan", "ios": "https://dc.lft.to/lastmile_qr_scan"}, "bike_id": "b7b15375bc3c93eb5473d03df5723c14", "fusion_lon": 0.0, "fusion_lat": 0.0, "is_disabled": 0, "name": "b7b15375bc3c93eb5473d03df5723c14", "type": "electric_scooter", "lon": -77.01324333333334}, {"is_reserved": 0, "lat": 38.869082166666665, "rental_uris": {"android": "https://dc.lft.to/lastmile_qr_scan", "ios": "https://dc.lft.to/lastmile_qr_scan"}, "bike_id": "d41e8eaa0e6d73c8d8caf275fe91f479", "fusion_lon": 0.0, "fusion_lat": 0.0, "is_disabled": 0, "name": "d41e8eaa0e6d73c8d8caf275fe91f479", "type": "electric_bike", "lon": -77.13177933333333}, {"is_reserved": 0, "lat": 38.90555283333333, "rental_uris": {"android": "https://dc.lft.to/lastmile_qr_scan", "ios": "https://dc.lft.to/lastmile_qr_scan"}, "bike_id": "3a9245e1858445a51e9be6ec937b083c", "fusion_lon": 0.0, "fusion_lat": 0.0, "is_disabled": 0, "name": "3a9245e1858445a51e9be6ec937b083c", "type": "electric_scooter", "lon": -77.0569955}, {"is_reserved": 0, "lat": 38.917634666666665, "rental_uris": {"android": "https://dc.lft.to/lastmile_qr_scan", "ios": "https://dc.lft.to/lastmile_qr_scan"}, "bike_id": "cab6e86f86c97fb5e13a50bd6f1d00e8", "fusion_lon": 0.0, "fusion_lat": 0.0, "is_disabled": 0, "name": "cab6e86f86c97fb5e13a50bd6f1d00e8", "type": "electric_scooter", "lon": -77.02334666666667}, {"is_reserved": 0, "lat": 38.910473333333336, "rental_uris": {"android": "https://dc.lft.to/lastmile_qr_scan", "ios": "https://dc.lft.to/lastmile_qr_scan"}, "bike_id": "aabbff13c9acbc7d98e8a5bd96318d8d", "fusion_lon": 0.0, "fusion_lat": 0.0, "is_disabled": 0, "name": "aabbff13c9acbc7d98e8a5bd96318d8d", "type": "electric_scooter", "lon": -77.015086}, {"is_reserved": 0, "lat": 38.912056, "rental_uris": {"android": "https://dc.lft.to/lastmile_qr_scan", "ios": "https://dc.lft.to/lastmile_qr_scan"}, "bike_id": "ea3e4d162b9fbdb7734087afb572f1c0", "fusion_lon": 0.0, "fusion_lat": 0.0, "is_disabled": 0, "name": "ea3e4d162b9fbdb7734087afb572f1c0", "type": "electric_scooter", "lon": -77.0448275}, {"is_reserved": 0, "lat": 38.899445, "rental_uris": {"android": "https://dc.lft.to/lastmile_qr_scan", "ios": "https://dc.lft.to/lastmile_qr_scan"}, "bike_id": "1b8c7160edbc5e8ad5244a0aea4e5927", "fusion_lon": 0.0, "fusion_lat": 0.0, "is_disabled": 0, "name": "1b8c7160edbc5e8ad5244a0aea4e5927", "type": "electric_scooter", "lon": -77.026858}, {"is_reserved": 0, "lat": 38.9073115, "rental_uris": {"android": "https://dc.lft.to/lastmile_qr_scan", "ios": "https://dc.lft.to/lastmile_qr_scan"}, "bike_id": "1f73126fedaf4c61c70697778f6320bd", "fusion_lon": 0.0, "fusion_lat": 0.0, "is_disabled": 0, "name": "1f73126fedaf4c61c70697778f6320bd", "type": "electric_scooter", "lon": -77.02595}, {"is_reserved": 0, "lat": 38.95879516666667, "rental_uris": {"android": "https://dc.lft.to/lastmile_qr_scan", "ios": "https://dc.lft.to/lastmile_qr_scan"}, "bike_id": "64209aa37a7b59426d3b7f9e9a8ab4d3", "fusion_lon": 0.0, "fusion_lat": 0.0, "is_disabled": 0, "name": "64209aa37a7b59426d3b7f9e9a8ab4d3", "type": "electric_bike", "lon": -77.01031666666667}, {"is_reserved": 0, "lat": 38.900892666666664, "rental_uris": {"android": "https://dc.lft.to/lastmile_qr_scan", "ios": "https://dc.lft.to/lastmile_qr_scan"}, "bike_id": "f816f64f7aaf96a3f7ba63c2abc6d7c2", "fusion_lon": 0.0, "fusion_lat": 0.0, "is_disabled": 0, "name": "f816f64f7aaf96a3f7ba63c2abc6d7c2", "type": "electric_scooter", "lon": -77.0266945}, {"is_reserved": 0, "lat": 38.895892333333336, "rental_uris": {"android": "https://dc.lft.to/lastmile_qr_scan", "ios": "https://dc.lft.to/lastmile_qr_scan"}, "bike_id": "f146939c48fd77b15cef6e0968fe6183", "fusion_lon": 0.0, "fusion_lat": 0.0, "is_disabled": 0, "name": "f146939c48fd77b15cef6e0968fe6183", "type": "electric_bike", "lon": -77.12697683333333}, {"is_reserved": 0, "lat": 38.908123833333335, "rental_uris": {"android": "https://dc.lft.to/lastmile_qr_scan", "ios": "https://dc.lft.to/lastmile_qr_scan"}, "bike_id": "0c72b354b4305bb2404adedcb02ad048", "fusion_lon": 0.0, "fusion_lat": 0.0, "is_disabled": 0, "name": "0c72b354b4305bb2404adedcb02ad048", "type": "electric_scooter", "lon": -77.04334683333333}, {"is_reserved": 0, "lat": 38.93358633333333, "rental_uris": {"android": "https://dc.lft.to/lastmile_qr_scan", "ios": "https://dc.lft.to/lastmile_qr_scan"}, "bike_id": "4b6be288f1f67228d20c690f0b5ba175", "fusion_lon": 0.0, "fusion_lat": 0.0, "is_disabled": 0, "name": "4b6be288f1f67228d20c690f0b5ba175", "type": "electric_bike", "lon": -77.0995925}, {"is_reserved": 0, "lat": 38.91564016666667, "rental_uris": {"android": "https://dc.lft.to/lastmile_qr_scan", "ios": "https://dc.lft.to/lastmile_qr_scan"}, "bike_id": "ee6e0540cc03eb96a239bdde7bbbaf66", "fusion_lon": 0.0, "fusion_lat": 0.0, "is_disabled": 0, "name": "ee6e0540cc03eb96a239bdde7bbbaf66", "type": "electric_scooter", "lon": -77.0314905}, {"is_reserved": 0, "lat": 38.914849, "rental_uris": {"android": "https://dc.lft.to/lastmile_qr_scan", "ios": "https://dc.lft.to/lastmile_qr_scan"}, "bike_id": "2be913d578eca6cc3eee2ae91609fdbf", "fusion_lon": 0.0, "fusion_lat": 0.0, "is_disabled": 0, "name": "2be913d578eca6cc3eee2ae91609fdbf", "type": "electric_scooter", "lon": -77.03230416666666}, {"is_reserved": 0, "lat": 38.905555666666665, "rental_uris": {"android": "https://dc.lft.to/lastmile_qr_scan", "ios": "https://dc.lft.to/lastmile_qr_scan"}, "bike_id": "bfaae8986ff06bfeecbc85a2b6109001", "fusion_lon": 0.0, "fusion_lat": 0.0, "is_disabled": 0, "name": "bfaae8986ff06bfeecbc85a2b6109001", "type": "electric_scooter", "lon": -77.024593}, {"is_reserved": 0, "lat": 38.928989666666666, "rental_uris": {"android": "https://dc.lft.to/lastmile_qr_scan", "ios": "https://dc.lft.to/lastmile_qr_scan"}, "bike_id": "8dd818a91adefaebb3ba02d1cda78fd5", "fusion_lon": 0.0, "fusion_lat": 0.0, "is_disabled": 0, "name": "8dd818a91adefaebb3ba02d1cda78fd5", "type": "electric_scooter", "lon": -77.02403616666666}, {"is_reserved": 0, "lat": 38.902876666666664, "rental_uris": {"android": "https://dc.lft.to/lastmile_qr_scan", "ios": "https://dc.lft.to/lastmile_qr_scan"}, "bike_id": "230dd18289cf2679b3d57a47685f42a7", "fusion_lon": 0.0, "fusion_lat": 0.0, "is_disabled": 0, "name": "230dd18289cf2679b3d57a47685f42a7", "type": "electric_scooter", "lon": -77.0364515}, {"is_reserved": 0, "lat": 38.914209, "rental_uris": {"android": "https://dc.lft.to/lastmile_qr_scan", "ios": "https://dc.lft.to/lastmile_qr_scan"}, "bike_id": "8b27b8b6dc4c69921b4e9d11e1826163", "fusion_lon": 0.0, "fusion_lat": 0.0, "is_disabled": 0, "name": "8b27b8b6dc4c69921b4e9d11e1826163", "type": "electric_scooter", "lon": -77.031831}, {"is_reserved": 0, "lat": 38.91266516666666, "rental_uris": {"android": "https://dc.lft.to/lastmile_qr_scan", "ios": "https://dc.lft.to/lastmile_qr_scan"}, "bike_id": "93ffef454e0639c88d4233a38563b5ce", "fusion_lon": 0.0, "fusion_lat": 0.0, "is_disabled": 0, "name": "93ffef454e0639c88d4233a38563b5ce", "type": "electric_scooter", "lon": -77.0380105}, {"is_reserved": 0, "lat": 38.9319375, "rental_uris": {"android": "https://dc.lft.to/lastmile_qr_scan", "ios": "https://dc.lft.to/lastmile_qr_scan"}, "bike_id": "ef96e8e54a9b648e9fbe1aec842b79e6", "fusion_lon": 0.0, "fusion_lat": 0.0, "is_disabled": 0, "name": "ef96e8e54a9b648e9fbe1aec842b79e6", "type": "electric_scooter", "lon": -77.02820166666666}, {"is_reserved": 0, "lat": 38.912172166666664, "rental_uris": {"android": "https://dc.lft.to/lastmile_qr_scan", "ios": "https://dc.lft.to/lastmile_qr_scan"}, "bike_id": "1d1accc180edcba4766ac5cb34fcfb97", "fusion_lon": 0.0, "fusion_lat": 0.0, "is_disabled": 0, "name": "1d1accc180edcba4766ac5cb34fcfb97", "type": "electric_scooter", "lon": -77.0448985}, {"is_reserved": 0, "lat": 38.92319283333333, "rental_uris": {"android": "https://dc.lft.to/lastmile_qr_scan", "ios": "https://dc.lft.to/lastmile_qr_scan"}, "bike_id": "9e694a817a34a18150675e46cdae26f0", "fusion_lon": 0.0, "fusion_lat": 0.0, "is_disabled": 0, "name": "9e694a817a34a18150675e46cdae26f0", "type": "electric_scooter", "lon": -77.042047}, {"is_reserved": 0, "lat": 38.90273116666667, "rental_uris": {"android": "https://dc.lft.to/lastmile_qr_scan", "ios": "https://dc.lft.to/lastmile_qr_scan"}, "bike_id": "b529fc4f2742506ea5908f848b8b294d", "fusion_lon": 0.0, "fusion_lat": 0.0, "is_disabled": 0, "name": "b529fc4f2742506ea5908f848b8b294d", "type": "electric_scooter", "lon": -77.03342116666667}, {"is_reserved": 0, "lat": 38.896525833333335, "rental_uris": {"android": "https://dc.lft.to/lastmile_qr_scan", "ios": "https://dc.lft.to/lastmile_qr_scan"}, "bike_id": "607c95afda5390d6e5b19f61ee39b7b4", "fusion_lon": 0.0, "fusion_lat": 0.0, "is_disabled": 0, "name": "607c95afda5390d6e5b19f61ee39b7b4", "type": "electric_scooter", "lon": -77.02810333333333}, {"is_reserved": 0, "lat": 38.919793, "rental_uris": {"android": "https://dc.lft.to/lastmile_qr_scan", "ios": "https://dc.lft.to/lastmile_qr_scan"}, "bike_id": "150933184dbf59c91c95ef2a66e7f924", "fusion_lon": 0.0, "fusion_lat": 0.0, "is_disabled": 0, "name": "150933184dbf59c91c95ef2a66e7f924", "type": "electric_scooter", "lon": -77.04086566666666}, {"is_reserved": 0, "lat": 38.90673266666667, "rental_uris": {"android": "https://dc.lft.to/lastmile_qr_scan", "ios": "https://dc.lft.to/lastmile_qr_scan"}, "bike_id": "2f8d29a64c52e986911b7b8774269107", "fusion_lon": 0.0, "fusion_lat": 0.0, "is_disabled": 0, "name": "2f8d29a64c52e986911b7b8774269107", "type": "electric_scooter", "lon": -77.03826116666667}, {"is_reserved": 0, "lat": 38.92443133333333, "rental_uris": {"android": "https://dc.lft.to/lastmile_qr_scan", "ios": "https://dc.lft.to/lastmile_qr_scan"}, "bike_id": "499c719c6000680723641d491772c844", "fusion_lon": 0.0, "fusion_lat": 0.0, "is_disabled": 0, "name": "499c719c6000680723641d491772c844", "type": "electric_scooter", "lon": -77.04032166666667}, {"is_reserved": 0, "lat": 38.8442955, "rental_uris": {"android": "https://dc.lft.to/lastmile_qr_scan", "ios": "https://dc.lft.to/lastmile_qr_scan"}, "bike_id": "e8ca9dd32facac53c51bc93139503090", "fusion_lon": 0.0, "fusion_lat": 0.0, "is_disabled": 0, "name": "e8ca9dd32facac53c51bc93139503090", "type": "electric_scooter", "lon": -76.99773433333333}, {"is_reserved": 0, "lat": 38.88431333333333, "rental_uris": {"android": "https://dc.lft.to/lastmile_qr_scan", "ios": "https://dc.lft.to/lastmile_qr_scan"}, "bike_id": "1a39412342949501916c122fe7b62e38", "fusion_lon": 0.0, "fusion_lat": 0.0, "is_disabled": 0, "name": "1a39412342949501916c122fe7b62e38", "type": "electric_scooter", "lon": -76.95750466666667}, {"is_reserved": 0, "lat": 38.9073595, "rental_uris": {"android": "https://dc.lft.to/lastmile_qr_scan", "ios": "https://dc.lft.to/lastmile_qr_scan"}, "bike_id": "5ffce2ed0555f56c27c1678b9dec60ab", "fusion_lon": 0.0, "fusion_lat": 0.0, "is_disabled": 0, "name": "5ffce2ed0555f56c27c1678b9dec60ab", "type": "electric_scooter", "lon": -77.02713916666667}, {"is_reserved": 0, "lat": 38.916746833333335, "rental_uris": {"android": "https://dc.lft.to/lastmile_qr_scan", "ios": "https://dc.lft.to/lastmile_qr_scan"}, "bike_id": "7547ea148bdd2ddc20d45b439c503a04", "fusion_lon": 0.0, "fusion_lat": 0.0, "is_disabled": 0, "name": "7547ea148bdd2ddc20d45b439c503a04", "type": "electric_scooter", "lon": -77.0228095}, {"is_reserved": 0, "lat": 38.903035333333335, "rental_uris": {"android": "https://dc.lft.to/lastmile_qr_scan", "ios": "https://dc.lft.to/lastmile_qr_scan"}, "bike_id": "e6ad0ed4859acadf86884844fc9c4f2d", "fusion_lon": 0.0, "fusion_lat": 0.0, "is_disabled": 0, "name": "e6ad0ed4859acadf86884844fc9c4f2d", "type": "electric_scooter", "lon": -77.0118355}, {"is_reserved": 0, "lat": 38.9001295, "rental_uris": {"android": "https://dc.lft.to/lastmile_qr_scan", "ios": "https://dc.lft.to/lastmile_qr_scan"}, "bike_id": "3a62d82d297a335ae1050ff02c019fdf", "fusion_lon": 0.0, "fusion_lat": 0.0, "is_disabled": 0, "name": "3a62d82d297a335ae1050ff02c019fdf", "type": "electric_scooter", "lon": -77.03182766666667}, {"is_reserved": 0, "lat": 38.9026295, "rental_uris": {"android": "https://dc.lft.to/lastmile_qr_scan", "ios": "https://dc.lft.to/lastmile_qr_scan"}, "bike_id": "d1f6b847e0e9a591396d7225e04d444a", "fusion_lon": 0.0, "fusion_lat": 0.0, "is_disabled": 0, "name": "d1f6b847e0e9a591396d7225e04d444a", "type": "electric_scooter", "lon": -77.03219733333333}, {"is_reserved": 0, "lat": 38.90959016666667, "rental_uris": {"android": "https://dc.lft.to/lastmile_qr_scan", "ios": "https://dc.lft.to/lastmile_qr_scan"}, "bike_id": "f337ad6d988964b27110668478d018d5", "fusion_lon": 0.0, "fusion_lat": 0.0, "is_disabled": 0, "name": "f337ad6d988964b27110668478d018d5", "type": "electric_scooter", "lon": -77.03234266666666}, {"is_reserved": 0, "lat": 38.93421766666667, "rental_uris": {"android": "https://dc.lft.to/lastmile_qr_scan", "ios": "https://dc.lft.to/lastmile_qr_scan"}, "bike_id": "0d759260d12e1ab42502b0e67def04c6", "fusion_lon": 0.0, "fusion_lat": 0.0, "is_disabled": 0, "name": "0d759260d12e1ab42502b0e67def04c6", "type": "electric_scooter", "lon": -77.04135766666667}, {"is_reserved": 0, "lat": 38.920433833333334, "rental_uris": {"android": "https://dc.lft.to/lastmile_qr_scan", "ios": "https://dc.lft.to/lastmile_qr_scan"}, "bike_id": "e7931589bc6c25fbb8063703ba22aadf", "fusion_lon": 0.0, "fusion_lat": 0.0, "is_disabled": 0, "name": "e7931589bc6c25fbb8063703ba22aadf", "type": "electric_scooter", "lon": -77.03993016666666}, {"is_reserved": 0, "lat": 38.92443266666667, "rental_uris": {"android": "https://dc.lft.to/lastmile_qr_scan", "ios": "https://dc.lft.to/lastmile_qr_scan"}, "bike_id": "d8dbc59738d0c540f4086af2ed7ed5d1", "fusion_lon": 0.0, "fusion_lat": 0.0, "is_disabled": 0, "name": "d8dbc59738d0c540f4086af2ed7ed5d1", "type": "electric_scooter", "lon": -77.02147933333333}, {"is_reserved": 0, "lat": 38.8997255, "rental_uris": {"android": "https://dc.lft.to/lastmile_qr_scan", "ios": "https://dc.lft.to/lastmile_qr_scan"}, "bike_id": "400b0b4658f005eeba237eac0413aeaa", "fusion_lon": 0.0, "fusion_lat": 0.0, "is_disabled": 0, "name": "400b0b4658f005eeba237eac0413aeaa", "type": "electric_scooter", "lon": -76.92725833333333}, {"is_reserved": 0, "lat": 38.912677333333335, "rental_uris": {"android": "https://dc.lft.to/lastmile_qr_scan", "ios": "https://dc.lft.to/lastmile_qr_scan"}, "bike_id": "8c653b8998895e5ea8dcfc58b069abc8", "fusion_lon": 0.0, "fusion_lat": 0.0, "is_disabled": 0, "name": "8c653b8998895e5ea8dcfc58b069abc8", "type": "electric_scooter", "lon": -77.03311}, {"is_reserved": 0, "lat": 38.90433933333333, "rental_uris": {"android": "https://dc.lft.to/lastmile_qr_scan", "ios": "https://dc.lft.to/lastmile_qr_scan"}, "bike_id": "4307acedb27c7e09ab1007280b8ea845", "fusion_lon": 0.0, "fusion_lat": 0.0, "is_disabled": 0, "name": "4307acedb27c7e09ab1007280b8ea845", "type": "electric_scooter", "lon": -77.03849683333334}, {"is_reserved": 0, "lat": 38.912660333333335, "rental_uris": {"android": "https://dc.lft.to/lastmile_qr_scan", "ios": "https://dc.lft.to/lastmile_qr_scan"}, "bike_id": "b1ec472fb94cfc2bf712e2dd58472b20", "fusion_lon": 0.0, "fusion_lat": 0.0, "is_disabled": 0, "name": "b1ec472fb94cfc2bf712e2dd58472b20", "type": "electric_scooter", "lon": -77.03139233333333}, {"is_reserved": 0, "lat": 38.88526616666667, "rental_uris": {"android": "https://dc.lft.to/lastmile_qr_scan", "ios": "https://dc.lft.to/lastmile_qr_scan"}, "bike_id": "280a2303fcd5b5ea2fefa04dda2306e7", "fusion_lon": 0.0, "fusion_lat": 0.0, "is_disabled": 0, "name": "280a2303fcd5b5ea2fefa04dda2306e7", "type": "electric_scooter", "lon": -77.01134183333333}, {"is_reserved": 0, "lat": 38.91703666666667, "rental_uris": {"android": "https://dc.lft.to/lastmile_qr_scan", "ios": "https://dc.lft.to/lastmile_qr_scan"}, "bike_id": "a58c8f4fb45a2d67f3dc39c0afd011ed", "fusion_lon": 0.0, "fusion_lat": 0.0, "is_disabled": 0, "name": "a58c8f4fb45a2d67f3dc39c0afd011ed", "type": "electric_bike", "lon": -77.0417005}, {"is_reserved": 0, "lat": 38.90679933333333, "rental_uris": {"android": "https://dc.lft.to/lastmile_qr_scan", "ios": "https://dc.lft.to/lastmile_qr_scan"}, "bike_id": "71b2a72de1068600fa37c0d4ae1473f6", "fusion_lon": 0.0, "fusion_lat": 0.0, "is_disabled": 0, "name": "71b2a72de1068600fa37c0d4ae1473f6", "type": "electric_scooter", "lon": -77.0269245}, {"is_reserved": 0, "lat": 38.9244275, "rental_uris": {"android": "https://dc.lft.to/lastmile_qr_scan", "ios": "https://dc.lft.to/lastmile_qr_scan"}, "bike_id": "9f9bfbff489de45785a1b17c904a626a", "fusion_lon": 0.0, "fusion_lat": 0.0, "is_disabled": 0, "name": "9f9bfbff489de45785a1b17c904a626a", "type": "electric_scooter", "lon": -77.04027116666667}, {"is_reserved": 0, "lat": 38.861704333333336, "rental_uris": {"android": "https://dc.lft.to/lastmile_qr_scan", "ios": "https://dc.lft.to/lastmile_qr_scan"}, "bike_id": "576a3973d5ada33fcb8da481190c27f0", "fusion_lon": 0.0, "fusion_lat": 0.0, "is_disabled": 0, "name": "576a3973d5ada33fcb8da481190c27f0", "type": "electric_bike", "lon": -77.13143433333333}, {"is_reserved": 0, "lat": 38.9178955, "rental_uris": {"android": "https://dc.lft.to/lastmile_qr_scan", "ios": "https://dc.lft.to/lastmile_qr_scan"}, "bike_id": "5c8c3b17198d697484a15dbffd5996f5", "fusion_lon": 0.0, "fusion_lat": 0.0, "is_disabled": 0, "name": "5c8c3b17198d697484a15dbffd5996f5", "type": "electric_bike", "lon": -76.971849}, {"is_reserved": 0, "lat": 38.903779166666666, "rental_uris": {"android": "https://dc.lft.to/lastmile_qr_scan", "ios": "https://dc.lft.to/lastmile_qr_scan"}, "bike_id": "044694808c37b98726a24c315df3a945", "fusion_lon": 0.0, "fusion_lat": 0.0, "is_disabled": 0, "name": "044694808c37b98726a24c315df3a945", "type": "electric_scooter", "lon": -77.04494066666666}, {"is_reserved": 0, "lat": 38.918189, "rental_uris": {"android": "https://dc.lft.to/lastmile_qr_scan", "ios": "https://dc.lft.to/lastmile_qr_scan"}, "bike_id": "16de67c3807c3f65848e5401457fab3f", "fusion_lon": 0.0, "fusion_lat": 0.0, "is_disabled": 0, "name": "16de67c3807c3f65848e5401457fab3f", "type": "electric_scooter", "lon": -77.0270155}, {"is_reserved": 0, "lat": 38.89883916666667, "rental_uris": {"android": "https://dc.lft.to/lastmile_qr_scan", "ios": "https://dc.lft.to/lastmile_qr_scan"}, "bike_id": "ac683f3841ae7adef783e93a1361202d", "fusion_lon": 0.0, "fusion_lat": 0.0, "is_disabled": 0, "name": "ac683f3841ae7adef783e93a1361202d", "type": "electric_scooter", "lon": -76.9317385}, {"is_reserved": 0, "lat": 38.9056185, "rental_uris": {"android": "https://dc.lft.to/lastmile_qr_scan", "ios": "https://dc.lft.to/lastmile_qr_scan"}, "bike_id": "ce7a976c63b74156c8456567e1a84e27", "fusion_lon": 0.0, "fusion_lat": 0.0, "is_disabled": 0, "name": "ce7a976c63b74156c8456567e1a84e27", "type": "electric_scooter", "lon": -77.0176665}, {"is_reserved": 0, "lat": 38.865379, "rental_uris": {"android": "https://dc.lft.to/lastmile_qr_scan", "ios": "https://dc.lft.to/lastmile_qr_scan"}, "bike_id": "ac4de63a5c860317235ed60718ce5b8a", "fusion_lon": 0.0, "fusion_lat": 0.0, "is_disabled": 0, "name": "ac4de63a5c860317235ed60718ce5b8a", "type": "electric_scooter", "lon": -76.98703633333334}, {"is_reserved": 0, "lat": 38.916022166666664, "rental_uris": {"android": "https://dc.lft.to/lastmile_qr_scan", "ios": "https://dc.lft.to/lastmile_qr_scan"}, "bike_id": "d8b5718bf937f1e05eac225cccc75724", "fusion_lon": 0.0, "fusion_lat": 0.0, "is_disabled": 0, "name": "d8b5718bf937f1e05eac225cccc75724", "type": "electric_scooter", "lon": -77.03845916666667}, {"is_reserved": 0, "lat": 38.900552166666664, "rental_uris": {"android": "https://dc.lft.to/lastmile_qr_scan", "ios": "https://dc.lft.to/lastmile_qr_scan"}, "bike_id": "e7564ea6abdc75fce5e5ee4b58bc5607", "fusion_lon": 0.0, "fusion_lat": 0.0, "is_disabled": 0, "name": "e7564ea6abdc75fce5e5ee4b58bc5607", "type": "electric_scooter", "lon": -77.00764683333334}, {"is_reserved": 0, "lat": 38.86595466666667, "rental_uris": {"android": "https://dc.lft.to/lastmile_qr_scan", "ios": "https://dc.lft.to/lastmile_qr_scan"}, "bike_id": "58fef21566d13d5cd087996c67ce7ded", "fusion_lon": 0.0, "fusion_lat": 0.0, "is_disabled": 0, "name": "58fef21566d13d5cd087996c67ce7ded", "type": "electric_bike", "lon": -76.93224616666667}, {"is_reserved": 0, "lat": 38.85223666666667, "rental_uris": {"android": "https://dc.lft.to/lastmile_qr_scan", "ios": "https://dc.lft.to/lastmile_qr_scan"}, "bike_id": "3112d868e5a22c6d19c137da6c241d71", "fusion_lon": 0.0, "fusion_lat": 0.0, "is_disabled": 0, "name": "3112d868e5a22c6d19c137da6c241d71", "type": "electric_bike", "lon": -77.1295575}, {"is_reserved": 0, "lat": 38.91929416666667, "rental_uris": {"android": "https://dc.lft.to/lastmile_qr_scan", "ios": "https://dc.lft.to/lastmile_qr_scan"}, "bike_id": "bdda4c4c5faa3fe153a4093e66d39f10", "fusion_lon": 0.0, "fusion_lat": 0.0, "is_disabled": 0, "name": "bdda4c4c5faa3fe153a4093e66d39f10", "type": "electric_scooter", "lon": -77.03170733333333}, {"is_reserved": 0, "lat": 38.91554716666667, "rental_uris": {"android": "https://dc.lft.to/lastmile_qr_scan", "ios": "https://dc.lft.to/lastmile_qr_scan"}, "bike_id": "df993de2c2cf740a8cc9ecda1003a6ef", "fusion_lon": 0.0, "fusion_lat": 0.0, "is_disabled": 0, "name": "df993de2c2cf740a8cc9ecda1003a6ef", "type": "electric_scooter", "lon": -77.04625866666666}, {"is_reserved": 0, "lat": 38.90996833333333, "rental_uris": {"android": "https://dc.lft.to/lastmile_qr_scan", "ios": "https://dc.lft.to/lastmile_qr_scan"}, "bike_id": "468a742d3e891a331e4bf877ede5ae19", "fusion_lon": 0.0, "fusion_lat": 0.0, "is_disabled": 0, "name": "468a742d3e891a331e4bf877ede5ae19", "type": "electric_scooter", "lon": -77.04006383333333}, {"is_reserved": 0, "lat": 38.904937, "rental_uris": {"android": "https://dc.lft.to/lastmile_qr_scan", "ios": "https://dc.lft.to/lastmile_qr_scan"}, "bike_id": "303bd7af8cc546cdf55e4181105420a6", "fusion_lon": 0.0, "fusion_lat": 0.0, "is_disabled": 0, "name": "303bd7af8cc546cdf55e4181105420a6", "type": "electric_scooter", "lon": -77.0021525}, {"is_reserved": 0, "lat": 38.865193166666664, "rental_uris": {"android": "https://dc.lft.to/lastmile_qr_scan", "ios": "https://dc.lft.to/lastmile_qr_scan"}, "bike_id": "f29ae66e7a46525105cfcf1ecb5d950f", "fusion_lon": 0.0, "fusion_lat": 0.0, "is_disabled": 0, "name": "f29ae66e7a46525105cfcf1ecb5d950f", "type": "electric_scooter", "lon": -76.99028266666667}, {"is_reserved": 0, "lat": 38.95350216666667, "rental_uris": {"android": "https://dc.lft.to/lastmile_qr_scan", "ios": "https://dc.lft.to/lastmile_qr_scan"}, "bike_id": "5da69606f420cede7de3e2cdfc630c5f", "fusion_lon": 0.0, "fusion_lat": 0.0, "is_disabled": 0, "name": "5da69606f420cede7de3e2cdfc630c5f", "type": "electric_bike", "lon": -76.98100083333334}, {"is_reserved": 0, "lat": 38.93333416666667, "rental_uris": {"android": "https://dc.lft.to/lastmile_qr_scan", "ios": "https://dc.lft.to/lastmile_qr_scan"}, "bike_id": "41afdd08ade800c94a4e8f8dbb362e7d", "fusion_lon": 0.0, "fusion_lat": 0.0, "is_disabled": 0, "name": "41afdd08ade800c94a4e8f8dbb362e7d", "type": "electric_scooter", "lon": -77.04385266666667}, {"is_reserved": 0, "lat": 38.90373816666666, "rental_uris": {"android": "https://dc.lft.to/lastmile_qr_scan", "ios": "https://dc.lft.to/lastmile_qr_scan"}, "bike_id": "94bbfa79b3c26ade2b701147524ab4e9", "fusion_lon": 0.0, "fusion_lat": 0.0, "is_disabled": 0, "name": "94bbfa79b3c26ade2b701147524ab4e9", "type": "electric_scooter", "lon": -77.040198}, {"is_reserved": 0, "lat": 38.904369, "rental_uris": {"android": "https://dc.lft.to/lastmile_qr_scan", "ios": "https://dc.lft.to/lastmile_qr_scan"}, "bike_id": "00fac53e73b6b91b493a39d8581563c0", "fusion_lon": 0.0, "fusion_lat": 0.0, "is_disabled": 0, "name": "00fac53e73b6b91b493a39d8581563c0", "type": "electric_scooter", "lon": -77.043345}, {"is_reserved": 0, "lat": 38.88528566666667, "rental_uris": {"android": "https://dc.lft.to/lastmile_qr_scan", "ios": "https://dc.lft.to/lastmile_qr_scan"}, "bike_id": "8abf17b821d86a33058c524d45dd1bdf", "fusion_lon": 0.0, "fusion_lat": 0.0, "is_disabled": 0, "name": "8abf17b821d86a33058c524d45dd1bdf", "type": "electric_scooter", "lon": -77.0150365}, {"is_reserved": 0, "lat": 38.924490166666665, "rental_uris": {"android": "https://dc.lft.to/lastmile_qr_scan", "ios": "https://dc.lft.to/lastmile_qr_scan"}, "bike_id": "907b5b443fe8303d477c457f5f8960b2", "fusion_lon": 0.0, "fusion_lat": 0.0, "is_disabled": 0, "name": "907b5b443fe8303d477c457f5f8960b2", "type": "electric_scooter", "lon": -77.04025716666666}, {"is_reserved": 0, "lat": 38.89216966666667, "rental_uris": {"android": "https://dc.lft.to/lastmile_qr_scan", "ios": "https://dc.lft.to/lastmile_qr_scan"}, "bike_id": "128bcc9d6c272177d1dba4deda2ef3d0", "fusion_lon": 0.0, "fusion_lat": 0.0, "is_disabled": 0, "name": "128bcc9d6c272177d1dba4deda2ef3d0", "type": "electric_scooter", "lon": -77.02623066666666}, {"is_reserved": 0, "lat": 38.892207, "rental_uris": {"android": "https://dc.lft.to/lastmile_qr_scan", "ios": "https://dc.lft.to/lastmile_qr_scan"}, "bike_id": "2535430ff032659784809a048ca509cd", "fusion_lon": 0.0, "fusion_lat": 0.0, "is_disabled": 0, "name": "2535430ff032659784809a048ca509cd", "type": "electric_scooter", "lon": -77.02624716666666}, {"is_reserved": 0, "lat": 38.91397933333333, "rental_uris": {"android": "https://dc.lft.to/lastmile_qr_scan", "ios": "https://dc.lft.to/lastmile_qr_scan"}, "bike_id": "fefd665655c78cfe883fc3c4f398d9d5", "fusion_lon": 0.0, "fusion_lat": 0.0, "is_disabled": 0, "name": "fefd665655c78cfe883fc3c4f398d9d5", "type": "electric_scooter", "lon": -77.03176266666667}, {"is_reserved": 0, "lat": 39.02433633333333, "rental_uris": {"android": "https://dc.lft.to/lastmile_qr_scan", "ios": "https://dc.lft.to/lastmile_qr_scan"}, "bike_id": "de1486ffc77fe04b1d3531a5158d2e79", "fusion_lon": 0.0, "fusion_lat": 0.0, "is_disabled": 0, "name": "de1486ffc77fe04b1d3531a5158d2e79", "type": "electric_bike", "lon": -77.1309895}, {"is_reserved": 0, "lat": 38.9103475, "rental_uris": {"android": "https://dc.lft.to/lastmile_qr_scan", "ios": "https://dc.lft.to/lastmile_qr_scan"}, "bike_id": "93d5fd426e38fefc0ab6682077ef99ce", "fusion_lon": 0.0, "fusion_lat": 0.0, "is_disabled": 0, "name": "93d5fd426e38fefc0ab6682077ef99ce", "type": "electric_scooter", "lon": -76.99339333333333}, {"is_reserved": 0, "lat": 38.93859366666667, "rental_uris": {"android": "https://dc.lft.to/lastmile_qr_scan", "ios": "https://dc.lft.to/lastmile_qr_scan"}, "bike_id": "3a1ca39d59e9c26b866e65b749ebdf11", "fusion_lon": 0.0, "fusion_lat": 0.0, "is_disabled": 0, "name": "3a1ca39d59e9c26b866e65b749ebdf11", "type": "electric_scooter", "lon": -77.030951}, {"is_reserved": 0, "lat": 39.03048366666667, "rental_uris": {"android": "https://dc.lft.to/lastmile_qr_scan", "ios": "https://dc.lft.to/lastmile_qr_scan"}, "bike_id": "fc3cb3bfe2d61269f2573140433485b8", "fusion_lon": 0.0, "fusion_lat": 0.0, "is_disabled": 0, "name": "fc3cb3bfe2d61269f2573140433485b8", "type": "electric_bike", "lon": -77.09471483333333}, {"is_reserved": 0, "lat": 38.908557, "rental_uris": {"android": "https://dc.lft.to/lastmile_qr_scan", "ios": "https://dc.lft.to/lastmile_qr_scan"}, "bike_id": "4a7c5dced1d1197fa285e91608b6bf54", "fusion_lon": 0.0, "fusion_lat": 0.0, "is_disabled": 0, "name": "4a7c5dced1d1197fa285e91608b6bf54", "type": "electric_scooter", "lon": -77.03460066666666}, {"is_reserved": 0, "lat": 38.87646816666667, "rental_uris": {"android": "https://dc.lft.to/lastmile_qr_scan", "ios": "https://dc.lft.to/lastmile_qr_scan"}, "bike_id": "a04e881dcb860ea1fc78f6435bbe2441", "fusion_lon": 0.0, "fusion_lat": 0.0, "is_disabled": 0, "name": "a04e881dcb860ea1fc78f6435bbe2441", "type": "electric_scooter", "lon": -77.00436783333333}, {"is_reserved": 0, "lat": 38.9073135, "rental_uris": {"android": "https://dc.lft.to/lastmile_qr_scan", "ios": "https://dc.lft.to/lastmile_qr_scan"}, "bike_id": "f0c27232f2eaa01723a22fa45bae9b7b", "fusion_lon": 0.0, "fusion_lat": 0.0, "is_disabled": 0, "name": "f0c27232f2eaa01723a22fa45bae9b7b", "type": "electric_scooter", "lon": -77.01131233333334}, {"is_reserved": 0, "lat": 38.939476, "rental_uris": {"android": "https://dc.lft.to/lastmile_qr_scan", "ios": "https://dc.lft.to/lastmile_qr_scan"}, "bike_id": "74e1db26b9688b768ff363a2390af392", "fusion_lon": 0.0, "fusion_lat": 0.0, "is_disabled": 0, "name": "74e1db26b9688b768ff363a2390af392", "type": "electric_scooter", "lon": -77.07238716666667}, {"is_reserved": 0, "lat": 38.8952765, "rental_uris": {"android": "https://dc.lft.to/lastmile_qr_scan", "ios": "https://dc.lft.to/lastmile_qr_scan"}, "bike_id": "3974de01d94ed6704314e9000f99cdb5", "fusion_lon": 0.0, "fusion_lat": 0.0, "is_disabled": 0, "name": "3974de01d94ed6704314e9000f99cdb5", "type": "electric_scooter", "lon": -76.9488795}, {"is_reserved": 0, "lat": 38.92954366666667, "rental_uris": {"android": "https://dc.lft.to/lastmile_qr_scan", "ios": "https://dc.lft.to/lastmile_qr_scan"}, "bike_id": "db4c59ef22c63fc2c5df05c073fcec29", "fusion_lon": 0.0, "fusion_lat": 0.0, "is_disabled": 0, "name": "db4c59ef22c63fc2c5df05c073fcec29", "type": "electric_scooter", "lon": -76.99088283333333}, {"is_reserved": 0, "lat": 38.911045, "rental_uris": {"android": "https://dc.lft.to/lastmile_qr_scan", "ios": "https://dc.lft.to/lastmile_qr_scan"}, "bike_id": "b863dfbd3c9c3d81e3058e77da7d3140", "fusion_lon": 0.0, "fusion_lat": 0.0, "is_disabled": 0, "name": "b863dfbd3c9c3d81e3058e77da7d3140", "type": "electric_scooter", "lon": -77.0442935}, {"is_reserved": 0, "lat": 38.89285016666667, "rental_uris": {"android": "https://dc.lft.to/lastmile_qr_scan", "ios": "https://dc.lft.to/lastmile_qr_scan"}, "bike_id": "0bc4522a8e58b7f2fdb2aa4ca0a602f2", "fusion_lon": 0.0, "fusion_lat": 0.0, "is_disabled": 0, "name": "0bc4522a8e58b7f2fdb2aa4ca0a602f2", "type": "electric_scooter", "lon": -76.9585005}, {"is_reserved": 0, "lat": 38.91996616666667, "rental_uris": {"android": "https://dc.lft.to/lastmile_qr_scan", "ios": "https://dc.lft.to/lastmile_qr_scan"}, "bike_id": "f1f192a727f19f8e900041066831d846", "fusion_lon": 0.0, "fusion_lat": 0.0, "is_disabled": 0, "name": "f1f192a727f19f8e900041066831d846", "type": "electric_scooter", "lon": -77.032206}, {"is_reserved": 0, "lat": 38.91782766666667, "rental_uris": {"android": "https://dc.lft.to/lastmile_qr_scan", "ios": "https://dc.lft.to/lastmile_qr_scan"}, "bike_id": "0399f0fb7cb5a816948e11db3a10c73d", "fusion_lon": 0.0, "fusion_lat": 0.0, "is_disabled": 0, "name": "0399f0fb7cb5a816948e11db3a10c73d", "type": "electric_scooter", "lon": -77.02338266666666}, {"is_reserved": 0, "lat": 38.909695166666666, "rental_uris": {"android": "https://dc.lft.to/lastmile_qr_scan", "ios": "https://dc.lft.to/lastmile_qr_scan"}, "bike_id": "674bc71ce78c890777d25c890120fa75", "fusion_lon": 0.0, "fusion_lat": 0.0, "is_disabled": 0, "name": "674bc71ce78c890777d25c890120fa75", "type": "electric_scooter", "lon": -76.99602983333334}, {"is_reserved": 0, "lat": 38.900256166666665, "rental_uris": {"android": "https://dc.lft.to/lastmile_qr_scan", "ios": "https://dc.lft.to/lastmile_qr_scan"}, "bike_id": "1bd658fde3b74d3aa3f99e24674e536c", "fusion_lon": 0.0, "fusion_lat": 0.0, "is_disabled": 0, "name": "1bd658fde3b74d3aa3f99e24674e536c", "type": "electric_scooter", "lon": -76.977135}, {"is_reserved": 0, "lat": 38.915428666666664, "rental_uris": {"android": "https://dc.lft.to/lastmile_qr_scan", "ios": "https://dc.lft.to/lastmile_qr_scan"}, "bike_id": "eec8a13bec33b9ed404e66a1c9fb7cfe", "fusion_lon": 0.0, "fusion_lat": 0.0, "is_disabled": 0, "name": "eec8a13bec33b9ed404e66a1c9fb7cfe", "type": "electric_scooter", "lon": -77.07414666666666}, {"is_reserved": 0, "lat": 38.911091, "rental_uris": {"android": "https://dc.lft.to/lastmile_qr_scan", "ios": "https://dc.lft.to/lastmile_qr_scan"}, "bike_id": "3c62cc36de2e26f6b5c8f4562aa75cbd", "fusion_lon": 0.0, "fusion_lat": 0.0, "is_disabled": 0, "name": "3c62cc36de2e26f6b5c8f4562aa75cbd", "type": "electric_scooter", "lon": -77.03186533333333}, {"is_reserved": 0, "lat": 38.898429, "rental_uris": {"android": "https://dc.lft.to/lastmile_qr_scan", "ios": "https://dc.lft.to/lastmile_qr_scan"}, "bike_id": "b51ac846e9cbb2a635f30b808c62c1ff", "fusion_lon": 0.0, "fusion_lat": 0.0, "is_disabled": 0, "name": "b51ac846e9cbb2a635f30b808c62c1ff", "type": "electric_scooter", "lon": -76.94635816666667}, {"is_reserved": 0, "lat": 38.88720933333333, "rental_uris": {"android": "https://dc.lft.to/lastmile_qr_scan", "ios": "https://dc.lft.to/lastmile_qr_scan"}, "bike_id": "3c427ba3c754793ac4a3eb8ee1cf0959", "fusion_lon": 0.0, "fusion_lat": 0.0, "is_disabled": 0, "name": "3c427ba3c754793ac4a3eb8ee1cf0959", "type": "electric_scooter", "lon": -76.99605416666667}, {"is_reserved": 0, "lat": 38.930899333333336, "rental_uris": {"android": "https://dc.lft.to/lastmile_qr_scan", "ios": "https://dc.lft.to/lastmile_qr_scan"}, "bike_id": "9c60c05ee0c90be0ea86aff5a19f27b1", "fusion_lon": 0.0, "fusion_lat": 0.0, "is_disabled": 0, "name": "9c60c05ee0c90be0ea86aff5a19f27b1", "type": "electric_scooter", "lon": -77.03738466666667}, {"is_reserved": 0, "lat": 38.9370975, "rental_uris": {"android": "https://dc.lft.to/lastmile_qr_scan", "ios": "https://dc.lft.to/lastmile_qr_scan"}, "bike_id": "ebac27074951b8e676c4c9a2a6a895de", "fusion_lon": 0.0, "fusion_lat": 0.0, "is_disabled": 0, "name": "ebac27074951b8e676c4c9a2a6a895de", "type": "electric_scooter", "lon": -77.03636916666666}, {"is_reserved": 0, "lat": 38.90035483333333, "rental_uris": {"android": "https://dc.lft.to/lastmile_qr_scan", "ios": "https://dc.lft.to/lastmile_qr_scan"}, "bike_id": "5005f1cf99643cd1ff0427bc414a1db4", "fusion_lon": 0.0, "fusion_lat": 0.0, "is_disabled": 0, "name": "5005f1cf99643cd1ff0427bc414a1db4", "type": "electric_scooter", "lon": -76.993726}, {"is_reserved": 0, "lat": 38.91778983333333, "rental_uris": {"android": "https://dc.lft.to/lastmile_qr_scan", "ios": "https://dc.lft.to/lastmile_qr_scan"}, "bike_id": "d6619019431fd70721ee3e4dbae863c4", "fusion_lon": 0.0, "fusion_lat": 0.0, "is_disabled": 0, "name": "d6619019431fd70721ee3e4dbae863c4", "type": "electric_scooter", "lon": -77.02312866666666}, {"is_reserved": 0, "lat": 38.91419, "rental_uris": {"android": "https://dc.lft.to/lastmile_qr_scan", "ios": "https://dc.lft.to/lastmile_qr_scan"}, "bike_id": "a888a2d744070a8f7c944d89319acc20", "fusion_lon": 0.0, "fusion_lat": 0.0, "is_disabled": 0, "name": "a888a2d744070a8f7c944d89319acc20", "type": "electric_scooter", "lon": -77.031742}, {"is_reserved": 0, "lat": 38.915243833333335, "rental_uris": {"android": "https://dc.lft.to/lastmile_qr_scan", "ios": "https://dc.lft.to/lastmile_qr_scan"}, "bike_id": "1777945b11bad65ed6d7886e622d918f", "fusion_lon": 0.0, "fusion_lat": 0.0, "is_disabled": 0, "name": "1777945b11bad65ed6d7886e622d918f", "type": "electric_scooter", "lon": -77.04157616666667}, {"is_reserved": 0, "lat": 38.9351215, "rental_uris": {"android": "https://dc.lft.to/lastmile_qr_scan", "ios": "https://dc.lft.to/lastmile_qr_scan"}, "bike_id": "13a57d33c322657a29aabeb7ab011ba5", "fusion_lon": 0.0, "fusion_lat": 0.0, "is_disabled": 0, "name": "13a57d33c322657a29aabeb7ab011ba5", "type": "electric_scooter", "lon": -77.032622}, {"is_reserved": 0, "lat": 38.93633033333333, "rental_uris": {"android": "https://dc.lft.to/lastmile_qr_scan", "ios": "https://dc.lft.to/lastmile_qr_scan"}, "bike_id": "2865b35c6a4f9fb097d7f9219ad5f5fa", "fusion_lon": 0.0, "fusion_lat": 0.0, "is_disabled": 0, "name": "2865b35c6a4f9fb097d7f9219ad5f5fa", "type": "electric_scooter", "lon": -77.02496733333334}, {"is_reserved": 0, "lat": 38.918054, "rental_uris": {"android": "https://dc.lft.to/lastmile_qr_scan", "ios": "https://dc.lft.to/lastmile_qr_scan"}, "bike_id": "b0d3b573f81e70c05fda2c884c40717b", "fusion_lon": 0.0, "fusion_lat": 0.0, "is_disabled": 0, "name": "b0d3b573f81e70c05fda2c884c40717b", "type": "electric_scooter", "lon": -77.02493116666666}, {"is_reserved": 0, "lat": 38.92535766666666, "rental_uris": {"android": "https://dc.lft.to/lastmile_qr_scan", "ios": "https://dc.lft.to/lastmile_qr_scan"}, "bike_id": "0d9292d4dd1567bb187fba37f359bc35", "fusion_lon": 0.0, "fusion_lat": 0.0, "is_disabled": 0, "name": "0d9292d4dd1567bb187fba37f359bc35", "type": "electric_scooter", "lon": -77.04417283333333}, {"is_reserved": 0, "lat": 38.87730466666667, "rental_uris": {"android": "https://dc.lft.to/lastmile_qr_scan", "ios": "https://dc.lft.to/lastmile_qr_scan"}, "bike_id": "d6a8e21b63e1f7da4ab096fbe59cbad5", "fusion_lon": 0.0, "fusion_lat": 0.0, "is_disabled": 0, "name": "d6a8e21b63e1f7da4ab096fbe59cbad5", "type": "electric_scooter", "lon": -77.01751116666667}, {"is_reserved": 0, "lat": 38.91121166666667, "rental_uris": {"android": "https://dc.lft.to/lastmile_qr_scan", "ios": "https://dc.lft.to/lastmile_qr_scan"}, "bike_id": "1fd2a4fc2b7107fd384a8d2a1613f47c", "fusion_lon": 0.0, "fusion_lat": 0.0, "is_disabled": 0, "name": "1fd2a4fc2b7107fd384a8d2a1613f47c", "type": "electric_scooter", "lon": -77.0384535}, {"is_reserved": 0, "lat": 38.893542833333335, "rental_uris": {"android": "https://dc.lft.to/lastmile_qr_scan", "ios": "https://dc.lft.to/lastmile_qr_scan"}, "bike_id": "b77a4653a340155bba1c295d700e5a77", "fusion_lon": 0.0, "fusion_lat": 0.0, "is_disabled": 0, "name": "b77a4653a340155bba1c295d700e5a77", "type": "electric_scooter", "lon": -77.04139466666666}, {"is_reserved": 0, "lat": 38.91814766666667, "rental_uris": {"android": "https://dc.lft.to/lastmile_qr_scan", "ios": "https://dc.lft.to/lastmile_qr_scan"}, "bike_id": "e418beace695dffd64fc07093b105a3e", "fusion_lon": 0.0, "fusion_lat": 0.0, "is_disabled": 0, "name": "e418beace695dffd64fc07093b105a3e", "type": "electric_scooter", "lon": -77.031693}, {"is_reserved": 0, "lat": 38.91644333333333, "rental_uris": {"android": "https://dc.lft.to/lastmile_qr_scan", "ios": "https://dc.lft.to/lastmile_qr_scan"}, "bike_id": "a14eff319efd87f3e2193806c5101d7c", "fusion_lon": 0.0, "fusion_lat": 0.0, "is_disabled": 0, "name": "a14eff319efd87f3e2193806c5101d7c", "type": "electric_scooter", "lon": -77.04777866666667}, {"is_reserved": 0, "lat": 38.93248716666667, "rental_uris": {"android": "https://dc.lft.to/lastmile_qr_scan", "ios": "https://dc.lft.to/lastmile_qr_scan"}, "bike_id": "b7bc183058870fdf04c9d8625e300a98", "fusion_lon": 0.0, "fusion_lat": 0.0, "is_disabled": 0, "name": "b7bc183058870fdf04c9d8625e300a98", "type": "electric_scooter", "lon": -77.03263933333334}, {"is_reserved": 0, "lat": 38.917924166666666, "rental_uris": {"android": "https://dc.lft.to/lastmile_qr_scan", "ios": "https://dc.lft.to/lastmile_qr_scan"}, "bike_id": "5822ec4b99c04381f2c585d62ecd72d1", "fusion_lon": 0.0, "fusion_lat": 0.0, "is_disabled": 0, "name": "5822ec4b99c04381f2c585d62ecd72d1", "type": "electric_scooter", "lon": -77.04036966666666}, {"is_reserved": 0, "lat": 38.9228815, "rental_uris": {"android": "https://dc.lft.to/lastmile_qr_scan", "ios": "https://dc.lft.to/lastmile_qr_scan"}, "bike_id": "ec7e9d71950f74818aa7394da1e2c887", "fusion_lon": 0.0, "fusion_lat": 0.0, "is_disabled": 0, "name": "ec7e9d71950f74818aa7394da1e2c887", "type": "electric_scooter", "lon": -77.03653516666667}, {"is_reserved": 0, "lat": 38.95780583333333, "rental_uris": {"android": "https://dc.lft.to/lastmile_qr_scan", "ios": "https://dc.lft.to/lastmile_qr_scan"}, "bike_id": "724cda51a9fecc8b5dbb2672b013ea68", "fusion_lon": 0.0, "fusion_lat": 0.0, "is_disabled": 0, "name": "724cda51a9fecc8b5dbb2672b013ea68", "type": "electric_scooter", "lon": -77.02756783333334}, {"is_reserved": 0, "lat": 38.94475633333333, "rental_uris": {"android": "https://dc.lft.to/lastmile_qr_scan", "ios": "https://dc.lft.to/lastmile_qr_scan"}, "bike_id": "511ed86f44373efc9fb9043989bb1d62", "fusion_lon": 0.0, "fusion_lat": 0.0, "is_disabled": 0, "name": "511ed86f44373efc9fb9043989bb1d62", "type": "electric_bike", "lon": -76.986875}, {"is_reserved": 0, "lat": 38.93538183333333, "rental_uris": {"android": "https://dc.lft.to/lastmile_qr_scan", "ios": "https://dc.lft.to/lastmile_qr_scan"}, "bike_id": "0ff0b99aadbc58e736c5e4e58d39324f", "fusion_lon": 0.0, "fusion_lat": 0.0, "is_disabled": 0, "name": "0ff0b99aadbc58e736c5e4e58d39324f", "type": "electric_scooter", "lon": -77.0235335}, {"is_reserved": 0, "lat": 38.919898, "rental_uris": {"android": "https://dc.lft.to/lastmile_qr_scan", "ios": "https://dc.lft.to/lastmile_qr_scan"}, "bike_id": "0283015bbcc8c1398b2fdc1c892f2878", "fusion_lon": 0.0, "fusion_lat": 0.0, "is_disabled": 0, "name": "0283015bbcc8c1398b2fdc1c892f2878", "type": "electric_scooter", "lon": -77.03261483333333}, {"is_reserved": 0, "lat": 38.88429433333334, "rental_uris": {"android": "https://dc.lft.to/lastmile_qr_scan", "ios": "https://dc.lft.to/lastmile_qr_scan"}, "bike_id": "6b6c44e8289ac22d8c2eb33fa9013033", "fusion_lon": 0.0, "fusion_lat": 0.0, "is_disabled": 0, "name": "6b6c44e8289ac22d8c2eb33fa9013033", "type": "electric_scooter", "lon": -76.95750783333334}, {"is_reserved": 0, "lat": 38.927535666666664, "rental_uris": {"android": "https://dc.lft.to/lastmile_qr_scan", "ios": "https://dc.lft.to/lastmile_qr_scan"}, "bike_id": "655eeeac424bb963875113b18eb725a6", "fusion_lon": 0.0, "fusion_lat": 0.0, "is_disabled": 0, "name": "655eeeac424bb963875113b18eb725a6", "type": "electric_scooter", "lon": -77.02431083333333}, {"is_reserved": 0, "lat": 38.93001133333333, "rental_uris": {"android": "https://dc.lft.to/lastmile_qr_scan", "ios": "https://dc.lft.to/lastmile_qr_scan"}, "bike_id": "28d2c8c476aa9170867fbb8609d8df57", "fusion_lon": 0.0, "fusion_lat": 0.0, "is_disabled": 0, "name": "28d2c8c476aa9170867fbb8609d8df57", "type": "electric_scooter", "lon": -77.0553625}, {"is_reserved": 0, "lat": 38.90061633333333, "rental_uris": {"android": "https://dc.lft.to/lastmile_qr_scan", "ios": "https://dc.lft.to/lastmile_qr_scan"}, "bike_id": "fb2f7a54264ae0aa34f3d5196843d0c2", "fusion_lon": 0.0, "fusion_lat": 0.0, "is_disabled": 0, "name": "fb2f7a54264ae0aa34f3d5196843d0c2", "type": "electric_scooter", "lon": -77.049102}, {"is_reserved": 0, "lat": 38.90728333333333, "rental_uris": {"android": "https://dc.lft.to/lastmile_qr_scan", "ios": "https://dc.lft.to/lastmile_qr_scan"}, "bike_id": "9bcfdf5e0cb220cb0653fec731242231", "fusion_lon": 0.0, "fusion_lat": 0.0, "is_disabled": 0, "name": "9bcfdf5e0cb220cb0653fec731242231", "type": "electric_scooter", "lon": -77.03465716666666}, {"is_reserved": 0, "lat": 38.892184, "rental_uris": {"android": "https://dc.lft.to/lastmile_qr_scan", "ios": "https://dc.lft.to/lastmile_qr_scan"}, "bike_id": "0a2dfe1337ca6c234809de09380887cd", "fusion_lon": 0.0, "fusion_lat": 0.0, "is_disabled": 0, "name": "0a2dfe1337ca6c234809de09380887cd", "type": "electric_scooter", "lon": -77.0322215}, {"is_reserved": 0, "lat": 38.90891083333333, "rental_uris": {"android": "https://dc.lft.to/lastmile_qr_scan", "ios": "https://dc.lft.to/lastmile_qr_scan"}, "bike_id": "dcff0996343418145d109aab94e194db", "fusion_lon": 0.0, "fusion_lat": 0.0, "is_disabled": 0, "name": "dcff0996343418145d109aab94e194db", "type": "electric_scooter", "lon": -77.04094183333333}, {"is_reserved": 0, "lat": 38.92614183333333, "rental_uris": {"android": "https://dc.lft.to/lastmile_qr_scan", "ios": "https://dc.lft.to/lastmile_qr_scan"}, "bike_id": "bcf88d81338e128dc70a378175420907", "fusion_lon": 0.0, "fusion_lat": 0.0, "is_disabled": 0, "name": "bcf88d81338e128dc70a378175420907", "type": "electric_scooter", "lon": -77.0216155}, {"is_reserved": 0, "lat": 38.91723016666667, "rental_uris": {"android": "https://dc.lft.to/lastmile_qr_scan", "ios": "https://dc.lft.to/lastmile_qr_scan"}, "bike_id": "54f979b63187d42fb1670fb8ea7a6d1d", "fusion_lon": 0.0, "fusion_lat": 0.0, "is_disabled": 0, "name": "54f979b63187d42fb1670fb8ea7a6d1d", "type": "electric_scooter", "lon": -77.036604}, {"is_reserved": 0, "lat": 38.887416, "rental_uris": {"android": "https://dc.lft.to/lastmile_qr_scan", "ios": "https://dc.lft.to/lastmile_qr_scan"}, "bike_id": "d27431ebf21f0e727a516732bb6c7136", "fusion_lon": 0.0, "fusion_lat": 0.0, "is_disabled": 0, "name": "d27431ebf21f0e727a516732bb6c7136", "type": "electric_scooter", "lon": -77.00334166666667}, {"is_reserved": 0, "lat": 38.89898183333333, "rental_uris": {"android": "https://dc.lft.to/lastmile_qr_scan", "ios": "https://dc.lft.to/lastmile_qr_scan"}, "bike_id": "b35ee67f819cf039d67d7270c816ff11", "fusion_lon": 0.0, "fusion_lat": 0.0, "is_disabled": 0, "name": "b35ee67f819cf039d67d7270c816ff11", "type": "electric_scooter", "lon": -77.04055216666667}, {"is_reserved": 0, "lat": 38.907933, "rental_uris": {"android": "https://dc.lft.to/lastmile_qr_scan", "ios": "https://dc.lft.to/lastmile_qr_scan"}, "bike_id": "370ed3631351974542a6fe64478b36a1", "fusion_lon": 0.0, "fusion_lat": 0.0, "is_disabled": 0, "name": "370ed3631351974542a6fe64478b36a1", "type": "electric_scooter", "lon": -77.04311183333333}, {"is_reserved": 0, "lat": 38.9026035, "rental_uris": {"android": "https://dc.lft.to/lastmile_qr_scan", "ios": "https://dc.lft.to/lastmile_qr_scan"}, "bike_id": "b369bf2cab0a8eaefc9f3c012c7eb5a5", "fusion_lon": 0.0, "fusion_lat": 0.0, "is_disabled": 0, "name": "b369bf2cab0a8eaefc9f3c012c7eb5a5", "type": "electric_scooter", "lon": -77.0175475}, {"is_reserved": 0, "lat": 38.892284833333335, "rental_uris": {"android": "https://dc.lft.to/lastmile_qr_scan", "ios": "https://dc.lft.to/lastmile_qr_scan"}, "bike_id": "7bc22936e122c43fcab95011dfdd6e95", "fusion_lon": 0.0, "fusion_lat": 0.0, "is_disabled": 0, "name": "7bc22936e122c43fcab95011dfdd6e95", "type": "electric_bike", "lon": -77.03441633333334}, {"is_reserved": 0, "lat": 38.89614916666667, "rental_uris": {"android": "https://dc.lft.to/lastmile_qr_scan", "ios": "https://dc.lft.to/lastmile_qr_scan"}, "bike_id": "ea68508c8f018dbced8bf43341d058f0", "fusion_lon": 0.0, "fusion_lat": 0.0, "is_disabled": 0, "name": "ea68508c8f018dbced8bf43341d058f0", "type": "electric_scooter", "lon": -77.0264865}, {"is_reserved": 0, "lat": 38.93503966666667, "rental_uris": {"android": "https://dc.lft.to/lastmile_qr_scan", "ios": "https://dc.lft.to/lastmile_qr_scan"}, "bike_id": "7dfa105ea714ec18e8ba61f90c558e9f", "fusion_lon": 0.0, "fusion_lat": 0.0, "is_disabled": 0, "name": "7dfa105ea714ec18e8ba61f90c558e9f", "type": "electric_scooter", "lon": -77.0427835}, {"is_reserved": 0, "lat": 38.9081045, "rental_uris": {"android": "https://dc.lft.to/lastmile_qr_scan", "ios": "https://dc.lft.to/lastmile_qr_scan"}, "bike_id": "0c3c306f703bdbbf395f08b86206ed4b", "fusion_lon": 0.0, "fusion_lat": 0.0, "is_disabled": 0, "name": "0c3c306f703bdbbf395f08b86206ed4b", "type": "electric_scooter", "lon": -77.03856583333334}, {"is_reserved": 0, "lat": 38.91687183333333, "rental_uris": {"android": "https://dc.lft.to/lastmile_qr_scan", "ios": "https://dc.lft.to/lastmile_qr_scan"}, "bike_id": "bfb47930aaf4aca6b51bad89e9743422", "fusion_lon": 0.0, "fusion_lat": 0.0, "is_disabled": 0, "name": "bfb47930aaf4aca6b51bad89e9743422", "type": "electric_scooter", "lon": -77.022882}, {"is_reserved": 0, "lat": 38.90632333333333, "rental_uris": {"android": "https://dc.lft.to/lastmile_qr_scan", "ios": "https://dc.lft.to/lastmile_qr_scan"}, "bike_id": "183a9d3b107ce240028077958b50a50c", "fusion_lon": 0.0, "fusion_lat": 0.0, "is_disabled": 0, "name": "183a9d3b107ce240028077958b50a50c", "type": "electric_scooter", "lon": -77.03405416666666}, {"is_reserved": 0, "lat": 38.917790833333335, "rental_uris": {"android": "https://dc.lft.to/lastmile_qr_scan", "ios": "https://dc.lft.to/lastmile_qr_scan"}, "bike_id": "7ac29697454728f03fc37ac36340fdb7", "fusion_lon": 0.0, "fusion_lat": 0.0, "is_disabled": 0, "name": "7ac29697454728f03fc37ac36340fdb7", "type": "electric_scooter", "lon": -77.02344733333334}, {"is_reserved": 0, "lat": 38.93023866666667, "rental_uris": {"android": "https://dc.lft.to/lastmile_qr_scan", "ios": "https://dc.lft.to/lastmile_qr_scan"}, "bike_id": "caa51a5c813edd0fb32a09281aef703a", "fusion_lon": 0.0, "fusion_lat": 0.0, "is_disabled": 0, "name": "caa51a5c813edd0fb32a09281aef703a", "type": "electric_scooter", "lon": -77.04453916666667}, {"is_reserved": 0, "lat": 38.89218616666667, "rental_uris": {"android": "https://dc.lft.to/lastmile_qr_scan", "ios": "https://dc.lft.to/lastmile_qr_scan"}, "bike_id": "332f02f293feefbfc17eff89ab28239a", "fusion_lon": 0.0, "fusion_lat": 0.0, "is_disabled": 0, "name": "332f02f293feefbfc17eff89ab28239a", "type": "electric_scooter", "lon": -77.03164066666666}, {"is_reserved": 0, "lat": 38.9443805, "rental_uris": {"android": "https://dc.lft.to/lastmile_qr_scan", "ios": "https://dc.lft.to/lastmile_qr_scan"}, "bike_id": "bae433f1d00d5f91877d19c771361e4a", "fusion_lon": 0.0, "fusion_lat": 0.0, "is_disabled": 0, "name": "bae433f1d00d5f91877d19c771361e4a", "type": "electric_scooter", "lon": -77.063963}, {"is_reserved": 0, "lat": 38.909920666666665, "rental_uris": {"android": "https://dc.lft.to/lastmile_qr_scan", "ios": "https://dc.lft.to/lastmile_qr_scan"}, "bike_id": "23ec3b7a182ae6009f26a0b7087d4652", "fusion_lon": 0.0, "fusion_lat": 0.0, "is_disabled": 0, "name": "23ec3b7a182ae6009f26a0b7087d4652", "type": "electric_scooter", "lon": -76.9973745}, {"is_reserved": 0, "lat": 38.892238666666664, "rental_uris": {"android": "https://dc.lft.to/lastmile_qr_scan", "ios": "https://dc.lft.to/lastmile_qr_scan"}, "bike_id": "fa8924f2f15da9593fee1c923d2a2856", "fusion_lon": 0.0, "fusion_lat": 0.0, "is_disabled": 0, "name": "fa8924f2f15da9593fee1c923d2a2856", "type": "electric_scooter", "lon": -77.03162}, {"is_reserved": 0, "lat": 38.89884433333334, "rental_uris": {"android": "https://dc.lft.to/lastmile_qr_scan", "ios": "https://dc.lft.to/lastmile_qr_scan"}, "bike_id": "5c5a5a8ddf9e76a764c2c10f68e97b3a", "fusion_lon": 0.0, "fusion_lat": 0.0, "is_disabled": 0, "name": "5c5a5a8ddf9e76a764c2c10f68e97b3a", "type": "electric_scooter", "lon": -76.93169816666666}, {"is_reserved": 0, "lat": 39.0047255, "rental_uris": {"android": "https://dc.lft.to/lastmile_qr_scan", "ios": "https://dc.lft.to/lastmile_qr_scan"}, "bike_id": "fac3067fcec968a791189f26375aff9e", "fusion_lon": 0.0, "fusion_lat": 0.0, "is_disabled": 0, "name": "fac3067fcec968a791189f26375aff9e", "type": "electric_bike", "lon": -76.90129033333334}, {"is_reserved": 0, "lat": 38.9305905, "rental_uris": {"android": "https://dc.lft.to/lastmile_qr_scan", "ios": "https://dc.lft.to/lastmile_qr_scan"}, "bike_id": "3b9715dae3f8a3fcc1ae1acf253ad142", "fusion_lon": 0.0, "fusion_lat": 0.0, "is_disabled": 0, "name": "3b9715dae3f8a3fcc1ae1acf253ad142", "type": "electric_scooter", "lon": -77.03695366666666}, {"is_reserved": 0, "lat": 38.82870583333333, "rental_uris": {"android": "https://dc.lft.to/lastmile_qr_scan", "ios": "https://dc.lft.to/lastmile_qr_scan"}, "bike_id": "cc4d25fec1ce673d619c99f4bc7d686d", "fusion_lon": 0.0, "fusion_lat": 0.0, "is_disabled": 0, "name": "cc4d25fec1ce673d619c99f4bc7d686d", "type": "electric_bike", "lon": -77.11223766666667}, {"is_reserved": 0, "lat": 38.8843975, "rental_uris": {"android": "https://dc.lft.to/lastmile_qr_scan", "ios": "https://dc.lft.to/lastmile_qr_scan"}, "bike_id": "e948bf1b2b983e909e1f872b4df0e6ad", "fusion_lon": 0.0, "fusion_lat": 0.0, "is_disabled": 0, "name": "e948bf1b2b983e909e1f872b4df0e6ad", "type": "electric_scooter", "lon": -76.99614283333334}, {"is_reserved": 0, "lat": 38.900719333333335, "rental_uris": {"android": "https://dc.lft.to/lastmile_qr_scan", "ios": "https://dc.lft.to/lastmile_qr_scan"}, "bike_id": "661e9a7c530e5cb62d59f70440bbd285", "fusion_lon": 0.0, "fusion_lat": 0.0, "is_disabled": 0, "name": "661e9a7c530e5cb62d59f70440bbd285", "type": "electric_scooter", "lon": -77.04339716666667}, {"is_reserved": 0, "lat": 38.901216, "rental_uris": {"android": "https://dc.lft.to/lastmile_qr_scan", "ios": "https://dc.lft.to/lastmile_qr_scan"}, "bike_id": "6021f4ace96c4b42ae108734fe307212", "fusion_lon": 0.0, "fusion_lat": 0.0, "is_disabled": 0, "name": "6021f4ace96c4b42ae108734fe307212", "type": "electric_scooter", "lon": -77.04982783333334}, {"is_reserved": 0, "lat": 38.923713166666666, "rental_uris": {"android": "https://dc.lft.to/lastmile_qr_scan", "ios": "https://dc.lft.to/lastmile_qr_scan"}, "bike_id": "eefa53b96a05b66d82b2a2e35f29d178", "fusion_lon": 0.0, "fusion_lat": 0.0, "is_disabled": 0, "name": "eefa53b96a05b66d82b2a2e35f29d178", "type": "electric_scooter", "lon": -77.05054333333334}, {"is_reserved": 0, "lat": 38.858084833333336, "rental_uris": {"android": "https://dc.lft.to/lastmile_qr_scan", "ios": "https://dc.lft.to/lastmile_qr_scan"}, "bike_id": "2d0a348a678622d1d0bed4e11f62661f", "fusion_lon": 0.0, "fusion_lat": 0.0, "is_disabled": 0, "name": "2d0a348a678622d1d0bed4e11f62661f", "type": "electric_scooter", "lon": -76.98733316666667}, {"is_reserved": 0, "lat": 38.901165166666665, "rental_uris": {"android": "https://dc.lft.to/lastmile_qr_scan", "ios": "https://dc.lft.to/lastmile_qr_scan"}, "bike_id": "6bd1e0405054f117df38a4bd47040919", "fusion_lon": 0.0, "fusion_lat": 0.0, "is_disabled": 0, "name": "6bd1e0405054f117df38a4bd47040919", "type": "electric_scooter", "lon": -77.03089883333334}, {"is_reserved": 0, "lat": 38.923944, "rental_uris": {"android": "https://dc.lft.to/lastmile_qr_scan", "ios": "https://dc.lft.to/lastmile_qr_scan"}, "bike_id": "c9ddc8a3414829b7d9c82a1f5878ed55", "fusion_lon": 0.0, "fusion_lat": 0.0, "is_disabled": 0, "name": "c9ddc8a3414829b7d9c82a1f5878ed55", "type": "electric_scooter", "lon": -77.03523666666666}, {"is_reserved": 0, "lat": 38.927981, "rental_uris": {"android": "https://dc.lft.to/lastmile_qr_scan", "ios": "https://dc.lft.to/lastmile_qr_scan"}, "bike_id": "da64cc179a0a658a23413fccb8a7ae92", "fusion_lon": 0.0, "fusion_lat": 0.0, "is_disabled": 0, "name": "da64cc179a0a658a23413fccb8a7ae92", "type": "electric_scooter", "lon": -77.0435585}, {"is_reserved": 0, "lat": 38.9066065, "rental_uris": {"android": "https://dc.lft.to/lastmile_qr_scan", "ios": "https://dc.lft.to/lastmile_qr_scan"}, "bike_id": "b333486ce31acaada24d733cd6acf12f", "fusion_lon": 0.0, "fusion_lat": 0.0, "is_disabled": 0, "name": "b333486ce31acaada24d733cd6acf12f", "type": "electric_scooter", "lon": -77.07422666666666}, {"is_reserved": 0, "lat": 38.909926166666665, "rental_uris": {"android": "https://dc.lft.to/lastmile_qr_scan", "ios": "https://dc.lft.to/lastmile_qr_scan"}, "bike_id": "b526e9e04b3b9e457f54b0ecae40743f", "fusion_lon": 0.0, "fusion_lat": 0.0, "is_disabled": 0, "name": "b526e9e04b3b9e457f54b0ecae40743f", "type": "electric_scooter", "lon": -77.03466766666666}, {"is_reserved": 0, "lat": 38.9184545, "rental_uris": {"android": "https://dc.lft.to/lastmile_qr_scan", "ios": "https://dc.lft.to/lastmile_qr_scan"}, "bike_id": "b0666b11907a8697c9d3b7d962958020", "fusion_lon": 0.0, "fusion_lat": 0.0, "is_disabled": 0, "name": "b0666b11907a8697c9d3b7d962958020", "type": "electric_scooter", "lon": -77.04094416666666}, {"is_reserved": 0, "lat": 38.90016516666667, "rental_uris": {"android": "https://dc.lft.to/lastmile_qr_scan", "ios": "https://dc.lft.to/lastmile_qr_scan"}, "bike_id": "7126372046bff0877343be8e5abdf47f", "fusion_lon": 0.0, "fusion_lat": 0.0, "is_disabled": 0, "name": "7126372046bff0877343be8e5abdf47f", "type": "electric_scooter", "lon": -77.04653633333334}, {"is_reserved": 0, "lat": 38.89828516666667, "rental_uris": {"android": "https://dc.lft.to/lastmile_qr_scan", "ios": "https://dc.lft.to/lastmile_qr_scan"}, "bike_id": "26b9311357a12cc5fe32f41568e7ccab", "fusion_lon": 0.0, "fusion_lat": 0.0, "is_disabled": 0, "name": "26b9311357a12cc5fe32f41568e7ccab", "type": "electric_scooter", "lon": -76.98774966666667}, {"is_reserved": 0, "lat": 38.93188033333333, "rental_uris": {"android": "https://dc.lft.to/lastmile_qr_scan", "ios": "https://dc.lft.to/lastmile_qr_scan"}, "bike_id": "8260ea615856618ba09132b1217f2555", "fusion_lon": 0.0, "fusion_lat": 0.0, "is_disabled": 0, "name": "8260ea615856618ba09132b1217f2555", "type": "electric_scooter", "lon": -77.028254}, {"is_reserved": 0, "lat": 38.917455833333335, "rental_uris": {"android": "https://dc.lft.to/lastmile_qr_scan", "ios": "https://dc.lft.to/lastmile_qr_scan"}, "bike_id": "4ddb18744e8ce5116f80dd005341d310", "fusion_lon": 0.0, "fusion_lat": 0.0, "is_disabled": 0, "name": "4ddb18744e8ce5116f80dd005341d310", "type": "electric_scooter", "lon": -77.023954}, {"is_reserved": 0, "lat": 38.9036615, "rental_uris": {"android": "https://dc.lft.to/lastmile_qr_scan", "ios": "https://dc.lft.to/lastmile_qr_scan"}, "bike_id": "cd4c0acfb4aeee1343b86aee23cb07e9", "fusion_lon": 0.0, "fusion_lat": 0.0, "is_disabled": 0, "name": "cd4c0acfb4aeee1343b86aee23cb07e9", "type": "electric_scooter", "lon": -77.04524566666667}, {"is_reserved": 0, "lat": 38.9073325, "rental_uris": {"android": "https://dc.lft.to/lastmile_qr_scan", "ios": "https://dc.lft.to/lastmile_qr_scan"}, "bike_id": "d3597cf025dd85953ebcc98e90929209", "fusion_lon": 0.0, "fusion_lat": 0.0, "is_disabled": 0, "name": "d3597cf025dd85953ebcc98e90929209", "type": "electric_scooter", "lon": -77.0347985}, {"is_reserved": 0, "lat": 38.923155, "rental_uris": {"android": "https://dc.lft.to/lastmile_qr_scan", "ios": "https://dc.lft.to/lastmile_qr_scan"}, "bike_id": "543cd64d81e17daec7552045d67074b7", "fusion_lon": 0.0, "fusion_lat": 0.0, "is_disabled": 0, "name": "543cd64d81e17daec7552045d67074b7", "type": "electric_scooter", "lon": -77.0383595}, {"is_reserved": 0, "lat": 38.903821, "rental_uris": {"android": "https://dc.lft.to/lastmile_qr_scan", "ios": "https://dc.lft.to/lastmile_qr_scan"}, "bike_id": "2370a4d56d4a39b5a74a0c669486e306", "fusion_lon": 0.0, "fusion_lat": 0.0, "is_disabled": 0, "name": "2370a4d56d4a39b5a74a0c669486e306", "type": "electric_scooter", "lon": -77.04289666666666}, {"is_reserved": 0, "lat": 38.8933035, "rental_uris": {"android": "https://dc.lft.to/lastmile_qr_scan", "ios": "https://dc.lft.to/lastmile_qr_scan"}, "bike_id": "b90aea60e4fc673991d4603be260b0de", "fusion_lon": 0.0, "fusion_lat": 0.0, "is_disabled": 0, "name": "b90aea60e4fc673991d4603be260b0de", "type": "electric_scooter", "lon": -77.012063}, {"is_reserved": 0, "lat": 38.93360533333333, "rental_uris": {"android": "https://dc.lft.to/lastmile_qr_scan", "ios": "https://dc.lft.to/lastmile_qr_scan"}, "bike_id": "0314c3e22bd10e1fdc4c992d13e84d69", "fusion_lon": 0.0, "fusion_lat": 0.0, "is_disabled": 0, "name": "0314c3e22bd10e1fdc4c992d13e84d69", "type": "electric_bike", "lon": -77.099619}, {"is_reserved": 0, "lat": 38.903616166666666, "rental_uris": {"android": "https://dc.lft.to/lastmile_qr_scan", "ios": "https://dc.lft.to/lastmile_qr_scan"}, "bike_id": "77ba3ec8610966ad246e0017c174fc3e", "fusion_lon": 0.0, "fusion_lat": 0.0, "is_disabled": 0, "name": "77ba3ec8610966ad246e0017c174fc3e", "type": "electric_scooter", "lon": -77.04478966666667}, {"is_reserved": 0, "lat": 38.92650366666667, "rental_uris": {"android": "https://dc.lft.to/lastmile_qr_scan", "ios": "https://dc.lft.to/lastmile_qr_scan"}, "bike_id": "dd1e58e064a04d3304d16dcc11fcba54", "fusion_lon": 0.0, "fusion_lat": 0.0, "is_disabled": 0, "name": "dd1e58e064a04d3304d16dcc11fcba54", "type": "electric_scooter", "lon": -77.04133833333333}, {"is_reserved": 0, "lat": 38.92205966666667, "rental_uris": {"android": "https://dc.lft.to/lastmile_qr_scan", "ios": "https://dc.lft.to/lastmile_qr_scan"}, "bike_id": "5f65916b573deed2cc196e99521ac59c", "fusion_lon": 0.0, "fusion_lat": 0.0, "is_disabled": 0, "name": "5f65916b573deed2cc196e99521ac59c", "type": "electric_scooter", "lon": -77.04236383333334}, {"is_reserved": 0, "lat": 38.923649833333336, "rental_uris": {"android": "https://dc.lft.to/lastmile_qr_scan", "ios": "https://dc.lft.to/lastmile_qr_scan"}, "bike_id": "cb199528fd29b08a0fe1fb0f611f5d3f", "fusion_lon": 0.0, "fusion_lat": 0.0, "is_disabled": 0, "name": "cb199528fd29b08a0fe1fb0f611f5d3f", "type": "electric_scooter", "lon": -77.05130566666666}, {"is_reserved": 0, "lat": 38.871096, "rental_uris": {"android": "https://dc.lft.to/lastmile_qr_scan", "ios": "https://dc.lft.to/lastmile_qr_scan"}, "bike_id": "aade593cdb82b542abc72f442d15c3df", "fusion_lon": 0.0, "fusion_lat": 0.0, "is_disabled": 0, "name": "aade593cdb82b542abc72f442d15c3df", "type": "electric_bike", "lon": -76.92328683333334}, {"is_reserved": 0, "lat": 38.91926566666667, "rental_uris": {"android": "https://dc.lft.to/lastmile_qr_scan", "ios": "https://dc.lft.to/lastmile_qr_scan"}, "bike_id": "8564c12aec547649e5c18d8e0333671a", "fusion_lon": 0.0, "fusion_lat": 0.0, "is_disabled": 0, "name": "8564c12aec547649e5c18d8e0333671a", "type": "electric_scooter", "lon": -77.03185566666667}, {"is_reserved": 0, "lat": 38.91837866666667, "rental_uris": {"android": "https://dc.lft.to/lastmile_qr_scan", "ios": "https://dc.lft.to/lastmile_qr_scan"}, "bike_id": "a6f800c433889f901e86bd7feb6b16ba", "fusion_lon": 0.0, "fusion_lat": 0.0, "is_disabled": 0, "name": "a6f800c433889f901e86bd7feb6b16ba", "type": "electric_scooter", "lon": -77.034408}, {"is_reserved": 0, "lat": 38.870909, "rental_uris": {"android": "https://dc.lft.to/lastmile_qr_scan", "ios": "https://dc.lft.to/lastmile_qr_scan"}, "bike_id": "0aae772fbbe724e88a9a286de05ccd36", "fusion_lon": 0.0, "fusion_lat": 0.0, "is_disabled": 0, "name": "0aae772fbbe724e88a9a286de05ccd36", "type": "electric_scooter", "lon": -77.01225166666667}, {"is_reserved": 0, "lat": 38.95530483333334, "rental_uris": {"android": "https://dc.lft.to/lastmile_qr_scan", "ios": "https://dc.lft.to/lastmile_qr_scan"}, "bike_id": "462c8d1478afa0ab56764574de23067b", "fusion_lon": 0.0, "fusion_lat": 0.0, "is_disabled": 0, "name": "462c8d1478afa0ab56764574de23067b", "type": "electric_bike", "lon": -76.96798316666667}, {"is_reserved": 0, "lat": 38.90229583333333, "rental_uris": {"android": "https://dc.lft.to/lastmile_qr_scan", "ios": "https://dc.lft.to/lastmile_qr_scan"}, "bike_id": "c8e380a7da3e977357b819eaa9bb0b8c", "fusion_lon": 0.0, "fusion_lat": 0.0, "is_disabled": 0, "name": "c8e380a7da3e977357b819eaa9bb0b8c", "type": "electric_scooter", "lon": -77.04358166666667}, {"is_reserved": 0, "lat": 38.802283, "rental_uris": {"android": "https://dc.lft.to/lastmile_qr_scan", "ios": "https://dc.lft.to/lastmile_qr_scan"}, "bike_id": "f3e3267112a56d70073a53e79dd34573", "fusion_lon": 0.0, "fusion_lat": 0.0, "is_disabled": 0, "name": "f3e3267112a56d70073a53e79dd34573", "type": "electric_bike", "lon": -77.0791435}, {"is_reserved": 0, "lat": 38.93060233333333, "rental_uris": {"android": "https://dc.lft.to/lastmile_qr_scan", "ios": "https://dc.lft.to/lastmile_qr_scan"}, "bike_id": "eaff6efaf464da630f2b92622f48c1fb", "fusion_lon": 0.0, "fusion_lat": 0.0, "is_disabled": 0, "name": "eaff6efaf464da630f2b92622f48c1fb", "type": "electric_scooter", "lon": -77.02320483333334}, {"is_reserved": 0, "lat": 38.863679166666664, "rental_uris": {"android": "https://dc.lft.to/lastmile_qr_scan", "ios": "https://dc.lft.to/lastmile_qr_scan"}, "bike_id": "61f6eaa5abd4dbc296ddbcd287193ae6", "fusion_lon": 0.0, "fusion_lat": 0.0, "is_disabled": 0, "name": "61f6eaa5abd4dbc296ddbcd287193ae6", "type": "electric_scooter", "lon": -76.99028916666667}, {"is_reserved": 0, "lat": 38.92240133333333, "rental_uris": {"android": "https://dc.lft.to/lastmile_qr_scan", "ios": "https://dc.lft.to/lastmile_qr_scan"}, "bike_id": "771e9f1f0eac846ad153d2ce65b66d24", "fusion_lon": 0.0, "fusion_lat": 0.0, "is_disabled": 0, "name": "771e9f1f0eac846ad153d2ce65b66d24", "type": "electric_scooter", "lon": -77.0435045}, {"is_reserved": 0, "lat": 38.9244335, "rental_uris": {"android": "https://dc.lft.to/lastmile_qr_scan", "ios": "https://dc.lft.to/lastmile_qr_scan"}, "bike_id": "593ff4477c87e615d6cae984a90b6701", "fusion_lon": 0.0, "fusion_lat": 0.0, "is_disabled": 0, "name": "593ff4477c87e615d6cae984a90b6701", "type": "electric_scooter", "lon": -77.04025283333333}, {"is_reserved": 0, "lat": 38.8848465, "rental_uris": {"android": "https://dc.lft.to/lastmile_qr_scan", "ios": "https://dc.lft.to/lastmile_qr_scan"}, "bike_id": "85778dafe7cc89e8e6ec921daa399136", "fusion_lon": 0.0, "fusion_lat": 0.0, "is_disabled": 0, "name": "85778dafe7cc89e8e6ec921daa399136", "type": "electric_scooter", "lon": -77.03472116666667}, {"is_reserved": 0, "lat": 38.91951983333333, "rental_uris": {"android": "https://dc.lft.to/lastmile_qr_scan", "ios": "https://dc.lft.to/lastmile_qr_scan"}, "bike_id": "a930e9d031ebd39d51912e448df55afc", "fusion_lon": 0.0, "fusion_lat": 0.0, "is_disabled": 0, "name": "a930e9d031ebd39d51912e448df55afc", "type": "electric_scooter", "lon": -76.96979266666666}, {"is_reserved": 0, "lat": 38.9127045, "rental_uris": {"android": "https://dc.lft.to/lastmile_qr_scan", "ios": "https://dc.lft.to/lastmile_qr_scan"}, "bike_id": "76fb202716a9c2a57c2e4778eb8e7c0c", "fusion_lon": 0.0, "fusion_lat": 0.0, "is_disabled": 0, "name": "76fb202716a9c2a57c2e4778eb8e7c0c", "type": "electric_scooter", "lon": -77.0332305}, {"is_reserved": 0, "lat": 38.926732333333334, "rental_uris": {"android": "https://dc.lft.to/lastmile_qr_scan", "ios": "https://dc.lft.to/lastmile_qr_scan"}, "bike_id": "2a9063fbe35bcf89a216be2c74891704", "fusion_lon": 0.0, "fusion_lat": 0.0, "is_disabled": 0, "name": "2a9063fbe35bcf89a216be2c74891704", "type": "electric_scooter", "lon": -77.0147005}, {"is_reserved": 0, "lat": 38.90965033333333, "rental_uris": {"android": "https://dc.lft.to/lastmile_qr_scan", "ios": "https://dc.lft.to/lastmile_qr_scan"}, "bike_id": "113d1c74204cf49db3a9db5bd00fa589", "fusion_lon": 0.0, "fusion_lat": 0.0, "is_disabled": 0, "name": "113d1c74204cf49db3a9db5bd00fa589", "type": "electric_scooter", "lon": -77.0337295}, {"is_reserved": 0, "lat": 38.9144155, "rental_uris": {"android": "https://dc.lft.to/lastmile_qr_scan", "ios": "https://dc.lft.to/lastmile_qr_scan"}, "bike_id": "7d99e058e151b2003fff82d64cf7b08f", "fusion_lon": 0.0, "fusion_lat": 0.0, "is_disabled": 0, "name": "7d99e058e151b2003fff82d64cf7b08f", "type": "electric_scooter", "lon": -77.02282366666667}, {"is_reserved": 0, "lat": 38.89619183333333, "rental_uris": {"android": "https://dc.lft.to/lastmile_qr_scan", "ios": "https://dc.lft.to/lastmile_qr_scan"}, "bike_id": "ba84fb088d16b0d685a19be56264d7eb", "fusion_lon": 0.0, "fusion_lat": 0.0, "is_disabled": 0, "name": "ba84fb088d16b0d685a19be56264d7eb", "type": "electric_scooter", "lon": -77.031675}, {"is_reserved": 0, "lat": 38.9094775, "rental_uris": {"android": "https://dc.lft.to/lastmile_qr_scan", "ios": "https://dc.lft.to/lastmile_qr_scan"}, "bike_id": "df4b6eefa7558cb719c815c60ebe3eb1", "fusion_lon": 0.0, "fusion_lat": 0.0, "is_disabled": 0, "name": "df4b6eefa7558cb719c815c60ebe3eb1", "type": "electric_scooter", "lon": -77.0549465}, {"is_reserved": 0, "lat": 38.89614, "rental_uris": {"android": "https://dc.lft.to/lastmile_qr_scan", "ios": "https://dc.lft.to/lastmile_qr_scan"}, "bike_id": "f6c1f9d98a40937b90202ee8c106b79e", "fusion_lon": 0.0, "fusion_lat": 0.0, "is_disabled": 0, "name": "f6c1f9d98a40937b90202ee8c106b79e", "type": "electric_scooter", "lon": -76.94862283333333}, {"is_reserved": 0, "lat": 38.9002255, "rental_uris": {"android": "https://dc.lft.to/lastmile_qr_scan", "ios": "https://dc.lft.to/lastmile_qr_scan"}, "bike_id": "ea2eb83ff0c502984959a45579b9b848", "fusion_lon": 0.0, "fusion_lat": 0.0, "is_disabled": 0, "name": "ea2eb83ff0c502984959a45579b9b848", "type": "electric_scooter", "lon": -77.02198166666666}, {"is_reserved": 0, "lat": 38.87377, "rental_uris": {"android": "https://dc.lft.to/lastmile_qr_scan", "ios": "https://dc.lft.to/lastmile_qr_scan"}, "bike_id": "43761adcd810ded3a50f42c84ef76eae", "fusion_lon": 0.0, "fusion_lat": 0.0, "is_disabled": 0, "name": "43761adcd810ded3a50f42c84ef76eae", "type": "electric_bike", "lon": -77.11794333333333}, {"is_reserved": 0, "lat": 38.90675516666667, "rental_uris": {"android": "https://dc.lft.to/lastmile_qr_scan", "ios": "https://dc.lft.to/lastmile_qr_scan"}, "bike_id": "eed99bfa54d0fa3f5cbfebb1ff324db0", "fusion_lon": 0.0, "fusion_lat": 0.0, "is_disabled": 0, "name": "eed99bfa54d0fa3f5cbfebb1ff324db0", "type": "electric_scooter", "lon": -77.03744683333333}, {"is_reserved": 0, "lat": 38.916242833333335, "rental_uris": {"android": "https://dc.lft.to/lastmile_qr_scan", "ios": "https://dc.lft.to/lastmile_qr_scan"}, "bike_id": "a55f9c3f7685deebce5829542b4976cb", "fusion_lon": 0.0, "fusion_lat": 0.0, "is_disabled": 0, "name": "a55f9c3f7685deebce5829542b4976cb", "type": "electric_scooter", "lon": -77.045092}, {"is_reserved": 0, "lat": 38.900213666666666, "rental_uris": {"android": "https://dc.lft.to/lastmile_qr_scan", "ios": "https://dc.lft.to/lastmile_qr_scan"}, "bike_id": "3eee75f9531f05313d8cca7241966f94", "fusion_lon": 0.0, "fusion_lat": 0.0, "is_disabled": 0, "name": "3eee75f9531f05313d8cca7241966f94", "type": "electric_scooter", "lon": -76.99832033333334}, {"is_reserved": 0, "lat": 38.876266333333334, "rental_uris": {"android": "https://dc.lft.to/lastmile_qr_scan", "ios": "https://dc.lft.to/lastmile_qr_scan"}, "bike_id": "0960df5aae88cbbd8c0997eeddf45460", "fusion_lon": 0.0, "fusion_lat": 0.0, "is_disabled": 0, "name": "0960df5aae88cbbd8c0997eeddf45460", "type": "electric_scooter", "lon": -76.9652695}, {"is_reserved": 0, "lat": 38.87628083333333, "rental_uris": {"android": "https://dc.lft.to/lastmile_qr_scan", "ios": "https://dc.lft.to/lastmile_qr_scan"}, "bike_id": "b2c7052118a175b832485b1aad8b809d", "fusion_lon": 0.0, "fusion_lat": 0.0, "is_disabled": 0, "name": "b2c7052118a175b832485b1aad8b809d", "type": "electric_scooter", "lon": -76.965259}, {"is_reserved": 0, "lat": 38.96928916666667, "rental_uris": {"android": "https://dc.lft.to/lastmile_qr_scan", "ios": "https://dc.lft.to/lastmile_qr_scan"}, "bike_id": "12abdace8da692238b1d9284d97405cb", "fusion_lon": 0.0, "fusion_lat": 0.0, "is_disabled": 0, "name": "12abdace8da692238b1d9284d97405cb", "type": "electric_bike", "lon": -77.02616233333333}, {"is_reserved": 0, "lat": 38.90530366666667, "rental_uris": {"android": "https://dc.lft.to/lastmile_qr_scan", "ios": "https://dc.lft.to/lastmile_qr_scan"}, "bike_id": "4245c4c4d8597bc5ec8cee8aca487c5b", "fusion_lon": 0.0, "fusion_lat": 0.0, "is_disabled": 0, "name": "4245c4c4d8597bc5ec8cee8aca487c5b", "type": "electric_scooter", "lon": -77.041584}, {"is_reserved": 0, "lat": 38.917998833333336, "rental_uris": {"android": "https://dc.lft.to/lastmile_qr_scan", "ios": "https://dc.lft.to/lastmile_qr_scan"}, "bike_id": "18654d2dfc348d065366e43f75a396ad", "fusion_lon": 0.0, "fusion_lat": 0.0, "is_disabled": 0, "name": "18654d2dfc348d065366e43f75a396ad", "type": "electric_scooter", "lon": -77.0343715}, {"is_reserved": 0, "lat": 38.921534333333334, "rental_uris": {"android": "https://dc.lft.to/lastmile_qr_scan", "ios": "https://dc.lft.to/lastmile_qr_scan"}, "bike_id": "f3ab367e8831fedf73a8fb7971a08c05", "fusion_lon": 0.0, "fusion_lat": 0.0, "is_disabled": 0, "name": "f3ab367e8831fedf73a8fb7971a08c05", "type": "electric_scooter", "lon": -77.03516033333334}, {"is_reserved": 0, "lat": 38.859328833333336, "rental_uris": {"android": "https://dc.lft.to/lastmile_qr_scan", "ios": "https://dc.lft.to/lastmile_qr_scan"}, "bike_id": "66ec2aaa27e570505b6ef34009e3696b", "fusion_lon": 0.0, "fusion_lat": 0.0, "is_disabled": 0, "name": "66ec2aaa27e570505b6ef34009e3696b", "type": "electric_scooter", "lon": -76.99704483333333}, {"is_reserved": 0, "lat": 38.90238, "rental_uris": {"android": "https://dc.lft.to/lastmile_qr_scan", "ios": "https://dc.lft.to/lastmile_qr_scan"}, "bike_id": "789d80f69bd89d14fba1287c394e138d", "fusion_lon": 0.0, "fusion_lat": 0.0, "is_disabled": 0, "name": "789d80f69bd89d14fba1287c394e138d", "type": "electric_scooter", "lon": -77.01796983333334}, {"is_reserved": 0, "lat": 38.905795833333336, "rental_uris": {"android": "https://dc.lft.to/lastmile_qr_scan", "ios": "https://dc.lft.to/lastmile_qr_scan"}, "bike_id": "a45d6aaa85efecd345825fd83923ce1c", "fusion_lon": 0.0, "fusion_lat": 0.0, "is_disabled": 0, "name": "a45d6aaa85efecd345825fd83923ce1c", "type": "electric_scooter", "lon": -77.04318316666667}, {"is_reserved": 0, "lat": 38.8762825, "rental_uris": {"android": "https://dc.lft.to/lastmile_qr_scan", "ios": "https://dc.lft.to/lastmile_qr_scan"}, "bike_id": "da844b5a7818b49d363860f96d126eac", "fusion_lon": 0.0, "fusion_lat": 0.0, "is_disabled": 0, "name": "da844b5a7818b49d363860f96d126eac", "type": "electric_scooter", "lon": -76.9652565}, {"is_reserved": 0, "lat": 38.95783183333333, "rental_uris": {"android": "https://dc.lft.to/lastmile_qr_scan", "ios": "https://dc.lft.to/lastmile_qr_scan"}, "bike_id": "f848bfe99fcbe933f83dd0173bd6d8c4", "fusion_lon": 0.0, "fusion_lat": 0.0, "is_disabled": 0, "name": "f848bfe99fcbe933f83dd0173bd6d8c4", "type": "electric_scooter", "lon": -77.02751033333334}, {"is_reserved": 0, "lat": 38.915632333333335, "rental_uris": {"android": "https://dc.lft.to/lastmile_qr_scan", "ios": "https://dc.lft.to/lastmile_qr_scan"}, "bike_id": "551d4e64688cde4e9943520550ac74e4", "fusion_lon": 0.0, "fusion_lat": 0.0, "is_disabled": 0, "name": "551d4e64688cde4e9943520550ac74e4", "type": "electric_scooter", "lon": -77.031501}, {"is_reserved": 0, "lat": 38.924809, "rental_uris": {"android": "https://dc.lft.to/lastmile_qr_scan", "ios": "https://dc.lft.to/lastmile_qr_scan"}, "bike_id": "ae084118319fa863635bfc0a12f87a67", "fusion_lon": 0.0, "fusion_lat": 0.0, "is_disabled": 0, "name": "ae084118319fa863635bfc0a12f87a67", "type": "electric_scooter", "lon": -77.02214833333333}, {"is_reserved": 0, "lat": 38.922110333333336, "rental_uris": {"android": "https://dc.lft.to/lastmile_qr_scan", "ios": "https://dc.lft.to/lastmile_qr_scan"}, "bike_id": "524e97f3ceb8fff805a3cfc7489e358c", "fusion_lon": 0.0, "fusion_lat": 0.0, "is_disabled": 0, "name": "524e97f3ceb8fff805a3cfc7489e358c", "type": "electric_bike", "lon": -76.98795166666666}, {"is_reserved": 0, "lat": 38.862409, "rental_uris": {"android": "https://dc.lft.to/lastmile_qr_scan", "ios": "https://dc.lft.to/lastmile_qr_scan"}, "bike_id": "e1bd237cf8cb47c651ecb02b3d44b45c", "fusion_lon": 0.0, "fusion_lat": 0.0, "is_disabled": 0, "name": "e1bd237cf8cb47c651ecb02b3d44b45c", "type": "electric_bike", "lon": -77.0880735}, {"is_reserved": 0, "lat": 38.93204183333334, "rental_uris": {"android": "https://dc.lft.to/lastmile_qr_scan", "ios": "https://dc.lft.to/lastmile_qr_scan"}, "bike_id": "3cbe7f5e7a2683250ab9dddac7d976d7", "fusion_lon": 0.0, "fusion_lat": 0.0, "is_disabled": 0, "name": "3cbe7f5e7a2683250ab9dddac7d976d7", "type": "electric_scooter", "lon": -77.044197}, {"is_reserved": 0, "lat": 38.877919, "rental_uris": {"android": "https://dc.lft.to/lastmile_qr_scan", "ios": "https://dc.lft.to/lastmile_qr_scan"}, "bike_id": "96bc9ba6701492be5ed56aa92c63a9ac", "fusion_lon": 0.0, "fusion_lat": 0.0, "is_disabled": 0, "name": "96bc9ba6701492be5ed56aa92c63a9ac", "type": "electric_scooter", "lon": -76.994029}, {"is_reserved": 0, "lat": 38.933014666666665, "rental_uris": {"android": "https://dc.lft.to/lastmile_qr_scan", "ios": "https://dc.lft.to/lastmile_qr_scan"}, "bike_id": "f2680db51f54f5628ad334021a4d4e7a", "fusion_lon": 0.0, "fusion_lat": 0.0, "is_disabled": 0, "name": "f2680db51f54f5628ad334021a4d4e7a", "type": "electric_scooter", "lon": -77.03590933333334}, {"is_reserved": 0, "lat": 38.89378833333333, "rental_uris": {"android": "https://dc.lft.to/lastmile_qr_scan", "ios": "https://dc.lft.to/lastmile_qr_scan"}, "bike_id": "7cf1edf3373032ace5069c6afbafb86a", "fusion_lon": 0.0, "fusion_lat": 0.0, "is_disabled": 0, "name": "7cf1edf3373032ace5069c6afbafb86a", "type": "electric_scooter", "lon": -77.05020233333333}, {"is_reserved": 0, "lat": 39.0389905, "rental_uris": {"android": "https://dc.lft.to/lastmile_qr_scan", "ios": "https://dc.lft.to/lastmile_qr_scan"}, "bike_id": "5d65ad4ddea3cc92166b79544af2ef82", "fusion_lon": 0.0, "fusion_lat": 0.0, "is_disabled": 0, "name": "5d65ad4ddea3cc92166b79544af2ef82", "type": "electric_bike", "lon": -77.05021116666667}, {"is_reserved": 0, "lat": 38.90621866666667, "rental_uris": {"android": "https://dc.lft.to/lastmile_qr_scan", "ios": "https://dc.lft.to/lastmile_qr_scan"}, "bike_id": "a43618d9a9c62e151e099764c9d4f578", "fusion_lon": 0.0, "fusion_lat": 0.0, "is_disabled": 0, "name": "a43618d9a9c62e151e099764c9d4f578", "type": "electric_scooter", "lon": -77.04332916666667}, {"is_reserved": 0, "lat": 38.88135716666667, "rental_uris": {"android": "https://dc.lft.to/lastmile_qr_scan", "ios": "https://dc.lft.to/lastmile_qr_scan"}, "bike_id": "a49eaf161e05fba8c6cd0b1034e14d9d", "fusion_lon": 0.0, "fusion_lat": 0.0, "is_disabled": 0, "name": "a49eaf161e05fba8c6cd0b1034e14d9d", "type": "electric_scooter", "lon": -76.93298733333333}, {"is_reserved": 0, "lat": 38.8442625, "rental_uris": {"android": "https://dc.lft.to/lastmile_qr_scan", "ios": "https://dc.lft.to/lastmile_qr_scan"}, "bike_id": "5c47acb9a4ecf5fcd7a8a2d63caecf2a", "fusion_lon": 0.0, "fusion_lat": 0.0, "is_disabled": 0, "name": "5c47acb9a4ecf5fcd7a8a2d63caecf2a", "type": "electric_scooter", "lon": -76.99774566666666}, {"is_reserved": 0, "lat": 38.923399833333335, "rental_uris": {"android": "https://dc.lft.to/lastmile_qr_scan", "ios": "https://dc.lft.to/lastmile_qr_scan"}, "bike_id": "ec72412ca5a8a491a9b358dc5560a009", "fusion_lon": 0.0, "fusion_lat": 0.0, "is_disabled": 0, "name": "ec72412ca5a8a491a9b358dc5560a009", "type": "electric_scooter", "lon": -77.0502865}, {"is_reserved": 0, "lat": 38.933191666666666, "rental_uris": {"android": "https://dc.lft.to/lastmile_qr_scan", "ios": "https://dc.lft.to/lastmile_qr_scan"}, "bike_id": "f589252314f2ad2fc4bc0fcb1a9405a5", "fusion_lon": 0.0, "fusion_lat": 0.0, "is_disabled": 0, "name": "f589252314f2ad2fc4bc0fcb1a9405a5", "type": "electric_scooter", "lon": -77.04527333333333}, {"is_reserved": 0, "lat": 38.90253666666667, "rental_uris": {"android": "https://dc.lft.to/lastmile_qr_scan", "ios": "https://dc.lft.to/lastmile_qr_scan"}, "bike_id": "b16b31271c28db089dac7ca1d5935775", "fusion_lon": 0.0, "fusion_lat": 0.0, "is_disabled": 0, "name": "b16b31271c28db089dac7ca1d5935775", "type": "electric_scooter", "lon": -77.02836083333334}, {"is_reserved": 0, "lat": 38.972283833333336, "rental_uris": {"android": "https://dc.lft.to/lastmile_qr_scan", "ios": "https://dc.lft.to/lastmile_qr_scan"}, "bike_id": "b6da90f0ab9523e0ede6b780f35fa264", "fusion_lon": 0.0, "fusion_lat": 0.0, "is_disabled": 0, "name": "b6da90f0ab9523e0ede6b780f35fa264", "type": "electric_bike", "lon": -76.99344733333334}, {"is_reserved": 0, "lat": 38.922949833333334, "rental_uris": {"android": "https://dc.lft.to/lastmile_qr_scan", "ios": "https://dc.lft.to/lastmile_qr_scan"}, "bike_id": "74c2e5e2f6e45a7edb1f6972b4e68112", "fusion_lon": 0.0, "fusion_lat": 0.0, "is_disabled": 0, "name": "74c2e5e2f6e45a7edb1f6972b4e68112", "type": "electric_scooter", "lon": -77.04140133333334}, {"is_reserved": 0, "lat": 38.883658833333335, "rental_uris": {"android": "https://dc.lft.to/lastmile_qr_scan", "ios": "https://dc.lft.to/lastmile_qr_scan"}, "bike_id": "f7f6e90399d36ecf3f4ffdde044074ef", "fusion_lon": 0.0, "fusion_lat": 0.0, "is_disabled": 0, "name": "f7f6e90399d36ecf3f4ffdde044074ef", "type": "electric_scooter", "lon": -76.99509283333333}, {"is_reserved": 0, "lat": 38.9083775, "rental_uris": {"android": "https://dc.lft.to/lastmile_qr_scan", "ios": "https://dc.lft.to/lastmile_qr_scan"}, "bike_id": "69c23b12c9ff9894cf17464cabf83f53", "fusion_lon": 0.0, "fusion_lat": 0.0, "is_disabled": 0, "name": "69c23b12c9ff9894cf17464cabf83f53", "type": "electric_scooter", "lon": -76.99692916666666}, {"is_reserved": 0, "lat": 38.9179855, "rental_uris": {"android": "https://dc.lft.to/lastmile_qr_scan", "ios": "https://dc.lft.to/lastmile_qr_scan"}, "bike_id": "62557f8596bfcca6d28492141f30b120", "fusion_lon": 0.0, "fusion_lat": 0.0, "is_disabled": 0, "name": "62557f8596bfcca6d28492141f30b120", "type": "electric_scooter", "lon": -77.034345}, {"is_reserved": 0, "lat": 38.906535, "rental_uris": {"android": "https://dc.lft.to/lastmile_qr_scan", "ios": "https://dc.lft.to/lastmile_qr_scan"}, "bike_id": "857eb2005e4cb82f991478c27afb3294", "fusion_lon": 0.0, "fusion_lat": 0.0, "is_disabled": 0, "name": "857eb2005e4cb82f991478c27afb3294", "type": "electric_scooter", "lon": -77.02949166666667}, {"is_reserved": 0, "lat": 38.886498833333334, "rental_uris": {"android": "https://dc.lft.to/lastmile_qr_scan", "ios": "https://dc.lft.to/lastmile_qr_scan"}, "bike_id": "9196a8d63d7a9ac3e0f7ce073d578906", "fusion_lon": 0.0, "fusion_lat": 0.0, "is_disabled": 0, "name": "9196a8d63d7a9ac3e0f7ce073d578906", "type": "electric_scooter", "lon": -77.02150316666666}, {"is_reserved": 0, "lat": 38.934165, "rental_uris": {"android": "https://dc.lft.to/lastmile_qr_scan", "ios": "https://dc.lft.to/lastmile_qr_scan"}, "bike_id": "d506b16b513095c53bf601df155a4bba", "fusion_lon": 0.0, "fusion_lat": 0.0, "is_disabled": 0, "name": "d506b16b513095c53bf601df155a4bba", "type": "electric_scooter", "lon": -77.04158483333333}, {"is_reserved": 0, "lat": 38.90806283333333, "rental_uris": {"android": "https://dc.lft.to/lastmile_qr_scan", "ios": "https://dc.lft.to/lastmile_qr_scan"}, "bike_id": "a2165f502fd54e5343cea0ea87507622", "fusion_lon": 0.0, "fusion_lat": 0.0, "is_disabled": 0, "name": "a2165f502fd54e5343cea0ea87507622", "type": "electric_scooter", "lon": -77.04327}, {"is_reserved": 0, "lat": 38.854855666666666, "rental_uris": {"android": "https://dc.lft.to/lastmile_qr_scan", "ios": "https://dc.lft.to/lastmile_qr_scan"}, "bike_id": "8e11d3d955c7105f725f867191cd4d2e", "fusion_lon": 0.0, "fusion_lat": 0.0, "is_disabled": 0, "name": "8e11d3d955c7105f725f867191cd4d2e", "type": "electric_bike", "lon": -77.12027033333334}, {"is_reserved": 0, "lat": 38.91126083333333, "rental_uris": {"android": "https://dc.lft.to/lastmile_qr_scan", "ios": "https://dc.lft.to/lastmile_qr_scan"}, "bike_id": "ad8dd858ba88464ab954010ffd2da836", "fusion_lon": 0.0, "fusion_lat": 0.0, "is_disabled": 0, "name": "ad8dd858ba88464ab954010ffd2da836", "type": "electric_scooter", "lon": -77.0269115}, {"is_reserved": 0, "lat": 38.905120333333336, "rental_uris": {"android": "https://dc.lft.to/lastmile_qr_scan", "ios": "https://dc.lft.to/lastmile_qr_scan"}, "bike_id": "03f9261916c8eb5f0ae81ee91881636d", "fusion_lon": 0.0, "fusion_lat": 0.0, "is_disabled": 0, "name": "03f9261916c8eb5f0ae81ee91881636d", "type": "electric_scooter", "lon": -77.05111733333334}, {"is_reserved": 0, "lat": 38.8770825, "rental_uris": {"android": "https://dc.lft.to/lastmile_qr_scan", "ios": "https://dc.lft.to/lastmile_qr_scan"}, "bike_id": "54e200fba863118e573ffe41d30bbca9", "fusion_lon": 0.0, "fusion_lat": 0.0, "is_disabled": 0, "name": "54e200fba863118e573ffe41d30bbca9", "type": "electric_scooter", "lon": -77.0165915}, {"is_reserved": 0, "lat": 38.92064366666666, "rental_uris": {"android": "https://dc.lft.to/lastmile_qr_scan", "ios": "https://dc.lft.to/lastmile_qr_scan"}, "bike_id": "4a572d7830c667ddf8d7aba89d82b2d6", "fusion_lon": 0.0, "fusion_lat": 0.0, "is_disabled": 0, "name": "4a572d7830c667ddf8d7aba89d82b2d6", "type": "electric_scooter", "lon": -77.04201483333334}, {"is_reserved": 0, "lat": 38.9419175, "rental_uris": {"android": "https://dc.lft.to/lastmile_qr_scan", "ios": "https://dc.lft.to/lastmile_qr_scan"}, "bike_id": "da33410f8a2ee4e81c39805c5a9eb001", "fusion_lon": 0.0, "fusion_lat": 0.0, "is_disabled": 0, "name": "da33410f8a2ee4e81c39805c5a9eb001", "type": "electric_scooter", "lon": -77.04013233333333}, {"is_reserved": 0, "lat": 38.89807733333333, "rental_uris": {"android": "https://dc.lft.to/lastmile_qr_scan", "ios": "https://dc.lft.to/lastmile_qr_scan"}, "bike_id": "de4ddc97ea88dddef58f0276ef156c92", "fusion_lon": 0.0, "fusion_lat": 0.0, "is_disabled": 0, "name": "de4ddc97ea88dddef58f0276ef156c92", "type": "electric_scooter", "lon": -77.0109885}, {"is_reserved": 0, "lat": 38.80056716666667, "rental_uris": {"android": "https://dc.lft.to/lastmile_qr_scan", "ios": "https://dc.lft.to/lastmile_qr_scan"}, "bike_id": "37e893c07f23336c17ba6a11d3a4ef24", "fusion_lon": 0.0, "fusion_lat": 0.0, "is_disabled": 0, "name": "37e893c07f23336c17ba6a11d3a4ef24", "type": "electric_bike", "lon": -77.071117}, {"is_reserved": 0, "lat": 38.929708, "rental_uris": {"android": "https://dc.lft.to/lastmile_qr_scan", "ios": "https://dc.lft.to/lastmile_qr_scan"}, "bike_id": "6256542b2c8ad64aaa03c52293d81188", "fusion_lon": 0.0, "fusion_lat": 0.0, "is_disabled": 0, "name": "6256542b2c8ad64aaa03c52293d81188", "type": "electric_bike", "lon": -77.2256205}, {"is_reserved": 0, "lat": 38.91395833333333, "rental_uris": {"android": "https://dc.lft.to/lastmile_qr_scan", "ios": "https://dc.lft.to/lastmile_qr_scan"}, "bike_id": "43bfdbbf4df29b74a5f6a111ae6ffc45", "fusion_lon": 0.0, "fusion_lat": 0.0, "is_disabled": 0, "name": "43bfdbbf4df29b74a5f6a111ae6ffc45", "type": "electric_scooter", "lon": -77.01993683333333}, {"is_reserved": 0, "lat": 38.9039355, "rental_uris": {"android": "https://dc.lft.to/lastmile_qr_scan", "ios": "https://dc.lft.to/lastmile_qr_scan"}, "bike_id": "3f3fdbf76970d6b82336b0da147634c5", "fusion_lon": 0.0, "fusion_lat": 0.0, "is_disabled": 0, "name": "3f3fdbf76970d6b82336b0da147634c5", "type": "electric_scooter", "lon": -76.98939733333333}, {"is_reserved": 0, "lat": 38.90844766666667, "rental_uris": {"android": "https://dc.lft.to/lastmile_qr_scan", "ios": "https://dc.lft.to/lastmile_qr_scan"}, "bike_id": "c952b4cc2afea53fce1bf569856543b5", "fusion_lon": 0.0, "fusion_lat": 0.0, "is_disabled": 0, "name": "c952b4cc2afea53fce1bf569856543b5", "type": "electric_scooter", "lon": -77.02055733333333}, {"is_reserved": 0, "lat": 38.92109333333333, "rental_uris": {"android": "https://dc.lft.to/lastmile_qr_scan", "ios": "https://dc.lft.to/lastmile_qr_scan"}, "bike_id": "9affd4d8c3c96e96639923caa77d022d", "fusion_lon": 0.0, "fusion_lat": 0.0, "is_disabled": 0, "name": "9affd4d8c3c96e96639923caa77d022d", "type": "electric_bike", "lon": -77.0632915}, {"is_reserved": 0, "lat": 38.86646533333333, "rental_uris": {"android": "https://dc.lft.to/lastmile_qr_scan", "ios": "https://dc.lft.to/lastmile_qr_scan"}, "bike_id": "f487d4fa5575b86a78b31a8fcc52d2e3", "fusion_lon": 0.0, "fusion_lat": 0.0, "is_disabled": 0, "name": "f487d4fa5575b86a78b31a8fcc52d2e3", "type": "electric_scooter", "lon": -76.988817}, {"is_reserved": 0, "lat": 38.92064366666666, "rental_uris": {"android": "https://dc.lft.to/lastmile_qr_scan", "ios": "https://dc.lft.to/lastmile_qr_scan"}, "bike_id": "314347f04ee44bc46d069d41eed89b93", "fusion_lon": 0.0, "fusion_lat": 0.0, "is_disabled": 0, "name": "314347f04ee44bc46d069d41eed89b93", "type": "electric_scooter", "lon": -77.04200533333334}, {"is_reserved": 0, "lat": 38.885002166666666, "rental_uris": {"android": "https://dc.lft.to/lastmile_qr_scan", "ios": "https://dc.lft.to/lastmile_qr_scan"}, "bike_id": "4b6f226270e9e9c1bccbf69aae85ec9f", "fusion_lon": 0.0, "fusion_lat": 0.0, "is_disabled": 0, "name": "4b6f226270e9e9c1bccbf69aae85ec9f", "type": "electric_scooter", "lon": -77.00705733333334}, {"is_reserved": 0, "lat": 38.9095985, "rental_uris": {"android": "https://dc.lft.to/lastmile_qr_scan", "ios": "https://dc.lft.to/lastmile_qr_scan"}, "bike_id": "607a09926fecf669aac469cfcc338862", "fusion_lon": 0.0, "fusion_lat": 0.0, "is_disabled": 0, "name": "607a09926fecf669aac469cfcc338862", "type": "electric_scooter", "lon": -77.023765}, {"is_reserved": 0, "lat": 38.91065, "rental_uris": {"android": "https://dc.lft.to/lastmile_qr_scan", "ios": "https://dc.lft.to/lastmile_qr_scan"}, "bike_id": "0548ac14f80a1145381b734ee27d8555", "fusion_lon": 0.0, "fusion_lat": 0.0, "is_disabled": 0, "name": "0548ac14f80a1145381b734ee27d8555", "type": "electric_scooter", "lon": -77.03082966666666}, {"is_reserved": 0, "lat": 38.881956, "rental_uris": {"android": "https://dc.lft.to/lastmile_qr_scan", "ios": "https://dc.lft.to/lastmile_qr_scan"}, "bike_id": "5498d60cc061fcf246ffaace3b12aa3e", "fusion_lon": 0.0, "fusion_lat": 0.0, "is_disabled": 0, "name": "5498d60cc061fcf246ffaace3b12aa3e", "type": "electric_scooter", "lon": -76.9949955}, {"is_reserved": 0, "lat": 38.91544783333333, "rental_uris": {"android": "https://dc.lft.to/lastmile_qr_scan", "ios": "https://dc.lft.to/lastmile_qr_scan"}, "bike_id": "7aec8dd0055a640ee3bab1d84c9f0c99", "fusion_lon": 0.0, "fusion_lat": 0.0, "is_disabled": 0, "name": "7aec8dd0055a640ee3bab1d84c9f0c99", "type": "electric_scooter", "lon": -77.038452}, {"is_reserved": 0, "lat": 38.9156525, "rental_uris": {"android": "https://dc.lft.to/lastmile_qr_scan", "ios": "https://dc.lft.to/lastmile_qr_scan"}, "bike_id": "50cc2e101df1c07da387c1089968e0a7", "fusion_lon": 0.0, "fusion_lat": 0.0, "is_disabled": 0, "name": "50cc2e101df1c07da387c1089968e0a7", "type": "electric_scooter", "lon": -77.03149483333333}, {"is_reserved": 0, "lat": 38.920399833333335, "rental_uris": {"android": "https://dc.lft.to/lastmile_qr_scan", "ios": "https://dc.lft.to/lastmile_qr_scan"}, "bike_id": "5d9e31219092cc7fbbf0d42e192a753a", "fusion_lon": 0.0, "fusion_lat": 0.0, "is_disabled": 0, "name": "5d9e31219092cc7fbbf0d42e192a753a", "type": "electric_scooter", "lon": -77.04180816666667}, {"is_reserved": 0, "lat": 38.935326, "rental_uris": {"android": "https://dc.lft.to/lastmile_qr_scan", "ios": "https://dc.lft.to/lastmile_qr_scan"}, "bike_id": "20014508e1d273e5da6774f000dbda49", "fusion_lon": 0.0, "fusion_lat": 0.0, "is_disabled": 0, "name": "20014508e1d273e5da6774f000dbda49", "type": "electric_scooter", "lon": -77.0728555}, {"is_reserved": 0, "lat": 38.893427, "rental_uris": {"android": "https://dc.lft.to/lastmile_qr_scan", "ios": "https://dc.lft.to/lastmile_qr_scan"},