{"data": {"bikes": [{"lon": -77.03259916666667, "name": "3979005e4343b2f07a089d6411349dcc", "is_disabled": 0, "type": "electric_scooter", "is_reserved": 0, "fusion_lon": 0.0, "lat": 38.93786733333334, "rental_uris": {"ios": "https://dc.lft.to/lastmile_qr_scan", "android": "https://dc.lft.to/lastmile_qr_scan"}, "bike_id": "3979005e4343b2f07a089d6411349dcc", "fusion_lat": 0.0}, {"lon": -77.03211466666667, "name": "eab53552dfa79af25e4ffb3c491be431", "is_disabled": 0, "type": "electric_scooter", "is_reserved": 0, "fusion_lon": 0.0, "lat": 38.919116, "rental_uris": {"ios": "https://dc.lft.to/lastmile_qr_scan", "android": "https://dc.lft.to/lastmile_qr_scan"}, "bike_id": "eab53552dfa79af25e4ffb3c491be431", "fusion_lat": 0.0}, {"lon": -77.01812516666666, "name": "3055c96235d98af3247605f98d02fd6a", "is_disabled": 0, "type": "electric_scooter", "is_reserved": 0, "fusion_lon": 0.0, "lat": 38.9206475, "rental_uris": {"ios": "https://dc.lft.to/lastmile_qr_scan", "android": "https://dc.lft.to/lastmile_qr_scan"}, "bike_id": "3055c96235d98af3247605f98d02fd6a", "fusion_lat": 0.0}, {"lon": -77.02535466666667, "name": "0ca94eae6c738b91465119c6f3334f67", "is_disabled": 0, "type": "electric_scooter", "is_reserved": 0, "fusion_lon": 0.0, "lat": 38.920885166666665, "rental_uris": {"ios": "https://dc.lft.to/lastmile_qr_scan", "android": "https://dc.lft.to/lastmile_qr_scan"}, "bike_id": "0ca94eae6c738b91465119c6f3334f67", "fusion_lat": 0.0}, {"lon": -77.05456966666667, "name": "8bb6267f320344ca9ebc6fd9996d9270", "is_disabled": 0, "type": "electric_scooter", "is_reserved": 0, "fusion_lon": 0.0, "lat": 38.92902316666667, "rental_uris": {"ios": "https://dc.lft.to/lastmile_qr_scan", "android": "https://dc.lft.to/lastmile_qr_scan"}, "bike_id": "8bb6267f320344ca9ebc6fd9996d9270", "fusion_lat": 0.0}, {"lon": -77.0074425, "name": "de184b4417944d8fa9c919d9f4fba043", "is_disabled": 0, "type": "electric_scooter", "is_reserved": 0, "fusion_lon": 0.0, "lat": 38.8787125, "rental_uris": {"ios": "https://dc.lft.to/lastmile_qr_scan", "android": "https://dc.lft.to/lastmile_qr_scan"}, "bike_id": "de184b4417944d8fa9c919d9f4fba043", "fusion_lat": 0.0}, {"lon": -77.03220966666666, "name": "d14a055b79900edd818510e92f036d91", "is_disabled": 0, "type": "electric_scooter", "is_reserved": 0, "fusion_lon": 0.0, "lat": 38.892273, "rental_uris": {"ios": "https://dc.lft.to/lastmile_qr_scan", "android": "https://dc.lft.to/lastmile_qr_scan"}, "bike_id": "d14a055b79900edd818510e92f036d91", "fusion_lat": 0.0}, {"lon": -77.032921, "name": "e84687f67ba8cb9890c750764f538b90", "is_disabled": 0, "type": "electric_scooter", "is_reserved": 0, "fusion_lon": 0.0, "lat": 38.95656066666667, "rental_uris": {"ios": "https://dc.lft.to/lastmile_qr_scan", "android": "https://dc.lft.to/lastmile_qr_scan"}, "bike_id": "e84687f67ba8cb9890c750764f538b90", "fusion_lat": 0.0}, {"lon": -77.08995366666667, "name": "424be078458bd9b523503f536dbefe38", "is_disabled": 0, "type": "electric_bike", "is_reserved": 0, "fusion_lon": 0.0, "lat": 38.90909416666667, "rental_uris": {"ios": "https://dc.lft.to/lastmile_qr_scan", "android": "https://dc.lft.to/lastmile_qr_scan"}, "bike_id": "424be078458bd9b523503f536dbefe38", "fusion_lat": 0.0}, {"lon": -77.01682016666666, "name": "4d229e33cf2504206d6e035665f42b4c", "is_disabled": 0, "type": "electric_scooter", "is_reserved": 0, "fusion_lon": 0.0, "lat": 38.910865333333334, "rental_uris": {"ios": "https://dc.lft.to/lastmile_qr_scan", "android": "https://dc.lft.to/lastmile_qr_scan"}, "bike_id": "4d229e33cf2504206d6e035665f42b4c", "fusion_lat": 0.0}, {"lon": -77.0713355, "name": "985511d70e39bbd4dea8b5f980fb376b", "is_disabled": 0, "type": "electric_scooter", "is_reserved": 0, "fusion_lon": 0.0, "lat": 38.920226166666666, "rental_uris": {"ios": "https://dc.lft.to/lastmile_qr_scan", "android": "https://dc.lft.to/lastmile_qr_scan"}, "bike_id": "985511d70e39bbd4dea8b5f980fb376b", "fusion_lat": 0.0}, {"lon": -77.09557633333333, "name": "0ea8003630d490c3e2577d6cfde64e9f", "is_disabled": 0, "type": "electric_bike", "is_reserved": 0, "fusion_lon": 0.0, "lat": 38.991992333333336, "rental_uris": {"ios": "https://dc.lft.to/lastmile_qr_scan", "android": "https://dc.lft.to/lastmile_qr_scan"}, "bike_id": "0ea8003630d490c3e2577d6cfde64e9f", "fusion_lat": 0.0}, {"lon": -77.05940816666667, "name": "5a7cf09922b9302b75b0f286d83aa0bc", "is_disabled": 0, "type": "electric_scooter", "is_reserved": 0, "fusion_lon": 0.0, "lat": 38.936999, "rental_uris": {"ios": "https://dc.lft.to/lastmile_qr_scan", "android": "https://dc.lft.to/lastmile_qr_scan"}, "bike_id": "5a7cf09922b9302b75b0f286d83aa0bc", "fusion_lat": 0.0}, {"lon": -77.02209416666666, "name": "c510aa2d365bbb34043962a97a897cc4", "is_disabled": 0, "type": "electric_scooter", "is_reserved": 0, "fusion_lon": 0.0, "lat": 38.91271416666667, "rental_uris": {"ios": "https://dc.lft.to/lastmile_qr_scan", "android": "https://dc.lft.to/lastmile_qr_scan"}, "bike_id": "c510aa2d365bbb34043962a97a897cc4", "fusion_lat": 0.0}, {"lon": -77.0338315, "name": "4476ba020c80966808421993af9a4589", "is_disabled": 0, "type": "electric_scooter", "is_reserved": 0, "fusion_lon": 0.0, "lat": 38.92158933333333, "rental_uris": {"ios": "https://dc.lft.to/lastmile_qr_scan", "android": "https://dc.lft.to/lastmile_qr_scan"}, "bike_id": "4476ba020c80966808421993af9a4589", "fusion_lat": 0.0}, {"lon": -77.007368, "name": "93b8da1297738ea82fefc44363aabf53", "is_disabled": 0, "type": "electric_scooter", "is_reserved": 0, "fusion_lon": 0.0, "lat": 38.903468, "rental_uris": {"ios": "https://dc.lft.to/lastmile_qr_scan", "android": "https://dc.lft.to/lastmile_qr_scan"}, "bike_id": "93b8da1297738ea82fefc44363aabf53", "fusion_lat": 0.0}, {"lon": -77.03358633333333, "name": "16b2287673c26d61b3c452168abb540e", "is_disabled": 0, "type": "electric_scooter", "is_reserved": 0, "fusion_lon": 0.0, "lat": 38.928776, "rental_uris": {"ios": "https://dc.lft.to/lastmile_qr_scan", "android": "https://dc.lft.to/lastmile_qr_scan"}, "bike_id": "16b2287673c26d61b3c452168abb540e", "fusion_lat": 0.0}, {"lon": -77.02034783333333, "name": "c04749c8498daf6b3e0ce7ba8913f255", "is_disabled": 0, "type": "electric_scooter", "is_reserved": 0, "fusion_lon": 0.0, "lat": 38.92414433333333, "rental_uris": {"ios": "https://dc.lft.to/lastmile_qr_scan", "android": "https://dc.lft.to/lastmile_qr_scan"}, "bike_id": "c04749c8498daf6b3e0ce7ba8913f255", "fusion_lat": 0.0}, {"lon": -77.02449583333333, "name": "1d65fac8ae643806ceb15dd1ef434859", "is_disabled": 0, "type": "electric_scooter", "is_reserved": 0, "fusion_lon": 0.0, "lat": 38.94977983333333, "rental_uris": {"ios": "https://dc.lft.to/lastmile_qr_scan", "android": "https://dc.lft.to/lastmile_qr_scan"}, "bike_id": "1d65fac8ae643806ceb15dd1ef434859", "fusion_lat": 0.0}, {"lon": -77.02380266666667, "name": "fa3207cd5bec4c446a6b4751666ad74f", "is_disabled": 0, "type": "electric_scooter", "is_reserved": 0, "fusion_lon": 0.0, "lat": 38.952754666666664, "rental_uris": {"ios": "https://dc.lft.to/lastmile_qr_scan", "android": "https://dc.lft.to/lastmile_qr_scan"}, "bike_id": "fa3207cd5bec4c446a6b4751666ad74f", "fusion_lat": 0.0}, {"lon": -76.98560816666667, "name": "872c25ae8b4b58b98abe311ce12a1020", "is_disabled": 0, "type": "electric_scooter", "is_reserved": 0, "fusion_lon": 0.0, "lat": 38.907129, "rental_uris": {"ios": "https://dc.lft.to/lastmile_qr_scan", "android": "https://dc.lft.to/lastmile_qr_scan"}, "bike_id": "872c25ae8b4b58b98abe311ce12a1020", "fusion_lat": 0.0}, {"lon": -77.00056216666667, "name": "ba25bd50453bdb67bac0ca630402c982", "is_disabled": 0, "type": "electric_scooter", "is_reserved": 0, "fusion_lon": 0.0, "lat": 38.87553183333333, "rental_uris": {"ios": "https://dc.lft.to/lastmile_qr_scan", "android": "https://dc.lft.to/lastmile_qr_scan"}, "bike_id": "ba25bd50453bdb67bac0ca630402c982", "fusion_lat": 0.0}, {"lon": -77.0385825, "name": "40cd5b4e14c5d7e1eeca01dac8626daa", "is_disabled": 0, "type": "electric_scooter", "is_reserved": 0, "fusion_lon": 0.0, "lat": 38.917124333333334, "rental_uris": {"ios": "https://dc.lft.to/lastmile_qr_scan", "android": "https://dc.lft.to/lastmile_qr_scan"}, "bike_id": "40cd5b4e14c5d7e1eeca01dac8626daa", "fusion_lat": 0.0}, {"lon": -77.01926116666667, "name": "13924692150bf1ae596025fec27349f0", "is_disabled": 0, "type": "electric_scooter", "is_reserved": 0, "fusion_lon": 0.0, "lat": 38.93268233333333, "rental_uris": {"ios": "https://dc.lft.to/lastmile_qr_scan", "android": "https://dc.lft.to/lastmile_qr_scan"}, "bike_id": "13924692150bf1ae596025fec27349f0", "fusion_lat": 0.0}, {"lon": -77.01765966666666, "name": "cba5e03bdc830f691ec77b77361d4bba", "is_disabled": 0, "type": "electric_bike", "is_reserved": 0, "fusion_lon": 0.0, "lat": 38.87863266666667, "rental_uris": {"ios": "https://dc.lft.to/lastmile_qr_scan", "android": "https://dc.lft.to/lastmile_qr_scan"}, "bike_id": "cba5e03bdc830f691ec77b77361d4bba", "fusion_lat": 0.0}, {"lon": -77.0459685, "name": "a6b6dea20f9cbd05aac4fa594cb56a03", "is_disabled": 0, "type": "electric_scooter", "is_reserved": 0, "fusion_lon": 0.0, "lat": 38.8962095, "rental_uris": {"ios": "https://dc.lft.to/lastmile_qr_scan", "android": "https://dc.lft.to/lastmile_qr_scan"}, "bike_id": "a6b6dea20f9cbd05aac4fa594cb56a03", "fusion_lat": 0.0}, {"lon": -77.021662, "name": "c86bd735704e5fac53bb942620e5a44c", "is_disabled": 0, "type": "electric_scooter", "is_reserved": 0, "fusion_lon": 0.0, "lat": 38.920196833333335, "rental_uris": {"ios": "https://dc.lft.to/lastmile_qr_scan", "android": "https://dc.lft.to/lastmile_qr_scan"}, "bike_id": "c86bd735704e5fac53bb942620e5a44c", "fusion_lat": 0.0}, {"lon": -77.01885066666667, "name": "51318813b13bff68649dec54fd07340c", "is_disabled": 0, "type": "electric_scooter", "is_reserved": 0, "fusion_lon": 0.0, "lat": 38.911121, "rental_uris": {"ios": "https://dc.lft.to/lastmile_qr_scan", "android": "https://dc.lft.to/lastmile_qr_scan"}, "bike_id": "51318813b13bff68649dec54fd07340c", "fusion_lat": 0.0}, {"lon": -76.97332966666667, "name": "e8d83c0f072ed1c72290119d3080d2bc", "is_disabled": 0, "type": "electric_scooter", "is_reserved": 0, "fusion_lon": 0.0, "lat": 38.9041345, "rental_uris": {"ios": "https://dc.lft.to/lastmile_qr_scan", "android": "https://dc.lft.to/lastmile_qr_scan"}, "bike_id": "e8d83c0f072ed1c72290119d3080d2bc", "fusion_lat": 0.0}, {"lon": -77.07469816666666, "name": "24011cb46bedcaaf3cefed08f0b0a96f", "is_disabled": 0, "type": "electric_scooter", "is_reserved": 0, "fusion_lon": 0.0, "lat": 38.9224445, "rental_uris": {"ios": "https://dc.lft.to/lastmile_qr_scan", "android": "https://dc.lft.to/lastmile_qr_scan"}, "bike_id": "24011cb46bedcaaf3cefed08f0b0a96f", "fusion_lat": 0.0}, {"lon": -77.04084816666666, "name": "a813313ba352caf2fff4c0ad5250d5a2", "is_disabled": 0, "type": "electric_scooter", "is_reserved": 0, "fusion_lon": 0.0, "lat": 38.928902666666666, "rental_uris": {"ios": "https://dc.lft.to/lastmile_qr_scan", "android": "https://dc.lft.to/lastmile_qr_scan"}, "bike_id": "a813313ba352caf2fff4c0ad5250d5a2", "fusion_lat": 0.0}, {"lon": -77.031641, "name": "1750b6241b57f247cd7674f9d5cf9050", "is_disabled": 0, "type": "electric_scooter", "is_reserved": 0, "fusion_lon": 0.0, "lat": 38.907523833333336, "rental_uris": {"ios": "https://dc.lft.to/lastmile_qr_scan", "android": "https://dc.lft.to/lastmile_qr_scan"}, "bike_id": "1750b6241b57f247cd7674f9d5cf9050", "fusion_lat": 0.0}, {"lon": -77.0250975, "name": "d8e8de522f6312499a767db8eb11095a", "is_disabled": 0, "type": "electric_scooter", "is_reserved": 0, "fusion_lon": 0.0, "lat": 38.92095416666667, "rental_uris": {"ios": "https://dc.lft.to/lastmile_qr_scan", "android": "https://dc.lft.to/lastmile_qr_scan"}, "bike_id": "d8e8de522f6312499a767db8eb11095a", "fusion_lat": 0.0}, {"lon": -77.027121, "name": "06790162621a078fa2f59e22f9a40ce1", "is_disabled": 0, "type": "electric_scooter", "is_reserved": 0, "fusion_lon": 0.0, "lat": 38.91690233333333, "rental_uris": {"ios": "https://dc.lft.to/lastmile_qr_scan", "android": "https://dc.lft.to/lastmile_qr_scan"}, "bike_id": "06790162621a078fa2f59e22f9a40ce1", "fusion_lat": 0.0}, {"lon": -77.03883983333333, "name": "0a537aa8e2b422b98e175ed0137ed2c8", "is_disabled": 0, "type": "electric_scooter", "is_reserved": 0, "fusion_lon": 0.0, "lat": 38.922466166666666, "rental_uris": {"ios": "https://dc.lft.to/lastmile_qr_scan", "android": "https://dc.lft.to/lastmile_qr_scan"}, "bike_id": "0a537aa8e2b422b98e175ed0137ed2c8", "fusion_lat": 0.0}, {"lon": -77.03216116666667, "name": "7a18011a4d63560e38f6863d0de64cfc", "is_disabled": 0, "type": "electric_scooter", "is_reserved": 0, "fusion_lon": 0.0, "lat": 38.917122, "rental_uris": {"ios": "https://dc.lft.to/lastmile_qr_scan", "android": "https://dc.lft.to/lastmile_qr_scan"}, "bike_id": "7a18011a4d63560e38f6863d0de64cfc", "fusion_lat": 0.0}, {"lon": -76.92927416666667, "name": "6a91755ed318ccdc74fd458122eb1164", "is_disabled": 0, "type": "electric_scooter", "is_reserved": 0, "fusion_lon": 0.0, "lat": 38.90104483333333, "rental_uris": {"ios": "https://dc.lft.to/lastmile_qr_scan", "android": "https://dc.lft.to/lastmile_qr_scan"}, "bike_id": "6a91755ed318ccdc74fd458122eb1164", "fusion_lat": 0.0}, {"lon": -77.00215816666666, "name": "8bc85a88b75cc2525222ff35c10dc8ad", "is_disabled": 0, "type": "electric_scooter", "is_reserved": 0, "fusion_lon": 0.0, "lat": 38.90188416666667, "rental_uris": {"ios": "https://dc.lft.to/lastmile_qr_scan", "android": "https://dc.lft.to/lastmile_qr_scan"}, "bike_id": "8bc85a88b75cc2525222ff35c10dc8ad", "fusion_lat": 0.0}, {"lon": -77.03180966666666, "name": "d72e908a1ff5042e28f9a729bf0a2ea8", "is_disabled": 0, "type": "electric_scooter", "is_reserved": 0, "fusion_lon": 0.0, "lat": 38.91190133333333, "rental_uris": {"ios": "https://dc.lft.to/lastmile_qr_scan", "android": "https://dc.lft.to/lastmile_qr_scan"}, "bike_id": "d72e908a1ff5042e28f9a729bf0a2ea8", "fusion_lat": 0.0}, {"lon": -77.04997366666667, "name": "8740b404643edbd0ed6c00d33c35c835", "is_disabled": 0, "type": "electric_scooter", "is_reserved": 0, "fusion_lon": 0.0, "lat": 38.89229666666667, "rental_uris": {"ios": "https://dc.lft.to/lastmile_qr_scan", "android": "https://dc.lft.to/lastmile_qr_scan"}, "bike_id": "8740b404643edbd0ed6c00d33c35c835", "fusion_lat": 0.0}, {"lon": -77.03569716666667, "name": "777819b4ad7017e21ee0be0aceccfec5", "is_disabled": 0, "type": "electric_scooter", "is_reserved": 0, "fusion_lon": 0.0, "lat": 38.90481466666667, "rental_uris": {"ios": "https://dc.lft.to/lastmile_qr_scan", "android": "https://dc.lft.to/lastmile_qr_scan"}, "bike_id": "777819b4ad7017e21ee0be0aceccfec5", "fusion_lat": 0.0}, {"lon": -77.0320975, "name": "0cfb195199d1f55f3c36628b575a2611", "is_disabled": 0, "type": "electric_scooter", "is_reserved": 0, "fusion_lon": 0.0, "lat": 38.919131, "rental_uris": {"ios": "https://dc.lft.to/lastmile_qr_scan", "android": "https://dc.lft.to/lastmile_qr_scan"}, "bike_id": "0cfb195199d1f55f3c36628b575a2611", "fusion_lat": 0.0}, {"lon": -77.00591816666666, "name": "be417082b13e7cbe254c793f7235468e", "is_disabled": 0, "type": "electric_scooter", "is_reserved": 0, "fusion_lon": 0.0, "lat": 38.90564583333333, "rental_uris": {"ios": "https://dc.lft.to/lastmile_qr_scan", "android": "https://dc.lft.to/lastmile_qr_scan"}, "bike_id": "be417082b13e7cbe254c793f7235468e", "fusion_lat": 0.0}, {"lon": -77.00578366666667, "name": "3171752265ab113e655daf339e181af1", "is_disabled": 0, "type": "electric_scooter", "is_reserved": 0, "fusion_lon": 0.0, "lat": 38.87218766666667, "rental_uris": {"ios": "https://dc.lft.to/lastmile_qr_scan", "android": "https://dc.lft.to/lastmile_qr_scan"}, "bike_id": "3171752265ab113e655daf339e181af1", "fusion_lat": 0.0}, {"lon": -77.03663033333333, "name": "a963d2d1c078ae75cd93c694d1f7e1f6", "is_disabled": 0, "type": "electric_scooter", "is_reserved": 0, "fusion_lon": 0.0, "lat": 38.915737, "rental_uris": {"ios": "https://dc.lft.to/lastmile_qr_scan", "android": "https://dc.lft.to/lastmile_qr_scan"}, "bike_id": "a963d2d1c078ae75cd93c694d1f7e1f6", "fusion_lat": 0.0}, {"lon": -77.01220883333333, "name": "8be8c1b7f5ee578b97fc033f9d44bad5", "is_disabled": 0, "type": "electric_scooter", "is_reserved": 0, "fusion_lon": 0.0, "lat": 38.915211666666664, "rental_uris": {"ios": "https://dc.lft.to/lastmile_qr_scan", "android": "https://dc.lft.to/lastmile_qr_scan"}, "bike_id": "8be8c1b7f5ee578b97fc033f9d44bad5", "fusion_lat": 0.0}, {"lon": -76.93011816666667, "name": "5a5d09c5859d3c6285c30565389c58b6", "is_disabled": 0, "type": "electric_scooter", "is_reserved": 0, "fusion_lon": 0.0, "lat": 38.9071695, "rental_uris": {"ios": "https://dc.lft.to/lastmile_qr_scan", "android": "https://dc.lft.to/lastmile_qr_scan"}, "bike_id": "5a5d09c5859d3c6285c30565389c58b6", "fusion_lat": 0.0}, {"lon": -77.0780345, "name": "62ee062a68e701787bbfad27c622f896", "is_disabled": 0, "type": "electric_scooter", "is_reserved": 0, "fusion_lon": 0.0, "lat": 38.938530166666666, "rental_uris": {"ios": "https://dc.lft.to/lastmile_qr_scan", "android": "https://dc.lft.to/lastmile_qr_scan"}, "bike_id": "62ee062a68e701787bbfad27c622f896", "fusion_lat": 0.0}, {"lon": -77.03518433333333, "name": "3d73be65aabdad34a739f10c41718dc0", "is_disabled": 0, "type": "electric_scooter", "is_reserved": 0, "fusion_lon": 0.0, "lat": 38.922472166666665, "rental_uris": {"ios": "https://dc.lft.to/lastmile_qr_scan", "android": "https://dc.lft.to/lastmile_qr_scan"}, "bike_id": "3d73be65aabdad34a739f10c41718dc0", "fusion_lat": 0.0}, {"lon": -76.98418916666667, "name": "22b8d9878673aeb390a588a61d3b6a0c", "is_disabled": 0, "type": "electric_bike", "is_reserved": 0, "fusion_lon": 0.0, "lat": 38.910031333333336, "rental_uris": {"ios": "https://dc.lft.to/lastmile_qr_scan", "android": "https://dc.lft.to/lastmile_qr_scan"}, "bike_id": "22b8d9878673aeb390a588a61d3b6a0c", "fusion_lat": 0.0}, {"lon": -77.02266466666667, "name": "81bf5a62f060d9c72b5760743c4b192e", "is_disabled": 0, "type": "electric_scooter", "is_reserved": 0, "fusion_lon": 0.0, "lat": 38.91641716666667, "rental_uris": {"ios": "https://dc.lft.to/lastmile_qr_scan", "android": "https://dc.lft.to/lastmile_qr_scan"}, "bike_id": "81bf5a62f060d9c72b5760743c4b192e", "fusion_lat": 0.0}, {"lon": -77.00070216666667, "name": "0a86eaf621d4a71c3cce6c700b673f06", "is_disabled": 0, "type": "electric_scooter", "is_reserved": 0, "fusion_lon": 0.0, "lat": 38.8877985, "rental_uris": {"ios": "https://dc.lft.to/lastmile_qr_scan", "android": "https://dc.lft.to/lastmile_qr_scan"}, "bike_id": "0a86eaf621d4a71c3cce6c700b673f06", "fusion_lat": 0.0}, {"lon": -76.99862783333333, "name": "49266fedd736a64a4a1b576af4a505ba", "is_disabled": 0, "type": "electric_scooter", "is_reserved": 0, "fusion_lon": 0.0, "lat": 38.90258816666667, "rental_uris": {"ios": "https://dc.lft.to/lastmile_qr_scan", "android": "https://dc.lft.to/lastmile_qr_scan"}, "bike_id": "49266fedd736a64a4a1b576af4a505ba", "fusion_lat": 0.0}, {"lon": -77.018127, "name": "c56ba75bc3017e53ab910a2b26cd6a48", "is_disabled": 0, "type": "electric_scooter", "is_reserved": 0, "fusion_lon": 0.0, "lat": 38.92133783333333, "rental_uris": {"ios": "https://dc.lft.to/lastmile_qr_scan", "android": "https://dc.lft.to/lastmile_qr_scan"}, "bike_id": "c56ba75bc3017e53ab910a2b26cd6a48", "fusion_lat": 0.0}, {"lon": -77.00174333333334, "name": "da86c74700bb46cf7e059182ee1c8f39", "is_disabled": 0, "type": "electric_scooter", "is_reserved": 0, "fusion_lon": 0.0, "lat": 38.94074066666667, "rental_uris": {"ios": "https://dc.lft.to/lastmile_qr_scan", "android": "https://dc.lft.to/lastmile_qr_scan"}, "bike_id": "da86c74700bb46cf7e059182ee1c8f39", "fusion_lat": 0.0}, {"lon": -77.030498, "name": "256f75cf65412faea0d66078ab01ec78", "is_disabled": 0, "type": "electric_scooter", "is_reserved": 0, "fusion_lon": 0.0, "lat": 38.884299666666664, "rental_uris": {"ios": "https://dc.lft.to/lastmile_qr_scan", "android": "https://dc.lft.to/lastmile_qr_scan"}, "bike_id": "256f75cf65412faea0d66078ab01ec78", "fusion_lat": 0.0}, {"lon": -77.021263, "name": "6b517253eac2e7386961bcfd249c8851", "is_disabled": 0, "type": "electric_scooter", "is_reserved": 0, "fusion_lon": 0.0, "lat": 38.923989, "rental_uris": {"ios": "https://dc.lft.to/lastmile_qr_scan", "android": "https://dc.lft.to/lastmile_qr_scan"}, "bike_id": "6b517253eac2e7386961bcfd249c8851", "fusion_lat": 0.0}, {"lon": -76.98209033333333, "name": "4272a9e10c550ea219cc49ad5a5ad782", "is_disabled": 0, "type": "electric_bike", "is_reserved": 0, "fusion_lon": 0.0, "lat": 38.98504916666667, "rental_uris": {"ios": "https://dc.lft.to/lastmile_qr_scan", "android": "https://dc.lft.to/lastmile_qr_scan"}, "bike_id": "4272a9e10c550ea219cc49ad5a5ad782", "fusion_lat": 0.0}, {"lon": -77.01230616666666, "name": "90a53551c50057cc6bbb330be59fd380", "is_disabled": 0, "type": "electric_scooter", "is_reserved": 0, "fusion_lon": 0.0, "lat": 38.90011616666666, "rental_uris": {"ios": "https://dc.lft.to/lastmile_qr_scan", "android": "https://dc.lft.to/lastmile_qr_scan"}, "bike_id": "90a53551c50057cc6bbb330be59fd380", "fusion_lat": 0.0}, {"lon": -77.0215975, "name": "100973d7ee58754f088a78a0f82ad502", "is_disabled": 0, "type": "electric_scooter", "is_reserved": 0, "fusion_lon": 0.0, "lat": 38.926167166666666, "rental_uris": {"ios": "https://dc.lft.to/lastmile_qr_scan", "android": "https://dc.lft.to/lastmile_qr_scan"}, "bike_id": "100973d7ee58754f088a78a0f82ad502", "fusion_lat": 0.0}, {"lon": -77.02197666666666, "name": "63885caf4a5c88c9dd8e9953652c629f", "is_disabled": 0, "type": "electric_scooter", "is_reserved": 0, "fusion_lon": 0.0, "lat": 38.91131083333333, "rental_uris": {"ios": "https://dc.lft.to/lastmile_qr_scan", "android": "https://dc.lft.to/lastmile_qr_scan"}, "bike_id": "63885caf4a5c88c9dd8e9953652c629f", "fusion_lat": 0.0}, {"lon": -77.02036066666666, "name": "b55541ac6b80e0724505ba3c94665be1", "is_disabled": 0, "type": "electric_scooter", "is_reserved": 0, "fusion_lon": 0.0, "lat": 38.924333, "rental_uris": {"ios": "https://dc.lft.to/lastmile_qr_scan", "android": "https://dc.lft.to/lastmile_qr_scan"}, "bike_id": "b55541ac6b80e0724505ba3c94665be1", "fusion_lat": 0.0}, {"lon": -76.998152, "name": "caf92e05d4e0fee354d5f6f528b773c1", "is_disabled": 0, "type": "electric_scooter", "is_reserved": 0, "fusion_lon": 0.0, "lat": 38.9060965, "rental_uris": {"ios": "https://dc.lft.to/lastmile_qr_scan", "android": "https://dc.lft.to/lastmile_qr_scan"}, "bike_id": "caf92e05d4e0fee354d5f6f528b773c1", "fusion_lat": 0.0}, {"lon": -77.020723, "name": "70b8e8461bec6ced97de3963054353d6", "is_disabled": 0, "type": "electric_scooter", "is_reserved": 0, "fusion_lon": 0.0, "lat": 38.922889833333336, "rental_uris": {"ios": "https://dc.lft.to/lastmile_qr_scan", "android": "https://dc.lft.to/lastmile_qr_scan"}, "bike_id": "70b8e8461bec6ced97de3963054353d6", "fusion_lat": 0.0}, {"lon": -77.019488, "name": "46c22b465bb6a02f6a2c155b6f1453e0", "is_disabled": 0, "type": "electric_scooter", "is_reserved": 0, "fusion_lon": 0.0, "lat": 38.92253516666667, "rental_uris": {"ios": "https://dc.lft.to/lastmile_qr_scan", "android": "https://dc.lft.to/lastmile_qr_scan"}, "bike_id": "46c22b465bb6a02f6a2c155b6f1453e0", "fusion_lat": 0.0}, {"lon": -77.0366255, "name": "75fe620085acb6c5161956959b83fac0", "is_disabled": 0, "type": "electric_scooter", "is_reserved": 0, "fusion_lon": 0.0, "lat": 38.92333466666667, "rental_uris": {"ios": "https://dc.lft.to/lastmile_qr_scan", "android": "https://dc.lft.to/lastmile_qr_scan"}, "bike_id": "75fe620085acb6c5161956959b83fac0", "fusion_lat": 0.0}, {"lon": -77.04360916666667, "name": "d5ae876959acdc7eb51871ebfd78dafb", "is_disabled": 0, "type": "electric_scooter", "is_reserved": 0, "fusion_lon": 0.0, "lat": 38.920715, "rental_uris": {"ios": "https://dc.lft.to/lastmile_qr_scan", "android": "https://dc.lft.to/lastmile_qr_scan"}, "bike_id": "d5ae876959acdc7eb51871ebfd78dafb", "fusion_lat": 0.0}, {"lon": -77.0251255, "name": "ff069d8d62ce3cdcd178bc83bd761dc8", "is_disabled": 0, "type": "electric_scooter", "is_reserved": 0, "fusion_lon": 0.0, "lat": 38.90422566666667, "rental_uris": {"ios": "https://dc.lft.to/lastmile_qr_scan", "android": "https://dc.lft.to/lastmile_qr_scan"}, "bike_id": "ff069d8d62ce3cdcd178bc83bd761dc8", "fusion_lat": 0.0}, {"lon": -77.02023033333333, "name": "cbc66c3756a9aafd099c5b734b4551ce", "is_disabled": 0, "type": "electric_scooter", "is_reserved": 0, "fusion_lon": 0.0, "lat": 38.898756, "rental_uris": {"ios": "https://dc.lft.to/lastmile_qr_scan", "android": "https://dc.lft.to/lastmile_qr_scan"}, "bike_id": "cbc66c3756a9aafd099c5b734b4551ce", "fusion_lat": 0.0}, {"lon": -76.98345016666667, "name": "7d4989897b4ab1b7f21e3bec000653ef", "is_disabled": 0, "type": "electric_bike", "is_reserved": 0, "fusion_lon": 0.0, "lat": 38.86260883333333, "rental_uris": {"ios": "https://dc.lft.to/lastmile_qr_scan", "android": "https://dc.lft.to/lastmile_qr_scan"}, "bike_id": "7d4989897b4ab1b7f21e3bec000653ef", "fusion_lat": 0.0}, {"lon": -76.979557, "name": "7ecf8ac308179a85848c63cfe0870b9f", "is_disabled": 0, "type": "electric_bike", "is_reserved": 0, "fusion_lon": 0.0, "lat": 38.920426166666665, "rental_uris": {"ios": "https://dc.lft.to/lastmile_qr_scan", "android": "https://dc.lft.to/lastmile_qr_scan"}, "bike_id": "7ecf8ac308179a85848c63cfe0870b9f", "fusion_lat": 0.0}, {"lon": -77.0499965, "name": "538c57e589673ae9a0eb4771c212a3d2", "is_disabled": 0, "type": "electric_scooter", "is_reserved": 0, "fusion_lon": 0.0, "lat": 38.892312, "rental_uris": {"ios": "https://dc.lft.to/lastmile_qr_scan", "android": "https://dc.lft.to/lastmile_qr_scan"}, "bike_id": "538c57e589673ae9a0eb4771c212a3d2", "fusion_lat": 0.0}, {"lon": -77.0221865, "name": "36079bedb8df00516c1297afdaa94cc4", "is_disabled": 0, "type": "electric_scooter", "is_reserved": 0, "fusion_lon": 0.0, "lat": 38.924762333333334, "rental_uris": {"ios": "https://dc.lft.to/lastmile_qr_scan", "android": "https://dc.lft.to/lastmile_qr_scan"}, "bike_id": "36079bedb8df00516c1297afdaa94cc4", "fusion_lat": 0.0}, {"lon": -77.02183516666666, "name": "503f35af560edf1f0dc2a6ffc11fcfc3", "is_disabled": 0, "type": "electric_scooter", "is_reserved": 0, "fusion_lon": 0.0, "lat": 38.92100716666667, "rental_uris": {"ios": "https://dc.lft.to/lastmile_qr_scan", "android": "https://dc.lft.to/lastmile_qr_scan"}, "bike_id": "503f35af560edf1f0dc2a6ffc11fcfc3", "fusion_lat": 0.0}, {"lon": -77.0338435, "name": "474ca1df158043706ede98949c5b662d", "is_disabled": 0, "type": "electric_scooter", "is_reserved": 0, "fusion_lon": 0.0, "lat": 38.90010133333333, "rental_uris": {"ios": "https://dc.lft.to/lastmile_qr_scan", "android": "https://dc.lft.to/lastmile_qr_scan"}, "bike_id": "474ca1df158043706ede98949c5b662d", "fusion_lat": 0.0}, {"lon": -76.98449183333334, "name": "692a3e07b026ea94846c70b71fda888a", "is_disabled": 0, "type": "electric_scooter", "is_reserved": 0, "fusion_lon": 0.0, "lat": 38.892395, "rental_uris": {"ios": "https://dc.lft.to/lastmile_qr_scan", "android": "https://dc.lft.to/lastmile_qr_scan"}, "bike_id": "692a3e07b026ea94846c70b71fda888a", "fusion_lat": 0.0}, {"lon": -77.03440783333333, "name": "e3d881f67237cd06b1f9be8024d7996b", "is_disabled": 0, "type": "electric_scooter", "is_reserved": 0, "fusion_lon": 0.0, "lat": 38.903448166666664, "rental_uris": {"ios": "https://dc.lft.to/lastmile_qr_scan", "android": "https://dc.lft.to/lastmile_qr_scan"}, "bike_id": "e3d881f67237cd06b1f9be8024d7996b", "fusion_lat": 0.0}, {"lon": -77.02264333333333, "name": "4f3f4e3f7bc38064cc3fc8a0924815fe", "is_disabled": 0, "type": "electric_scooter", "is_reserved": 0, "fusion_lon": 0.0, "lat": 38.92822683333333, "rental_uris": {"ios": "https://dc.lft.to/lastmile_qr_scan", "android": "https://dc.lft.to/lastmile_qr_scan"}, "bike_id": "4f3f4e3f7bc38064cc3fc8a0924815fe", "fusion_lat": 0.0}, {"lon": -77.0365905, "name": "3236c210d5ce424d90c9d88cf0761d4d", "is_disabled": 0, "type": "electric_scooter", "is_reserved": 0, "fusion_lon": 0.0, "lat": 38.91579483333334, "rental_uris": {"ios": "https://dc.lft.to/lastmile_qr_scan", "android": "https://dc.lft.to/lastmile_qr_scan"}, "bike_id": "3236c210d5ce424d90c9d88cf0761d4d", "fusion_lat": 0.0}, {"lon": -77.01912583333333, "name": "76ba2f98c8df1b6b5d487f54ec750ab0", "is_disabled": 0, "type": "electric_scooter", "is_reserved": 0, "fusion_lon": 0.0, "lat": 38.89731533333333, "rental_uris": {"ios": "https://dc.lft.to/lastmile_qr_scan", "android": "https://dc.lft.to/lastmile_qr_scan"}, "bike_id": "76ba2f98c8df1b6b5d487f54ec750ab0", "fusion_lat": 0.0}, {"lon": -77.0325755, "name": "8d8a9cda332d48cd859dbe374c070e72", "is_disabled": 0, "type": "electric_scooter", "is_reserved": 0, "fusion_lon": 0.0, "lat": 38.93970383333333, "rental_uris": {"ios": "https://dc.lft.to/lastmile_qr_scan", "android": "https://dc.lft.to/lastmile_qr_scan"}, "bike_id": "8d8a9cda332d48cd859dbe374c070e72", "fusion_lat": 0.0}, {"lon": -76.99507733333333, "name": "089a33e43a9b3c4aeb90540a7da91306", "is_disabled": 0, "type": "electric_scooter", "is_reserved": 0, "fusion_lon": 0.0, "lat": 38.890834, "rental_uris": {"ios": "https://dc.lft.to/lastmile_qr_scan", "android": "https://dc.lft.to/lastmile_qr_scan"}, "bike_id": "089a33e43a9b3c4aeb90540a7da91306", "fusion_lat": 0.0}, {"lon": -77.03864533333333, "name": "ff0829d09987d17727a7d5600fc4f1ea", "is_disabled": 0, "type": "electric_scooter", "is_reserved": 0, "fusion_lon": 0.0, "lat": 38.91710716666667, "rental_uris": {"ios": "https://dc.lft.to/lastmile_qr_scan", "android": "https://dc.lft.to/lastmile_qr_scan"}, "bike_id": "ff0829d09987d17727a7d5600fc4f1ea", "fusion_lat": 0.0}, {"lon": -77.03259733333333, "name": "cc4a0def0f840b39b98ebaeb570fef02", "is_disabled": 0, "type": "electric_scooter", "is_reserved": 0, "fusion_lon": 0.0, "lat": 38.9254205, "rental_uris": {"ios": "https://dc.lft.to/lastmile_qr_scan", "android": "https://dc.lft.to/lastmile_qr_scan"}, "bike_id": "cc4a0def0f840b39b98ebaeb570fef02", "fusion_lat": 0.0}, {"lon": -77.02952383333333, "name": "ee1ab731c6fdb200929f6441c6fddf4e", "is_disabled": 0, "type": "electric_scooter", "is_reserved": 0, "fusion_lon": 0.0, "lat": 38.895744666666666, "rental_uris": {"ios": "https://dc.lft.to/lastmile_qr_scan", "android": "https://dc.lft.to/lastmile_qr_scan"}, "bike_id": "ee1ab731c6fdb200929f6441c6fddf4e", "fusion_lat": 0.0}, {"lon": -77.01493116666667, "name": "e6f33993ce2dbcef9f945058e974db66", "is_disabled": 0, "type": "electric_scooter", "is_reserved": 0, "fusion_lon": 0.0, "lat": 38.896823833333336, "rental_uris": {"ios": "https://dc.lft.to/lastmile_qr_scan", "android": "https://dc.lft.to/lastmile_qr_scan"}, "bike_id": "e6f33993ce2dbcef9f945058e974db66", "fusion_lat": 0.0}, {"lon": -76.97680233333334, "name": "4ca3ce79b0da0f048b16013a95ebc102", "is_disabled": 0, "type": "electric_scooter", "is_reserved": 0, "fusion_lon": 0.0, "lat": 38.89197566666667, "rental_uris": {"ios": "https://dc.lft.to/lastmile_qr_scan", "android": "https://dc.lft.to/lastmile_qr_scan"}, "bike_id": "4ca3ce79b0da0f048b16013a95ebc102", "fusion_lat": 0.0}, {"lon": -76.9964855, "name": "f3272c450e1f8fd04006fa1f57933671", "is_disabled": 0, "type": "electric_bike", "is_reserved": 0, "fusion_lon": 0.0, "lat": 38.967809, "rental_uris": {"ios": "https://dc.lft.to/lastmile_qr_scan", "android": "https://dc.lft.to/lastmile_qr_scan"}, "bike_id": "f3272c450e1f8fd04006fa1f57933671", "fusion_lat": 0.0}, {"lon": -77.0416075, "name": "5f5bd1c11afcb4084bd99e8a186fe151", "is_disabled": 0, "type": "electric_scooter", "is_reserved": 0, "fusion_lon": 0.0, "lat": 38.91818833333333, "rental_uris": {"ios": "https://dc.lft.to/lastmile_qr_scan", "android": "https://dc.lft.to/lastmile_qr_scan"}, "bike_id": "5f5bd1c11afcb4084bd99e8a186fe151", "fusion_lat": 0.0}, {"lon": -77.04189433333333, "name": "bffe8738b39b5d442f99dec660713030", "is_disabled": 0, "type": "electric_scooter", "is_reserved": 0, "fusion_lon": 0.0, "lat": 38.920701333333334, "rental_uris": {"ios": "https://dc.lft.to/lastmile_qr_scan", "android": "https://dc.lft.to/lastmile_qr_scan"}, "bike_id": "bffe8738b39b5d442f99dec660713030", "fusion_lat": 0.0}, {"lon": -77.031105, "name": "0d849ec66a9790a8fa5835604ed6328c", "is_disabled": 0, "type": "electric_scooter", "is_reserved": 0, "fusion_lon": 0.0, "lat": 38.92679183333333, "rental_uris": {"ios": "https://dc.lft.to/lastmile_qr_scan", "android": "https://dc.lft.to/lastmile_qr_scan"}, "bike_id": "0d849ec66a9790a8fa5835604ed6328c", "fusion_lat": 0.0}, {"lon": -76.90752616666667, "name": "b6bbb581412f455242fecf4d73b3ff64", "is_disabled": 0, "type": "electric_bike", "is_reserved": 0, "fusion_lon": 0.0, "lat": 38.89616566666667, "rental_uris": {"ios": "https://dc.lft.to/lastmile_qr_scan", "android": "https://dc.lft.to/lastmile_qr_scan"}, "bike_id": "b6bbb581412f455242fecf4d73b3ff64", "fusion_lat": 0.0}, {"lon": -77.01779766666667, "name": "df5dce114eb35c9f8dc146787683ff09", "is_disabled": 0, "type": "electric_scooter", "is_reserved": 0, "fusion_lon": 0.0, "lat": 38.91998783333333, "rental_uris": {"ios": "https://dc.lft.to/lastmile_qr_scan", "android": "https://dc.lft.to/lastmile_qr_scan"}, "bike_id": "df5dce114eb35c9f8dc146787683ff09", "fusion_lat": 0.0}, {"lon": -77.0397745, "name": "ce9e50a27a033224ebe9f4db672d3f3e", "is_disabled": 0, "type": "electric_scooter", "is_reserved": 0, "fusion_lon": 0.0, "lat": 38.920268666666665, "rental_uris": {"ios": "https://dc.lft.to/lastmile_qr_scan", "android": "https://dc.lft.to/lastmile_qr_scan"}, "bike_id": "ce9e50a27a033224ebe9f4db672d3f3e", "fusion_lat": 0.0}, {"lon": -77.0381785, "name": "91eab8fbaea525df2f6593a347f1ae14", "is_disabled": 0, "type": "electric_scooter", "is_reserved": 0, "fusion_lon": 0.0, "lat": 38.914182, "rental_uris": {"ios": "https://dc.lft.to/lastmile_qr_scan", "android": "https://dc.lft.to/lastmile_qr_scan"}, "bike_id": "91eab8fbaea525df2f6593a347f1ae14", "fusion_lat": 0.0}, {"lon": -77.00536383333333, "name": "ec9d27a33eb0186b42fa11f3aa74ba2a", "is_disabled": 0, "type": "electric_scooter", "is_reserved": 0, "fusion_lon": 0.0, "lat": 38.87548266666667, "rental_uris": {"ios": "https://dc.lft.to/lastmile_qr_scan", "android": "https://dc.lft.to/lastmile_qr_scan"}, "bike_id": "ec9d27a33eb0186b42fa11f3aa74ba2a", "fusion_lat": 0.0}, {"lon": -77.01932066666667, "name": "be63f82a55927a1e7eb81f2ab41107a1", "is_disabled": 0, "type": "electric_scooter", "is_reserved": 0, "fusion_lon": 0.0, "lat": 38.922548, "rental_uris": {"ios": "https://dc.lft.to/lastmile_qr_scan", "android": "https://dc.lft.to/lastmile_qr_scan"}, "bike_id": "be63f82a55927a1e7eb81f2ab41107a1", "fusion_lat": 0.0}, {"lon": -77.03541533333333, "name": "040be1ecc454fdf4a1a0359cbce8b990", "is_disabled": 0, "type": "electric_scooter", "is_reserved": 0, "fusion_lon": 0.0, "lat": 38.906538166666664, "rental_uris": {"ios": "https://dc.lft.to/lastmile_qr_scan", "android": "https://dc.lft.to/lastmile_qr_scan"}, "bike_id": "040be1ecc454fdf4a1a0359cbce8b990", "fusion_lat": 0.0}, {"lon": -77.026837, "name": "6bffc14790d63eea6f96ca6dce9710e5", "is_disabled": 0, "type": "electric_scooter", "is_reserved": 0, "fusion_lon": 0.0, "lat": 38.8976375, "rental_uris": {"ios": "https://dc.lft.to/lastmile_qr_scan", "android": "https://dc.lft.to/lastmile_qr_scan"}, "bike_id": "6bffc14790d63eea6f96ca6dce9710e5", "fusion_lat": 0.0}, {"lon": -76.97140766666666, "name": "9a4fa3f49c76abe301d8d9e914bb3379", "is_disabled": 0, "type": "electric_scooter", "is_reserved": 0, "fusion_lon": 0.0, "lat": 38.913564, "rental_uris": {"ios": "https://dc.lft.to/lastmile_qr_scan", "android": "https://dc.lft.to/lastmile_qr_scan"}, "bike_id": "9a4fa3f49c76abe301d8d9e914bb3379", "fusion_lat": 0.0}, {"lon": -77.03382016666667, "name": "8be3295f93d59e5a5de3bf5041f8e125", "is_disabled": 0, "type": "electric_scooter", "is_reserved": 0, "fusion_lon": 0.0, "lat": 38.92161733333333, "rental_uris": {"ios": "https://dc.lft.to/lastmile_qr_scan", "android": "https://dc.lft.to/lastmile_qr_scan"}, "bike_id": "8be3295f93d59e5a5de3bf5041f8e125", "fusion_lat": 0.0}, {"lon": -77.04637566666666, "name": "4b33ea89c7fb371177ddc5ea8ee00e2a", "is_disabled": 0, "type": "electric_scooter", "is_reserved": 0, "fusion_lon": 0.0, "lat": 38.922356666666666, "rental_uris": {"ios": "https://dc.lft.to/lastmile_qr_scan", "android": "https://dc.lft.to/lastmile_qr_scan"}, "bike_id": "4b33ea89c7fb371177ddc5ea8ee00e2a", "fusion_lat": 0.0}, {"lon": -77.00772866666667, "name": "9d4b646f71a7bf731ec1275eb47b28b9", "is_disabled": 0, "type": "electric_scooter", "is_reserved": 0, "fusion_lon": 0.0, "lat": 38.904882666666666, "rental_uris": {"ios": "https://dc.lft.to/lastmile_qr_scan", "android": "https://dc.lft.to/lastmile_qr_scan"}, "bike_id": "9d4b646f71a7bf731ec1275eb47b28b9", "fusion_lat": 0.0}, {"lon": -77.02540216666667, "name": "f2cb1cdab986fd53efdff2aaf7fa7fe5", "is_disabled": 0, "type": "electric_scooter", "is_reserved": 0, "fusion_lon": 0.0, "lat": 38.89596316666667, "rental_uris": {"ios": "https://dc.lft.to/lastmile_qr_scan", "android": "https://dc.lft.to/lastmile_qr_scan"}, "bike_id": "f2cb1cdab986fd53efdff2aaf7fa7fe5", "fusion_lat": 0.0}, {"lon": -77.01537783333333, "name": "a6e086076df67f7b151e4f9be255d49f", "is_disabled": 0, "type": "electric_scooter", "is_reserved": 0, "fusion_lon": 0.0, "lat": 38.920611666666666, "rental_uris": {"ios": "https://dc.lft.to/lastmile_qr_scan", "android": "https://dc.lft.to/lastmile_qr_scan"}, "bike_id": "a6e086076df67f7b151e4f9be255d49f", "fusion_lat": 0.0}, {"lon": -77.0033195, "name": "d17d7b1390960baebce085c924be6222", "is_disabled": 0, "type": "electric_scooter", "is_reserved": 0, "fusion_lon": 0.0, "lat": 38.89363766666666, "rental_uris": {"ios": "https://dc.lft.to/lastmile_qr_scan", "android": "https://dc.lft.to/lastmile_qr_scan"}, "bike_id": "d17d7b1390960baebce085c924be6222", "fusion_lat": 0.0}, {"lon": -77.053155, "name": "54e8831029574123a95294f81d9a1686", "is_disabled": 0, "type": "electric_scooter", "is_reserved": 0, "fusion_lon": 0.0, "lat": 38.934763333333336, "rental_uris": {"ios": "https://dc.lft.to/lastmile_qr_scan", "android": "https://dc.lft.to/lastmile_qr_scan"}, "bike_id": "54e8831029574123a95294f81d9a1686", "fusion_lat": 0.0}, {"lon": -77.00218333333333, "name": "3097637fc732fbca9ea93810c306e286", "is_disabled": 0, "type": "electric_scooter", "is_reserved": 0, "fusion_lon": 0.0, "lat": 38.873979166666665, "rental_uris": {"ios": "https://dc.lft.to/lastmile_qr_scan", "android": "https://dc.lft.to/lastmile_qr_scan"}, "bike_id": "3097637fc732fbca9ea93810c306e286", "fusion_lat": 0.0}, {"lon": -77.00069416666666, "name": "f6f6dca1a5c51f307be37bd082b96308", "is_disabled": 0, "type": "electric_scooter", "is_reserved": 0, "fusion_lon": 0.0, "lat": 38.92434866666667, "rental_uris": {"ios": "https://dc.lft.to/lastmile_qr_scan", "android": "https://dc.lft.to/lastmile_qr_scan"}, "bike_id": "f6f6dca1a5c51f307be37bd082b96308", "fusion_lat": 0.0}, {"lon": -77.03371933333334, "name": "46a1de83f00133fababf76327543d065", "is_disabled": 0, "type": "electric_scooter", "is_reserved": 0, "fusion_lon": 0.0, "lat": 38.93090733333333, "rental_uris": {"ios": "https://dc.lft.to/lastmile_qr_scan", "android": "https://dc.lft.to/lastmile_qr_scan"}, "bike_id": "46a1de83f00133fababf76327543d065", "fusion_lat": 0.0}, {"lon": -77.04902083333333, "name": "1558bc646fcab8b09c61f8728779c49f", "is_disabled": 0, "type": "electric_scooter", "is_reserved": 0, "fusion_lon": 0.0, "lat": 38.916011166666664, "rental_uris": {"ios": "https://dc.lft.to/lastmile_qr_scan", "android": "https://dc.lft.to/lastmile_qr_scan"}, "bike_id": "1558bc646fcab8b09c61f8728779c49f", "fusion_lat": 0.0}, {"lon": -77.0248085, "name": "125e11d1c836fb3e04a2aa726068ef53", "is_disabled": 0, "type": "electric_scooter", "is_reserved": 0, "fusion_lon": 0.0, "lat": 38.936250333333334, "rental_uris": {"ios": "https://dc.lft.to/lastmile_qr_scan", "android": "https://dc.lft.to/lastmile_qr_scan"}, "bike_id": "125e11d1c836fb3e04a2aa726068ef53", "fusion_lat": 0.0}, {"lon": -76.98024183333334, "name": "431949b9ffdbc685749768939fe34ed8", "is_disabled": 0, "type": "electric_bike", "is_reserved": 0, "fusion_lon": 0.0, "lat": 38.868253333333335, "rental_uris": {"ios": "https://dc.lft.to/lastmile_qr_scan", "android": "https://dc.lft.to/lastmile_qr_scan"}, "bike_id": "431949b9ffdbc685749768939fe34ed8", "fusion_lat": 0.0}, {"lon": -77.027063, "name": "b370f751e6c2d84f176030f36407243a", "is_disabled": 0, "type": "electric_scooter", "is_reserved": 0, "fusion_lon": 0.0, "lat": 38.9287985, "rental_uris": {"ios": "https://dc.lft.to/lastmile_qr_scan", "android": "https://dc.lft.to/lastmile_qr_scan"}, "bike_id": "b370f751e6c2d84f176030f36407243a", "fusion_lat": 0.0}, {"lon": -77.01981283333333, "name": "f71dab0706517ccce7e7021745b3e092", "is_disabled": 0, "type": "electric_scooter", "is_reserved": 0, "fusion_lon": 0.0, "lat": 38.8858005, "rental_uris": {"ios": "https://dc.lft.to/lastmile_qr_scan", "android": "https://dc.lft.to/lastmile_qr_scan"}, "bike_id": "f71dab0706517ccce7e7021745b3e092", "fusion_lat": 0.0}, {"lon": -76.980344, "name": "5e70757489e127b6beda820aa8707c46", "is_disabled": 0, "type": "electric_scooter", "is_reserved": 0, "fusion_lon": 0.0, "lat": 38.8896685, "rental_uris": {"ios": "https://dc.lft.to/lastmile_qr_scan", "android": "https://dc.lft.to/lastmile_qr_scan"}, "bike_id": "5e70757489e127b6beda820aa8707c46", "fusion_lat": 0.0}, {"lon": -76.94462416666667, "name": "0532ca5481f1a63fefacf7e13457fd91", "is_disabled": 0, "type": "electric_scooter", "is_reserved": 0, "fusion_lon": 0.0, "lat": 38.8903025, "rental_uris": {"ios": "https://dc.lft.to/lastmile_qr_scan", "android": "https://dc.lft.to/lastmile_qr_scan"}, "bike_id": "0532ca5481f1a63fefacf7e13457fd91", "fusion_lat": 0.0}, {"lon": -77.026042, "name": "45f329754fbde033f27228cd2eef8ae9", "is_disabled": 0, "type": "electric_scooter", "is_reserved": 0, "fusion_lon": 0.0, "lat": 38.8973695, "rental_uris": {"ios": "https://dc.lft.to/lastmile_qr_scan", "android": "https://dc.lft.to/lastmile_qr_scan"}, "bike_id": "45f329754fbde033f27228cd2eef8ae9", "fusion_lat": 0.0}, {"lon": -77.0317395, "name": "4b7ef9f8059ba32476143643898b03a9", "is_disabled": 0, "type": "electric_scooter", "is_reserved": 0, "fusion_lon": 0.0, "lat": 38.90742683333333, "rental_uris": {"ios": "https://dc.lft.to/lastmile_qr_scan", "android": "https://dc.lft.to/lastmile_qr_scan"}, "bike_id": "4b7ef9f8059ba32476143643898b03a9", "fusion_lat": 0.0}, {"lon": -77.00339783333334, "name": "c7976da1ee1f28d5b2b622c0647f601f", "is_disabled": 0, "type": "electric_scooter", "is_reserved": 0, "fusion_lon": 0.0, "lat": 38.9226555, "rental_uris": {"ios": "https://dc.lft.to/lastmile_qr_scan", "android": "https://dc.lft.to/lastmile_qr_scan"}, "bike_id": "c7976da1ee1f28d5b2b622c0647f601f", "fusion_lat": 0.0}, {"lon": -77.0341465, "name": "ea9a8aebda14046f0ed0db31fea6abc9", "is_disabled": 0, "type": "electric_scooter", "is_reserved": 0, "fusion_lon": 0.0, "lat": 38.9238405, "rental_uris": {"ios": "https://dc.lft.to/lastmile_qr_scan", "android": "https://dc.lft.to/lastmile_qr_scan"}, "bike_id": "ea9a8aebda14046f0ed0db31fea6abc9", "fusion_lat": 0.0}, {"lon": -77.0249495, "name": "b4455d8c2ea2cf04ed023763b1f08059", "is_disabled": 0, "type": "electric_scooter", "is_reserved": 0, "fusion_lon": 0.0, "lat": 38.92085383333333, "rental_uris": {"ios": "https://dc.lft.to/lastmile_qr_scan", "android": "https://dc.lft.to/lastmile_qr_scan"}, "bike_id": "b4455d8c2ea2cf04ed023763b1f08059", "fusion_lat": 0.0}, {"lon": -77.0480255, "name": "62f7332f6199f154cb80d61a96ac099a", "is_disabled": 0, "type": "electric_scooter", "is_reserved": 0, "fusion_lon": 0.0, "lat": 38.9022335, "rental_uris": {"ios": "https://dc.lft.to/lastmile_qr_scan", "android": "https://dc.lft.to/lastmile_qr_scan"}, "bike_id": "62f7332f6199f154cb80d61a96ac099a", "fusion_lat": 0.0}, {"lon": -77.0187185, "name": "37562f52487d3a3f9b2bceb860a9dbb4", "is_disabled": 0, "type": "electric_scooter", "is_reserved": 0, "fusion_lon": 0.0, "lat": 38.93200616666667, "rental_uris": {"ios": "https://dc.lft.to/lastmile_qr_scan", "android": "https://dc.lft.to/lastmile_qr_scan"}, "bike_id": "37562f52487d3a3f9b2bceb860a9dbb4", "fusion_lat": 0.0}, {"lon": -77.027144, "name": "2f5a84ec12349ee2766ac861e7d0f6bb", "is_disabled": 0, "type": "electric_scooter", "is_reserved": 0, "fusion_lon": 0.0, "lat": 38.91690916666667, "rental_uris": {"ios": "https://dc.lft.to/lastmile_qr_scan", "android": "https://dc.lft.to/lastmile_qr_scan"}, "bike_id": "2f5a84ec12349ee2766ac861e7d0f6bb", "fusion_lat": 0.0}, {"lon": -77.015563, "name": "24cd7f6c2adaeccc60f4288369a98fb3", "is_disabled": 0, "type": "electric_scooter", "is_reserved": 0, "fusion_lon": 0.0, "lat": 38.8922165, "rental_uris": {"ios": "https://dc.lft.to/lastmile_qr_scan", "android": "https://dc.lft.to/lastmile_qr_scan"}, "bike_id": "24cd7f6c2adaeccc60f4288369a98fb3", "fusion_lat": 0.0}, {"lon": -76.99789733333333, "name": "fa19c19681e0dd357982953b618561db", "is_disabled": 0, "type": "electric_scooter", "is_reserved": 0, "fusion_lon": 0.0, "lat": 38.880045, "rental_uris": {"ios": "https://dc.lft.to/lastmile_qr_scan", "android": "https://dc.lft.to/lastmile_qr_scan"}, "bike_id": "fa19c19681e0dd357982953b618561db", "fusion_lat": 0.0}, {"lon": -77.03732083333334, "name": "2e9664fc616223f2bd62cfda6b934d76", "is_disabled": 0, "type": "electric_scooter", "is_reserved": 0, "fusion_lon": 0.0, "lat": 38.91129466666667, "rental_uris": {"ios": "https://dc.lft.to/lastmile_qr_scan", "android": "https://dc.lft.to/lastmile_qr_scan"}, "bike_id": "2e9664fc616223f2bd62cfda6b934d76", "fusion_lat": 0.0}, {"lon": -77.02947116666667, "name": "20fdc414d1e4290d5cbbb27b04aef32e", "is_disabled": 0, "type": "electric_scooter", "is_reserved": 0, "fusion_lon": 0.0, "lat": 38.9397455, "rental_uris": {"ios": "https://dc.lft.to/lastmile_qr_scan", "android": "https://dc.lft.to/lastmile_qr_scan"}, "bike_id": "20fdc414d1e4290d5cbbb27b04aef32e", "fusion_lat": 0.0}, {"lon": -77.0316765, "name": "20ec67014dd76f475207ec6acf4c1fcb", "is_disabled": 0, "type": "electric_scooter", "is_reserved": 0, "fusion_lon": 0.0, "lat": 38.915658666666666, "rental_uris": {"ios": "https://dc.lft.to/lastmile_qr_scan", "android": "https://dc.lft.to/lastmile_qr_scan"}, "bike_id": "20ec67014dd76f475207ec6acf4c1fcb", "fusion_lat": 0.0}, {"lon": -77.02201666666667, "name": "108b5bf8d22357faf79f56fe29732498", "is_disabled": 0, "type": "electric_scooter", "is_reserved": 0, "fusion_lon": 0.0, "lat": 38.88615933333333, "rental_uris": {"ios": "https://dc.lft.to/lastmile_qr_scan", "android": "https://dc.lft.to/lastmile_qr_scan"}, "bike_id": "108b5bf8d22357faf79f56fe29732498", "fusion_lat": 0.0}, {"lon": -77.03642216666667, "name": "c7fa023a20ac0f118da96820e6554c1d", "is_disabled": 0, "type": "electric_scooter", "is_reserved": 0, "fusion_lon": 0.0, "lat": 38.903022166666666, "rental_uris": {"ios": "https://dc.lft.to/lastmile_qr_scan", "android": "https://dc.lft.to/lastmile_qr_scan"}, "bike_id": "c7fa023a20ac0f118da96820e6554c1d", "fusion_lat": 0.0}, {"lon": -77.02597116666666, "name": "90f6ea75efa647e8b822c6e7f1ec0300", "is_disabled": 0, "type": "electric_scooter", "is_reserved": 0, "fusion_lon": 0.0, "lat": 38.906002, "rental_uris": {"ios": "https://dc.lft.to/lastmile_qr_scan", "android": "https://dc.lft.to/lastmile_qr_scan"}, "bike_id": "90f6ea75efa647e8b822c6e7f1ec0300", "fusion_lat": 0.0}, {"lon": -76.98838483333333, "name": "e84060644a9edb59eb159d93efcb42e9", "is_disabled": 0, "type": "electric_scooter", "is_reserved": 0, "fusion_lon": 0.0, "lat": 38.9018235, "rental_uris": {"ios": "https://dc.lft.to/lastmile_qr_scan", "android": "https://dc.lft.to/lastmile_qr_scan"}, "bike_id": "e84060644a9edb59eb159d93efcb42e9", "fusion_lat": 0.0}, {"lon": -77.0250505, "name": "acec54bb44d9fa6ed0a8e6d82b1d0857", "is_disabled": 0, "type": "electric_scooter", "is_reserved": 0, "fusion_lon": 0.0, "lat": 38.92105083333333, "rental_uris": {"ios": "https://dc.lft.to/lastmile_qr_scan", "android": "https://dc.lft.to/lastmile_qr_scan"}, "bike_id": "acec54bb44d9fa6ed0a8e6d82b1d0857", "fusion_lat": 0.0}, {"lon": -77.03495866666667, "name": "f0fcb06c1280721eb6fefcb3b41cb745", "is_disabled": 0, "type": "electric_scooter", "is_reserved": 0, "fusion_lon": 0.0, "lat": 38.9163495, "rental_uris": {"ios": "https://dc.lft.to/lastmile_qr_scan", "android": "https://dc.lft.to/lastmile_qr_scan"}, "bike_id": "f0fcb06c1280721eb6fefcb3b41cb745", "fusion_lat": 0.0}, {"lon": -77.02587383333334, "name": "961bb8bd1dc30937a9a840a32ef15f80", "is_disabled": 0, "type": "electric_scooter", "is_reserved": 0, "fusion_lon": 0.0, "lat": 38.8987185, "rental_uris": {"ios": "https://dc.lft.to/lastmile_qr_scan", "android": "https://dc.lft.to/lastmile_qr_scan"}, "bike_id": "961bb8bd1dc30937a9a840a32ef15f80", "fusion_lat": 0.0}, {"lon": -76.98369366666667, "name": "f19cbf8d80209c87e39c102f00ce75af", "is_disabled": 0, "type": "electric_scooter", "is_reserved": 0, "fusion_lon": 0.0, "lat": 38.892800666666666, "rental_uris": {"ios": "https://dc.lft.to/lastmile_qr_scan", "android": "https://dc.lft.to/lastmile_qr_scan"}, "bike_id": "f19cbf8d80209c87e39c102f00ce75af", "fusion_lat": 0.0}, {"lon": -77.01984883333333, "name": "d92a69ac4897298c54785f8c488a25ef", "is_disabled": 0, "type": "electric_scooter", "is_reserved": 0, "fusion_lon": 0.0, "lat": 38.915630666666665, "rental_uris": {"ios": "https://dc.lft.to/lastmile_qr_scan", "android": "https://dc.lft.to/lastmile_qr_scan"}, "bike_id": "d92a69ac4897298c54785f8c488a25ef", "fusion_lat": 0.0}, {"lon": -77.021211, "name": "9d3fe7c87c316482307d3c9541e29d56", "is_disabled": 0, "type": "electric_scooter", "is_reserved": 0, "fusion_lon": 0.0, "lat": 38.93108683333333, "rental_uris": {"ios": "https://dc.lft.to/lastmile_qr_scan", "android": "https://dc.lft.to/lastmile_qr_scan"}, "bike_id": "9d3fe7c87c316482307d3c9541e29d56", "fusion_lat": 0.0}, {"lon": -77.05521316666666, "name": "b77e89a40555e51fe181651e8d45d2ba", "is_disabled": 0, "type": "electric_scooter", "is_reserved": 0, "fusion_lon": 0.0, "lat": 38.89735433333333, "rental_uris": {"ios": "https://dc.lft.to/lastmile_qr_scan", "android": "https://dc.lft.to/lastmile_qr_scan"}, "bike_id": "b77e89a40555e51fe181651e8d45d2ba", "fusion_lat": 0.0}, {"lon": -77.01810733333333, "name": "3fdebc7675dcf4ee743afb5110983bcb", "is_disabled": 0, "type": "electric_scooter", "is_reserved": 0, "fusion_lon": 0.0, "lat": 38.92149883333333, "rental_uris": {"ios": "https://dc.lft.to/lastmile_qr_scan", "android": "https://dc.lft.to/lastmile_qr_scan"}, "bike_id": "3fdebc7675dcf4ee743afb5110983bcb", "fusion_lat": 0.0}, {"lon": -77.0114845, "name": "d96abd072e154a76244a4fb43419bc14", "is_disabled": 0, "type": "electric_scooter", "is_reserved": 0, "fusion_lon": 0.0, "lat": 38.91115666666666, "rental_uris": {"ios": "https://dc.lft.to/lastmile_qr_scan", "android": "https://dc.lft.to/lastmile_qr_scan"}, "bike_id": "d96abd072e154a76244a4fb43419bc14", "fusion_lat": 0.0}, {"lon": -77.0600125, "name": "e50f2f5090221d2194d3e85daa7f6dc2", "is_disabled": 0, "type": "electric_scooter", "is_reserved": 0, "fusion_lon": 0.0, "lat": 38.927172, "rental_uris": {"ios": "https://dc.lft.to/lastmile_qr_scan", "android": "https://dc.lft.to/lastmile_qr_scan"}, "bike_id": "e50f2f5090221d2194d3e85daa7f6dc2", "fusion_lat": 0.0}, {"lon": -77.04178983333334, "name": "237fa191561f38d9d2621de30d829fca", "is_disabled": 0, "type": "electric_scooter", "is_reserved": 0, "fusion_lon": 0.0, "lat": 38.920704, "rental_uris": {"ios": "https://dc.lft.to/lastmile_qr_scan", "android": "https://dc.lft.to/lastmile_qr_scan"}, "bike_id": "237fa191561f38d9d2621de30d829fca", "fusion_lat": 0.0}, {"lon": -76.93218916666666, "name": "300667249b55bd5be07bdf97f2324cc1", "is_disabled": 0, "type": "electric_scooter", "is_reserved": 0, "fusion_lon": 0.0, "lat": 38.88056866666667, "rental_uris": {"ios": "https://dc.lft.to/lastmile_qr_scan", "android": "https://dc.lft.to/lastmile_qr_scan"}, "bike_id": "300667249b55bd5be07bdf97f2324cc1", "fusion_lat": 0.0}, {"lon": -77.02592616666666, "name": "647fd8c5197bb76f1a151604b5f8e320", "is_disabled": 0, "type": "electric_scooter", "is_reserved": 0, "fusion_lon": 0.0, "lat": 38.91881716666666, "rental_uris": {"ios": "https://dc.lft.to/lastmile_qr_scan", "android": "https://dc.lft.to/lastmile_qr_scan"}, "bike_id": "647fd8c5197bb76f1a151604b5f8e320", "fusion_lat": 0.0}, {"lon": -77.0213175, "name": "4eba134577ff915ceee0eeabc3e6949d", "is_disabled": 0, "type": "electric_scooter", "is_reserved": 0, "fusion_lon": 0.0, "lat": 38.92422333333333, "rental_uris": {"ios": "https://dc.lft.to/lastmile_qr_scan", "android": "https://dc.lft.to/lastmile_qr_scan"}, "bike_id": "4eba134577ff915ceee0eeabc3e6949d", "fusion_lat": 0.0}, {"lon": -77.01956533333333, "name": "58c10d2a179f6682c17a1723350d0ac6", "is_disabled": 0, "type": "electric_scooter", "is_reserved": 0, "fusion_lon": 0.0, "lat": 38.96751116666667, "rental_uris": {"ios": "https://dc.lft.to/lastmile_qr_scan", "android": "https://dc.lft.to/lastmile_qr_scan"}, "bike_id": "58c10d2a179f6682c17a1723350d0ac6", "fusion_lat": 0.0}, {"lon": -77.0378595, "name": "05dbd959cc57a8308aca161c8d2312f2", "is_disabled": 0, "type": "electric_scooter", "is_reserved": 0, "fusion_lon": 0.0, "lat": 38.92791583333333, "rental_uris": {"ios": "https://dc.lft.to/lastmile_qr_scan", "android": "https://dc.lft.to/lastmile_qr_scan"}, "bike_id": "05dbd959cc57a8308aca161c8d2312f2", "fusion_lat": 0.0}, {"lon": -77.039219, "name": "0bf2a44f2d5799799375290ada88c361", "is_disabled": 0, "type": "electric_scooter", "is_reserved": 0, "fusion_lon": 0.0, "lat": 38.924820833333335, "rental_uris": {"ios": "https://dc.lft.to/lastmile_qr_scan", "android": "https://dc.lft.to/lastmile_qr_scan"}, "bike_id": "0bf2a44f2d5799799375290ada88c361", "fusion_lat": 0.0}, {"lon": -77.0497405, "name": "c16387afd3c0c1167f6a76ca77d6c5c7", "is_disabled": 0, "type": "electric_scooter", "is_reserved": 0, "fusion_lon": 0.0, "lat": 38.8978925, "rental_uris": {"ios": "https://dc.lft.to/lastmile_qr_scan", "android": "https://dc.lft.to/lastmile_qr_scan"}, "bike_id": "c16387afd3c0c1167f6a76ca77d6c5c7", "fusion_lat": 0.0}, {"lon": -76.98235016666666, "name": "402e64b2666cbb0942318b80ce4fa610", "is_disabled": 0, "type": "electric_scooter", "is_reserved": 0, "fusion_lon": 0.0, "lat": 38.908941, "rental_uris": {"ios": "https://dc.lft.to/lastmile_qr_scan", "android": "https://dc.lft.to/lastmile_qr_scan"}, "bike_id": "402e64b2666cbb0942318b80ce4fa610", "fusion_lat": 0.0}, {"lon": -77.02098983333333, "name": "c8740579d100b8a48f2b788279f83194", "is_disabled": 0, "type": "electric_scooter", "is_reserved": 0, "fusion_lon": 0.0, "lat": 38.93118833333333, "rental_uris": {"ios": "https://dc.lft.to/lastmile_qr_scan", "android": "https://dc.lft.to/lastmile_qr_scan"}, "bike_id": "c8740579d100b8a48f2b788279f83194", "fusion_lat": 0.0}, {"lon": -77.01033233333334, "name": "53a3eba976b3d79342b2c352468540b6", "is_disabled": 0, "type": "electric_bike", "is_reserved": 0, "fusion_lon": 0.0, "lat": 38.9588255, "rental_uris": {"ios": "https://dc.lft.to/lastmile_qr_scan", "android": "https://dc.lft.to/lastmile_qr_scan"}, "bike_id": "53a3eba976b3d79342b2c352468540b6", "fusion_lat": 0.0}, {"lon": -77.032046, "name": "5bea3d3b00b749a0c8135da82318a742", "is_disabled": 0, "type": "electric_scooter", "is_reserved": 0, "fusion_lon": 0.0, "lat": 38.930503, "rental_uris": {"ios": "https://dc.lft.to/lastmile_qr_scan", "android": "https://dc.lft.to/lastmile_qr_scan"}, "bike_id": "5bea3d3b00b749a0c8135da82318a742", "fusion_lat": 0.0}, {"lon": -77.0271975, "name": "6742a45a2b514b8d11083a1b84459048", "is_disabled": 0, "type": "electric_scooter", "is_reserved": 0, "fusion_lon": 0.0, "lat": 38.92481216666667, "rental_uris": {"ios": "https://dc.lft.to/lastmile_qr_scan", "android": "https://dc.lft.to/lastmile_qr_scan"}, "bike_id": "6742a45a2b514b8d11083a1b84459048", "fusion_lat": 0.0}, {"lon": -77.04142616666667, "name": "4dcb37004015a8e24249517dcfe2b5d9", "is_disabled": 0, "type": "electric_scooter", "is_reserved": 0, "fusion_lon": 0.0, "lat": 38.93469833333333, "rental_uris": {"ios": "https://dc.lft.to/lastmile_qr_scan", "android": "https://dc.lft.to/lastmile_qr_scan"}, "bike_id": "4dcb37004015a8e24249517dcfe2b5d9", "fusion_lat": 0.0}, {"lon": -77.02796266666667, "name": "17e11b63319ed285d869c84b52122ce7", "is_disabled": 0, "type": "electric_scooter", "is_reserved": 0, "fusion_lon": 0.0, "lat": 38.924762, "rental_uris": {"ios": "https://dc.lft.to/lastmile_qr_scan", "android": "https://dc.lft.to/lastmile_qr_scan"}, "bike_id": "17e11b63319ed285d869c84b52122ce7", "fusion_lat": 0.0}, {"lon": -77.02301983333334, "name": "a042da68362ee5891c8e50c81b1179a6", "is_disabled": 0, "type": "electric_bike", "is_reserved": 0, "fusion_lon": 0.0, "lat": 38.966799333333334, "rental_uris": {"ios": "https://dc.lft.to/lastmile_qr_scan", "android": "https://dc.lft.to/lastmile_qr_scan"}, "bike_id": "a042da68362ee5891c8e50c81b1179a6", "fusion_lat": 0.0}, {"lon": -77.0407885, "name": "2b80c0d876e61627171d2cc61c65c832", "is_disabled": 0, "type": "electric_bike", "is_reserved": 0, "fusion_lon": 0.0, "lat": 38.83069416666667, "rental_uris": {"ios": "https://dc.lft.to/lastmile_qr_scan", "android": "https://dc.lft.to/lastmile_qr_scan"}, "bike_id": "2b80c0d876e61627171d2cc61c65c832", "fusion_lat": 0.0}, {"lon": -77.01207533333333, "name": "d63cbf9226efa5ef83dcf8e6ae30c1df", "is_disabled": 0, "type": "electric_scooter", "is_reserved": 0, "fusion_lon": 0.0, "lat": 38.92120516666667, "rental_uris": {"ios": "https://dc.lft.to/lastmile_qr_scan", "android": "https://dc.lft.to/lastmile_qr_scan"}, "bike_id": "d63cbf9226efa5ef83dcf8e6ae30c1df", "fusion_lat": 0.0}, {"lon": -76.98546883333333, "name": "ee374dd2dc56a3881238f4532225b574", "is_disabled": 0, "type": "electric_scooter", "is_reserved": 0, "fusion_lon": 0.0, "lat": 38.886129833333335, "rental_uris": {"ios": "https://dc.lft.to/lastmile_qr_scan", "android": "https://dc.lft.to/lastmile_qr_scan"}, "bike_id": "ee374dd2dc56a3881238f4532225b574", "fusion_lat": 0.0}, {"lon": -77.0221805, "name": "e0bd859301b76c7ef590f16f6f768392", "is_disabled": 0, "type": "electric_scooter", "is_reserved": 0, "fusion_lon": 0.0, "lat": 38.89999983333333, "rental_uris": {"ios": "https://dc.lft.to/lastmile_qr_scan", "android": "https://dc.lft.to/lastmile_qr_scan"}, "bike_id": "e0bd859301b76c7ef590f16f6f768392", "fusion_lat": 0.0}, {"lon": -77.02164166666667, "name": "e2cd1a1fbb59d8a86365d9b57b569280", "is_disabled": 0, "type": "electric_scooter", "is_reserved": 0, "fusion_lon": 0.0, "lat": 38.893836666666665, "rental_uris": {"ios": "https://dc.lft.to/lastmile_qr_scan", "android": "https://dc.lft.to/lastmile_qr_scan"}, "bike_id": "e2cd1a1fbb59d8a86365d9b57b569280", "fusion_lat": 0.0}, {"lon": -76.98538883333333, "name": "420236edc6e05beb420f3f150a51b896", "is_disabled": 0, "type": "electric_scooter", "is_reserved": 0, "fusion_lon": 0.0, "lat": 38.883566333333334, "rental_uris": {"ios": "https://dc.lft.to/lastmile_qr_scan", "android": "https://dc.lft.to/lastmile_qr_scan"}, "bike_id": "420236edc6e05beb420f3f150a51b896", "fusion_lat": 0.0}, {"lon": -76.97206533333333, "name": "6308541a816488a0355b76f09f9b138c", "is_disabled": 0, "type": "electric_scooter", "is_reserved": 0, "fusion_lon": 0.0, "lat": 38.9255335, "rental_uris": {"ios": "https://dc.lft.to/lastmile_qr_scan", "android": "https://dc.lft.to/lastmile_qr_scan"}, "bike_id": "6308541a816488a0355b76f09f9b138c", "fusion_lat": 0.0}, {"lon": -77.03077, "name": "4c23fa18e0a292250adf4b737d90abc5", "is_disabled": 0, "type": "electric_scooter", "is_reserved": 0, "fusion_lon": 0.0, "lat": 38.9328465, "rental_uris": {"ios": "https://dc.lft.to/lastmile_qr_scan", "android": "https://dc.lft.to/lastmile_qr_scan"}, "bike_id": "4c23fa18e0a292250adf4b737d90abc5", "fusion_lat": 0.0}, {"lon": -77.02026966666666, "name": "60e0c79d4e26eb3d3db3d8900e8986a0", "is_disabled": 0, "type": "electric_scooter", "is_reserved": 0, "fusion_lon": 0.0, "lat": 38.921247, "rental_uris": {"ios": "https://dc.lft.to/lastmile_qr_scan", "android": "https://dc.lft.to/lastmile_qr_scan"}, "bike_id": "60e0c79d4e26eb3d3db3d8900e8986a0", "fusion_lat": 0.0}, {"lon": -77.0321285, "name": "6901771d3453008ce002455ae7335418", "is_disabled": 0, "type": "electric_scooter", "is_reserved": 0, "fusion_lon": 0.0, "lat": 38.912319333333336, "rental_uris": {"ios": "https://dc.lft.to/lastmile_qr_scan", "android": "https://dc.lft.to/lastmile_qr_scan"}, "bike_id": "6901771d3453008ce002455ae7335418", "fusion_lat": 0.0}, {"lon": -77.03379266666667, "name": "eeda8fd41075653ba7b00bee9a4b8861", "is_disabled": 0, "type": "electric_scooter", "is_reserved": 0, "fusion_lon": 0.0, "lat": 38.921566, "rental_uris": {"ios": "https://dc.lft.to/lastmile_qr_scan", "android": "https://dc.lft.to/lastmile_qr_scan"}, "bike_id": "eeda8fd41075653ba7b00bee9a4b8861", "fusion_lat": 0.0}, {"lon": -77.009649, "name": "3ebfd44887a76de9e526d90adb98c42b", "is_disabled": 0, "type": "electric_scooter", "is_reserved": 0, "fusion_lon": 0.0, "lat": 38.87633533333333, "rental_uris": {"ios": "https://dc.lft.to/lastmile_qr_scan", "android": "https://dc.lft.to/lastmile_qr_scan"}, "bike_id": "3ebfd44887a76de9e526d90adb98c42b", "fusion_lat": 0.0}, {"lon": -77.0122135, "name": "2d4d229aa3edbca1c22998f548487a57", "is_disabled": 0, "type": "electric_scooter", "is_reserved": 0, "fusion_lon": 0.0, "lat": 38.900173833333334, "rental_uris": {"ios": "https://dc.lft.to/lastmile_qr_scan", "android": "https://dc.lft.to/lastmile_qr_scan"}, "bike_id": "2d4d229aa3edbca1c22998f548487a57", "fusion_lat": 0.0}, {"lon": -77.05133833333333, "name": "b0b745532abcc4903a2cc3cf13a9ee09", "is_disabled": 0, "type": "electric_scooter", "is_reserved": 0, "fusion_lon": 0.0, "lat": 38.896525833333335, "rental_uris": {"ios": "https://dc.lft.to/lastmile_qr_scan", "android": "https://dc.lft.to/lastmile_qr_scan"}, "bike_id": "b0b745532abcc4903a2cc3cf13a9ee09", "fusion_lat": 0.0}, {"lon": -77.028281, "name": "540ba56510bde0a9ecce1965ded9d0c0", "is_disabled": 0, "type": "electric_scooter", "is_reserved": 0, "fusion_lon": 0.0, "lat": 38.922285333333335, "rental_uris": {"ios": "https://dc.lft.to/lastmile_qr_scan", "android": "https://dc.lft.to/lastmile_qr_scan"}, "bike_id": "540ba56510bde0a9ecce1965ded9d0c0", "fusion_lat": 0.0}, {"lon": -77.03289283333334, "name": "662f3852fc9c7d67d32845d1b9be37db", "is_disabled": 0, "type": "electric_scooter", "is_reserved": 0, "fusion_lon": 0.0, "lat": 38.935386666666666, "rental_uris": {"ios": "https://dc.lft.to/lastmile_qr_scan", "android": "https://dc.lft.to/lastmile_qr_scan"}, "bike_id": "662f3852fc9c7d67d32845d1b9be37db", "fusion_lat": 0.0}, {"lon": -77.02169716666667, "name": "38c54f57c5e61ffe6ab07add7cd6cea4", "is_disabled": 0, "type": "electric_bike", "is_reserved": 0, "fusion_lon": 0.0, "lat": 38.95744166666667, "rental_uris": {"ios": "https://dc.lft.to/lastmile_qr_scan", "android": "https://dc.lft.to/lastmile_qr_scan"}, "bike_id": "38c54f57c5e61ffe6ab07add7cd6cea4", "fusion_lat": 0.0}, {"lon": -77.0211805, "name": "1fbcf6525e8457013893b5c11a66658c", "is_disabled": 0, "type": "electric_scooter", "is_reserved": 0, "fusion_lon": 0.0, "lat": 38.917419333333335, "rental_uris": {"ios": "https://dc.lft.to/lastmile_qr_scan", "android": "https://dc.lft.to/lastmile_qr_scan"}, "bike_id": "1fbcf6525e8457013893b5c11a66658c", "fusion_lat": 0.0}, {"lon": -77.00336966666667, "name": "e24a7ef6f786ee1979fe59d3169b5610", "is_disabled": 0, "type": "electric_scooter", "is_reserved": 0, "fusion_lon": 0.0, "lat": 38.87670383333333, "rental_uris": {"ios": "https://dc.lft.to/lastmile_qr_scan", "android": "https://dc.lft.to/lastmile_qr_scan"}, "bike_id": "e24a7ef6f786ee1979fe59d3169b5610", "fusion_lat": 0.0}, {"lon": -77.04018783333333, "name": "f815380e5db15f0577c0696bf7c601d6", "is_disabled": 0, "type": "electric_scooter", "is_reserved": 0, "fusion_lon": 0.0, "lat": 38.921740666666665, "rental_uris": {"ios": "https://dc.lft.to/lastmile_qr_scan", "android": "https://dc.lft.to/lastmile_qr_scan"}, "bike_id": "f815380e5db15f0577c0696bf7c601d6", "fusion_lat": 0.0}, {"lon": -76.90744816666667, "name": "368bf3d1e18fdc020c6a02f8ab747b18", "is_disabled": 0, "type": "electric_bike", "is_reserved": 0, "fusion_lon": 0.0, "lat": 38.8962025, "rental_uris": {"ios": "https://dc.lft.to/lastmile_qr_scan", "android": "https://dc.lft.to/lastmile_qr_scan"}, "bike_id": "368bf3d1e18fdc020c6a02f8ab747b18", "fusion_lat": 0.0}, {"lon": -76.97223933333333, "name": "bfc1f17fb637941a62bbc98e2c878911", "is_disabled": 0, "type": "electric_bike", "is_reserved": 0, "fusion_lon": 0.0, "lat": 38.900296833333336, "rental_uris": {"ios": "https://dc.lft.to/lastmile_qr_scan", "android": "https://dc.lft.to/lastmile_qr_scan"}, "bike_id": "bfc1f17fb637941a62bbc98e2c878911", "fusion_lat": 0.0}, {"lon": -77.0279235, "name": "6b418fc2efec3ff542feb4750e909b8b", "is_disabled": 0, "type": "electric_scooter", "is_reserved": 0, "fusion_lon": 0.0, "lat": 38.930834, "rental_uris": {"ios": "https://dc.lft.to/lastmile_qr_scan", "android": "https://dc.lft.to/lastmile_qr_scan"}, "bike_id": "6b418fc2efec3ff542feb4750e909b8b", "fusion_lat": 0.0}, {"lon": -76.92440666666667, "name": "69bd61df41d4882802ea3e8c3c31302e", "is_disabled": 0, "type": "electric_scooter", "is_reserved": 0, "fusion_lon": 0.0, "lat": 38.885194, "rental_uris": {"ios": "https://dc.lft.to/lastmile_qr_scan", "android": "https://dc.lft.to/lastmile_qr_scan"}, "bike_id": "69bd61df41d4882802ea3e8c3c31302e", "fusion_lat": 0.0}, {"lon": -76.97591116666666, "name": "7aaf22f9c040be1ed9e34db928f7e78c", "is_disabled": 0, "type": "electric_scooter", "is_reserved": 0, "fusion_lon": 0.0, "lat": 38.90335066666667, "rental_uris": {"ios": "https://dc.lft.to/lastmile_qr_scan", "android": "https://dc.lft.to/lastmile_qr_scan"}, "bike_id": "7aaf22f9c040be1ed9e34db928f7e78c", "fusion_lat": 0.0}, {"lon": -77.04106616666667, "name": "0d98d80624226e4475af42e0c5b0ee46", "is_disabled": 0, "type": "electric_scooter", "is_reserved": 0, "fusion_lon": 0.0, "lat": 38.89224766666667, "rental_uris": {"ios": "https://dc.lft.to/lastmile_qr_scan", "android": "https://dc.lft.to/lastmile_qr_scan"}, "bike_id": "0d98d80624226e4475af42e0c5b0ee46", "fusion_lat": 0.0}, {"lon": -77.02243, "name": "659061da40db7ad28675cf35d21b6595", "is_disabled": 0, "type": "electric_scooter", "is_reserved": 0, "fusion_lon": 0.0, "lat": 38.92433416666667, "rental_uris": {"ios": "https://dc.lft.to/lastmile_qr_scan", "android": "https://dc.lft.to/lastmile_qr_scan"}, "bike_id": "659061da40db7ad28675cf35d21b6595", "fusion_lat": 0.0}, {"lon": -77.02176266666666, "name": "8445e6aa2ce999eb4563976aec6edfff", "is_disabled": 0, "type": "electric_scooter", "is_reserved": 0, "fusion_lon": 0.0, "lat": 38.9013325, "rental_uris": {"ios": "https://dc.lft.to/lastmile_qr_scan", "android": "https://dc.lft.to/lastmile_qr_scan"}, "bike_id": "8445e6aa2ce999eb4563976aec6edfff", "fusion_lat": 0.0}, {"lon": -77.0119495, "name": "7c0113ecb80d3b00333ae3965d9ae356", "is_disabled": 0, "type": "electric_scooter", "is_reserved": 0, "fusion_lon": 0.0, "lat": 38.91701833333333, "rental_uris": {"ios": "https://dc.lft.to/lastmile_qr_scan", "android": "https://dc.lft.to/lastmile_qr_scan"}, "bike_id": "7c0113ecb80d3b00333ae3965d9ae356", "fusion_lat": 0.0}, {"lon": -77.0213605, "name": "a67121c4d5e24b50541bdea5e09f4412", "is_disabled": 0, "type": "electric_scooter", "is_reserved": 0, "fusion_lon": 0.0, "lat": 38.93308, "rental_uris": {"ios": "https://dc.lft.to/lastmile_qr_scan", "android": "https://dc.lft.to/lastmile_qr_scan"}, "bike_id": "a67121c4d5e24b50541bdea5e09f4412", "fusion_lat": 0.0}, {"lon": -77.01506233333333, "name": "62eddbb9499d51850fb7014a650ba79d", "is_disabled": 0, "type": "electric_scooter", "is_reserved": 0, "fusion_lon": 0.0, "lat": 38.910047166666665, "rental_uris": {"ios": "https://dc.lft.to/lastmile_qr_scan", "android": "https://dc.lft.to/lastmile_qr_scan"}, "bike_id": "62eddbb9499d51850fb7014a650ba79d", "fusion_lat": 0.0}, {"lon": -77.03168216666667, "name": "d8d1da063a5031e13487c6c73135f457", "is_disabled": 0, "type": "electric_scooter", "is_reserved": 0, "fusion_lon": 0.0, "lat": 38.89233866666667, "rental_uris": {"ios": "https://dc.lft.to/lastmile_qr_scan", "android": "https://dc.lft.to/lastmile_qr_scan"}, "bike_id": "d8d1da063a5031e13487c6c73135f457", "fusion_lat": 0.0}, {"lon": -77.02185216666666, "name": "1814d479782fd3728d8cb16c6e500f6d", "is_disabled": 0, "type": "electric_scooter", "is_reserved": 0, "fusion_lon": 0.0, "lat": 38.914833333333334, "rental_uris": {"ios": "https://dc.lft.to/lastmile_qr_scan", "android": "https://dc.lft.to/lastmile_qr_scan"}, "bike_id": "1814d479782fd3728d8cb16c6e500f6d", "fusion_lat": 0.0}, {"lon": -77.02383516666667, "name": "c4f78258a465d2221cce27855e389f5e", "is_disabled": 0, "type": "electric_scooter", "is_reserved": 0, "fusion_lon": 0.0, "lat": 38.91653616666667, "rental_uris": {"ios": "https://dc.lft.to/lastmile_qr_scan", "android": "https://dc.lft.to/lastmile_qr_scan"}, "bike_id": "c4f78258a465d2221cce27855e389f5e", "fusion_lat": 0.0}, {"lon": -77.0462035, "name": "fe04c16444511ad1866cf558f7518448", "is_disabled": 0, "type": "electric_scooter", "is_reserved": 0, "fusion_lon": 0.0, "lat": 38.923281, "rental_uris": {"ios": "https://dc.lft.to/lastmile_qr_scan", "android": "https://dc.lft.to/lastmile_qr_scan"}, "bike_id": "fe04c16444511ad1866cf558f7518448", "fusion_lat": 0.0}, {"lon": -77.04377966666667, "name": "eead645c79439ac61e8dff1369523a96", "is_disabled": 0, "type": "electric_scooter", "is_reserved": 0, "fusion_lon": 0.0, "lat": 38.92363733333333, "rental_uris": {"ios": "https://dc.lft.to/lastmile_qr_scan", "android": "https://dc.lft.to/lastmile_qr_scan"}, "bike_id": "eead645c79439ac61e8dff1369523a96", "fusion_lat": 0.0}, {"lon": -77.02091816666666, "name": "7165a0ec49c6337766715961fa3f3709", "is_disabled": 0, "type": "electric_scooter", "is_reserved": 0, "fusion_lon": 0.0, "lat": 38.92705766666667, "rental_uris": {"ios": "https://dc.lft.to/lastmile_qr_scan", "android": "https://dc.lft.to/lastmile_qr_scan"}, "bike_id": "7165a0ec49c6337766715961fa3f3709", "fusion_lat": 0.0}, {"lon": -77.11301216666666, "name": "ae5490ddf18a135775f94319c15aa44b", "is_disabled": 0, "type": "electric_bike", "is_reserved": 0, "fusion_lon": 0.0, "lat": 38.831381, "rental_uris": {"ios": "https://dc.lft.to/lastmile_qr_scan", "android": "https://dc.lft.to/lastmile_qr_scan"}, "bike_id": "ae5490ddf18a135775f94319c15aa44b", "fusion_lat": 0.0}, {"lon": -77.00355033333334, "name": "5beb6f1c7bcfd895d461734b164afeb8", "is_disabled": 0, "type": "electric_scooter", "is_reserved": 0, "fusion_lon": 0.0, "lat": 38.911066166666664, "rental_uris": {"ios": "https://dc.lft.to/lastmile_qr_scan", "android": "https://dc.lft.to/lastmile_qr_scan"}, "bike_id": "5beb6f1c7bcfd895d461734b164afeb8", "fusion_lat": 0.0}, {"lon": -77.027154, "name": "0ec8087e9fac4046c9d5cda2aac5aa7a", "is_disabled": 0, "type": "electric_scooter", "is_reserved": 0, "fusion_lon": 0.0, "lat": 38.91894033333333, "rental_uris": {"ios": "https://dc.lft.to/lastmile_qr_scan", "android": "https://dc.lft.to/lastmile_qr_scan"}, "bike_id": "0ec8087e9fac4046c9d5cda2aac5aa7a", "fusion_lat": 0.0}, {"lon": -77.0451635, "name": "6edd0768b313b87569d86bc9fd80558d", "is_disabled": 0, "type": "electric_scooter", "is_reserved": 0, "fusion_lon": 0.0, "lat": 38.91969133333333, "rental_uris": {"ios": "https://dc.lft.to/lastmile_qr_scan", "android": "https://dc.lft.to/lastmile_qr_scan"}, "bike_id": "6edd0768b313b87569d86bc9fd80558d", "fusion_lat": 0.0}, {"lon": -77.02703783333334, "name": "7ec3eadae0d9fec2792216ab4903b5a4", "is_disabled": 0, "type": "electric_scooter", "is_reserved": 0, "fusion_lon": 0.0, "lat": 38.90582466666667, "rental_uris": {"ios": "https://dc.lft.to/lastmile_qr_scan", "android": "https://dc.lft.to/lastmile_qr_scan"}, "bike_id": "7ec3eadae0d9fec2792216ab4903b5a4", "fusion_lat": 0.0}, {"lon": -77.01447433333334, "name": "47ac88e5bef4281a68fb5aa83248e763", "is_disabled": 0, "type": "electric_scooter", "is_reserved": 0, "fusion_lon": 0.0, "lat": 38.95815, "rental_uris": {"ios": "https://dc.lft.to/lastmile_qr_scan", "android": "https://dc.lft.to/lastmile_qr_scan"}, "bike_id": "47ac88e5bef4281a68fb5aa83248e763", "fusion_lat": 0.0}, {"lon": -77.04891366666666, "name": "2ee619f9d44f1cdd1302d75e957a0eb0", "is_disabled": 0, "type": "electric_scooter", "is_reserved": 0, "fusion_lon": 0.0, "lat": 38.90064183333333, "rental_uris": {"ios": "https://dc.lft.to/lastmile_qr_scan", "android": "https://dc.lft.to/lastmile_qr_scan"}, "bike_id": "2ee619f9d44f1cdd1302d75e957a0eb0", "fusion_lat": 0.0}, {"lon": -77.07915183333333, "name": "12afac16573672f3c5f806f1cfc0dbc1", "is_disabled": 0, "type": "electric_bike", "is_reserved": 0, "fusion_lon": 0.0, "lat": 38.838302666666664, "rental_uris": {"ios": "https://dc.lft.to/lastmile_qr_scan", "android": "https://dc.lft.to/lastmile_qr_scan"}, "bike_id": "12afac16573672f3c5f806f1cfc0dbc1", "fusion_lat": 0.0}, {"lon": -77.02759483333334, "name": "0750c35be52b3cd22cc036d3f366a3cd", "is_disabled": 0, "type": "electric_scooter", "is_reserved": 0, "fusion_lon": 0.0, "lat": 38.9277205, "rental_uris": {"ios": "https://dc.lft.to/lastmile_qr_scan", "android": "https://dc.lft.to/lastmile_qr_scan"}, "bike_id": "0750c35be52b3cd22cc036d3f366a3cd", "fusion_lat": 0.0}, {"lon": -77.23178483333334, "name": "4f89ea105127170738f0169f8f9d1b55", "is_disabled": 0, "type": "electric_bike", "is_reserved": 0, "fusion_lon": 0.0, "lat": 38.92896916666667, "rental_uris": {"ios": "https://dc.lft.to/lastmile_qr_scan", "android": "https://dc.lft.to/lastmile_qr_scan"}, "bike_id": "4f89ea105127170738f0169f8f9d1b55", "fusion_lat": 0.0}, {"lon": -77.03464466666667, "name": "173d8db08109ab755924c8cd10ee8a9e", "is_disabled": 0, "type": "electric_scooter", "is_reserved": 0, "fusion_lon": 0.0, "lat": 38.92154033333333, "rental_uris": {"ios": "https://dc.lft.to/lastmile_qr_scan", "android": "https://dc.lft.to/lastmile_qr_scan"}, "bike_id": "173d8db08109ab755924c8cd10ee8a9e", "fusion_lat": 0.0}, {"lon": -77.032096, "name": "4009b2a5bd626de78cbdb2a8896fff30", "is_disabled": 0, "type": "electric_scooter", "is_reserved": 0, "fusion_lon": 0.0, "lat": 38.919126166666665, "rental_uris": {"ios": "https://dc.lft.to/lastmile_qr_scan", "android": "https://dc.lft.to/lastmile_qr_scan"}, "bike_id": "4009b2a5bd626de78cbdb2a8896fff30", "fusion_lat": 0.0}, {"lon": -77.03094683333333, "name": "7e16584fcb1e9cbb8b6e969fdacbccdc", "is_disabled": 0, "type": "electric_scooter", "is_reserved": 0, "fusion_lon": 0.0, "lat": 38.9354, "rental_uris": {"ios": "https://dc.lft.to/lastmile_qr_scan", "android": "https://dc.lft.to/lastmile_qr_scan"}, "bike_id": "7e16584fcb1e9cbb8b6e969fdacbccdc", "fusion_lat": 0.0}, {"lon": -77.032772, "name": "45fef90658fecd2701f290e844078367", "is_disabled": 0, "type": "electric_scooter", "is_reserved": 0, "fusion_lon": 0.0, "lat": 38.932073833333334, "rental_uris": {"ios": "https://dc.lft.to/lastmile_qr_scan", "android": "https://dc.lft.to/lastmile_qr_scan"}, "bike_id": "45fef90658fecd2701f290e844078367", "fusion_lat": 0.0}, {"lon": -77.0598585, "name": "923ded4378c012b6d4366fbf1e9e42f9", "is_disabled": 0, "type": "electric_scooter", "is_reserved": 0, "fusion_lon": 0.0, "lat": 38.9271265, "rental_uris": {"ios": "https://dc.lft.to/lastmile_qr_scan", "android": "https://dc.lft.to/lastmile_qr_scan"}, "bike_id": "923ded4378c012b6d4366fbf1e9e42f9", "fusion_lat": 0.0}, {"lon": -77.07361016666667, "name": "a48b00756fd40c4f2797316094e7bf0a", "is_disabled": 0, "type": "electric_scooter", "is_reserved": 0, "fusion_lon": 0.0, "lat": 38.9335585, "rental_uris": {"ios": "https://dc.lft.to/lastmile_qr_scan", "android": "https://dc.lft.to/lastmile_qr_scan"}, "bike_id": "a48b00756fd40c4f2797316094e7bf0a", "fusion_lat": 0.0}, {"lon": -77.02349216666667, "name": "b6e33e374765015f98a3e888d99f461f", "is_disabled": 0, "type": "electric_scooter", "is_reserved": 0, "fusion_lon": 0.0, "lat": 38.94311283333333, "rental_uris": {"ios": "https://dc.lft.to/lastmile_qr_scan", "android": "https://dc.lft.to/lastmile_qr_scan"}, "bike_id": "b6e33e374765015f98a3e888d99f461f", "fusion_lat": 0.0}, {"lon": -77.01956816666667, "name": "ddc68211bb3e96fb40ab50369fbee3d6", "is_disabled": 0, "type": "electric_scooter", "is_reserved": 0, "fusion_lon": 0.0, "lat": 38.92368666666667, "rental_uris": {"ios": "https://dc.lft.to/lastmile_qr_scan", "android": "https://dc.lft.to/lastmile_qr_scan"}, "bike_id": "ddc68211bb3e96fb40ab50369fbee3d6", "fusion_lat": 0.0}, {"lon": -77.05324366666666, "name": "8e1bef4113d30ed1f76f63b637a47d95", "is_disabled": 0, "type": "electric_scooter", "is_reserved": 0, "fusion_lon": 0.0, "lat": 38.90425883333333, "rental_uris": {"ios": "https://dc.lft.to/lastmile_qr_scan", "android": "https://dc.lft.to/lastmile_qr_scan"}, "bike_id": "8e1bef4113d30ed1f76f63b637a47d95", "fusion_lat": 0.0}, {"lon": -77.0310105, "name": "8e178062d7d1a805f2b6c973231d7ca6", "is_disabled": 0, "type": "electric_scooter", "is_reserved": 0, "fusion_lon": 0.0, "lat": 38.90977683333333, "rental_uris": {"ios": "https://dc.lft.to/lastmile_qr_scan", "android": "https://dc.lft.to/lastmile_qr_scan"}, "bike_id": "8e178062d7d1a805f2b6c973231d7ca6", "fusion_lat": 0.0}, {"lon": -77.06223466666667, "name": "a55f2f411759fdbb7fa30f6348b0ee71", "is_disabled": 0, "type": "electric_scooter", "is_reserved": 0, "fusion_lon": 0.0, "lat": 38.913177166666664, "rental_uris": {"ios": "https://dc.lft.to/lastmile_qr_scan", "android": "https://dc.lft.to/lastmile_qr_scan"}, "bike_id": "a55f2f411759fdbb7fa30f6348b0ee71", "fusion_lat": 0.0}, {"lon": -77.03778883333334, "name": "721b38ce6776e3831cff4e175b503ed4", "is_disabled": 0, "type": "electric_bike", "is_reserved": 0, "fusion_lon": 0.0, "lat": 38.996809166666665, "rental_uris": {"ios": "https://dc.lft.to/lastmile_qr_scan", "android": "https://dc.lft.to/lastmile_qr_scan"}, "bike_id": "721b38ce6776e3831cff4e175b503ed4", "fusion_lat": 0.0}, {"lon": -77.03518383333333, "name": "97e90e6fc97d3f5c0635bae98025b761", "is_disabled": 0, "type": "electric_scooter", "is_reserved": 0, "fusion_lon": 0.0, "lat": 38.922371166666665, "rental_uris": {"ios": "https://dc.lft.to/lastmile_qr_scan", "android": "https://dc.lft.to/lastmile_qr_scan"}, "bike_id": "97e90e6fc97d3f5c0635bae98025b761", "fusion_lat": 0.0}, {"lon": -77.02729433333333, "name": "bf0bca02edcd02e57eb103035da3a445", "is_disabled": 0, "type": "electric_scooter", "is_reserved": 0, "fusion_lon": 0.0, "lat": 38.92417066666667, "rental_uris": {"ios": "https://dc.lft.to/lastmile_qr_scan", "android": "https://dc.lft.to/lastmile_qr_scan"}, "bike_id": "bf0bca02edcd02e57eb103035da3a445", "fusion_lat": 0.0}, {"lon": -77.001525, "name": "60b0fb5b6fbfea9b94a0a10fc6ea0554", "is_disabled": 0, "type": "electric_bike", "is_reserved": 0, "fusion_lon": 0.0, "lat": 38.92551, "rental_uris": {"ios": "https://dc.lft.to/lastmile_qr_scan", "android": "https://dc.lft.to/lastmile_qr_scan"}, "bike_id": "60b0fb5b6fbfea9b94a0a10fc6ea0554", "fusion_lat": 0.0}, {"lon": -77.06941416666666, "name": "f15ec1f920b79db45bd1cf351769fb23", "is_disabled": 0, "type": "electric_bike", "is_reserved": 0, "fusion_lon": 0.0, "lat": 38.8476625, "rental_uris": {"ios": "https://dc.lft.to/lastmile_qr_scan", "android": "https://dc.lft.to/lastmile_qr_scan"}, "bike_id": "f15ec1f920b79db45bd1cf351769fb23", "fusion_lat": 0.0}, {"lon": -77.02027966666667, "name": "c61348da299415f81a6514cd08e81eba", "is_disabled": 0, "type": "electric_scooter", "is_reserved": 0, "fusion_lon": 0.0, "lat": 38.9241215, "rental_uris": {"ios": "https://dc.lft.to/lastmile_qr_scan", "android": "https://dc.lft.to/lastmile_qr_scan"}, "bike_id": "c61348da299415f81a6514cd08e81eba", "fusion_lat": 0.0}, {"lon": -76.973186, "name": "e0d2d01db8c0c5b0b79614bd3f0fedeb", "is_disabled": 0, "type": "electric_bike", "is_reserved": 0, "fusion_lon": 0.0, "lat": 38.86571383333333, "rental_uris": {"ios": "https://dc.lft.to/lastmile_qr_scan", "android": "https://dc.lft.to/lastmile_qr_scan"}, "bike_id": "e0d2d01db8c0c5b0b79614bd3f0fedeb", "fusion_lat": 0.0}, {"lon": -76.9879445, "name": "97883ee173bf8ee1093189b24aaf8d2f", "is_disabled": 0, "type": "electric_scooter", "is_reserved": 0, "fusion_lon": 0.0, "lat": 38.878393333333335, "rental_uris": {"ios": "https://dc.lft.to/lastmile_qr_scan", "android": "https://dc.lft.to/lastmile_qr_scan"}, "bike_id": "97883ee173bf8ee1093189b24aaf8d2f", "fusion_lat": 0.0}, {"lon": -76.98366816666666, "name": "a3714dd849dc538138c7523259515d42", "is_disabled": 0, "type": "electric_scooter", "is_reserved": 0, "fusion_lon": 0.0, "lat": 38.8915935, "rental_uris": {"ios": "https://dc.lft.to/lastmile_qr_scan", "android": "https://dc.lft.to/lastmile_qr_scan"}, "bike_id": "a3714dd849dc538138c7523259515d42", "fusion_lat": 0.0}, {"lon": -77.00064016666667, "name": "556934ef1db289c8dc015a846ed9df0b", "is_disabled": 0, "type": "electric_scooter", "is_reserved": 0, "fusion_lon": 0.0, "lat": 38.87501533333333, "rental_uris": {"ios": "https://dc.lft.to/lastmile_qr_scan", "android": "https://dc.lft.to/lastmile_qr_scan"}, "bike_id": "556934ef1db289c8dc015a846ed9df0b", "fusion_lat": 0.0}, {"lon": -77.02315666666667, "name": "efc7c960763ef77f4278b2660f96f76c", "is_disabled": 0, "type": "electric_scooter", "is_reserved": 0, "fusion_lon": 0.0, "lat": 38.92076766666667, "rental_uris": {"ios": "https://dc.lft.to/lastmile_qr_scan", "android": "https://dc.lft.to/lastmile_qr_scan"}, "bike_id": "efc7c960763ef77f4278b2660f96f76c", "fusion_lat": 0.0}, {"lon": -77.02711433333333, "name": "4025b438ea7ff85256111a53c2e30753", "is_disabled": 0, "type": "electric_scooter", "is_reserved": 0, "fusion_lon": 0.0, "lat": 38.927745, "rental_uris": {"ios": "https://dc.lft.to/lastmile_qr_scan", "android": "https://dc.lft.to/lastmile_qr_scan"}, "bike_id": "4025b438ea7ff85256111a53c2e30753", "fusion_lat": 0.0}, {"lon": -77.023014, "name": "00597b07d51a84de59a0eec877ce9f57", "is_disabled": 0, "type": "electric_scooter", "is_reserved": 0, "fusion_lon": 0.0, "lat": 38.89061733333333, "rental_uris": {"ios": "https://dc.lft.to/lastmile_qr_scan", "android": "https://dc.lft.to/lastmile_qr_scan"}, "bike_id": "00597b07d51a84de59a0eec877ce9f57", "fusion_lat": 0.0}, {"lon": -77.04081216666667, "name": "292db52ff2a6adf57f1ad01634f25386", "is_disabled": 0, "type": "electric_scooter", "is_reserved": 0, "fusion_lon": 0.0, "lat": 38.905373166666664, "rental_uris": {"ios": "https://dc.lft.to/lastmile_qr_scan", "android": "https://dc.lft.to/lastmile_qr_scan"}, "bike_id": "292db52ff2a6adf57f1ad01634f25386", "fusion_lat": 0.0}, {"lon": -77.0186415, "name": "9b025692d065c791dad7be8fb6ed94a8", "is_disabled": 0, "type": "electric_scooter", "is_reserved": 0, "fusion_lon": 0.0, "lat": 38.949228, "rental_uris": {"ios": "https://dc.lft.to/lastmile_qr_scan", "android": "https://dc.lft.to/lastmile_qr_scan"}, "bike_id": "9b025692d065c791dad7be8fb6ed94a8", "fusion_lat": 0.0}, {"lon": -77.0259145, "name": "5ab8f00b11c3a9ec11d15b6814bf7ead", "is_disabled": 0, "type": "electric_scooter", "is_reserved": 0, "fusion_lon": 0.0, "lat": 38.918914666666666, "rental_uris": {"ios": "https://dc.lft.to/lastmile_qr_scan", "android": "https://dc.lft.to/lastmile_qr_scan"}, "bike_id": "5ab8f00b11c3a9ec11d15b6814bf7ead", "fusion_lat": 0.0}, {"lon": -77.04329183333333, "name": "7be2dcf04d9c0cbf75114b6b2b2aed31", "is_disabled": 0, "type": "electric_scooter", "is_reserved": 0, "fusion_lon": 0.0, "lat": 38.92623116666667, "rental_uris": {"ios": "https://dc.lft.to/lastmile_qr_scan", "android": "https://dc.lft.to/lastmile_qr_scan"}, "bike_id": "7be2dcf04d9c0cbf75114b6b2b2aed31", "fusion_lat": 0.0}, {"lon": -76.9857065, "name": "9eb3331c8faebfe0bea48c6a6244e3a2", "is_disabled": 0, "type": "electric_scooter", "is_reserved": 0, "fusion_lon": 0.0, "lat": 38.896214, "rental_uris": {"ios": "https://dc.lft.to/lastmile_qr_scan", "android": "https://dc.lft.to/lastmile_qr_scan"}, "bike_id": "9eb3331c8faebfe0bea48c6a6244e3a2", "fusion_lat": 0.0}, {"lon": -77.03694066666667, "name": "1e844e6475277132b35fcef7c8662d67", "is_disabled": 0, "type": "electric_scooter", "is_reserved": 0, "fusion_lon": 0.0, "lat": 38.930696166666664, "rental_uris": {"ios": "https://dc.lft.to/lastmile_qr_scan", "android": "https://dc.lft.to/lastmile_qr_scan"}, "bike_id": "1e844e6475277132b35fcef7c8662d67", "fusion_lat": 0.0}, {"lon": -77.02763183333333, "name": "1e1e14186f1edcd3e6b2b7a2d0ae62af", "is_disabled": 0, "type": "electric_scooter", "is_reserved": 0, "fusion_lon": 0.0, "lat": 38.92583283333333, "rental_uris": {"ios": "https://dc.lft.to/lastmile_qr_scan", "android": "https://dc.lft.to/lastmile_qr_scan"}, "bike_id": "1e1e14186f1edcd3e6b2b7a2d0ae62af", "fusion_lat": 0.0}, {"lon": -77.00360016666667, "name": "86de0d6b3ca0df27dafab945080fceba", "is_disabled": 0, "type": "electric_scooter", "is_reserved": 0, "fusion_lon": 0.0, "lat": 38.91770833333333, "rental_uris": {"ios": "https://dc.lft.to/lastmile_qr_scan", "android": "https://dc.lft.to/lastmile_qr_scan"}, "bike_id": "86de0d6b3ca0df27dafab945080fceba", "fusion_lat": 0.0}, {"lon": -76.99098466666666, "name": "c7e0b4679e3bdbce04fea747eb2c3410", "is_disabled": 0, "type": "electric_bike", "is_reserved": 0, "fusion_lon": 0.0, "lat": 38.80484783333333, "rental_uris": {"ios": "https://dc.lft.to/lastmile_qr_scan", "android": "https://dc.lft.to/lastmile_qr_scan"}, "bike_id": "c7e0b4679e3bdbce04fea747eb2c3410", "fusion_lat": 0.0}, {"lon": -77.01263416666667, "name": "7abb6b87056f89f59276218dc6eaa38f", "is_disabled": 0, "type": "electric_scooter", "is_reserved": 0, "fusion_lon": 0.0, "lat": 38.864572333333335, "rental_uris": {"ios": "https://dc.lft.to/lastmile_qr_scan", "android": "https://dc.lft.to/lastmile_qr_scan"}, "bike_id": "7abb6b87056f89f59276218dc6eaa38f", "fusion_lat": 0.0}, {"lon": -77.03201733333333, "name": "2389ec1482e4dab0c39b578b79141ad2", "is_disabled": 0, "type": "electric_scooter", "is_reserved": 0, "fusion_lon": 0.0, "lat": 38.91640566666667, "rental_uris": {"ios": "https://dc.lft.to/lastmile_qr_scan", "android": "https://dc.lft.to/lastmile_qr_scan"}, "bike_id": "2389ec1482e4dab0c39b578b79141ad2", "fusion_lat": 0.0}, {"lon": -76.98725883333333, "name": "f301c7efa4903b3bf5b7c04b6180f4fa", "is_disabled": 0, "type": "electric_bike", "is_reserved": 0, "fusion_lon": 0.0, "lat": 38.8633285, "rental_uris": {"ios": "https://dc.lft.to/lastmile_qr_scan", "android": "https://dc.lft.to/lastmile_qr_scan"}, "bike_id": "f301c7efa4903b3bf5b7c04b6180f4fa", "fusion_lat": 0.0}, {"lon": -76.97560383333334, "name": "88293d9a29e8a0907561abb089a8fd4d", "is_disabled": 0, "type": "electric_bike", "is_reserved": 0, "fusion_lon": 0.0, "lat": 38.872695666666665, "rental_uris": {"ios": "https://dc.lft.to/lastmile_qr_scan", "android": "https://dc.lft.to/lastmile_qr_scan"}, "bike_id": "88293d9a29e8a0907561abb089a8fd4d", "fusion_lat": 0.0}, {"lon": -77.03658416666667, "name": "2b88cd94274a5c62c354005cfc97dc1f", "is_disabled": 0, "type": "electric_scooter", "is_reserved": 0, "fusion_lon": 0.0, "lat": 38.9233675, "rental_uris": {"ios": "https://dc.lft.to/lastmile_qr_scan", "android": "https://dc.lft.to/lastmile_qr_scan"}, "bike_id": "2b88cd94274a5c62c354005cfc97dc1f", "fusion_lat": 0.0}, {"lon": -77.01848083333333, "name": "2a63406d315c48baabe397095b7e3f23", "is_disabled": 0, "type": "electric_scooter", "is_reserved": 0, "fusion_lon": 0.0, "lat": 38.948922333333336, "rental_uris": {"ios": "https://dc.lft.to/lastmile_qr_scan", "android": "https://dc.lft.to/lastmile_qr_scan"}, "bike_id": "2a63406d315c48baabe397095b7e3f23", "fusion_lat": 0.0}, {"lon": -76.9938105, "name": "d0a6b550a453d196ea1ce392dbae31ee", "is_disabled": 0, "type": "electric_scooter", "is_reserved": 0, "fusion_lon": 0.0, "lat": 38.89342116666667, "rental_uris": {"ios": "https://dc.lft.to/lastmile_qr_scan", "android": "https://dc.lft.to/lastmile_qr_scan"}, "bike_id": "d0a6b550a453d196ea1ce392dbae31ee", "fusion_lat": 0.0}, {"lon": -77.080185, "name": "87e39782ead179fbf658a522e0272eac", "is_disabled": 0, "type": "electric_bike", "is_reserved": 0, "fusion_lon": 0.0, "lat": 38.95773416666667, "rental_uris": {"ios": "https://dc.lft.to/lastmile_qr_scan", "android": "https://dc.lft.to/lastmile_qr_scan"}, "bike_id": "87e39782ead179fbf658a522e0272eac", "fusion_lat": 0.0}, {"lon": -77.03383783333334, "name": "d577c03fb1b6210f12f260dfe58069c0", "is_disabled": 0, "type": "electric_scooter", "is_reserved": 0, "fusion_lon": 0.0, "lat": 38.90975866666667, "rental_uris": {"ios": "https://dc.lft.to/lastmile_qr_scan", "android": "https://dc.lft.to/lastmile_qr_scan"}, "bike_id": "d577c03fb1b6210f12f260dfe58069c0", "fusion_lat": 0.0}, {"lon": -77.01768866666667, "name": "0caec6023ed79d1b3f6552c7d6a75b5a", "is_disabled": 0, "type": "electric_scooter", "is_reserved": 0, "fusion_lon": 0.0, "lat": 38.92037633333333, "rental_uris": {"ios": "https://dc.lft.to/lastmile_qr_scan", "android": "https://dc.lft.to/lastmile_qr_scan"}, "bike_id": "0caec6023ed79d1b3f6552c7d6a75b5a", "fusion_lat": 0.0}, {"lon": -77.01978833333334, "name": "a324df24e677760d8f35cafdceb24727", "is_disabled": 0, "type": "electric_scooter", "is_reserved": 0, "fusion_lon": 0.0, "lat": 38.885648333333336, "rental_uris": {"ios": "https://dc.lft.to/lastmile_qr_scan", "android": "https://dc.lft.to/lastmile_qr_scan"}, "bike_id": "a324df24e677760d8f35cafdceb24727", "fusion_lat": 0.0}, {"lon": -76.91801566666666, "name": "5cd192d16cae2419f1df7632d51af27f", "is_disabled": 0, "type": "electric_bike", "is_reserved": 0, "fusion_lon": 0.0, "lat": 39.00001816666666, "rental_uris": {"ios": "https://dc.lft.to/lastmile_qr_scan", "android": "https://dc.lft.to/lastmile_qr_scan"}, "bike_id": "5cd192d16cae2419f1df7632d51af27f", "fusion_lat": 0.0}, {"lon": -77.03381716666667, "name": "31e550c3e93062b7202cfd342373331a", "is_disabled": 0, "type": "electric_scooter", "is_reserved": 0, "fusion_lon": 0.0, "lat": 38.924695166666666, "rental_uris": {"ios": "https://dc.lft.to/lastmile_qr_scan", "android": "https://dc.lft.to/lastmile_qr_scan"}, "bike_id": "31e550c3e93062b7202cfd342373331a", "fusion_lat": 0.0}, {"lon": -77.06596133333333, "name": "d926a83411c652db5c6df7190cfe1567", "is_disabled": 0, "type": "electric_scooter", "is_reserved": 0, "fusion_lon": 0.0, "lat": 38.91228816666667, "rental_uris": {"ios": "https://dc.lft.to/lastmile_qr_scan", "android": "https://dc.lft.to/lastmile_qr_scan"}, "bike_id": "d926a83411c652db5c6df7190cfe1567", "fusion_lat": 0.0}, {"lon": -77.06690483333334, "name": "e7ddabaecd9cf243a22087cf4faff378", "is_disabled": 0, "type": "electric_scooter", "is_reserved": 0, "fusion_lon": 0.0, "lat": 38.914223, "rental_uris": {"ios": "https://dc.lft.to/lastmile_qr_scan", "android": "https://dc.lft.to/lastmile_qr_scan"}, "bike_id": "e7ddabaecd9cf243a22087cf4faff378", "fusion_lat": 0.0}, {"lon": -77.07543566666666, "name": "3bd413f9cbe18019f1d67cb5acb7db27", "is_disabled": 0, "type": "electric_scooter", "is_reserved": 0, "fusion_lon": 0.0, "lat": 38.915365, "rental_uris": {"ios": "https://dc.lft.to/lastmile_qr_scan", "android": "https://dc.lft.to/lastmile_qr_scan"}, "bike_id": "3bd413f9cbe18019f1d67cb5acb7db27", "fusion_lat": 0.0}, {"lon": -77.01738266666666, "name": "09e7b74a155f38246aecbaa82d2e2dee", "is_disabled": 0, "type": "electric_scooter", "is_reserved": 0, "fusion_lon": 0.0, "lat": 38.88027533333333, "rental_uris": {"ios": "https://dc.lft.to/lastmile_qr_scan", "android": "https://dc.lft.to/lastmile_qr_scan"}, "bike_id": "09e7b74a155f38246aecbaa82d2e2dee", "fusion_lat": 0.0}, {"lon": -76.98567183333333, "name": "9a63d7f153baff39b191c26f3ba4f84b", "is_disabled": 0, "type": "electric_scooter", "is_reserved": 0, "fusion_lon": 0.0, "lat": 38.89959533333333, "rental_uris": {"ios": "https://dc.lft.to/lastmile_qr_scan", "android": "https://dc.lft.to/lastmile_qr_scan"}, "bike_id": "9a63d7f153baff39b191c26f3ba4f84b", "fusion_lat": 0.0}, {"lon": -77.02585166666667, "name": "4af1abd91a57d46e429b727f34852033", "is_disabled": 0, "type": "electric_scooter", "is_reserved": 0, "fusion_lon": 0.0, "lat": 38.90417266666667, "rental_uris": {"ios": "https://dc.lft.to/lastmile_qr_scan", "android": "https://dc.lft.to/lastmile_qr_scan"}, "bike_id": "4af1abd91a57d46e429b727f34852033", "fusion_lat": 0.0}, {"lon": -76.990316, "name": "870e8946f03ead4647e2184c5b0fc635", "is_disabled": 0, "type": "electric_scooter", "is_reserved": 0, "fusion_lon": 0.0, "lat": 38.898540833333335, "rental_uris": {"ios": "https://dc.lft.to/lastmile_qr_scan", "android": "https://dc.lft.to/lastmile_qr_scan"}, "bike_id": "870e8946f03ead4647e2184c5b0fc635", "fusion_lat": 0.0}, {"lon": -77.01554666666667, "name": "09c7184e8ec33cdc3b924d9869d62156", "is_disabled": 0, "type": "electric_scooter", "is_reserved": 0, "fusion_lon": 0.0, "lat": 38.89368433333333, "rental_uris": {"ios": "https://dc.lft.to/lastmile_qr_scan", "android": "https://dc.lft.to/lastmile_qr_scan"}, "bike_id": "09c7184e8ec33cdc3b924d9869d62156", "fusion_lat": 0.0}, {"lon": -76.98824633333334, "name": "672c9331f9eff4e4c308a5b505254c17", "is_disabled": 0, "type": "electric_scooter", "is_reserved": 0, "fusion_lon": 0.0, "lat": 38.890969, "rental_uris": {"ios": "https://dc.lft.to/lastmile_qr_scan", "android": "https://dc.lft.to/lastmile_qr_scan"}, "bike_id": "672c9331f9eff4e4c308a5b505254c17", "fusion_lat": 0.0}, {"lon": -77.04234933333333, "name": "7cbe16040c8cf5e566d1075cc007330c", "is_disabled": 0, "type": "electric_scooter", "is_reserved": 0, "fusion_lon": 0.0, "lat": 38.908315333333334, "rental_uris": {"ios": "https://dc.lft.to/lastmile_qr_scan", "android": "https://dc.lft.to/lastmile_qr_scan"}, "bike_id": "7cbe16040c8cf5e566d1075cc007330c", "fusion_lat": 0.0}, {"lon": -77.035441, "name": "c1a34557029c692fd743a560e98a6ac7", "is_disabled": 0, "type": "electric_scooter", "is_reserved": 0, "fusion_lon": 0.0, "lat": 38.90764733333334, "rental_uris": {"ios": "https://dc.lft.to/lastmile_qr_scan", "android": "https://dc.lft.to/lastmile_qr_scan"}, "bike_id": "c1a34557029c692fd743a560e98a6ac7", "fusion_lat": 0.0}, {"lon": -77.01222866666667, "name": "77f47549402e274e582510cfee327e86", "is_disabled": 0, "type": "electric_scooter", "is_reserved": 0, "fusion_lon": 0.0, "lat": 38.913497, "rental_uris": {"ios": "https://dc.lft.to/lastmile_qr_scan", "android": "https://dc.lft.to/lastmile_qr_scan"}, "bike_id": "77f47549402e274e582510cfee327e86", "fusion_lat": 0.0}, {"lon": -76.99395366666667, "name": "61696b3cbd300ef38b5690dcf672afdf", "is_disabled": 0, "type": "electric_scooter", "is_reserved": 0, "fusion_lon": 0.0, "lat": 38.910042833333335, "rental_uris": {"ios": "https://dc.lft.to/lastmile_qr_scan", "android": "https://dc.lft.to/lastmile_qr_scan"}, "bike_id": "61696b3cbd300ef38b5690dcf672afdf", "fusion_lat": 0.0}, {"lon": -77.0213315, "name": "a1e3e967adcf19bbd2c335cc210e4420", "is_disabled": 0, "type": "electric_scooter", "is_reserved": 0, "fusion_lon": 0.0, "lat": 38.92416383333333, "rental_uris": {"ios": "https://dc.lft.to/lastmile_qr_scan", "android": "https://dc.lft.to/lastmile_qr_scan"}, "bike_id": "a1e3e967adcf19bbd2c335cc210e4420", "fusion_lat": 0.0}, {"lon": -77.02394766666667, "name": "57759068fd87aff8023bfda2dc5cfd5c", "is_disabled": 0, "type": "electric_scooter", "is_reserved": 0, "fusion_lon": 0.0, "lat": 38.9032985, "rental_uris": {"ios": "https://dc.lft.to/lastmile_qr_scan", "android": "https://dc.lft.to/lastmile_qr_scan"}, "bike_id": "57759068fd87aff8023bfda2dc5cfd5c", "fusion_lat": 0.0}, {"lon": -77.13934033333334, "name": "c141df8f937087467a6dc6ea5780d041", "is_disabled": 0, "type": "electric_bike", "is_reserved": 0, "fusion_lon": 0.0, "lat": 38.846807166666665, "rental_uris": {"ios": "https://dc.lft.to/lastmile_qr_scan", "android": "https://dc.lft.to/lastmile_qr_scan"}, "bike_id": "c141df8f937087467a6dc6ea5780d041", "fusion_lat": 0.0}, {"lon": -76.9985685, "name": "ee8b6ad4806510bf5262bb4ace2702ad", "is_disabled": 0, "type": "electric_scooter", "is_reserved": 0, "fusion_lon": 0.0, "lat": 38.902598833333336, "rental_uris": {"ios": "https://dc.lft.to/lastmile_qr_scan", "android": "https://dc.lft.to/lastmile_qr_scan"}, "bike_id": "ee8b6ad4806510bf5262bb4ace2702ad", "fusion_lat": 0.0}, {"lon": -77.03663233333333, "name": "5fdd174d01ce997ebba51a42bdf0ecaf", "is_disabled": 0, "type": "electric_scooter", "is_reserved": 0, "fusion_lon": 0.0, "lat": 38.922905166666666, "rental_uris": {"ios": "https://dc.lft.to/lastmile_qr_scan", "android": "https://dc.lft.to/lastmile_qr_scan"}, "bike_id": "5fdd174d01ce997ebba51a42bdf0ecaf", "fusion_lat": 0.0}, {"lon": -77.02315033333333, "name": "61e687785059f704660f4e7ae96de632", "is_disabled": 0, "type": "electric_scooter", "is_reserved": 0, "fusion_lon": 0.0, "lat": 38.920797, "rental_uris": {"ios": "https://dc.lft.to/lastmile_qr_scan", "android": "https://dc.lft.to/lastmile_qr_scan"}, "bike_id": "61e687785059f704660f4e7ae96de632", "fusion_lat": 0.0}, {"lon": -76.95199, "name": "2cff15d3db27cb6ab2a51442fee818e4", "is_disabled": 0, "type": "electric_bike", "is_reserved": 0, "fusion_lon": 0.0, "lat": 38.891171, "rental_uris": {"ios": "https://dc.lft.to/lastmile_qr_scan", "android": "https://dc.lft.to/lastmile_qr_scan"}, "bike_id": "2cff15d3db27cb6ab2a51442fee818e4", "fusion_lat": 0.0}, {"lon": -76.99120466666666, "name": "6fa7aa60f6c60059035c095d28a3a1b2", "is_disabled": 0, "type": "electric_scooter", "is_reserved": 0, "fusion_lon": 0.0, "lat": 38.900266333333335, "rental_uris": {"ios": "https://dc.lft.to/lastmile_qr_scan", "android": "https://dc.lft.to/lastmile_qr_scan"}, "bike_id": "6fa7aa60f6c60059035c095d28a3a1b2", "fusion_lat": 0.0}, {"lon": -76.9895025, "name": "0b22c244049795ff0e093932b14ab622", "is_disabled": 0, "type": "electric_scooter", "is_reserved": 0, "fusion_lon": 0.0, "lat": 38.901412666666666, "rental_uris": {"ios": "https://dc.lft.to/lastmile_qr_scan", "android": "https://dc.lft.to/lastmile_qr_scan"}, "bike_id": "0b22c244049795ff0e093932b14ab622", "fusion_lat": 0.0}, {"lon": -77.025811, "name": "a05cd894e96e6c0dadd37b194b9fba59", "is_disabled": 0, "type": "electric_scooter", "is_reserved": 0, "fusion_lon": 0.0, "lat": 38.90962716666667, "rental_uris": {"ios": "https://dc.lft.to/lastmile_qr_scan", "android": "https://dc.lft.to/lastmile_qr_scan"}, "bike_id": "a05cd894e96e6c0dadd37b194b9fba59", "fusion_lat": 0.0}, {"lon": -77.03600033333333, "name": "a05f03368f05df2d37d4c19888e0f8c6", "is_disabled": 0, "type": "electric_scooter", "is_reserved": 0, "fusion_lon": 0.0, "lat": 38.927857, "rental_uris": {"ios": "https://dc.lft.to/lastmile_qr_scan", "android": "https://dc.lft.to/lastmile_qr_scan"}, "bike_id": "a05f03368f05df2d37d4c19888e0f8c6", "fusion_lat": 0.0}, {"lon": -77.0259125, "name": "ff5fa03dfa795ea2f34b2b4d8ead7448", "is_disabled": 0, "type": "electric_scooter", "is_reserved": 0, "fusion_lon": 0.0, "lat": 38.92094483333333, "rental_uris": {"ios": "https://dc.lft.to/lastmile_qr_scan", "android": "https://dc.lft.to/lastmile_qr_scan"}, "bike_id": "ff5fa03dfa795ea2f34b2b4d8ead7448", "fusion_lat": 0.0}, {"lon": -77.064603, "name": "53e064e5795ac8f55ab7610efc20575a", "is_disabled": 0, "type": "electric_scooter", "is_reserved": 0, "fusion_lon": 0.0, "lat": 38.91045866666666, "rental_uris": {"ios": "https://dc.lft.to/lastmile_qr_scan", "android": "https://dc.lft.to/lastmile_qr_scan"}, "bike_id": "53e064e5795ac8f55ab7610efc20575a", "fusion_lat": 0.0}, {"lon": -77.03179833333333, "name": "29e517a797e2b431c530ec99e365fc56", "is_disabled": 0, "type": "electric_scooter", "is_reserved": 0, "fusion_lon": 0.0, "lat": 38.910048833333335, "rental_uris": {"ios": "https://dc.lft.to/lastmile_qr_scan", "android": "https://dc.lft.to/lastmile_qr_scan"}, "bike_id": "29e517a797e2b431c530ec99e365fc56", "fusion_lat": 0.0}, {"lon": -77.023739, "name": "9586f0023c48088b432d77b6fb500433", "is_disabled": 0, "type": "electric_scooter", "is_reserved": 0, "fusion_lon": 0.0, "lat": 38.9020315, "rental_uris": {"ios": "https://dc.lft.to/lastmile_qr_scan", "android": "https://dc.lft.to/lastmile_qr_scan"}, "bike_id": "9586f0023c48088b432d77b6fb500433", "fusion_lat": 0.0}, {"lon": -77.02073816666666, "name": "481d0159d72857e8897da133bdc08d57", "is_disabled": 0, "type": "electric_scooter", "is_reserved": 0, "fusion_lon": 0.0, "lat": 38.95258416666667, "rental_uris": {"ios": "https://dc.lft.to/lastmile_qr_scan", "android": "https://dc.lft.to/lastmile_qr_scan"}, "bike_id": "481d0159d72857e8897da133bdc08d57", "fusion_lat": 0.0},