{"data": {"bikes": [{"type": "electric_scooter", "fusion_lon": 0.0, "bike_id": "e54e2790a3d74730f46bb348bc8f880c", "is_disabled": 0, "lat": 38.93429966666667, "rental_uris": {"ios": "https://dc.lft.to/lastmile_qr_scan", "android": "https://dc.lft.to/lastmile_qr_scan"}, "is_reserved": 0, "lon": -77.03996383333333, "fusion_lat": 0.0, "name": "e54e2790a3d74730f46bb348bc8f880c"}, {"type": "electric_scooter", "fusion_lon": 0.0, "bike_id": "d093843b4df53aff03d7c1e77c2a2e3f", "is_disabled": 0, "lat": 38.924168, "rental_uris": {"ios": "https://dc.lft.to/lastmile_qr_scan", "android": "https://dc.lft.to/lastmile_qr_scan"}, "is_reserved": 0, "lon": -77.06523233333333, "fusion_lat": 0.0, "name": "d093843b4df53aff03d7c1e77c2a2e3f"}, {"type": "electric_scooter", "fusion_lon": 0.0, "bike_id": "c8607debd9cd63038667678d28d093f5", "is_disabled": 0, "lat": 38.91193283333333, "rental_uris": {"ios": "https://dc.lft.to/lastmile_qr_scan", "android": "https://dc.lft.to/lastmile_qr_scan"}, "is_reserved": 0, "lon": -77.00182083333333, "fusion_lat": 0.0, "name": "c8607debd9cd63038667678d28d093f5"}, {"type": "electric_scooter", "fusion_lon": 0.0, "bike_id": "026538cba066f820ad66ca3288d150ae", "is_disabled": 0, "lat": 38.90571966666667, "rental_uris": {"ios": "https://dc.lft.to/lastmile_qr_scan", "android": "https://dc.lft.to/lastmile_qr_scan"}, "is_reserved": 0, "lon": -77.00707616666666, "fusion_lat": 0.0, "name": "026538cba066f820ad66ca3288d150ae"}, {"type": "electric_scooter", "fusion_lon": 0.0, "bike_id": "70d32ae281db166c79f7f9c8d079afd8", "is_disabled": 0, "lat": 38.920344666666665, "rental_uris": {"ios": "https://dc.lft.to/lastmile_qr_scan", "android": "https://dc.lft.to/lastmile_qr_scan"}, "is_reserved": 0, "lon": -77.012234, "fusion_lat": 0.0, "name": "70d32ae281db166c79f7f9c8d079afd8"}, {"type": "electric_scooter", "fusion_lon": 0.0, "bike_id": "0ee6ca40a337aaaef3c617c6df785883", "is_disabled": 0, "lat": 38.935363333333335, "rental_uris": {"ios": "https://dc.lft.to/lastmile_qr_scan", "android": "https://dc.lft.to/lastmile_qr_scan"}, "is_reserved": 0, "lon": -77.02350233333334, "fusion_lat": 0.0, "name": "0ee6ca40a337aaaef3c617c6df785883"}, {"type": "electric_scooter", "fusion_lon": 0.0, "bike_id": "a1977868186cd61fbb451ca90b7665c1", "is_disabled": 0, "lat": 38.90671583333334, "rental_uris": {"ios": "https://dc.lft.to/lastmile_qr_scan", "android": "https://dc.lft.to/lastmile_qr_scan"}, "is_reserved": 0, "lon": -77.02955433333334, "fusion_lat": 0.0, "name": "a1977868186cd61fbb451ca90b7665c1"}, {"type": "electric_scooter", "fusion_lon": 0.0, "bike_id": "b0e5acf24575374cd90f28baac2a5dab", "is_disabled": 0, "lat": 38.892225, "rental_uris": {"ios": "https://dc.lft.to/lastmile_qr_scan", "android": "https://dc.lft.to/lastmile_qr_scan"}, "is_reserved": 0, "lon": -77.048087, "fusion_lat": 0.0, "name": "b0e5acf24575374cd90f28baac2a5dab"}, {"type": "electric_bike", "fusion_lon": 0.0, "bike_id": "1a56588704b16e62aadcb7ddacf995d0", "is_disabled": 0, "lat": 38.8767145, "rental_uris": {"ios": "https://dc.lft.to/lastmile_qr_scan", "android": "https://dc.lft.to/lastmile_qr_scan"}, "is_reserved": 0, "lon": -77.01441066666666, "fusion_lat": 0.0, "name": "1a56588704b16e62aadcb7ddacf995d0"}, {"type": "electric_scooter", "fusion_lon": 0.0, "bike_id": "8fec3bbdc87c9b2ecdbb857e1a852bc7", "is_disabled": 0, "lat": 38.905725333333336, "rental_uris": {"ios": "https://dc.lft.to/lastmile_qr_scan", "android": "https://dc.lft.to/lastmile_qr_scan"}, "is_reserved": 0, "lon": -77.03483866666667, "fusion_lat": 0.0, "name": "8fec3bbdc87c9b2ecdbb857e1a852bc7"}, {"type": "electric_scooter", "fusion_lon": 0.0, "bike_id": "8b5247d7f98952ea195c0dda0082f83d", "is_disabled": 0, "lat": 38.90788166666667, "rental_uris": {"ios": "https://dc.lft.to/lastmile_qr_scan", "android": "https://dc.lft.to/lastmile_qr_scan"}, "is_reserved": 0, "lon": -77.06419533333333, "fusion_lat": 0.0, "name": "8b5247d7f98952ea195c0dda0082f83d"}, {"type": "electric_bike", "fusion_lon": 0.0, "bike_id": "9df1c70c9c2dfdfa80c0be01ab890f5b", "is_disabled": 0, "lat": 38.845117, "rental_uris": {"ios": "https://dc.lft.to/lastmile_qr_scan", "android": "https://dc.lft.to/lastmile_qr_scan"}, "is_reserved": 0, "lon": -76.98810266666666, "fusion_lat": 0.0, "name": "9df1c70c9c2dfdfa80c0be01ab890f5b"}, {"type": "electric_scooter", "fusion_lon": 0.0, "bike_id": "eaf84d982aca2b23968b9306bbecb997", "is_disabled": 0, "lat": 38.9224145, "rental_uris": {"ios": "https://dc.lft.to/lastmile_qr_scan", "android": "https://dc.lft.to/lastmile_qr_scan"}, "is_reserved": 0, "lon": -77.042716, "fusion_lat": 0.0, "name": "eaf84d982aca2b23968b9306bbecb997"}, {"type": "electric_scooter", "fusion_lon": 0.0, "bike_id": "c82edc71524c1985e314dfa9ba3831e5", "is_disabled": 0, "lat": 38.92048583333333, "rental_uris": {"ios": "https://dc.lft.to/lastmile_qr_scan", "android": "https://dc.lft.to/lastmile_qr_scan"}, "is_reserved": 0, "lon": -77.033876, "fusion_lat": 0.0, "name": "c82edc71524c1985e314dfa9ba3831e5"}, {"type": "electric_scooter", "fusion_lon": 0.0, "bike_id": "67d1f6194738da0da6dc10486c8086e0", "is_disabled": 0, "lat": 38.924851, "rental_uris": {"ios": "https://dc.lft.to/lastmile_qr_scan", "android": "https://dc.lft.to/lastmile_qr_scan"}, "is_reserved": 0, "lon": -77.0255105, "fusion_lat": 0.0, "name": "67d1f6194738da0da6dc10486c8086e0"}, {"type": "electric_scooter", "fusion_lon": 0.0, "bike_id": "a4c70a223144d1454446c6c8a8dc2d05", "is_disabled": 0, "lat": 38.90865333333333, "rental_uris": {"ios": "https://dc.lft.to/lastmile_qr_scan", "android": "https://dc.lft.to/lastmile_qr_scan"}, "is_reserved": 0, "lon": -76.98496216666666, "fusion_lat": 0.0, "name": "a4c70a223144d1454446c6c8a8dc2d05"}, {"type": "electric_scooter", "fusion_lon": 0.0, "bike_id": "f0a570dd49c285800e53a09865328fdd", "is_disabled": 0, "lat": 38.926140833333335, "rental_uris": {"ios": "https://dc.lft.to/lastmile_qr_scan", "android": "https://dc.lft.to/lastmile_qr_scan"}, "is_reserved": 0, "lon": -77.03205716666666, "fusion_lat": 0.0, "name": "f0a570dd49c285800e53a09865328fdd"}, {"type": "electric_scooter", "fusion_lon": 0.0, "bike_id": "791e8553aab4e2b24f6273ddd2f42efa", "is_disabled": 0, "lat": 38.92471466666667, "rental_uris": {"ios": "https://dc.lft.to/lastmile_qr_scan", "android": "https://dc.lft.to/lastmile_qr_scan"}, "is_reserved": 0, "lon": -77.02910766666666, "fusion_lat": 0.0, "name": "791e8553aab4e2b24f6273ddd2f42efa"}, {"type": "electric_scooter", "fusion_lon": 0.0, "bike_id": "259b1465bfc743fc6bdb88846cb866f1", "is_disabled": 0, "lat": 38.923734833333334, "rental_uris": {"ios": "https://dc.lft.to/lastmile_qr_scan", "android": "https://dc.lft.to/lastmile_qr_scan"}, "is_reserved": 0, "lon": -77.01990083333334, "fusion_lat": 0.0, "name": "259b1465bfc743fc6bdb88846cb866f1"}, {"type": "electric_scooter", "fusion_lon": 0.0, "bike_id": "a4235e225392673d026fec586dd921d3", "is_disabled": 0, "lat": 38.862008833333334, "rental_uris": {"ios": "https://dc.lft.to/lastmile_qr_scan", "android": "https://dc.lft.to/lastmile_qr_scan"}, "is_reserved": 0, "lon": -76.99507016666666, "fusion_lat": 0.0, "name": "a4235e225392673d026fec586dd921d3"}, {"type": "electric_scooter", "fusion_lon": 0.0, "bike_id": "89368b1f20fa3192ebe411cd0d694af1", "is_disabled": 0, "lat": 38.95922933333333, "rental_uris": {"ios": "https://dc.lft.to/lastmile_qr_scan", "android": "https://dc.lft.to/lastmile_qr_scan"}, "is_reserved": 0, "lon": -76.99441, "fusion_lat": 0.0, "name": "89368b1f20fa3192ebe411cd0d694af1"}, {"type": "electric_scooter", "fusion_lon": 0.0, "bike_id": "6856c7fdcc6255abecde88d1d729f079", "is_disabled": 0, "lat": 38.924596, "rental_uris": {"ios": "https://dc.lft.to/lastmile_qr_scan", "android": "https://dc.lft.to/lastmile_qr_scan"}, "is_reserved": 0, "lon": -77.057613, "fusion_lat": 0.0, "name": "6856c7fdcc6255abecde88d1d729f079"}, {"type": "electric_scooter", "fusion_lon": 0.0, "bike_id": "02bde854df1b8ffef3198cb212d3def1", "is_disabled": 0, "lat": 38.9206675, "rental_uris": {"ios": "https://dc.lft.to/lastmile_qr_scan", "android": "https://dc.lft.to/lastmile_qr_scan"}, "is_reserved": 0, "lon": -77.024937, "fusion_lat": 0.0, "name": "02bde854df1b8ffef3198cb212d3def1"}, {"type": "electric_scooter", "fusion_lon": 0.0, "bike_id": "689456ee61c4d21ba9744ce29bb3a5d4", "is_disabled": 0, "lat": 38.926316666666665, "rental_uris": {"ios": "https://dc.lft.to/lastmile_qr_scan", "android": "https://dc.lft.to/lastmile_qr_scan"}, "is_reserved": 0, "lon": -76.9962595, "fusion_lat": 0.0, "name": "689456ee61c4d21ba9744ce29bb3a5d4"}, {"type": "electric_scooter", "fusion_lon": 0.0, "bike_id": "b2e9fb4c00e00fa2d9a22eb9eede2fde", "is_disabled": 0, "lat": 38.88736133333333, "rental_uris": {"ios": "https://dc.lft.to/lastmile_qr_scan", "android": "https://dc.lft.to/lastmile_qr_scan"}, "is_reserved": 0, "lon": -77.0317825, "fusion_lat": 0.0, "name": "b2e9fb4c00e00fa2d9a22eb9eede2fde"}, {"type": "electric_scooter", "fusion_lon": 0.0, "bike_id": "eb3e3b8e7f417ec072e9c437ae01b5a0", "is_disabled": 0, "lat": 38.87889783333333, "rental_uris": {"ios": "https://dc.lft.to/lastmile_qr_scan", "android": "https://dc.lft.to/lastmile_qr_scan"}, "is_reserved": 0, "lon": -77.0055095, "fusion_lat": 0.0, "name": "eb3e3b8e7f417ec072e9c437ae01b5a0"}, {"type": "electric_scooter", "fusion_lon": 0.0, "bike_id": "f643e0558d990878bafbaaa400df7865", "is_disabled": 0, "lat": 38.924680333333335, "rental_uris": {"ios": "https://dc.lft.to/lastmile_qr_scan", "android": "https://dc.lft.to/lastmile_qr_scan"}, "is_reserved": 0, "lon": -77.02713033333333, "fusion_lat": 0.0, "name": "f643e0558d990878bafbaaa400df7865"}, {"type": "electric_scooter", "fusion_lon": 0.0, "bike_id": "5f03fcc793baf6e756dee79d75c9e54f", "is_disabled": 0, "lat": 38.91410283333333, "rental_uris": {"ios": "https://dc.lft.to/lastmile_qr_scan", "android": "https://dc.lft.to/lastmile_qr_scan"}, "is_reserved": 0, "lon": -77.03266516666666, "fusion_lat": 0.0, "name": "5f03fcc793baf6e756dee79d75c9e54f"}, {"type": "electric_scooter", "fusion_lon": 0.0, "bike_id": "e11b781b95d566a3ff82a15566879159", "is_disabled": 0, "lat": 38.911956, "rental_uris": {"ios": "https://dc.lft.to/lastmile_qr_scan", "android": "https://dc.lft.to/lastmile_qr_scan"}, "is_reserved": 0, "lon": -77.04533416666666, "fusion_lat": 0.0, "name": "e11b781b95d566a3ff82a15566879159"}, {"type": "electric_scooter", "fusion_lon": 0.0, "bike_id": "dac00aecd283651f511add307aad1a2d", "is_disabled": 0, "lat": 38.897609833333334, "rental_uris": {"ios": "https://dc.lft.to/lastmile_qr_scan", "android": "https://dc.lft.to/lastmile_qr_scan"}, "is_reserved": 0, "lon": -76.986519, "fusion_lat": 0.0, "name": "dac00aecd283651f511add307aad1a2d"}, {"type": "electric_scooter", "fusion_lon": 0.0, "bike_id": "e99c15aef5a9d5f92df51baa28209e76", "is_disabled": 0, "lat": 38.921386, "rental_uris": {"ios": "https://dc.lft.to/lastmile_qr_scan", "android": "https://dc.lft.to/lastmile_qr_scan"}, "is_reserved": 0, "lon": -77.036668, "fusion_lat": 0.0, "name": "e99c15aef5a9d5f92df51baa28209e76"}, {"type": "electric_scooter", "fusion_lon": 0.0, "bike_id": "22b677db8994d1042cf8ba6e3c953169", "is_disabled": 0, "lat": 38.90122566666667, "rental_uris": {"ios": "https://dc.lft.to/lastmile_qr_scan", "android": "https://dc.lft.to/lastmile_qr_scan"}, "is_reserved": 0, "lon": -77.05151583333334, "fusion_lat": 0.0, "name": "22b677db8994d1042cf8ba6e3c953169"}, {"type": "electric_scooter", "fusion_lon": 0.0, "bike_id": "0a83f98cb3dae5a32878a51c7db0291f", "is_disabled": 0, "lat": 38.93436533333333, "rental_uris": {"ios": "https://dc.lft.to/lastmile_qr_scan", "android": "https://dc.lft.to/lastmile_qr_scan"}, "is_reserved": 0, "lon": -77.03295216666666, "fusion_lat": 0.0, "name": "0a83f98cb3dae5a32878a51c7db0291f"}, {"type": "electric_scooter", "fusion_lon": 0.0, "bike_id": "35169f0274aebbf8c9bd2c28d560fb5f", "is_disabled": 0, "lat": 38.90626566666667, "rental_uris": {"ios": "https://dc.lft.to/lastmile_qr_scan", "android": "https://dc.lft.to/lastmile_qr_scan"}, "is_reserved": 0, "lon": -77.051371, "fusion_lat": 0.0, "name": "35169f0274aebbf8c9bd2c28d560fb5f"}, {"type": "electric_scooter", "fusion_lon": 0.0, "bike_id": "8a79d255a90c0233e101d3f50cd847e2", "is_disabled": 0, "lat": 38.9141465, "rental_uris": {"ios": "https://dc.lft.to/lastmile_qr_scan", "android": "https://dc.lft.to/lastmile_qr_scan"}, "is_reserved": 0, "lon": -77.03544783333334, "fusion_lat": 0.0, "name": "8a79d255a90c0233e101d3f50cd847e2"}, {"type": "electric_bike", "fusion_lon": 0.0, "bike_id": "20cfa781c46b53282e7651e4f71a8bb8", "is_disabled": 0, "lat": 38.97469266666667, "rental_uris": {"ios": "https://dc.lft.to/lastmile_qr_scan", "android": "https://dc.lft.to/lastmile_qr_scan"}, "is_reserved": 0, "lon": -77.012047, "fusion_lat": 0.0, "name": "20cfa781c46b53282e7651e4f71a8bb8"}, {"type": "electric_scooter", "fusion_lon": 0.0, "bike_id": "99b8b049ce8c3c648811a79391ef0503", "is_disabled": 0, "lat": 38.89467, "rental_uris": {"ios": "https://dc.lft.to/lastmile_qr_scan", "android": "https://dc.lft.to/lastmile_qr_scan"}, "is_reserved": 0, "lon": -77.01864166666667, "fusion_lat": 0.0, "name": "99b8b049ce8c3c648811a79391ef0503"}, {"type": "electric_bike", "fusion_lon": 0.0, "bike_id": "e5177e8bf81cce6d22abb86b84a102af", "is_disabled": 0, "lat": 38.865841, "rental_uris": {"ios": "https://dc.lft.to/lastmile_qr_scan", "android": "https://dc.lft.to/lastmile_qr_scan"}, "is_reserved": 0, "lon": -76.98049366666666, "fusion_lat": 0.0, "name": "e5177e8bf81cce6d22abb86b84a102af"}, {"type": "electric_scooter", "fusion_lon": 0.0, "bike_id": "327cd20faf98cfc3c2e1a7c09045408f", "is_disabled": 0, "lat": 38.874038, "rental_uris": {"ios": "https://dc.lft.to/lastmile_qr_scan", "android": "https://dc.lft.to/lastmile_qr_scan"}, "is_reserved": 0, "lon": -76.96984516666667, "fusion_lat": 0.0, "name": "327cd20faf98cfc3c2e1a7c09045408f"}, {"type": "electric_scooter", "fusion_lon": 0.0, "bike_id": "28ebe5beef98abc9a5165140f0fd9304", "is_disabled": 0, "lat": 38.956041166666665, "rental_uris": {"ios": "https://dc.lft.to/lastmile_qr_scan", "android": "https://dc.lft.to/lastmile_qr_scan"}, "is_reserved": 0, "lon": -77.080611, "fusion_lat": 0.0, "name": "28ebe5beef98abc9a5165140f0fd9304"}, {"type": "electric_scooter", "fusion_lon": 0.0, "bike_id": "aaaf097acdef17288a8fcb712d3bb7ea", "is_disabled": 0, "lat": 38.88430433333333, "rental_uris": {"ios": "https://dc.lft.to/lastmile_qr_scan", "android": "https://dc.lft.to/lastmile_qr_scan"}, "is_reserved": 0, "lon": -76.957562, "fusion_lat": 0.0, "name": "aaaf097acdef17288a8fcb712d3bb7ea"}, {"type": "electric_scooter", "fusion_lon": 0.0, "bike_id": "6d0392080605e33ef6e93d16ff3b8557", "is_disabled": 0, "lat": 38.892197833333334, "rental_uris": {"ios": "https://dc.lft.to/lastmile_qr_scan", "android": "https://dc.lft.to/lastmile_qr_scan"}, "is_reserved": 0, "lon": -77.03208233333334, "fusion_lat": 0.0, "name": "6d0392080605e33ef6e93d16ff3b8557"}, {"type": "electric_scooter", "fusion_lon": 0.0, "bike_id": "0fee3916f96f2142e393ca35bf71325b", "is_disabled": 0, "lat": 38.927793, "rental_uris": {"ios": "https://dc.lft.to/lastmile_qr_scan", "android": "https://dc.lft.to/lastmile_qr_scan"}, "is_reserved": 0, "lon": -77.026953, "fusion_lat": 0.0, "name": "0fee3916f96f2142e393ca35bf71325b"}, {"type": "electric_scooter", "fusion_lon": 0.0, "bike_id": "9e54ffe16fed43ade126f22e869ba5bb", "is_disabled": 0, "lat": 38.94089266666667, "rental_uris": {"ios": "https://dc.lft.to/lastmile_qr_scan", "android": "https://dc.lft.to/lastmile_qr_scan"}, "is_reserved": 0, "lon": -77.02721066666666, "fusion_lat": 0.0, "name": "9e54ffe16fed43ade126f22e869ba5bb"}, {"type": "electric_scooter", "fusion_lon": 0.0, "bike_id": "6c8fb25fd5a1ecd80206d98401d8738e", "is_disabled": 0, "lat": 38.916349333333336, "rental_uris": {"ios": "https://dc.lft.to/lastmile_qr_scan", "android": "https://dc.lft.to/lastmile_qr_scan"}, "is_reserved": 0, "lon": -77.05071333333333, "fusion_lat": 0.0, "name": "6c8fb25fd5a1ecd80206d98401d8738e"}, {"type": "electric_scooter", "fusion_lon": 0.0, "bike_id": "60f200b549a9eaba783de6dae0f29fa8", "is_disabled": 0, "lat": 38.916343499999996, "rental_uris": {"ios": "https://dc.lft.to/lastmile_qr_scan", "android": "https://dc.lft.to/lastmile_qr_scan"}, "is_reserved": 0, "lon": -77.04578716666667, "fusion_lat": 0.0, "name": "60f200b549a9eaba783de6dae0f29fa8"}, {"type": "electric_scooter", "fusion_lon": 0.0, "bike_id": "6ca061d50af63ab215763ed8eb6c7149", "is_disabled": 0, "lat": 38.90158533333334, "rental_uris": {"ios": "https://dc.lft.to/lastmile_qr_scan", "android": "https://dc.lft.to/lastmile_qr_scan"}, "is_reserved": 0, "lon": -76.98065166666666, "fusion_lat": 0.0, "name": "6ca061d50af63ab215763ed8eb6c7149"}, {"type": "electric_scooter", "fusion_lon": 0.0, "bike_id": "af47af49d4256e2b464cc41cfda407a0", "is_disabled": 0, "lat": 38.9108, "rental_uris": {"ios": "https://dc.lft.to/lastmile_qr_scan", "android": "https://dc.lft.to/lastmile_qr_scan"}, "is_reserved": 0, "lon": -77.00152, "fusion_lat": 0.0, "name": "af47af49d4256e2b464cc41cfda407a0"}, {"type": "electric_scooter", "fusion_lon": 0.0, "bike_id": "27092494eacecdb72efac629a88b5947", "is_disabled": 0, "lat": 38.933511833333334, "rental_uris": {"ios": "https://dc.lft.to/lastmile_qr_scan", "android": "https://dc.lft.to/lastmile_qr_scan"}, "is_reserved": 0, "lon": -77.02980166666667, "fusion_lat": 0.0, "name": "27092494eacecdb72efac629a88b5947"}, {"type": "electric_scooter", "fusion_lon": 0.0, "bike_id": "d893c34ff76b96592eb6a979f9142107", "is_disabled": 0, "lat": 38.906702333333335, "rental_uris": {"ios": "https://dc.lft.to/lastmile_qr_scan", "android": "https://dc.lft.to/lastmile_qr_scan"}, "is_reserved": 0, "lon": -77.02953616666667, "fusion_lat": 0.0, "name": "d893c34ff76b96592eb6a979f9142107"}, {"type": "electric_scooter", "fusion_lon": 0.0, "bike_id": "bdbfeed427202b8fad7c08af4553b6d6", "is_disabled": 0, "lat": 38.894019, "rental_uris": {"ios": "https://dc.lft.to/lastmile_qr_scan", "android": "https://dc.lft.to/lastmile_qr_scan"}, "is_reserved": 0, "lon": -77.02117916666667, "fusion_lat": 0.0, "name": "bdbfeed427202b8fad7c08af4553b6d6"}, {"type": "electric_scooter", "fusion_lon": 0.0, "bike_id": "d8e2f32ae0f05fdee515a41451305acd", "is_disabled": 0, "lat": 38.924801333333335, "rental_uris": {"ios": "https://dc.lft.to/lastmile_qr_scan", "android": "https://dc.lft.to/lastmile_qr_scan"}, "is_reserved": 0, "lon": -77.02553916666666, "fusion_lat": 0.0, "name": "d8e2f32ae0f05fdee515a41451305acd"}, {"type": "electric_scooter", "fusion_lon": 0.0, "bike_id": "87b314a29b44dd7e9240b75fd965533a", "is_disabled": 0, "lat": 38.9168765, "rental_uris": {"ios": "https://dc.lft.to/lastmile_qr_scan", "android": "https://dc.lft.to/lastmile_qr_scan"}, "is_reserved": 0, "lon": -77.02527733333334, "fusion_lat": 0.0, "name": "87b314a29b44dd7e9240b75fd965533a"}, {"type": "electric_scooter", "fusion_lon": 0.0, "bike_id": "e3fe20f04766e2d6803ffda7d6184fe6", "is_disabled": 0, "lat": 38.86960066666666, "rental_uris": {"ios": "https://dc.lft.to/lastmile_qr_scan", "android": "https://dc.lft.to/lastmile_qr_scan"}, "is_reserved": 0, "lon": -76.978611, "fusion_lat": 0.0, "name": "e3fe20f04766e2d6803ffda7d6184fe6"}, {"type": "electric_scooter", "fusion_lon": 0.0, "bike_id": "d6de139a9edbf9b6cbcdb6fb9ab86af6", "is_disabled": 0, "lat": 38.900402666666665, "rental_uris": {"ios": "https://dc.lft.to/lastmile_qr_scan", "android": "https://dc.lft.to/lastmile_qr_scan"}, "is_reserved": 0, "lon": -77.04331966666666, "fusion_lat": 0.0, "name": "d6de139a9edbf9b6cbcdb6fb9ab86af6"}, {"type": "electric_scooter", "fusion_lon": 0.0, "bike_id": "7862d7f86c8598edf54c7225924c7e50", "is_disabled": 0, "lat": 38.919171, "rental_uris": {"ios": "https://dc.lft.to/lastmile_qr_scan", "android": "https://dc.lft.to/lastmile_qr_scan"}, "is_reserved": 0, "lon": -77.03040183333333, "fusion_lat": 0.0, "name": "7862d7f86c8598edf54c7225924c7e50"}, {"type": "electric_scooter", "fusion_lon": 0.0, "bike_id": "a4751e3a070f34702265dbf0d7218598", "is_disabled": 0, "lat": 38.92090666666667, "rental_uris": {"ios": "https://dc.lft.to/lastmile_qr_scan", "android": "https://dc.lft.to/lastmile_qr_scan"}, "is_reserved": 0, "lon": -77.02593183333333, "fusion_lat": 0.0, "name": "a4751e3a070f34702265dbf0d7218598"}, {"type": "electric_scooter", "fusion_lon": 0.0, "bike_id": "fda3e4f808703cc6491246c8b65e81f0", "is_disabled": 0, "lat": 38.91970116666667, "rental_uris": {"ios": "https://dc.lft.to/lastmile_qr_scan", "android": "https://dc.lft.to/lastmile_qr_scan"}, "is_reserved": 0, "lon": -77.03860183333333, "fusion_lat": 0.0, "name": "fda3e4f808703cc6491246c8b65e81f0"}, {"type": "electric_scooter", "fusion_lon": 0.0, "bike_id": "66928d6b1affe7c709d4dbb74b3fa977", "is_disabled": 0, "lat": 38.894054, "rental_uris": {"ios": "https://dc.lft.to/lastmile_qr_scan", "android": "https://dc.lft.to/lastmile_qr_scan"}, "is_reserved": 0, "lon": -77.02151083333334, "fusion_lat": 0.0, "name": "66928d6b1affe7c709d4dbb74b3fa977"}, {"type": "electric_scooter", "fusion_lon": 0.0, "bike_id": "410f06c8c2b7875f9315f90f39a260bf", "is_disabled": 0, "lat": 38.914230333333336, "rental_uris": {"ios": "https://dc.lft.to/lastmile_qr_scan", "android": "https://dc.lft.to/lastmile_qr_scan"}, "is_reserved": 0, "lon": -77.03901183333333, "fusion_lat": 0.0, "name": "410f06c8c2b7875f9315f90f39a260bf"}, {"type": "electric_scooter", "fusion_lon": 0.0, "bike_id": "f100dd41d3e84c14c158bdbf9a43e294", "is_disabled": 0, "lat": 38.93537033333333, "rental_uris": {"ios": "https://dc.lft.to/lastmile_qr_scan", "android": "https://dc.lft.to/lastmile_qr_scan"}, "is_reserved": 0, "lon": -77.023499, "fusion_lat": 0.0, "name": "f100dd41d3e84c14c158bdbf9a43e294"}, {"type": "electric_bike", "fusion_lon": 0.0, "bike_id": "f8d76f060f6f76a6dead72557b0b364a", "is_disabled": 0, "lat": 39.01564916666667, "rental_uris": {"ios": "https://dc.lft.to/lastmile_qr_scan", "android": "https://dc.lft.to/lastmile_qr_scan"}, "is_reserved": 0, "lon": -77.04426133333334, "fusion_lat": 0.0, "name": "f8d76f060f6f76a6dead72557b0b364a"}, {"type": "electric_scooter", "fusion_lon": 0.0, "bike_id": "351ffbed21977dc4968dd2139c4f629a", "is_disabled": 0, "lat": 38.88401483333333, "rental_uris": {"ios": "https://dc.lft.to/lastmile_qr_scan", "android": "https://dc.lft.to/lastmile_qr_scan"}, "is_reserved": 0, "lon": -77.02407, "fusion_lat": 0.0, "name": "351ffbed21977dc4968dd2139c4f629a"}, {"type": "electric_scooter", "fusion_lon": 0.0, "bike_id": "500066d30af7b642a10803402a336f60", "is_disabled": 0, "lat": 38.89269383333333, "rental_uris": {"ios": "https://dc.lft.to/lastmile_qr_scan", "android": "https://dc.lft.to/lastmile_qr_scan"}, "is_reserved": 0, "lon": -77.04207633333333, "fusion_lat": 0.0, "name": "500066d30af7b642a10803402a336f60"}, {"type": "electric_scooter", "fusion_lon": 0.0, "bike_id": "2d0b31f8c4967c8d18bce6a150c412b1", "is_disabled": 0, "lat": 38.9135365, "rental_uris": {"ios": "https://dc.lft.to/lastmile_qr_scan", "android": "https://dc.lft.to/lastmile_qr_scan"}, "is_reserved": 0, "lon": -77.0318225, "fusion_lat": 0.0, "name": "2d0b31f8c4967c8d18bce6a150c412b1"}, {"type": "electric_scooter", "fusion_lon": 0.0, "bike_id": "909889a324d9c3496f2c6a5ba1501ea7", "is_disabled": 0, "lat": 38.88332716666667, "rental_uris": {"ios": "https://dc.lft.to/lastmile_qr_scan", "android": "https://dc.lft.to/lastmile_qr_scan"}, "is_reserved": 0, "lon": -77.011418, "fusion_lat": 0.0, "name": "909889a324d9c3496f2c6a5ba1501ea7"}, {"type": "electric_scooter", "fusion_lon": 0.0, "bike_id": "7c45a9a947dc956da85890c56f2cc3fd", "is_disabled": 0, "lat": 38.92976016666667, "rental_uris": {"ios": "https://dc.lft.to/lastmile_qr_scan", "android": "https://dc.lft.to/lastmile_qr_scan"}, "is_reserved": 0, "lon": -77.02817416666667, "fusion_lat": 0.0, "name": "7c45a9a947dc956da85890c56f2cc3fd"}, {"type": "electric_scooter", "fusion_lon": 0.0, "bike_id": "70fa5c27960ec630d673946a103166cc", "is_disabled": 0, "lat": 38.9235185, "rental_uris": {"ios": "https://dc.lft.to/lastmile_qr_scan", "android": "https://dc.lft.to/lastmile_qr_scan"}, "is_reserved": 0, "lon": -77.03643766666667, "fusion_lat": 0.0, "name": "70fa5c27960ec630d673946a103166cc"}, {"type": "electric_scooter", "fusion_lon": 0.0, "bike_id": "18b494be803950dfd43395d8f07e7c15", "is_disabled": 0, "lat": 38.91399533333333, "rental_uris": {"ios": "https://dc.lft.to/lastmile_qr_scan", "android": "https://dc.lft.to/lastmile_qr_scan"}, "is_reserved": 0, "lon": -77.0641985, "fusion_lat": 0.0, "name": "18b494be803950dfd43395d8f07e7c15"}, {"type": "electric_scooter", "fusion_lon": 0.0, "bike_id": "cfc9e024195340fb9e981ab0e9b04e5d", "is_disabled": 0, "lat": 38.9308425, "rental_uris": {"ios": "https://dc.lft.to/lastmile_qr_scan", "android": "https://dc.lft.to/lastmile_qr_scan"}, "is_reserved": 0, "lon": -77.0246815, "fusion_lat": 0.0, "name": "cfc9e024195340fb9e981ab0e9b04e5d"}, {"type": "electric_scooter", "fusion_lon": 0.0, "bike_id": "2b592b4385e4370916a65825fb8aefce", "is_disabled": 0, "lat": 38.907552833333334, "rental_uris": {"ios": "https://dc.lft.to/lastmile_qr_scan", "android": "https://dc.lft.to/lastmile_qr_scan"}, "is_reserved": 0, "lon": -77.03575683333334, "fusion_lat": 0.0, "name": "2b592b4385e4370916a65825fb8aefce"}, {"type": "electric_scooter", "fusion_lon": 0.0, "bike_id": "3877964f59405e2826aeaa0107b57828", "is_disabled": 0, "lat": 38.92265316666666, "rental_uris": {"ios": "https://dc.lft.to/lastmile_qr_scan", "android": "https://dc.lft.to/lastmile_qr_scan"}, "is_reserved": 0, "lon": -77.02962966666666, "fusion_lat": 0.0, "name": "3877964f59405e2826aeaa0107b57828"}, {"type": "electric_scooter", "fusion_lon": 0.0, "bike_id": "cc9b6ee1450247a1cc99e50262cc2283", "is_disabled": 0, "lat": 38.94837316666667, "rental_uris": {"ios": "https://dc.lft.to/lastmile_qr_scan", "android": "https://dc.lft.to/lastmile_qr_scan"}, "is_reserved": 0, "lon": -77.02461733333334, "fusion_lat": 0.0, "name": "cc9b6ee1450247a1cc99e50262cc2283"}, {"type": "electric_scooter", "fusion_lon": 0.0, "bike_id": "5d68c7b56e3eff75499a5c11bf334227", "is_disabled": 0, "lat": 38.915317333333334, "rental_uris": {"ios": "https://dc.lft.to/lastmile_qr_scan", "android": "https://dc.lft.to/lastmile_qr_scan"}, "is_reserved": 0, "lon": -77.0444805, "fusion_lat": 0.0, "name": "5d68c7b56e3eff75499a5c11bf334227"}, {"type": "electric_scooter", "fusion_lon": 0.0, "bike_id": "f18f9098b4ab9c924d9eb2b0d69ef07c", "is_disabled": 0, "lat": 38.91666633333333, "rental_uris": {"ios": "https://dc.lft.to/lastmile_qr_scan", "android": "https://dc.lft.to/lastmile_qr_scan"}, "is_reserved": 0, "lon": -77.043942, "fusion_lat": 0.0, "name": "f18f9098b4ab9c924d9eb2b0d69ef07c"}, {"type": "electric_scooter", "fusion_lon": 0.0, "bike_id": "beadba4b77949e6c20fc088e7fa14794", "is_disabled": 0, "lat": 38.90140533333334, "rental_uris": {"ios": "https://dc.lft.to/lastmile_qr_scan", "android": "https://dc.lft.to/lastmile_qr_scan"}, "is_reserved": 0, "lon": -77.04075166666667, "fusion_lat": 0.0, "name": "beadba4b77949e6c20fc088e7fa14794"}, {"type": "electric_scooter", "fusion_lon": 0.0, "bike_id": "ba9cb696921ab8f3fae83d80e47c86b0", "is_disabled": 0, "lat": 38.90509933333333, "rental_uris": {"ios": "https://dc.lft.to/lastmile_qr_scan", "android": "https://dc.lft.to/lastmile_qr_scan"}, "is_reserved": 0, "lon": -77.06473133333333, "fusion_lat": 0.0, "name": "ba9cb696921ab8f3fae83d80e47c86b0"}, {"type": "electric_scooter", "fusion_lon": 0.0, "bike_id": "0dd2de3da4c74d7278312b07cacc2d04", "is_disabled": 0, "lat": 38.900104, "rental_uris": {"ios": "https://dc.lft.to/lastmile_qr_scan", "android": "https://dc.lft.to/lastmile_qr_scan"}, "is_reserved": 0, "lon": -77.02610416666667, "fusion_lat": 0.0, "name": "0dd2de3da4c74d7278312b07cacc2d04"}, {"type": "electric_scooter", "fusion_lon": 0.0, "bike_id": "6ca1b58cb5f37dbfe8d54682119ffe79", "is_disabled": 0, "lat": 38.926821, "rental_uris": {"ios": "https://dc.lft.to/lastmile_qr_scan", "android": "https://dc.lft.to/lastmile_qr_scan"}, "is_reserved": 0, "lon": -77.02257616666667, "fusion_lat": 0.0, "name": "6ca1b58cb5f37dbfe8d54682119ffe79"}, {"type": "electric_scooter", "fusion_lon": 0.0, "bike_id": "c5c72dda1bf3b7fe53ed5d6cbd674764", "is_disabled": 0, "lat": 38.911951, "rental_uris": {"ios": "https://dc.lft.to/lastmile_qr_scan", "android": "https://dc.lft.to/lastmile_qr_scan"}, "is_reserved": 0, "lon": -77.00181016666667, "fusion_lat": 0.0, "name": "c5c72dda1bf3b7fe53ed5d6cbd674764"}, {"type": "electric_scooter", "fusion_lon": 0.0, "bike_id": "d56f5227b3ed31875a6fd279fd51c910", "is_disabled": 0, "lat": 38.910156, "rental_uris": {"ios": "https://dc.lft.to/lastmile_qr_scan", "android": "https://dc.lft.to/lastmile_qr_scan"}, "is_reserved": 0, "lon": -77.038501, "fusion_lat": 0.0, "name": "d56f5227b3ed31875a6fd279fd51c910"}, {"type": "electric_scooter", "fusion_lon": 0.0, "bike_id": "6e4fde2186bed23ee9f3e54609ad63d1", "is_disabled": 0, "lat": 38.91277683333333, "rental_uris": {"ios": "https://dc.lft.to/lastmile_qr_scan", "android": "https://dc.lft.to/lastmile_qr_scan"}, "is_reserved": 0, "lon": -77.02969066666667, "fusion_lat": 0.0, "name": "6e4fde2186bed23ee9f3e54609ad63d1"}, {"type": "electric_scooter", "fusion_lon": 0.0, "bike_id": "64f1e56f3bbd52779562d7ef7689b4ce", "is_disabled": 0, "lat": 38.93561, "rental_uris": {"ios": "https://dc.lft.to/lastmile_qr_scan", "android": "https://dc.lft.to/lastmile_qr_scan"}, "is_reserved": 0, "lon": -77.07464016666667, "fusion_lat": 0.0, "name": "64f1e56f3bbd52779562d7ef7689b4ce"}, {"type": "electric_scooter", "fusion_lon": 0.0, "bike_id": "24007a88e3f0dd614ed479228f57a1cd", "is_disabled": 0, "lat": 38.921412, "rental_uris": {"ios": "https://dc.lft.to/lastmile_qr_scan", "android": "https://dc.lft.to/lastmile_qr_scan"}, "is_reserved": 0, "lon": -77.04118733333334, "fusion_lat": 0.0, "name": "24007a88e3f0dd614ed479228f57a1cd"}, {"type": "electric_scooter", "fusion_lon": 0.0, "bike_id": "4f522e8ab777325e1117abcad3753d23", "is_disabled": 0, "lat": 38.89227666666667, "rental_uris": {"ios": "https://dc.lft.to/lastmile_qr_scan", "android": "https://dc.lft.to/lastmile_qr_scan"}, "is_reserved": 0, "lon": -77.028275, "fusion_lat": 0.0, "name": "4f522e8ab777325e1117abcad3753d23"}, {"type": "electric_scooter", "fusion_lon": 0.0, "bike_id": "3317f0e2804e64177bff971481d887c8", "is_disabled": 0, "lat": 38.89130466666667, "rental_uris": {"ios": "https://dc.lft.to/lastmile_qr_scan", "android": "https://dc.lft.to/lastmile_qr_scan"}, "is_reserved": 0, "lon": -76.9889, "fusion_lat": 0.0, "name": "3317f0e2804e64177bff971481d887c8"}, {"type": "electric_scooter", "fusion_lon": 0.0, "bike_id": "cf8cc13eb62f4f6bbc6d67ae194b0862", "is_disabled": 0, "lat": 38.931009, "rental_uris": {"ios": "https://dc.lft.to/lastmile_qr_scan", "android": "https://dc.lft.to/lastmile_qr_scan"}, "is_reserved": 0, "lon": -77.0247435, "fusion_lat": 0.0, "name": "cf8cc13eb62f4f6bbc6d67ae194b0862"}, {"type": "electric_scooter", "fusion_lon": 0.0, "bike_id": "aa9319d569d6834c91b7599693feff21", "is_disabled": 0, "lat": 38.90879266666666, "rental_uris": {"ios": "https://dc.lft.to/lastmile_qr_scan", "android": "https://dc.lft.to/lastmile_qr_scan"}, "is_reserved": 0, "lon": -77.0678025, "fusion_lat": 0.0, "name": "aa9319d569d6834c91b7599693feff21"}, {"type": "electric_scooter", "fusion_lon": 0.0, "bike_id": "661a321cad09df00f8cc2f8ce537f910", "is_disabled": 0, "lat": 38.92028883333333, "rental_uris": {"ios": "https://dc.lft.to/lastmile_qr_scan", "android": "https://dc.lft.to/lastmile_qr_scan"}, "is_reserved": 0, "lon": -77.01429, "fusion_lat": 0.0, "name": "661a321cad09df00f8cc2f8ce537f910"}, {"type": "electric_bike", "fusion_lon": 0.0, "bike_id": "ed8dfe59e9e836e0c4f4d0d555d2b1fa", "is_disabled": 0, "lat": 38.89569066666667, "rental_uris": {"ios": "https://dc.lft.to/lastmile_qr_scan", "android": "https://dc.lft.to/lastmile_qr_scan"}, "is_reserved": 0, "lon": -77.09617516666667, "fusion_lat": 0.0, "name": "ed8dfe59e9e836e0c4f4d0d555d2b1fa"}, {"type": "electric_scooter", "fusion_lon": 0.0, "bike_id": "57c3d58ee5f3111c794d4ca6c6ed1ab2", "is_disabled": 0, "lat": 38.905147166666666, "rental_uris": {"ios": "https://dc.lft.to/lastmile_qr_scan", "android": "https://dc.lft.to/lastmile_qr_scan"}, "is_reserved": 0, "lon": -77.04775033333334, "fusion_lat": 0.0, "name": "57c3d58ee5f3111c794d4ca6c6ed1ab2"}, {"type": "electric_scooter", "fusion_lon": 0.0, "bike_id": "23b4f444891353b8db60a45e652148f2", "is_disabled": 0, "lat": 38.914783, "rental_uris": {"ios": "https://dc.lft.to/lastmile_qr_scan", "android": "https://dc.lft.to/lastmile_qr_scan"}, "is_reserved": 0, "lon": -77.032453, "fusion_lat": 0.0, "name": "23b4f444891353b8db60a45e652148f2"}, {"type": "electric_scooter", "fusion_lon": 0.0, "bike_id": "ba3da6c13cdf7ef88cc4b3dba5e0e575", "is_disabled": 0, "lat": 38.902510666666664, "rental_uris": {"ios": "https://dc.lft.to/lastmile_qr_scan", "android": "https://dc.lft.to/lastmile_qr_scan"}, "is_reserved": 0, "lon": -77.0267775, "fusion_lat": 0.0, "name": "ba3da6c13cdf7ef88cc4b3dba5e0e575"}, {"type": "electric_scooter", "fusion_lon": 0.0, "bike_id": "334a4902d7dac16261f19df5e8e77f77", "is_disabled": 0, "lat": 38.887694333333336, "rental_uris": {"ios": "https://dc.lft.to/lastmile_qr_scan", "android": "https://dc.lft.to/lastmile_qr_scan"}, "is_reserved": 0, "lon": -77.03354533333334, "fusion_lat": 0.0, "name": "334a4902d7dac16261f19df5e8e77f77"}, {"type": "electric_scooter", "fusion_lon": 0.0, "bike_id": "8e027909b6397aba8d7e7c8e5e6a6bfa", "is_disabled": 0, "lat": 38.95186016666667, "rental_uris": {"ios": "https://dc.lft.to/lastmile_qr_scan", "android": "https://dc.lft.to/lastmile_qr_scan"}, "is_reserved": 0, "lon": -77.02619083333333, "fusion_lat": 0.0, "name": "8e027909b6397aba8d7e7c8e5e6a6bfa"}, {"type": "electric_scooter", "fusion_lon": 0.0, "bike_id": "f7f9e75e7924e1e6bb7b1134d48dce60", "is_disabled": 0, "lat": 38.918332, "rental_uris": {"ios": "https://dc.lft.to/lastmile_qr_scan", "android": "https://dc.lft.to/lastmile_qr_scan"}, "is_reserved": 0, "lon": -77.041702, "fusion_lat": 0.0, "name": "f7f9e75e7924e1e6bb7b1134d48dce60"}, {"type": "electric_scooter", "fusion_lon": 0.0, "bike_id": "b58a6c21647fd94c883179aec0deb9a7", "is_disabled": 0, "lat": 38.905236333333335, "rental_uris": {"ios": "https://dc.lft.to/lastmile_qr_scan", "android": "https://dc.lft.to/lastmile_qr_scan"}, "is_reserved": 0, "lon": -77.029755, "fusion_lat": 0.0, "name": "b58a6c21647fd94c883179aec0deb9a7"}, {"type": "electric_scooter", "fusion_lon": 0.0, "bike_id": "9b6ef4cb6562639aa84971dfe7ccb4d4", "is_disabled": 0, "lat": 38.89226383333333, "rental_uris": {"ios": "https://dc.lft.to/lastmile_qr_scan", "android": "https://dc.lft.to/lastmile_qr_scan"}, "is_reserved": 0, "lon": -77.02418766666666, "fusion_lat": 0.0, "name": "9b6ef4cb6562639aa84971dfe7ccb4d4"}, {"type": "electric_scooter", "fusion_lon": 0.0, "bike_id": "f5e3b178fb8fc4aef4b60eb3a68cd03f", "is_disabled": 0, "lat": 38.90235716666667, "rental_uris": {"ios": "https://dc.lft.to/lastmile_qr_scan", "android": "https://dc.lft.to/lastmile_qr_scan"}, "is_reserved": 0, "lon": -77.00211916666666, "fusion_lat": 0.0, "name": "f5e3b178fb8fc4aef4b60eb3a68cd03f"}, {"type": "electric_scooter", "fusion_lon": 0.0, "bike_id": "36686ba2513f131986c0797138984ee9", "is_disabled": 0, "lat": 38.911909, "rental_uris": {"ios": "https://dc.lft.to/lastmile_qr_scan", "android": "https://dc.lft.to/lastmile_qr_scan"}, "is_reserved": 0, "lon": -77.01080633333333, "fusion_lat": 0.0, "name": "36686ba2513f131986c0797138984ee9"}, {"type": "electric_scooter", "fusion_lon": 0.0, "bike_id": "c37ed14d37b33dc60c6aff9d930b9028", "is_disabled": 0, "lat": 38.941987, "rental_uris": {"ios": "https://dc.lft.to/lastmile_qr_scan", "android": "https://dc.lft.to/lastmile_qr_scan"}, "is_reserved": 0, "lon": -77.024356, "fusion_lat": 0.0, "name": "c37ed14d37b33dc60c6aff9d930b9028"}, {"type": "electric_bike", "fusion_lon": 0.0, "bike_id": "aad9245f5546156896b8a0b280e22f8a", "is_disabled": 0, "lat": 38.81335216666667, "rental_uris": {"ios": "https://dc.lft.to/lastmile_qr_scan", "android": "https://dc.lft.to/lastmile_qr_scan"}, "is_reserved": 0, "lon": -77.05115166666667, "fusion_lat": 0.0, "name": "aad9245f5546156896b8a0b280e22f8a"}, {"type": "electric_scooter", "fusion_lon": 0.0, "bike_id": "6e3c18c966aaf6b535e2a31a279bcff5", "is_disabled": 0, "lat": 38.91476016666667, "rental_uris": {"ios": "https://dc.lft.to/lastmile_qr_scan", "android": "https://dc.lft.to/lastmile_qr_scan"}, "is_reserved": 0, "lon": -77.03826416666666, "fusion_lat": 0.0, "name": "6e3c18c966aaf6b535e2a31a279bcff5"}, {"type": "electric_scooter", "fusion_lon": 0.0, "bike_id": "36bdb838bbd679055aa5716d3cc37d23", "is_disabled": 0, "lat": 38.9602415, "rental_uris": {"ios": "https://dc.lft.to/lastmile_qr_scan", "android": "https://dc.lft.to/lastmile_qr_scan"}, "is_reserved": 0, "lon": -77.01982983333333, "fusion_lat": 0.0, "name": "36bdb838bbd679055aa5716d3cc37d23"}, {"type": "electric_scooter", "fusion_lon": 0.0, "bike_id": "1383d49ce5706932ae8db59ecbbf44a4", "is_disabled": 0, "lat": 38.918790666666666, "rental_uris": {"ios": "https://dc.lft.to/lastmile_qr_scan", "android": "https://dc.lft.to/lastmile_qr_scan"}, "is_reserved": 0, "lon": -77.02434316666667, "fusion_lat": 0.0, "name": "1383d49ce5706932ae8db59ecbbf44a4"}, {"type": "electric_scooter", "fusion_lon": 0.0, "bike_id": "fabc2747356f317ce74d1ae89407340e", "is_disabled": 0, "lat": 38.91047866666667, "rental_uris": {"ios": "https://dc.lft.to/lastmile_qr_scan", "android": "https://dc.lft.to/lastmile_qr_scan"}, "is_reserved": 0, "lon": -77.01999783333333, "fusion_lat": 0.0, "name": "fabc2747356f317ce74d1ae89407340e"}, {"type": "electric_scooter", "fusion_lon": 0.0, "bike_id": "e5061ad48afa5192c58921cd0fc6cf17", "is_disabled": 0, "lat": 38.9013825, "rental_uris": {"ios": "https://dc.lft.to/lastmile_qr_scan", "android": "https://dc.lft.to/lastmile_qr_scan"}, "is_reserved": 0, "lon": -77.04039183333333, "fusion_lat": 0.0, "name": "e5061ad48afa5192c58921cd0fc6cf17"}, {"type": "electric_scooter", "fusion_lon": 0.0, "bike_id": "568ead2bd74fda1d0a52acf871529fdd", "is_disabled": 0, "lat": 38.9110845, "rental_uris": {"ios": "https://dc.lft.to/lastmile_qr_scan", "android": "https://dc.lft.to/lastmile_qr_scan"}, "is_reserved": 0, "lon": -77.03832066666666, "fusion_lat": 0.0, "name": "568ead2bd74fda1d0a52acf871529fdd"}, {"type": "electric_scooter", "fusion_lon": 0.0, "bike_id": "a25e01cd111afc03e44783a1f49d6171", "is_disabled": 0, "lat": 38.9183685, "rental_uris": {"ios": "https://dc.lft.to/lastmile_qr_scan", "android": "https://dc.lft.to/lastmile_qr_scan"}, "is_reserved": 0, "lon": -77.03542266666666, "fusion_lat": 0.0, "name": "a25e01cd111afc03e44783a1f49d6171"}, {"type": "electric_scooter", "fusion_lon": 0.0, "bike_id": "9953ebff60ca5dbbecc1d185769fcfd4", "is_disabled": 0, "lat": 38.907613166666664, "rental_uris": {"ios": "https://dc.lft.to/lastmile_qr_scan", "android": "https://dc.lft.to/lastmile_qr_scan"}, "is_reserved": 0, "lon": -77.02304916666667, "fusion_lat": 0.0, "name": "9953ebff60ca5dbbecc1d185769fcfd4"}, {"type": "electric_scooter", "fusion_lon": 0.0, "bike_id": "f5ecfcc26833c74caa3281750a478c6a", "is_disabled": 0, "lat": 38.909964333333335, "rental_uris": {"ios": "https://dc.lft.to/lastmile_qr_scan", "android": "https://dc.lft.to/lastmile_qr_scan"}, "is_reserved": 0, "lon": -76.99454366666667, "fusion_lat": 0.0, "name": "f5ecfcc26833c74caa3281750a478c6a"}, {"type": "electric_scooter", "fusion_lon": 0.0, "bike_id": "5b563124b02af1824eab2584afa49912", "is_disabled": 0, "lat": 38.91348716666667, "rental_uris": {"ios": "https://dc.lft.to/lastmile_qr_scan", "android": "https://dc.lft.to/lastmile_qr_scan"}, "is_reserved": 0, "lon": -77.0294525, "fusion_lat": 0.0, "name": "5b563124b02af1824eab2584afa49912"}, {"type": "electric_bike", "fusion_lon": 0.0, "bike_id": "fa64e16ce9b2ce0bcbe0aedba06e38ec", "is_disabled": 0, "lat": 38.831053, "rental_uris": {"ios": "https://dc.lft.to/lastmile_qr_scan", "android": "https://dc.lft.to/lastmile_qr_scan"}, "is_reserved": 0, "lon": -77.1128435, "fusion_lat": 0.0, "name": "fa64e16ce9b2ce0bcbe0aedba06e38ec"}, {"type": "electric_scooter", "fusion_lon": 0.0, "bike_id": "d55753644a2de46bc58348fdf588f05b", "is_disabled": 0, "lat": 38.924534333333334, "rental_uris": {"ios": "https://dc.lft.to/lastmile_qr_scan", "android": "https://dc.lft.to/lastmile_qr_scan"}, "is_reserved": 0, "lon": -77.032888, "fusion_lat": 0.0, "name": "d55753644a2de46bc58348fdf588f05b"}, {"type": "electric_scooter", "fusion_lon": 0.0, "bike_id": "230308124da5588b2deb69dd8ebc011d", "is_disabled": 0, "lat": 38.908583666666665, "rental_uris": {"ios": "https://dc.lft.to/lastmile_qr_scan", "android": "https://dc.lft.to/lastmile_qr_scan"}, "is_reserved": 0, "lon": -77.03497883333333, "fusion_lat": 0.0, "name": "230308124da5588b2deb69dd8ebc011d"}, {"type": "electric_bike", "fusion_lon": 0.0, "bike_id": "6165091a9770c12d4ec442f9feb1830d", "is_disabled": 0, "lat": 38.935874, "rental_uris": {"ios": "https://dc.lft.to/lastmile_qr_scan", "android": "https://dc.lft.to/lastmile_qr_scan"}, "is_reserved": 0, "lon": -77.03752983333334, "fusion_lat": 0.0, "name": "6165091a9770c12d4ec442f9feb1830d"}, {"type": "electric_scooter", "fusion_lon": 0.0, "bike_id": "7860426f2afd2d0b8022a74dd97434c9", "is_disabled": 0, "lat": 38.91340366666667, "rental_uris": {"ios": "https://dc.lft.to/lastmile_qr_scan", "android": "https://dc.lft.to/lastmile_qr_scan"}, "is_reserved": 0, "lon": -77.063209, "fusion_lat": 0.0, "name": "7860426f2afd2d0b8022a74dd97434c9"}, {"type": "electric_bike", "fusion_lon": 0.0, "bike_id": "1090ae3f78cb02f6e7befa234c8f8d94", "is_disabled": 0, "lat": 38.9000305, "rental_uris": {"ios": "https://dc.lft.to/lastmile_qr_scan", "android": "https://dc.lft.to/lastmile_qr_scan"}, "is_reserved": 0, "lon": -77.005448, "fusion_lat": 0.0, "name": "1090ae3f78cb02f6e7befa234c8f8d94"}, {"type": "electric_scooter", "fusion_lon": 0.0, "bike_id": "e1cf3e90556587647af6651b7d4fa538", "is_disabled": 0, "lat": 38.909778833333334, "rental_uris": {"ios": "https://dc.lft.to/lastmile_qr_scan", "android": "https://dc.lft.to/lastmile_qr_scan"}, "is_reserved": 0, "lon": -77.03843416666666, "fusion_lat": 0.0, "name": "e1cf3e90556587647af6651b7d4fa538"}, {"type": "electric_scooter", "fusion_lon": 0.0, "bike_id": "c899a0fb56ecd95f61062609476feb32", "is_disabled": 0, "lat": 38.928975333333334, "rental_uris": {"ios": "https://dc.lft.to/lastmile_qr_scan", "android": "https://dc.lft.to/lastmile_qr_scan"}, "is_reserved": 0, "lon": -77.0581115, "fusion_lat": 0.0, "name": "c899a0fb56ecd95f61062609476feb32"}, {"type": "electric_scooter", "fusion_lon": 0.0, "bike_id": "3721cd255eb989b0ca10e916cad3016b", "is_disabled": 0, "lat": 38.907760833333334, "rental_uris": {"ios": "https://dc.lft.to/lastmile_qr_scan", "android": "https://dc.lft.to/lastmile_qr_scan"}, "is_reserved": 0, "lon": -77.02977733333333, "fusion_lat": 0.0, "name": "3721cd255eb989b0ca10e916cad3016b"}, {"type": "electric_scooter", "fusion_lon": 0.0, "bike_id": "36c70b348e09ce67242ca5b5e50453d2", "is_disabled": 0, "lat": 38.90334133333333, "rental_uris": {"ios": "https://dc.lft.to/lastmile_qr_scan", "android": "https://dc.lft.to/lastmile_qr_scan"}, "is_reserved": 0, "lon": -77.04933433333333, "fusion_lat": 0.0, "name": "36c70b348e09ce67242ca5b5e50453d2"}, {"type": "electric_scooter", "fusion_lon": 0.0, "bike_id": "b2d655d59650a8bca8cc659e5f43947d", "is_disabled": 0, "lat": 38.92373633333333, "rental_uris": {"ios": "https://dc.lft.to/lastmile_qr_scan", "android": "https://dc.lft.to/lastmile_qr_scan"}, "is_reserved": 0, "lon": -77.019218, "fusion_lat": 0.0, "name": "b2d655d59650a8bca8cc659e5f43947d"}, {"type": "electric_scooter", "fusion_lon": 0.0, "bike_id": "3dba796586f042c0535ae4346431a9b2", "is_disabled": 0, "lat": 38.877242, "rental_uris": {"ios": "https://dc.lft.to/lastmile_qr_scan", "android": "https://dc.lft.to/lastmile_qr_scan"}, "is_reserved": 0, "lon": -77.00934616666666, "fusion_lat": 0.0, "name": "3dba796586f042c0535ae4346431a9b2"}, {"type": "electric_scooter", "fusion_lon": 0.0, "bike_id": "35024becefce21358b016144d4001de4", "is_disabled": 0, "lat": 38.926903, "rental_uris": {"ios": "https://dc.lft.to/lastmile_qr_scan", "android": "https://dc.lft.to/lastmile_qr_scan"}, "is_reserved": 0, "lon": -77.02788066666666, "fusion_lat": 0.0, "name": "35024becefce21358b016144d4001de4"}, {"type": "electric_scooter", "fusion_lon": 0.0, "bike_id": "e14d3623fd0c7a2aa2e653c269aac57e", "is_disabled": 0, "lat": 38.894017833333336, "rental_uris": {"ios": "https://dc.lft.to/lastmile_qr_scan", "android": "https://dc.lft.to/lastmile_qr_scan"}, "is_reserved": 0, "lon": -77.01087, "fusion_lat": 0.0, "name": "e14d3623fd0c7a2aa2e653c269aac57e"}, {"type": "electric_scooter", "fusion_lon": 0.0, "bike_id": "b5ceaba973b944aa420dfe57e5389c82", "is_disabled": 0, "lat": 38.927976, "rental_uris": {"ios": "https://dc.lft.to/lastmile_qr_scan", "android": "https://dc.lft.to/lastmile_qr_scan"}, "is_reserved": 0, "lon": -77.02728033333334, "fusion_lat": 0.0, "name": "b5ceaba973b944aa420dfe57e5389c82"}, {"type": "electric_scooter", "fusion_lon": 0.0, "bike_id": "298fc684ed396800fd04d81d4b0e9604", "is_disabled": 0, "lat": 38.9478845, "rental_uris": {"ios": "https://dc.lft.to/lastmile_qr_scan", "android": "https://dc.lft.to/lastmile_qr_scan"}, "is_reserved": 0, "lon": -77.04082983333333, "fusion_lat": 0.0, "name": "298fc684ed396800fd04d81d4b0e9604"}, {"type": "electric_bike", "fusion_lon": 0.0, "bike_id": "5c4d162f7412e65c55a54f13008e98bd", "is_disabled": 0, "lat": 38.96623366666667, "rental_uris": {"ios": "https://dc.lft.to/lastmile_qr_scan", "android": "https://dc.lft.to/lastmile_qr_scan"}, "is_reserved": 0, "lon": -77.03430783333333, "fusion_lat": 0.0, "name": "5c4d162f7412e65c55a54f13008e98bd"}, {"type": "electric_scooter", "fusion_lon": 0.0, "bike_id": "11648f4a52dd3d76cc36074bb20ec0c3", "is_disabled": 0, "lat": 38.94080683333333, "rental_uris": {"ios": "https://dc.lft.to/lastmile_qr_scan", "android": "https://dc.lft.to/lastmile_qr_scan"}, "is_reserved": 0, "lon": -77.02539416666667, "fusion_lat": 0.0, "name": "11648f4a52dd3d76cc36074bb20ec0c3"}, {"type": "electric_scooter", "fusion_lon": 0.0, "bike_id": "08ebd71c1c1f493f1880b0db9a092faa", "is_disabled": 0, "lat": 38.892273333333335, "rental_uris": {"ios": "https://dc.lft.to/lastmile_qr_scan", "android": "https://dc.lft.to/lastmile_qr_scan"}, "is_reserved": 0, "lon": -77.02416616666666, "fusion_lat": 0.0, "name": "08ebd71c1c1f493f1880b0db9a092faa"}, {"type": "electric_scooter", "fusion_lon": 0.0, "bike_id": "ebad28aa85558d23acde3421217c5c87", "is_disabled": 0, "lat": 38.90868866666667, "rental_uris": {"ios": "https://dc.lft.to/lastmile_qr_scan", "android": "https://dc.lft.to/lastmile_qr_scan"}, "is_reserved": 0, "lon": -77.00373383333333, "fusion_lat": 0.0, "name": "ebad28aa85558d23acde3421217c5c87"}, {"type": "electric_scooter", "fusion_lon": 0.0, "bike_id": "49212f42ece851ac29a1eaa4133cbe1f", "is_disabled": 0, "lat": 38.92772466666667, "rental_uris": {"ios": "https://dc.lft.to/lastmile_qr_scan", "android": "https://dc.lft.to/lastmile_qr_scan"}, "is_reserved": 0, "lon": -77.02847533333333, "fusion_lat": 0.0, "name": "49212f42ece851ac29a1eaa4133cbe1f"}, {"type": "electric_scooter", "fusion_lon": 0.0, "bike_id": "4aef4abcc8ba7e208128a73b6b4174ff", "is_disabled": 0, "lat": 38.92264683333333, "rental_uris": {"ios": "https://dc.lft.to/lastmile_qr_scan", "android": "https://dc.lft.to/lastmile_qr_scan"}, "is_reserved": 0, "lon": -77.03667983333334, "fusion_lat": 0.0, "name": "4aef4abcc8ba7e208128a73b6b4174ff"}, {"type": "electric_scooter", "fusion_lon": 0.0, "bike_id": "b429d21ea27f0709225a2b9fcb2718d7", "is_disabled": 0, "lat": 38.930788, "rental_uris": {"ios": "https://dc.lft.to/lastmile_qr_scan", "android": "https://dc.lft.to/lastmile_qr_scan"}, "is_reserved": 0, "lon": -77.0292065, "fusion_lat": 0.0, "name": "b429d21ea27f0709225a2b9fcb2718d7"}, {"type": "electric_scooter", "fusion_lon": 0.0, "bike_id": "78aa6455f186a29a1d8222f9db9b292d", "is_disabled": 0, "lat": 38.88423916666667, "rental_uris": {"ios": "https://dc.lft.to/lastmile_qr_scan", "android": "https://dc.lft.to/lastmile_qr_scan"}, "is_reserved": 0, "lon": -77.026124, "fusion_lat": 0.0, "name": "78aa6455f186a29a1d8222f9db9b292d"}, {"type": "electric_scooter", "fusion_lon": 0.0, "bike_id": "88deb647ce3f9037bc62b7d90d0aa1ef", "is_disabled": 0, "lat": 38.9351355, "rental_uris": {"ios": "https://dc.lft.to/lastmile_qr_scan", "android": "https://dc.lft.to/lastmile_qr_scan"}, "is_reserved": 0, "lon": -77.03289533333333, "fusion_lat": 0.0, "name": "88deb647ce3f9037bc62b7d90d0aa1ef"}, {"type": "electric_bike", "fusion_lon": 0.0, "bike_id": "7620bc6ccbc967288de02048b10b9c8c", "is_disabled": 0, "lat": 38.853188, "rental_uris": {"ios": "https://dc.lft.to/lastmile_qr_scan", "android": "https://dc.lft.to/lastmile_qr_scan"}, "is_reserved": 0, "lon": -76.980145, "fusion_lat": 0.0, "name": "7620bc6ccbc967288de02048b10b9c8c"}, {"type": "electric_scooter", "fusion_lon": 0.0, "bike_id": "85075bc6b481d92f2faf09fdec2b4192", "is_disabled": 0, "lat": 38.91615866666667, "rental_uris": {"ios": "https://dc.lft.to/lastmile_qr_scan", "android": "https://dc.lft.to/lastmile_qr_scan"}, "is_reserved": 0, "lon": -77.043661, "fusion_lat": 0.0, "name": "85075bc6b481d92f2faf09fdec2b4192"}, {"type": "electric_scooter", "fusion_lon": 0.0, "bike_id": "9c23a66d4013156e2cb826964c507531", "is_disabled": 0, "lat": 38.86012916666667, "rental_uris": {"ios": "https://dc.lft.to/lastmile_qr_scan", "android": "https://dc.lft.to/lastmile_qr_scan"}, "is_reserved": 0, "lon": -76.9670385, "fusion_lat": 0.0, "name": "9c23a66d4013156e2cb826964c507531"}, {"type": "electric_scooter", "fusion_lon": 0.0, "bike_id": "bb1f77adf946a2e5f51d799b1397a6d4", "is_disabled": 0, "lat": 38.8922565, "rental_uris": {"ios": "https://dc.lft.to/lastmile_qr_scan", "android": "https://dc.lft.to/lastmile_qr_scan"}, "is_reserved": 0, "lon": -77.0486735, "fusion_lat": 0.0, "name": "bb1f77adf946a2e5f51d799b1397a6d4"}, {"type": "electric_scooter", "fusion_lon": 0.0, "bike_id": "b2aefe2615bb7d5e595082041d8ed957", "is_disabled": 0, "lat": 38.915685833333335, "rental_uris": {"ios": "https://dc.lft.to/lastmile_qr_scan", "android": "https://dc.lft.to/lastmile_qr_scan"}, "is_reserved": 0, "lon": -77.03723766666667, "fusion_lat": 0.0, "name": "b2aefe2615bb7d5e595082041d8ed957"}, {"type": "electric_scooter", "fusion_lon": 0.0, "bike_id": "22dd5846baaff3921410ef0bae5018d9", "is_disabled": 0, "lat": 38.94192833333334, "rental_uris": {"ios": "https://dc.lft.to/lastmile_qr_scan", "android": "https://dc.lft.to/lastmile_qr_scan"}, "is_reserved": 0, "lon": -77.03328183333333, "fusion_lat": 0.0, "name": "22dd5846baaff3921410ef0bae5018d9"}, {"type": "electric_scooter", "fusion_lon": 0.0, "bike_id": "d906620ef60ec021c857c80fd85c0ff1", "is_disabled": 0, "lat": 38.895257, "rental_uris": {"ios": "https://dc.lft.to/lastmile_qr_scan", "android": "https://dc.lft.to/lastmile_qr_scan"}, "is_reserved": 0, "lon": -77.03936383333334, "fusion_lat": 0.0, "name": "d906620ef60ec021c857c80fd85c0ff1"}, {"type": "electric_scooter", "fusion_lon": 0.0, "bike_id": "0cd4552a2954894eb6c6708ba899e262", "is_disabled": 0, "lat": 38.90029083333334, "rental_uris": {"ios": "https://dc.lft.to/lastmile_qr_scan", "android": "https://dc.lft.to/lastmile_qr_scan"}, "is_reserved": 0, "lon": -77.0372065, "fusion_lat": 0.0, "name": "0cd4552a2954894eb6c6708ba899e262"}, {"type": "electric_scooter", "fusion_lon": 0.0, "bike_id": "3872b1af384e7e42295847315306493d", "is_disabled": 0, "lat": 38.91839266666667, "rental_uris": {"ios": "https://dc.lft.to/lastmile_qr_scan", "android": "https://dc.lft.to/lastmile_qr_scan"}, "is_reserved": 0, "lon": -77.04522666666666, "fusion_lat": 0.0, "name": "3872b1af384e7e42295847315306493d"}, {"type": "electric_scooter", "fusion_lon": 0.0, "bike_id": "41a66f2d31c1dfe380a34221132ca18d", "is_disabled": 0, "lat": 38.90967216666667, "rental_uris": {"ios": "https://dc.lft.to/lastmile_qr_scan", "android": "https://dc.lft.to/lastmile_qr_scan"}, "is_reserved": 0, "lon": -77.0171045, "fusion_lat": 0.0, "name": "41a66f2d31c1dfe380a34221132ca18d"}, {"type": "electric_scooter", "fusion_lon": 0.0, "bike_id": "0c33d2ca0c537a79d82e58bb5573ae48", "is_disabled": 0, "lat": 38.984342, "rental_uris": {"ios": "https://dc.lft.to/lastmile_qr_scan", "android": "https://dc.lft.to/lastmile_qr_scan"}, "is_reserved": 0, "lon": -77.02678033333333, "fusion_lat": 0.0, "name": "0c33d2ca0c537a79d82e58bb5573ae48"}, {"type": "electric_scooter", "fusion_lon": 0.0, "bike_id": "0ba6f6003cd1d7ae401c4762349951e9", "is_disabled": 0, "lat": 38.893415833333336, "rental_uris": {"ios": "https://dc.lft.to/lastmile_qr_scan", "android": "https://dc.lft.to/lastmile_qr_scan"}, "is_reserved": 0, "lon": -76.99159133333333, "fusion_lat": 0.0, "name": "0ba6f6003cd1d7ae401c4762349951e9"}, {"type": "electric_scooter", "fusion_lon": 0.0, "bike_id": "0259cb139d89c69ea541efef8fed25d3", "is_disabled": 0, "lat": 38.927615, "rental_uris": {"ios": "https://dc.lft.to/lastmile_qr_scan", "android": "https://dc.lft.to/lastmile_qr_scan"}, "is_reserved": 0, "lon": -77.032731, "fusion_lat": 0.0, "name": "0259cb139d89c69ea541efef8fed25d3"}, {"type": "electric_scooter", "fusion_lon": 0.0, "bike_id": "f3b83b5183157f1aa9003ee9209914b9", "is_disabled": 0, "lat": 38.93659, "rental_uris": {"ios": "https://dc.lft.to/lastmile_qr_scan", "android": "https://dc.lft.to/lastmile_qr_scan"}, "is_reserved": 0, "lon": -77.03658816666666, "fusion_lat": 0.0, "name": "f3b83b5183157f1aa9003ee9209914b9"}, {"type": "electric_scooter", "fusion_lon": 0.0, "bike_id": "362920825abed26f1362d52b33de0221", "is_disabled": 0, "lat": 38.93739466666667, "rental_uris": {"ios": "https://dc.lft.to/lastmile_qr_scan", "android": "https://dc.lft.to/lastmile_qr_scan"}, "is_reserved": 0, "lon": -77.06868566666667, "fusion_lat": 0.0, "name": "362920825abed26f1362d52b33de0221"}, {"type": "electric_scooter", "fusion_lon": 0.0, "bike_id": "8c48d66149d541aede38fccb720eba99", "is_disabled": 0, "lat": 38.90401466666667, "rental_uris": {"ios": "https://dc.lft.to/lastmile_qr_scan", "android": "https://dc.lft.to/lastmile_qr_scan"}, "is_reserved": 0, "lon": -77.0680565, "fusion_lat": 0.0, "name": "8c48d66149d541aede38fccb720eba99"}, {"type": "electric_scooter", "fusion_lon": 0.0, "bike_id": "03ee77e403e9d5bffb0aefaa16025899", "is_disabled": 0, "lat": 38.9352855, "rental_uris": {"ios": "https://dc.lft.to/lastmile_qr_scan", "android": "https://dc.lft.to/lastmile_qr_scan"}, "is_reserved": 0, "lon": -77.03494483333333, "fusion_lat": 0.0, "name": "03ee77e403e9d5bffb0aefaa16025899"}, {"type": "electric_scooter", "fusion_lon": 0.0, "bike_id": "473caa6062c404cc90c6a271d1f5bccc", "is_disabled": 0, "lat": 38.935310333333334, "rental_uris": {"ios": "https://dc.lft.to/lastmile_qr_scan", "android": "https://dc.lft.to/lastmile_qr_scan"}, "is_reserved": 0, "lon": -77.02347366666666, "fusion_lat": 0.0, "name": "473caa6062c404cc90c6a271d1f5bccc"}, {"type": "electric_scooter", "fusion_lon": 0.0, "bike_id": "7e16cad3d00df3495c0f7ca79c695c81", "is_disabled": 0, "lat": 38.900127166666664, "rental_uris": {"ios": "https://dc.lft.to/lastmile_qr_scan", "android": "https://dc.lft.to/lastmile_qr_scan"}, "is_reserved": 0, "lon": -76.98895483333334, "fusion_lat": 0.0, "name": "7e16cad3d00df3495c0f7ca79c695c81"}, {"type": "electric_scooter", "fusion_lon": 0.0, "bike_id": "efbe6114ead54c6021c64721be080b79", "is_disabled": 0, "lat": 38.920287333333334, "rental_uris": {"ios": "https://dc.lft.to/lastmile_qr_scan", "android": "https://dc.lft.to/lastmile_qr_scan"}, "is_reserved": 0, "lon": -77.01036966666666, "fusion_lat": 0.0, "name": "efbe6114ead54c6021c64721be080b79"}, {"type": "electric_scooter", "fusion_lon": 0.0, "bike_id": "5606ceda554963ac89ee97e1687b1f86", "is_disabled": 0, "lat": 38.93719, "rental_uris": {"ios": "https://dc.lft.to/lastmile_qr_scan", "android": "https://dc.lft.to/lastmile_qr_scan"}, "is_reserved": 0, "lon": -77.01909066666667, "fusion_lat": 0.0, "name": "5606ceda554963ac89ee97e1687b1f86"}, {"type": "electric_scooter", "fusion_lon": 0.0, "bike_id": "eaeaa5c2d4ea65d3384b03831ab0964f", "is_disabled": 0, "lat": 38.900060833333335, "rental_uris": {"ios": "https://dc.lft.to/lastmile_qr_scan", "android": "https://dc.lft.to/lastmile_qr_scan"}, "is_reserved": 0, "lon": -77.00577666666666, "fusion_lat": 0.0, "name": "eaeaa5c2d4ea65d3384b03831ab0964f"}, {"type": "electric_scooter", "fusion_lon": 0.0, "bike_id": "79bd297ae4fab5e67c1b85748e72426c", "is_disabled": 0, "lat": 38.920903333333335, "rental_uris": {"ios": "https://dc.lft.to/lastmile_qr_scan", "android": "https://dc.lft.to/lastmile_qr_scan"}, "is_reserved": 0, "lon": -77.04224616666667, "fusion_lat": 0.0, "name": "79bd297ae4fab5e67c1b85748e72426c"}, {"type": "electric_scooter", "fusion_lon": 0.0, "bike_id": "7f7c2088435b8b98b50ac8f939a944ba", "is_disabled": 0, "lat": 38.940962999999996, "rental_uris": {"ios": "https://dc.lft.to/lastmile_qr_scan", "android": "https://dc.lft.to/lastmile_qr_scan"}, "is_reserved": 0, "lon": -77.02649516666666, "fusion_lat": 0.0, "name": "7f7c2088435b8b98b50ac8f939a944ba"}, {"type": "electric_scooter", "fusion_lon": 0.0, "bike_id": "df9a888d10fffdf33397322fefe99f2b", "is_disabled": 0, "lat": 38.91548983333333, "rental_uris": {"ios": "https://dc.lft.to/lastmile_qr_scan", "android": "https://dc.lft.to/lastmile_qr_scan"}, "is_reserved": 0, "lon": -77.03855566666667, "fusion_lat": 0.0, "name": "df9a888d10fffdf33397322fefe99f2b"}, {"type": "electric_scooter", "fusion_lon": 0.0, "bike_id": "b1843b7b9a56a4d80b4a6a4c7afa2cd1", "is_disabled": 0, "lat": 38.91865833333333, "rental_uris": {"ios": "https://dc.lft.to/lastmile_qr_scan", "android": "https://dc.lft.to/lastmile_qr_scan"}, "is_reserved": 0, "lon": -77.04378, "fusion_lat": 0.0, "name": "b1843b7b9a56a4d80b4a6a4c7afa2cd1"}, {"type": "electric_scooter", "fusion_lon": 0.0, "bike_id": "e08c829c95f99190becee779438de152", "is_disabled": 0, "lat": 38.892214333333335, "rental_uris": {"ios": "https://dc.lft.to/lastmile_qr_scan", "android": "https://dc.lft.to/lastmile_qr_scan"}, "is_reserved": 0, "lon": -77.02369833333333, "fusion_lat": 0.0, "name": "e08c829c95f99190becee779438de152"}, {"type": "electric_scooter", "fusion_lon": 0.0, "bike_id": "a0b4e146e58bcf8ffbe2309fea43cde0", "is_disabled": 0, "lat": 38.8873435, "rental_uris": {"ios": "https://dc.lft.to/lastmile_qr_scan", "android": "https://dc.lft.to/lastmile_qr_scan"}, "is_reserved": 0, "lon": -77.0317735, "fusion_lat": 0.0, "name": "a0b4e146e58bcf8ffbe2309fea43cde0"}, {"type": "electric_scooter", "fusion_lon": 0.0, "bike_id": "9118ef31b8d57b90d4e84c1fab2a4469", "is_disabled": 0, "lat": 38.8854125, "rental_uris": {"ios": "https://dc.lft.to/lastmile_qr_scan", "android": "https://dc.lft.to/lastmile_qr_scan"}, "is_reserved": 0, "lon": -77.01103083333334, "fusion_lat": 0.0, "name": "9118ef31b8d57b90d4e84c1fab2a4469"}, {"type": "electric_scooter", "fusion_lon": 0.0, "bike_id": "e8d0148f1e1610093fabbe776df008d7", "is_disabled": 0, "lat": 38.92705683333333, "rental_uris": {"ios": "https://dc.lft.to/lastmile_qr_scan", "android": "https://dc.lft.to/lastmile_qr_scan"}, "is_reserved": 0, "lon": -77.037585, "fusion_lat": 0.0, "name": "e8d0148f1e1610093fabbe776df008d7"}, {"type": "electric_scooter", "fusion_lon": 0.0, "bike_id": "0f17038aff48aa34a36d835e37e09bcb", "is_disabled": 0, "lat": 38.907319333333334, "rental_uris": {"ios": "https://dc.lft.to/lastmile_qr_scan", "android": "https://dc.lft.to/lastmile_qr_scan"}, "is_reserved": 0, "lon": -77.032184, "fusion_lat": 0.0, "name": "0f17038aff48aa34a36d835e37e09bcb"}, {"type": "electric_scooter", "fusion_lon": 0.0, "bike_id": "bb67f03c7ed773e3d4cf5d65c84098fe", "is_disabled": 0, "lat": 38.892340833333336, "rental_uris": {"ios": "https://dc.lft.to/lastmile_qr_scan", "android": "https://dc.lft.to/lastmile_qr_scan"}, "is_reserved": 0, "lon": -77.00289633333334, "fusion_lat": 0.0, "name": "bb67f03c7ed773e3d4cf5d65c84098fe"}, {"type": "electric_scooter", "fusion_lon": 0.0, "bike_id": "367c179835127aac94f0df96a84fded1", "is_disabled": 0, "lat": 38.9041125, "rental_uris": {"ios": "https://dc.lft.to/lastmile_qr_scan", "android": "https://dc.lft.to/lastmile_qr_scan"}, "is_reserved": 0, "lon": -76.9732925, "fusion_lat": 0.0, "name": "367c179835127aac94f0df96a84fded1"}, {"type": "electric_scooter", "fusion_lon": 0.0, "bike_id": "4ddf5290cdb3b5fbd2aa4005b2a3aeac", "is_disabled": 0, "lat": 38.92226983333333, "rental_uris": {"ios": "https://dc.lft.to/lastmile_qr_scan", "android": "https://dc.lft.to/lastmile_qr_scan"}, "is_reserved": 0, "lon": -77.04718783333334, "fusion_lat": 0.0, "name": "4ddf5290cdb3b5fbd2aa4005b2a3aeac"}, {"type": "electric_scooter", "fusion_lon": 0.0, "bike_id": "1843aa77c445e51296389d1d61d09357", "is_disabled": 0, "lat": 38.91029616666667, "rental_uris": {"ios": "https://dc.lft.to/lastmile_qr_scan", "android": "https://dc.lft.to/lastmile_qr_scan"}, "is_reserved": 0, "lon": -77.046619, "fusion_lat": 0.0, "name": "1843aa77c445e51296389d1d61d09357"}, {"type": "electric_bike", "fusion_lon": 0.0, "bike_id": "588196cc00f799fa7397af74fd559d9f", "is_disabled": 0, "lat": 38.91130183333333, "rental_uris": {"ios": "https://dc.lft.to/lastmile_qr_scan", "android": "https://dc.lft.to/lastmile_qr_scan"}, "is_reserved": 0, "lon": -77.06575266666667, "fusion_lat": 0.0, "name": "588196cc00f799fa7397af74fd559d9f"}, {"type": "electric_scooter", "fusion_lon": 0.0, "bike_id": "a83aef937511ed4f6a2ede5baf8d348f", "is_disabled": 0, "lat": 38.92260366666667, "rental_uris": {"ios": "https://dc.lft.to/lastmile_qr_scan", "android": "https://dc.lft.to/lastmile_qr_scan"}, "is_reserved": 0, "lon": -77.01823816666666, "fusion_lat": 0.0, "name": "a83aef937511ed4f6a2ede5baf8d348f"}, {"type": "electric_bike", "fusion_lon": 0.0, "bike_id": "1452411eaa6c1d69322e0db1a9e85ef8", "is_disabled": 0, "lat": 38.9256735, "rental_uris": {"ios": "https://dc.lft.to/lastmile_qr_scan", "android": "https://dc.lft.to/lastmile_qr_scan"}, "is_reserved": 0, "lon": -76.959807, "fusion_lat": 0.0, "name": "1452411eaa6c1d69322e0db1a9e85ef8"}, {"type": "electric_scooter", "fusion_lon": 0.0, "bike_id": "b3862eea94d0d44f1711f7018e7410b5", "is_disabled": 0, "lat": 38.88407216666667, "rental_uris": {"ios": "https://dc.lft.to/lastmile_qr_scan", "android": "https://dc.lft.to/lastmile_qr_scan"}, "is_reserved": 0, "lon": -77.0296195, "fusion_lat": 0.0, "name": "b3862eea94d0d44f1711f7018e7410b5"}, {"type": "electric_scooter", "fusion_lon": 0.0, "bike_id": "cf95e48e4c40b334b5b8ea1343414044", "is_disabled": 0, "lat": 38.92286033333333, "rental_uris": {"ios": "https://dc.lft.to/lastmile_qr_scan", "android": "https://dc.lft.to/lastmile_qr_scan"}, "is_reserved": 0, "lon": -77.02711033333334, "fusion_lat": 0.0, "name": "cf95e48e4c40b334b5b8ea1343414044"}, {"type": "electric_scooter", "fusion_lon": 0.0, "bike_id": "cc8a9506be65d18e03973699c79f9fd3", "is_disabled": 0, "lat": 38.938436333333335, "rental_uris": {"ios": "https://dc.lft.to/lastmile_qr_scan", "android": "https://dc.lft.to/lastmile_qr_scan"}, "is_reserved": 0, "lon": -77.03390483333334, "fusion_lat": 0.0, "name": "cc8a9506be65d18e03973699c79f9fd3"}, {"type": "electric_scooter", "fusion_lon": 0.0, "bike_id": "9bdcb8d8cc7fca1f7281cbc03550bc20", "is_disabled": 0, "lat": 38.91036533333333, "rental_uris": {"ios": "https://dc.lft.to/lastmile_qr_scan", "android": "https://dc.lft.to/lastmile_qr_scan"}, "is_reserved": 0, "lon": -77.0483825, "fusion_lat": 0.0, "name": "9bdcb8d8cc7fca1f7281cbc03550bc20"}, {"type": "electric_scooter", "fusion_lon": 0.0, "bike_id": "bc594fb583face3ec274d2cf974bc18d", "is_disabled": 0, "lat": 38.897314333333334, "rental_uris": {"ios": "https://dc.lft.to/lastmile_qr_scan", "android": "https://dc.lft.to/lastmile_qr_scan"}, "is_reserved": 0, "lon": -77.0474515, "fusion_lat": 0.0, "name": "bc594fb583face3ec274d2cf974bc18d"}, {"type": "electric_scooter", "fusion_lon": 0.0, "bike_id": "c9b03b5732ea5ea36b6caa34b1d748c5", "is_disabled": 0, "lat": 38.905256666666666, "rental_uris": {"ios": "https://dc.lft.to/lastmile_qr_scan", "android": "https://dc.lft.to/lastmile_qr_scan"}, "is_reserved": 0, "lon": -77.02972083333333, "fusion_lat": 0.0, "name": "c9b03b5732ea5ea36b6caa34b1d748c5"}, {"type": "electric_scooter", "fusion_lon": 0.0, "bike_id": "e5de3c0870de0e56433bce3ebdaeb4b5", "is_disabled": 0, "lat": 38.929451666666665, "rental_uris": {"ios": "https://dc.lft.to/lastmile_qr_scan", "android": "https://dc.lft.to/lastmile_qr_scan"}, "is_reserved": 0, "lon": -77.055048, "fusion_lat": 0.0, "name": "e5de3c0870de0e56433bce3ebdaeb4b5"}, {"type": "electric_scooter", "fusion_lon": 0.0, "bike_id": "d5fc6ab7daa6020ca6c9860a863d6583", "is_disabled": 0, "lat": 38.907511, "rental_uris": {"ios": "https://dc.lft.to/lastmile_qr_scan", "android": "https://dc.lft.to/lastmile_qr_scan"}, "is_reserved": 0, "lon": -77.0010495, "fusion_lat": 0.0, "name": "d5fc6ab7daa6020ca6c9860a863d6583"}, {"type": "electric_scooter", "fusion_lon": 0.0, "bike_id": "0dc8cef919eb83cb0da53fa37bca683a", "is_disabled": 0, "lat": 38.92440783333333, "rental_uris": {"ios": "https://dc.lft.to/lastmile_qr_scan", "android": "https://dc.lft.to/lastmile_qr_scan"}, "is_reserved": 0, "lon": -77.02034766666667, "fusion_lat": 0.0, "name": "0dc8cef919eb83cb0da53fa37bca683a"}, {"type": "electric_scooter", "fusion_lon": 0.0, "bike_id": "c78f6ded6c960461a5540c3c212f6e4f", "is_disabled": 0, "lat": 38.89223966666667, "rental_uris": {"ios": "https://dc.lft.to/lastmile_qr_scan", "android": "https://dc.lft.to/lastmile_qr_scan"}, "is_reserved": 0, "lon": -77.04689933333333, "fusion_lat": 0.0, "name": "c78f6ded6c960461a5540c3c212f6e4f"}, {"type": "electric_scooter", "fusion_lon": 0.0, "bike_id": "cbe201852f0ae9b0769aee50e007ffd6", "is_disabled": 0, "lat": 38.9246465, "rental_uris": {"ios": "https://dc.lft.to/lastmile_qr_scan", "android": "https://dc.lft.to/lastmile_qr_scan"}, "is_reserved": 0, "lon": -77.0523575, "fusion_lat": 0.0, "name": "cbe201852f0ae9b0769aee50e007ffd6"}, {"type": "electric_scooter", "fusion_lon": 0.0, "bike_id": "5e4da7ddb004421a6ada0bd005cc64a5", "is_disabled": 0, "lat": 38.90055133333333, "rental_uris": {"ios": "https://dc.lft.to/lastmile_qr_scan", "android": "https://dc.lft.to/lastmile_qr_scan"}, "is_reserved": 0, "lon": -76.99824433333333, "fusion_lat": 0.0, "name": "5e4da7ddb004421a6ada0bd005cc64a5"}, {"type": "electric_scooter", "fusion_lon": 0.0, "bike_id": "4f0d9b048e67d28ff86debefb8726af2", "is_disabled": 0, "lat": 38.92706733333333, "rental_uris": {"ios": "https://dc.lft.to/lastmile_qr_scan", "android": "https://dc.lft.to/lastmile_qr_scan"}, "is_reserved": 0, "lon": -77.02342166666666, "fusion_lat": 0.0, "name": "4f0d9b048e67d28ff86debefb8726af2"}, {"type": "electric_scooter", "fusion_lon": 0.0, "bike_id": "583a12b2e6f5e879d253fed9ad6a9714", "is_disabled": 0, "lat": 38.937747, "rental_uris": {"ios": "https://dc.lft.to/lastmile_qr_scan", "android": "https://dc.lft.to/lastmile_qr_scan"}, "is_reserved": 0, "lon": -77.03262516666666, "fusion_lat": 0.0, "name": "583a12b2e6f5e879d253fed9ad6a9714"}, {"type": "electric_scooter", "fusion_lon": 0.0, "bike_id": "487f4cd57159f8db8857789b12d61e49", "is_disabled": 0, "lat": 38.91962916666667, "rental_uris": {"ios": "https://dc.lft.to/lastmile_qr_scan", "android": "https://dc.lft.to/lastmile_qr_scan"}, "is_reserved": 0, "lon": -77.02711733333334, "fusion_lat": 0.0, "name": "487f4cd57159f8db8857789b12d61e49"}, {"type": "electric_scooter", "fusion_lon": 0.0, "bike_id": "248c01f7f2277d52595abd3a1d6ac228", "is_disabled": 0, "lat": 38.911058833333335, "rental_uris": {"ios": "https://dc.lft.to/lastmile_qr_scan", "android": "https://dc.lft.to/lastmile_qr_scan"}, "is_reserved": 0, "lon": -77.03823383333334, "fusion_lat": 0.0, "name": "248c01f7f2277d52595abd3a1d6ac228"}, {"type": "electric_scooter", "fusion_lon": 0.0, "bike_id": "4bc97c0e8e66fa582286f5523f0630af", "is_disabled": 0, "lat": 38.9176795, "rental_uris": {"ios": "https://dc.lft.to/lastmile_qr_scan", "android": "https://dc.lft.to/lastmile_qr_scan"}, "is_reserved": 0, "lon": -77.023452, "fusion_lat": 0.0, "name": "4bc97c0e8e66fa582286f5523f0630af"}, {"type": "electric_scooter", "fusion_lon": 0.0, "bike_id": "a5547f0f6267ff35bb2bef06a7b00f4f", "is_disabled": 0, "lat": 38.895083, "rental_uris": {"ios": "https://dc.lft.to/lastmile_qr_scan", "android": "https://dc.lft.to/lastmile_qr_scan"}, "is_reserved": 0, "lon": -77.0033135, "fusion_lat": 0.0, "name": "a5547f0f6267ff35bb2bef06a7b00f4f"}, {"type": "electric_scooter", "fusion_lon": 0.0, "bike_id": "c43465ffaa5dc341401ce112e4c648ee", "is_disabled": 0, "lat": 38.915519833333335, "rental_uris": {"ios": "https://dc.lft.to/lastmile_qr_scan", "android": "https://dc.lft.to/lastmile_qr_scan"}, "is_reserved": 0, "lon": -77.03240083333333, "fusion_lat": 0.0, "name": "c43465ffaa5dc341401ce112e4c648ee"}, {"type": "electric_scooter", "fusion_lon": 0.0, "bike_id": "dce05c39a4d7f1018d66dc29bafa7f12", "is_disabled": 0, "lat": 38.8693595, "rental_uris": {"ios": "https://dc.lft.to/lastmile_qr_scan", "android": "https://dc.lft.to/lastmile_qr_scan"}, "is_reserved": 0, "lon": -77.01377283333333, "fusion_lat": 0.0, "name": "dce05c39a4d7f1018d66dc29bafa7f12"}, {"type": "electric_scooter", "fusion_lon": 0.0, "bike_id": "87ce0117eedd5d589e86dc21b4c99d1d", "is_disabled": 0, "lat": 38.86476066666667, "rental_uris": {"ios": "https://dc.lft.to/lastmile_qr_scan", "android": "https://dc.lft.to/lastmile_qr_scan"}, "is_reserved": 0, "lon": -76.98229266666667, "fusion_lat": 0.0, "name": "87ce0117eedd5d589e86dc21b4c99d1d"}, {"type": "electric_bike", "fusion_lon": 0.0, "bike_id": "65e916f0fa187347d50ce60fb61417af", "is_disabled": 0, "lat": 38.9575645, "rental_uris": {"ios": "https://dc.lft.to/lastmile_qr_scan", "android": "https://dc.lft.to/lastmile_qr_scan"}, "is_reserved": 0, "lon": -76.98022966666667, "fusion_lat": 0.0, "name": "65e916f0fa187347d50ce60fb61417af"}, {"type": "electric_scooter", "fusion_lon": 0.0, "bike_id": "098abb63fd4ef943a004287816e7f3c1", "is_disabled": 0, "lat": 38.9210435, "rental_uris": {"ios": "https://dc.lft.to/lastmile_qr_scan", "android": "https://dc.lft.to/lastmile_qr_scan"}, "is_reserved": 0, "lon": -77.04687883333334, "fusion_lat": 0.0, "name": "098abb63fd4ef943a004287816e7f3c1"}, {"type": "electric_scooter", "fusion_lon": 0.0, "bike_id": "276ba464064135601cf1d6caae482fc0", "is_disabled": 0, "lat": 38.918423833333335, "rental_uris": {"ios": "https://dc.lft.to/lastmile_qr_scan", "android": "https://dc.lft.to/lastmile_qr_scan"}, "is_reserved": 0, "lon": -77.0179055, "fusion_lat": 0.0, "name": "276ba464064135601cf1d6caae482fc0"}, {"type": "electric_scooter", "fusion_lon": 0.0, "bike_id": "9fa6af4e5070e79ac2b08f3e4082a55c", "is_disabled": 0, "lat": 38.93464683333333, "rental_uris": {"ios": "https://dc.lft.to/lastmile_qr_scan", "android": "https://dc.lft.to/lastmile_qr_scan"}, "is_reserved": 0, "lon": -77.02926666666667, "fusion_lat": 0.0, "name": "9fa6af4e5070e79ac2b08f3e4082a55c"}, {"type": "electric_scooter", "fusion_lon": 0.0, "bike_id": "3ccd1c9224b3e9c49d4f2e24b33afddf", "is_disabled": 0, "lat": 38.896132, "rental_uris": {"ios": "https://dc.lft.to/lastmile_qr_scan", "android": "https://dc.lft.to/lastmile_qr_scan"}, "is_reserved": 0, "lon": -76.981018, "fusion_lat": 0.0, "name": "3ccd1c9224b3e9c49d4f2e24b33afddf"}, {"type": "electric_bike", "fusion_lon": 0.0, "bike_id": "52c855d4af7de5900f961b0ed158a078", "is_disabled": 0, "lat": 38.941481833333334, "rental_uris": {"ios": "https://dc.lft.to/lastmile_qr_scan", "android": "https://dc.lft.to/lastmile_qr_scan"}, "is_reserved": 0, "lon": -77.0018975, "fusion_lat": 0.0, "name": "52c855d4af7de5900f961b0ed158a078"}, {"type": "electric_scooter", "fusion_lon": 0.0, "bike_id": "b38f17e5891408ddc17ee82bfed9a76d", "is_disabled": 0, "lat": 38.905696666666664, "rental_uris": {"ios": "https://dc.lft.to/lastmile_qr_scan", "android": "https://dc.lft.to/lastmile_qr_scan"}, "is_reserved": 0, "lon": -77.00697216666667, "fusion_lat": 0.0, "name": "b38f17e5891408ddc17ee82bfed9a76d"}, {"type": "electric_scooter", "fusion_lon": 0.0, "bike_id": "de5dd8667201d2fc3cd39e23a546ff21", "is_disabled": 0, "lat": 38.92250133333334, "rental_uris": {"ios": "https://dc.lft.to/lastmile_qr_scan", "android": "https://dc.lft.to/lastmile_qr_scan"}, "is_reserved": 0, "lon": -77.03897433333333, "fusion_lat": 0.0, "name": "de5dd8667201d2fc3cd39e23a546ff21"}, {"type": "electric_scooter", "fusion_lon": 0.0, "bike_id": "7d35e93c5750379a78c18f9a74664e6d", "is_disabled": 0, "lat": 38.91924083333333, "rental_uris": {"ios": "https://dc.lft.to/lastmile_qr_scan", "android": "https://dc.lft.to/lastmile_qr_scan"}, "is_reserved": 0, "lon": -77.032738, "fusion_lat": 0.0, "name": "7d35e93c5750379a78c18f9a74664e6d"}, {"type": "electric_scooter", "fusion_lon": 0.0, "bike_id": "575321523c62940b8a2cbd3656c2ce1a", "is_disabled": 0, "lat": 38.939902833333335, "rental_uris": {"ios": "https://dc.lft.to/lastmile_qr_scan", "android": "https://dc.lft.to/lastmile_qr_scan"}, "is_reserved": 0, "lon": -77.02546916666667, "fusion_lat": 0.0, "name": "575321523c62940b8a2cbd3656c2ce1a"}, {"type": "electric_scooter", "fusion_lon": 0.0, "bike_id": "01e70742760f893a2b10359d38c74e64", "is_disabled": 0, "lat": 38.901925166666665, "rental_uris": {"ios": "https://dc.lft.to/lastmile_qr_scan", "android": "https://dc.lft.to/lastmile_qr_scan"}, "is_reserved": 0, "lon": -76.92634216666667, "fusion_lat": 0.0, "name": "01e70742760f893a2b10359d38c74e64"}, {"type": "electric_scooter", "fusion_lon": 0.0, "bike_id": "ff47fd6df508b124a4c0581611d9948a", "is_disabled": 0, "lat": 38.91621083333333, "rental_uris": {"ios": "https://dc.lft.to/lastmile_qr_scan", "android": "https://dc.lft.to/lastmile_qr_scan"}, "is_reserved": 0, "lon": -77.04268933333333, "fusion_lat": 0.0, "name": "ff47fd6df508b124a4c0581611d9948a"}, {"type": "electric_scooter", "fusion_lon": 0.0, "bike_id": "f6ef98656b05307fbc93bc7c0869e589", "is_disabled": 0, "lat": 38.8963725, "rental_uris": {"ios": "https://dc.lft.to/lastmile_qr_scan", "android": "https://dc.lft.to/lastmile_qr_scan"}, "is_reserved": 0, "lon": -77.01159916666667, "fusion_lat": 0.0, "name": "f6ef98656b05307fbc93bc7c0869e589"}, {"type": "electric_bike", "fusion_lon": 0.0, "bike_id": "17d92ca918366989daf11027349fcfd5", "is_disabled": 0, "lat": 38.92271483333333, "rental_uris": {"ios": "https://dc.lft.to/lastmile_qr_scan", "android": "https://dc.lft.to/lastmile_qr_scan"}, "is_reserved": 0, "lon": -76.99742416666666, "fusion_lat": 0.0, "name": "17d92ca918366989daf11027349fcfd5"}, {"type": "electric_scooter", "fusion_lon": 0.0, "bike_id": "d92eec3dad1c6addbe0a17ec786bcbfa", "is_disabled": 0, "lat": 38.90385666666667, "rental_uris": {"ios": "https://dc.lft.to/lastmile_qr_scan", "android": "https://dc.lft.to/lastmile_qr_scan"}, "is_reserved": 0, "lon": -76.98491316666667, "fusion_lat": 0.0, "name": "d92eec3dad1c6addbe0a17ec786bcbfa"}, {"type": "electric_scooter", "fusion_lon": 0.0, "bike_id": "2b1cda81cf1940decf9d7c2dd9b6ce61", "is_disabled": 0, "lat": 38.92472633333333, "rental_uris": {"ios": "https://dc.lft.to/lastmile_qr_scan", "android": "https://dc.lft.to/lastmile_qr_scan"}, "is_reserved": 0, "lon": -77.022187, "fusion_lat": 0.0, "name": "2b1cda81cf1940decf9d7c2dd9b6ce61"}, {"type": "electric_scooter", "fusion_lon": 0.0, "bike_id": "470e5949f504da43500509340e8e35ca", "is_disabled": 0, "lat": 38.90693733333333, "rental_uris": {"ios": "https://dc.lft.to/lastmile_qr_scan", "android": "https://dc.lft.to/lastmile_qr_scan"}, "is_reserved": 0, "lon": -76.98510316666666, "fusion_lat": 0.0, "name": "470e5949f504da43500509340e8e35ca"}, {"type": "electric_scooter", "fusion_lon": 0.0, "bike_id": "6a48cf52cead4b3038625da794e3222b", "is_disabled": 0, "lat": 38.935559, "rental_uris": {"ios": "https://dc.lft.to/lastmile_qr_scan", "android": "https://dc.lft.to/lastmile_qr_scan"}, "is_reserved": 0, "lon": -77.0341735, "fusion_lat": 0.0, "name": "6a48cf52cead4b3038625da794e3222b"}, {"type": "electric_scooter", "fusion_lon": 0.0, "bike_id": "15966e258d7a20f4531a6005aa716176", "is_disabled": 0, "lat": 38.911907, "rental_uris": {"ios": "https://dc.lft.to/lastmile_qr_scan", "android": "https://dc.lft.to/lastmile_qr_scan"}, "is_reserved": 0, "lon": -77.03802633333333, "fusion_lat": 0.0, "name": "15966e258d7a20f4531a6005aa716176"}, {"type": "electric_scooter", "fusion_lon": 0.0, "bike_id": "33620b4b530643deaf829458132551dd", "is_disabled": 0, "lat": 38.887291166666664, "rental_uris": {"ios": "https://dc.lft.to/lastmile_qr_scan", "android": "https://dc.lft.to/lastmile_qr_scan"}, "is_reserved": 0, "lon": -76.983573, "fusion_lat": 0.0, "name": "33620b4b530643deaf829458132551dd"}, {"type": "electric_scooter", "fusion_lon": 0.0, "bike_id": "28a15feacc138b2ba37a29ee1df2753c", "is_disabled": 0, "lat": 38.90987533333333, "rental_uris": {"ios": "https://dc.lft.to/lastmile_qr_scan", "android": "https://dc.lft.to/lastmile_qr_scan"}, "is_reserved": 0, "lon": -77.00891783333333, "fusion_lat": 0.0, "name": "28a15feacc138b2ba37a29ee1df2753c"}, {"type": "electric_scooter", "fusion_lon": 0.0, "bike_id": "24c2e3fb5a53db224da92a957148f446", "is_disabled": 0, "lat": 38.88733166666667, "rental_uris": {"ios": "https://dc.lft.to/lastmile_qr_scan", "android": "https://dc.lft.to/lastmile_qr_scan"}, "is_reserved": 0, "lon": -77.02386333333334, "fusion_lat": 0.0, "name": "24c2e3fb5a53db224da92a957148f446"}, {"type": "electric_scooter", "fusion_lon": 0.0, "bike_id": "3c7ff59f862f8055c49e3a647b74f330", "is_disabled": 0, "lat": 38.9419355, "rental_uris": {"ios": "https://dc.lft.to/lastmile_qr_scan", "android": "https://dc.lft.to/lastmile_qr_scan"}, "is_reserved": 0, "lon": -77.03841166666666, "fusion_lat": 0.0, "name": "3c7ff59f862f8055c49e3a647b74f330"}, {"type": "electric_scooter", "fusion_lon": 0.0, "bike_id": "0a06b4081d20099fbd35828480711232", "is_disabled": 0, "lat": 38.929372666666666, "rental_uris": {"ios": "https://dc.lft.to/lastmile_qr_scan", "android": "https://dc.lft.to/lastmile_qr_scan"}, "is_reserved": 0, "lon": -77.01642883333334, "fusion_lat": 0.0, "name": "0a06b4081d20099fbd35828480711232"}, {"type": "electric_scooter", "fusion_lon": 0.0, "bike_id": "c28bb00d33986644a0027ebb653230e0", "is_disabled": 0, "lat": 38.91500116666667, "rental_uris": {"ios": "https://dc.lft.to/lastmile_qr_scan", "android": "https://dc.lft.to/lastmile_qr_scan"}, "is_reserved": 0, "lon": -77.01222466666667, "fusion_lat": 0.0, "name": "c28bb00d33986644a0027ebb653230e0"}, {"type": "electric_bike", "fusion_lon": 0.0, "bike_id": "a4f777da97cad1f5ac046f46778f68b0", "is_disabled": 0, "lat": 38.94475333333333, "rental_uris": {"ios": "https://dc.lft.to/lastmile_qr_scan", "android": "https://dc.lft.to/lastmile_qr_scan"}, "is_reserved": 0, "lon": -76.98691583333333, "fusion_lat": 0.0, "name": "a4f777da97cad1f5ac046f46778f68b0"}, {"type": "electric_scooter", "fusion_lon": 0.0, "bike_id": "62156fc7d1f15a8b06304724c7a22245", "is_disabled": 0, "lat": 38.90607033333333, "rental_uris": {"ios": "https://dc.lft.to/lastmile_qr_scan", "android": "https://dc.lft.to/lastmile_qr_scan"}, "is_reserved": 0, "lon": -77.04342216666667, "fusion_lat": 0.0, "name": "62156fc7d1f15a8b06304724c7a22245"}, {"type": "electric_scooter", "fusion_lon": 0.0, "bike_id": "606a1ee371288f123b886bf56f84fd4a", "is_disabled": 0, "lat": 38.9055085, "rental_uris": {"ios": "https://dc.lft.to/lastmile_qr_scan", "android": "https://dc.lft.to/lastmile_qr_scan"}, "is_reserved": 0, "lon": -77.04741266666667, "fusion_lat": 0.0, "name": "606a1ee371288f123b886bf56f84fd4a"}, {"type": "electric_scooter", "fusion_lon": 0.0, "bike_id": "deafb5335db2cf28a1f0fd753b1fac35", "is_disabled": 0, "lat": 38.90721966666667, "rental_uris": {"ios": "https://dc.lft.to/lastmile_qr_scan", "android": "https://dc.lft.to/lastmile_qr_scan"}, "is_reserved": 0, "lon": -77.04973633333333, "fusion_lat": 0.0, "name": "deafb5335db2cf28a1f0fd753b1fac35"}, {"type": "electric_scooter", "fusion_lon": 0.0, "bike_id": "9f9649eb5bb370554ee59dd8cf65ffe8", "is_disabled": 0, "lat": 38.905082, "rental_uris": {"ios": "https://dc.lft.to/lastmile_qr_scan", "android": "https://dc.lft.to/lastmile_qr_scan"}, "is_reserved": 0, "lon": -76.99181866666666, "fusion_lat": 0.0, "name": "9f9649eb5bb370554ee59dd8cf65ffe8"}, {"type": "electric_scooter", "fusion_lon": 0.0, "bike_id": "dfda4399297547964f57541d339f4a85", "is_disabled": 0, "lat": 38.922520166666665, "rental_uris": {"ios": "https://dc.lft.to/lastmile_qr_scan", "android": "https://dc.lft.to/lastmile_qr_scan"}, "is_reserved": 0, "lon": -77.07347583333333, "fusion_lat": 0.0, "name": "dfda4399297547964f57541d339f4a85"}, {"type": "electric_scooter", "fusion_lon": 0.0, "bike_id": "dcac1c11b52091ae204973457113e1f6", "is_disabled": 0, "lat": 38.8767005, "rental_uris": {"ios": "https://dc.lft.to/lastmile_qr_scan", "android": "https://dc.lft.to/lastmile_qr_scan"}, "is_reserved": 0, "lon": -77.00939483333333, "fusion_lat": 0.0, "name": "dcac1c11b52091ae204973457113e1f6"}, {"type": "electric_bike", "fusion_lon": 0.0, "bike_id": "4b68c106d9c1ab71b17497ff5a90b89c", "is_disabled": 0, "lat": 38.922120166666666, "rental_uris": {"ios": "https://dc.lft.to/lastmile_qr_scan", "android": "https://dc.lft.to/lastmile_qr_scan"}, "is_reserved": 0, "lon": -77.081947, "fusion_lat": 0.0, "name": "4b68c106d9c1ab71b17497ff5a90b89c"}, {"type": "electric_scooter", "fusion_lon": 0.0, "bike_id": "e00faba0760ea7d313d7f9afa462d59d", "is_disabled": 0, "lat": 38.91953433333333, "rental_uris": {"ios": "https://dc.lft.to/lastmile_qr_scan", "android": "https://dc.lft.to/lastmile_qr_scan"}, "is_reserved": 0, "lon": -77.023801, "fusion_lat": 0.0, "name": "e00faba0760ea7d313d7f9afa462d59d"}, {"type": "electric_scooter", "fusion_lon": 0.0, "bike_id": "0a7f5279c120e690d4bfea1121c43b22", "is_disabled": 0, "lat": 38.8778845, "rental_uris": {"ios": "https://dc.lft.to/lastmile_qr_scan", "android": "https://dc.lft.to/lastmile_qr_scan"}, "is_reserved": 0, "lon": -76.99409283333334, "fusion_lat": 0.0, "name": "0a7f5279c120e690d4bfea1121c43b22"}, {"type": "electric_bike", "fusion_lon": 0.0, "bike_id": "655410a58b0b370a8808da5157e2d796", "is_disabled": 0, "lat": 38.85617116666667, "rental_uris": {"ios": "https://dc.lft.to/lastmile_qr_scan", "android": "https://dc.lft.to/lastmile_qr_scan"}, "is_reserved": 0, "lon": -77.1118025, "fusion_lat": 0.0, "name": "655410a58b0b370a8808da5157e2d796"}, {"type": "electric_scooter", "fusion_lon": 0.0, "bike_id": "f97794b8e527f430736952d5ffc7b728", "is_disabled": 0, "lat": 38.91267416666667, "rental_uris": {"ios": "https://dc.lft.to/lastmile_qr_scan", "android": "https://dc.lft.to/lastmile_qr_scan"}, "is_reserved": 0, "lon": -77.03799066666667, "fusion_lat": 0.0, "name": "f97794b8e527f430736952d5ffc7b728"}, {"type": "electric_bike", "fusion_lon": 0.0, "bike_id": "f7a8920e1c2bdab80a85447b5e8b8ca0", "is_disabled": 0, "lat": 38.86235583333333, "rental_uris": {"ios": "https://dc.lft.to/lastmile_qr_scan", "android": "https://dc.lft.to/lastmile_qr_scan"}, "is_reserved": 0, "lon": -76.9958755, "fusion_lat": 0.0, "name": "f7a8920e1c2bdab80a85447b5e8b8ca0"}, {"type": "electric_scooter", "fusion_lon": 0.0, "bike_id": "bce2ea9e8a753d5d644a2b8673203a06", "is_disabled": 0, "lat": 38.9170565, "rental_uris": {"ios": "https://dc.lft.to/lastmile_qr_scan", "android": "https://dc.lft.to/lastmile_qr_scan"}, "is_reserved": 0, "lon": -77.03467533333334, "fusion_lat": 0.0, "name": "bce2ea9e8a753d5d644a2b8673203a06"}, {"type": "electric_scooter", "fusion_lon": 0.0, "bike_id": "395d70d07c1459bd46d89fa904917e3c", "is_disabled": 0, "lat": 38.908468166666665, "rental_uris": {"ios": "https://dc.lft.to/lastmile_qr_scan", "android": "https://dc.lft.to/lastmile_qr_scan"}, "is_reserved": 0, "lon": -76.996849, "fusion_lat": 0.0, "name": "395d70d07c1459bd46d89fa904917e3c"}, {"type": "electric_scooter", "fusion_lon": 0.0, "bike_id": "e1fe7911a1fc15b6972ad718f7c88c32", "is_disabled": 0, "lat": 38.9052745, "rental_uris": {"ios": "https://dc.lft.to/lastmile_qr_scan", "android": "https://dc.lft.to/lastmile_qr_scan"}, "is_reserved": 0, "lon": -77.029609, "fusion_lat": 0.0, "name": "e1fe7911a1fc15b6972ad718f7c88c32"}, {"type": "electric_scooter", "fusion_lon": 0.0, "bike_id": "c970c14cf28ade6ec9e97d28bdb94750", "is_disabled": 0, "lat": 38.9004215, "rental_uris": {"ios": "https://dc.lft.to/lastmile_qr_scan", "android": "https://dc.lft.to/lastmile_qr_scan"}, "is_reserved": 0, "lon": -77.02402716666667, "fusion_lat": 0.0, "name": "c970c14cf28ade6ec9e97d28bdb94750"}, {"type": "electric_scooter", "fusion_lon": 0.0, "bike_id": "da7192595afc8ed35302a1610f827624", "is_disabled": 0, "lat": 38.91768, "rental_uris": {"ios": "https://dc.lft.to/lastmile_qr_scan", "android": "https://dc.lft.to/lastmile_qr_scan"}, "is_reserved": 0, "lon": -77.023432, "fusion_lat": 0.0, "name": "da7192595afc8ed35302a1610f827624"}, {"type": "electric_scooter", "fusion_lon": 0.0, "bike_id": "a759eefcda2ad61a65e1e641644d3fff", "is_disabled": 0, "lat": 38.90563316666667, "rental_uris": {"ios": "https://dc.lft.to/lastmile_qr_scan", "android": "https://dc.lft.to/lastmile_qr_scan"}, "is_reserved": 0, "lon": -77.02212283333333, "fusion_lat": 0.0, "name": "a759eefcda2ad61a65e1e641644d3fff"}, {"type": "electric_scooter", "fusion_lon": 0.0, "bike_id": "0b7265f82da4f41f621bd9d257484e2d", "is_disabled": 0, "lat": 38.909971, "rental_uris": {"ios": "https://dc.lft.to/lastmile_qr_scan", "android": "https://dc.lft.to/lastmile_qr_scan"}, "is_reserved": 0, "lon": -77.040107, "fusion_lat": 0.0, "name": "0b7265f82da4f41f621bd9d257484e2d"}, {"type": "electric_scooter", "fusion_lon": 0.0, "bike_id": "8b6f614003c2ff6589b4c702b026e266", "is_disabled": 0, "lat": 38.931531666666665, "rental_uris": {"ios": "https://dc.lft.to/lastmile_qr_scan", "android": "https://dc.lft.to/lastmile_qr_scan"}, "is_reserved": 0, "lon": -77.05604483333333, "fusion_lat": 0.0, "name": "8b6f614003c2ff6589b4c702b026e266"}, {"type": "electric_bike", "fusion_lon": 0.0, "bike_id": "017efae3f30330835bbdb361da97e3e3", "is_disabled": 0, "lat": 38.881231166666666, "rental_uris": {"ios": "https://dc.lft.to/lastmile_qr_scan", "android": "https://dc.lft.to/lastmile_qr_scan"}, "is_reserved": 0, "lon": -76.99797666666667, "fusion_lat": 0.0, "name": "017efae3f30330835bbdb361da97e3e3"}, {"type": "electric_scooter", "fusion_lon": 0.0, "bike_id": "63e1df39da2b47bb0127e0189dff46cb", "is_disabled": 0, "lat": 38.95766233333333, "rental_uris": {"ios": "https://dc.lft.to/lastmile_qr_scan", "android": "https://dc.lft.to/lastmile_qr_scan"}, "is_reserved": 0, "lon": -77.01483533333334, "fusion_lat": 0.0, "name": "63e1df39da2b47bb0127e0189dff46cb"}, {"type": "electric_scooter", "fusion_lon": 0.0, "bike_id": "1eb8de3c3007080f506160fdc98ef6a3", "is_disabled": 0, "lat": 38.92123383333333, "rental_uris": {"ios": "https://dc.lft.to/lastmile_qr_scan", "android": "https://dc.lft.to/lastmile_qr_scan"}, "is_reserved": 0, "lon": -77.04379433333334, "fusion_lat": 0.0, "name": "1eb8de3c3007080f506160fdc98ef6a3"}, {"type": "electric_scooter", "fusion_lon": 0.0, "bike_id": "27f9b28f9fdd95b87d23720d6316e86e", "is_disabled": 0, "lat": 38.9111415, "rental_uris": {"ios": "https://dc.lft.to/lastmile_qr_scan", "android": "https://dc.lft.to/lastmile_qr_scan"}, "is_reserved": 0, "lon": -77.00451016666666, "fusion_lat": 0.0, "name": "27f9b28f9fdd95b87d23720d6316e86e"}, {"type": "electric_bike", "fusion_lon": 0.0, "bike_id": "c58d3d9f26ce7aeca40edf831b74551d", "is_disabled": 0, "lat": 38.914924166666665, "rental_uris": {"ios": "https://dc.lft.to/lastmile_qr_scan", "android": "https://dc.lft.to/lastmile_qr_scan"}, "is_reserved": 0, "lon": -76.98577283333333, "fusion_lat": 0.0, "name": "c58d3d9f26ce7aeca40edf831b74551d"}, {"type": "electric_scooter", "fusion_lon": 0.0, "bike_id": "dcce7540a1c25150e78d117ca01fc671", "is_disabled": 0, "lat": 38.936992000000004, "rental_uris": {"ios": "https://dc.lft.to/lastmile_qr_scan", "android": "https://dc.lft.to/lastmile_qr_scan"}, "is_reserved": 0, "lon": -77.055988, "fusion_lat": 0.0, "name": "dcce7540a1c25150e78d117ca01fc671"}, {"type": "electric_scooter", "fusion_lon": 0.0, "bike_id": "f43376d7001a58676ef155e3e4f46848", "is_disabled": 0, "lat": 38.8925595, "rental_uris": {"ios": "https://dc.lft.to/lastmile_qr_scan", "android": "https://dc.lft.to/lastmile_qr_scan"}, "is_reserved": 0, "lon": -77.04509033333333, "fusion_lat": 0.0, "name": "f43376d7001a58676ef155e3e4f46848"}, {"type": "electric_scooter", "fusion_lon": 0.0, "bike_id": "f477123d68274a8e399be4807062ba53", "is_disabled": 0, "lat": 38.9165435, "rental_uris": {"ios": "https://dc.lft.to/lastmile_qr_scan", "android": "https://dc.lft.to/lastmile_qr_scan"}, "is_reserved": 0, "lon": -77.022714, "fusion_lat": 0.0, "name": "f477123d68274a8e399be4807062ba53"}, {"type": "electric_scooter", "fusion_lon": 0.0, "bike_id": "b1e27c5630fba5992e5f3baea94db833", "is_disabled": 0, "lat": 38.90564283333333, "rental_uris": {"ios": "https://dc.lft.to/lastmile_qr_scan", "android": "https://dc.lft.to/lastmile_qr_scan"}, "is_reserved": 0, "lon": -77.022084, "fusion_lat": 0.0, "name": "b1e27c5630fba5992e5f3baea94db833"}, {"type": "electric_scooter", "fusion_lon": 0.0, "bike_id": "c7f13d0fca5b572e62035e9d5fa67485", "is_disabled": 0, "lat": 38.887647333333334, "rental_uris": {"ios": "https://dc.lft.to/lastmile_qr_scan", "android": "https://dc.lft.to/lastmile_qr_scan"}, "is_reserved": 0, "lon": -77.03322683333333, "fusion_lat": 0.0, "name": "c7f13d0fca5b572e62035e9d5fa67485"}, {"type": "electric_bike", "fusion_lon": 0.0, "bike_id": "68b955cce89baf509840d3cec3532b00", "is_disabled": 0, "lat": 38.95647483333333, "rental_uris": {"ios": "https://dc.lft.to/lastmile_qr_scan", "android": "https://dc.lft.to/lastmile_qr_scan"}, "is_reserved": 0, "lon": -76.99749816666667, "fusion_lat": 0.0, "name": "68b955cce89baf509840d3cec3532b00"}, {"type": "electric_scooter", "fusion_lon": 0.0, "bike_id": "7a632aece51ecb6e5a8237a10919fd4a", "is_disabled": 0, "lat": 38.90734366666667, "rental_uris": {"ios": "https://dc.lft.to/lastmile_qr_scan", "android": "https://dc.lft.to/lastmile_qr_scan"}, "is_reserved": 0, "lon": -76.9798525, "fusion_lat": 0.0, "name": "7a632aece51ecb6e5a8237a10919fd4a"}, {"type": "electric_scooter", "fusion_lon": 0.0, "bike_id": "81596d17b32526f5468bc4d29b10a810", "is_disabled": 0, "lat": 38.898601666666664, "rental_uris": {"ios": "https://dc.lft.to/lastmile_qr_scan", "android": "https://dc.lft.to/lastmile_qr_scan"}, "is_reserved": 0, "lon": -77.0258085, "fusion_lat": 0.0, "name": "81596d17b32526f5468bc4d29b10a810"}, {"type": "electric_scooter", "fusion_lon": 0.0, "bike_id": "9698d4a4d6b9033052f409bd9d5a77a2", "is_disabled": 0, "lat": 38.935005833333335, "rental_uris": {"ios": "https://dc.lft.to/lastmile_qr_scan", "android": "https://dc.lft.to/lastmile_qr_scan"}, "is_reserved": 0, "lon": -77.02416983333333, "fusion_lat": 0.0, "name": "9698d4a4d6b9033052f409bd9d5a77a2"}, {"type": "electric_bike", "fusion_lon": 0.0, "bike_id": "11ea53c435a1628ce79b6651532be288", "is_disabled": 0, "lat": 38.94633283333334, "rental_uris": {"ios": "https://dc.lft.to/lastmile_qr_scan", "android": "https://dc.lft.to/lastmile_qr_scan"}, "is_reserved": 0, "lon": -76.9931255, "fusion_lat": 0.0, "name": "11ea53c435a1628ce79b6651532be288"}, {"type": "electric_scooter", "fusion_lon": 0.0, "bike_id": "1b08411ad7b9e2bf40d79d13bf0cbd4c", "is_disabled": 0, "lat": 38.929966, "rental_uris": {"ios": "https://dc.lft.to/lastmile_qr_scan", "android": "https://dc.lft.to/lastmile_qr_scan"}, "is_reserved": 0, "lon": -77.023544, "fusion_lat": 0.0, "name": "1b08411ad7b9e2bf40d79d13bf0cbd4c"}, {"type": "electric_scooter", "fusion_lon": 0.0, "bike_id": "8e4a603067d2b2694c9e0de90b025d92", "is_disabled": 0, "lat": 38.90411116666667, "rental_uris": {"ios": "https://dc.lft.to/lastmile_qr_scan", "android": "https://dc.lft.to/lastmile_qr_scan"}, "is_reserved": 0, "lon": -76.973349, "fusion_lat": 0.0, "name": "8e4a603067d2b2694c9e0de90b025d92"}, {"type": "electric_scooter", "fusion_lon": 0.0, "bike_id": "899a5e3b03e908bc6c640d626a69bbfa", "is_disabled": 0, "lat": 38.920662666666665, "rental_uris": {"ios": "https://dc.lft.to/lastmile_qr_scan", "android": "https://dc.lft.to/lastmile_qr_scan"}, "is_reserved": 0, "lon": -77.023035, "fusion_lat": 0.0, "name": "899a5e3b03e908bc6c640d626a69bbfa"}, {"type": "electric_scooter", "fusion_lon": 0.0, "bike_id": "5ebd74a90adf8bf0ca6a44b2c5cfb956", "is_disabled": 0, "lat": 38.902324, "rental_uris": {"ios": "https://dc.lft.to/lastmile_qr_scan", "android": "https://dc.lft.to/lastmile_qr_scan"}, "is_reserved": 0, "lon": -77.0357265, "fusion_lat": 0.0, "name": "5ebd74a90adf8bf0ca6a44b2c5cfb956"}, {"type": "electric_bike", "fusion_lon": 0.0, "bike_id": "ef76794a763f7dd2a60626e4462955e6", "is_disabled": 0, "lat": 38.92006883333333, "rental_uris": {"ios": "https://dc.lft.to/lastmile_qr_scan", "android": "https://dc.lft.to/lastmile_qr_scan"}, "is_reserved": 0, "lon": -76.95821683333334, "fusion_lat": 0.0, "name": "ef76794a763f7dd2a60626e4462955e6"}, {"type": "electric_scooter", "fusion_lon": 0.0, "bike_id": "11f7bd2a6edfb60a25249130ad45cdb2", "is_disabled": 0, "lat": 38.92709133333334, "rental_uris": {"ios": "https://dc.lft.to/lastmile_qr_scan", "android": "https://dc.lft.to/lastmile_qr_scan"}, "is_reserved": 0, "lon": -77.02092516666667, "fusion_lat": 0.0, "name": "11f7bd2a6edfb60a25249130ad45cdb2"}, {"type": "electric_scooter", "fusion_lon": 0.0, "bike_id": "241b23ffc3946c1acaec6fdfc8ef53f5", "is_disabled": 0, "lat": 38.8747, "rental_uris": {"ios": "https://dc.lft.to/lastmile_qr_scan", "android": "https://dc.lft.to/lastmile_qr_scan"}, "is_reserved": 0, "lon": -77.00553916666667, "fusion_lat": 0.0, "name": "241b23ffc3946c1acaec6fdfc8ef53f5"}, {"type": "electric_scooter", "fusion_lon": 0.0, "bike_id": "228e5509de9b4fa6387147289eba74d2", "is_disabled": 0, "lat": 38.925018666666666, "rental_uris": {"ios": "https://dc.lft.to/lastmile_qr_scan", "android": "https://dc.lft.to/lastmile_qr_scan"}, "is_reserved": 0, "lon": -77.02405216666666, "fusion_lat": 0.0, "name": "228e5509de9b4fa6387147289eba74d2"}, {"type": "electric_scooter", "fusion_lon": 0.0, "bike_id": "7bef428b9086ea881dfdef4ff1d1f697", "is_disabled": 0, "lat": 38.914917333333335, "rental_uris": {"ios": "https://dc.lft.to/lastmile_qr_scan", "android": "https://dc.lft.to/lastmile_qr_scan"}, "is_reserved": 0, "lon": -77.02587333333334, "fusion_lat": 0.0, "name": "7bef428b9086ea881dfdef4ff1d1f697"}, {"type": "electric_scooter", "fusion_lon": 0.0, "bike_id": "e111ff4edaae0946027ff8c1bdfe33ab", "is_disabled": 0, "lat": 38.92697866666666, "rental_uris": {"ios": "https://dc.lft.to/lastmile_qr_scan", "android": "https://dc.lft.to/lastmile_qr_scan"}, "is_reserved": 0, "lon": -77.023885, "fusion_lat": 0.0, "name": "e111ff4edaae0946027ff8c1bdfe33ab"}, {"type": "electric_scooter", "fusion_lon": 0.0, "bike_id": "43dd997f0469d566c7c25e760ca60b42", "is_disabled": 0, "lat": 38.88442716666667, "rental_uris": {"ios": "https://dc.lft.to/lastmile_qr_scan", "android": "https://dc.lft.to/lastmile_qr_scan"}, "is_reserved": 0, "lon": -76.94222533333334, "fusion_lat": 0.0, "name": "43dd997f0469d566c7c25e760ca60b42"}, {"type": "electric_scooter", "fusion_lon": 0.0, "bike_id": "437b9c76feb70c6b2d30635c49db704e", "is_disabled": 0, "lat": 38.917527, "rental_uris": {"ios": "https://dc.lft.to/lastmile_qr_scan", "android": "https://dc.lft.to/lastmile_qr_scan"}, "is_reserved": 0, "lon": -77.02288883333334, "fusion_lat": 0.0, "name": "437b9c76feb70c6b2d30635c49db704e"}, {"type": "electric_scooter", "fusion_lon": 0.0, "bike_id": "54b75881adaeb8e7306b6829e4cc8064", "is_disabled": 0, "lat": 38.922044666666665, "rental_uris": {"ios": "https://dc.lft.to/lastmile_qr_scan", "android": "https://dc.lft.to/lastmile_qr_scan"}, "is_reserved": 0, "lon": -77.04707216666667, "fusion_lat": 0.0, "name": "54b75881adaeb8e7306b6829e4cc8064"}, {"type": "electric_scooter", "fusion_lon": 0.0, "bike_id": "6dea97148d036824a49bf7fe71991b51", "is_disabled": 0, "lat": 38.92149233333333, "rental_uris": {"ios": "https://dc.lft.to/lastmile_qr_scan", "android": "https://dc.lft.to/lastmile_qr_scan"}, "is_reserved": 0, "lon": -77.038716, "fusion_lat": 0.0, "name": "6dea97148d036824a49bf7fe71991b51"}, {"type": "electric_scooter", "fusion_lon": 0.0, "bike_id": "cf583d0c923517f81e7fb56db41a9678", "is_disabled": 0, "lat": 38.92146116666667, "rental_uris": {"ios": "https://dc.lft.to/lastmile_qr_scan", "android": "https://dc.lft.to/lastmile_qr_scan"}, "is_reserved": 0, "lon": -77.07398583333334, "fusion_lat": 0.0, "name": "cf583d0c923517f81e7fb56db41a9678"}, {"type": "electric_scooter", "fusion_lon": 0.0, "bike_id": "f405ab47025c5ea63833e87c8df2a0c5", "is_disabled": 0, "lat": 38.90376833333333, "rental_uris": {"ios": "https://dc.lft.to/lastmile_qr_scan", "android": "https://dc.lft.to/lastmile_qr_scan"}, "is_reserved": 0, "lon": -76.99512283333334, "fusion_lat": 0.0, "name": "f405ab47025c5ea63833e87c8df2a0c5"}, {"type": "electric_scooter", "fusion_lon": 0.0, "bike_id": "9039b665553e70c33b6fc191de8bc1a3", "is_disabled": 0, "lat": 38.877999833333334, "rental_uris": {"ios": "https://dc.lft.to/lastmile_qr_scan", "android": "https://dc.lft.to/lastmile_qr_scan"}, "is_reserved": 0, "lon": -77.0070795, "fusion_lat": 0.0, "name": "9039b665553e70c33b6fc191de8bc1a3"}, {"type": "electric_scooter", "fusion_lon": 0.0, "bike_id": "f354a965d19bd8020574ab57afb18d72", "is_disabled": 0, "lat": 38.91992183333333, "rental_uris": {"ios": "https://dc.lft.to/lastmile_qr_scan", "android": "https://dc.lft.to/lastmile_qr_scan"}, "is_reserved": 0, "lon": -77.01786333333334, "fusion_lat": 0.0, "name": "f354a965d19bd8020574ab57afb18d72"}, {"type": "electric_scooter", "fusion_lon": 0.0, "bike_id": "f15f8730f1e95fb0a40dcb157ae95a11", "is_disabled": 0, "lat": 38.90736966666667, "rental_uris": {"ios": "https://dc.lft.to/lastmile_qr_scan", "android": "https://dc.lft.to/lastmile_qr_scan"}, "is_reserved": 0, "lon": -77.04473816666666, "fusion_lat": 0.0, "name": "f15f8730f1e95fb0a40dcb157ae95a11"}, {"type": "electric_scooter", "fusion_lon": 0.0, "bike_id": "1b79f851cb417725acef5e4d6bcd8284", "is_disabled": 0, "lat": 38.875469333333335, "rental_uris": {"ios": "https://dc.lft.to/lastmile_qr_scan", "android": "https://dc.lft.to/lastmile_qr_scan"}, "is_reserved": 0, "lon": -77.00538383333334, "fusion_lat": 0.0, "name": "1b79f851cb417725acef5e4d6bcd8284"}, {"type": "electric_scooter", "fusion_lon": 0.0, "bike_id": "1156b2e77b64d68fb669a51b53d135be", "is_disabled": 0, "lat": 38.91468666666667, "rental_uris": {"ios": "https://dc.lft.to/lastmile_qr_scan", "android": "https://dc.lft.to/lastmile_qr_scan"}, "is_reserved": 0, "lon": -77.0149205, "fusion_lat": 0.0, "name": "1156b2e77b64d68fb669a51b53d135be"}, {"type": "electric_scooter", "fusion_lon": 0.0, "bike_id": "071b3fea6883aec171bfdf7a379c25bd", "is_disabled": 0, "lat": 38.94410766666667, "rental_uris": {"ios": "https://dc.lft.to/lastmile_qr_scan", "android": "https://dc.lft.to/lastmile_qr_scan"}, "is_reserved": 0, "lon": -77.00504033333333, "fusion_lat": 0.0, "name": "071b3fea6883aec171bfdf7a379c25bd"}, {"type": "electric_scooter", "fusion_lon": 0.0, "bike_id": "308f7f6cf64a96a1f4a7420b402675e1", "is_disabled": 0, "lat": 38.93663083333333, "rental_uris": {"ios": "https://dc.lft.to/lastmile_qr_scan", "android": "https://dc.lft.to/lastmile_qr_scan"}, "is_reserved": 0, "lon": -77.03392033333333, "fusion_lat": 0.0, "name": "308f7f6cf64a96a1f4a7420b402675e1"}, {"type": "electric_bike", "fusion_lon": 0.0, "bike_id": "060832439789c3f353897ca3435622b6", "is_disabled": 0, "lat": 38.8830295, "rental_uris": {"ios": "https://dc.lft.to/lastmile_qr_scan", "android": "https://dc.lft.to/lastmile_qr_scan"}, "is_reserved": 0, "lon": -76.94975533333333, "fusion_lat": 0.0, "name": "060832439789c3f353897ca3435622b6"}, {"type": "electric_scooter", "fusion_lon": 0.0, "bike_id": "7b069ce17b660a414be0ce366b74531a", "is_disabled": 0, "lat": 38.8774935, "rental_uris": {"ios": "https://dc.lft.to/lastmile_qr_scan", "android": "https://dc.lft.to/lastmile_qr_scan"}, "is_reserved": 0, "lon": -77.0075135, "fusion_lat": 0.0, "name": "7b069ce17b660a414be0ce366b74531a"},