{"data": {"bikes": [{"bike_id": "535f0d61bf6d3348d57d273ef5b94864", "name": "535f0d61bf6d3348d57d273ef5b94864", "is_disabled": 0, "fusion_lon": 0.0, "rental_uris": {"android": "https://dc.lft.to/lastmile_qr_scan", "ios": "https://dc.lft.to/lastmile_qr_scan"}, "type": "electric_scooter", "fusion_lat": 0.0, "lat": 38.920737833333334, "lon": -77.02386183333333, "is_reserved": 0}, {"bike_id": "e3af7e8a2c611d7bf548b5fbb63b7f96", "name": "e3af7e8a2c611d7bf548b5fbb63b7f96", "is_disabled": 0, "fusion_lon": 0.0, "rental_uris": {"android": "https://dc.lft.to/lastmile_qr_scan", "ios": "https://dc.lft.to/lastmile_qr_scan"}, "type": "electric_scooter", "fusion_lat": 0.0, "lat": 38.91616916666667, "lon": -77.02132433333334, "is_reserved": 0}, {"bike_id": "c0dfdbc008a082c39319f18a16cbae22", "name": "c0dfdbc008a082c39319f18a16cbae22", "is_disabled": 0, "fusion_lon": 0.0, "rental_uris": {"android": "https://dc.lft.to/lastmile_qr_scan", "ios": "https://dc.lft.to/lastmile_qr_scan"}, "type": "electric_scooter", "fusion_lat": 0.0, "lat": 38.877034, "lon": -77.00399616666667, "is_reserved": 0}, {"bike_id": "3c180aafffba94c196def47eb2b71897", "name": "3c180aafffba94c196def47eb2b71897", "is_disabled": 0, "fusion_lon": 0.0, "rental_uris": {"android": "https://dc.lft.to/lastmile_qr_scan", "ios": "https://dc.lft.to/lastmile_qr_scan"}, "type": "electric_scooter", "fusion_lat": 0.0, "lat": 38.90118533333333, "lon": -77.03999866666666, "is_reserved": 0}, {"bike_id": "18bd85a1dd1a7c4c8da4bd9bf7cca9ae", "name": "18bd85a1dd1a7c4c8da4bd9bf7cca9ae", "is_disabled": 0, "fusion_lon": 0.0, "rental_uris": {"android": "https://dc.lft.to/lastmile_qr_scan", "ios": "https://dc.lft.to/lastmile_qr_scan"}, "type": "electric_scooter", "fusion_lat": 0.0, "lat": 38.91389933333333, "lon": -77.04572533333334, "is_reserved": 0}, {"bike_id": "c4be30e99da7099423ec93e9f8aa4e18", "name": "c4be30e99da7099423ec93e9f8aa4e18", "is_disabled": 0, "fusion_lon": 0.0, "rental_uris": {"android": "https://dc.lft.to/lastmile_qr_scan", "ios": "https://dc.lft.to/lastmile_qr_scan"}, "type": "electric_scooter", "fusion_lat": 0.0, "lat": 38.914672, "lon": -77.0122415, "is_reserved": 0}, {"bike_id": "6fd48303bf8e1fd6f26fd729bc5294f8", "name": "6fd48303bf8e1fd6f26fd729bc5294f8", "is_disabled": 0, "fusion_lon": 0.0, "rental_uris": {"android": "https://dc.lft.to/lastmile_qr_scan", "ios": "https://dc.lft.to/lastmile_qr_scan"}, "type": "electric_scooter", "fusion_lat": 0.0, "lat": 38.89729, "lon": -76.925855, "is_reserved": 0}, {"bike_id": "08e996428a356af82970ea8efcbe40db", "name": "08e996428a356af82970ea8efcbe40db", "is_disabled": 0, "fusion_lon": 0.0, "rental_uris": {"android": "https://dc.lft.to/lastmile_qr_scan", "ios": "https://dc.lft.to/lastmile_qr_scan"}, "type": "electric_scooter", "fusion_lat": 0.0, "lat": 38.92441266666667, "lon": -77.0201965, "is_reserved": 0}, {"bike_id": "16ecf0de305778d749eed80c3041add8", "name": "16ecf0de305778d749eed80c3041add8", "is_disabled": 0, "fusion_lon": 0.0, "rental_uris": {"android": "https://dc.lft.to/lastmile_qr_scan", "ios": "https://dc.lft.to/lastmile_qr_scan"}, "type": "electric_scooter", "fusion_lat": 0.0, "lat": 38.918162333333335, "lon": -77.0252625, "is_reserved": 0}, {"bike_id": "d5656b0efaca23791438e9b5614bd3ba", "name": "d5656b0efaca23791438e9b5614bd3ba", "is_disabled": 0, "fusion_lon": 0.0, "rental_uris": {"android": "https://dc.lft.to/lastmile_qr_scan", "ios": "https://dc.lft.to/lastmile_qr_scan"}, "type": "electric_scooter", "fusion_lat": 0.0, "lat": 38.92160116666667, "lon": -77.04224616666667, "is_reserved": 0}, {"bike_id": "288b3d5bbe24946c24ab956baa04f407", "name": "288b3d5bbe24946c24ab956baa04f407", "is_disabled": 0, "fusion_lon": 0.0, "rental_uris": {"android": "https://dc.lft.to/lastmile_qr_scan", "ios": "https://dc.lft.to/lastmile_qr_scan"}, "type": "electric_bike", "fusion_lat": 0.0, "lat": 38.8421715, "lon": -77.09050116666667, "is_reserved": 0}, {"bike_id": "857c125ba3fe7647e122767479f45399", "name": "857c125ba3fe7647e122767479f45399", "is_disabled": 0, "fusion_lon": 0.0, "rental_uris": {"android": "https://dc.lft.to/lastmile_qr_scan", "ios": "https://dc.lft.to/lastmile_qr_scan"}, "type": "electric_scooter", "fusion_lat": 0.0, "lat": 38.8943835, "lon": -76.98086066666667, "is_reserved": 0}, {"bike_id": "5ce6cf12382566a5d51dd92d6156cbd1", "name": "5ce6cf12382566a5d51dd92d6156cbd1", "is_disabled": 0, "fusion_lon": 0.0, "rental_uris": {"android": "https://dc.lft.to/lastmile_qr_scan", "ios": "https://dc.lft.to/lastmile_qr_scan"}, "type": "electric_scooter", "fusion_lat": 0.0, "lat": 38.943465, "lon": -77.02673166666666, "is_reserved": 0}, {"bike_id": "9aaf52c2256b1b0ae2d5ffe10176551a", "name": "9aaf52c2256b1b0ae2d5ffe10176551a", "is_disabled": 0, "fusion_lon": 0.0, "rental_uris": {"android": "https://dc.lft.to/lastmile_qr_scan", "ios": "https://dc.lft.to/lastmile_qr_scan"}, "type": "electric_scooter", "fusion_lat": 0.0, "lat": 38.926103, "lon": -77.02163466666667, "is_reserved": 0}, {"bike_id": "1a8bd0f08316668fbde037662c153fd0", "name": "1a8bd0f08316668fbde037662c153fd0", "is_disabled": 0, "fusion_lon": 0.0, "rental_uris": {"android": "https://dc.lft.to/lastmile_qr_scan", "ios": "https://dc.lft.to/lastmile_qr_scan"}, "type": "electric_scooter", "fusion_lat": 0.0, "lat": 38.920440666666664, "lon": -77.016864, "is_reserved": 0}, {"bike_id": "ebeb87c69d978386ac83b6834c39a9d8", "name": "ebeb87c69d978386ac83b6834c39a9d8", "is_disabled": 0, "fusion_lon": 0.0, "rental_uris": {"android": "https://dc.lft.to/lastmile_qr_scan", "ios": "https://dc.lft.to/lastmile_qr_scan"}, "type": "electric_scooter", "fusion_lat": 0.0, "lat": 38.886097, "lon": -77.00314583333333, "is_reserved": 0}, {"bike_id": "a2ce66c38d0ae72a812e8c42f6d94a9d", "name": "a2ce66c38d0ae72a812e8c42f6d94a9d", "is_disabled": 0, "fusion_lon": 0.0, "rental_uris": {"android": "https://dc.lft.to/lastmile_qr_scan", "ios": "https://dc.lft.to/lastmile_qr_scan"}, "type": "electric_scooter", "fusion_lat": 0.0, "lat": 38.91885833333333, "lon": -77.02968066666666, "is_reserved": 0}, {"bike_id": "c71d84db5da3935f040df19fe875c00a", "name": "c71d84db5da3935f040df19fe875c00a", "is_disabled": 0, "fusion_lon": 0.0, "rental_uris": {"android": "https://dc.lft.to/lastmile_qr_scan", "ios": "https://dc.lft.to/lastmile_qr_scan"}, "type": "electric_scooter", "fusion_lat": 0.0, "lat": 38.899454166666665, "lon": -77.04492683333334, "is_reserved": 0}, {"bike_id": "20e8ba61a4ea634d8d3aac1d97160e59", "name": "20e8ba61a4ea634d8d3aac1d97160e59", "is_disabled": 0, "fusion_lon": 0.0, "rental_uris": {"android": "https://dc.lft.to/lastmile_qr_scan", "ios": "https://dc.lft.to/lastmile_qr_scan"}, "type": "electric_scooter", "fusion_lat": 0.0, "lat": 38.89362033333333, "lon": -77.00328416666666, "is_reserved": 0}, {"bike_id": "6f32a767b5a234f0fe0af16935e2fc4b", "name": "6f32a767b5a234f0fe0af16935e2fc4b", "is_disabled": 0, "fusion_lon": 0.0, "rental_uris": {"android": "https://dc.lft.to/lastmile_qr_scan", "ios": "https://dc.lft.to/lastmile_qr_scan"}, "type": "electric_scooter", "fusion_lat": 0.0, "lat": 38.902073, "lon": -77.02147783333334, "is_reserved": 0}, {"bike_id": "d10a011a7cce91aeefc03df1e2220dd4", "name": "d10a011a7cce91aeefc03df1e2220dd4", "is_disabled": 0, "fusion_lon": 0.0, "rental_uris": {"android": "https://dc.lft.to/lastmile_qr_scan", "ios": "https://dc.lft.to/lastmile_qr_scan"}, "type": "electric_scooter", "fusion_lat": 0.0, "lat": 38.92329516666667, "lon": -77.0089335, "is_reserved": 0}, {"bike_id": "8d5f6bd0e94b38039ad692fbb403e720", "name": "8d5f6bd0e94b38039ad692fbb403e720", "is_disabled": 0, "fusion_lon": 0.0, "rental_uris": {"android": "https://dc.lft.to/lastmile_qr_scan", "ios": "https://dc.lft.to/lastmile_qr_scan"}, "type": "electric_scooter", "fusion_lat": 0.0, "lat": 38.897399166666666, "lon": -77.0494665, "is_reserved": 0}, {"bike_id": "fdd7a91330337def6a0ef02fa79bd125", "name": "fdd7a91330337def6a0ef02fa79bd125", "is_disabled": 0, "fusion_lon": 0.0, "rental_uris": {"android": "https://dc.lft.to/lastmile_qr_scan", "ios": "https://dc.lft.to/lastmile_qr_scan"}, "type": "electric_scooter", "fusion_lat": 0.0, "lat": 38.90097883333333, "lon": -76.92930033333333, "is_reserved": 0}, {"bike_id": "4900087d00c15544fb46a600f01ef41b", "name": "4900087d00c15544fb46a600f01ef41b", "is_disabled": 0, "fusion_lon": 0.0, "rental_uris": {"android": "https://dc.lft.to/lastmile_qr_scan", "ios": "https://dc.lft.to/lastmile_qr_scan"}, "type": "electric_scooter", "fusion_lat": 0.0, "lat": 38.87970133333334, "lon": -76.98544033333333, "is_reserved": 0}, {"bike_id": "9e20dbe780db93bc2fd18169c14cadef", "name": "9e20dbe780db93bc2fd18169c14cadef", "is_disabled": 0, "fusion_lon": 0.0, "rental_uris": {"android": "https://dc.lft.to/lastmile_qr_scan", "ios": "https://dc.lft.to/lastmile_qr_scan"}, "type": "electric_scooter", "fusion_lat": 0.0, "lat": 38.90847933333333, "lon": -77.06385033333333, "is_reserved": 0}, {"bike_id": "4918bb3a2f0d402f5928db926f65bbad", "name": "4918bb3a2f0d402f5928db926f65bbad", "is_disabled": 0, "fusion_lon": 0.0, "rental_uris": {"android": "https://dc.lft.to/lastmile_qr_scan", "ios": "https://dc.lft.to/lastmile_qr_scan"}, "type": "electric_scooter", "fusion_lat": 0.0, "lat": 38.921194166666666, "lon": -77.04113716666667, "is_reserved": 0}, {"bike_id": "5afed9338b695050a15c85a99186ee80", "name": "5afed9338b695050a15c85a99186ee80", "is_disabled": 0, "fusion_lon": 0.0, "rental_uris": {"android": "https://dc.lft.to/lastmile_qr_scan", "ios": "https://dc.lft.to/lastmile_qr_scan"}, "type": "electric_scooter", "fusion_lat": 0.0, "lat": 38.923285666666665, "lon": -77.03667116666666, "is_reserved": 0}, {"bike_id": "2b9d17f6d613f0f00f940c83a60d204a", "name": "2b9d17f6d613f0f00f940c83a60d204a", "is_disabled": 0, "fusion_lon": 0.0, "rental_uris": {"android": "https://dc.lft.to/lastmile_qr_scan", "ios": "https://dc.lft.to/lastmile_qr_scan"}, "type": "electric_scooter", "fusion_lat": 0.0, "lat": 38.8851995, "lon": -77.0249825, "is_reserved": 0}, {"bike_id": "e8681527b1d55d3d5be23f49353bfce4", "name": "e8681527b1d55d3d5be23f49353bfce4", "is_disabled": 0, "fusion_lon": 0.0, "rental_uris": {"android": "https://dc.lft.to/lastmile_qr_scan", "ios": "https://dc.lft.to/lastmile_qr_scan"}, "type": "electric_scooter", "fusion_lat": 0.0, "lat": 38.927971166666666, "lon": -77.015576, "is_reserved": 0}, {"bike_id": "cc660d59405f917bffb5cb64ebba5b93", "name": "cc660d59405f917bffb5cb64ebba5b93", "is_disabled": 0, "fusion_lon": 0.0, "rental_uris": {"android": "https://dc.lft.to/lastmile_qr_scan", "ios": "https://dc.lft.to/lastmile_qr_scan"}, "type": "electric_scooter", "fusion_lat": 0.0, "lat": 38.900244666666666, "lon": -77.0118735, "is_reserved": 0}, {"bike_id": "ec43e9590e7e8f176cb9ccc2f53c3867", "name": "ec43e9590e7e8f176cb9ccc2f53c3867", "is_disabled": 0, "fusion_lon": 0.0, "rental_uris": {"android": "https://dc.lft.to/lastmile_qr_scan", "ios": "https://dc.lft.to/lastmile_qr_scan"}, "type": "electric_scooter", "fusion_lat": 0.0, "lat": 38.92954983333333, "lon": -77.01911816666667, "is_reserved": 0}, {"bike_id": "f4b0573e4250bc3fd17176adf3001ee9", "name": "f4b0573e4250bc3fd17176adf3001ee9", "is_disabled": 0, "fusion_lon": 0.0, "rental_uris": {"android": "https://dc.lft.to/lastmile_qr_scan", "ios": "https://dc.lft.to/lastmile_qr_scan"}, "type": "electric_scooter", "fusion_lat": 0.0, "lat": 38.91617983333333, "lon": -77.04618966666666, "is_reserved": 0}, {"bike_id": "0876e26d6115abcaead9264d32c53b95", "name": "0876e26d6115abcaead9264d32c53b95", "is_disabled": 0, "fusion_lon": 0.0, "rental_uris": {"android": "https://dc.lft.to/lastmile_qr_scan", "ios": "https://dc.lft.to/lastmile_qr_scan"}, "type": "electric_scooter", "fusion_lat": 0.0, "lat": 38.9234525, "lon": -77.05423516666667, "is_reserved": 0}, {"bike_id": "36cfc7d501f710b496b626ce4695eff4", "name": "36cfc7d501f710b496b626ce4695eff4", "is_disabled": 0, "fusion_lon": 0.0, "rental_uris": {"android": "https://dc.lft.to/lastmile_qr_scan", "ios": "https://dc.lft.to/lastmile_qr_scan"}, "type": "electric_scooter", "fusion_lat": 0.0, "lat": 38.9235455, "lon": -77.0223485, "is_reserved": 0}, {"bike_id": "424ffdd40e66afea95201f63043dc817", "name": "424ffdd40e66afea95201f63043dc817", "is_disabled": 0, "fusion_lon": 0.0, "rental_uris": {"android": "https://dc.lft.to/lastmile_qr_scan", "ios": "https://dc.lft.to/lastmile_qr_scan"}, "type": "electric_scooter", "fusion_lat": 0.0, "lat": 38.924136833333336, "lon": -77.02132433333334, "is_reserved": 0}, {"bike_id": "515cec98a60da477cb4c8cf608395cfd", "name": "515cec98a60da477cb4c8cf608395cfd", "is_disabled": 0, "fusion_lon": 0.0, "rental_uris": {"android": "https://dc.lft.to/lastmile_qr_scan", "ios": "https://dc.lft.to/lastmile_qr_scan"}, "type": "electric_scooter", "fusion_lat": 0.0, "lat": 38.914697, "lon": -76.98110033333333, "is_reserved": 0}, {"bike_id": "6fe7405896aa6936f2dffd6ad93c22ee", "name": "6fe7405896aa6936f2dffd6ad93c22ee", "is_disabled": 0, "fusion_lon": 0.0, "rental_uris": {"android": "https://dc.lft.to/lastmile_qr_scan", "ios": "https://dc.lft.to/lastmile_qr_scan"}, "type": "electric_scooter", "fusion_lat": 0.0, "lat": 38.893652, "lon": -77.01552266666667, "is_reserved": 0}, {"bike_id": "9a3ade8a12f601f74c914e4fe8d5f3fb", "name": "9a3ade8a12f601f74c914e4fe8d5f3fb", "is_disabled": 0, "fusion_lon": 0.0, "rental_uris": {"android": "https://dc.lft.to/lastmile_qr_scan", "ios": "https://dc.lft.to/lastmile_qr_scan"}, "type": "electric_scooter", "fusion_lat": 0.0, "lat": 38.893689333333334, "lon": -77.0395155, "is_reserved": 0}, {"bike_id": "eb90d0aeada5c6312e2ae4f7fbac17d3", "name": "eb90d0aeada5c6312e2ae4f7fbac17d3", "is_disabled": 0, "fusion_lon": 0.0, "rental_uris": {"android": "https://dc.lft.to/lastmile_qr_scan", "ios": "https://dc.lft.to/lastmile_qr_scan"}, "type": "electric_scooter", "fusion_lat": 0.0, "lat": 38.886433, "lon": -76.982082, "is_reserved": 0}, {"bike_id": "1c63b4157739929351ef5a3042fd3cf0", "name": "1c63b4157739929351ef5a3042fd3cf0", "is_disabled": 0, "fusion_lon": 0.0, "rental_uris": {"android": "https://dc.lft.to/lastmile_qr_scan", "ios": "https://dc.lft.to/lastmile_qr_scan"}, "type": "electric_scooter", "fusion_lat": 0.0, "lat": 38.9100255, "lon": -76.99394833333334, "is_reserved": 0}, {"bike_id": "6526cf0ea0eb8f4020018ec75ae6585b", "name": "6526cf0ea0eb8f4020018ec75ae6585b", "is_disabled": 0, "fusion_lon": 0.0, "rental_uris": {"android": "https://dc.lft.to/lastmile_qr_scan", "ios": "https://dc.lft.to/lastmile_qr_scan"}, "type": "electric_scooter", "fusion_lat": 0.0, "lat": 38.902793333333335, "lon": -77.03913166666666, "is_reserved": 0}, {"bike_id": "6b8fc579639ef5d70551ba9e02c1a6db", "name": "6b8fc579639ef5d70551ba9e02c1a6db", "is_disabled": 0, "fusion_lon": 0.0, "rental_uris": {"android": "https://dc.lft.to/lastmile_qr_scan", "ios": "https://dc.lft.to/lastmile_qr_scan"}, "type": "electric_bike", "fusion_lat": 0.0, "lat": 38.84676916666667, "lon": -77.1393185, "is_reserved": 0}, {"bike_id": "b4b1c7b54228773e381b9b4b160cbf51", "name": "b4b1c7b54228773e381b9b4b160cbf51", "is_disabled": 0, "fusion_lon": 0.0, "rental_uris": {"android": "https://dc.lft.to/lastmile_qr_scan", "ios": "https://dc.lft.to/lastmile_qr_scan"}, "type": "electric_scooter", "fusion_lat": 0.0, "lat": 38.89095233333333, "lon": -76.98828616666667, "is_reserved": 0}, {"bike_id": "fc516ce2b1ed7d8ddd8757a02cfb9bad", "name": "fc516ce2b1ed7d8ddd8757a02cfb9bad", "is_disabled": 0, "fusion_lon": 0.0, "rental_uris": {"android": "https://dc.lft.to/lastmile_qr_scan", "ios": "https://dc.lft.to/lastmile_qr_scan"}, "type": "electric_scooter", "fusion_lat": 0.0, "lat": 38.8982695, "lon": -77.043522, "is_reserved": 0}, {"bike_id": "f6f9d3a19e3634041a940a39c165d313", "name": "f6f9d3a19e3634041a940a39c165d313", "is_disabled": 0, "fusion_lon": 0.0, "rental_uris": {"android": "https://dc.lft.to/lastmile_qr_scan", "ios": "https://dc.lft.to/lastmile_qr_scan"}, "type": "electric_scooter", "fusion_lat": 0.0, "lat": 38.893611166666666, "lon": -77.0447865, "is_reserved": 0}, {"bike_id": "f6ad310dea599f8bb9f15e78f60d2a9e", "name": "f6ad310dea599f8bb9f15e78f60d2a9e", "is_disabled": 0, "fusion_lon": 0.0, "rental_uris": {"android": "https://dc.lft.to/lastmile_qr_scan", "ios": "https://dc.lft.to/lastmile_qr_scan"}, "type": "electric_scooter", "fusion_lat": 0.0, "lat": 38.91908733333333, "lon": -77.02050233333334, "is_reserved": 0}, {"bike_id": "b55b7557dd287ee7ac8f9da1f2edb9b6", "name": "b55b7557dd287ee7ac8f9da1f2edb9b6", "is_disabled": 0, "fusion_lon": 0.0, "rental_uris": {"android": "https://dc.lft.to/lastmile_qr_scan", "ios": "https://dc.lft.to/lastmile_qr_scan"}, "type": "electric_bike", "fusion_lat": 0.0, "lat": 38.85607783333333, "lon": -76.97264516666667, "is_reserved": 0}, {"bike_id": "dde5af0d422aab422c4feadf3f472c2b", "name": "dde5af0d422aab422c4feadf3f472c2b", "is_disabled": 0, "fusion_lon": 0.0, "rental_uris": {"android": "https://dc.lft.to/lastmile_qr_scan", "ios": "https://dc.lft.to/lastmile_qr_scan"}, "type": "electric_scooter", "fusion_lat": 0.0, "lat": 38.90780816666667, "lon": -77.045007, "is_reserved": 0}, {"bike_id": "73961422ea7d51038027e5a34d4fed20", "name": "73961422ea7d51038027e5a34d4fed20", "is_disabled": 0, "fusion_lon": 0.0, "rental_uris": {"android": "https://dc.lft.to/lastmile_qr_scan", "ios": "https://dc.lft.to/lastmile_qr_scan"}, "type": "electric_scooter", "fusion_lat": 0.0, "lat": 38.89910783333333, "lon": -77.03916716666667, "is_reserved": 0}, {"bike_id": "8ac44690200989bd1fe8e8076e6e8369", "name": "8ac44690200989bd1fe8e8076e6e8369", "is_disabled": 0, "fusion_lon": 0.0, "rental_uris": {"android": "https://dc.lft.to/lastmile_qr_scan", "ios": "https://dc.lft.to/lastmile_qr_scan"}, "type": "electric_scooter", "fusion_lat": 0.0, "lat": 38.88125816666667, "lon": -77.018719, "is_reserved": 0}, {"bike_id": "1a722b079f4a69b27629ebf945be621b", "name": "1a722b079f4a69b27629ebf945be621b", "is_disabled": 0, "fusion_lon": 0.0, "rental_uris": {"android": "https://dc.lft.to/lastmile_qr_scan", "ios": "https://dc.lft.to/lastmile_qr_scan"}, "type": "electric_scooter", "fusion_lat": 0.0, "lat": 38.90730033333333, "lon": -77.018397, "is_reserved": 0}, {"bike_id": "dc96463bc5ab606b36be595fdad8616c", "name": "dc96463bc5ab606b36be595fdad8616c", "is_disabled": 0, "fusion_lon": 0.0, "rental_uris": {"android": "https://dc.lft.to/lastmile_qr_scan", "ios": "https://dc.lft.to/lastmile_qr_scan"}, "type": "electric_scooter", "fusion_lat": 0.0, "lat": 38.861246666666666, "lon": -77.00321516666666, "is_reserved": 0}, {"bike_id": "dc207badd9b29f98fc299b1157b5a2c2", "name": "dc207badd9b29f98fc299b1157b5a2c2", "is_disabled": 0, "fusion_lon": 0.0, "rental_uris": {"android": "https://dc.lft.to/lastmile_qr_scan", "ios": "https://dc.lft.to/lastmile_qr_scan"}, "type": "electric_scooter", "fusion_lat": 0.0, "lat": 38.903666, "lon": -76.98484366666666, "is_reserved": 0}, {"bike_id": "c648067eb1eebd3110a2af7f862ec494", "name": "c648067eb1eebd3110a2af7f862ec494", "is_disabled": 0, "fusion_lon": 0.0, "rental_uris": {"android": "https://dc.lft.to/lastmile_qr_scan", "ios": "https://dc.lft.to/lastmile_qr_scan"}, "type": "electric_scooter", "fusion_lat": 0.0, "lat": 38.87663583333333, "lon": -77.000678, "is_reserved": 0}, {"bike_id": "6eb41732370d3d0c6a6b734e331e2f49", "name": "6eb41732370d3d0c6a6b734e331e2f49", "is_disabled": 0, "fusion_lon": 0.0, "rental_uris": {"android": "https://dc.lft.to/lastmile_qr_scan", "ios": "https://dc.lft.to/lastmile_qr_scan"}, "type": "electric_scooter", "fusion_lat": 0.0, "lat": 38.8919, "lon": -77.0033425, "is_reserved": 0}, {"bike_id": "587562f93b8396ad0b707e4b68648d2d", "name": "587562f93b8396ad0b707e4b68648d2d", "is_disabled": 0, "fusion_lon": 0.0, "rental_uris": {"android": "https://dc.lft.to/lastmile_qr_scan", "ios": "https://dc.lft.to/lastmile_qr_scan"}, "type": "electric_scooter", "fusion_lat": 0.0, "lat": 38.924898166666665, "lon": -77.02269916666667, "is_reserved": 0}, {"bike_id": "6db64e03647673398aa5d3ffdcc7dcd9", "name": "6db64e03647673398aa5d3ffdcc7dcd9", "is_disabled": 0, "fusion_lon": 0.0, "rental_uris": {"android": "https://dc.lft.to/lastmile_qr_scan", "ios": "https://dc.lft.to/lastmile_qr_scan"}, "type": "electric_scooter", "fusion_lat": 0.0, "lat": 38.905719166666664, "lon": -77.01852033333333, "is_reserved": 0}, {"bike_id": "7c54039d5a4b407281715a0275a0906c", "name": "7c54039d5a4b407281715a0275a0906c", "is_disabled": 0, "fusion_lon": 0.0, "rental_uris": {"android": "https://dc.lft.to/lastmile_qr_scan", "ios": "https://dc.lft.to/lastmile_qr_scan"}, "type": "electric_bike", "fusion_lat": 0.0, "lat": 38.83689016666667, "lon": -77.10331466666666, "is_reserved": 0}, {"bike_id": "68eff548eb0dfa32e7013e0e1707545d", "name": "68eff548eb0dfa32e7013e0e1707545d", "is_disabled": 0, "fusion_lon": 0.0, "rental_uris": {"android": "https://dc.lft.to/lastmile_qr_scan", "ios": "https://dc.lft.to/lastmile_qr_scan"}, "type": "electric_scooter", "fusion_lat": 0.0, "lat": 38.89993966666667, "lon": -77.04558783333333, "is_reserved": 0}, {"bike_id": "f8125a36cff83eb984d4362d524566bf", "name": "f8125a36cff83eb984d4362d524566bf", "is_disabled": 0, "fusion_lon": 0.0, "rental_uris": {"android": "https://dc.lft.to/lastmile_qr_scan", "ios": "https://dc.lft.to/lastmile_qr_scan"}, "type": "electric_scooter", "fusion_lat": 0.0, "lat": 38.924727833333336, "lon": -77.0221405, "is_reserved": 0}, {"bike_id": "5cb55faf3c4754ea128be39ad5f8388e", "name": "5cb55faf3c4754ea128be39ad5f8388e", "is_disabled": 0, "fusion_lon": 0.0, "rental_uris": {"android": "https://dc.lft.to/lastmile_qr_scan", "ios": "https://dc.lft.to/lastmile_qr_scan"}, "type": "electric_scooter", "fusion_lat": 0.0, "lat": 38.8875205, "lon": -77.01706516666667, "is_reserved": 0}, {"bike_id": "736a41e707d81ff997ae2c19180e3e6b", "name": "736a41e707d81ff997ae2c19180e3e6b", "is_disabled": 0, "fusion_lon": 0.0, "rental_uris": {"android": "https://dc.lft.to/lastmile_qr_scan", "ios": "https://dc.lft.to/lastmile_qr_scan"}, "type": "electric_scooter", "fusion_lat": 0.0, "lat": 38.92154216666667, "lon": -77.07240283333333, "is_reserved": 0}, {"bike_id": "5624933c754385d7bbc02d5ce3b98902", "name": "5624933c754385d7bbc02d5ce3b98902", "is_disabled": 0, "fusion_lon": 0.0, "rental_uris": {"android": "https://dc.lft.to/lastmile_qr_scan", "ios": "https://dc.lft.to/lastmile_qr_scan"}, "type": "electric_scooter", "fusion_lat": 0.0, "lat": 38.88612083333334, "lon": -76.98546, "is_reserved": 0}, {"bike_id": "6a1d1c7686d1fef15a9e79d10a933323", "name": "6a1d1c7686d1fef15a9e79d10a933323", "is_disabled": 0, "fusion_lon": 0.0, "rental_uris": {"android": "https://dc.lft.to/lastmile_qr_scan", "ios": "https://dc.lft.to/lastmile_qr_scan"}, "type": "electric_scooter", "fusion_lat": 0.0, "lat": 38.917573, "lon": -77.04760933333333, "is_reserved": 0}, {"bike_id": "b30aa6202a61ce51a3007b19cf0adf76", "name": "b30aa6202a61ce51a3007b19cf0adf76", "is_disabled": 0, "fusion_lon": 0.0, "rental_uris": {"android": "https://dc.lft.to/lastmile_qr_scan", "ios": "https://dc.lft.to/lastmile_qr_scan"}, "type": "electric_scooter", "fusion_lat": 0.0, "lat": 38.88743133333333, "lon": -77.02569766666667, "is_reserved": 0}, {"bike_id": "5a11af046ab7eddde4d648ef77ad11be", "name": "5a11af046ab7eddde4d648ef77ad11be", "is_disabled": 0, "fusion_lon": 0.0, "rental_uris": {"android": "https://dc.lft.to/lastmile_qr_scan", "ios": "https://dc.lft.to/lastmile_qr_scan"}, "type": "electric_scooter", "fusion_lat": 0.0, "lat": 38.88504416666667, "lon": -77.00568033333333, "is_reserved": 0}, {"bike_id": "798f2866b6bdec8201526420ab0220c4", "name": "798f2866b6bdec8201526420ab0220c4", "is_disabled": 0, "fusion_lon": 0.0, "rental_uris": {"android": "https://dc.lft.to/lastmile_qr_scan", "ios": "https://dc.lft.to/lastmile_qr_scan"}, "type": "electric_scooter", "fusion_lat": 0.0, "lat": 38.922862333333335, "lon": -77.0319745, "is_reserved": 0}, {"bike_id": "2c1df650a49f79d87a3598f337a424bd", "name": "2c1df650a49f79d87a3598f337a424bd", "is_disabled": 0, "fusion_lon": 0.0, "rental_uris": {"android": "https://dc.lft.to/lastmile_qr_scan", "ios": "https://dc.lft.to/lastmile_qr_scan"}, "type": "electric_scooter", "fusion_lat": 0.0, "lat": 38.923912333333334, "lon": -77.04289683333333, "is_reserved": 0}, {"bike_id": "67037160be0e16d076fd62d4ffb7dc1c", "name": "67037160be0e16d076fd62d4ffb7dc1c", "is_disabled": 0, "fusion_lon": 0.0, "rental_uris": {"android": "https://dc.lft.to/lastmile_qr_scan", "ios": "https://dc.lft.to/lastmile_qr_scan"}, "type": "electric_bike", "fusion_lat": 0.0, "lat": 38.875796333333334, "lon": -77.234092, "is_reserved": 0}, {"bike_id": "71b175d819e5b0c67ef8ae5cbd2b7201", "name": "71b175d819e5b0c67ef8ae5cbd2b7201", "is_disabled": 0, "fusion_lon": 0.0, "rental_uris": {"android": "https://dc.lft.to/lastmile_qr_scan", "ios": "https://dc.lft.to/lastmile_qr_scan"}, "type": "electric_scooter", "fusion_lat": 0.0, "lat": 38.921398833333335, "lon": -77.01828616666667, "is_reserved": 0}, {"bike_id": "4f53b1cd9e803c5d449b8aaa9b97afce", "name": "4f53b1cd9e803c5d449b8aaa9b97afce", "is_disabled": 0, "fusion_lon": 0.0, "rental_uris": {"android": "https://dc.lft.to/lastmile_qr_scan", "ios": "https://dc.lft.to/lastmile_qr_scan"}, "type": "electric_scooter", "fusion_lat": 0.0, "lat": 38.8962775, "lon": -77.02609616666666, "is_reserved": 0}, {"bike_id": "f2ee34d48ab34c83029b196b9fa99f2a", "name": "f2ee34d48ab34c83029b196b9fa99f2a", "is_disabled": 0, "fusion_lon": 0.0, "rental_uris": {"android": "https://dc.lft.to/lastmile_qr_scan", "ios": "https://dc.lft.to/lastmile_qr_scan"}, "type": "electric_scooter", "fusion_lat": 0.0, "lat": 38.893306833333334, "lon": -76.93926316666666, "is_reserved": 0}, {"bike_id": "f3f27501ca73712b1772ad971252b9d8", "name": "f3f27501ca73712b1772ad971252b9d8", "is_disabled": 0, "fusion_lon": 0.0, "rental_uris": {"android": "https://dc.lft.to/lastmile_qr_scan", "ios": "https://dc.lft.to/lastmile_qr_scan"}, "type": "electric_scooter", "fusion_lat": 0.0, "lat": 38.9022765, "lon": -77.00584766666667, "is_reserved": 0}, {"bike_id": "5a4a439aa1f05a182b451546d06d3d86", "name": "5a4a439aa1f05a182b451546d06d3d86", "is_disabled": 0, "fusion_lon": 0.0, "rental_uris": {"android": "https://dc.lft.to/lastmile_qr_scan", "ios": "https://dc.lft.to/lastmile_qr_scan"}, "type": "electric_scooter", "fusion_lat": 0.0, "lat": 38.9224885, "lon": -77.07698, "is_reserved": 0}, {"bike_id": "619ac776c7512c2ed8d00b722e3f0ee6", "name": "619ac776c7512c2ed8d00b722e3f0ee6", "is_disabled": 0, "fusion_lon": 0.0, "rental_uris": {"android": "https://dc.lft.to/lastmile_qr_scan", "ios": "https://dc.lft.to/lastmile_qr_scan"}, "type": "electric_bike", "fusion_lat": 0.0, "lat": 38.907605833333335, "lon": -77.063294, "is_reserved": 0}, {"bike_id": "3c92e0818fd40951ea995d05c65a9cc3", "name": "3c92e0818fd40951ea995d05c65a9cc3", "is_disabled": 0, "fusion_lon": 0.0, "rental_uris": {"android": "https://dc.lft.to/lastmile_qr_scan", "ios": "https://dc.lft.to/lastmile_qr_scan"}, "type": "electric_scooter", "fusion_lat": 0.0, "lat": 38.9236465, "lon": -77.01954633333334, "is_reserved": 0}, {"bike_id": "6d53011702eb030a8abf9ad14e718b01", "name": "6d53011702eb030a8abf9ad14e718b01", "is_disabled": 0, "fusion_lon": 0.0, "rental_uris": {"android": "https://dc.lft.to/lastmile_qr_scan", "ios": "https://dc.lft.to/lastmile_qr_scan"}, "type": "electric_scooter", "fusion_lat": 0.0, "lat": 38.922905166666666, "lon": -77.0319675, "is_reserved": 0}, {"bike_id": "bda0a6d52b8038914c30a0217e22726f", "name": "bda0a6d52b8038914c30a0217e22726f", "is_disabled": 0, "fusion_lon": 0.0, "rental_uris": {"android": "https://dc.lft.to/lastmile_qr_scan", "ios": "https://dc.lft.to/lastmile_qr_scan"}, "type": "electric_scooter", "fusion_lat": 0.0, "lat": 38.921515166666666, "lon": -77.03462816666666, "is_reserved": 0}, {"bike_id": "73968794c7b40ebbb0e28c865735b082", "name": "73968794c7b40ebbb0e28c865735b082", "is_disabled": 0, "fusion_lon": 0.0, "rental_uris": {"android": "https://dc.lft.to/lastmile_qr_scan", "ios": "https://dc.lft.to/lastmile_qr_scan"}, "type": "electric_scooter", "fusion_lat": 0.0, "lat": 38.923281, "lon": -77.03668316666666, "is_reserved": 0}, {"bike_id": "1660f54fca9ee80a9d0ef82153677b85", "name": "1660f54fca9ee80a9d0ef82153677b85", "is_disabled": 0, "fusion_lon": 0.0, "rental_uris": {"android": "https://dc.lft.to/lastmile_qr_scan", "ios": "https://dc.lft.to/lastmile_qr_scan"}, "type": "electric_scooter", "fusion_lat": 0.0, "lat": 38.908440666666664, "lon": -77.02588816666666, "is_reserved": 0}, {"bike_id": "dbbca15c95ea2b5034685fb98c6df550", "name": "dbbca15c95ea2b5034685fb98c6df550", "is_disabled": 0, "fusion_lon": 0.0, "rental_uris": {"android": "https://dc.lft.to/lastmile_qr_scan", "ios": "https://dc.lft.to/lastmile_qr_scan"}, "type": "electric_scooter", "fusion_lat": 0.0, "lat": 38.9131225, "lon": -77.06221166666667, "is_reserved": 0}, {"bike_id": "a440406a53b2fdc83797f8b44df087bc", "name": "a440406a53b2fdc83797f8b44df087bc", "is_disabled": 0, "fusion_lon": 0.0, "rental_uris": {"android": "https://dc.lft.to/lastmile_qr_scan", "ios": "https://dc.lft.to/lastmile_qr_scan"}, "type": "electric_scooter", "fusion_lat": 0.0, "lat": 38.935372666666666, "lon": -77.08799183333333, "is_reserved": 0}, {"bike_id": "55cec7d4e590bd935929d92394b2dc21", "name": "55cec7d4e590bd935929d92394b2dc21", "is_disabled": 0, "fusion_lon": 0.0, "rental_uris": {"android": "https://dc.lft.to/lastmile_qr_scan", "ios": "https://dc.lft.to/lastmile_qr_scan"}, "type": "electric_scooter", "fusion_lat": 0.0, "lat": 38.89213183333333, "lon": -77.0033265, "is_reserved": 0}, {"bike_id": "3e8830ea0d5095d94637bed74e7207a0", "name": "3e8830ea0d5095d94637bed74e7207a0", "is_disabled": 0, "fusion_lon": 0.0, "rental_uris": {"android": "https://dc.lft.to/lastmile_qr_scan", "ios": "https://dc.lft.to/lastmile_qr_scan"}, "type": "electric_scooter", "fusion_lat": 0.0, "lat": 38.935408833333334, "lon": -77.03078866666667, "is_reserved": 0}, {"bike_id": "6833cbaaa147e0ee38b6286c57106b6c", "name": "6833cbaaa147e0ee38b6286c57106b6c", "is_disabled": 0, "fusion_lon": 0.0, "rental_uris": {"android": "https://dc.lft.to/lastmile_qr_scan", "ios": "https://dc.lft.to/lastmile_qr_scan"}, "type": "electric_scooter", "fusion_lat": 0.0, "lat": 38.92720283333333, "lon": -77.0598195, "is_reserved": 0}, {"bike_id": "ace0301f6a274b3ab8d4b64d35008e40", "name": "ace0301f6a274b3ab8d4b64d35008e40", "is_disabled": 0, "fusion_lon": 0.0, "rental_uris": {"android": "https://dc.lft.to/lastmile_qr_scan", "ios": "https://dc.lft.to/lastmile_qr_scan"}, "type": "electric_bike", "fusion_lat": 0.0, "lat": 38.96925783333333, "lon": -77.02609283333334, "is_reserved": 0}, {"bike_id": "45c282827c52efedffc9ec8810c1a054", "name": "45c282827c52efedffc9ec8810c1a054", "is_disabled": 0, "fusion_lon": 0.0, "rental_uris": {"android": "https://dc.lft.to/lastmile_qr_scan", "ios": "https://dc.lft.to/lastmile_qr_scan"}, "type": "electric_scooter", "fusion_lat": 0.0, "lat": 38.90770416666667, "lon": -77.07149183333334, "is_reserved": 0}, {"bike_id": "0cebb57d4728c6e08a9d74e95e72ba47", "name": "0cebb57d4728c6e08a9d74e95e72ba47", "is_disabled": 0, "fusion_lon": 0.0, "rental_uris": {"android": "https://dc.lft.to/lastmile_qr_scan", "ios": "https://dc.lft.to/lastmile_qr_scan"}, "type": "electric_scooter", "fusion_lat": 0.0, "lat": 38.932025, "lon": -77.0326315, "is_reserved": 0}, {"bike_id": "0f792ebf75aae63c2dad5d1e6c8e44bd", "name": "0f792ebf75aae63c2dad5d1e6c8e44bd", "is_disabled": 0, "fusion_lon": 0.0, "rental_uris": {"android": "https://dc.lft.to/lastmile_qr_scan", "ios": "https://dc.lft.to/lastmile_qr_scan"}, "type": "electric_scooter", "fusion_lat": 0.0, "lat": 38.89983483333334, "lon": -77.02203, "is_reserved": 0}, {"bike_id": "4227b9fc153d3210337f22a4cafcbd37", "name": "4227b9fc153d3210337f22a4cafcbd37", "is_disabled": 0, "fusion_lon": 0.0, "rental_uris": {"android": "https://dc.lft.to/lastmile_qr_scan", "ios": "https://dc.lft.to/lastmile_qr_scan"}, "type": "electric_bike", "fusion_lat": 0.0, "lat": 38.8306255, "lon": -77.04075666666667, "is_reserved": 0}, {"bike_id": "42907406afdc48e4c557c43375ef95b1", "name": "42907406afdc48e4c557c43375ef95b1", "is_disabled": 0, "fusion_lon": 0.0, "rental_uris": {"android": "https://dc.lft.to/lastmile_qr_scan", "ios": "https://dc.lft.to/lastmile_qr_scan"}, "type": "electric_scooter", "fusion_lat": 0.0, "lat": 38.87335016666667, "lon": -76.96788733333334, "is_reserved": 0}, {"bike_id": "05cb2d1a70d648e3147b7c76fb2ed404", "name": "05cb2d1a70d648e3147b7c76fb2ed404", "is_disabled": 0, "fusion_lon": 0.0, "rental_uris": {"android": "https://dc.lft.to/lastmile_qr_scan", "ios": "https://dc.lft.to/lastmile_qr_scan"}, "type": "electric_scooter", "fusion_lat": 0.0, "lat": 38.88618616666667, "lon": -76.97706416666666, "is_reserved": 0}, {"bike_id": "bd238e50c06e244c53323f8540d25a03", "name": "bd238e50c06e244c53323f8540d25a03", "is_disabled": 0, "fusion_lon": 0.0, "rental_uris": {"android": "https://dc.lft.to/lastmile_qr_scan", "ios": "https://dc.lft.to/lastmile_qr_scan"}, "type": "electric_scooter", "fusion_lat": 0.0, "lat": 38.8861435, "lon": -76.98544116666666, "is_reserved": 0}, {"bike_id": "4c55eeee4e74db3825b95cb8bd27597b", "name": "4c55eeee4e74db3825b95cb8bd27597b", "is_disabled": 0, "fusion_lon": 0.0, "rental_uris": {"android": "https://dc.lft.to/lastmile_qr_scan", "ios": "https://dc.lft.to/lastmile_qr_scan"}, "type": "electric_scooter", "fusion_lat": 0.0, "lat": 38.925512499999996, "lon": -76.9720705, "is_reserved": 0}, {"bike_id": "f56bfcef101c907fe2095e7f62dc06e8", "name": "f56bfcef101c907fe2095e7f62dc06e8", "is_disabled": 0, "fusion_lon": 0.0, "rental_uris": {"android": "https://dc.lft.to/lastmile_qr_scan", "ios": "https://dc.lft.to/lastmile_qr_scan"}, "type": "electric_scooter", "fusion_lat": 0.0, "lat": 38.8939055, "lon": -77.02149916666667, "is_reserved": 0}, {"bike_id": "053add0eb609dd9b7791b3398d8ad7e8", "name": "053add0eb609dd9b7791b3398d8ad7e8", "is_disabled": 0, "fusion_lon": 0.0, "rental_uris": {"android": "https://dc.lft.to/lastmile_qr_scan", "ios": "https://dc.lft.to/lastmile_qr_scan"}, "type": "electric_scooter", "fusion_lat": 0.0, "lat": 38.902264333333335, "lon": -77.04634533333333, "is_reserved": 0}, {"bike_id": "44e808abe2da029749d3dd8589275d24", "name": "44e808abe2da029749d3dd8589275d24", "is_disabled": 0, "fusion_lon": 0.0, "rental_uris": {"android": "https://dc.lft.to/lastmile_qr_scan", "ios": "https://dc.lft.to/lastmile_qr_scan"}, "type": "electric_bike", "fusion_lat": 0.0, "lat": 38.96672616666667, "lon": -77.02295866666667, "is_reserved": 0}, {"bike_id": "605727bbc3f1ae0937f443f0c2db8a13", "name": "605727bbc3f1ae0937f443f0c2db8a13", "is_disabled": 0, "fusion_lon": 0.0, "rental_uris": {"android": "https://dc.lft.to/lastmile_qr_scan", "ios": "https://dc.lft.to/lastmile_qr_scan"}, "type": "electric_scooter", "fusion_lat": 0.0, "lat": 38.896173166666664, "lon": -77.02214966666666, "is_reserved": 0}, {"bike_id": "4587408d974bc8cb5e87b45e9271ad3d", "name": "4587408d974bc8cb5e87b45e9271ad3d", "is_disabled": 0, "fusion_lon": 0.0, "rental_uris": {"android": "https://dc.lft.to/lastmile_qr_scan", "ios": "https://dc.lft.to/lastmile_qr_scan"}, "type": "electric_scooter", "fusion_lat": 0.0, "lat": 38.933179333333335, "lon": -77.04412333333333, "is_reserved": 0}, {"bike_id": "ff541fe598b2d91b34a3195a8c9a1ae7", "name": "ff541fe598b2d91b34a3195a8c9a1ae7", "is_disabled": 0, "fusion_lon": 0.0, "rental_uris": {"android": "https://dc.lft.to/lastmile_qr_scan", "ios": "https://dc.lft.to/lastmile_qr_scan"}, "type": "electric_scooter", "fusion_lat": 0.0, "lat": 38.920413833333335, "lon": -77.01679133333333, "is_reserved": 0}, {"bike_id": "23fa4a7a82c370b8b9b292d51e8d5ea2", "name": "23fa4a7a82c370b8b9b292d51e8d5ea2", "is_disabled": 0, "fusion_lon": 0.0, "rental_uris": {"android": "https://dc.lft.to/lastmile_qr_scan", "ios": "https://dc.lft.to/lastmile_qr_scan"}, "type": "electric_scooter", "fusion_lat": 0.0, "lat": 38.911098333333335, "lon": -77.0034415, "is_reserved": 0}, {"bike_id": "7cc297cb2f17b7223296c6c283e06b27", "name": "7cc297cb2f17b7223296c6c283e06b27", "is_disabled": 0, "fusion_lon": 0.0, "rental_uris": {"android": "https://dc.lft.to/lastmile_qr_scan", "ios": "https://dc.lft.to/lastmile_qr_scan"}, "type": "electric_scooter", "fusion_lat": 0.0, "lat": 38.90315233333333, "lon": -77.025519, "is_reserved": 0}, {"bike_id": "7526a41c3852dc0426d1749b38ace42f", "name": "7526a41c3852dc0426d1749b38ace42f", "is_disabled": 0, "fusion_lon": 0.0, "rental_uris": {"android": "https://dc.lft.to/lastmile_qr_scan", "ios": "https://dc.lft.to/lastmile_qr_scan"}, "type": "electric_scooter", "fusion_lat": 0.0, "lat": 38.91814083333333, "lon": -77.04970766666666, "is_reserved": 0}, {"bike_id": "c7c4f9fbfdf09d48a817ab7f6cfb40a8", "name": "c7c4f9fbfdf09d48a817ab7f6cfb40a8", "is_disabled": 0, "fusion_lon": 0.0, "rental_uris": {"android": "https://dc.lft.to/lastmile_qr_scan", "ios": "https://dc.lft.to/lastmile_qr_scan"}, "type": "electric_scooter", "fusion_lat": 0.0, "lat": 38.9005045, "lon": -77.02954366666667, "is_reserved": 0}, {"bike_id": "749763e92abc593048b51b84e92d2d97", "name": "749763e92abc593048b51b84e92d2d97", "is_disabled": 0, "fusion_lon": 0.0, "rental_uris": {"android": "https://dc.lft.to/lastmile_qr_scan", "ios": "https://dc.lft.to/lastmile_qr_scan"}, "type": "electric_scooter", "fusion_lat": 0.0, "lat": 38.928002666666664, "lon": -77.02128033333334, "is_reserved": 0}, {"bike_id": "8e987937cafe44dbe45ce05ebc9ec8e0", "name": "8e987937cafe44dbe45ce05ebc9ec8e0", "is_disabled": 0, "fusion_lon": 0.0, "rental_uris": {"android": "https://dc.lft.to/lastmile_qr_scan", "ios": "https://dc.lft.to/lastmile_qr_scan"}, "type": "electric_bike", "fusion_lat": 0.0, "lat": 38.89358566666667, "lon": -77.04267766666666, "is_reserved": 0}, {"bike_id": "0f33e3dc98d9e34cf554e4f99c0d2a63", "name": "0f33e3dc98d9e34cf554e4f99c0d2a63", "is_disabled": 0, "fusion_lon": 0.0, "rental_uris": {"android": "https://dc.lft.to/lastmile_qr_scan", "ios": "https://dc.lft.to/lastmile_qr_scan"}, "type": "electric_scooter", "fusion_lat": 0.0, "lat": 38.92959316666666, "lon": -77.01149483333333, "is_reserved": 0}, {"bike_id": "f185c898ee3074c872204c593d0c3c51", "name": "f185c898ee3074c872204c593d0c3c51", "is_disabled": 0, "fusion_lon": 0.0, "rental_uris": {"android": "https://dc.lft.to/lastmile_qr_scan", "ios": "https://dc.lft.to/lastmile_qr_scan"}, "type": "electric_scooter", "fusion_lat": 0.0, "lat": 38.88503516666667, "lon": -77.00566883333333, "is_reserved": 0}, {"bike_id": "58c9f9181e2252ffeaf5adf577cf7f15", "name": "58c9f9181e2252ffeaf5adf577cf7f15", "is_disabled": 0, "fusion_lon": 0.0, "rental_uris": {"android": "https://dc.lft.to/lastmile_qr_scan", "ios": "https://dc.lft.to/lastmile_qr_scan"}, "type": "electric_scooter", "fusion_lat": 0.0, "lat": 38.93426383333333, "lon": -77.0399905, "is_reserved": 0}, {"bike_id": "b2688558888e978aa1c3a2a9ab4a55c7", "name": "b2688558888e978aa1c3a2a9ab4a55c7", "is_disabled": 0, "fusion_lon": 0.0, "rental_uris": {"android": "https://dc.lft.to/lastmile_qr_scan", "ios": "https://dc.lft.to/lastmile_qr_scan"}, "type": "electric_scooter", "fusion_lat": 0.0, "lat": 38.93166266666667, "lon": -77.03783083333333, "is_reserved": 0}, {"bike_id": "61d7c24cd6173f97962499911b07da00", "name": "61d7c24cd6173f97962499911b07da00", "is_disabled": 0, "fusion_lon": 0.0, "rental_uris": {"android": "https://dc.lft.to/lastmile_qr_scan", "ios": "https://dc.lft.to/lastmile_qr_scan"}, "type": "electric_scooter", "fusion_lat": 0.0, "lat": 38.921916, "lon": -77.09943433333333, "is_reserved": 0}, {"bike_id": "bd8835d4d22d8afd604bbce63abfe8f2", "name": "bd8835d4d22d8afd604bbce63abfe8f2", "is_disabled": 0, "fusion_lon": 0.0, "rental_uris": {"android": "https://dc.lft.to/lastmile_qr_scan", "ios": "https://dc.lft.to/lastmile_qr_scan"}, "type": "electric_scooter", "fusion_lat": 0.0, "lat": 38.89624633333333, "lon": -77.02394, "is_reserved": 0}, {"bike_id": "2cd479293f60be08f866134334ed8b45", "name": "2cd479293f60be08f866134334ed8b45", "is_disabled": 0, "fusion_lon": 0.0, "rental_uris": {"android": "https://dc.lft.to/lastmile_qr_scan", "ios": "https://dc.lft.to/lastmile_qr_scan"}, "type": "electric_scooter", "fusion_lat": 0.0, "lat": 38.90415983333333, "lon": -76.97328766666666, "is_reserved": 0}, {"bike_id": "ca646fb50706957176971ac244258697", "name": "ca646fb50706957176971ac244258697", "is_disabled": 0, "fusion_lon": 0.0, "rental_uris": {"android": "https://dc.lft.to/lastmile_qr_scan", "ios": "https://dc.lft.to/lastmile_qr_scan"}, "type": "electric_scooter", "fusion_lat": 0.0, "lat": 38.9215835, "lon": -77.025175, "is_reserved": 0}, {"bike_id": "688a653b97dec8cf111ddbd132ad706d", "name": "688a653b97dec8cf111ddbd132ad706d", "is_disabled": 0, "fusion_lon": 0.0, "rental_uris": {"android": "https://dc.lft.to/lastmile_qr_scan", "ios": "https://dc.lft.to/lastmile_qr_scan"}, "type": "electric_scooter", "fusion_lat": 0.0, "lat": 38.9218455, "lon": -77.043428, "is_reserved": 0}, {"bike_id": "204e5c32e6f24d67e96c1b6c89263f48", "name": "204e5c32e6f24d67e96c1b6c89263f48", "is_disabled": 0, "fusion_lon": 0.0, "rental_uris": {"android": "https://dc.lft.to/lastmile_qr_scan", "ios": "https://dc.lft.to/lastmile_qr_scan"}, "type": "electric_scooter", "fusion_lat": 0.0, "lat": 38.875316, "lon": -77.00501766666666, "is_reserved": 0}, {"bike_id": "bf3dc3c8013b860fb4d12705f2468f71", "name": "bf3dc3c8013b860fb4d12705f2468f71", "is_disabled": 0, "fusion_lon": 0.0, "rental_uris": {"android": "https://dc.lft.to/lastmile_qr_scan", "ios": "https://dc.lft.to/lastmile_qr_scan"}, "type": "electric_scooter", "fusion_lat": 0.0, "lat": 38.913245333333336, "lon": -77.01506983333333, "is_reserved": 0}, {"bike_id": "5f9a902889b9c120fecfa614be530b1f", "name": "5f9a902889b9c120fecfa614be530b1f", "is_disabled": 0, "fusion_lon": 0.0, "rental_uris": {"android": "https://dc.lft.to/lastmile_qr_scan", "ios": "https://dc.lft.to/lastmile_qr_scan"}, "type": "electric_scooter", "fusion_lat": 0.0, "lat": 38.9001235, "lon": -76.9955865, "is_reserved": 0}, {"bike_id": "dd15ad7cae1a7ca1622626c6b65c9ba1", "name": "dd15ad7cae1a7ca1622626c6b65c9ba1", "is_disabled": 0, "fusion_lon": 0.0, "rental_uris": {"android": "https://dc.lft.to/lastmile_qr_scan", "ios": "https://dc.lft.to/lastmile_qr_scan"}, "type": "electric_scooter", "fusion_lat": 0.0, "lat": 38.87663383333334, "lon": -77.00066416666667, "is_reserved": 0}, {"bike_id": "896efa7be2c875d846f667f36914c4d8", "name": "896efa7be2c875d846f667f36914c4d8", "is_disabled": 0, "fusion_lon": 0.0, "rental_uris": {"android": "https://dc.lft.to/lastmile_qr_scan", "ios": "https://dc.lft.to/lastmile_qr_scan"}, "type": "electric_scooter", "fusion_lat": 0.0, "lat": 38.92241583333333, "lon": -77.0284925, "is_reserved": 0}, {"bike_id": "af0825171340ecc04d81e0e0372e8adb", "name": "af0825171340ecc04d81e0e0372e8adb", "is_disabled": 0, "fusion_lon": 0.0, "rental_uris": {"android": "https://dc.lft.to/lastmile_qr_scan", "ios": "https://dc.lft.to/lastmile_qr_scan"}, "type": "electric_scooter", "fusion_lat": 0.0, "lat": 38.904151, "lon": -76.99281816666667, "is_reserved": 0}, {"bike_id": "8e4368a3f3c5a0dc97c6f949079d8da9", "name": "8e4368a3f3c5a0dc97c6f949079d8da9", "is_disabled": 0, "fusion_lon": 0.0, "rental_uris": {"android": "https://dc.lft.to/lastmile_qr_scan", "ios": "https://dc.lft.to/lastmile_qr_scan"}, "type": "electric_scooter", "fusion_lat": 0.0, "lat": 38.92159933333333, "lon": -77.03380433333334, "is_reserved": 0}, {"bike_id": "c18598cf0cdbb12500f934fc92d5927e", "name": "c18598cf0cdbb12500f934fc92d5927e", "is_disabled": 0, "fusion_lon": 0.0, "rental_uris": {"android": "https://dc.lft.to/lastmile_qr_scan", "ios": "https://dc.lft.to/lastmile_qr_scan"}, "type": "electric_scooter", "fusion_lat": 0.0, "lat": 38.90409983333333, "lon": -77.038287, "is_reserved": 0}, {"bike_id": "8353a6a283a2069d8d569ab1e4bb3fc3", "name": "8353a6a283a2069d8d569ab1e4bb3fc3", "is_disabled": 0, "fusion_lon": 0.0, "rental_uris": {"android": "https://dc.lft.to/lastmile_qr_scan", "ios": "https://dc.lft.to/lastmile_qr_scan"}, "type": "electric_scooter", "fusion_lat": 0.0, "lat": 38.91541216666667, "lon": -77.01267616666667, "is_reserved": 0}, {"bike_id": "20f61db43e000d947356ae1616622b81", "name": "20f61db43e000d947356ae1616622b81", "is_disabled": 0, "fusion_lon": 0.0, "rental_uris": {"android": "https://dc.lft.to/lastmile_qr_scan", "ios": "https://dc.lft.to/lastmile_qr_scan"}, "type": "electric_scooter", "fusion_lat": 0.0, "lat": 38.922457, "lon": -77.01941116666667, "is_reserved": 0}, {"bike_id": "f7b71efd8b6ead48cbcd9acb94f93740", "name": "f7b71efd8b6ead48cbcd9acb94f93740", "is_disabled": 0, "fusion_lon": 0.0, "rental_uris": {"android": "https://dc.lft.to/lastmile_qr_scan", "ios": "https://dc.lft.to/lastmile_qr_scan"}, "type": "electric_scooter", "fusion_lat": 0.0, "lat": 38.9040175, "lon": -77.06511133333333, "is_reserved": 0}, {"bike_id": "6c993e6a395eb5dc0db6879b010efd1c", "name": "6c993e6a395eb5dc0db6879b010efd1c", "is_disabled": 0, "fusion_lon": 0.0, "rental_uris": {"android": "https://dc.lft.to/lastmile_qr_scan", "ios": "https://dc.lft.to/lastmile_qr_scan"}, "type": "electric_scooter", "fusion_lat": 0.0, "lat": 38.944913, "lon": -77.0233855, "is_reserved": 0}, {"bike_id": "a821ac06ff8bfad1232533d8bad39ad9", "name": "a821ac06ff8bfad1232533d8bad39ad9", "is_disabled": 0, "fusion_lon": 0.0, "rental_uris": {"android": "https://dc.lft.to/lastmile_qr_scan", "ios": "https://dc.lft.to/lastmile_qr_scan"}, "type": "electric_scooter", "fusion_lat": 0.0, "lat": 38.89528383333333, "lon": -77.002087, "is_reserved": 0}, {"bike_id": "dbe3c10fe731102403cc080e12323a11", "name": "dbe3c10fe731102403cc080e12323a11", "is_disabled": 0, "fusion_lon": 0.0, "rental_uris": {"android": "https://dc.lft.to/lastmile_qr_scan", "ios": "https://dc.lft.to/lastmile_qr_scan"}, "type": "electric_scooter", "fusion_lat": 0.0, "lat": 38.88481433333333, "lon": -77.0334975, "is_reserved": 0}, {"bike_id": "643ffe93e3fb510e58550433fddad6ac", "name": "643ffe93e3fb510e58550433fddad6ac", "is_disabled": 0, "fusion_lon": 0.0, "rental_uris": {"android": "https://dc.lft.to/lastmile_qr_scan", "ios": "https://dc.lft.to/lastmile_qr_scan"}, "type": "electric_scooter", "fusion_lat": 0.0, "lat": 38.888905666666666, "lon": -77.03320116666667, "is_reserved": 0}, {"bike_id": "d6c9b019fb2864cbfcc531f4b2948a61", "name": "d6c9b019fb2864cbfcc531f4b2948a61", "is_disabled": 0, "fusion_lon": 0.0, "rental_uris": {"android": "https://dc.lft.to/lastmile_qr_scan", "ios": "https://dc.lft.to/lastmile_qr_scan"}, "type": "electric_scooter", "fusion_lat": 0.0, "lat": 38.900217833333336, "lon": -76.99353466666666, "is_reserved": 0}, {"bike_id": "65a743f2e19f20c0b5a46fce8183abd1", "name": "65a743f2e19f20c0b5a46fce8183abd1", "is_disabled": 0, "fusion_lon": 0.0, "rental_uris": {"android": "https://dc.lft.to/lastmile_qr_scan", "ios": "https://dc.lft.to/lastmile_qr_scan"}, "type": "electric_scooter", "fusion_lat": 0.0, "lat": 38.914247333333336, "lon": -77.04631516666667, "is_reserved": 0}, {"bike_id": "89c52973fad946ceecbe83ba0f1d37ee", "name": "89c52973fad946ceecbe83ba0f1d37ee", "is_disabled": 0, "fusion_lon": 0.0, "rental_uris": {"android": "https://dc.lft.to/lastmile_qr_scan", "ios": "https://dc.lft.to/lastmile_qr_scan"}, "type": "electric_scooter", "fusion_lat": 0.0, "lat": 38.90061633333333, "lon": -77.0473515, "is_reserved": 0}, {"bike_id": "ed520a3507edb8c3491f3e6ece423a91", "name": "ed520a3507edb8c3491f3e6ece423a91", "is_disabled": 0, "fusion_lon": 0.0, "rental_uris": {"android": "https://dc.lft.to/lastmile_qr_scan", "ios": "https://dc.lft.to/lastmile_qr_scan"}, "type": "electric_scooter", "fusion_lat": 0.0, "lat": 38.899789, "lon": -77.01961133333333, "is_reserved": 0}, {"bike_id": "dff48e5f42a4af3190fd009be3837b4b", "name": "dff48e5f42a4af3190fd009be3837b4b", "is_disabled": 0, "fusion_lon": 0.0, "rental_uris": {"android": "https://dc.lft.to/lastmile_qr_scan", "ios": "https://dc.lft.to/lastmile_qr_scan"}, "type": "electric_bike", "fusion_lat": 0.0, "lat": 38.807393833333336, "lon": -77.0968375, "is_reserved": 0}, {"bike_id": "5e40ece164581346679b96098cb3c348", "name": "5e40ece164581346679b96098cb3c348", "is_disabled": 0, "fusion_lon": 0.0, "rental_uris": {"android": "https://dc.lft.to/lastmile_qr_scan", "ios": "https://dc.lft.to/lastmile_qr_scan"}, "type": "electric_scooter", "fusion_lat": 0.0, "lat": 38.89980633333333, "lon": -77.030801, "is_reserved": 0}, {"bike_id": "2c38e6ef1db5c29f284207ec943ec8e1", "name": "2c38e6ef1db5c29f284207ec943ec8e1", "is_disabled": 0, "fusion_lon": 0.0, "rental_uris": {"android": "https://dc.lft.to/lastmile_qr_scan", "ios": "https://dc.lft.to/lastmile_qr_scan"}, "type": "electric_scooter", "fusion_lat": 0.0, "lat": 38.902083833333336, "lon": -76.99236833333333, "is_reserved": 0}, {"bike_id": "785787a35178a9034df81ffdc7d0785f", "name": "785787a35178a9034df81ffdc7d0785f", "is_disabled": 0, "fusion_lon": 0.0, "rental_uris": {"android": "https://dc.lft.to/lastmile_qr_scan", "ios": "https://dc.lft.to/lastmile_qr_scan"}, "type": "electric_scooter", "fusion_lat": 0.0, "lat": 38.8836535, "lon": -76.94157516666667, "is_reserved": 0}, {"bike_id": "d292211c4e0d6a96b01bd4529c3ee9dd", "name": "d292211c4e0d6a96b01bd4529c3ee9dd", "is_disabled": 0, "fusion_lon": 0.0, "rental_uris": {"android": "https://dc.lft.to/lastmile_qr_scan", "ios": "https://dc.lft.to/lastmile_qr_scan"}, "type": "electric_scooter", "fusion_lat": 0.0, "lat": 38.937351166666666, "lon": -77.03278216666666, "is_reserved": 0}, {"bike_id": "9949a3162ebc6ace373f947506677f20", "name": "9949a3162ebc6ace373f947506677f20", "is_disabled": 0, "fusion_lon": 0.0, "rental_uris": {"android": "https://dc.lft.to/lastmile_qr_scan", "ios": "https://dc.lft.to/lastmile_qr_scan"}, "type": "electric_scooter", "fusion_lat": 0.0, "lat": 38.89833266666667, "lon": -77.039301, "is_reserved": 0}, {"bike_id": "8424d295813fcc116d001a0b20afe60a", "name": "8424d295813fcc116d001a0b20afe60a", "is_disabled": 0, "fusion_lon": 0.0, "rental_uris": {"android": "https://dc.lft.to/lastmile_qr_scan", "ios": "https://dc.lft.to/lastmile_qr_scan"}, "type": "electric_bike", "fusion_lat": 0.0, "lat": 38.871733, "lon": -77.23389766666666, "is_reserved": 0}, {"bike_id": "598b199edfe7bc1dda73407458fd73c2", "name": "598b199edfe7bc1dda73407458fd73c2", "is_disabled": 0, "fusion_lon": 0.0, "rental_uris": {"android": "https://dc.lft.to/lastmile_qr_scan", "ios": "https://dc.lft.to/lastmile_qr_scan"}, "type": "electric_scooter", "fusion_lat": 0.0, "lat": 38.923192, "lon": -77.01954516666666, "is_reserved": 0}, {"bike_id": "c792ef5294f52138e5ffdb0649bf9fec", "name": "c792ef5294f52138e5ffdb0649bf9fec", "is_disabled": 0, "fusion_lon": 0.0, "rental_uris": {"android": "https://dc.lft.to/lastmile_qr_scan", "ios": "https://dc.lft.to/lastmile_qr_scan"}, "type": "electric_bike", "fusion_lat": 0.0, "lat": 38.978188333333335, "lon": -77.0940155, "is_reserved": 0}, {"bike_id": "9a90b0f60d41b22f8f438a444cdbc6a1", "name": "9a90b0f60d41b22f8f438a444cdbc6a1", "is_disabled": 0, "fusion_lon": 0.0, "rental_uris": {"android": "https://dc.lft.to/lastmile_qr_scan", "ios": "https://dc.lft.to/lastmile_qr_scan"}, "type": "electric_scooter", "fusion_lat": 0.0, "lat": 38.872845, "lon": -77.015194, "is_reserved": 0}, {"bike_id": "754cd3d86938df1bfe14de556eadbe35", "name": "754cd3d86938df1bfe14de556eadbe35", "is_disabled": 0, "fusion_lon": 0.0, "rental_uris": {"android": "https://dc.lft.to/lastmile_qr_scan", "ios": "https://dc.lft.to/lastmile_qr_scan"}, "type": "electric_scooter", "fusion_lat": 0.0, "lat": 38.91976533333333, "lon": -77.00018683333333, "is_reserved": 0}, {"bike_id": "3c385ac5e4aade8f203a8bee838365d1", "name": "3c385ac5e4aade8f203a8bee838365d1", "is_disabled": 0, "fusion_lon": 0.0, "rental_uris": {"android": "https://dc.lft.to/lastmile_qr_scan", "ios": "https://dc.lft.to/lastmile_qr_scan"}, "type": "electric_scooter", "fusion_lat": 0.0, "lat": 38.90958333333333, "lon": -77.01438416666667, "is_reserved": 0}, {"bike_id": "8ed8d86300b0252f22c948bd6f5b74e7", "name": "8ed8d86300b0252f22c948bd6f5b74e7", "is_disabled": 0, "fusion_lon": 0.0, "rental_uris": {"android": "https://dc.lft.to/lastmile_qr_scan", "ios": "https://dc.lft.to/lastmile_qr_scan"}, "type": "electric_scooter", "fusion_lat": 0.0, "lat": 38.93237966666667, "lon": -77.0283825, "is_reserved": 0}, {"bike_id": "17025d09cec34e4c7f20e14873bedf12", "name": "17025d09cec34e4c7f20e14873bedf12", "is_disabled": 0, "fusion_lon": 0.0, "rental_uris": {"android": "https://dc.lft.to/lastmile_qr_scan", "ios": "https://dc.lft.to/lastmile_qr_scan"}, "type": "electric_scooter", "fusion_lat": 0.0, "lat": 38.9065555, "lon": -77.0391245, "is_reserved": 0}, {"bike_id": "b633dc677b38fb8a7c62dea1bc854468", "name": "b633dc677b38fb8a7c62dea1bc854468", "is_disabled": 0, "fusion_lon": 0.0, "rental_uris": {"android": "https://dc.lft.to/lastmile_qr_scan", "ios": "https://dc.lft.to/lastmile_qr_scan"}, "type": "electric_scooter", "fusion_lat": 0.0, "lat": 38.9012905, "lon": -77.03949566666667, "is_reserved": 0}, {"bike_id": "620dd253e1fb7bcb6cf01a7193233a1a", "name": "620dd253e1fb7bcb6cf01a7193233a1a", "is_disabled": 0, "fusion_lon": 0.0, "rental_uris": {"android": "https://dc.lft.to/lastmile_qr_scan", "ios": "https://dc.lft.to/lastmile_qr_scan"}, "type": "electric_scooter", "fusion_lat": 0.0, "lat": 38.90836216666667, "lon": -77.06367833333333, "is_reserved": 0}, {"bike_id": "3d90299015de421fdba282c8e0a4b623", "name": "3d90299015de421fdba282c8e0a4b623", "is_disabled": 0, "fusion_lon": 0.0, "rental_uris": {"android": "https://dc.lft.to/lastmile_qr_scan", "ios": "https://dc.lft.to/lastmile_qr_scan"}, "type": "electric_bike", "fusion_lat": 0.0, "lat": 38.882783833333335, "lon": -76.93238266666667, "is_reserved": 0}, {"bike_id": "f0b90845f37fdc39907cb1961dbe1d03", "name": "f0b90845f37fdc39907cb1961dbe1d03", "is_disabled": 0, "fusion_lon": 0.0, "rental_uris": {"android": "https://dc.lft.to/lastmile_qr_scan", "ios": "https://dc.lft.to/lastmile_qr_scan"}, "type": "electric_scooter", "fusion_lat": 0.0, "lat": 38.903484, "lon": -77.05259383333333, "is_reserved": 0}, {"bike_id": "bbae5d15c556113a70d75d5b1418af19", "name": "bbae5d15c556113a70d75d5b1418af19", "is_disabled": 0, "fusion_lon": 0.0, "rental_uris": {"android": "https://dc.lft.to/lastmile_qr_scan", "ios": "https://dc.lft.to/lastmile_qr_scan"}, "type": "electric_bike", "fusion_lat": 0.0, "lat": 38.88877933333333, "lon": -76.95696266666667, "is_reserved": 0}, {"bike_id": "6812292680632cb10a93e6e54904afaf", "name": "6812292680632cb10a93e6e54904afaf", "is_disabled": 0, "fusion_lon": 0.0, "rental_uris": {"android": "https://dc.lft.to/lastmile_qr_scan", "ios": "https://dc.lft.to/lastmile_qr_scan"}, "type": "electric_scooter", "fusion_lat": 0.0, "lat": 38.94719416666667, "lon": -77.02979933333333, "is_reserved": 0}, {"bike_id": "4bb13ad948c8055563cb448b314b83cc", "name": "4bb13ad948c8055563cb448b314b83cc", "is_disabled": 0, "fusion_lon": 0.0, "rental_uris": {"android": "https://dc.lft.to/lastmile_qr_scan", "ios": "https://dc.lft.to/lastmile_qr_scan"}, "type": "electric_scooter", "fusion_lat": 0.0, "lat": 38.91914366666666, "lon": -77.04178966666667, "is_reserved": 0}, {"bike_id": "7065dd9212eba9cc6675d028eae8a5a5", "name": "7065dd9212eba9cc6675d028eae8a5a5", "is_disabled": 0, "fusion_lon": 0.0, "rental_uris": {"android": "https://dc.lft.to/lastmile_qr_scan", "ios": "https://dc.lft.to/lastmile_qr_scan"}, "type": "electric_scooter", "fusion_lat": 0.0, "lat": 38.929934333333335, "lon": -77.0551145, "is_reserved": 0}, {"bike_id": "c978132bf14d8c1c84cd5ed7c06d0ab2", "name": "c978132bf14d8c1c84cd5ed7c06d0ab2", "is_disabled": 0, "fusion_lon": 0.0, "rental_uris": {"android": "https://dc.lft.to/lastmile_qr_scan", "ios": "https://dc.lft.to/lastmile_qr_scan"}, "type": "electric_scooter", "fusion_lat": 0.0, "lat": 38.89514, "lon": -77.02429016666666, "is_reserved": 0}, {"bike_id": "37d769a3cdd1e8b6bf23de8a6db032f0", "name": "37d769a3cdd1e8b6bf23de8a6db032f0", "is_disabled": 0, "fusion_lon": 0.0, "rental_uris": {"android": "https://dc.lft.to/lastmile_qr_scan", "ios": "https://dc.lft.to/lastmile_qr_scan"}, "type": "electric_scooter", "fusion_lat": 0.0, "lat": 38.8767805, "lon": -77.01785616666666, "is_reserved": 0}, {"bike_id": "4a2e0ab85996b58c4b43f5ccd93d6bf7", "name": "4a2e0ab85996b58c4b43f5ccd93d6bf7", "is_disabled": 0, "fusion_lon": 0.0, "rental_uris": {"android": "https://dc.lft.to/lastmile_qr_scan", "ios": "https://dc.lft.to/lastmile_qr_scan"}, "type": "electric_scooter", "fusion_lat": 0.0, "lat": 38.90440483333333, "lon": -77.0328395, "is_reserved": 0}, {"bike_id": "c19179bf7385556fdc7ad5b8c49a76ed", "name": "c19179bf7385556fdc7ad5b8c49a76ed", "is_disabled": 0, "fusion_lon": 0.0, "rental_uris": {"android": "https://dc.lft.to/lastmile_qr_scan", "ios": "https://dc.lft.to/lastmile_qr_scan"}, "type": "electric_scooter", "fusion_lat": 0.0, "lat": 38.906712166666665, "lon": -77.071864, "is_reserved": 0}, {"bike_id": "345ea719578327f705e4a86b25989667", "name": "345ea719578327f705e4a86b25989667", "is_disabled": 0, "fusion_lon": 0.0, "rental_uris": {"android": "https://dc.lft.to/lastmile_qr_scan", "ios": "https://dc.lft.to/lastmile_qr_scan"}, "type": "electric_scooter", "fusion_lat": 0.0, "lat": 38.909065166666664, "lon": -76.99778, "is_reserved": 0}, {"bike_id": "f2868b1f83810e631ed6fdcf3f5c203d", "name": "f2868b1f83810e631ed6fdcf3f5c203d", "is_disabled": 0, "fusion_lon": 0.0, "rental_uris": {"android": "https://dc.lft.to/lastmile_qr_scan", "ios": "https://dc.lft.to/lastmile_qr_scan"}, "type": "electric_scooter", "fusion_lat": 0.0, "lat": 38.899854, "lon": -77.02197633333333, "is_reserved": 0}, {"bike_id": "b11dddfdaf9ce93ae4ebc05419523ae2", "name": "b11dddfdaf9ce93ae4ebc05419523ae2", "is_disabled": 0, "fusion_lon": 0.0, "rental_uris": {"android": "https://dc.lft.to/lastmile_qr_scan", "ios": "https://dc.lft.to/lastmile_qr_scan"}, "type": "electric_scooter", "fusion_lat": 0.0, "lat": 38.892219, "lon": -77.04685016666667, "is_reserved": 0}, {"bike_id": "162e3571f55800f89b901f90843b2645", "name": "162e3571f55800f89b901f90843b2645", "is_disabled": 0, "fusion_lon": 0.0, "rental_uris": {"android": "https://dc.lft.to/lastmile_qr_scan", "ios": "https://dc.lft.to/lastmile_qr_scan"}, "type": "electric_scooter", "fusion_lat": 0.0, "lat": 38.898527666666666, "lon": -77.0466095, "is_reserved": 0}, {"bike_id": "dca66de6629b7cca20a3918d2b0b0a60", "name": "dca66de6629b7cca20a3918d2b0b0a60", "is_disabled": 0, "fusion_lon": 0.0, "rental_uris": {"android": "https://dc.lft.to/lastmile_qr_scan", "ios": "https://dc.lft.to/lastmile_qr_scan"}, "type": "electric_scooter", "fusion_lat": 0.0, "lat": 38.913881833333335, "lon": -76.98408066666667, "is_reserved": 0}, {"bike_id": "811f1520efe874ded3e4f298485bb99b", "name": "811f1520efe874ded3e4f298485bb99b", "is_disabled": 0, "fusion_lon": 0.0, "rental_uris": {"android": "https://dc.lft.to/lastmile_qr_scan", "ios": "https://dc.lft.to/lastmile_qr_scan"}, "type": "electric_scooter", "fusion_lat": 0.0, "lat": 38.924815, "lon": -77.02138683333334, "is_reserved": 0}, {"bike_id": "ae7daf8fb72bc5b4c320a7772c670703", "name": "ae7daf8fb72bc5b4c320a7772c670703", "is_disabled": 0, "fusion_lon": 0.0, "rental_uris": {"android": "https://dc.lft.to/lastmile_qr_scan", "ios": "https://dc.lft.to/lastmile_qr_scan"}, "type": "electric_scooter", "fusion_lat": 0.0, "lat": 38.915314, "lon": -77.04460066666667, "is_reserved": 0}, {"bike_id": "3812b9b8abffc04b908591271f0d4b90", "name": "3812b9b8abffc04b908591271f0d4b90", "is_disabled": 0, "fusion_lon": 0.0, "rental_uris": {"android": "https://dc.lft.to/lastmile_qr_scan", "ios": "https://dc.lft.to/lastmile_qr_scan"}, "type": "electric_scooter", "fusion_lat": 0.0, "lat": 38.928736666666666, "lon": -77.0344465, "is_reserved": 0}, {"bike_id": "83234d618598b8b9b63571c2941d2642", "name": "83234d618598b8b9b63571c2941d2642", "is_disabled": 0, "fusion_lon": 0.0, "rental_uris": {"android": "https://dc.lft.to/lastmile_qr_scan", "ios": "https://dc.lft.to/lastmile_qr_scan"}, "type": "electric_scooter", "fusion_lat": 0.0, "lat": 38.9177265, "lon": -77.027052, "is_reserved": 0}, {"bike_id": "91ef72fa221376383c7aaa12ee0cb84a", "name": "91ef72fa221376383c7aaa12ee0cb84a", "is_disabled": 0, "fusion_lon": 0.0, "rental_uris": {"android": "https://dc.lft.to/lastmile_qr_scan", "ios": "https://dc.lft.to/lastmile_qr_scan"}, "type": "electric_scooter", "fusion_lat": 0.0, "lat": 38.892316, "lon": -77.0028645, "is_reserved": 0}, {"bike_id": "ebe96d379437aa0d90218b3f3454eab2", "name": "ebe96d379437aa0d90218b3f3454eab2", "is_disabled": 0, "fusion_lon": 0.0, "rental_uris": {"android": "https://dc.lft.to/lastmile_qr_scan", "ios": "https://dc.lft.to/lastmile_qr_scan"}, "type": "electric_scooter", "fusion_lat": 0.0, "lat": 38.8996295, "lon": -77.04725533333334, "is_reserved": 0}, {"bike_id": "1dff75cabe8a936efef59685d5f0e633", "name": "1dff75cabe8a936efef59685d5f0e633", "is_disabled": 0, "fusion_lon": 0.0, "rental_uris": {"android": "https://dc.lft.to/lastmile_qr_scan", "ios": "https://dc.lft.to/lastmile_qr_scan"}, "type": "electric_scooter", "fusion_lat": 0.0, "lat": 38.93251016666667, "lon": -77.032606, "is_reserved": 0}, {"bike_id": "428e1b1e4d67960af80aed7f1b11c73c", "name": "428e1b1e4d67960af80aed7f1b11c73c", "is_disabled": 0, "fusion_lon": 0.0, "rental_uris": {"android": "https://dc.lft.to/lastmile_qr_scan", "ios": "https://dc.lft.to/lastmile_qr_scan"}, "type": "electric_scooter", "fusion_lat": 0.0, "lat": 38.913298833333336, "lon": -77.0136175, "is_reserved": 0}, {"bike_id": "de03923ee6f194b75daa374c245243da", "name": "de03923ee6f194b75daa374c245243da", "is_disabled": 0, "fusion_lon": 0.0, "rental_uris": {"android": "https://dc.lft.to/lastmile_qr_scan", "ios": "https://dc.lft.to/lastmile_qr_scan"}, "type": "electric_scooter", "fusion_lat": 0.0, "lat": 38.906801, "lon": -77.06396066666667, "is_reserved": 0}, {"bike_id": "59af073776f75721776f18a8fa0b69ff", "name": "59af073776f75721776f18a8fa0b69ff", "is_disabled": 0, "fusion_lon": 0.0, "rental_uris": {"android": "https://dc.lft.to/lastmile_qr_scan", "ios": "https://dc.lft.to/lastmile_qr_scan"}, "type": "electric_scooter", "fusion_lat": 0.0, "lat": 38.92033166666667, "lon": -76.98489466666666, "is_reserved": 0}, {"bike_id": "15c523fe71efc57cd47a38128eb8a996", "name": "15c523fe71efc57cd47a38128eb8a996", "is_disabled": 0, "fusion_lon": 0.0, "rental_uris": {"android": "https://dc.lft.to/lastmile_qr_scan", "ios": "https://dc.lft.to/lastmile_qr_scan"}, "type": "electric_scooter", "fusion_lat": 0.0, "lat": 38.9013525, "lon": -77.0351, "is_reserved": 0}, {"bike_id": "a4a23ee08e4f86b2fc21ca2bf8465ea4", "name": "a4a23ee08e4f86b2fc21ca2bf8465ea4", "is_disabled": 0, "fusion_lon": 0.0, "rental_uris": {"android": "https://dc.lft.to/lastmile_qr_scan", "ios": "https://dc.lft.to/lastmile_qr_scan"}, "type": "electric_scooter", "fusion_lat": 0.0, "lat": 38.90555066666667, "lon": -77.00186266666667, "is_reserved": 0}, {"bike_id": "f59ef86056e1869def68191b887189d7", "name": "f59ef86056e1869def68191b887189d7", "is_disabled": 0, "fusion_lon": 0.0, "rental_uris": {"android": "https://dc.lft.to/lastmile_qr_scan", "ios": "https://dc.lft.to/lastmile_qr_scan"}, "type": "electric_scooter", "fusion_lat": 0.0, "lat": 38.8980425, "lon": -77.00209816666667, "is_reserved": 0}, {"bike_id": "719e67b30916b71ca919efc3a33562d9", "name": "719e67b30916b71ca919efc3a33562d9", "is_disabled": 0, "fusion_lon": 0.0, "rental_uris": {"android": "https://dc.lft.to/lastmile_qr_scan", "ios": "https://dc.lft.to/lastmile_qr_scan"}, "type": "electric_scooter", "fusion_lat": 0.0, "lat": 38.91814566666667, "lon": -77.02484166666666, "is_reserved": 0}, {"bike_id": "7b5ea49856007e930644c6e88a9859c2", "name": "7b5ea49856007e930644c6e88a9859c2", "is_disabled": 0, "fusion_lon": 0.0, "rental_uris": {"android": "https://dc.lft.to/lastmile_qr_scan", "ios": "https://dc.lft.to/lastmile_qr_scan"}, "type": "electric_scooter", "fusion_lat": 0.0, "lat": 38.916911166666665, "lon": -77.03995166666667, "is_reserved": 0}, {"bike_id": "31a1a8a94946160db979405c6ac05aaf", "name": "31a1a8a94946160db979405c6ac05aaf", "is_disabled": 0, "fusion_lon": 0.0, "rental_uris": {"android": "https://dc.lft.to/lastmile_qr_scan", "ios": "https://dc.lft.to/lastmile_qr_scan"}, "type": "electric_bike", "fusion_lat": 0.0, "lat": 38.929826, "lon": -76.98599516666667, "is_reserved": 0}, {"bike_id": "93a86129053b10bb876ed711be973ea2", "name": "93a86129053b10bb876ed711be973ea2", "is_disabled": 0, "fusion_lon": 0.0, "rental_uris": {"android": "https://dc.lft.to/lastmile_qr_scan", "ios": "https://dc.lft.to/lastmile_qr_scan"}, "type": "electric_scooter", "fusion_lat": 0.0, "lat": 38.9263715, "lon": -77.02170116666667, "is_reserved": 0}, {"bike_id": "ff5e2e9f7a07923c6dce7defd3d7bbbf", "name": "ff5e2e9f7a07923c6dce7defd3d7bbbf", "is_disabled": 0, "fusion_lon": 0.0, "rental_uris": {"android": "https://dc.lft.to/lastmile_qr_scan", "ios": "https://dc.lft.to/lastmile_qr_scan"}, "type": "electric_scooter", "fusion_lat": 0.0, "lat": 38.9058255, "lon": -77.0217825, "is_reserved": 0}, {"bike_id": "9026275edaa2900c51b347672a770654", "name": "9026275edaa2900c51b347672a770654", "is_disabled": 0, "fusion_lon": 0.0, "rental_uris": {"android": "https://dc.lft.to/lastmile_qr_scan", "ios": "https://dc.lft.to/lastmile_qr_scan"}, "type": "electric_scooter", "fusion_lat": 0.0, "lat": 38.892572666666666, "lon": -77.04650616666666, "is_reserved": 0}, {"bike_id": "5aafdda18c38e48cad6d7b5550b434d4", "name": "5aafdda18c38e48cad6d7b5550b434d4", "is_disabled": 0, "fusion_lon": 0.0, "rental_uris": {"android": "https://dc.lft.to/lastmile_qr_scan", "ios": "https://dc.lft.to/lastmile_qr_scan"}, "type": "electric_scooter", "fusion_lat": 0.0, "lat": 38.91116, "lon": -77.00606533333334, "is_reserved": 0}, {"bike_id": "349a2544b060e8cd86a8eef7de507ed7", "name": "349a2544b060e8cd86a8eef7de507ed7", "is_disabled": 0, "fusion_lon": 0.0, "rental_uris": {"android": "https://dc.lft.to/lastmile_qr_scan", "ios": "https://dc.lft.to/lastmile_qr_scan"}, "type": "electric_scooter", "fusion_lat": 0.0, "lat": 38.91032633333333, "lon": -76.993395, "is_reserved": 0}, {"bike_id": "51a7c289c8298a271b80b4698cfea471", "name": "51a7c289c8298a271b80b4698cfea471", "is_disabled": 0, "fusion_lon": 0.0, "rental_uris": {"android": "https://dc.lft.to/lastmile_qr_scan", "ios": "https://dc.lft.to/lastmile_qr_scan"}, "type": "electric_scooter", "fusion_lat": 0.0, "lat": 38.899679666666664, "lon": -77.047177, "is_reserved": 0}, {"bike_id": "3990607a74b84f79c2bd00d0a94c513a", "name": "3990607a74b84f79c2bd00d0a94c513a", "is_disabled": 0, "fusion_lon": 0.0, "rental_uris": {"android": "https://dc.lft.to/lastmile_qr_scan", "ios": "https://dc.lft.to/lastmile_qr_scan"}, "type": "electric_scooter", "fusion_lat": 0.0, "lat": 38.92373683333334, "lon": -77.01945, "is_reserved": 0}, {"bike_id": "d99af42509a2b3308be6d85a3214f1a9", "name": "d99af42509a2b3308be6d85a3214f1a9", "is_disabled": 0, "fusion_lon": 0.0, "rental_uris": {"android": "https://dc.lft.to/lastmile_qr_scan", "ios": "https://dc.lft.to/lastmile_qr_scan"}, "type": "electric_scooter", "fusion_lat": 0.0, "lat": 38.9101775, "lon": -77.04448333333333, "is_reserved": 0}, {"bike_id": "1bd5dedb62b458154adaec6e51856e97", "name": "1bd5dedb62b458154adaec6e51856e97", "is_disabled": 0, "fusion_lon": 0.0, "rental_uris": {"android": "https://dc.lft.to/lastmile_qr_scan", "ios": "https://dc.lft.to/lastmile_qr_scan"}, "type": "electric_scooter", "fusion_lat": 0.0, "lat": 38.87840666666666, "lon": -76.9313015, "is_reserved": 0}, {"bike_id": "2357f04532b64a567b650a37cc752975", "name": "2357f04532b64a567b650a37cc752975", "is_disabled": 0, "fusion_lon": 0.0, "rental_uris": {"android": "https://dc.lft.to/lastmile_qr_scan", "ios": "https://dc.lft.to/lastmile_qr_scan"}, "type": "electric_bike", "fusion_lat": 0.0, "lat": 39.010781, "lon": -76.91063533333333, "is_reserved": 0}, {"bike_id": "281081ac5647a18f2f77401130eb87c6", "name": "281081ac5647a18f2f77401130eb87c6", "is_disabled": 0, "fusion_lon": 0.0, "rental_uris": {"android": "https://dc.lft.to/lastmile_qr_scan", "ios": "https://dc.lft.to/lastmile_qr_scan"}, "type": "electric_scooter", "fusion_lat": 0.0, "lat": 38.910442833333335, "lon": -77.04345433333333, "is_reserved": 0}, {"bike_id": "85d971f026acbe24ea6caecedb447396", "name": "85d971f026acbe24ea6caecedb447396", "is_disabled": 0, "fusion_lon": 0.0, "rental_uris": {"android": "https://dc.lft.to/lastmile_qr_scan", "ios": "https://dc.lft.to/lastmile_qr_scan"}, "type": "electric_bike", "fusion_lat": 0.0, "lat": 38.83914083333333, "lon": -76.99835966666667, "is_reserved": 0}, {"bike_id": "bbe5740dd1aba48fe4c11206b9cbe84d", "name": "bbe5740dd1aba48fe4c11206b9cbe84d", "is_disabled": 0, "fusion_lon": 0.0, "rental_uris": {"android": "https://dc.lft.to/lastmile_qr_scan", "ios": "https://dc.lft.to/lastmile_qr_scan"}, "type": "electric_scooter", "fusion_lat": 0.0, "lat": 38.9071125, "lon": -77.00359166666667, "is_reserved": 0}, {"bike_id": "f845600c7809599158725cf10347b513", "name": "f845600c7809599158725cf10347b513", "is_disabled": 0, "fusion_lon": 0.0, "rental_uris": {"android": "https://dc.lft.to/lastmile_qr_scan", "ios": "https://dc.lft.to/lastmile_qr_scan"}, "type": "electric_scooter", "fusion_lat": 0.0, "lat": 38.908206666666665, "lon": -77.039311, "is_reserved": 0}, {"bike_id": "6371d6f18d92219559d24d2257e45620", "name": "6371d6f18d92219559d24d2257e45620", "is_disabled": 0, "fusion_lon": 0.0, "rental_uris": {"android": "https://dc.lft.to/lastmile_qr_scan", "ios": "https://dc.lft.to/lastmile_qr_scan"}, "type": "electric_scooter", "fusion_lat": 0.0, "lat": 38.92339116666667, "lon": -77.00915783333333, "is_reserved": 0}, {"bike_id": "2aef1dd275bb01d863dcc0b49c810cfb", "name": "2aef1dd275bb01d863dcc0b49c810cfb", "is_disabled": 0, "fusion_lon": 0.0, "rental_uris": {"android": "https://dc.lft.to/lastmile_qr_scan", "ios": "https://dc.lft.to/lastmile_qr_scan"}, "type": "electric_scooter", "fusion_lat": 0.0, "lat": 38.928764666666666, "lon": -77.019309, "is_reserved": 0}, {"bike_id": "d88f6072171997c8d61e9f51fc636cf6", "name": "d88f6072171997c8d61e9f51fc636cf6", "is_disabled": 0, "fusion_lon": 0.0, "rental_uris": {"android": "https://dc.lft.to/lastmile_qr_scan", "ios": "https://dc.lft.to/lastmile_qr_scan"}, "type": "electric_scooter", "fusion_lat": 0.0, "lat": 38.8983695, "lon": -77.042653, "is_reserved": 0}, {"bike_id": "9b49c2e4a99bc2ab4e349f4114eb5011", "name": "9b49c2e4a99bc2ab4e349f4114eb5011", "is_disabled": 0, "fusion_lon": 0.0, "rental_uris": {"android": "https://dc.lft.to/lastmile_qr_scan", "ios": "https://dc.lft.to/lastmile_qr_scan"}, "type": "electric_scooter", "fusion_lat": 0.0, "lat": 38.902413333333335, "lon": -77.04594533333334, "is_reserved": 0}, {"bike_id": "071010ac162f8869d8b46a2ce8dcd318", "name": "071010ac162f8869d8b46a2ce8dcd318", "is_disabled": 0, "fusion_lon": 0.0, "rental_uris": {"android": "https://dc.lft.to/lastmile_qr_scan", "ios": "https://dc.lft.to/lastmile_qr_scan"}, "type": "electric_scooter", "fusion_lat": 0.0, "lat": 38.946224, "lon": -77.078231, "is_reserved": 0}, {"bike_id": "474ef086324d107fe69540d954f62c29", "name": "474ef086324d107fe69540d954f62c29", "is_disabled": 0, "fusion_lon": 0.0, "rental_uris": {"android": "https://dc.lft.to/lastmile_qr_scan", "ios": "https://dc.lft.to/lastmile_qr_scan"}, "type": "electric_scooter", "fusion_lat": 0.0, "lat": 38.89222483333333, "lon": -77.01371366666666, "is_reserved": 0}, {"bike_id": "4a586d90a68378358014d94eada3b3c1", "name": "4a586d90a68378358014d94eada3b3c1", "is_disabled": 0, "fusion_lon": 0.0, "rental_uris": {"android": "https://dc.lft.to/lastmile_qr_scan", "ios": "https://dc.lft.to/lastmile_qr_scan"}, "type": "electric_bike", "fusion_lat": 0.0, "lat": 38.90010183333333, "lon": -77.04008183333333, "is_reserved": 0}, {"bike_id": "c5b8ab0a6f3725bb7dd873513cf8dd52", "name": "c5b8ab0a6f3725bb7dd873513cf8dd52", "is_disabled": 0, "fusion_lon": 0.0, "rental_uris": {"android": "https://dc.lft.to/lastmile_qr_scan", "ios": "https://dc.lft.to/lastmile_qr_scan"}, "type": "electric_scooter", "fusion_lat": 0.0, "lat": 38.94027916666667, "lon": -77.02659466666667, "is_reserved": 0}, {"bike_id": "6b3ccb63317b89d7529dc0fb29784aad", "name": "6b3ccb63317b89d7529dc0fb29784aad", "is_disabled": 0, "fusion_lon": 0.0, "rental_uris": {"android": "https://dc.lft.to/lastmile_qr_scan", "ios": "https://dc.lft.to/lastmile_qr_scan"}, "type": "electric_bike", "fusion_lat": 0.0, "lat": 38.99665383333333, "lon": -77.02538, "is_reserved": 0}, {"bike_id": "2770c6a781f2fb20ec5af7569c989910", "name": "2770c6a781f2fb20ec5af7569c989910", "is_disabled": 0, "fusion_lon": 0.0, "rental_uris": {"android": "https://dc.lft.to/lastmile_qr_scan", "ios": "https://dc.lft.to/lastmile_qr_scan"}, "type": "electric_bike", "fusion_lat": 0.0, "lat": 38.895653, "lon": -77.127337, "is_reserved": 0}, {"bike_id": "2c8522def900b2224aba48418c7391b7", "name": "2c8522def900b2224aba48418c7391b7", "is_disabled": 0, "fusion_lon": 0.0, "rental_uris": {"android": "https://dc.lft.to/lastmile_qr_scan", "ios": "https://dc.lft.to/lastmile_qr_scan"}, "type": "electric_bike", "fusion_lat": 0.0, "lat": 38.95629683333333, "lon": -76.93872333333333, "is_reserved": 0}, {"bike_id": "033220b60ab4d8ab69ba7f4278e294b5", "name": "033220b60ab4d8ab69ba7f4278e294b5", "is_disabled": 0, "fusion_lon": 0.0, "rental_uris": {"android": "https://dc.lft.to/lastmile_qr_scan", "ios": "https://dc.lft.to/lastmile_qr_scan"}, "type": "electric_scooter", "fusion_lat": 0.0, "lat": 38.897295, "lon": -77.0191135, "is_reserved": 0}, {"bike_id": "3faf16660d6e61adae701d3f346c4d75", "name": "3faf16660d6e61adae701d3f346c4d75", "is_disabled": 0, "fusion_lon": 0.0, "rental_uris": {"android": "https://dc.lft.to/lastmile_qr_scan", "ios": "https://dc.lft.to/lastmile_qr_scan"}, "type": "electric_bike", "fusion_lat": 0.0, "lat": 38.90346, "lon": -77.05054033333333, "is_reserved": 0}, {"bike_id": "1675346e5eadaa3ae49a7aeef1600d4c", "name": "1675346e5eadaa3ae49a7aeef1600d4c", "is_disabled": 0, "fusion_lon": 0.0, "rental_uris": {"android": "https://dc.lft.to/lastmile_qr_scan", "ios": "https://dc.lft.to/lastmile_qr_scan"}, "type": "electric_scooter", "fusion_lat": 0.0, "lat": 38.920655, "lon": -77.03165333333334, "is_reserved": 0}, {"bike_id": "6721d8d261cebfcbe69f1440dfe1b7b1", "name": "6721d8d261cebfcbe69f1440dfe1b7b1", "is_disabled": 0, "fusion_lon": 0.0, "rental_uris": {"android": "https://dc.lft.to/lastmile_qr_scan", "ios": "https://dc.lft.to/lastmile_qr_scan"}, "type": "electric_scooter", "fusion_lat": 0.0, "lat": 38.901118333333336, "lon": -77.03356066666667, "is_reserved": 0}, {"bike_id": "e4959e132b9e092888dcd85aeaba0307", "name": "e4959e132b9e092888dcd85aeaba0307", "is_disabled": 0, "fusion_lon": 0.0, "rental_uris": {"android": "https://dc.lft.to/lastmile_qr_scan", "ios": "https://dc.lft.to/lastmile_qr_scan"}, "type": "electric_scooter", "fusion_lat": 0.0, "lat": 38.9036545, "lon": -77.037744, "is_reserved": 0}, {"bike_id": "0fb85b7c5dcd47f32c56eec1421a0e8f", "name": "0fb85b7c5dcd47f32c56eec1421a0e8f", "is_disabled": 0, "fusion_lon": 0.0, "rental_uris": {"android": "https://dc.lft.to/lastmile_qr_scan", "ios": "https://dc.lft.to/lastmile_qr_scan"}, "type": "electric_scooter", "fusion_lat": 0.0, "lat": 38.8992765, "lon": -76.94579016666667, "is_reserved": 0}, {"bike_id": "8609f071418922ba3dbc608c5761fcca", "name": "8609f071418922ba3dbc608c5761fcca", "is_disabled": 0, "fusion_lon": 0.0, "rental_uris": {"android": "https://dc.lft.to/lastmile_qr_scan", "ios": "https://dc.lft.to/lastmile_qr_scan"}, "type": "electric_bike", "fusion_lat": 0.0, "lat": 38.8600055, "lon": -76.98982416666666, "is_reserved": 0}, {"bike_id": "a9893dac1e4ed00f6bb3ef597447d4c3", "name": "a9893dac1e4ed00f6bb3ef597447d4c3", "is_disabled": 0, "fusion_lon": 0.0, "rental_uris": {"android": "https://dc.lft.to/lastmile_qr_scan", "ios": "https://dc.lft.to/lastmile_qr_scan"}, "type": "electric_scooter", "fusion_lat": 0.0, "lat": 38.9053615, "lon": -77.0435055, "is_reserved": 0}, {"bike_id": "fd85c9e53a6ebda1075ea89b3a601fd7", "name": "fd85c9e53a6ebda1075ea89b3a601fd7", "is_disabled": 0, "fusion_lon": 0.0, "rental_uris": {"android": "https://dc.lft.to/lastmile_qr_scan", "ios": "https://dc.lft.to/lastmile_qr_scan"}, "type": "electric_bike", "fusion_lat": 0.0, "lat": 39.02621833333333, "lon": -77.03874533333334, "is_reserved": 0}, {"bike_id": "d8a00467b60b71c68e01a1ccfe192596", "name": "d8a00467b60b71c68e01a1ccfe192596", "is_disabled": 0, "fusion_lon": 0.0, "rental_uris": {"android": "https://dc.lft.to/lastmile_qr_scan", "ios": "https://dc.lft.to/lastmile_qr_scan"}, "type": "electric_scooter", "fusion_lat": 0.0, "lat": 38.917629166666664, "lon": -77.0240095, "is_reserved": 0}, {"bike_id": "71500714c5a0ca2a37812e985008f543", "name": "71500714c5a0ca2a37812e985008f543", "is_disabled": 0, "fusion_lon": 0.0, "rental_uris": {"android": "https://dc.lft.to/lastmile_qr_scan", "ios": "https://dc.lft.to/lastmile_qr_scan"}, "type": "electric_scooter", "fusion_lat": 0.0, "lat": 38.900762666666665, "lon": -77.01337783333334, "is_reserved": 0}, {"bike_id": "469c6390cf5bc029015c0e926beb824a", "name": "469c6390cf5bc029015c0e926beb824a", "is_disabled": 0, "fusion_lon": 0.0, "rental_uris": {"android": "https://dc.lft.to/lastmile_qr_scan", "ios": "https://dc.lft.to/lastmile_qr_scan"}, "type": "electric_scooter", "fusion_lat": 0.0, "lat": 38.90120566666667, "lon": -77.03947033333333, "is_reserved": 0}, {"bike_id": "af5706192808485da27b83f4a0be2331", "name": "af5706192808485da27b83f4a0be2331", "is_disabled": 0, "fusion_lon": 0.0, "rental_uris": {"android": "https://dc.lft.to/lastmile_qr_scan", "ios": "https://dc.lft.to/lastmile_qr_scan"}, "type": "electric_scooter", "fusion_lat": 0.0, "lat": 38.8977735, "lon": -77.05473866666667, "is_reserved": 0}, {"bike_id": "aecf44d5fa7db3c72cc544c440188e7c", "name": "aecf44d5fa7db3c72cc544c440188e7c", "is_disabled": 0, "fusion_lon": 0.0, "rental_uris": {"android": "https://dc.lft.to/lastmile_qr_scan", "ios": "https://dc.lft.to/lastmile_qr_scan"}, "type": "electric_scooter", "fusion_lat": 0.0, "lat": 38.914133, "lon": -77.0291115, "is_reserved": 0}, {"bike_id": "cfe77628661f15f1d8f3bbad1e53a299", "name": "cfe77628661f15f1d8f3bbad1e53a299", "is_disabled": 0, "fusion_lon": 0.0, "rental_uris": {"android": "https://dc.lft.to/lastmile_qr_scan", "ios": "https://dc.lft.to/lastmile_qr_scan"}, "type": "electric_scooter", "fusion_lat": 0.0, "lat": 38.917202, "lon": -77.02896983333333, "is_reserved": 0}, {"bike_id": "dffd6c356d2505398964ac05eeb92384", "name": "dffd6c356d2505398964ac05eeb92384", "is_disabled": 0, "fusion_lon": 0.0, "rental_uris": {"android": "https://dc.lft.to/lastmile_qr_scan", "ios": "https://dc.lft.to/lastmile_qr_scan"}, "type": "electric_scooter", "fusion_lat": 0.0, "lat": 38.902662, "lon": -77.04013533333334, "is_reserved": 0}, {"bike_id": "73f8065c5c58e3eb4e57dd07a582961f", "name": "73f8065c5c58e3eb4e57dd07a582961f", "is_disabled": 0, "fusion_lon": 0.0, "rental_uris": {"android": "https://dc.lft.to/lastmile_qr_scan", "ios": "https://dc.lft.to/lastmile_qr_scan"}, "type": "electric_scooter", "fusion_lat": 0.0, "lat": 38.917120833333335, "lon": -77.03864766666666, "is_reserved": 0}, {"bike_id": "e3952ecd0265dc90bd8ace09dfb6df4a", "name": "e3952ecd0265dc90bd8ace09dfb6df4a", "is_disabled": 0, "fusion_lon": 0.0, "rental_uris": {"android": "https://dc.lft.to/lastmile_qr_scan", "ios": "https://dc.lft.to/lastmile_qr_scan"}, "type": "electric_scooter", "fusion_lat": 0.0, "lat": 38.933561833333336, "lon": -77.0857625, "is_reserved": 0}, {"bike_id": "0e695d90b8aaaa9179efd7e566e8b734", "name": "0e695d90b8aaaa9179efd7e566e8b734", "is_disabled": 0, "fusion_lon": 0.0, "rental_uris": {"android": "https://dc.lft.to/lastmile_qr_scan", "ios": "https://dc.lft.to/lastmile_qr_scan"}, "type": "electric_scooter", "fusion_lat": 0.0, "lat": 38.884969166666664, "lon": -77.0248735, "is_reserved": 0}, {"bike_id": "6e777cda11dd6638b52890dcd02715d9", "name": "6e777cda11dd6638b52890dcd02715d9", "is_disabled": 0, "fusion_lon": 0.0, "rental_uris": {"android": "https://dc.lft.to/lastmile_qr_scan", "ios": "https://dc.lft.to/lastmile_qr_scan"}, "type": "electric_scooter", "fusion_lat": 0.0, "lat": 38.906817, "lon": -77.06395433333333, "is_reserved": 0}, {"bike_id": "1a0b66b75c5ee76539d1b5f448c5da84", "name": "1a0b66b75c5ee76539d1b5f448c5da84", "is_disabled": 0, "fusion_lon": 0.0, "rental_uris": {"android": "https://dc.lft.to/lastmile_qr_scan", "ios": "https://dc.lft.to/lastmile_qr_scan"}, "type": "electric_scooter", "fusion_lat": 0.0, "lat": 38.892536166666666, "lon": -77.03338166666667, "is_reserved": 0}, {"bike_id": "8fc8e75be03495919ce7819e3b925fbc", "name": "8fc8e75be03495919ce7819e3b925fbc", "is_disabled": 0, "fusion_lon": 0.0, "rental_uris": {"android": "https://dc.lft.to/lastmile_qr_scan", "ios": "https://dc.lft.to/lastmile_qr_scan"}, "type": "electric_scooter", "fusion_lat": 0.0, "lat": 38.896229, "lon": -76.99847266666667, "is_reserved": 0}, {"bike_id": "3796b5090f6a01f492b46ad2f20ed53a", "name": "3796b5090f6a01f492b46ad2f20ed53a", "is_disabled": 0, "fusion_lon": 0.0, "rental_uris": {"android": "https://dc.lft.to/lastmile_qr_scan", "ios": "https://dc.lft.to/lastmile_qr_scan"}, "type": "electric_scooter", "fusion_lat": 0.0, "lat": 38.9039, "lon": -77.0330475, "is_reserved": 0}, {"bike_id": "9180d511acf044578e1e1dd8452c2d31", "name": "9180d511acf044578e1e1dd8452c2d31", "is_disabled": 0, "fusion_lon": 0.0, "rental_uris": {"android": "https://dc.lft.to/lastmile_qr_scan", "ios": "https://dc.lft.to/lastmile_qr_scan"}, "type": "electric_scooter", "fusion_lat": 0.0, "lat": 38.89362416666667, "lon": -77.02057366666666, "is_reserved": 0}, {"bike_id": "43722ceb6e11f4924c3bba28228533bf", "name": "43722ceb6e11f4924c3bba28228533bf", "is_disabled": 0, "fusion_lon": 0.0, "rental_uris": {"android": "https://dc.lft.to/lastmile_qr_scan", "ios": "https://dc.lft.to/lastmile_qr_scan"}, "type": "electric_scooter", "fusion_lat": 0.0, "lat": 38.8984185, "lon": -77.028744, "is_reserved": 0}, {"bike_id": "35ec85b1cd6cd16870c23b309b37fa38", "name": "35ec85b1cd6cd16870c23b309b37fa38", "is_disabled": 0, "fusion_lon": 0.0, "rental_uris": {"android": "https://dc.lft.to/lastmile_qr_scan", "ios": "https://dc.lft.to/lastmile_qr_scan"}, "type": "electric_scooter", "fusion_lat": 0.0, "lat": 38.86521583333333, "lon": -76.99032616666666, "is_reserved": 0}, {"bike_id": "d869dff95d368ded7ee9e33f2dc27eef", "name": "d869dff95d368ded7ee9e33f2dc27eef", "is_disabled": 0, "fusion_lon": 0.0, "rental_uris": {"android": "https://dc.lft.to/lastmile_qr_scan", "ios": "https://dc.lft.to/lastmile_qr_scan"}, "type": "electric_scooter", "fusion_lat": 0.0, "lat": 38.904594, "lon": -77.04193416666666, "is_reserved": 0}, {"bike_id": "9622aa8c23a6afcae544bda573689cc2", "name": "9622aa8c23a6afcae544bda573689cc2", "is_disabled": 0, "fusion_lon": 0.0, "rental_uris": {"android": "https://dc.lft.to/lastmile_qr_scan", "ios": "https://dc.lft.to/lastmile_qr_scan"}, "type": "electric_scooter", "fusion_lat": 0.0, "lat": 38.90142983333333, "lon": -77.0298945, "is_reserved": 0}, {"bike_id": "54f86ab1cd08cfe7d66a8645cbf5c962", "name": "54f86ab1cd08cfe7d66a8645cbf5c962", "is_disabled": 0, "fusion_lon": 0.0, "rental_uris": {"android": "https://dc.lft.to/lastmile_qr_scan", "ios": "https://dc.lft.to/lastmile_qr_scan"}, "type": "electric_scooter", "fusion_lat": 0.0, "lat": 38.93584516666667, "lon": -77.07422933333334, "is_reserved": 0}, {"bike_id": "0565b642186cc38a477c1cc467fcfe0b", "name": "0565b642186cc38a477c1cc467fcfe0b", "is_disabled": 0, "fusion_lon": 0.0, "rental_uris": {"android": "https://dc.lft.to/lastmile_qr_scan", "ios": "https://dc.lft.to/lastmile_qr_scan"}, "type": "electric_scooter", "fusion_lat": 0.0, "lat": 38.927526666666665, "lon": -77.033053, "is_reserved": 0}, {"bike_id": "c019ff7fb912176a4b43d87dfc28f8d4", "name": "c019ff7fb912176a4b43d87dfc28f8d4", "is_disabled": 0, "fusion_lon": 0.0, "rental_uris": {"android": "https://dc.lft.to/lastmile_qr_scan", "ios": "https://dc.lft.to/lastmile_qr_scan"}, "type": "electric_scooter", "fusion_lat": 0.0, "lat": 38.89852116666667, "lon": -76.9320845, "is_reserved": 0}, {"bike_id": "f03a836f9cadad898920f02db9883fbf", "name": "f03a836f9cadad898920f02db9883fbf", "is_disabled": 0, "fusion_lon": 0.0, "rental_uris": {"android": "https://dc.lft.to/lastmile_qr_scan", "ios": "https://dc.lft.to/lastmile_qr_scan"}, "type": "electric_scooter", "fusion_lat": 0.0, "lat": 38.889543, "lon": -76.953595, "is_reserved": 0}, {"bike_id": "d2a72ca32677d263aed444f6de6e3c11", "name": "d2a72ca32677d263aed444f6de6e3c11", "is_disabled": 0, "fusion_lon": 0.0, "rental_uris": {"android": "https://dc.lft.to/lastmile_qr_scan", "ios": "https://dc.lft.to/lastmile_qr_scan"}, "type": "electric_scooter", "fusion_lat": 0.0, "lat": 38.909807666666666, "lon": -77.0339285, "is_reserved": 0}, {"bike_id": "d1c70f37d2f5908a9dfc7475e98632e2", "name": "d1c70f37d2f5908a9dfc7475e98632e2", "is_disabled": 0, "fusion_lon": 0.0, "rental_uris": {"android": "https://dc.lft.to/lastmile_qr_scan", "ios": "https://dc.lft.to/lastmile_qr_scan"}, "type": "electric_scooter", "fusion_lat": 0.0, "lat": 38.93599733333333, "lon": -77.03786383333333, "is_reserved": 0}, {"bike_id": "f62a091512ed3a18975e62920d3db1d4", "name": "f62a091512ed3a18975e62920d3db1d4", "is_disabled": 0, "fusion_lon": 0.0, "rental_uris": {"android": "https://dc.lft.to/lastmile_qr_scan", "ios": "https://dc.lft.to/lastmile_qr_scan"}, "type": "electric_scooter", "fusion_lat": 0.0, "lat": 38.88336866666667, "lon": -76.931306, "is_reserved": 0}, {"bike_id": "26668434d55c2dbbeafad89a6dbd52d4", "name": "26668434d55c2dbbeafad89a6dbd52d4", "is_disabled": 0, "fusion_lon": 0.0, "rental_uris": {"android": "https://dc.lft.to/lastmile_qr_scan", "ios": "https://dc.lft.to/lastmile_qr_scan"}, "type": "electric_scooter", "fusion_lat": 0.0, "lat": 38.916864333333336, "lon": -77.0270895, "is_reserved": 0}, {"bike_id": "1e198648513d0d8cda0944323199c483", "name": "1e198648513d0d8cda0944323199c483", "is_disabled": 0, "fusion_lon": 0.0, "rental_uris": {"android": "https://dc.lft.to/lastmile_qr_scan", "ios": "https://dc.lft.to/lastmile_qr_scan"}, "type": "electric_bike", "fusion_lat": 0.0, "lat": 38.8428115, "lon": -76.988408, "is_reserved": 0}, {"bike_id": "137124a949d865ff0e110b44de45eaa6", "name": "137124a949d865ff0e110b44de45eaa6", "is_disabled": 0, "fusion_lon": 0.0, "rental_uris": {"android": "https://dc.lft.to/lastmile_qr_scan", "ios": "https://dc.lft.to/lastmile_qr_scan"}, "type": "electric_scooter", "fusion_lat": 0.0, "lat": 38.92213783333333, "lon": -77.04240933333334, "is_reserved": 0}, {"bike_id": "55bf5b77baea051f6a9d1086d3bde7eb", "name": "55bf5b77baea051f6a9d1086d3bde7eb", "is_disabled": 0, "fusion_lon": 0.0, "rental_uris": {"android": "https://dc.lft.to/lastmile_qr_scan", "ios": "https://dc.lft.to/lastmile_qr_scan"}, "type": "electric_scooter", "fusion_lat": 0.0, "lat": 38.901939666666664, "lon": -77.0483755, "is_reserved": 0}, {"bike_id": "58d9ff31891e5e28dc555eef5b2ca450", "name": "58d9ff31891e5e28dc555eef5b2ca450", "is_disabled": 0, "fusion_lon": 0.0, "rental_uris": {"android": "https://dc.lft.to/lastmile_qr_scan", "ios": "https://dc.lft.to/lastmile_qr_scan"}, "type": "electric_scooter", "fusion_lat": 0.0, "lat": 38.932185, "lon": -77.01883066666667, "is_reserved": 0}, {"bike_id": "e3a3cc7b785d5519182cbd5e3f7ab7f4", "name": "e3a3cc7b785d5519182cbd5e3f7ab7f4", "is_disabled": 0, "fusion_lon": 0.0, "rental_uris": {"android": "https://dc.lft.to/lastmile_qr_scan", "ios": "https://dc.lft.to/lastmile_qr_scan"}, "type": "electric_scooter", "fusion_lat": 0.0, "lat": 38.89979866666667, "lon": -77.02610733333333, "is_reserved": 0}, {"bike_id": "c176efde5df086848f9775944cd7f09f", "name": "c176efde5df086848f9775944cd7f09f", "is_disabled": 0, "fusion_lon": 0.0, "rental_uris": {"android": "https://dc.lft.to/lastmile_qr_scan", "ios": "https://dc.lft.to/lastmile_qr_scan"}, "type": "electric_scooter", "fusion_lat": 0.0, "lat": 38.890255833333335, "lon": -76.944652, "is_reserved": 0}, {"bike_id": "b05da4bd7eee0a7a04e44737dd7dabc6", "name": "b05da4bd7eee0a7a04e44737dd7dabc6", "is_disabled": 0, "fusion_lon": 0.0, "rental_uris": {"android": "https://dc.lft.to/lastmile_qr_scan", "ios": "https://dc.lft.to/lastmile_qr_scan"}, "type": "electric_scooter", "fusion_lat": 0.0, "lat": 38.926145166666664, "lon": -77.02158683333333, "is_reserved": 0}, {"bike_id": "bd087547326b6f30662589524b2dc9d2", "name": "bd087547326b6f30662589524b2dc9d2", "is_disabled": 0, "fusion_lon": 0.0, "rental_uris": {"android": "https://dc.lft.to/lastmile_qr_scan", "ios": "https://dc.lft.to/lastmile_qr_scan"}, "type": "electric_scooter", "fusion_lat": 0.0, "lat": 38.894751, "lon": -77.0199035, "is_reserved": 0}, {"bike_id": "076457aad480aece9a03346fcc9dcfa0", "name": "076457aad480aece9a03346fcc9dcfa0", "is_disabled": 0, "fusion_lon": 0.0, "rental_uris": {"android": "https://dc.lft.to/lastmile_qr_scan", "ios": "https://dc.lft.to/lastmile_qr_scan"}, "type": "electric_scooter", "fusion_lat": 0.0, "lat": 38.9192295, "lon": -77.02505033333334, "is_reserved": 0}, {"bike_id": "7f7cde0c962e5c33c81354bc193e951c", "name": "7f7cde0c962e5c33c81354bc193e951c", "is_disabled": 0, "fusion_lon": 0.0, "rental_uris": {"android": "https://dc.lft.to/lastmile_qr_scan", "ios": "https://dc.lft.to/lastmile_qr_scan"}, "type": "electric_scooter", "fusion_lat": 0.0, "lat": 38.947498333333336, "lon": -77.03282183333333, "is_reserved": 0}, {"bike_id": "3a58d7ffd4af55a9844dbc13365b6e5c", "name": "3a58d7ffd4af55a9844dbc13365b6e5c", "is_disabled": 0, "fusion_lon": 0.0, "rental_uris": {"android": "https://dc.lft.to/lastmile_qr_scan", "ios": "https://dc.lft.to/lastmile_qr_scan"}, "type": "electric_scooter", "fusion_lat": 0.0, "lat": 38.9059425, "lon": -77.0411295, "is_reserved": 0}, {"bike_id": "5763b2412233bf4e4fcdc95fa10765d0", "name": "5763b2412233bf4e4fcdc95fa10765d0", "is_disabled": 0, "fusion_lon": 0.0, "rental_uris": {"android": "https://dc.lft.to/lastmile_qr_scan", "ios": "https://dc.lft.to/lastmile_qr_scan"}, "type": "electric_bike", "fusion_lat": 0.0, "lat": 38.909044, "lon": -77.089959, "is_reserved": 0}, {"bike_id": "782c9aefa02bf56c4a00944ef4fb6e2d", "name": "782c9aefa02bf56c4a00944ef4fb6e2d", "is_disabled": 0, "fusion_lon": 0.0, "rental_uris": {"android": "https://dc.lft.to/lastmile_qr_scan", "ios": "https://dc.lft.to/lastmile_qr_scan"}, "type": "electric_scooter", "fusion_lat": 0.0, "lat": 38.936993666666666, "lon": -77.05939333333333, "is_reserved": 0}, {"bike_id": "b24700bc6f539fc1bafb819e2c05133d", "name": "b24700bc6f539fc1bafb819e2c05133d", "is_disabled": 0, "fusion_lon": 0.0, "rental_uris": {"android": "https://dc.lft.to/lastmile_qr_scan", "ios": "https://dc.lft.to/lastmile_qr_scan"}, "type": "electric_scooter", "fusion_lat": 0.0, "lat": 38.9201715, "lon": -77.07147516666667, "is_reserved": 0}, {"bike_id": "49f8dd8e17cb3dd2702cd16857845db2", "name": "49f8dd8e17cb3dd2702cd16857845db2", "is_disabled": 0, "fusion_lon": 0.0, "rental_uris": {"android": "https://dc.lft.to/lastmile_qr_scan", "ios": "https://dc.lft.to/lastmile_qr_scan"}, "type": "electric_scooter", "fusion_lat": 0.0, "lat": 38.89226333333333, "lon": -77.03217816666667, "is_reserved": 0}, {"bike_id": "f0b82191ad67cff226b0fd55f41d1acb", "name": "f0b82191ad67cff226b0fd55f41d1acb", "is_disabled": 0, "fusion_lon": 0.0, "rental_uris": {"android": "https://dc.lft.to/lastmile_qr_scan", "ios": "https://dc.lft.to/lastmile_qr_scan"}, "type": "electric_scooter", "fusion_lat": 0.0, "lat": 38.91070533333333, "lon": -77.02715533333334, "is_reserved": 0}, {"bike_id": "12e43060155fbbf2995ce1b09a04360a", "name": "12e43060155fbbf2995ce1b09a04360a", "is_disabled": 0, "fusion_lon": 0.0, "rental_uris": {"android": "https://dc.lft.to/lastmile_qr_scan", "ios": "https://dc.lft.to/lastmile_qr_scan"}, "type": "electric_bike", "fusion_lat": 0.0, "lat": 38.991883, "lon": -77.09568066666667, "is_reserved": 0}, {"bike_id": "f3d7d86d3debd91e629a8c782d2cdba2", "name": "f3d7d86d3debd91e629a8c782d2cdba2", "is_disabled": 0, "fusion_lon": 0.0, "rental_uris": {"android": "https://dc.lft.to/lastmile_qr_scan", "ios": "https://dc.lft.to/lastmile_qr_scan"}, "type": "electric_scooter", "fusion_lat": 0.0, "lat": 38.89717366666667, "lon": -76.9785105, "is_reserved": 0}, {"bike_id": "680aed2b4e5d19922881bcc339f239e1", "name": "680aed2b4e5d19922881bcc339f239e1", "is_disabled": 0, "fusion_lon": 0.0, "rental_uris": {"android": "https://dc.lft.to/lastmile_qr_scan", "ios": "https://dc.lft.to/lastmile_qr_scan"}, "type": "electric_scooter", "fusion_lat": 0.0, "lat": 38.89541583333333, "lon": -76.9833355, "is_reserved": 0}, {"bike_id": "ba8b4092dc0db47d85baa8c2ac501056", "name": "ba8b4092dc0db47d85baa8c2ac501056", "is_disabled": 0, "fusion_lon": 0.0, "rental_uris": {"android": "https://dc.lft.to/lastmile_qr_scan", "ios": "https://dc.lft.to/lastmile_qr_scan"}, "type": "electric_scooter", "fusion_lat": 0.0, "lat": 38.933944, "lon": -77.0574265, "is_reserved": 0}, {"bike_id": "06c79e4dcb85459fdcaac67651bd2d64", "name": "06c79e4dcb85459fdcaac67651bd2d64", "is_disabled": 0, "fusion_lon": 0.0, "rental_uris": {"android": "https://dc.lft.to/lastmile_qr_scan", "ios": "https://dc.lft.to/lastmile_qr_scan"}, "type": "electric_scooter", "fusion_lat": 0.0, "lat": 38.931116333333335, "lon": -77.02140466666667, "is_reserved": 0}, {"bike_id": "9cb77845777cc75650aab7497af29e7c", "name": "9cb77845777cc75650aab7497af29e7c", "is_disabled": 0, "fusion_lon": 0.0, "rental_uris": {"android": "https://dc.lft.to/lastmile_qr_scan", "ios": "https://dc.lft.to/lastmile_qr_scan"}, "type": "electric_scooter", "fusion_lat": 0.0, "lat": 38.89369966666667, "lon": -77.046734, "is_reserved": 0}, {"bike_id": "561ada57701f9f489cf49b8b23a43c14", "name": "561ada57701f9f489cf49b8b23a43c14", "is_disabled": 0, "fusion_lon": 0.0, "rental_uris": {"android": "https://dc.lft.to/lastmile_qr_scan", "ios": "https://dc.lft.to/lastmile_qr_scan"}, "type": "electric_scooter", "fusion_lat": 0.0, "lat": 38.9367345, "lon": -77.03276266666667, "is_reserved": 0}, {"bike_id": "83bf9c1d689a7ef962e7d34584783174", "name": "83bf9c1d689a7ef962e7d34584783174", "is_disabled": 0, "fusion_lon": 0.0, "rental_uris": {"android": "https://dc.lft.to/lastmile_qr_scan", "ios": "https://dc.lft.to/lastmile_qr_scan"}, "type": "electric_scooter", "fusion_lat": 0.0, "lat": 38.8990275, "lon": -77.00969916666666, "is_reserved": 0}, {"bike_id": "00f7e7335b383d419a4cb2a7227081cb", "name": "00f7e7335b383d419a4cb2a7227081cb", "is_disabled": 0, "fusion_lon": 0.0, "rental_uris": {"android": "https://dc.lft.to/lastmile_qr_scan", "ios": "https://dc.lft.to/lastmile_qr_scan"}, "type": "electric_scooter", "fusion_lat": 0.0, "lat": 38.90024666666667, "lon": -76.98594583333333, "is_reserved": 0}, {"bike_id": "8fef13ddc460b13c402e043bb16bb3bc", "name": "8fef13ddc460b13c402e043bb16bb3bc", "is_disabled": 0, "fusion_lon": 0.0, "rental_uris": {"android": "https://dc.lft.to/lastmile_qr_scan", "ios": "https://dc.lft.to/lastmile_qr_scan"}, "type": "electric_scooter", "fusion_lat": 0.0, "lat": 38.924741, "lon": -77.022163, "is_reserved": 0}, {"bike_id": "ddaf345dfbae9063ffa1ccad7e95555b", "name": "ddaf345dfbae9063ffa1ccad7e95555b", "is_disabled": 0, "fusion_lon": 0.0, "rental_uris": {"android": "https://dc.lft.to/lastmile_qr_scan", "ios": "https://dc.lft.to/lastmile_qr_scan"}, "type": "electric_bike", "fusion_lat": 0.0, "lat": 38.873413666666664, "lon": -76.991504, "is_reserved": 0}, {"bike_id": "4a241f50b3610471ed5ed27dac77fc9f", "name": "4a241f50b3610471ed5ed27dac77fc9f", "is_disabled": 0, "fusion_lon": 0.0, "rental_uris": {"android": "https://dc.lft.to/lastmile_qr_scan", "ios": "https://dc.lft.to/lastmile_qr_scan"}, "type": "electric_scooter", "fusion_lat": 0.0, "lat": 38.90253166666667, "lon": -77.026353, "is_reserved": 0}, {"bike_id": "535c00f4bd3554a68328839a1a549e9f", "name": "535c00f4bd3554a68328839a1a549e9f", "is_disabled": 0, "fusion_lon": 0.0, "rental_uris": {"android": "https://dc.lft.to/lastmile_qr_scan", "ios": "https://dc.lft.to/lastmile_qr_scan"}, "type": "electric_scooter", "fusion_lat": 0.0, "lat": 38.8923835, "lon": -77.03186083333334, "is_reserved": 0}, {"bike_id": "beb875914188b0eb7c33deb91e7133d1", "name": "beb875914188b0eb7c33deb91e7133d1", "is_disabled": 0, "fusion_lon": 0.0, "rental_uris": {"android": "https://dc.lft.to/lastmile_qr_scan", "ios": "https://dc.lft.to/lastmile_qr_scan"}, "type": "electric_scooter", "fusion_lat": 0.0, "lat": 38.8956005, "lon": -77.03022166666666, "is_reserved": 0}, {"bike_id": "c66c1631ea50042c5762dc42cf7b1b84", "name": "c66c1631ea50042c5762dc42cf7b1b84", "is_disabled": 0, "fusion_lon": 0.0, "rental_uris": {"android": "https://dc.lft.to/lastmile_qr_scan", "ios": "https://dc.lft.to/lastmile_qr_scan"}, "type": "electric_scooter", "fusion_lat": 0.0, "lat": 38.920398, "lon": -77.01720983333334, "is_reserved": 0}, {"bike_id": "2d040f6100e9fb5e3b9e09447e27d462", "name": "2d040f6100e9fb5e3b9e09447e27d462", "is_disabled": 0, "fusion_lon": 0.0, "rental_uris": {"android": "https://dc.lft.to/lastmile_qr_scan", "ios": "https://dc.lft.to/lastmile_qr_scan"}, "type": "electric_bike", "fusion_lat": 0.0, "lat": 38.929748833333335, "lon": -77.2256125, "is_reserved": 0}, {"bike_id": "cd971bbbcabbcf02b9f16959d25dd654", "name": "cd971bbbcabbcf02b9f16959d25dd654", "is_disabled": 0, "fusion_lon": 0.0, "rental_uris": {"android": "https://dc.lft.to/lastmile_qr_scan", "ios": "https://dc.lft.to/lastmile_qr_scan"}, "type": "electric_scooter", "fusion_lat": 0.0, "lat": 38.87733983333333, "lon": -77.01062016666667, "is_reserved": 0}, {"bike_id": "c028be1642495825f042a0ba3a1f9a97", "name": "c028be1642495825f042a0ba3a1f9a97", "is_disabled": 0, "fusion_lon": 0.0, "rental_uris": {"android": "https://dc.lft.to/lastmile_qr_scan", "ios": "https://dc.lft.to/lastmile_qr_scan"}, "type": "electric_scooter", "fusion_lat": 0.0, "lat": 38.917060666666664, "lon": -77.0115915, "is_reserved": 0}, {"bike_id": "047d0d232dc9459780b962fc7cfc01cb", "name": "047d0d232dc9459780b962fc7cfc01cb", "is_disabled": 0, "fusion_lon": 0.0, "rental_uris": {"android": "https://dc.lft.to/lastmile_qr_scan", "ios": "https://dc.lft.to/lastmile_qr_scan"}, "type": "electric_scooter", "fusion_lat": 0.0, "lat": 38.905266833333336, "lon": -77.02686583333333, "is_reserved": 0}, {"bike_id": "743a48c8ba59850169a17ba2b4f03ded", "name": "743a48c8ba59850169a17ba2b4f03ded", "is_disabled": 0, "fusion_lon": 0.0, "rental_uris": {"android": "https://dc.lft.to/lastmile_qr_scan", "ios": "https://dc.lft.to/lastmile_qr_scan"}, "type": "electric_scooter", "fusion_lat": 0.0, "lat": 38.892190666666664, "lon": -77.04866633333333, "is_reserved": 0}, {"bike_id": "83dc4c22232571c80c740de5b8d93005", "name": "83dc4c22232571c80c740de5b8d93005", "is_disabled": 0, "fusion_lon": 0.0, "rental_uris": {"android": "https://dc.lft.to/lastmile_qr_scan", "ios": "https://dc.lft.to/lastmile_qr_scan"}, "type": "electric_scooter", "fusion_lat": 0.0, "lat": 38.901777333333335, "lon": -76.92945833333333, "is_reserved": 0}, {"bike_id": "02f8086d5ca709f5046341bf971d19c6", "name": "02f8086d5ca709f5046341bf971d19c6", "is_disabled": 0, "fusion_lon": 0.0, "rental_uris": {"android": "https://dc.lft.to/lastmile_qr_scan", "ios": "https://dc.lft.to/lastmile_qr_scan"}, "type": "electric_scooter", "fusion_lat": 0.0, "lat": 38.920482666666665, "lon": -77.03421083333333, "is_reserved": 0}, {"bike_id": "9b0b57d1039d7eefd9d8a25ddbc74050", "name": "9b0b57d1039d7eefd9d8a25ddbc74050", "is_disabled": 0, "fusion_lon": 0.0, "rental_uris": {"android": "https://dc.lft.to/lastmile_qr_scan", "ios": "https://dc.lft.to/lastmile_qr_scan"}, "type": "electric_scooter", "fusion_lat": 0.0, "lat": 38.88554516666667, "lon": -77.02001383333334, "is_reserved": 0}, {"bike_id": "fa0dd8dc1178f31540bc776944316518", "name": "fa0dd8dc1178f31540bc776944316518", "is_disabled": 0, "fusion_lon": 0.0, "rental_uris": {"android": "https://dc.lft.to/lastmile_qr_scan", "ios": "https://dc.lft.to/lastmile_qr_scan"}, "type": "electric_scooter", "fusion_lat": 0.0, "lat": 38.9024635, "lon": -77.00701766666667, "is_reserved": 0}, {"bike_id": "1426aee7e6cd39ebbadf0c07bf4e7237", "name": "1426aee7e6cd39ebbadf0c07bf4e7237", "is_disabled": 0, "fusion_lon": 0.0, "rental_uris": {"android": "https://dc.lft.to/lastmile_qr_scan", "ios": "https://dc.lft.to/lastmile_qr_scan"},