{"data": {"bikes": [{"is_disabled": 0, "is_reserved": 0, "type": "electric_bike", "lon": -76.9159405, "fusion_lon": 0.0, "lat": 38.880099666666666, "rental_uris": {"android": "https://dc.lft.to/lastmile_qr_scan", "ios": "https://dc.lft.to/lastmile_qr_scan"}, "fusion_lat": 0.0, "name": "38cc27582e9c86fcffa3da056b57bbd4", "bike_id": "38cc27582e9c86fcffa3da056b57bbd4"}, {"is_disabled": 0, "is_reserved": 0, "type": "electric_bike", "lon": -76.97900516666667, "fusion_lon": 0.0, "lat": 38.854958833333335, "rental_uris": {"android": "https://dc.lft.to/lastmile_qr_scan", "ios": "https://dc.lft.to/lastmile_qr_scan"}, "fusion_lat": 0.0, "name": "b60c91fca705455eadb8554290096ca0", "bike_id": "b60c91fca705455eadb8554290096ca0"}, {"is_disabled": 0, "is_reserved": 0, "type": "electric_scooter", "lon": -76.99865016666666, "fusion_lon": 0.0, "lat": 38.90011833333333, "rental_uris": {"android": "https://dc.lft.to/lastmile_qr_scan", "ios": "https://dc.lft.to/lastmile_qr_scan"}, "fusion_lat": 0.0, "name": "1ac5d69e60dc8175dd000d2423f706e0", "bike_id": "1ac5d69e60dc8175dd000d2423f706e0"}, {"is_disabled": 0, "is_reserved": 0, "type": "electric_scooter", "lon": -77.00333983333333, "fusion_lon": 0.0, "lat": 38.883213, "rental_uris": {"android": "https://dc.lft.to/lastmile_qr_scan", "ios": "https://dc.lft.to/lastmile_qr_scan"}, "fusion_lat": 0.0, "name": "c2a9883ec80add266e7826bf51c174d5", "bike_id": "c2a9883ec80add266e7826bf51c174d5"}, {"is_disabled": 0, "is_reserved": 0, "type": "electric_scooter", "lon": -77.02933933333334, "fusion_lon": 0.0, "lat": 38.895261833333336, "rental_uris": {"android": "https://dc.lft.to/lastmile_qr_scan", "ios": "https://dc.lft.to/lastmile_qr_scan"}, "fusion_lat": 0.0, "name": "defa9ce7022076ce93678759967c582d", "bike_id": "defa9ce7022076ce93678759967c582d"}, {"is_disabled": 0, "is_reserved": 0, "type": "electric_scooter", "lon": -77.06642566666666, "fusion_lon": 0.0, "lat": 38.9035545, "rental_uris": {"android": "https://dc.lft.to/lastmile_qr_scan", "ios": "https://dc.lft.to/lastmile_qr_scan"}, "fusion_lat": 0.0, "name": "5d20e05cdd483e98e677cf2edd5e5027", "bike_id": "5d20e05cdd483e98e677cf2edd5e5027"}, {"is_disabled": 0, "is_reserved": 0, "type": "electric_scooter", "lon": -76.983379, "fusion_lon": 0.0, "lat": 38.912695666666664, "rental_uris": {"android": "https://dc.lft.to/lastmile_qr_scan", "ios": "https://dc.lft.to/lastmile_qr_scan"}, "fusion_lat": 0.0, "name": "2bf756a06ee6f5ca2f94d5a231407c6d", "bike_id": "2bf756a06ee6f5ca2f94d5a231407c6d"}, {"is_disabled": 0, "is_reserved": 0, "type": "electric_scooter", "lon": -77.02793483333333, "fusion_lon": 0.0, "lat": 38.930866, "rental_uris": {"android": "https://dc.lft.to/lastmile_qr_scan", "ios": "https://dc.lft.to/lastmile_qr_scan"}, "fusion_lat": 0.0, "name": "9622f571a1a5e60121fa5fcc7dd26ad2", "bike_id": "9622f571a1a5e60121fa5fcc7dd26ad2"}, {"is_disabled": 0, "is_reserved": 0, "type": "electric_scooter", "lon": -77.02810666666667, "fusion_lon": 0.0, "lat": 38.9617745, "rental_uris": {"android": "https://dc.lft.to/lastmile_qr_scan", "ios": "https://dc.lft.to/lastmile_qr_scan"}, "fusion_lat": 0.0, "name": "fe1d0d8bf8cf71b6c7ae3e869b44803a", "bike_id": "fe1d0d8bf8cf71b6c7ae3e869b44803a"}, {"is_disabled": 0, "is_reserved": 0, "type": "electric_scooter", "lon": -77.008359, "fusion_lon": 0.0, "lat": 38.8764215, "rental_uris": {"android": "https://dc.lft.to/lastmile_qr_scan", "ios": "https://dc.lft.to/lastmile_qr_scan"}, "fusion_lat": 0.0, "name": "62ff9f1ccf38b36c1ccee9a0c301b7db", "bike_id": "62ff9f1ccf38b36c1ccee9a0c301b7db"}, {"is_disabled": 0, "is_reserved": 0, "type": "electric_scooter", "lon": -76.9953485, "fusion_lon": 0.0, "lat": 38.862537, "rental_uris": {"android": "https://dc.lft.to/lastmile_qr_scan", "ios": "https://dc.lft.to/lastmile_qr_scan"}, "fusion_lat": 0.0, "name": "297dbf2d1dcf9df63b963ee619f4ad84", "bike_id": "297dbf2d1dcf9df63b963ee619f4ad84"}, {"is_disabled": 0, "is_reserved": 0, "type": "electric_scooter", "lon": -77.05084866666667, "fusion_lon": 0.0, "lat": 38.900679333333336, "rental_uris": {"android": "https://dc.lft.to/lastmile_qr_scan", "ios": "https://dc.lft.to/lastmile_qr_scan"}, "fusion_lat": 0.0, "name": "a3008a41d37b294acdd2929d6bf973b5", "bike_id": "a3008a41d37b294acdd2929d6bf973b5"}, {"is_disabled": 0, "is_reserved": 0, "type": "electric_scooter", "lon": -77.05096516666667, "fusion_lon": 0.0, "lat": 38.923411, "rental_uris": {"android": "https://dc.lft.to/lastmile_qr_scan", "ios": "https://dc.lft.to/lastmile_qr_scan"}, "fusion_lat": 0.0, "name": "3fc4d5dede55f50f4931f74721d83fa2", "bike_id": "3fc4d5dede55f50f4931f74721d83fa2"}, {"is_disabled": 0, "is_reserved": 0, "type": "electric_bike", "lon": -76.90816533333333, "fusion_lon": 0.0, "lat": 38.994557, "rental_uris": {"android": "https://dc.lft.to/lastmile_qr_scan", "ios": "https://dc.lft.to/lastmile_qr_scan"}, "fusion_lat": 0.0, "name": "0559587ace52de7327b20d0ac09277bf", "bike_id": "0559587ace52de7327b20d0ac09277bf"}, {"is_disabled": 0, "is_reserved": 0, "type": "electric_scooter", "lon": -76.94893733333333, "fusion_lon": 0.0, "lat": 38.8952925, "rental_uris": {"android": "https://dc.lft.to/lastmile_qr_scan", "ios": "https://dc.lft.to/lastmile_qr_scan"}, "fusion_lat": 0.0, "name": "aed8c92a2cfa10cdccffaa4f6ebaa63f", "bike_id": "aed8c92a2cfa10cdccffaa4f6ebaa63f"}, {"is_disabled": 0, "is_reserved": 0, "type": "electric_scooter", "lon": -77.0163585, "fusion_lon": 0.0, "lat": 38.88321116666667, "rental_uris": {"android": "https://dc.lft.to/lastmile_qr_scan", "ios": "https://dc.lft.to/lastmile_qr_scan"}, "fusion_lat": 0.0, "name": "b8f8f8b14ea2ca9771c995a124cb5a1d", "bike_id": "b8f8f8b14ea2ca9771c995a124cb5a1d"}, {"is_disabled": 0, "is_reserved": 0, "type": "electric_scooter", "lon": -77.01732566666666, "fusion_lon": 0.0, "lat": 38.97519533333333, "rental_uris": {"android": "https://dc.lft.to/lastmile_qr_scan", "ios": "https://dc.lft.to/lastmile_qr_scan"}, "fusion_lat": 0.0, "name": "f4a2f3c38d9205880aff86243797ae51", "bike_id": "f4a2f3c38d9205880aff86243797ae51"}, {"is_disabled": 0, "is_reserved": 0, "type": "electric_scooter", "lon": -77.037992, "fusion_lon": 0.0, "lat": 38.936022666666666, "rental_uris": {"android": "https://dc.lft.to/lastmile_qr_scan", "ios": "https://dc.lft.to/lastmile_qr_scan"}, "fusion_lat": 0.0, "name": "77f0a29ee6073eb956e7da06b0436a67", "bike_id": "77f0a29ee6073eb956e7da06b0436a67"}, {"is_disabled": 0, "is_reserved": 0, "type": "electric_scooter", "lon": -77.02004666666667, "fusion_lon": 0.0, "lat": 38.915669, "rental_uris": {"android": "https://dc.lft.to/lastmile_qr_scan", "ios": "https://dc.lft.to/lastmile_qr_scan"}, "fusion_lat": 0.0, "name": "92dead3eedb2694422a27d8c88fedf85", "bike_id": "92dead3eedb2694422a27d8c88fedf85"}, {"is_disabled": 0, "is_reserved": 0, "type": "electric_scooter", "lon": -76.9983735, "fusion_lon": 0.0, "lat": 38.90034283333333, "rental_uris": {"android": "https://dc.lft.to/lastmile_qr_scan", "ios": "https://dc.lft.to/lastmile_qr_scan"}, "fusion_lat": 0.0, "name": "861db19b444c2488e64b6306e939328b", "bike_id": "861db19b444c2488e64b6306e939328b"}, {"is_disabled": 0, "is_reserved": 0, "type": "electric_scooter", "lon": -77.02435533333333, "fusion_lon": 0.0, "lat": 38.920368, "rental_uris": {"android": "https://dc.lft.to/lastmile_qr_scan", "ios": "https://dc.lft.to/lastmile_qr_scan"}, "fusion_lat": 0.0, "name": "13df9c4fb25b42dbf3f4a775f0d6526e", "bike_id": "13df9c4fb25b42dbf3f4a775f0d6526e"}, {"is_disabled": 0, "is_reserved": 0, "type": "electric_scooter", "lon": -76.912293, "fusion_lon": 0.0, "lat": 38.89397733333333, "rental_uris": {"android": "https://dc.lft.to/lastmile_qr_scan", "ios": "https://dc.lft.to/lastmile_qr_scan"}, "fusion_lat": 0.0, "name": "838a473a8ca253a0e7be4974b77968fd", "bike_id": "838a473a8ca253a0e7be4974b77968fd"}, {"is_disabled": 0, "is_reserved": 0, "type": "electric_scooter", "lon": -76.98808866666667, "fusion_lon": 0.0, "lat": 38.90826466666667, "rental_uris": {"android": "https://dc.lft.to/lastmile_qr_scan", "ios": "https://dc.lft.to/lastmile_qr_scan"}, "fusion_lat": 0.0, "name": "8407cdf1563df3c81e95f9e55ddb2d0f", "bike_id": "8407cdf1563df3c81e95f9e55ddb2d0f"}, {"is_disabled": 0, "is_reserved": 0, "type": "electric_scooter", "lon": -77.02670233333333, "fusion_lon": 0.0, "lat": 38.924776, "rental_uris": {"android": "https://dc.lft.to/lastmile_qr_scan", "ios": "https://dc.lft.to/lastmile_qr_scan"}, "fusion_lat": 0.0, "name": "b4b7e48c89bd6ba0abd211f1e79f61df", "bike_id": "b4b7e48c89bd6ba0abd211f1e79f61df"}, {"is_disabled": 0, "is_reserved": 0, "type": "electric_scooter", "lon": -76.94705766666667, "fusion_lon": 0.0, "lat": 38.897186833333336, "rental_uris": {"android": "https://dc.lft.to/lastmile_qr_scan", "ios": "https://dc.lft.to/lastmile_qr_scan"}, "fusion_lat": 0.0, "name": "b7c17bc985f0140f7c3f29fe88b0615c", "bike_id": "b7c17bc985f0140f7c3f29fe88b0615c"}, {"is_disabled": 0, "is_reserved": 0, "type": "electric_scooter", "lon": -77.03457283333333, "fusion_lon": 0.0, "lat": 38.9216015, "rental_uris": {"android": "https://dc.lft.to/lastmile_qr_scan", "ios": "https://dc.lft.to/lastmile_qr_scan"}, "fusion_lat": 0.0, "name": "905023c9427398ee4f3c3b0639128c1c", "bike_id": "905023c9427398ee4f3c3b0639128c1c"}, {"is_disabled": 0, "is_reserved": 0, "type": "electric_scooter", "lon": -77.068379, "fusion_lon": 0.0, "lat": 38.952158833333336, "rental_uris": {"android": "https://dc.lft.to/lastmile_qr_scan", "ios": "https://dc.lft.to/lastmile_qr_scan"}, "fusion_lat": 0.0, "name": "6c9e6121550d7c2a92da8c1d9ab42a72", "bike_id": "6c9e6121550d7c2a92da8c1d9ab42a72"}, {"is_disabled": 0, "is_reserved": 0, "type": "electric_scooter", "lon": -77.0450025, "fusion_lon": 0.0, "lat": 38.90791133333333, "rental_uris": {"android": "https://dc.lft.to/lastmile_qr_scan", "ios": "https://dc.lft.to/lastmile_qr_scan"}, "fusion_lat": 0.0, "name": "453a390459e98781cc5c3395c7fb3724", "bike_id": "453a390459e98781cc5c3395c7fb3724"}, {"is_disabled": 0, "is_reserved": 0, "type": "electric_scooter", "lon": -77.04376683333334, "fusion_lon": 0.0, "lat": 38.91049683333333, "rental_uris": {"android": "https://dc.lft.to/lastmile_qr_scan", "ios": "https://dc.lft.to/lastmile_qr_scan"}, "fusion_lat": 0.0, "name": "130eb7b2dd302387abcc928ed40ab39b", "bike_id": "130eb7b2dd302387abcc928ed40ab39b"}, {"is_disabled": 0, "is_reserved": 0, "type": "electric_scooter", "lon": -77.02997733333333, "fusion_lon": 0.0, "lat": 38.922492, "rental_uris": {"android": "https://dc.lft.to/lastmile_qr_scan", "ios": "https://dc.lft.to/lastmile_qr_scan"}, "fusion_lat": 0.0, "name": "5846746a132f08e232f56ec3b7882dc3", "bike_id": "5846746a132f08e232f56ec3b7882dc3"}, {"is_disabled": 0, "is_reserved": 0, "type": "electric_scooter", "lon": -77.02705433333334, "fusion_lon": 0.0, "lat": 38.900876833333335, "rental_uris": {"android": "https://dc.lft.to/lastmile_qr_scan", "ios": "https://dc.lft.to/lastmile_qr_scan"}, "fusion_lat": 0.0, "name": "1a200b29ec856b1fc3511679027fbcb1", "bike_id": "1a200b29ec856b1fc3511679027fbcb1"}, {"is_disabled": 0, "is_reserved": 0, "type": "electric_scooter", "lon": -77.0211705, "fusion_lon": 0.0, "lat": 38.91738516666667, "rental_uris": {"android": "https://dc.lft.to/lastmile_qr_scan", "ios": "https://dc.lft.to/lastmile_qr_scan"}, "fusion_lat": 0.0, "name": "b2eb05ca5fa07f993eef626f970bf207", "bike_id": "b2eb05ca5fa07f993eef626f970bf207"}, {"is_disabled": 0, "is_reserved": 0, "type": "electric_scooter", "lon": -77.01473083333333, "fusion_lon": 0.0, "lat": 38.87629366666667, "rental_uris": {"android": "https://dc.lft.to/lastmile_qr_scan", "ios": "https://dc.lft.to/lastmile_qr_scan"}, "fusion_lat": 0.0, "name": "15335c05db59ba438e310483b1f3768f", "bike_id": "15335c05db59ba438e310483b1f3768f"}, {"is_disabled": 0, "is_reserved": 0, "type": "electric_scooter", "lon": -77.00563916666667, "fusion_lon": 0.0, "lat": 38.885058, "rental_uris": {"android": "https://dc.lft.to/lastmile_qr_scan", "ios": "https://dc.lft.to/lastmile_qr_scan"}, "fusion_lat": 0.0, "name": "a981aaabf96ee3a45bd1e321d3cfbb64", "bike_id": "a981aaabf96ee3a45bd1e321d3cfbb64"}, {"is_disabled": 0, "is_reserved": 0, "type": "electric_scooter", "lon": -76.97973716666667, "fusion_lon": 0.0, "lat": 38.88767816666667, "rental_uris": {"android": "https://dc.lft.to/lastmile_qr_scan", "ios": "https://dc.lft.to/lastmile_qr_scan"}, "fusion_lat": 0.0, "name": "5d06a4f2b47502237bb18f4fceee4e01", "bike_id": "5d06a4f2b47502237bb18f4fceee4e01"}, {"is_disabled": 0, "is_reserved": 0, "type": "electric_scooter", "lon": -76.990061, "fusion_lon": 0.0, "lat": 38.86506766666667, "rental_uris": {"android": "https://dc.lft.to/lastmile_qr_scan", "ios": "https://dc.lft.to/lastmile_qr_scan"}, "fusion_lat": 0.0, "name": "faf2a08e2076e4abe0433845c31cf331", "bike_id": "faf2a08e2076e4abe0433845c31cf331"}, {"is_disabled": 0, "is_reserved": 0, "type": "electric_scooter", "lon": -77.03188116666666, "fusion_lon": 0.0, "lat": 38.9329895, "rental_uris": {"android": "https://dc.lft.to/lastmile_qr_scan", "ios": "https://dc.lft.to/lastmile_qr_scan"}, "fusion_lat": 0.0, "name": "43b766c6ed7696f1f5c60a40a9137011", "bike_id": "43b766c6ed7696f1f5c60a40a9137011"}, {"is_disabled": 0, "is_reserved": 0, "type": "electric_scooter", "lon": -77.0230835, "fusion_lon": 0.0, "lat": 38.917214666666666, "rental_uris": {"android": "https://dc.lft.to/lastmile_qr_scan", "ios": "https://dc.lft.to/lastmile_qr_scan"}, "fusion_lat": 0.0, "name": "6dd5bb0c0e62e4340c3eb2cbf019cc87", "bike_id": "6dd5bb0c0e62e4340c3eb2cbf019cc87"}, {"is_disabled": 0, "is_reserved": 0, "type": "electric_scooter", "lon": -77.03188683333333, "fusion_lon": 0.0, "lat": 38.91964133333333, "rental_uris": {"android": "https://dc.lft.to/lastmile_qr_scan", "ios": "https://dc.lft.to/lastmile_qr_scan"}, "fusion_lat": 0.0, "name": "3750263fccbbc890a2aeaeef96e2864e", "bike_id": "3750263fccbbc890a2aeaeef96e2864e"}, {"is_disabled": 0, "is_reserved": 0, "type": "electric_scooter", "lon": -77.04178166666667, "fusion_lon": 0.0, "lat": 38.9080905, "rental_uris": {"android": "https://dc.lft.to/lastmile_qr_scan", "ios": "https://dc.lft.to/lastmile_qr_scan"}, "fusion_lat": 0.0, "name": "4d8d85f9c87a3a72e5d0e03a6dff9a44", "bike_id": "4d8d85f9c87a3a72e5d0e03a6dff9a44"}, {"is_disabled": 0, "is_reserved": 0, "type": "electric_scooter", "lon": -77.02575616666667, "fusion_lon": 0.0, "lat": 38.89220783333333, "rental_uris": {"android": "https://dc.lft.to/lastmile_qr_scan", "ios": "https://dc.lft.to/lastmile_qr_scan"}, "fusion_lat": 0.0, "name": "177764ddf0a74c4cae8905ecf6a9b414", "bike_id": "177764ddf0a74c4cae8905ecf6a9b414"}, {"is_disabled": 0, "is_reserved": 0, "type": "electric_scooter", "lon": -76.99081216666667, "fusion_lon": 0.0, "lat": 38.860491833333334, "rental_uris": {"android": "https://dc.lft.to/lastmile_qr_scan", "ios": "https://dc.lft.to/lastmile_qr_scan"}, "fusion_lat": 0.0, "name": "d4588046fd6b4d76ca08a09262a8f976", "bike_id": "d4588046fd6b4d76ca08a09262a8f976"}, {"is_disabled": 0, "is_reserved": 0, "type": "electric_scooter", "lon": -77.05009833333334, "fusion_lon": 0.0, "lat": 38.90515933333333, "rental_uris": {"android": "https://dc.lft.to/lastmile_qr_scan", "ios": "https://dc.lft.to/lastmile_qr_scan"}, "fusion_lat": 0.0, "name": "e09d59bd768b4aa9350ebe022b4361fa", "bike_id": "e09d59bd768b4aa9350ebe022b4361fa"}, {"is_disabled": 0, "is_reserved": 0, "type": "electric_scooter", "lon": -77.06251383333333, "fusion_lon": 0.0, "lat": 38.913199666666664, "rental_uris": {"android": "https://dc.lft.to/lastmile_qr_scan", "ios": "https://dc.lft.to/lastmile_qr_scan"}, "fusion_lat": 0.0, "name": "d4a6ab42fd10a457ad0dda69d40b27ba", "bike_id": "d4a6ab42fd10a457ad0dda69d40b27ba"}, {"is_disabled": 0, "is_reserved": 0, "type": "electric_bike", "lon": -77.036442, "fusion_lon": 0.0, "lat": 38.90734783333333, "rental_uris": {"android": "https://dc.lft.to/lastmile_qr_scan", "ios": "https://dc.lft.to/lastmile_qr_scan"}, "fusion_lat": 0.0, "name": "bf0e65f49f8e9872a03dd49ebf19ea19", "bike_id": "bf0e65f49f8e9872a03dd49ebf19ea19"}, {"is_disabled": 0, "is_reserved": 0, "type": "electric_scooter", "lon": -77.01992716666666, "fusion_lon": 0.0, "lat": 38.966374333333334, "rental_uris": {"android": "https://dc.lft.to/lastmile_qr_scan", "ios": "https://dc.lft.to/lastmile_qr_scan"}, "fusion_lat": 0.0, "name": "59635a5f2c7e7442bf6581c245bac358", "bike_id": "59635a5f2c7e7442bf6581c245bac358"}, {"is_disabled": 0, "is_reserved": 0, "type": "electric_scooter", "lon": -77.03317533333333, "fusion_lon": 0.0, "lat": 38.915629833333334, "rental_uris": {"android": "https://dc.lft.to/lastmile_qr_scan", "ios": "https://dc.lft.to/lastmile_qr_scan"}, "fusion_lat": 0.0, "name": "ba7e098401cf5ce3fe017ae9e187e3fa", "bike_id": "ba7e098401cf5ce3fe017ae9e187e3fa"}, {"is_disabled": 0, "is_reserved": 0, "type": "electric_scooter", "lon": -77.04675483333334, "fusion_lon": 0.0, "lat": 38.892221166666666, "rental_uris": {"android": "https://dc.lft.to/lastmile_qr_scan", "ios": "https://dc.lft.to/lastmile_qr_scan"}, "fusion_lat": 0.0, "name": "df119894fd32e79a441ff6693028e4cb", "bike_id": "df119894fd32e79a441ff6693028e4cb"}, {"is_disabled": 0, "is_reserved": 0, "type": "electric_scooter", "lon": -76.9881255, "fusion_lon": 0.0, "lat": 38.90012933333333, "rental_uris": {"android": "https://dc.lft.to/lastmile_qr_scan", "ios": "https://dc.lft.to/lastmile_qr_scan"}, "fusion_lat": 0.0, "name": "c775ec7eb82d7d8eada994009ff3ef92", "bike_id": "c775ec7eb82d7d8eada994009ff3ef92"}, {"is_disabled": 0, "is_reserved": 0, "type": "electric_scooter", "lon": -77.01207233333334, "fusion_lon": 0.0, "lat": 38.9258775, "rental_uris": {"android": "https://dc.lft.to/lastmile_qr_scan", "ios": "https://dc.lft.to/lastmile_qr_scan"}, "fusion_lat": 0.0, "name": "af5a1d169e68ba1e76ec7ac026699f48", "bike_id": "af5a1d169e68ba1e76ec7ac026699f48"}, {"is_disabled": 0, "is_reserved": 0, "type": "electric_scooter", "lon": -76.94913116666666, "fusion_lon": 0.0, "lat": 38.89490983333334, "rental_uris": {"android": "https://dc.lft.to/lastmile_qr_scan", "ios": "https://dc.lft.to/lastmile_qr_scan"}, "fusion_lat": 0.0, "name": "390ea4b00405096d90f3fea1df6e9833", "bike_id": "390ea4b00405096d90f3fea1df6e9833"}, {"is_disabled": 0, "is_reserved": 0, "type": "electric_bike", "lon": -76.92161066666667, "fusion_lon": 0.0, "lat": 39.010366, "rental_uris": {"android": "https://dc.lft.to/lastmile_qr_scan", "ios": "https://dc.lft.to/lastmile_qr_scan"}, "fusion_lat": 0.0, "name": "f8079a9de2822512798558f12581a684", "bike_id": "f8079a9de2822512798558f12581a684"}, {"is_disabled": 0, "is_reserved": 0, "type": "electric_scooter", "lon": -77.0398245, "fusion_lon": 0.0, "lat": 38.918092666666666, "rental_uris": {"android": "https://dc.lft.to/lastmile_qr_scan", "ios": "https://dc.lft.to/lastmile_qr_scan"}, "fusion_lat": 0.0, "name": "b575f6aaf30b2aa3ca01e4cfcc95550f", "bike_id": "b575f6aaf30b2aa3ca01e4cfcc95550f"}, {"is_disabled": 0, "is_reserved": 0, "type": "electric_scooter", "lon": -76.9960315, "fusion_lon": 0.0, "lat": 38.884796333333334, "rental_uris": {"android": "https://dc.lft.to/lastmile_qr_scan", "ios": "https://dc.lft.to/lastmile_qr_scan"}, "fusion_lat": 0.0, "name": "8e9815c89317a6c375f164ef02a993e7", "bike_id": "8e9815c89317a6c375f164ef02a993e7"}, {"is_disabled": 0, "is_reserved": 0, "type": "electric_scooter", "lon": -77.01224383333333, "fusion_lon": 0.0, "lat": 38.88581766666667, "rental_uris": {"android": "https://dc.lft.to/lastmile_qr_scan", "ios": "https://dc.lft.to/lastmile_qr_scan"}, "fusion_lat": 0.0, "name": "76b16a4c86ffff54c47ae981cdedb107", "bike_id": "76b16a4c86ffff54c47ae981cdedb107"}, {"is_disabled": 0, "is_reserved": 0, "type": "electric_scooter", "lon": -77.04343616666667, "fusion_lon": 0.0, "lat": 38.91361116666667, "rental_uris": {"android": "https://dc.lft.to/lastmile_qr_scan", "ios": "https://dc.lft.to/lastmile_qr_scan"}, "fusion_lat": 0.0, "name": "3d6d512bca78fe0898888d38ae846f55", "bike_id": "3d6d512bca78fe0898888d38ae846f55"}, {"is_disabled": 0, "is_reserved": 0, "type": "electric_scooter", "lon": -77.022431, "fusion_lon": 0.0, "lat": 38.9247875, "rental_uris": {"android": "https://dc.lft.to/lastmile_qr_scan", "ios": "https://dc.lft.to/lastmile_qr_scan"}, "fusion_lat": 0.0, "name": "528796421d1656a6c8c3b0a94f0244c5", "bike_id": "528796421d1656a6c8c3b0a94f0244c5"}, {"is_disabled": 0, "is_reserved": 0, "type": "electric_scooter", "lon": -77.06349833333333, "fusion_lon": 0.0, "lat": 38.944393833333336, "rental_uris": {"android": "https://dc.lft.to/lastmile_qr_scan", "ios": "https://dc.lft.to/lastmile_qr_scan"}, "fusion_lat": 0.0, "name": "a325a4f43350272331f05ed903fce6ad", "bike_id": "a325a4f43350272331f05ed903fce6ad"}, {"is_disabled": 0, "is_reserved": 0, "type": "electric_scooter", "lon": -76.95757266666666, "fusion_lon": 0.0, "lat": 38.88429566666667, "rental_uris": {"android": "https://dc.lft.to/lastmile_qr_scan", "ios": "https://dc.lft.to/lastmile_qr_scan"}, "fusion_lat": 0.0, "name": "40a248fd00873480565bcb9a225c0276", "bike_id": "40a248fd00873480565bcb9a225c0276"}, {"is_disabled": 0, "is_reserved": 0, "type": "electric_scooter", "lon": -77.01355633333333, "fusion_lon": 0.0, "lat": 38.9038385, "rental_uris": {"android": "https://dc.lft.to/lastmile_qr_scan", "ios": "https://dc.lft.to/lastmile_qr_scan"}, "fusion_lat": 0.0, "name": "7da3b7b00c7ef2d07804cc556e68aa22", "bike_id": "7da3b7b00c7ef2d07804cc556e68aa22"}, {"is_disabled": 0, "is_reserved": 0, "type": "electric_scooter", "lon": -77.05725866666667, "fusion_lon": 0.0, "lat": 38.933684666666664, "rental_uris": {"android": "https://dc.lft.to/lastmile_qr_scan", "ios": "https://dc.lft.to/lastmile_qr_scan"}, "fusion_lat": 0.0, "name": "2a363758b2cf442399de3b16e7686258", "bike_id": "2a363758b2cf442399de3b16e7686258"}, {"is_disabled": 0, "is_reserved": 0, "type": "electric_scooter", "lon": -77.022369, "fusion_lon": 0.0, "lat": 38.905561166666665, "rental_uris": {"android": "https://dc.lft.to/lastmile_qr_scan", "ios": "https://dc.lft.to/lastmile_qr_scan"}, "fusion_lat": 0.0, "name": "8a3cf1f192db1ff63c8bef352a33fa5f", "bike_id": "8a3cf1f192db1ff63c8bef352a33fa5f"}, {"is_disabled": 0, "is_reserved": 0, "type": "electric_bike", "lon": -76.91601333333334, "fusion_lon": 0.0, "lat": 38.87971733333333, "rental_uris": {"android": "https://dc.lft.to/lastmile_qr_scan", "ios": "https://dc.lft.to/lastmile_qr_scan"}, "fusion_lat": 0.0, "name": "c32449c67731b78c2bf4a5fb161fb671", "bike_id": "c32449c67731b78c2bf4a5fb161fb671"}, {"is_disabled": 0, "is_reserved": 0, "type": "electric_scooter", "lon": -77.030912, "fusion_lon": 0.0, "lat": 38.904548, "rental_uris": {"android": "https://dc.lft.to/lastmile_qr_scan", "ios": "https://dc.lft.to/lastmile_qr_scan"}, "fusion_lat": 0.0, "name": "1ad97a087e4ad20793f2d391f7a8bd7b", "bike_id": "1ad97a087e4ad20793f2d391f7a8bd7b"}, {"is_disabled": 0, "is_reserved": 0, "type": "electric_bike", "lon": -76.96837716666667, "fusion_lon": 0.0, "lat": 38.9244445, "rental_uris": {"android": "https://dc.lft.to/lastmile_qr_scan", "ios": "https://dc.lft.to/lastmile_qr_scan"}, "fusion_lat": 0.0, "name": "7a400010cbd99cdc1aadbc6a130793bc", "bike_id": "7a400010cbd99cdc1aadbc6a130793bc"}, {"is_disabled": 0, "is_reserved": 0, "type": "electric_scooter", "lon": -77.03447566666667, "fusion_lon": 0.0, "lat": 38.9642805, "rental_uris": {"android": "https://dc.lft.to/lastmile_qr_scan", "ios": "https://dc.lft.to/lastmile_qr_scan"}, "fusion_lat": 0.0, "name": "301e26810800dd0a7f3f1bf35b06ef38", "bike_id": "301e26810800dd0a7f3f1bf35b06ef38"}, {"is_disabled": 0, "is_reserved": 0, "type": "electric_scooter", "lon": -76.98324416666667, "fusion_lon": 0.0, "lat": 38.86177816666667, "rental_uris": {"android": "https://dc.lft.to/lastmile_qr_scan", "ios": "https://dc.lft.to/lastmile_qr_scan"}, "fusion_lat": 0.0, "name": "b7f792651c91914cacdfaac5e02a04ee", "bike_id": "b7f792651c91914cacdfaac5e02a04ee"}, {"is_disabled": 0, "is_reserved": 0, "type": "electric_scooter", "lon": -77.04720316666666, "fusion_lon": 0.0, "lat": 38.899467666666666, "rental_uris": {"android": "https://dc.lft.to/lastmile_qr_scan", "ios": "https://dc.lft.to/lastmile_qr_scan"}, "fusion_lat": 0.0, "name": "15c1ed6d7257c537f1caf12addf4cc2c", "bike_id": "15c1ed6d7257c537f1caf12addf4cc2c"}, {"is_disabled": 0, "is_reserved": 0, "type": "electric_scooter", "lon": -77.02244333333333, "fusion_lon": 0.0, "lat": 38.8922235, "rental_uris": {"android": "https://dc.lft.to/lastmile_qr_scan", "ios": "https://dc.lft.to/lastmile_qr_scan"}, "fusion_lat": 0.0, "name": "aa6ba5455322e05fa9ecb2fa0619382a", "bike_id": "aa6ba5455322e05fa9ecb2fa0619382a"}, {"is_disabled": 0, "is_reserved": 0, "type": "electric_bike", "lon": -77.1526655, "fusion_lon": 0.0, "lat": 39.105652166666665, "rental_uris": {"android": "https://dc.lft.to/lastmile_qr_scan", "ios": "https://dc.lft.to/lastmile_qr_scan"}, "fusion_lat": 0.0, "name": "4d37fdc957a525b9f431ce05fd4c160b", "bike_id": "4d37fdc957a525b9f431ce05fd4c160b"}, {"is_disabled": 0, "is_reserved": 0, "type": "electric_scooter", "lon": -77.04588966666667, "fusion_lon": 0.0, "lat": 38.909604333333334, "rental_uris": {"android": "https://dc.lft.to/lastmile_qr_scan", "ios": "https://dc.lft.to/lastmile_qr_scan"}, "fusion_lat": 0.0, "name": "8f313009b216c8c41148361d77542042", "bike_id": "8f313009b216c8c41148361d77542042"}, {"is_disabled": 0, "is_reserved": 0, "type": "electric_scooter", "lon": -77.04499216666666, "fusion_lon": 0.0, "lat": 38.896169, "rental_uris": {"android": "https://dc.lft.to/lastmile_qr_scan", "ios": "https://dc.lft.to/lastmile_qr_scan"}, "fusion_lat": 0.0, "name": "ac26f9d1a274dbc4939a96280becfd16", "bike_id": "ac26f9d1a274dbc4939a96280becfd16"}, {"is_disabled": 0, "is_reserved": 0, "type": "electric_scooter", "lon": -77.0506655, "fusion_lon": 0.0, "lat": 38.900907, "rental_uris": {"android": "https://dc.lft.to/lastmile_qr_scan", "ios": "https://dc.lft.to/lastmile_qr_scan"}, "fusion_lat": 0.0, "name": "415bed0ebcab09873d6bb72ce0bd5dc1", "bike_id": "415bed0ebcab09873d6bb72ce0bd5dc1"}, {"is_disabled": 0, "is_reserved": 0, "type": "electric_scooter", "lon": -77.022153, "fusion_lon": 0.0, "lat": 38.89587433333333, "rental_uris": {"android": "https://dc.lft.to/lastmile_qr_scan", "ios": "https://dc.lft.to/lastmile_qr_scan"}, "fusion_lat": 0.0, "name": "476bbca3158af47776b928562b9ed5a9", "bike_id": "476bbca3158af47776b928562b9ed5a9"}, {"is_disabled": 0, "is_reserved": 0, "type": "electric_bike", "lon": -77.1068405, "fusion_lon": 0.0, "lat": 38.935818833333336, "rental_uris": {"android": "https://dc.lft.to/lastmile_qr_scan", "ios": "https://dc.lft.to/lastmile_qr_scan"}, "fusion_lat": 0.0, "name": "98440b4256a3b1536b220bba9558e8ed", "bike_id": "98440b4256a3b1536b220bba9558e8ed"}, {"is_disabled": 0, "is_reserved": 0, "type": "electric_scooter", "lon": -76.9866395, "fusion_lon": 0.0, "lat": 38.90156116666667, "rental_uris": {"android": "https://dc.lft.to/lastmile_qr_scan", "ios": "https://dc.lft.to/lastmile_qr_scan"}, "fusion_lat": 0.0, "name": "5216ef7cb03e03fd42827e6b153373b7", "bike_id": "5216ef7cb03e03fd42827e6b153373b7"}, {"is_disabled": 0, "is_reserved": 0, "type": "electric_scooter", "lon": -77.0331295, "fusion_lon": 0.0, "lat": 38.914139666666664, "rental_uris": {"android": "https://dc.lft.to/lastmile_qr_scan", "ios": "https://dc.lft.to/lastmile_qr_scan"}, "fusion_lat": 0.0, "name": "6d6b6e8554d3c1bd610d8e5b30033369", "bike_id": "6d6b6e8554d3c1bd610d8e5b30033369"}, {"is_disabled": 0, "is_reserved": 0, "type": "electric_scooter", "lon": -76.97910783333333, "fusion_lon": 0.0, "lat": 38.8944035, "rental_uris": {"android": "https://dc.lft.to/lastmile_qr_scan", "ios": "https://dc.lft.to/lastmile_qr_scan"}, "fusion_lat": 0.0, "name": "a60f5cbbe8ccf7d801f423832bee39d4", "bike_id": "a60f5cbbe8ccf7d801f423832bee39d4"}, {"is_disabled": 0, "is_reserved": 0, "type": "electric_bike", "lon": -76.98760216666666, "fusion_lon": 0.0, "lat": 38.857821333333334, "rental_uris": {"android": "https://dc.lft.to/lastmile_qr_scan", "ios": "https://dc.lft.to/lastmile_qr_scan"}, "fusion_lat": 0.0, "name": "79e5d9cdd9ca22a33de623254f53d14e", "bike_id": "79e5d9cdd9ca22a33de623254f53d14e"}, {"is_disabled": 0, "is_reserved": 0, "type": "electric_scooter", "lon": -77.044112, "fusion_lon": 0.0, "lat": 38.91773633333333, "rental_uris": {"android": "https://dc.lft.to/lastmile_qr_scan", "ios": "https://dc.lft.to/lastmile_qr_scan"}, "fusion_lat": 0.0, "name": "41b06ab4903ceeaf03e242073a03a008", "bike_id": "41b06ab4903ceeaf03e242073a03a008"}, {"is_disabled": 0, "is_reserved": 0, "type": "electric_scooter", "lon": -77.01393616666667, "fusion_lon": 0.0, "lat": 38.88027233333333, "rental_uris": {"android": "https://dc.lft.to/lastmile_qr_scan", "ios": "https://dc.lft.to/lastmile_qr_scan"}, "fusion_lat": 0.0, "name": "13e20fa7eed7852b11bf070de52dc0b8", "bike_id": "13e20fa7eed7852b11bf070de52dc0b8"}, {"is_disabled": 0, "is_reserved": 0, "type": "electric_scooter", "lon": -77.04168516666667, "fusion_lon": 0.0, "lat": 38.919115833333336, "rental_uris": {"android": "https://dc.lft.to/lastmile_qr_scan", "ios": "https://dc.lft.to/lastmile_qr_scan"}, "fusion_lat": 0.0, "name": "a6ef151e6074d351f044a8e3d135965c", "bike_id": "a6ef151e6074d351f044a8e3d135965c"}, {"is_disabled": 0, "is_reserved": 0, "type": "electric_scooter", "lon": -77.014968, "fusion_lon": 0.0, "lat": 38.95649383333333, "rental_uris": {"android": "https://dc.lft.to/lastmile_qr_scan", "ios": "https://dc.lft.to/lastmile_qr_scan"}, "fusion_lat": 0.0, "name": "ccf831e0ed7b7d4145dc700c0e0778de", "bike_id": "ccf831e0ed7b7d4145dc700c0e0778de"}, {"is_disabled": 0, "is_reserved": 0, "type": "electric_scooter", "lon": -77.0310175, "fusion_lon": 0.0, "lat": 38.925725166666666, "rental_uris": {"android": "https://dc.lft.to/lastmile_qr_scan", "ios": "https://dc.lft.to/lastmile_qr_scan"}, "fusion_lat": 0.0, "name": "3eb18afbb334199ba39940817de6e475", "bike_id": "3eb18afbb334199ba39940817de6e475"}, {"is_disabled": 0, "is_reserved": 0, "type": "electric_scooter", "lon": -77.03205983333334, "fusion_lon": 0.0, "lat": 38.93970766666666, "rental_uris": {"android": "https://dc.lft.to/lastmile_qr_scan", "ios": "https://dc.lft.to/lastmile_qr_scan"}, "fusion_lat": 0.0, "name": "7c305eb73deedb8206b6d604005870cc", "bike_id": "7c305eb73deedb8206b6d604005870cc"}, {"is_disabled": 0, "is_reserved": 0, "type": "electric_scooter", "lon": -77.050397, "fusion_lon": 0.0, "lat": 38.92356816666667, "rental_uris": {"android": "https://dc.lft.to/lastmile_qr_scan", "ios": "https://dc.lft.to/lastmile_qr_scan"}, "fusion_lat": 0.0, "name": "ee83a331a3836f980d55814bf8909a91", "bike_id": "ee83a331a3836f980d55814bf8909a91"}, {"is_disabled": 0, "is_reserved": 0, "type": "electric_scooter", "lon": -77.05109, "fusion_lon": 0.0, "lat": 38.923628666666666, "rental_uris": {"android": "https://dc.lft.to/lastmile_qr_scan", "ios": "https://dc.lft.to/lastmile_qr_scan"}, "fusion_lat": 0.0, "name": "6a1feb26a631ea598f3379477de1fcb6", "bike_id": "6a1feb26a631ea598f3379477de1fcb6"}, {"is_disabled": 0, "is_reserved": 0, "type": "electric_bike", "lon": -76.90756966666666, "fusion_lon": 0.0, "lat": 38.924378833333336, "rental_uris": {"android": "https://dc.lft.to/lastmile_qr_scan", "ios": "https://dc.lft.to/lastmile_qr_scan"}, "fusion_lat": 0.0, "name": "f34576408abc593dcf3f907abdc3a4df", "bike_id": "f34576408abc593dcf3f907abdc3a4df"}, {"is_disabled": 0, "is_reserved": 0, "type": "electric_scooter", "lon": -77.03251833333333, "fusion_lon": 0.0, "lat": 38.914850333333334, "rental_uris": {"android": "https://dc.lft.to/lastmile_qr_scan", "ios": "https://dc.lft.to/lastmile_qr_scan"}, "fusion_lat": 0.0, "name": "f1460d91e7b9be3b85277ba018357a99", "bike_id": "f1460d91e7b9be3b85277ba018357a99"}, {"is_disabled": 0, "is_reserved": 0, "type": "electric_scooter", "lon": -77.0469645, "fusion_lon": 0.0, "lat": 38.9160455, "rental_uris": {"android": "https://dc.lft.to/lastmile_qr_scan", "ios": "https://dc.lft.to/lastmile_qr_scan"}, "fusion_lat": 0.0, "name": "b724bad3d17679eac99806be761d77f5", "bike_id": "b724bad3d17679eac99806be761d77f5"}, {"is_disabled": 0, "is_reserved": 0, "type": "electric_scooter", "lon": -77.0365165, "fusion_lon": 0.0, "lat": 38.9113905, "rental_uris": {"android": "https://dc.lft.to/lastmile_qr_scan", "ios": "https://dc.lft.to/lastmile_qr_scan"}, "fusion_lat": 0.0, "name": "17f7b22d0a7d1fe058e203f38664f6d1", "bike_id": "17f7b22d0a7d1fe058e203f38664f6d1"}, {"is_disabled": 0, "is_reserved": 0, "type": "electric_scooter", "lon": -77.0222155, "fusion_lon": 0.0, "lat": 38.93554, "rental_uris": {"android": "https://dc.lft.to/lastmile_qr_scan", "ios": "https://dc.lft.to/lastmile_qr_scan"}, "fusion_lat": 0.0, "name": "1bbb1becb71eb7a67f3cd6663416142c", "bike_id": "1bbb1becb71eb7a67f3cd6663416142c"}, {"is_disabled": 0, "is_reserved": 0, "type": "electric_scooter", "lon": -77.02247466666667, "fusion_lon": 0.0, "lat": 38.9055815, "rental_uris": {"android": "https://dc.lft.to/lastmile_qr_scan", "ios": "https://dc.lft.to/lastmile_qr_scan"}, "fusion_lat": 0.0, "name": "847fa8fb9100f0b346153689a81766d9", "bike_id": "847fa8fb9100f0b346153689a81766d9"}, {"is_disabled": 0, "is_reserved": 0, "type": "electric_scooter", "lon": -77.04780816666667, "fusion_lon": 0.0, "lat": 38.897704833333336, "rental_uris": {"android": "https://dc.lft.to/lastmile_qr_scan", "ios": "https://dc.lft.to/lastmile_qr_scan"}, "fusion_lat": 0.0, "name": "ff03c055f54479687d92ee6b1ab87d5e", "bike_id": "ff03c055f54479687d92ee6b1ab87d5e"}, {"is_disabled": 0, "is_reserved": 0, "type": "electric_scooter", "lon": -77.0280265, "fusion_lon": 0.0, "lat": 38.91216133333333, "rental_uris": {"android": "https://dc.lft.to/lastmile_qr_scan", "ios": "https://dc.lft.to/lastmile_qr_scan"}, "fusion_lat": 0.0, "name": "67195743fdecfc2900376d17d08a7f6f", "bike_id": "67195743fdecfc2900376d17d08a7f6f"}, {"is_disabled": 0, "is_reserved": 0, "type": "electric_scooter", "lon": -77.03850333333334, "fusion_lon": 0.0, "lat": 38.903623, "rental_uris": {"android": "https://dc.lft.to/lastmile_qr_scan", "ios": "https://dc.lft.to/lastmile_qr_scan"}, "fusion_lat": 0.0, "name": "192e9aa300b3208c9dda28cfdf7ed919", "bike_id": "192e9aa300b3208c9dda28cfdf7ed919"}, {"is_disabled": 0, "is_reserved": 0, "type": "electric_scooter", "lon": -77.01621333333334, "fusion_lon": 0.0, "lat": 38.90196516666666, "rental_uris": {"android": "https://dc.lft.to/lastmile_qr_scan", "ios": "https://dc.lft.to/lastmile_qr_scan"}, "fusion_lat": 0.0, "name": "3f7915f4010f9ea871e90dfb2610acf5", "bike_id": "3f7915f4010f9ea871e90dfb2610acf5"}, {"is_disabled": 0, "is_reserved": 0, "type": "electric_scooter", "lon": -77.040831, "fusion_lon": 0.0, "lat": 38.8983865, "rental_uris": {"android": "https://dc.lft.to/lastmile_qr_scan", "ios": "https://dc.lft.to/lastmile_qr_scan"}, "fusion_lat": 0.0, "name": "2245afeccb0101cbd7c3ef55eaa7cc75", "bike_id": "2245afeccb0101cbd7c3ef55eaa7cc75"}, {"is_disabled": 0, "is_reserved": 0, "type": "electric_scooter", "lon": -77.04557033333333, "fusion_lon": 0.0, "lat": 38.917839, "rental_uris": {"android": "https://dc.lft.to/lastmile_qr_scan", "ios": "https://dc.lft.to/lastmile_qr_scan"}, "fusion_lat": 0.0, "name": "6c9132372700797084a795e58c3a3d74", "bike_id": "6c9132372700797084a795e58c3a3d74"}, {"is_disabled": 0, "is_reserved": 0, "type": "electric_scooter", "lon": -77.01948933333334, "fusion_lon": 0.0, "lat": 38.92253433333333, "rental_uris": {"android": "https://dc.lft.to/lastmile_qr_scan", "ios": "https://dc.lft.to/lastmile_qr_scan"}, "fusion_lat": 0.0, "name": "0f83b5e38c112eb86fb143cafecb557b", "bike_id": "0f83b5e38c112eb86fb143cafecb557b"}, {"is_disabled": 0, "is_reserved": 0, "type": "electric_scooter", "lon": -77.02359166666666, "fusion_lon": 0.0, "lat": 38.916004666666666, "rental_uris": {"android": "https://dc.lft.to/lastmile_qr_scan", "ios": "https://dc.lft.to/lastmile_qr_scan"}, "fusion_lat": 0.0, "name": "55f91e1fab0588dd32d9e3c2c1501b63", "bike_id": "55f91e1fab0588dd32d9e3c2c1501b63"}, {"is_disabled": 0, "is_reserved": 0, "type": "electric_scooter", "lon": -77.04356566666667, "fusion_lon": 0.0, "lat": 38.89815483333334, "rental_uris": {"android": "https://dc.lft.to/lastmile_qr_scan", "ios": "https://dc.lft.to/lastmile_qr_scan"}, "fusion_lat": 0.0, "name": "af4686b89434a22a290da8783b41f539", "bike_id": "af4686b89434a22a290da8783b41f539"}, {"is_disabled": 0, "is_reserved": 0, "type": "electric_scooter", "lon": -77.02703266666667, "fusion_lon": 0.0, "lat": 38.918908333333334, "rental_uris": {"android": "https://dc.lft.to/lastmile_qr_scan", "ios": "https://dc.lft.to/lastmile_qr_scan"}, "fusion_lat": 0.0, "name": "69184e211df0c1f832ae04b5e2bd8e75", "bike_id": "69184e211df0c1f832ae04b5e2bd8e75"}, {"is_disabled": 0, "is_reserved": 0, "type": "electric_scooter", "lon": -77.04361083333333, "fusion_lon": 0.0, "lat": 38.90123833333333, "rental_uris": {"android": "https://dc.lft.to/lastmile_qr_scan", "ios": "https://dc.lft.to/lastmile_qr_scan"}, "fusion_lat": 0.0, "name": "6e6b83c4cfd2dcac5f393f67179cee16", "bike_id": "6e6b83c4cfd2dcac5f393f67179cee16"}, {"is_disabled": 0, "is_reserved": 0, "type": "electric_scooter", "lon": -76.94826433333333, "fusion_lon": 0.0, "lat": 38.8851765, "rental_uris": {"android": "https://dc.lft.to/lastmile_qr_scan", "ios": "https://dc.lft.to/lastmile_qr_scan"}, "fusion_lat": 0.0, "name": "52e61c24df90703453e30e63da19c199", "bike_id": "52e61c24df90703453e30e63da19c199"}, {"is_disabled": 0, "is_reserved": 0, "type": "electric_scooter", "lon": -77.0543825, "fusion_lon": 0.0, "lat": 38.896044333333336, "rental_uris": {"android": "https://dc.lft.to/lastmile_qr_scan", "ios": "https://dc.lft.to/lastmile_qr_scan"}, "fusion_lat": 0.0, "name": "8258f1c61a4bc230a9b0b325c18337fe", "bike_id": "8258f1c61a4bc230a9b0b325c18337fe"}, {"is_disabled": 0, "is_reserved": 0, "type": "electric_bike", "lon": -77.0095565, "fusion_lon": 0.0, "lat": 38.907017333333336, "rental_uris": {"android": "https://dc.lft.to/lastmile_qr_scan", "ios": "https://dc.lft.to/lastmile_qr_scan"}, "fusion_lat": 0.0, "name": "57b7bcf28993c74608b7c4673da9a150", "bike_id": "57b7bcf28993c74608b7c4673da9a150"}, {"is_disabled": 0, "is_reserved": 0, "type": "electric_scooter", "lon": -77.02281683333334, "fusion_lon": 0.0, "lat": 38.916583833333334, "rental_uris": {"android": "https://dc.lft.to/lastmile_qr_scan", "ios": "https://dc.lft.to/lastmile_qr_scan"}, "fusion_lat": 0.0, "name": "b341a61617a378689fdb918fc255f590", "bike_id": "b341a61617a378689fdb918fc255f590"}, {"is_disabled": 0, "is_reserved": 0, "type": "electric_scooter", "lon": -77.03638316666667, "fusion_lon": 0.0, "lat": 38.935368, "rental_uris": {"android": "https://dc.lft.to/lastmile_qr_scan", "ios": "https://dc.lft.to/lastmile_qr_scan"}, "fusion_lat": 0.0, "name": "eb81cb4a5d34bc771e1f5d2924f1bb72", "bike_id": "eb81cb4a5d34bc771e1f5d2924f1bb72"}, {"is_disabled": 0, "is_reserved": 0, "type": "electric_scooter", "lon": -77.02212133333333, "fusion_lon": 0.0, "lat": 38.905732666666665, "rental_uris": {"android": "https://dc.lft.to/lastmile_qr_scan", "ios": "https://dc.lft.to/lastmile_qr_scan"}, "fusion_lat": 0.0, "name": "cf09e6a204d6be1f910811edc644ca03", "bike_id": "cf09e6a204d6be1f910811edc644ca03"}, {"is_disabled": 0, "is_reserved": 0, "type": "electric_scooter", "lon": -77.00712133333333, "fusion_lon": 0.0, "lat": 38.88494416666666, "rental_uris": {"android": "https://dc.lft.to/lastmile_qr_scan", "ios": "https://dc.lft.to/lastmile_qr_scan"}, "fusion_lat": 0.0, "name": "ae2a5c1bfbc2a3965e9badfe22bb7d48", "bike_id": "ae2a5c1bfbc2a3965e9badfe22bb7d48"}, {"is_disabled": 0, "is_reserved": 0, "type": "electric_scooter", "lon": -77.032892, "fusion_lon": 0.0, "lat": 38.904098833333336, "rental_uris": {"android": "https://dc.lft.to/lastmile_qr_scan", "ios": "https://dc.lft.to/lastmile_qr_scan"}, "fusion_lat": 0.0, "name": "330e77cb9a80f065a1473300c1b29599", "bike_id": "330e77cb9a80f065a1473300c1b29599"}, {"is_disabled": 0, "is_reserved": 0, "type": "electric_scooter", "lon": -77.04483616666667, "fusion_lon": 0.0, "lat": 38.908663833333335, "rental_uris": {"android": "https://dc.lft.to/lastmile_qr_scan", "ios": "https://dc.lft.to/lastmile_qr_scan"}, "fusion_lat": 0.0, "name": "30c2f04491847ed7c22ba9c6f77682c3", "bike_id": "30c2f04491847ed7c22ba9c6f77682c3"}, {"is_disabled": 0, "is_reserved": 0, "type": "electric_scooter", "lon": -77.0391945, "fusion_lon": 0.0, "lat": 38.9117665, "rental_uris": {"android": "https://dc.lft.to/lastmile_qr_scan", "ios": "https://dc.lft.to/lastmile_qr_scan"}, "fusion_lat": 0.0, "name": "2b6d065bc65078023c2e9437bc5f3cdd", "bike_id": "2b6d065bc65078023c2e9437bc5f3cdd"}, {"is_disabled": 0, "is_reserved": 0, "type": "electric_bike", "lon": -77.095628, "fusion_lon": 0.0, "lat": 38.91695883333333, "rental_uris": {"android": "https://dc.lft.to/lastmile_qr_scan", "ios": "https://dc.lft.to/lastmile_qr_scan"}, "fusion_lat": 0.0, "name": "ae1b8bd00b9a382ad993feabdfe0fd0a", "bike_id": "ae1b8bd00b9a382ad993feabdfe0fd0a"}, {"is_disabled": 0, "is_reserved": 0, "type": "electric_scooter", "lon": -77.02697166666667, "fusion_lon": 0.0, "lat": 38.94956366666667, "rental_uris": {"android": "https://dc.lft.to/lastmile_qr_scan", "ios": "https://dc.lft.to/lastmile_qr_scan"}, "fusion_lat": 0.0, "name": "47197d345607c81bfee82fef8b5f7fe7", "bike_id": "47197d345607c81bfee82fef8b5f7fe7"}, {"is_disabled": 0, "is_reserved": 0, "type": "electric_scooter", "lon": -77.01891133333334, "fusion_lon": 0.0, "lat": 38.912251833333336, "rental_uris": {"android": "https://dc.lft.to/lastmile_qr_scan", "ios": "https://dc.lft.to/lastmile_qr_scan"}, "fusion_lat": 0.0, "name": "44822c6ca8414321ac87495c6772d979", "bike_id": "44822c6ca8414321ac87495c6772d979"}, {"is_disabled": 0, "is_reserved": 0, "type": "electric_scooter", "lon": -77.03193616666667, "fusion_lon": 0.0, "lat": 38.9113565, "rental_uris": {"android": "https://dc.lft.to/lastmile_qr_scan", "ios": "https://dc.lft.to/lastmile_qr_scan"}, "fusion_lat": 0.0, "name": "c845992a8bf8d0619e48ae3b30bb3526", "bike_id": "c845992a8bf8d0619e48ae3b30bb3526"}, {"is_disabled": 0, "is_reserved": 0, "type": "electric_scooter", "lon": -77.03410066666666, "fusion_lon": 0.0, "lat": 38.9192525, "rental_uris": {"android": "https://dc.lft.to/lastmile_qr_scan", "ios": "https://dc.lft.to/lastmile_qr_scan"}, "fusion_lat": 0.0, "name": "c62b74f19e5f5b15f75783fc142007f9", "bike_id": "c62b74f19e5f5b15f75783fc142007f9"}, {"is_disabled": 0, "is_reserved": 0, "type": "electric_bike", "lon": -77.34401533333333, "fusion_lon": 0.0, "lat": 38.9459665, "rental_uris": {"android": "https://dc.lft.to/lastmile_qr_scan", "ios": "https://dc.lft.to/lastmile_qr_scan"}, "fusion_lat": 0.0, "name": "ec2f38fe055dceb4032add02ab85997a", "bike_id": "ec2f38fe055dceb4032add02ab85997a"}, {"is_disabled": 0, "is_reserved": 0, "type": "electric_scooter", "lon": -77.03841616666666, "fusion_lon": 0.0, "lat": 38.90400833333333, "rental_uris": {"android": "https://dc.lft.to/lastmile_qr_scan", "ios": "https://dc.lft.to/lastmile_qr_scan"}, "fusion_lat": 0.0, "name": "34f377627e539d65db3d89a65131fbed", "bike_id": "34f377627e539d65db3d89a65131fbed"}, {"is_disabled": 0, "is_reserved": 0, "type": "electric_scooter", "lon": -76.99813366666666, "fusion_lon": 0.0, "lat": 38.8443435, "rental_uris": {"android": "https://dc.lft.to/lastmile_qr_scan", "ios": "https://dc.lft.to/lastmile_qr_scan"}, "fusion_lat": 0.0, "name": "0b0059703384dccca72f16ffaaed94be", "bike_id": "0b0059703384dccca72f16ffaaed94be"}, {"is_disabled": 0, "is_reserved": 0, "type": "electric_bike", "lon": -77.143247, "fusion_lon": 0.0, "lat": 39.054572, "rental_uris": {"android": "https://dc.lft.to/lastmile_qr_scan", "ios": "https://dc.lft.to/lastmile_qr_scan"}, "fusion_lat": 0.0, "name": "c03360e595f888d023873e7fcad88128", "bike_id": "c03360e595f888d023873e7fcad88128"}, {"is_disabled": 0, "is_reserved": 0, "type": "electric_scooter", "lon": -77.0117575, "fusion_lon": 0.0, "lat": 38.868138, "rental_uris": {"android": "https://dc.lft.to/lastmile_qr_scan", "ios": "https://dc.lft.to/lastmile_qr_scan"}, "fusion_lat": 0.0, "name": "98d930a14f204794349985368ca45dd1", "bike_id": "98d930a14f204794349985368ca45dd1"}, {"is_disabled": 0, "is_reserved": 0, "type": "electric_scooter", "lon": -76.98886883333333, "fusion_lon": 0.0, "lat": 38.866721, "rental_uris": {"android": "https://dc.lft.to/lastmile_qr_scan", "ios": "https://dc.lft.to/lastmile_qr_scan"}, "fusion_lat": 0.0, "name": "0146cc1a247a59b2c39142d99b9867ab", "bike_id": "0146cc1a247a59b2c39142d99b9867ab"}, {"is_disabled": 0, "is_reserved": 0, "type": "electric_scooter", "lon": -77.04495666666666, "fusion_lon": 0.0, "lat": 38.90781283333333, "rental_uris": {"android": "https://dc.lft.to/lastmile_qr_scan", "ios": "https://dc.lft.to/lastmile_qr_scan"}, "fusion_lat": 0.0, "name": "f35cbf493c8c571f907126534f0088ca", "bike_id": "f35cbf493c8c571f907126534f0088ca"}, {"is_disabled": 0, "is_reserved": 0, "type": "electric_scooter", "lon": -77.06189233333333, "fusion_lon": 0.0, "lat": 38.930211, "rental_uris": {"android": "https://dc.lft.to/lastmile_qr_scan", "ios": "https://dc.lft.to/lastmile_qr_scan"}, "fusion_lat": 0.0, "name": "72b269d85daa29cc9348cab1d4cb3578", "bike_id": "72b269d85daa29cc9348cab1d4cb3578"}, {"is_disabled": 0, "is_reserved": 0, "type": "electric_scooter", "lon": -76.9485385, "fusion_lon": 0.0, "lat": 38.883025333333336, "rental_uris": {"android": "https://dc.lft.to/lastmile_qr_scan", "ios": "https://dc.lft.to/lastmile_qr_scan"}, "fusion_lat": 0.0, "name": "7f58935794672fbffc78814aa7a899a2", "bike_id": "7f58935794672fbffc78814aa7a899a2"}, {"is_disabled": 0, "is_reserved": 0, "type": "electric_scooter", "lon": -77.029563, "fusion_lon": 0.0, "lat": 38.898795166666666, "rental_uris": {"android": "https://dc.lft.to/lastmile_qr_scan", "ios": "https://dc.lft.to/lastmile_qr_scan"}, "fusion_lat": 0.0, "name": "2c7e28997d94ac8347340b79b07772ab", "bike_id": "2c7e28997d94ac8347340b79b07772ab"}, {"is_disabled": 0, "is_reserved": 0, "type": "electric_scooter", "lon": -76.99029966666667, "fusion_lon": 0.0, "lat": 38.86070016666667, "rental_uris": {"android": "https://dc.lft.to/lastmile_qr_scan", "ios": "https://dc.lft.to/lastmile_qr_scan"}, "fusion_lat": 0.0, "name": "a51ddb29288d13d2768db6de9ddc498a", "bike_id": "a51ddb29288d13d2768db6de9ddc498a"}, {"is_disabled": 0, "is_reserved": 0, "type": "electric_scooter", "lon": -77.00381466666667, "fusion_lon": 0.0, "lat": 38.9110345, "rental_uris": {"android": "https://dc.lft.to/lastmile_qr_scan", "ios": "https://dc.lft.to/lastmile_qr_scan"}, "fusion_lat": 0.0, "name": "cb8ca4b4f65ec1e72bf1cd7b48481a55", "bike_id": "cb8ca4b4f65ec1e72bf1cd7b48481a55"}, {"is_disabled": 0, "is_reserved": 0, "type": "electric_scooter", "lon": -77.006045, "fusion_lon": 0.0, "lat": 38.911171833333334, "rental_uris": {"android": "https://dc.lft.to/lastmile_qr_scan", "ios": "https://dc.lft.to/lastmile_qr_scan"}, "fusion_lat": 0.0, "name": "b4638d2be267d0f399b0545926864746", "bike_id": "b4638d2be267d0f399b0545926864746"}, {"is_disabled": 0, "is_reserved": 0, "type": "electric_scooter", "lon": -77.021654, "fusion_lon": 0.0, "lat": 38.894202166666666, "rental_uris": {"android": "https://dc.lft.to/lastmile_qr_scan", "ios": "https://dc.lft.to/lastmile_qr_scan"}, "fusion_lat": 0.0, "name": "7c2d0a99890524ee42a045e2ef02f475", "bike_id": "7c2d0a99890524ee42a045e2ef02f475"}, {"is_disabled": 0, "is_reserved": 0, "type": "electric_scooter", "lon": -77.03372816666666, "fusion_lon": 0.0, "lat": 38.899708833333335, "rental_uris": {"android": "https://dc.lft.to/lastmile_qr_scan", "ios": "https://dc.lft.to/lastmile_qr_scan"}, "fusion_lat": 0.0, "name": "d88c8078413ac8c20bfb285f394acc44", "bike_id": "d88c8078413ac8c20bfb285f394acc44"}, {"is_disabled": 0, "is_reserved": 0, "type": "electric_scooter", "lon": -77.02777633333334, "fusion_lon": 0.0, "lat": 38.892211833333334, "rental_uris": {"android": "https://dc.lft.to/lastmile_qr_scan", "ios": "https://dc.lft.to/lastmile_qr_scan"}, "fusion_lat": 0.0, "name": "d4c2abde061cf459c5808fa7875e930a", "bike_id": "d4c2abde061cf459c5808fa7875e930a"}, {"is_disabled": 0, "is_reserved": 0, "type": "electric_scooter", "lon": -77.02983183333333, "fusion_lon": 0.0, "lat": 38.907234833333334, "rental_uris": {"android": "https://dc.lft.to/lastmile_qr_scan", "ios": "https://dc.lft.to/lastmile_qr_scan"}, "fusion_lat": 0.0, "name": "4689411b2dc40eeb6f6e0c9175152db9", "bike_id": "4689411b2dc40eeb6f6e0c9175152db9"}, {"is_disabled": 0, "is_reserved": 0, "type": "electric_scooter", "lon": -76.97945083333333, "fusion_lon": 0.0, "lat": 38.9050495, "rental_uris": {"android": "https://dc.lft.to/lastmile_qr_scan", "ios": "https://dc.lft.to/lastmile_qr_scan"}, "fusion_lat": 0.0, "name": "36f042edd7f1e0b56100bba28b3bdb5e", "bike_id": "36f042edd7f1e0b56100bba28b3bdb5e"}, {"is_disabled": 0, "is_reserved": 0, "type": "electric_scooter", "lon": -77.04526833333334, "fusion_lon": 0.0, "lat": 38.90377933333333, "rental_uris": {"android": "https://dc.lft.to/lastmile_qr_scan", "ios": "https://dc.lft.to/lastmile_qr_scan"}, "fusion_lat": 0.0, "name": "ef690e50e671ff7547208a05e6fa8fe7", "bike_id": "ef690e50e671ff7547208a05e6fa8fe7"}, {"is_disabled": 0, "is_reserved": 0, "type": "electric_scooter", "lon": -77.02007666666667, "fusion_lon": 0.0, "lat": 38.92408133333333, "rental_uris": {"android": "https://dc.lft.to/lastmile_qr_scan", "ios": "https://dc.lft.to/lastmile_qr_scan"}, "fusion_lat": 0.0, "name": "78096fbe1bf82136a39f406ecdf00b37", "bike_id": "78096fbe1bf82136a39f406ecdf00b37"}, {"is_disabled": 0, "is_reserved": 0, "type": "electric_scooter", "lon": -77.00335966666667, "fusion_lon": 0.0, "lat": 38.874995, "rental_uris": {"android": "https://dc.lft.to/lastmile_qr_scan", "ios": "https://dc.lft.to/lastmile_qr_scan"}, "fusion_lat": 0.0, "name": "0598698e9647896304c1e3827e224692", "bike_id": "0598698e9647896304c1e3827e224692"}, {"is_disabled": 0, "is_reserved": 0, "type": "electric_scooter", "lon": -77.00339883333334, "fusion_lon": 0.0, "lat": 38.9045065, "rental_uris": {"android": "https://dc.lft.to/lastmile_qr_scan", "ios": "https://dc.lft.to/lastmile_qr_scan"}, "fusion_lat": 0.0, "name": "3b8a9f3e0226bce89789bd3817426f7e", "bike_id": "3b8a9f3e0226bce89789bd3817426f7e"}, {"is_disabled": 0, "is_reserved": 0, "type": "electric_scooter", "lon": -77.02297716666666, "fusion_lon": 0.0, "lat": 38.9178485, "rental_uris": {"android": "https://dc.lft.to/lastmile_qr_scan", "ios": "https://dc.lft.to/lastmile_qr_scan"}, "fusion_lat": 0.0, "name": "c9d1aaba4194abb399968a54e38ccfd6", "bike_id": "c9d1aaba4194abb399968a54e38ccfd6"}, {"is_disabled": 0, "is_reserved": 0, "type": "electric_scooter", "lon": -77.051301, "fusion_lon": 0.0, "lat": 38.906007, "rental_uris": {"android": "https://dc.lft.to/lastmile_qr_scan", "ios": "https://dc.lft.to/lastmile_qr_scan"}, "fusion_lat": 0.0, "name": "04671b0a85692c828a6d8ff1b52d3838", "bike_id": "04671b0a85692c828a6d8ff1b52d3838"}, {"is_disabled": 0, "is_reserved": 0, "type": "electric_scooter", "lon": -77.0511155, "fusion_lon": 0.0, "lat": 38.923649166666664, "rental_uris": {"android": "https://dc.lft.to/lastmile_qr_scan", "ios": "https://dc.lft.to/lastmile_qr_scan"}, "fusion_lat": 0.0, "name": "9a581bdfa3c8ee5667bd644bf1b5c2e3", "bike_id": "9a581bdfa3c8ee5667bd644bf1b5c2e3"}, {"is_disabled": 0, "is_reserved": 0, "type": "electric_scooter", "lon": -76.9520805, "fusion_lon": 0.0, "lat": 38.892514, "rental_uris": {"android": "https://dc.lft.to/lastmile_qr_scan", "ios": "https://dc.lft.to/lastmile_qr_scan"}, "fusion_lat": 0.0, "name": "a842fef132656ec1c4446b497cc99ef0", "bike_id": "a842fef132656ec1c4446b497cc99ef0"}, {"is_disabled": 0, "is_reserved": 0, "type": "electric_scooter", "lon": -77.0432135, "fusion_lon": 0.0, "lat": 38.898153666666666, "rental_uris": {"android": "https://dc.lft.to/lastmile_qr_scan", "ios": "https://dc.lft.to/lastmile_qr_scan"}, "fusion_lat": 0.0, "name": "ac4b4b2a7649b4068d9e15c7ffc7d9f1", "bike_id": "ac4b4b2a7649b4068d9e15c7ffc7d9f1"}, {"is_disabled": 0, "is_reserved": 0, "type": "electric_bike", "lon": -77.09577, "fusion_lon": 0.0, "lat": 38.83791183333334, "rental_uris": {"android": "https://dc.lft.to/lastmile_qr_scan", "ios": "https://dc.lft.to/lastmile_qr_scan"}, "fusion_lat": 0.0, "name": "35d6836af8b0f297e575b2dccb822dbe", "bike_id": "35d6836af8b0f297e575b2dccb822dbe"}, {"is_disabled": 0, "is_reserved": 0, "type": "electric_scooter", "lon": -77.03411966666667, "fusion_lon": 0.0, "lat": 38.91922233333333, "rental_uris": {"android": "https://dc.lft.to/lastmile_qr_scan", "ios": "https://dc.lft.to/lastmile_qr_scan"}, "fusion_lat": 0.0, "name": "2ee5ad0c87c6c240faec7c93a0c3f681", "bike_id": "2ee5ad0c87c6c240faec7c93a0c3f681"}, {"is_disabled": 0, "is_reserved": 0, "type": "electric_scooter", "lon": -77.04244683333333, "fusion_lon": 0.0, "lat": 38.917778, "rental_uris": {"android": "https://dc.lft.to/lastmile_qr_scan", "ios": "https://dc.lft.to/lastmile_qr_scan"}, "fusion_lat": 0.0, "name": "745a1351c0913ae6578725d6b9d9dce5", "bike_id": "745a1351c0913ae6578725d6b9d9dce5"}, {"is_disabled": 0, "is_reserved": 0, "type": "electric_scooter", "lon": -77.05117216666666, "fusion_lon": 0.0, "lat": 38.90495166666667, "rental_uris": {"android": "https://dc.lft.to/lastmile_qr_scan", "ios": "https://dc.lft.to/lastmile_qr_scan"}, "fusion_lat": 0.0, "name": "5a409f155fdb39c78d32226c9f784c3c", "bike_id": "5a409f155fdb39c78d32226c9f784c3c"}, {"is_disabled": 0, "is_reserved": 0, "type": "electric_scooter", "lon": -77.003331, "fusion_lon": 0.0, "lat": 38.893536166666664, "rental_uris": {"android": "https://dc.lft.to/lastmile_qr_scan", "ios": "https://dc.lft.to/lastmile_qr_scan"}, "fusion_lat": 0.0, "name": "ade2beb69d7dd34ce1f708d901fca9c7", "bike_id": "ade2beb69d7dd34ce1f708d901fca9c7"}, {"is_disabled": 0, "is_reserved": 0, "type": "electric_scooter", "lon": -77.05002783333333, "fusion_lon": 0.0, "lat": 38.892315833333335, "rental_uris": {"android": "https://dc.lft.to/lastmile_qr_scan", "ios": "https://dc.lft.to/lastmile_qr_scan"}, "fusion_lat": 0.0, "name": "24dc50bcb7037eb7e5c0a3e84c3284f5", "bike_id": "24dc50bcb7037eb7e5c0a3e84c3284f5"}, {"is_disabled": 0, "is_reserved": 0, "type": "electric_scooter", "lon": -76.9922795, "fusion_lon": 0.0, "lat": 38.89883533333333, "rental_uris": {"android": "https://dc.lft.to/lastmile_qr_scan", "ios": "https://dc.lft.to/lastmile_qr_scan"}, "fusion_lat": 0.0, "name": "00f543716b0caf741eac63495c0d4e48", "bike_id": "00f543716b0caf741eac63495c0d4e48"}, {"is_disabled": 0, "is_reserved": 0, "type": "electric_scooter", "lon": -77.02571233333333, "fusion_lon": 0.0, "lat": 38.899591666666666, "rental_uris": {"android": "https://dc.lft.to/lastmile_qr_scan", "ios": "https://dc.lft.to/lastmile_qr_scan"}, "fusion_lat": 0.0, "name": "b23a05a3e4784e3fceb2440a96e9fc26", "bike_id": "b23a05a3e4784e3fceb2440a96e9fc26"}, {"is_disabled": 0, "is_reserved": 0, "type": "electric_bike", "lon": -77.1477135, "fusion_lon": 0.0, "lat": 39.0959035, "rental_uris": {"android": "https://dc.lft.to/lastmile_qr_scan", "ios": "https://dc.lft.to/lastmile_qr_scan"}, "fusion_lat": 0.0, "name": "cc67a70b002a2ebf8dfea3ac9071d1b6", "bike_id": "cc67a70b002a2ebf8dfea3ac9071d1b6"}, {"is_disabled": 0, "is_reserved": 0, "type": "electric_scooter", "lon": -76.99687833333333, "fusion_lon": 0.0, "lat": 38.86030366666667, "rental_uris": {"android": "https://dc.lft.to/lastmile_qr_scan", "ios": "https://dc.lft.to/lastmile_qr_scan"}, "fusion_lat": 0.0, "name": "6d7c7543e9f5a64fbf7dfeb683262269", "bike_id": "6d7c7543e9f5a64fbf7dfeb683262269"}, {"is_disabled": 0, "is_reserved": 0, "type": "electric_scooter", "lon": -77.04605083333334, "fusion_lon": 0.0, "lat": 38.91712716666667, "rental_uris": {"android": "https://dc.lft.to/lastmile_qr_scan", "ios": "https://dc.lft.to/lastmile_qr_scan"}, "fusion_lat": 0.0, "name": "106a3c6712daf8fddbd934654cc292f3", "bike_id": "106a3c6712daf8fddbd934654cc292f3"}, {"is_disabled": 0, "is_reserved": 0, "type": "electric_bike", "lon": -77.0957845, "fusion_lon": 0.0, "lat": 38.83785016666667, "rental_uris": {"android": "https://dc.lft.to/lastmile_qr_scan", "ios": "https://dc.lft.to/lastmile_qr_scan"}, "fusion_lat": 0.0, "name": "b305e8b73087302bbae8764bb21f4ec1", "bike_id": "b305e8b73087302bbae8764bb21f4ec1"}, {"is_disabled": 0, "is_reserved": 0, "type": "electric_scooter", "lon": -76.948876, "fusion_lon": 0.0, "lat": 38.895102333333334, "rental_uris": {"android": "https://dc.lft.to/lastmile_qr_scan", "ios": "https://dc.lft.to/lastmile_qr_scan"}, "fusion_lat": 0.0, "name": "272c9b4a12566c3cf455f93e92af9ead", "bike_id": "272c9b4a12566c3cf455f93e92af9ead"}, {"is_disabled": 0, "is_reserved": 0, "type": "electric_scooter", "lon": -77.03497666666667, "fusion_lon": 0.0, "lat": 38.9169215, "rental_uris": {"android": "https://dc.lft.to/lastmile_qr_scan", "ios": "https://dc.lft.to/lastmile_qr_scan"}, "fusion_lat": 0.0, "name": "9015d02e4ee436a2c273ed5481416537", "bike_id": "9015d02e4ee436a2c273ed5481416537"}, {"is_disabled": 0, "is_reserved": 0, "type": "electric_scooter", "lon": -77.03350166666667, "fusion_lon": 0.0, "lat": 38.924434833333336, "rental_uris": {"android": "https://dc.lft.to/lastmile_qr_scan", "ios": "https://dc.lft.to/lastmile_qr_scan"}, "fusion_lat": 0.0, "name": "3a501fe93f67879ded37210ab2e1ca17", "bike_id": "3a501fe93f67879ded37210ab2e1ca17"}, {"is_disabled": 0, "is_reserved": 0, "type": "electric_scooter", "lon": -76.93384083333333, "fusion_lon": 0.0, "lat": 38.89901866666666, "rental_uris": {"android": "https://dc.lft.to/lastmile_qr_scan", "ios": "https://dc.lft.to/lastmile_qr_scan"}, "fusion_lat": 0.0, "name": "e6ebe112e890bf84f856886a89371545", "bike_id": "e6ebe112e890bf84f856886a89371545"}, {"is_disabled": 0, "is_reserved": 0, "type": "electric_scooter", "lon": -76.99866, "fusion_lon": 0.0, "lat": 38.900165, "rental_uris": {"android": "https://dc.lft.to/lastmile_qr_scan", "ios": "https://dc.lft.to/lastmile_qr_scan"}, "fusion_lat": 0.0, "name": "f73997a916011688ffdf85d46f8bf536", "bike_id": "f73997a916011688ffdf85d46f8bf536"}, {"is_disabled": 0, "is_reserved": 0, "type": "electric_bike", "lon": -76.96177133333333, "fusion_lon": 0.0, "lat": 38.9185665, "rental_uris": {"android": "https://dc.lft.to/lastmile_qr_scan", "ios": "https://dc.lft.to/lastmile_qr_scan"}, "fusion_lat": 0.0, "name": "fcda7bd3881cbac79e7420596e463649", "bike_id": "fcda7bd3881cbac79e7420596e463649"}, {"is_disabled": 0, "is_reserved": 0, "type": "electric_bike", "lon": -76.92933833333333, "fusion_lon": 0.0, "lat": 38.90290483333333, "rental_uris": {"android": "https://dc.lft.to/lastmile_qr_scan", "ios": "https://dc.lft.to/lastmile_qr_scan"}, "fusion_lat": 0.0, "name": "d776be093eac661c7935185391b46e7d", "bike_id": "d776be093eac661c7935185391b46e7d"}, {"is_disabled": 0, "is_reserved": 0, "type": "electric_scooter", "lon": -77.03970316666667, "fusion_lon": 0.0, "lat": 38.9072625, "rental_uris": {"android": "https://dc.lft.to/lastmile_qr_scan", "ios": "https://dc.lft.to/lastmile_qr_scan"}, "fusion_lat": 0.0, "name": "3421b616832bde831d573cb2f2bf446f", "bike_id": "3421b616832bde831d573cb2f2bf446f"}, {"is_disabled": 0, "is_reserved": 0, "type": "electric_scooter", "lon": -77.07011766666666, "fusion_lon": 0.0, "lat": 38.9059555, "rental_uris": {"android": "https://dc.lft.to/lastmile_qr_scan", "ios": "https://dc.lft.to/lastmile_qr_scan"}, "fusion_lat": 0.0, "name": "2f40fa46aef1c662476463ea674e16f6", "bike_id": "2f40fa46aef1c662476463ea674e16f6"}, {"is_disabled": 0, "is_reserved": 0, "type": "electric_scooter", "lon": -77.0118195, "fusion_lon": 0.0, "lat": 38.870828833333334, "rental_uris": {"android": "https://dc.lft.to/lastmile_qr_scan", "ios": "https://dc.lft.to/lastmile_qr_scan"}, "fusion_lat": 0.0, "name": "498d324867d3947e7850adddba665c42", "bike_id": "498d324867d3947e7850adddba665c42"}, {"is_disabled": 0, "is_reserved": 0, "type": "electric_scooter", "lon": -77.031467, "fusion_lon": 0.0, "lat": 38.912667666666664, "rental_uris": {"android": "https://dc.lft.to/lastmile_qr_scan", "ios": "https://dc.lft.to/lastmile_qr_scan"}, "fusion_lat": 0.0, "name": "d3a1378b22f1a559868d771b882a5654", "bike_id": "d3a1378b22f1a559868d771b882a5654"}, {"is_disabled": 0, "is_reserved": 0, "type": "electric_bike", "lon": -77.00582433333334, "fusion_lon": 0.0, "lat": 38.83697516666667, "rental_uris": {"android": "https://dc.lft.to/lastmile_qr_scan", "ios": "https://dc.lft.to/lastmile_qr_scan"}, "fusion_lat": 0.0, "name": "954e87eb20ef0040128a04b537b1e4d8", "bike_id": "954e87eb20ef0040128a04b537b1e4d8"}, {"is_disabled": 0, "is_reserved": 0, "type": "electric_scooter", "lon": -77.02653616666667, "fusion_lon": 0.0, "lat": 38.89218916666667, "rental_uris": {"android": "https://dc.lft.to/lastmile_qr_scan", "ios": "https://dc.lft.to/lastmile_qr_scan"}, "fusion_lat": 0.0, "name": "83cfeebcf24a6f98190ce6040dbf1590", "bike_id": "83cfeebcf24a6f98190ce6040dbf1590"}, {"is_disabled": 0, "is_reserved": 0, "type": "electric_bike", "lon": -77.04953166666667, "fusion_lon": 0.0, "lat": 38.85516916666667, "rental_uris": {"android": "https://dc.lft.to/lastmile_qr_scan", "ios": "https://dc.lft.to/lastmile_qr_scan"}, "fusion_lat": 0.0, "name": "58b5d7a87630de95fe89a4d6eedeed54", "bike_id": "58b5d7a87630de95fe89a4d6eedeed54"}, {"is_disabled": 0, "is_reserved": 0, "type": "electric_scooter", "lon": -77.03889916666667, "fusion_lon": 0.0, "lat": 38.922486666666664, "rental_uris": {"android": "https://dc.lft.to/lastmile_qr_scan", "ios": "https://dc.lft.to/lastmile_qr_scan"}, "fusion_lat": 0.0, "name": "086942f669fded994c621488d61a47c2", "bike_id": "086942f669fded994c621488d61a47c2"}, {"is_disabled": 0, "is_reserved": 0, "type": "electric_scooter", "lon": -77.0383045, "fusion_lon": 0.0, "lat": 38.911120333333336, "rental_uris": {"android": "https://dc.lft.to/lastmile_qr_scan", "ios": "https://dc.lft.to/lastmile_qr_scan"}, "fusion_lat": 0.0, "name": "a89ed97a7866af48d5293b58f65dfcbf", "bike_id": "a89ed97a7866af48d5293b58f65dfcbf"}, {"is_disabled": 0, "is_reserved": 0, "type": "electric_scooter", "lon": -77.00214683333333, "fusion_lon": 0.0, "lat": 38.911060666666664, "rental_uris": {"android": "https://dc.lft.to/lastmile_qr_scan", "ios": "https://dc.lft.to/lastmile_qr_scan"}, "fusion_lat": 0.0, "name": "e72a8cba7ba03196f4b3716449c1334b", "bike_id": "e72a8cba7ba03196f4b3716449c1334b"}, {"is_disabled": 0, "is_reserved": 0, "type": "electric_scooter", "lon": -77.024953, "fusion_lon": 0.0, "lat": 38.9024515, "rental_uris": {"android": "https://dc.lft.to/lastmile_qr_scan", "ios": "https://dc.lft.to/lastmile_qr_scan"}, "fusion_lat": 0.0, "name": "9c4f74f9ad5eb381a3f7946a10de535b", "bike_id": "9c4f74f9ad5eb381a3f7946a10de535b"}, {"is_disabled": 0, "is_reserved": 0, "type": "electric_scooter", "lon": -77.00434283333334, "fusion_lon": 0.0, "lat": 38.877170166666666, "rental_uris": {"android": "https://dc.lft.to/lastmile_qr_scan", "ios": "https://dc.lft.to/lastmile_qr_scan"}, "fusion_lat": 0.0, "name": "ebc01d6efd49c25eac1d2783d6323df8", "bike_id": "ebc01d6efd49c25eac1d2783d6323df8"}, {"is_disabled": 0, "is_reserved": 0, "type": "electric_scooter", "lon": -77.03582316666666, "fusion_lon": 0.0, "lat": 38.90762933333333, "rental_uris": {"android": "https://dc.lft.to/lastmile_qr_scan", "ios": "https://dc.lft.to/lastmile_qr_scan"}, "fusion_lat": 0.0, "name": "7bbac029359547a1b4c207859dff633d", "bike_id": "7bbac029359547a1b4c207859dff633d"}, {"is_disabled": 0, "is_reserved": 0, "type": "electric_scooter", "lon": -77.032148, "fusion_lon": 0.0, "lat": 38.91183316666667, "rental_uris": {"android": "https://dc.lft.to/lastmile_qr_scan", "ios": "https://dc.lft.to/lastmile_qr_scan"}, "fusion_lat": 0.0, "name": "8b550f46a5c979fb47823bab39a46507", "bike_id": "8b550f46a5c979fb47823bab39a46507"}, {"is_disabled": 0, "is_reserved": 0, "type": "electric_scooter", "lon": -77.025602, "fusion_lon": 0.0, "lat": 38.892239333333336, "rental_uris": {"android": "https://dc.lft.to/lastmile_qr_scan", "ios": "https://dc.lft.to/lastmile_qr_scan"}, "fusion_lat": 0.0, "name": "1d24b8a5958d4f1ad4a27913c8a192d6", "bike_id": "1d24b8a5958d4f1ad4a27913c8a192d6"}, {"is_disabled": 0, "is_reserved": 0, "type": "electric_scooter", "lon": -77.032608, "fusion_lon": 0.0, "lat": 38.90121516666667, "rental_uris": {"android": "https://dc.lft.to/lastmile_qr_scan", "ios": "https://dc.lft.to/lastmile_qr_scan"}, "fusion_lat": 0.0, "name": "16dcee551275f2d2bdb5fb95691dbb19", "bike_id": "16dcee551275f2d2bdb5fb95691dbb19"}, {"is_disabled": 0, "is_reserved": 0, "type": "electric_scooter", "lon": -77.02599416666666, "fusion_lon": 0.0, "lat": 38.97585433333333, "rental_uris": {"android": "https://dc.lft.to/lastmile_qr_scan", "ios": "https://dc.lft.to/lastmile_qr_scan"}, "fusion_lat": 0.0, "name": "ddec237bacfe8358f77c4d7bbffb9c38", "bike_id": "ddec237bacfe8358f77c4d7bbffb9c38"}, {"is_disabled": 0, "is_reserved": 0, "type": "electric_scooter", "lon": -76.94469033333333, "fusion_lon": 0.0, "lat": 38.902832, "rental_uris": {"android": "https://dc.lft.to/lastmile_qr_scan", "ios": "https://dc.lft.to/lastmile_qr_scan"}, "fusion_lat": 0.0, "name": "815216bef9af13a5cf347b523a77b763", "bike_id": "815216bef9af13a5cf347b523a77b763"}, {"is_disabled": 0, "is_reserved": 0, "type": "electric_scooter", "lon": -77.02184183333334, "fusion_lon": 0.0, "lat": 38.89741516666667, "rental_uris": {"android": "https://dc.lft.to/lastmile_qr_scan", "ios": "https://dc.lft.to/lastmile_qr_scan"}, "fusion_lat": 0.0, "name": "909aa361051efea2d16136c5305612f7", "bike_id": "909aa361051efea2d16136c5305612f7"}, {"is_disabled": 0, "is_reserved": 0, "type": "electric_scooter", "lon": -77.00739916666667, "fusion_lon": 0.0, "lat": 38.877, "rental_uris": {"android": "https://dc.lft.to/lastmile_qr_scan", "ios": "https://dc.lft.to/lastmile_qr_scan"}, "fusion_lat": 0.0, "name": "2c7f506d037a34f66f208599cf6b2e1b", "bike_id": "2c7f506d037a34f66f208599cf6b2e1b"}, {"is_disabled": 0, "is_reserved": 0, "type": "electric_scooter", "lon": -77.04381633333334, "fusion_lon": 0.0, "lat": 38.916630833333336, "rental_uris": {"android": "https://dc.lft.to/lastmile_qr_scan", "ios": "https://dc.lft.to/lastmile_qr_scan"}, "fusion_lat": 0.0, "name": "533e89da87d7b13581e1f882012f8014", "bike_id": "533e89da87d7b13581e1f882012f8014"}, {"is_disabled": 0, "is_reserved": 0, "type": "electric_scooter", "lon": -77.02491116666667, "fusion_lon": 0.0, "lat": 38.94186333333333, "rental_uris": {"android": "https://dc.lft.to/lastmile_qr_scan", "ios": "https://dc.lft.to/lastmile_qr_scan"}, "fusion_lat": 0.0, "name": "075c1368ab04a7526d6aa36d0a7e6966", "bike_id": "075c1368ab04a7526d6aa36d0a7e6966"}, {"is_disabled": 0, "is_reserved": 0, "type": "electric_scooter", "lon": -76.94995583333333, "fusion_lon": 0.0, "lat": 38.893934333333334, "rental_uris": {"android": "https://dc.lft.to/lastmile_qr_scan", "ios": "https://dc.lft.to/lastmile_qr_scan"}, "fusion_lat": 0.0, "name": "28ae7253a7be509a7f5ebe2759aa8215", "bike_id": "28ae7253a7be509a7f5ebe2759aa8215"}, {"is_disabled": 0, "is_reserved": 0, "type": "electric_scooter", "lon": -77.0449555, "fusion_lon": 0.0, "lat": 38.906661, "rental_uris": {"android": "https://dc.lft.to/lastmile_qr_scan", "ios": "https://dc.lft.to/lastmile_qr_scan"}, "fusion_lat": 0.0, "name": "5c399502a456bf98d37e5f14ddd6a608", "bike_id": "5c399502a456bf98d37e5f14ddd6a608"}, {"is_disabled": 0, "is_reserved": 0, "type": "electric_scooter", "lon": -77.03332633333333, "fusion_lon": 0.0, "lat": 38.8982435, "rental_uris": {"android": "https://dc.lft.to/lastmile_qr_scan", "ios": "https://dc.lft.to/lastmile_qr_scan"}, "fusion_lat": 0.0, "name": "ffd949c640711c2b6b8253c567a08fca", "bike_id": "ffd949c640711c2b6b8253c567a08fca"}, {"is_disabled": 0, "is_reserved": 0, "type": "electric_scooter", "lon": -77.0211835, "fusion_lon": 0.0, "lat": 38.89222183333333, "rental_uris": {"android": "https://dc.lft.to/lastmile_qr_scan", "ios": "https://dc.lft.to/lastmile_qr_scan"}, "fusion_lat": 0.0, "name": "c34169f597063798ff11e5f1a0703f57", "bike_id": "c34169f597063798ff11e5f1a0703f57"}, {"is_disabled": 0, "is_reserved": 0, "type": "electric_scooter", "lon": -77.05794833333333, "fusion_lon": 0.0, "lat": 38.93479716666667, "rental_uris": {"android": "https://dc.lft.to/lastmile_qr_scan", "ios": "https://dc.lft.to/lastmile_qr_scan"}, "fusion_lat": 0.0, "name": "a9a5b22875eee5d768e9812026cc314b", "bike_id": "a9a5b22875eee5d768e9812026cc314b"}, {"is_disabled": 0, "is_reserved": 0, "type": "electric_scooter", "lon": -76.94639083333334, "fusion_lon": 0.0, "lat": 38.89844683333333, "rental_uris": {"android": "https://dc.lft.to/lastmile_qr_scan", "ios": "https://dc.lft.to/lastmile_qr_scan"}, "fusion_lat": 0.0, "name": "28aa010f30c95e2ee856ba4aec3c3e22", "bike_id": "28aa010f30c95e2ee856ba4aec3c3e22"}, {"is_disabled": 0, "is_reserved": 0, "type": "electric_scooter", "lon": -77.045938, "fusion_lon": 0.0, "lat": 38.917153166666665, "rental_uris": {"android": "https://dc.lft.to/lastmile_qr_scan", "ios": "https://dc.lft.to/lastmile_qr_scan"}, "fusion_lat": 0.0, "name": "30b37dba8510ce694858c1042d0a5e9a", "bike_id": "30b37dba8510ce694858c1042d0a5e9a"}, {"is_disabled": 0, "is_reserved": 0, "type": "electric_scooter", "lon": -77.03438983333334, "fusion_lon": 0.0, "lat": 38.910375333333334, "rental_uris": {"android": "https://dc.lft.to/lastmile_qr_scan", "ios": "https://dc.lft.to/lastmile_qr_scan"}, "fusion_lat": 0.0, "name": "5fbe2f5c8d9a478132d96f9b9bb006ab", "bike_id": "5fbe2f5c8d9a478132d96f9b9bb006ab"}, {"is_disabled": 0, "is_reserved": 0, "type": "electric_scooter", "lon": -77.02482533333334, "fusion_lon": 0.0, "lat": 38.9299, "rental_uris": {"android": "https://dc.lft.to/lastmile_qr_scan", "ios": "https://dc.lft.to/lastmile_qr_scan"}, "fusion_lat": 0.0, "name": "76b338061d21799146802251b42ea2f8", "bike_id": "76b338061d21799146802251b42ea2f8"}, {"is_disabled": 0, "is_reserved": 0, "type": "electric_scooter", "lon": -77.03827966666667, "fusion_lon": 0.0, "lat": 38.912591166666665, "rental_uris": {"android": "https://dc.lft.to/lastmile_qr_scan", "ios": "https://dc.lft.to/lastmile_qr_scan"}, "fusion_lat": 0.0, "name": "8ea611e4463f4008d36f63d2d94d8e83", "bike_id": "8ea611e4463f4008d36f63d2d94d8e83"}, {"is_disabled": 0, "is_reserved": 0, "type": "electric_scooter", "lon": -77.04765316666666, "fusion_lon": 0.0, "lat": 38.900793, "rental_uris": {"android": "https://dc.lft.to/lastmile_qr_scan", "ios": "https://dc.lft.to/lastmile_qr_scan"}, "fusion_lat": 0.0, "name": "c84302e0484249b28058b985343ede19", "bike_id": "c84302e0484249b28058b985343ede19"}, {"is_disabled": 0, "is_reserved": 0, "type": "electric_scooter", "lon": -77.04310616666666, "fusion_lon": 0.0, "lat": 38.91870266666667, "rental_uris": {"android": "https://dc.lft.to/lastmile_qr_scan", "ios": "https://dc.lft.to/lastmile_qr_scan"}, "fusion_lat": 0.0, "name": "c6a7c2398f2eb23e48897cba7f59dbf0", "bike_id": "c6a7c2398f2eb23e48897cba7f59dbf0"}, {"is_disabled": 0, "is_reserved": 0, "type": "electric_scooter", "lon": -77.05046566666667, "fusion_lon": 0.0, "lat": 38.90080583333334, "rental_uris": {"android": "https://dc.lft.to/lastmile_qr_scan", "ios": "https://dc.lft.to/lastmile_qr_scan"}, "fusion_lat": 0.0, "name": "a244d28b6bf85f393604e36a81dc8651", "bike_id": "a244d28b6bf85f393604e36a81dc8651"}, {"is_disabled": 0, "is_reserved": 0, "type": "electric_scooter", "lon": -77.0428945, "fusion_lon": 0.0, "lat": 38.90800516666667, "rental_uris": {"android": "https://dc.lft.to/lastmile_qr_scan", "ios": "https://dc.lft.to/lastmile_qr_scan"}, "fusion_lat": 0.0, "name": "dfc56e5f90f26f8bf74b384879e8d41a", "bike_id": "dfc56e5f90f26f8bf74b384879e8d41a"}, {"is_disabled": 0, "is_reserved": 0, "type": "electric_scooter", "lon": -76.99808033333333, "fusion_lon": 0.0, "lat": 38.87667, "rental_uris": {"android": "https://dc.lft.to/lastmile_qr_scan", "ios": "https://dc.lft.to/lastmile_qr_scan"}, "fusion_lat": 0.0, "name": "85555ffc3e3c1287a3a740fd631d33a3", "bike_id": "85555ffc3e3c1287a3a740fd631d33a3"}, {"is_disabled": 0, "is_reserved": 0, "type": "electric_scooter", "lon": -77.03805133333333, "fusion_lon": 0.0, "lat": 38.90550066666667, "rental_uris": {"android": "https://dc.lft.to/lastmile_qr_scan", "ios": "https://dc.lft.to/lastmile_qr_scan"}, "fusion_lat": 0.0, "name": "f1d6d56e7a62bf079246a24748b5fa5c", "bike_id": "f1d6d56e7a62bf079246a24748b5fa5c"}, {"is_disabled": 0, "is_reserved": 0, "type": "electric_bike", "lon": -76.9291565, "fusion_lon": 0.0, "lat": 38.98030716666667, "rental_uris": {"android": "https://dc.lft.to/lastmile_qr_scan", "ios": "https://dc.lft.to/lastmile_qr_scan"}, "fusion_lat": 0.0, "name": "52e665f6d568b3caed7cc69a464e0c40", "bike_id": "52e665f6d568b3caed7cc69a464e0c40"}, {"is_disabled": 0, "is_reserved": 0, "type": "electric_scooter", "lon": -77.05909866666667, "fusion_lon": 0.0, "lat": 38.90540283333333, "rental_uris": {"android": "https://dc.lft.to/lastmile_qr_scan", "ios": "https://dc.lft.to/lastmile_qr_scan"}, "fusion_lat": 0.0, "name": "2cea32250ea802837f015dbd25e6cd20", "bike_id": "2cea32250ea802837f015dbd25e6cd20"}, {"is_disabled": 0, "is_reserved": 0, "type": "electric_scooter", "lon": -77.01774433333334, "fusion_lon": 0.0, "lat": 38.885887833333335, "rental_uris": {"android": "https://dc.lft.to/lastmile_qr_scan", "ios": "https://dc.lft.to/lastmile_qr_scan"}, "fusion_lat": 0.0, "name": "c1a2a02bb41db34363ad2d38470a54eb", "bike_id": "c1a2a02bb41db34363ad2d38470a54eb"}, {"is_disabled": 0, "is_reserved": 0, "type": "electric_bike", "lon": -77.04978583333333, "fusion_lon": 0.0, "lat": 38.9924525, "rental_uris": {"android": "https://dc.lft.to/lastmile_qr_scan", "ios": "https://dc.lft.to/lastmile_qr_scan"}, "fusion_lat": 0.0, "name": "590244c236221489594e7b475c3bd903", "bike_id": "590244c236221489594e7b475c3bd903"}, {"is_disabled": 0, "is_reserved": 0, "type": "electric_bike", "lon": -76.97823933333333, "fusion_lon": 0.0, "lat": 38.871981166666664, "rental_uris": {"android": "https://dc.lft.to/lastmile_qr_scan", "ios": "https://dc.lft.to/lastmile_qr_scan"}, "fusion_lat": 0.0, "name": "2de808a0449b151995339e69c0290bd9", "bike_id": "2de808a0449b151995339e69c0290bd9"}, {"is_disabled": 0, "is_reserved": 0, "type": "electric_scooter", "lon": -77.0255025, "fusion_lon": 0.0, "lat": 38.91633383333333, "rental_uris": {"android": "https://dc.lft.to/lastmile_qr_scan", "ios": "https://dc.lft.to/lastmile_qr_scan"}, "fusion_lat": 0.0, "name": "bd2e7df23af162051c338098aad1b1cb", "bike_id": "bd2e7df23af162051c338098aad1b1cb"}, {"is_disabled": 0, "is_reserved": 0, "type": "electric_scooter", "lon": -77.04679716666666, "fusion_lon": 0.0, "lat": 38.915771, "rental_uris": {"android": "https://dc.lft.to/lastmile_qr_scan", "ios": "https://dc.lft.to/lastmile_qr_scan"}, "fusion_lat": 0.0, "name": "685eb13504b53f52020355379825e375", "bike_id": "685eb13504b53f52020355379825e375"}, {"is_disabled": 0, "is_reserved": 0, "type": "electric_scooter", "lon": -77.023463, "fusion_lon": 0.0, "lat": 38.94295416666667, "rental_uris": {"android": "https://dc.lft.to/lastmile_qr_scan", "ios": "https://dc.lft.to/lastmile_qr_scan"}, "fusion_lat": 0.0, "name": "58789dd475891fb12a2a73d57a6e3d23", "bike_id": "58789dd475891fb12a2a73d57a6e3d23"}, {"is_disabled": 0, "is_reserved": 0, "type": "electric_bike", "lon": -77.19547016666667, "fusion_lon": 0.0, "lat": 39.115080166666665, "rental_uris": {"android": "https://dc.lft.to/lastmile_qr_scan", "ios": "https://dc.lft.to/lastmile_qr_scan"}, "fusion_lat": 0.0, "name": "a0afa804835067efbcd6263be4ddf8d6", "bike_id": "a0afa804835067efbcd6263be4ddf8d6"}, {"is_disabled": 0, "is_reserved": 0, "type": "electric_scooter", "lon": -76.94155033333334, "fusion_lon": 0.0, "lat": 38.883622, "rental_uris": {"android": "https://dc.lft.to/lastmile_qr_scan", "ios": "https://dc.lft.to/lastmile_qr_scan"}, "fusion_lat": 0.0, "name": "ae2fa0b05a1770739f26ef7b053e2251", "bike_id": "ae2fa0b05a1770739f26ef7b053e2251"}, {"is_disabled": 0, "is_reserved": 0, "type": "electric_scooter", "lon": -77.033111, "fusion_lon": 0.0, "lat": 38.956180333333336, "rental_uris": {"android": "https://dc.lft.to/lastmile_qr_scan", "ios": "https://dc.lft.to/lastmile_qr_scan"}, "fusion_lat": 0.0, "name": "c88339277fada26c3d523f12c183d656", "bike_id": "c88339277fada26c3d523f12c183d656"}, {"is_disabled": 0, "is_reserved": 0, "type": "electric_bike", "lon": -77.00601833333333, "fusion_lon": 0.0, "lat": 38.89812116666667, "rental_uris": {"android": "https://dc.lft.to/lastmile_qr_scan", "ios": "https://dc.lft.to/lastmile_qr_scan"}, "fusion_lat": 0.0, "name": "527be84200466a863e627decb883b66b", "bike_id": "527be84200466a863e627decb883b66b"}, {"is_disabled": 0, "is_reserved": 0, "type": "electric_scooter", "lon": -77.05422583333333, "fusion_lon": 0.0, "lat": 38.92824133333333, "rental_uris": {"android": "https://dc.lft.to/lastmile_qr_scan", "ios": "https://dc.lft.to/lastmile_qr_scan"}, "fusion_lat": 0.0, "name": "de7a4441374d9677a47ff21a8cabd3dd", "bike_id": "de7a4441374d9677a47ff21a8cabd3dd"}, {"is_disabled": 0, "is_reserved": 0, "type": "electric_scooter", "lon": -77.012023, "fusion_lon": 0.0, "lat": 38.911095833333334, "rental_uris": {"android": "https://dc.lft.to/lastmile_qr_scan", "ios": "https://dc.lft.to/lastmile_qr_scan"}, "fusion_lat": 0.0, "name": "12b33447a13bfc8df2c012dd2ab75842", "bike_id": "12b33447a13bfc8df2c012dd2ab75842"}, {"is_disabled": 0, "is_reserved": 0, "type": "electric_scooter", "lon": -77.00067333333334, "fusion_lon": 0.0, "lat": 38.900527, "rental_uris": {"android": "https://dc.lft.to/lastmile_qr_scan", "ios": "https://dc.lft.to/lastmile_qr_scan"}, "fusion_lat": 0.0, "name": "6afe6b5fed4e868ea416b2c5b8ef3b37", "bike_id": "6afe6b5fed4e868ea416b2c5b8ef3b37"}, {"is_disabled": 0, "is_reserved": 0, "type": "electric_scooter", "lon": -77.044082, "fusion_lon": 0.0, "lat": 38.917758, "rental_uris": {"android": "https://dc.lft.to/lastmile_qr_scan", "ios": "https://dc.lft.to/lastmile_qr_scan"}, "fusion_lat": 0.0, "name": "b235b19340ba334c5c61959f5d233dc7", "bike_id": "b235b19340ba334c5c61959f5d233dc7"}, {"is_disabled": 0, "is_reserved": 0, "type": "electric_scooter", "lon": -77.04007583333333, "fusion_lon": 0.0, "lat": 38.90603983333333, "rental_uris": {"android": "https://dc.lft.to/lastmile_qr_scan", "ios": "https://dc.lft.to/lastmile_qr_scan"}, "fusion_lat": 0.0, "name": "b8c3e2a20fffdef1c9d1e4bc18911e2d", "bike_id": "b8c3e2a20fffdef1c9d1e4bc18911e2d"}, {"is_disabled": 0, "is_reserved": 0, "type": "electric_scooter", "lon": -77.03761583333333, "fusion_lon": 0.0, "lat": 38.916870333333335, "rental_uris": {"android": "https://dc.lft.to/lastmile_qr_scan", "ios": "https://dc.lft.to/lastmile_qr_scan"}, "fusion_lat": 0.0, "name": "3885d13eb60699bd95e04f40d7fbc056", "bike_id": "3885d13eb60699bd95e04f40d7fbc056"}, {"is_disabled": 0, "is_reserved": 0, "type": "electric_scooter", "lon": -77.04161183333333, "fusion_lon": 0.0, "lat": 38.898792666666665, "rental_uris": {"android": "https://dc.lft.to/lastmile_qr_scan", "ios": "https://dc.lft.to/lastmile_qr_scan"}, "fusion_lat": 0.0, "name": "17dd5833526add19f01878c41869e6a2", "bike_id": "17dd5833526add19f01878c41869e6a2"}, {"is_disabled": 0, "is_reserved": 0, "type": "electric_scooter", "lon": -77.03648, "fusion_lon": 0.0, "lat": 38.92285316666667, "rental_uris": {"android": "https://dc.lft.to/lastmile_qr_scan", "ios": "https://dc.lft.to/lastmile_qr_scan"}, "fusion_lat": 0.0, "name": "61aa33739ed0e6a849b0d568116533e8", "bike_id": "61aa33739ed0e6a849b0d568116533e8"}, {"is_disabled": 0, "is_reserved": 0, "type": "electric_scooter", "lon": -77.05278783333333, "fusion_lon": 0.0, "lat": 38.92253916666667, "rental_uris": {"android": "https://dc.lft.to/lastmile_qr_scan", "ios": "https://dc.lft.to/lastmile_qr_scan"}, "fusion_lat": 0.0, "name": "6ec1d3762953392f74019621909263ea", "bike_id": "6ec1d3762953392f74019621909263ea"}, {"is_disabled": 0, "is_reserved": 0, "type": "electric_scooter", "lon": -77.044687, "fusion_lon": 0.0, "lat": 38.902412166666664, "rental_uris": {"android": "https://dc.lft.to/lastmile_qr_scan", "ios": "https://dc.lft.to/lastmile_qr_scan"}, "fusion_lat": 0.0, "name": "4f2d8b5f09e26d210d04bb6f69d7eb5f", "bike_id": "4f2d8b5f09e26d210d04bb6f69d7eb5f"}, {"is_disabled": 0, "is_reserved": 0, "type": "electric_scooter", "lon": -77.03701466666666, "fusion_lon": 0.0, "lat": 38.9264485, "rental_uris": {"android": "https://dc.lft.to/lastmile_qr_scan", "ios": "https://dc.lft.to/lastmile_qr_scan"}, "fusion_lat": 0.0, "name": "e8bcc9dbad931bf1c5330a025f23e944", "bike_id": "e8bcc9dbad931bf1c5330a025f23e944"}, {"is_disabled": 0, "is_reserved": 0, "type": "electric_scooter", "lon": -76.98730716666667, "fusion_lon": 0.0, "lat": 38.8670645, "rental_uris": {"android": "https://dc.lft.to/lastmile_qr_scan", "ios": "https://dc.lft.to/lastmile_qr_scan"}, "fusion_lat": 0.0, "name": "d635bb3702bf0898ceacbe0401544446", "bike_id": "d635bb3702bf0898ceacbe0401544446"}, {"is_disabled": 0, "is_reserved": 0, "type": "electric_bike", "lon": -77.00906566666667, "fusion_lon": 0.0, "lat": 38.87445, "rental_uris": {"android": "https://dc.lft.to/lastmile_qr_scan", "ios": "https://dc.lft.to/lastmile_qr_scan"}, "fusion_lat": 0.0, "name": "89b5a00d26bd86f3c8256f1f94c5b15c", "bike_id": "89b5a00d26bd86f3c8256f1f94c5b15c"}, {"is_disabled": 0, "is_reserved": 0, "type": "electric_bike", "lon": -77.0512935, "fusion_lon": 0.0, "lat": 38.8977395, "rental_uris": {"android": "https://dc.lft.to/lastmile_qr_scan", "ios": "https://dc.lft.to/lastmile_qr_scan"}, "fusion_lat": 0.0, "name": "fd27789a8e26fca8adacb537b9ad1776", "bike_id": "fd27789a8e26fca8adacb537b9ad1776"}, {"is_disabled": 0, "is_reserved": 0, "type": "electric_scooter", "lon": -77.02297133333333, "fusion_lon": 0.0, "lat": 38.91776383333333, "rental_uris": {"android": "https://dc.lft.to/lastmile_qr_scan", "ios": "https://dc.lft.to/lastmile_qr_scan"}, "fusion_lat": 0.0, "name": "0760113d152b5fb410638a1bbe418588", "bike_id": "0760113d152b5fb410638a1bbe418588"}, {"is_disabled": 0, "is_reserved": 0, "type": "electric_scooter", "lon": -76.99399533333333, "fusion_lon": 0.0, "lat": 38.92168, "rental_uris": {"android": "https://dc.lft.to/lastmile_qr_scan", "ios": "https://dc.lft.to/lastmile_qr_scan"}, "fusion_lat": 0.0, "name": "5b9f84e3bc42d7e55f17972e54fc2b26", "bike_id": "5b9f84e3bc42d7e55f17972e54fc2b26"}, {"is_disabled": 0, "is_reserved": 0, "type": "electric_scooter", "lon": -77.03123066666667, "fusion_lon": 0.0, "lat": 38.9201715, "rental_uris": {"android": "https://dc.lft.to/lastmile_qr_scan", "ios": "https://dc.lft.to/lastmile_qr_scan"}, "fusion_lat": 0.0, "name": "883f15c198b3a724fe314fc5e52f02e3", "bike_id": "883f15c198b3a724fe314fc5e52f02e3"}, {"is_disabled": 0, "is_reserved": 0, "type": "electric_scooter", "lon": -77.03443433333334, "fusion_lon": 0.0, "lat": 38.9149265, "rental_uris": {"android": "https://dc.lft.to/lastmile_qr_scan", "ios": "https://dc.lft.to/lastmile_qr_scan"}, "fusion_lat": 0.0, "name": "fa10c91571585414a0112478098fe541", "bike_id": "fa10c91571585414a0112478098fe541"}, {"is_disabled": 0, "is_reserved": 0, "type": "electric_scooter", "lon": -77.0422055, "fusion_lon": 0.0, "lat": 38.93156616666667, "rental_uris": {"android": "https://dc.lft.to/lastmile_qr_scan", "ios": "https://dc.lft.to/lastmile_qr_scan"}, "fusion_lat": 0.0, "name": "e2f6aae237c89b7be9c16e812837cb1c", "bike_id": "e2f6aae237c89b7be9c16e812837cb1c"}, {"is_disabled": 0, "is_reserved": 0, "type": "electric_scooter", "lon": -76.99189566666666, "fusion_lon": 0.0, "lat": 38.92580783333333, "rental_uris": {"android": "https://dc.lft.to/lastmile_qr_scan", "ios": "https://dc.lft.to/lastmile_qr_scan"}, "fusion_lat": 0.0, "name": "4129bf8d7b941713780e0969bfdd5af8", "bike_id": "4129bf8d7b941713780e0969bfdd5af8"}, {"is_disabled": 0, "is_reserved": 0, "type": "electric_scooter", "lon": -77.02697933333333, "fusion_lon": 0.0, "lat": 38.91674666666667, "rental_uris": {"android": "https://dc.lft.to/lastmile_qr_scan", "ios": "https://dc.lft.to/lastmile_qr_scan"}, "fusion_lat": 0.0, "name": "7c932aaebd1c172b72db5277fc333a05", "bike_id": "7c932aaebd1c172b72db5277fc333a05"}, {"is_disabled": 0, "is_reserved": 0, "type": "electric_scooter", "lon": -77.0449265, "fusion_lon": 0.0, "lat": 38.911161666666665, "rental_uris": {"android": "https://dc.lft.to/lastmile_qr_scan", "ios": "https://dc.lft.to/lastmile_qr_scan"}, "fusion_lat": 0.0, "name": "a6edd4ae7feab4aa1554ca3ff37ef0e0", "bike_id": "a6edd4ae7feab4aa1554ca3ff37ef0e0"}, {"is_disabled": 0, "is_reserved": 0, "type": "electric_scooter", "lon": -77.04683066666666, "fusion_lon": 0.0, "lat": 38.892219833333336, "rental_uris": {"android": "https://dc.lft.to/lastmile_qr_scan", "ios": "https://dc.lft.to/lastmile_qr_scan"}, "fusion_lat": 0.0, "name": "e14daf2495a31cb4a780480afa734ebe", "bike_id": "e14daf2495a31cb4a780480afa734ebe"}, {"is_disabled": 0, "is_reserved": 0, "type": "electric_scooter", "lon": -77.0020955, "fusion_lon": 0.0, "lat": 38.90283183333333, "rental_uris": {"android": "https://dc.lft.to/lastmile_qr_scan", "ios": "https://dc.lft.to/lastmile_qr_scan"}, "fusion_lat": 0.0, "name": "edd25df4d58432ca9d59708aa7680ac6", "bike_id": "edd25df4d58432ca9d59708aa7680ac6"}, {"is_disabled": 0, "is_reserved": 0, "type": "electric_scooter", "lon": -77.03426983333334, "fusion_lon": 0.0, "lat": 38.93430733333334, "rental_uris": {"android": "https://dc.lft.to/lastmile_qr_scan", "ios": "https://dc.lft.to/lastmile_qr_scan"}, "fusion_lat": 0.0, "name": "cd93fae034082948ddbcde204241b0f0", "bike_id": "cd93fae034082948ddbcde204241b0f0"}, {"is_disabled": 0, "is_reserved": 0, "type": "electric_scooter", "lon": -76.93358333333333, "fusion_lon": 0.0, "lat": 38.89906533333333, "rental_uris": {"android": "https://dc.lft.to/lastmile_qr_scan", "ios": "https://dc.lft.to/lastmile_qr_scan"}, "fusion_lat": 0.0, "name": "c673992ae6e224e3de902b57afe5fca1", "bike_id": "c673992ae6e224e3de902b57afe5fca1"}, {"is_disabled": 0, "is_reserved": 0, "type": "electric_scooter", "lon": -76.990573, "fusion_lon": 0.0, "lat": 38.90031066666667, "rental_uris": {"android": "https://dc.lft.to/lastmile_qr_scan", "ios": "https://dc.lft.to/lastmile_qr_scan"}, "fusion_lat": 0.0, "name": "f0389b7d115da95f695d95604cb1f5a0", "bike_id": "f0389b7d115da95f695d95604cb1f5a0"}, {"is_disabled": 0, "is_reserved": 0, "type": "electric_scooter", "lon": -77.05186683333334, "fusion_lon": 0.0, "lat": 38.923399, "rental_uris": {"android": "https://dc.lft.to/lastmile_qr_scan", "ios": "https://dc.lft.to/lastmile_qr_scan"}, "fusion_lat": 0.0, "name": "0f2f153c9dd56c1b535b525470167091", "bike_id": "0f2f153c9dd56c1b535b525470167091"}, {"is_disabled": 0, "is_reserved": 0, "type": "electric_scooter", "lon": -77.01186633333333, "fusion_lon": 0.0, "lat": 38.90653266666666, "rental_uris": {"android": "https://dc.lft.to/lastmile_qr_scan", "ios": "https://dc.lft.to/lastmile_qr_scan"}, "fusion_lat": 0.0, "name": "bfe1b5be2a0000d17f64653a085ec1f0", "bike_id": "bfe1b5be2a0000d17f64653a085ec1f0"}, {"is_disabled": 0, "is_reserved": 0, "type": "electric_bike", "lon": -76.981722, "fusion_lon": 0.0, "lat": 38.9595715, "rental_uris": {"android": "https://dc.lft.to/lastmile_qr_scan", "ios": "https://dc.lft.to/lastmile_qr_scan"}, "fusion_lat": 0.0, "name": "52fa37d91dc8b4bcc14426b66bb5ef11", "bike_id": "52fa37d91dc8b4bcc14426b66bb5ef11"}, {"is_disabled": 0, "is_reserved": 0, "type": "electric_scooter", "lon": -77.00249566666666, "fusion_lon": 0.0, "lat": 38.952181833333334, "rental_uris": {"android": "https://dc.lft.to/lastmile_qr_scan", "ios": "https://dc.lft.to/lastmile_qr_scan"}, "fusion_lat": 0.0, "name": "47655f9ad06d0a723be726fe71f992ac", "bike_id": "47655f9ad06d0a723be726fe71f992ac"}, {"is_disabled": 0, "is_reserved": 0, "type": "electric_scooter", "lon": -76.956717, "fusion_lon": 0.0, "lat": 38.887652333333335, "rental_uris": {"android": "https://dc.lft.to/lastmile_qr_scan", "ios": "https://dc.lft.to/lastmile_qr_scan"}, "fusion_lat": 0.0, "name": "9c31b8c8398b0da9d3efe2c84a461bcc", "bike_id": "9c31b8c8398b0da9d3efe2c84a461bcc"}, {"is_disabled": 0, "is_reserved": 0, "type": "electric_scooter", "lon": -76.973802, "fusion_lon": 0.0, "lat": 38.883685666666665, "rental_uris": {"android": "https://dc.lft.to/lastmile_qr_scan", "ios": "https://dc.lft.to/lastmile_qr_scan"}, "fusion_lat": 0.0, "name": "116141594792f80559f3b5082eefbc26", "bike_id": "116141594792f80559f3b5082eefbc26"}, {"is_disabled": 0, "is_reserved": 0, "type": "electric_scooter", "lon": -76.94784183333333, "fusion_lon": 0.0, "lat": 38.88464066666667, "rental_uris": {"android": "https://dc.lft.to/lastmile_qr_scan", "ios": "https://dc.lft.to/lastmile_qr_scan"}, "fusion_lat": 0.0, "name": "a7bc7520b34a518e6c898435afcc577a", "bike_id": "a7bc7520b34a518e6c898435afcc577a"}, {"is_disabled": 0, "is_reserved": 0, "type": "electric_scooter", "lon": -77.04386616666666, "fusion_lon": 0.0, "lat": 38.9057385, "rental_uris": {"android": "https://dc.lft.to/lastmile_qr_scan", "ios": "https://dc.lft.to/lastmile_qr_scan"}, "fusion_lat": 0.0, "name": "ce5c4c23fb422527d5875998250f2f04", "bike_id": "ce5c4c23fb422527d5875998250f2f04"}, {"is_disabled": 0, "is_reserved": 0, "type": "electric_scooter", "lon": -77.03656633333334, "fusion_lon": 0.0, "lat": 38.95501083333333, "rental_uris": {"android": "https://dc.lft.to/lastmile_qr_scan", "ios": "https://dc.lft.to/lastmile_qr_scan"}, "fusion_lat": 0.0, "name": "10a86ab8893316ae86994409d7440a0a", "bike_id": "10a86ab8893316ae86994409d7440a0a"}, {"is_disabled": 0, "is_reserved": 0, "type": "electric_scooter", "lon": -77.05410916666666, "fusion_lon": 0.0, "lat": 38.95046883333333, "rental_uris": {"android": "https://dc.lft.to/lastmile_qr_scan", "ios": "https://dc.lft.to/lastmile_qr_scan"}, "fusion_lat": 0.0, "name": "50033d2c1b5959c13091b5ef109dbef6", "bike_id": "50033d2c1b5959c13091b5ef109dbef6"}, {"is_disabled": 0, "is_reserved": 0, "type": "electric_scooter", "lon": -77.0407355, "fusion_lon": 0.0, "lat": 38.89620133333333, "rental_uris": {"android": "https://dc.lft.to/lastmile_qr_scan", "ios": "https://dc.lft.to/lastmile_qr_scan"}, "fusion_lat": 0.0, "name": "47a0105fec16c82f4f72ea6d3aa5eda2", "bike_id": "47a0105fec16c82f4f72ea6d3aa5eda2"}, {"is_disabled": 0, "is_reserved": 0, "type": "electric_scooter", "lon": -77.02162983333334, "fusion_lon": 0.0, "lat": 38.926160833333334, "rental_uris": {"android": "https://dc.lft.to/lastmile_qr_scan", "ios": "https://dc.lft.to/lastmile_qr_scan"}, "fusion_lat": 0.0, "name": "e10d45b4a85313bc0487336926c8e64a", "bike_id": "e10d45b4a85313bc0487336926c8e64a"}, {"is_disabled": 0, "is_reserved": 0, "type": "electric_scooter", "lon": -77.00313416666667, "fusion_lon": 0.0, "lat": 38.840369833333334, "rental_uris": {"android": "https://dc.lft.to/lastmile_qr_scan", "ios": "https://dc.lft.to/lastmile_qr_scan"}, "fusion_lat": 0.0, "name": "274a6e66f8c19d9faf9de27acd5f45c1", "bike_id": "274a6e66f8c19d9faf9de27acd5f45c1"}, {"is_disabled": 0, "is_reserved": 0, "type": "electric_scooter", "lon": -77.0410375, "fusion_lon": 0.0, "lat": 38.900201333333335, "rental_uris": {"android": "https://dc.lft.to/lastmile_qr_scan", "ios": "https://dc.lft.to/lastmile_qr_scan"}, "fusion_lat": 0.0, "name": "d0c7a6a22e5af0fc4455ae257a64b328", "bike_id": "d0c7a6a22e5af0fc4455ae257a64b328"}, {"is_disabled": 0, "is_reserved": 0, "type": "electric_scooter", "lon": -76.94899316666667, "fusion_lon": 0.0, "lat": 38.89526733333334, "rental_uris": {"android": "https://dc.lft.to/lastmile_qr_scan", "ios": "https://dc.lft.to/lastmile_qr_scan"}, "fusion_lat": 0.0, "name": "af59a555c2345e3840133ff54633df02", "bike_id": "af59a555c2345e3840133ff54633df02"}, {"is_disabled": 0, "is_reserved": 0, "type": "electric_scooter", "lon": -77.04126616666667, "fusion_lon": 0.0, "lat": 38.92347266666667, "rental_uris": {"android": "https://dc.lft.to/lastmile_qr_scan", "ios": "https://dc.lft.to/lastmile_qr_scan"}, "fusion_lat": 0.0, "name": "1f459148d607854d7e79dece533a33e2", "bike_id": "1f459148d607854d7e79dece533a33e2"}, {"is_disabled": 0, "is_reserved": 0, "type": "electric_scooter", "lon": -77.05097416666666, "fusion_lon": 0.0, "lat": 38.92342216666667, "rental_uris": {"android": "https://dc.lft.to/lastmile_qr_scan", "ios": "https://dc.lft.to/lastmile_qr_scan"}, "fusion_lat": 0.0, "name": "e8409ef5c85482b530d0f3fe937c32d5", "bike_id": "e8409ef5c85482b530d0f3fe937c32d5"}, {"is_disabled": 0, "is_reserved": 0, "type": "electric_scooter", "lon": -77.01994383333333, "fusion_lon": 0.0, "lat": 38.900994, "rental_uris": {"android": "https://dc.lft.to/lastmile_qr_scan", "ios": "https://dc.lft.to/lastmile_qr_scan"}, "fusion_lat": 0.0, "name": "11783a547512ebe9f54a04912d32f075", "bike_id": "11783a547512ebe9f54a04912d32f075"}, {"is_disabled": 0, "is_reserved": 0, "type": "electric_scooter", "lon": -77.0271285, "fusion_lon": 0.0, "lat": 38.90498, "rental_uris": {"android": "https://dc.lft.to/lastmile_qr_scan", "ios": "https://dc.lft.to/lastmile_qr_scan"}, "fusion_lat": 0.0, "name": "2e963b85ca83597b68b355172a87ccc1", "bike_id": "2e963b85ca83597b68b355172a87ccc1"}, {"is_disabled": 0, "is_reserved": 0, "type": "electric_scooter", "lon": -77.04423183333333, "fusion_lon": 0.0, "lat": 38.9094475, "rental_uris": {"android": "https://dc.lft.to/lastmile_qr_scan", "ios": "https://dc.lft.to/lastmile_qr_scan"}, "fusion_lat": 0.0, "name": "fba3d8e8cf942afcdfc63f41e54e8721", "bike_id": "fba3d8e8cf942afcdfc63f41e54e8721"}, {"is_disabled": 0, "is_reserved": 0, "type": "electric_scooter", "lon": -77.03199983333333, "fusion_lon": 0.0, "lat": 38.91800666666666, "rental_uris": {"android": "https://dc.lft.to/lastmile_qr_scan", "ios": "https://dc.lft.to/lastmile_qr_scan"}, "fusion_lat": 0.0, "name": "807109fc645f69ca87027e8975bdeae5", "bike_id": "807109fc645f69ca87027e8975bdeae5"}, {"is_disabled": 0, "is_reserved": 0, "type": "electric_scooter", "lon": -77.04483816666666, "fusion_lon": 0.0, "lat": 38.9137535, "rental_uris": {"android": "https://dc.lft.to/lastmile_qr_scan", "ios": "https://dc.lft.to/lastmile_qr_scan"}, "fusion_lat": 0.0, "name": "d734232be5241ff4f0e8e74323aa2445", "bike_id": "d734232be5241ff4f0e8e74323aa2445"}, {"is_disabled": 0, "is_reserved": 0, "type": "electric_scooter", "lon": -77.01377716666667, "fusion_lon": 0.0, "lat": 38.928635, "rental_uris": {"android": "https://dc.lft.to/lastmile_qr_scan", "ios": "https://dc.lft.to/lastmile_qr_scan"}, "fusion_lat": 0.0, "name": "96a4b1ec3ed99271ee0de84a7a26639e", "bike_id": "96a4b1ec3ed99271ee0de84a7a26639e"}, {"is_disabled": 0, "is_reserved": 0, "type": "electric_scooter", "lon": -77.04147316666666, "fusion_lon": 0.0, "lat": 38.903963166666664, "rental_uris": {"android": "https://dc.lft.to/lastmile_qr_scan", "ios": "https://dc.lft.to/lastmile_qr_scan"}, "fusion_lat": 0.0, "name": "edb5790fd90093ca34fa7b44f6920b48", "bike_id": "edb5790fd90093ca34fa7b44f6920b48"}, {"is_disabled": 0, "is_reserved": 0, "type": "electric_bike", "lon": -76.97326816666667, "fusion_lon": 0.0, "lat": 38.85066966666667, "rental_uris": {"android": "https://dc.lft.to/lastmile_qr_scan", "ios": "https://dc.lft.to/lastmile_qr_scan"}, "fusion_lat": 0.0, "name": "c9f6110b30f185abfe4003b8c055174c", "bike_id": "c9f6110b30f185abfe4003b8c055174c"}, {"is_disabled": 0, "is_reserved": 0, "type": "electric_scooter", "lon": -77.02482816666667, "fusion_lon": 0.0, "lat": 38.91610583333333, "rental_uris": {"android": "https://dc.lft.to/lastmile_qr_scan", "ios": "https://dc.lft.to/lastmile_qr_scan"}, "fusion_lat": 0.0, "name": "4655ca04b77ab4f3255ea1b350d0e0b9", "bike_id": "4655ca04b77ab4f3255ea1b350d0e0b9"}, {"is_disabled": 0, "is_reserved": 0, "type": "electric_scooter", "lon": -77.03461733333333, "fusion_lon": 0.0, "lat": 38.90268, "rental_uris": {"android": "https://dc.lft.to/lastmile_qr_scan", "ios": "https://dc.lft.to/lastmile_qr_scan"}, "fusion_lat": 0.0, "name": "57bceb6a5072f430c2cd0afb5202c520", "bike_id": "57bceb6a5072f430c2cd0afb5202c520"}, {"is_disabled": 0, "is_reserved": 0, "type": "electric_scooter", "lon": -77.00858916666667, "fusion_lon": 0.0, "lat": 38.9066115, "rental_uris": {"android": "https://dc.lft.to/lastmile_qr_scan", "ios": "https://dc.lft.to/lastmile_qr_scan"}, "fusion_lat": 0.0, "name": "daccca85e6b5157b8a3039fff14d2a75", "bike_id": "daccca85e6b5157b8a3039fff14d2a75"}, {"is_disabled": 0, "is_reserved": 0, "type": "electric_scooter", "lon": -77.04011916666667, "fusion_lon": 0.0, "lat": 38.922114666666666, "rental_uris": {"android": "https://dc.lft.to/lastmile_qr_scan", "ios": "https://dc.lft.to/lastmile_qr_scan"}, "fusion_lat": 0.0, "name": "cf007160e4435304aa58d8e8598cf6e1", "bike_id": "cf007160e4435304aa58d8e8598cf6e1"}, {"is_disabled": 0, "is_reserved": 0, "type": "electric_scooter", "lon": -77.0423815, "fusion_lon": 0.0, "lat": 38.93411416666667, "rental_uris": {"android": "https://dc.lft.to/lastmile_qr_scan", "ios": "https://dc.lft.to/lastmile_qr_scan"}, "fusion_lat": 0.0, "name": "108abbc8c3ef59f8c74a3ce27e8aa712", "bike_id": "108abbc8c3ef59f8c74a3ce27e8aa712"}, {"is_disabled": 0, "is_reserved": 0, "type": "electric_scooter", "lon": -77.04106533333334, "fusion_lon": 0.0, "lat": 38.9244895, "rental_uris": {"android": "https://dc.lft.to/lastmile_qr_scan", "ios": "https://dc.lft.to/lastmile_qr_scan"}, "fusion_lat": 0.0, "name": "c9c898d0b4beb47ebb4d8cea39eb82f5", "bike_id": "c9c898d0b4beb47ebb4d8cea39eb82f5"}, {"is_disabled": 0, "is_reserved": 0, "type": "electric_scooter", "lon": -77.0331045, "fusion_lon": 0.0, "lat": 38.92867966666667, "rental_uris": {"android": "https://dc.lft.to/lastmile_qr_scan", "ios": "https://dc.lft.to/lastmile_qr_scan"}, "fusion_lat": 0.0, "name": "3b7df07e32f6931698806bea3b3113f2", "bike_id": "3b7df07e32f6931698806bea3b3113f2"}, {"is_disabled": 0, "is_reserved": 0, "type": "electric_scooter", "lon": -77.04282616666667, "fusion_lon": 0.0, "lat": 38.91110333333334, "rental_uris": {"android": "https://dc.lft.to/lastmile_qr_scan", "ios": "https://dc.lft.to/lastmile_qr_scan"}, "fusion_lat": 0.0, "name": "f250265083b1aee381c728c9d5b18275", "bike_id": "f250265083b1aee381c728c9d5b18275"}, {"is_disabled": 0, "is_reserved": 0, "type": "electric_scooter", "lon": -77.0247455, "fusion_lon": 0.0, "lat": 38.939105166666664, "rental_uris": {"android": "https://dc.lft.to/lastmile_qr_scan", "ios": "https://dc.lft.to/lastmile_qr_scan"}, "fusion_lat": 0.0, "name": "0f17ed9cfcb42827aefda133f44701fa", "bike_id": "0f17ed9cfcb42827aefda133f44701fa"}, {"is_disabled": 0, "is_reserved": 0, "type": "electric_bike", "lon": -77.18288166666666, "fusion_lon": 0.0, "lat": 38.88344383333333, "rental_uris": {"android": "https://dc.lft.to/lastmile_qr_scan", "ios": "https://dc.lft.to/lastmile_qr_scan"}, "fusion_lat": 0.0, "name": "4f026bb6ddc7874f59bfe777ea177504", "bike_id": "4f026bb6ddc7874f59bfe777ea177504"}, {"is_disabled": 0, "is_reserved": 0, "type": "electric_scooter", "lon": -77.05928883333333, "fusion_lon": 0.0, "lat": 38.9366135, "rental_uris": {"android": "https://dc.lft.to/lastmile_qr_scan", "ios": "https://dc.lft.to/lastmile_qr_scan"}, "fusion_lat": 0.0, "name": "b1feeec70360d23335c36efb2abdc60e", "bike_id": "b1feeec70360d23335c36efb2abdc60e"}, {"is_disabled": 0, "is_reserved": 0, "type": "electric_scooter", "lon": -76.93108933333333, "fusion_lon": 0.0, "lat": 38.88014666666667, "rental_uris": {"android": "https://dc.lft.to/lastmile_qr_scan", "ios": "https://dc.lft.to/lastmile_qr_scan"}, "fusion_lat": 0.0, "name": "7d024d52b8b2234a13a8ce069dd6e9b8", "bike_id": "7d024d52b8b2234a13a8ce069dd6e9b8"}, {"is_disabled": 0, "is_reserved": 0, "type": "electric_scooter", "lon": -77.02840466666666, "fusion_lon": 0.0, "lat": 38.895293333333335, "rental_uris": {"android": "https://dc.lft.to/lastmile_qr_scan", "ios": "https://dc.lft.to/lastmile_qr_scan"}, "fusion_lat": 0.0, "name": "4849b8eef0dcf6986bcbff9e273321cc", "bike_id": "4849b8eef0dcf6986bcbff9e273321cc"}, {"is_disabled": 0, "is_reserved": 0, "type": "electric_scooter", "lon": -77.03501233333333, "fusion_lon": 0.0, "lat": 38.91873666666667, "rental_uris": {"android": "https://dc.lft.to/lastmile_qr_scan", "ios": "https://dc.lft.to/lastmile_qr_scan"}, "fusion_lat": 0.0, "name": "dda0f194a21b0280e7f993063255c203", "bike_id": "dda0f194a21b0280e7f993063255c203"}, {"is_disabled": 0, "is_reserved": 0, "type": "electric_scooter", "lon": -76.98910466666666, "fusion_lon": 0.0, "lat": 38.8665685, "rental_uris": {"android": "https://dc.lft.to/lastmile_qr_scan", "ios": "https://dc.lft.to/lastmile_qr_scan"}, "fusion_lat": 0.0, "name": "8d839d75840ac77fc48d6fe59815d302", "bike_id": "8d839d75840ac77fc48d6fe59815d302"},