{"data": {"bikes": [{"is_disabled": 0, "fusion_lon": 0.0, "fusion_lat": 0.0, "lat": 38.950005833333336, "type": "electric_bike", "lon": -77.3531245, "bike_id": "cc86eb910c8080849174478c87b4871e", "rental_uris": {"android": "https://dc.lft.to/lastmile_qr_scan", "ios": "https://dc.lft.to/lastmile_qr_scan"}, "name": "cc86eb910c8080849174478c87b4871e", "is_reserved": 0}, {"is_disabled": 0, "fusion_lon": 0.0, "fusion_lat": 0.0, "lat": 38.876754166666665, "type": "electric_scooter", "lon": -76.93190266666667, "bike_id": "fa3c5745ec1f7ec1b10e675f10921e96", "rental_uris": {"android": "https://dc.lft.to/lastmile_qr_scan", "ios": "https://dc.lft.to/lastmile_qr_scan"}, "name": "fa3c5745ec1f7ec1b10e675f10921e96", "is_reserved": 0}, {"is_disabled": 0, "fusion_lon": 0.0, "fusion_lat": 0.0, "lat": 38.89720883333333, "type": "electric_scooter", "lon": -77.0480775, "bike_id": "039face4ae6fc6ee02db77c261314048", "rental_uris": {"android": "https://dc.lft.to/lastmile_qr_scan", "ios": "https://dc.lft.to/lastmile_qr_scan"}, "name": "039face4ae6fc6ee02db77c261314048", "is_reserved": 0}, {"is_disabled": 0, "fusion_lon": 0.0, "fusion_lat": 0.0, "lat": 38.9111745, "type": "electric_scooter", "lon": -77.03738116666666, "bike_id": "6e518b8c20792c004b83a04e5dbd2401", "rental_uris": {"android": "https://dc.lft.to/lastmile_qr_scan", "ios": "https://dc.lft.to/lastmile_qr_scan"}, "name": "6e518b8c20792c004b83a04e5dbd2401", "is_reserved": 0}, {"is_disabled": 0, "fusion_lon": 0.0, "fusion_lat": 0.0, "lat": 38.90125533333333, "type": "electric_scooter", "lon": -77.00322083333333, "bike_id": "df2dc90d0e9c15230cf4fadf345b489d", "rental_uris": {"android": "https://dc.lft.to/lastmile_qr_scan", "ios": "https://dc.lft.to/lastmile_qr_scan"}, "name": "df2dc90d0e9c15230cf4fadf345b489d", "is_reserved": 0}, {"is_disabled": 0, "fusion_lon": 0.0, "fusion_lat": 0.0, "lat": 38.898417, "type": "electric_scooter", "lon": -77.02920766666666, "bike_id": "068ae76fd5faedff075d64da1b1062bf", "rental_uris": {"android": "https://dc.lft.to/lastmile_qr_scan", "ios": "https://dc.lft.to/lastmile_qr_scan"}, "name": "068ae76fd5faedff075d64da1b1062bf", "is_reserved": 0}, {"is_disabled": 0, "fusion_lon": 0.0, "fusion_lat": 0.0, "lat": 38.90482216666667, "type": "electric_scooter", "lon": -77.04863233333333, "bike_id": "dc05b88c60efed247b21ab92228f22bd", "rental_uris": {"android": "https://dc.lft.to/lastmile_qr_scan", "ios": "https://dc.lft.to/lastmile_qr_scan"}, "name": "dc05b88c60efed247b21ab92228f22bd", "is_reserved": 0}, {"is_disabled": 0, "fusion_lon": 0.0, "fusion_lat": 0.0, "lat": 38.91402766666667, "type": "electric_scooter", "lon": -77.037588, "bike_id": "f8015b25af03e7afb56e3ac07def6e4e", "rental_uris": {"android": "https://dc.lft.to/lastmile_qr_scan", "ios": "https://dc.lft.to/lastmile_qr_scan"}, "name": "f8015b25af03e7afb56e3ac07def6e4e", "is_reserved": 0}, {"is_disabled": 0, "fusion_lon": 0.0, "fusion_lat": 0.0, "lat": 38.912172, "type": "electric_scooter", "lon": -77.0383995, "bike_id": "b19bf251dadfda5b330ced1441b76571", "rental_uris": {"android": "https://dc.lft.to/lastmile_qr_scan", "ios": "https://dc.lft.to/lastmile_qr_scan"}, "name": "b19bf251dadfda5b330ced1441b76571", "is_reserved": 0}, {"is_disabled": 0, "fusion_lon": 0.0, "fusion_lat": 0.0, "lat": 39.058125, "type": "electric_bike", "lon": -77.126266, "bike_id": "9e24d9068f822ec31051943af9038828", "rental_uris": {"android": "https://dc.lft.to/lastmile_qr_scan", "ios": "https://dc.lft.to/lastmile_qr_scan"}, "name": "9e24d9068f822ec31051943af9038828", "is_reserved": 0}, {"is_disabled": 0, "fusion_lon": 0.0, "fusion_lat": 0.0, "lat": 38.90362066666667, "type": "electric_scooter", "lon": -77.0260165, "bike_id": "caa7c54d769a648af1bc242bb8f313b7", "rental_uris": {"android": "https://dc.lft.to/lastmile_qr_scan", "ios": "https://dc.lft.to/lastmile_qr_scan"}, "name": "caa7c54d769a648af1bc242bb8f313b7", "is_reserved": 0}, {"is_disabled": 0, "fusion_lon": 0.0, "fusion_lat": 0.0, "lat": 38.941566, "type": "electric_bike", "lon": -77.00192566666666, "bike_id": "7569dda84e07ce3f9705a7d6f5abbafa", "rental_uris": {"android": "https://dc.lft.to/lastmile_qr_scan", "ios": "https://dc.lft.to/lastmile_qr_scan"}, "name": "7569dda84e07ce3f9705a7d6f5abbafa", "is_reserved": 0}, {"is_disabled": 0, "fusion_lon": 0.0, "fusion_lat": 0.0, "lat": 38.896942, "type": "electric_scooter", "lon": -77.00494, "bike_id": "054211a733f389ab14f953fd235d7731", "rental_uris": {"android": "https://dc.lft.to/lastmile_qr_scan", "ios": "https://dc.lft.to/lastmile_qr_scan"}, "name": "054211a733f389ab14f953fd235d7731", "is_reserved": 0}, {"is_disabled": 0, "fusion_lon": 0.0, "fusion_lat": 0.0, "lat": 38.929678333333335, "type": "electric_scooter", "lon": -77.00531233333334, "bike_id": "85a97a791e40ef63127dc69b502064bf", "rental_uris": {"android": "https://dc.lft.to/lastmile_qr_scan", "ios": "https://dc.lft.to/lastmile_qr_scan"}, "name": "85a97a791e40ef63127dc69b502064bf", "is_reserved": 0}, {"is_disabled": 0, "fusion_lon": 0.0, "fusion_lat": 0.0, "lat": 38.8767265, "type": "electric_bike", "lon": -77.01426883333333, "bike_id": "103e95b8560a06e0b70ffa065a9578e2", "rental_uris": {"android": "https://dc.lft.to/lastmile_qr_scan", "ios": "https://dc.lft.to/lastmile_qr_scan"}, "name": "103e95b8560a06e0b70ffa065a9578e2", "is_reserved": 0}, {"is_disabled": 0, "fusion_lon": 0.0, "fusion_lat": 0.0, "lat": 38.928148166666666, "type": "electric_scooter", "lon": -77.02344733333334, "bike_id": "1fb466019768b4a63bc5ce9bdaf76c55", "rental_uris": {"android": "https://dc.lft.to/lastmile_qr_scan", "ios": "https://dc.lft.to/lastmile_qr_scan"}, "name": "1fb466019768b4a63bc5ce9bdaf76c55", "is_reserved": 0}, {"is_disabled": 0, "fusion_lon": 0.0, "fusion_lat": 0.0, "lat": 38.89535866666667, "type": "electric_scooter", "lon": -77.03205683333333, "bike_id": "1988a6ef4008b5dfe7208c19a1802271", "rental_uris": {"android": "https://dc.lft.to/lastmile_qr_scan", "ios": "https://dc.lft.to/lastmile_qr_scan"}, "name": "1988a6ef4008b5dfe7208c19a1802271", "is_reserved": 0}, {"is_disabled": 0, "fusion_lon": 0.0, "fusion_lat": 0.0, "lat": 38.90650933333333, "type": "electric_scooter", "lon": -77.011857, "bike_id": "8d13686a0cae6353643e1cc8627cd11e", "rental_uris": {"android": "https://dc.lft.to/lastmile_qr_scan", "ios": "https://dc.lft.to/lastmile_qr_scan"}, "name": "8d13686a0cae6353643e1cc8627cd11e", "is_reserved": 0}, {"is_disabled": 0, "fusion_lon": 0.0, "fusion_lat": 0.0, "lat": 38.92114766666667, "type": "electric_scooter", "lon": -77.04385316666666, "bike_id": "e2c74e58f66a761d1bc706ef9f5bb229", "rental_uris": {"android": "https://dc.lft.to/lastmile_qr_scan", "ios": "https://dc.lft.to/lastmile_qr_scan"}, "name": "e2c74e58f66a761d1bc706ef9f5bb229", "is_reserved": 0}, {"is_disabled": 0, "fusion_lon": 0.0, "fusion_lat": 0.0, "lat": 38.90867733333333, "type": "electric_scooter", "lon": -77.03008183333333, "bike_id": "e265c68b874827c573120c620c900b83", "rental_uris": {"android": "https://dc.lft.to/lastmile_qr_scan", "ios": "https://dc.lft.to/lastmile_qr_scan"}, "name": "e265c68b874827c573120c620c900b83", "is_reserved": 0}, {"is_disabled": 0, "fusion_lon": 0.0, "fusion_lat": 0.0, "lat": 38.846236833333336, "type": "electric_scooter", "lon": -76.99630933333333, "bike_id": "f7cc9f31a28048006e56a0e1dc135028", "rental_uris": {"android": "https://dc.lft.to/lastmile_qr_scan", "ios": "https://dc.lft.to/lastmile_qr_scan"}, "name": "f7cc9f31a28048006e56a0e1dc135028", "is_reserved": 0}, {"is_disabled": 0, "fusion_lon": 0.0, "fusion_lat": 0.0, "lat": 38.967357, "type": "electric_scooter", "lon": -77.02760883333333, "bike_id": "1b155c3fbf3de65005db3328a1f2d07e", "rental_uris": {"android": "https://dc.lft.to/lastmile_qr_scan", "ios": "https://dc.lft.to/lastmile_qr_scan"}, "name": "1b155c3fbf3de65005db3328a1f2d07e", "is_reserved": 0}, {"is_disabled": 0, "fusion_lon": 0.0, "fusion_lat": 0.0, "lat": 38.92381066666667, "type": "electric_scooter", "lon": -77.02906383333334, "bike_id": "13a057271488b9bffb75e989aed49dae", "rental_uris": {"android": "https://dc.lft.to/lastmile_qr_scan", "ios": "https://dc.lft.to/lastmile_qr_scan"}, "name": "13a057271488b9bffb75e989aed49dae", "is_reserved": 0}, {"is_disabled": 0, "fusion_lon": 0.0, "fusion_lat": 0.0, "lat": 38.920797666666665, "type": "electric_scooter", "lon": -77.03491383333333, "bike_id": "da322cdf90a06d14f698776a85061d2f", "rental_uris": {"android": "https://dc.lft.to/lastmile_qr_scan", "ios": "https://dc.lft.to/lastmile_qr_scan"}, "name": "da322cdf90a06d14f698776a85061d2f", "is_reserved": 0}, {"is_disabled": 0, "fusion_lon": 0.0, "fusion_lat": 0.0, "lat": 38.924455, "type": "electric_scooter", "lon": -77.026111, "bike_id": "52ab153ed481228e07834fbca6f83298", "rental_uris": {"android": "https://dc.lft.to/lastmile_qr_scan", "ios": "https://dc.lft.to/lastmile_qr_scan"}, "name": "52ab153ed481228e07834fbca6f83298", "is_reserved": 0}, {"is_disabled": 0, "fusion_lon": 0.0, "fusion_lat": 0.0, "lat": 38.974023333333335, "type": "electric_bike", "lon": -77.02496016666667, "bike_id": "1fe507a3086aaa62c1b0f5c4dcef6e3b", "rental_uris": {"android": "https://dc.lft.to/lastmile_qr_scan", "ios": "https://dc.lft.to/lastmile_qr_scan"}, "name": "1fe507a3086aaa62c1b0f5c4dcef6e3b", "is_reserved": 0}, {"is_disabled": 0, "fusion_lon": 0.0, "fusion_lat": 0.0, "lat": 38.90066566666667, "type": "electric_scooter", "lon": -76.93386166666667, "bike_id": "ac90f379e664309d1d613d7de83c929f", "rental_uris": {"android": "https://dc.lft.to/lastmile_qr_scan", "ios": "https://dc.lft.to/lastmile_qr_scan"}, "name": "ac90f379e664309d1d613d7de83c929f", "is_reserved": 0}, {"is_disabled": 0, "fusion_lon": 0.0, "fusion_lat": 0.0, "lat": 38.898521833333334, "type": "electric_scooter", "lon": -77.02223666666667, "bike_id": "aec0e99ff8e2643ed24b6126632bdef9", "rental_uris": {"android": "https://dc.lft.to/lastmile_qr_scan", "ios": "https://dc.lft.to/lastmile_qr_scan"}, "name": "aec0e99ff8e2643ed24b6126632bdef9", "is_reserved": 0}, {"is_disabled": 0, "fusion_lon": 0.0, "fusion_lat": 0.0, "lat": 38.931384666666666, "type": "electric_scooter", "lon": -77.05730466666667, "bike_id": "a8379d5e92f1c6580866305c02265f6c", "rental_uris": {"android": "https://dc.lft.to/lastmile_qr_scan", "ios": "https://dc.lft.to/lastmile_qr_scan"}, "name": "a8379d5e92f1c6580866305c02265f6c", "is_reserved": 0}, {"is_disabled": 0, "fusion_lon": 0.0, "fusion_lat": 0.0, "lat": 38.89360716666667, "type": "electric_scooter", "lon": -77.03961266666667, "bike_id": "f23a4804e7ee65ddf81c90cd271be7f0", "rental_uris": {"android": "https://dc.lft.to/lastmile_qr_scan", "ios": "https://dc.lft.to/lastmile_qr_scan"}, "name": "f23a4804e7ee65ddf81c90cd271be7f0", "is_reserved": 0}, {"is_disabled": 0, "fusion_lon": 0.0, "fusion_lat": 0.0, "lat": 38.878974166666666, "type": "electric_scooter", "lon": -76.935255, "bike_id": "e52ef485e77873ad54d0548a2ba9096e", "rental_uris": {"android": "https://dc.lft.to/lastmile_qr_scan", "ios": "https://dc.lft.to/lastmile_qr_scan"}, "name": "e52ef485e77873ad54d0548a2ba9096e", "is_reserved": 0}, {"is_disabled": 0, "fusion_lon": 0.0, "fusion_lat": 0.0, "lat": 38.910454, "type": "electric_scooter", "lon": -77.0436085, "bike_id": "8b31c45c0d6ef3e9af1e316a6a459184", "rental_uris": {"android": "https://dc.lft.to/lastmile_qr_scan", "ios": "https://dc.lft.to/lastmile_qr_scan"}, "name": "8b31c45c0d6ef3e9af1e316a6a459184", "is_reserved": 0}, {"is_disabled": 0, "fusion_lon": 0.0, "fusion_lat": 0.0, "lat": 38.88202283333333, "type": "electric_bike", "lon": -77.10759416666667, "bike_id": "c39c0849d8395fb4673a107b80efff81", "rental_uris": {"android": "https://dc.lft.to/lastmile_qr_scan", "ios": "https://dc.lft.to/lastmile_qr_scan"}, "name": "c39c0849d8395fb4673a107b80efff81", "is_reserved": 0}, {"is_disabled": 0, "fusion_lon": 0.0, "fusion_lat": 0.0, "lat": 38.85211266666666, "type": "electric_bike", "lon": -77.1012945, "bike_id": "490a29f5fd4b7ba632fb6a0a54ec0463", "rental_uris": {"android": "https://dc.lft.to/lastmile_qr_scan", "ios": "https://dc.lft.to/lastmile_qr_scan"}, "name": "490a29f5fd4b7ba632fb6a0a54ec0463", "is_reserved": 0}, {"is_disabled": 0, "fusion_lon": 0.0, "fusion_lat": 0.0, "lat": 38.908643, "type": "electric_scooter", "lon": -77.00611116666667, "bike_id": "1a91ef24b795a61340288ba779ac4ca8", "rental_uris": {"android": "https://dc.lft.to/lastmile_qr_scan", "ios": "https://dc.lft.to/lastmile_qr_scan"}, "name": "1a91ef24b795a61340288ba779ac4ca8", "is_reserved": 0}, {"is_disabled": 0, "fusion_lon": 0.0, "fusion_lat": 0.0, "lat": 38.890821333333335, "type": "electric_scooter", "lon": -76.9543825, "bike_id": "39f30c5cf914aabfa0d805f1634f520d", "rental_uris": {"android": "https://dc.lft.to/lastmile_qr_scan", "ios": "https://dc.lft.to/lastmile_qr_scan"}, "name": "39f30c5cf914aabfa0d805f1634f520d", "is_reserved": 0}, {"is_disabled": 0, "fusion_lon": 0.0, "fusion_lat": 0.0, "lat": 38.88339, "type": "electric_scooter", "lon": -76.94178716666667, "bike_id": "774974b7f1a5467fa8de673cf97efaac", "rental_uris": {"android": "https://dc.lft.to/lastmile_qr_scan", "ios": "https://dc.lft.to/lastmile_qr_scan"}, "name": "774974b7f1a5467fa8de673cf97efaac", "is_reserved": 0}, {"is_disabled": 0, "fusion_lon": 0.0, "fusion_lat": 0.0, "lat": 38.92501716666666, "type": "electric_scooter", "lon": -76.995765, "bike_id": "74bbff7c3436d86a256e6e95933beeb7", "rental_uris": {"android": "https://dc.lft.to/lastmile_qr_scan", "ios": "https://dc.lft.to/lastmile_qr_scan"}, "name": "74bbff7c3436d86a256e6e95933beeb7", "is_reserved": 0}, {"is_disabled": 0, "fusion_lon": 0.0, "fusion_lat": 0.0, "lat": 38.918018333333336, "type": "electric_scooter", "lon": -77.0403275, "bike_id": "e2de6dd2c3b1e6f51e999e5513225474", "rental_uris": {"android": "https://dc.lft.to/lastmile_qr_scan", "ios": "https://dc.lft.to/lastmile_qr_scan"}, "name": "e2de6dd2c3b1e6f51e999e5513225474", "is_reserved": 0}, {"is_disabled": 0, "fusion_lon": 0.0, "fusion_lat": 0.0, "lat": 39.054616333333335, "type": "electric_bike", "lon": -77.14328033333334, "bike_id": "285122c0f835c229c0be1482a021a120", "rental_uris": {"android": "https://dc.lft.to/lastmile_qr_scan", "ios": "https://dc.lft.to/lastmile_qr_scan"}, "name": "285122c0f835c229c0be1482a021a120", "is_reserved": 0}, {"is_disabled": 0, "fusion_lon": 0.0, "fusion_lat": 0.0, "lat": 38.908543333333334, "type": "electric_scooter", "lon": -77.055064, "bike_id": "d42c6e839efc8ea593200b9fd7611259", "rental_uris": {"android": "https://dc.lft.to/lastmile_qr_scan", "ios": "https://dc.lft.to/lastmile_qr_scan"}, "name": "d42c6e839efc8ea593200b9fd7611259", "is_reserved": 0}, {"is_disabled": 0, "fusion_lon": 0.0, "fusion_lat": 0.0, "lat": 38.776214333333336, "type": "electric_bike", "lon": -77.08354716666666, "bike_id": "4ef70beb241a3741192b21c2ba44559b", "rental_uris": {"android": "https://dc.lft.to/lastmile_qr_scan", "ios": "https://dc.lft.to/lastmile_qr_scan"}, "name": "4ef70beb241a3741192b21c2ba44559b", "is_reserved": 0}, {"is_disabled": 0, "fusion_lon": 0.0, "fusion_lat": 0.0, "lat": 38.88747166666667, "type": "electric_scooter", "lon": -77.0143315, "bike_id": "41305b41be854be71fb3f19ddb50cfef", "rental_uris": {"android": "https://dc.lft.to/lastmile_qr_scan", "ios": "https://dc.lft.to/lastmile_qr_scan"}, "name": "41305b41be854be71fb3f19ddb50cfef", "is_reserved": 0}, {"is_disabled": 0, "fusion_lon": 0.0, "fusion_lat": 0.0, "lat": 38.9175975, "type": "electric_scooter", "lon": -77.03202483333334, "bike_id": "3caf5748eda6520c3abddcf3d59bfb98", "rental_uris": {"android": "https://dc.lft.to/lastmile_qr_scan", "ios": "https://dc.lft.to/lastmile_qr_scan"}, "name": "3caf5748eda6520c3abddcf3d59bfb98", "is_reserved": 0}, {"is_disabled": 0, "fusion_lon": 0.0, "fusion_lat": 0.0, "lat": 38.895327, "type": "electric_scooter", "lon": -77.0335235, "bike_id": "c46b61fcb7c5e263f387aacb135c00a5", "rental_uris": {"android": "https://dc.lft.to/lastmile_qr_scan", "ios": "https://dc.lft.to/lastmile_qr_scan"}, "name": "c46b61fcb7c5e263f387aacb135c00a5", "is_reserved": 0}, {"is_disabled": 0, "fusion_lon": 0.0, "fusion_lat": 0.0, "lat": 38.8939075, "type": "electric_scooter", "lon": -76.94992766666667, "bike_id": "eebe1f6288566da92c5f8d884ed10094", "rental_uris": {"android": "https://dc.lft.to/lastmile_qr_scan", "ios": "https://dc.lft.to/lastmile_qr_scan"}, "name": "eebe1f6288566da92c5f8d884ed10094", "is_reserved": 0}, {"is_disabled": 0, "fusion_lon": 0.0, "fusion_lat": 0.0, "lat": 38.896107666666666, "type": "electric_scooter", "lon": -77.00934033333333, "bike_id": "ed9e89cd7fa4438d691db076337601ee", "rental_uris": {"android": "https://dc.lft.to/lastmile_qr_scan", "ios": "https://dc.lft.to/lastmile_qr_scan"}, "name": "ed9e89cd7fa4438d691db076337601ee", "is_reserved": 0}, {"is_disabled": 0, "fusion_lon": 0.0, "fusion_lat": 0.0, "lat": 38.905097833333336, "type": "electric_scooter", "lon": -76.98237316666666, "bike_id": "5efd9c8a6870e78fe5481f40d252e276", "rental_uris": {"android": "https://dc.lft.to/lastmile_qr_scan", "ios": "https://dc.lft.to/lastmile_qr_scan"}, "name": "5efd9c8a6870e78fe5481f40d252e276", "is_reserved": 0}, {"is_disabled": 0, "fusion_lon": 0.0, "fusion_lat": 0.0, "lat": 38.889515333333335, "type": "electric_scooter", "lon": -76.99147616666667, "bike_id": "702f222610afa0a17b8fecbf7a9bbc8a", "rental_uris": {"android": "https://dc.lft.to/lastmile_qr_scan", "ios": "https://dc.lft.to/lastmile_qr_scan"}, "name": "702f222610afa0a17b8fecbf7a9bbc8a", "is_reserved": 0}, {"is_disabled": 0, "fusion_lon": 0.0, "fusion_lat": 0.0, "lat": 38.86797766666667, "type": "electric_scooter", "lon": -77.0118605, "bike_id": "3d4234a384afcbf763e09cf0bd1a97f4", "rental_uris": {"android": "https://dc.lft.to/lastmile_qr_scan", "ios": "https://dc.lft.to/lastmile_qr_scan"}, "name": "3d4234a384afcbf763e09cf0bd1a97f4", "is_reserved": 0}, {"is_disabled": 0, "fusion_lon": 0.0, "fusion_lat": 0.0, "lat": 38.91038566666667, "type": "electric_scooter", "lon": -77.03802516666667, "bike_id": "cc9de51fd2cf62c5b6a3a11e9775c1d2", "rental_uris": {"android": "https://dc.lft.to/lastmile_qr_scan", "ios": "https://dc.lft.to/lastmile_qr_scan"}, "name": "cc9de51fd2cf62c5b6a3a11e9775c1d2", "is_reserved": 0}, {"is_disabled": 0, "fusion_lon": 0.0, "fusion_lat": 0.0, "lat": 38.92845633333334, "type": "electric_scooter", "lon": -77.05536083333334, "bike_id": "4cd17af4459a9a4f6e9348f0868cbfe3", "rental_uris": {"android": "https://dc.lft.to/lastmile_qr_scan", "ios": "https://dc.lft.to/lastmile_qr_scan"}, "name": "4cd17af4459a9a4f6e9348f0868cbfe3", "is_reserved": 0}, {"is_disabled": 0, "fusion_lon": 0.0, "fusion_lat": 0.0, "lat": 38.945957, "type": "electric_bike", "lon": -77.34416783333333, "bike_id": "532643384af10f1c5f4b692d8d23e047", "rental_uris": {"android": "https://dc.lft.to/lastmile_qr_scan", "ios": "https://dc.lft.to/lastmile_qr_scan"}, "name": "532643384af10f1c5f4b692d8d23e047", "is_reserved": 0}, {"is_disabled": 0, "fusion_lon": 0.0, "fusion_lat": 0.0, "lat": 38.888517, "type": "electric_bike", "lon": -76.97702666666666, "bike_id": "125cc327521128ea8f769edae41e23ad", "rental_uris": {"android": "https://dc.lft.to/lastmile_qr_scan", "ios": "https://dc.lft.to/lastmile_qr_scan"}, "name": "125cc327521128ea8f769edae41e23ad", "is_reserved": 0}, {"is_disabled": 0, "fusion_lon": 0.0, "fusion_lat": 0.0, "lat": 38.89736383333333, "type": "electric_scooter", "lon": -77.04721833333333, "bike_id": "a44a7ad29ee0445439f8385dcbce4eaf", "rental_uris": {"android": "https://dc.lft.to/lastmile_qr_scan", "ios": "https://dc.lft.to/lastmile_qr_scan"}, "name": "a44a7ad29ee0445439f8385dcbce4eaf", "is_reserved": 0}, {"is_disabled": 0, "fusion_lon": 0.0, "fusion_lat": 0.0, "lat": 38.924183, "type": "electric_scooter", "lon": -77.02010616666666, "bike_id": "34b4cd5d8d77c9b58199c00d8ef69e1d", "rental_uris": {"android": "https://dc.lft.to/lastmile_qr_scan", "ios": "https://dc.lft.to/lastmile_qr_scan"}, "name": "34b4cd5d8d77c9b58199c00d8ef69e1d", "is_reserved": 0}, {"is_disabled": 0, "fusion_lon": 0.0, "fusion_lat": 0.0, "lat": 38.917319166666665, "type": "electric_scooter", "lon": -77.034544, "bike_id": "3e91978bbc6bdf6f0a1c9926502999e8", "rental_uris": {"android": "https://dc.lft.to/lastmile_qr_scan", "ios": "https://dc.lft.to/lastmile_qr_scan"}, "name": "3e91978bbc6bdf6f0a1c9926502999e8", "is_reserved": 0}, {"is_disabled": 0, "fusion_lon": 0.0, "fusion_lat": 0.0, "lat": 38.92127833333333, "type": "electric_scooter", "lon": -77.03654966666667, "bike_id": "67d9e9247831b31064807266dba01090", "rental_uris": {"android": "https://dc.lft.to/lastmile_qr_scan", "ios": "https://dc.lft.to/lastmile_qr_scan"}, "name": "67d9e9247831b31064807266dba01090", "is_reserved": 0}, {"is_disabled": 0, "fusion_lon": 0.0, "fusion_lat": 0.0, "lat": 38.9094245, "type": "electric_scooter", "lon": -77.03213666666667, "bike_id": "26a8d7f327772bfb3a45ba7c5cde5c45", "rental_uris": {"android": "https://dc.lft.to/lastmile_qr_scan", "ios": "https://dc.lft.to/lastmile_qr_scan"}, "name": "26a8d7f327772bfb3a45ba7c5cde5c45", "is_reserved": 0}, {"is_disabled": 0, "fusion_lon": 0.0, "fusion_lat": 0.0, "lat": 38.9003555, "type": "electric_scooter", "lon": -77.03359483333334, "bike_id": "b99339c27787eeb06a802817ef072fbe", "rental_uris": {"android": "https://dc.lft.to/lastmile_qr_scan", "ios": "https://dc.lft.to/lastmile_qr_scan"}, "name": "b99339c27787eeb06a802817ef072fbe", "is_reserved": 0}, {"is_disabled": 0, "fusion_lon": 0.0, "fusion_lat": 0.0, "lat": 38.93402066666667, "type": "electric_scooter", "lon": -77.02729783333334, "bike_id": "64bc598e8cf752d93a228dbb45673a37", "rental_uris": {"android": "https://dc.lft.to/lastmile_qr_scan", "ios": "https://dc.lft.to/lastmile_qr_scan"}, "name": "64bc598e8cf752d93a228dbb45673a37", "is_reserved": 0}, {"is_disabled": 0, "fusion_lon": 0.0, "fusion_lat": 0.0, "lat": 38.900754, "type": "electric_scooter", "lon": -77.034553, "bike_id": "a5b006cfc986ceb6c9ea848e970e7b65", "rental_uris": {"android": "https://dc.lft.to/lastmile_qr_scan", "ios": "https://dc.lft.to/lastmile_qr_scan"}, "name": "a5b006cfc986ceb6c9ea848e970e7b65", "is_reserved": 0}, {"is_disabled": 0, "fusion_lon": 0.0, "fusion_lat": 0.0, "lat": 38.9173365, "type": "electric_scooter", "lon": -77.0417625, "bike_id": "749e7d8d2be8a545727ded4e6ff40aaf", "rental_uris": {"android": "https://dc.lft.to/lastmile_qr_scan", "ios": "https://dc.lft.to/lastmile_qr_scan"}, "name": "749e7d8d2be8a545727ded4e6ff40aaf", "is_reserved": 0}, {"is_disabled": 0, "fusion_lon": 0.0, "fusion_lat": 0.0, "lat": 38.87913133333333, "type": "electric_scooter", "lon": -77.00877433333333, "bike_id": "da7ab2b7fb1be45b37e889d3597be65e", "rental_uris": {"android": "https://dc.lft.to/lastmile_qr_scan", "ios": "https://dc.lft.to/lastmile_qr_scan"}, "name": "da7ab2b7fb1be45b37e889d3597be65e", "is_reserved": 0}, {"is_disabled": 0, "fusion_lon": 0.0, "fusion_lat": 0.0, "lat": 38.96603283333334, "type": "electric_bike", "lon": -76.98335866666666, "bike_id": "dedfd70cb60b6082413820662f7827d9", "rental_uris": {"android": "https://dc.lft.to/lastmile_qr_scan", "ios": "https://dc.lft.to/lastmile_qr_scan"}, "name": "dedfd70cb60b6082413820662f7827d9", "is_reserved": 0}, {"is_disabled": 0, "fusion_lon": 0.0, "fusion_lat": 0.0, "lat": 38.896767833333335, "type": "electric_scooter", "lon": -76.94715533333333, "bike_id": "90a8195bf283d8217aa3c24a1d731091", "rental_uris": {"android": "https://dc.lft.to/lastmile_qr_scan", "ios": "https://dc.lft.to/lastmile_qr_scan"}, "name": "90a8195bf283d8217aa3c24a1d731091", "is_reserved": 0}, {"is_disabled": 0, "fusion_lon": 0.0, "fusion_lat": 0.0, "lat": 38.9357055, "type": "electric_scooter", "lon": -77.073702, "bike_id": "00edbcdadba57c5a5902d5d0b3fc730e", "rental_uris": {"android": "https://dc.lft.to/lastmile_qr_scan", "ios": "https://dc.lft.to/lastmile_qr_scan"}, "name": "00edbcdadba57c5a5902d5d0b3fc730e", "is_reserved": 0}, {"is_disabled": 0, "fusion_lon": 0.0, "fusion_lat": 0.0, "lat": 38.848482833333335, "type": "electric_bike", "lon": -77.08047316666666, "bike_id": "ba94782e854d410d04fa43debad3b953", "rental_uris": {"android": "https://dc.lft.to/lastmile_qr_scan", "ios": "https://dc.lft.to/lastmile_qr_scan"}, "name": "ba94782e854d410d04fa43debad3b953", "is_reserved": 0}, {"is_disabled": 0, "fusion_lon": 0.0, "fusion_lat": 0.0, "lat": 38.9085505, "type": "electric_scooter", "lon": -77.02387083333333, "bike_id": "78554434d13028ac78129d65332094df", "rental_uris": {"android": "https://dc.lft.to/lastmile_qr_scan", "ios": "https://dc.lft.to/lastmile_qr_scan"}, "name": "78554434d13028ac78129d65332094df", "is_reserved": 0}, {"is_disabled": 0, "fusion_lon": 0.0, "fusion_lat": 0.0, "lat": 38.902657, "type": "electric_scooter", "lon": -77.03642166666667, "bike_id": "047f6f5ccf4c710bc6bfcf13d04ba3ee", "rental_uris": {"android": "https://dc.lft.to/lastmile_qr_scan", "ios": "https://dc.lft.to/lastmile_qr_scan"}, "name": "047f6f5ccf4c710bc6bfcf13d04ba3ee", "is_reserved": 0}, {"is_disabled": 0, "fusion_lon": 0.0, "fusion_lat": 0.0, "lat": 38.87575266666666, "type": "electric_scooter", "lon": -77.01992283333334, "bike_id": "a65355d9319fe98d234444ff959ca4c2", "rental_uris": {"android": "https://dc.lft.to/lastmile_qr_scan", "ios": "https://dc.lft.to/lastmile_qr_scan"}, "name": "a65355d9319fe98d234444ff959ca4c2", "is_reserved": 0}, {"is_disabled": 0, "fusion_lon": 0.0, "fusion_lat": 0.0, "lat": 38.917926333333334, "type": "electric_scooter", "lon": -77.0365675, "bike_id": "1e87902203cfa575c68e0a197d9f3a29", "rental_uris": {"android": "https://dc.lft.to/lastmile_qr_scan", "ios": "https://dc.lft.to/lastmile_qr_scan"}, "name": "1e87902203cfa575c68e0a197d9f3a29", "is_reserved": 0}, {"is_disabled": 0, "fusion_lon": 0.0, "fusion_lat": 0.0, "lat": 38.9171595, "type": "electric_scooter", "lon": -77.03233266666666, "bike_id": "73cfade23e534e4d81061f57caa8ea5f", "rental_uris": {"android": "https://dc.lft.to/lastmile_qr_scan", "ios": "https://dc.lft.to/lastmile_qr_scan"}, "name": "73cfade23e534e4d81061f57caa8ea5f", "is_reserved": 0}, {"is_disabled": 0, "fusion_lon": 0.0, "fusion_lat": 0.0, "lat": 38.915475, "type": "electric_scooter", "lon": -77.01974216666666, "bike_id": "3670fa26bfb877a55f7dc93b491d3943", "rental_uris": {"android": "https://dc.lft.to/lastmile_qr_scan", "ios": "https://dc.lft.to/lastmile_qr_scan"}, "name": "3670fa26bfb877a55f7dc93b491d3943", "is_reserved": 0}, {"is_disabled": 0, "fusion_lon": 0.0, "fusion_lat": 0.0, "lat": 38.89267666666667, "type": "electric_scooter", "lon": -77.03165016666667, "bike_id": "f79afbb1d54f395d306b9798bf6cd394", "rental_uris": {"android": "https://dc.lft.to/lastmile_qr_scan", "ios": "https://dc.lft.to/lastmile_qr_scan"}, "name": "f79afbb1d54f395d306b9798bf6cd394", "is_reserved": 0}, {"is_disabled": 0, "fusion_lon": 0.0, "fusion_lat": 0.0, "lat": 38.90054133333334, "type": "electric_scooter", "lon": -77.01226466666667, "bike_id": "a70798cdb2da8c6885e1b3b748196c64", "rental_uris": {"android": "https://dc.lft.to/lastmile_qr_scan", "ios": "https://dc.lft.to/lastmile_qr_scan"}, "name": "a70798cdb2da8c6885e1b3b748196c64", "is_reserved": 0}, {"is_disabled": 0, "fusion_lon": 0.0, "fusion_lat": 0.0, "lat": 38.895849166666665, "type": "electric_scooter", "lon": -77.02675583333334, "bike_id": "5182b5745549d307b5188cde1fe1ee54", "rental_uris": {"android": "https://dc.lft.to/lastmile_qr_scan", "ios": "https://dc.lft.to/lastmile_qr_scan"}, "name": "5182b5745549d307b5188cde1fe1ee54", "is_reserved": 0}, {"is_disabled": 0, "fusion_lon": 0.0, "fusion_lat": 0.0, "lat": 38.88984966666666, "type": "electric_scooter", "lon": -77.00340916666667, "bike_id": "a2b8640770507c945af368fb4e4c9493", "rental_uris": {"android": "https://dc.lft.to/lastmile_qr_scan", "ios": "https://dc.lft.to/lastmile_qr_scan"}, "name": "a2b8640770507c945af368fb4e4c9493", "is_reserved": 0}, {"is_disabled": 0, "fusion_lon": 0.0, "fusion_lat": 0.0, "lat": 38.864621, "type": "electric_scooter", "lon": -76.996138, "bike_id": "daa5bcef67e8a3c79999a6222052751f", "rental_uris": {"android": "https://dc.lft.to/lastmile_qr_scan", "ios": "https://dc.lft.to/lastmile_qr_scan"}, "name": "daa5bcef67e8a3c79999a6222052751f", "is_reserved": 0}, {"is_disabled": 0, "fusion_lon": 0.0, "fusion_lat": 0.0, "lat": 38.905762333333335, "type": "electric_scooter", "lon": -77.006056, "bike_id": "2e96ff9e9320df3e2dee8e4b2ced6643", "rental_uris": {"android": "https://dc.lft.to/lastmile_qr_scan", "ios": "https://dc.lft.to/lastmile_qr_scan"}, "name": "2e96ff9e9320df3e2dee8e4b2ced6643", "is_reserved": 0}, {"is_disabled": 0, "fusion_lon": 0.0, "fusion_lat": 0.0, "lat": 38.885827, "type": "electric_scooter", "lon": -77.01225983333333, "bike_id": "767fa51a68a7b6fbc7420b5b03062747", "rental_uris": {"android": "https://dc.lft.to/lastmile_qr_scan", "ios": "https://dc.lft.to/lastmile_qr_scan"}, "name": "767fa51a68a7b6fbc7420b5b03062747", "is_reserved": 0}, {"is_disabled": 0, "fusion_lon": 0.0, "fusion_lat": 0.0, "lat": 38.89823533333333, "type": "electric_scooter", "lon": -77.0316865, "bike_id": "7a577f8a5baf14214e74f789b304b922", "rental_uris": {"android": "https://dc.lft.to/lastmile_qr_scan", "ios": "https://dc.lft.to/lastmile_qr_scan"}, "name": "7a577f8a5baf14214e74f789b304b922", "is_reserved": 0}, {"is_disabled": 0, "fusion_lon": 0.0, "fusion_lat": 0.0, "lat": 38.94081283333333, "type": "electric_scooter", "lon": -77.06144433333333, "bike_id": "b2294f5e83958faf2d64d3faac16d0e7", "rental_uris": {"android": "https://dc.lft.to/lastmile_qr_scan", "ios": "https://dc.lft.to/lastmile_qr_scan"}, "name": "b2294f5e83958faf2d64d3faac16d0e7", "is_reserved": 0}, {"is_disabled": 0, "fusion_lon": 0.0, "fusion_lat": 0.0, "lat": 38.92317, "type": "electric_scooter", "lon": -77.04212516666666, "bike_id": "5cf7aed40a6459093099a3033a32c115", "rental_uris": {"android": "https://dc.lft.to/lastmile_qr_scan", "ios": "https://dc.lft.to/lastmile_qr_scan"}, "name": "5cf7aed40a6459093099a3033a32c115", "is_reserved": 0}, {"is_disabled": 0, "fusion_lon": 0.0, "fusion_lat": 0.0, "lat": 38.9013525, "type": "electric_scooter", "lon": -77.00319683333333, "bike_id": "0afe6359e8e12ae784d5042c61f37601", "rental_uris": {"android": "https://dc.lft.to/lastmile_qr_scan", "ios": "https://dc.lft.to/lastmile_qr_scan"}, "name": "0afe6359e8e12ae784d5042c61f37601", "is_reserved": 0}, {"is_disabled": 0, "fusion_lon": 0.0, "fusion_lat": 0.0, "lat": 38.918272333333334, "type": "electric_scooter", "lon": -77.0365825, "bike_id": "2be4fbf17580bf8205b50650fd5cf50f", "rental_uris": {"android": "https://dc.lft.to/lastmile_qr_scan", "ios": "https://dc.lft.to/lastmile_qr_scan"}, "name": "2be4fbf17580bf8205b50650fd5cf50f", "is_reserved": 0}, {"is_disabled": 0, "fusion_lon": 0.0, "fusion_lat": 0.0, "lat": 38.85719316666667, "type": "electric_bike", "lon": -76.98110333333334, "bike_id": "1ff1d08462198c2c7a6862a8bb2a274d", "rental_uris": {"android": "https://dc.lft.to/lastmile_qr_scan", "ios": "https://dc.lft.to/lastmile_qr_scan"}, "name": "1ff1d08462198c2c7a6862a8bb2a274d", "is_reserved": 0}, {"is_disabled": 0, "fusion_lon": 0.0, "fusion_lat": 0.0, "lat": 38.9156005, "type": "electric_scooter", "lon": -77.03874133333333, "bike_id": "3b312ad68e909f11bd7060817b2bea60", "rental_uris": {"android": "https://dc.lft.to/lastmile_qr_scan", "ios": "https://dc.lft.to/lastmile_qr_scan"}, "name": "3b312ad68e909f11bd7060817b2bea60", "is_reserved": 0}, {"is_disabled": 0, "fusion_lon": 0.0, "fusion_lat": 0.0, "lat": 38.9286735, "type": "electric_scooter", "lon": -77.034342, "bike_id": "bc0fc1926362e1b0d363a181594876e6", "rental_uris": {"android": "https://dc.lft.to/lastmile_qr_scan", "ios": "https://dc.lft.to/lastmile_qr_scan"}, "name": "bc0fc1926362e1b0d363a181594876e6", "is_reserved": 0}, {"is_disabled": 0, "fusion_lon": 0.0, "fusion_lat": 0.0, "lat": 39.11505616666667, "type": "electric_bike", "lon": -77.1954265, "bike_id": "5c3c88647f1e9f77a992d247c342d6a6", "rental_uris": {"android": "https://dc.lft.to/lastmile_qr_scan", "ios": "https://dc.lft.to/lastmile_qr_scan"}, "name": "5c3c88647f1e9f77a992d247c342d6a6", "is_reserved": 0}, {"is_disabled": 0, "fusion_lon": 0.0, "fusion_lat": 0.0, "lat": 38.93047833333333, "type": "electric_scooter", "lon": -77.004185, "bike_id": "93615131fad19ca9baaf51b65db0fdd8", "rental_uris": {"android": "https://dc.lft.to/lastmile_qr_scan", "ios": "https://dc.lft.to/lastmile_qr_scan"}, "name": "93615131fad19ca9baaf51b65db0fdd8", "is_reserved": 0}, {"is_disabled": 0, "fusion_lon": 0.0, "fusion_lat": 0.0, "lat": 38.89809433333333, "type": "electric_scooter", "lon": -77.02946166666666, "bike_id": "7fd1e969cc9dbe72d3ab1d54fc3b7535", "rental_uris": {"android": "https://dc.lft.to/lastmile_qr_scan", "ios": "https://dc.lft.to/lastmile_qr_scan"}, "name": "7fd1e969cc9dbe72d3ab1d54fc3b7535", "is_reserved": 0}, {"is_disabled": 0, "fusion_lon": 0.0, "fusion_lat": 0.0, "lat": 38.89734, "type": "electric_scooter", "lon": -77.0037345, "bike_id": "3d68905b2620525e56a08aa442e2d6a6", "rental_uris": {"android": "https://dc.lft.to/lastmile_qr_scan", "ios": "https://dc.lft.to/lastmile_qr_scan"}, "name": "3d68905b2620525e56a08aa442e2d6a6", "is_reserved": 0}, {"is_disabled": 0, "fusion_lon": 0.0, "fusion_lat": 0.0, "lat": 38.936703, "type": "electric_bike", "lon": -76.95204833333334, "bike_id": "8802a6f8ae7dbdf0ba2d537698ca8ae6", "rental_uris": {"android": "https://dc.lft.to/lastmile_qr_scan", "ios": "https://dc.lft.to/lastmile_qr_scan"}, "name": "8802a6f8ae7dbdf0ba2d537698ca8ae6", "is_reserved": 0}, {"is_disabled": 0, "fusion_lon": 0.0, "fusion_lat": 0.0, "lat": 38.88580366666667, "type": "electric_scooter", "lon": -76.91906616666667, "bike_id": "f82d355f6c117c5b052d7bcd85e6fa8c", "rental_uris": {"android": "https://dc.lft.to/lastmile_qr_scan", "ios": "https://dc.lft.to/lastmile_qr_scan"}, "name": "f82d355f6c117c5b052d7bcd85e6fa8c", "is_reserved": 0}, {"is_disabled": 0, "fusion_lon": 0.0, "fusion_lat": 0.0, "lat": 38.956103666666664, "type": "electric_scooter", "lon": -77.02789066666666, "bike_id": "e8b8e42f835c232e817235bc35798887", "rental_uris": {"android": "https://dc.lft.to/lastmile_qr_scan", "ios": "https://dc.lft.to/lastmile_qr_scan"}, "name": "e8b8e42f835c232e817235bc35798887", "is_reserved": 0}, {"is_disabled": 0, "fusion_lon": 0.0, "fusion_lat": 0.0, "lat": 38.9386405, "type": "electric_scooter", "lon": -77.0265275, "bike_id": "80b6d8610377550ba227d3040c6d4918", "rental_uris": {"android": "https://dc.lft.to/lastmile_qr_scan", "ios": "https://dc.lft.to/lastmile_qr_scan"}, "name": "80b6d8610377550ba227d3040c6d4918", "is_reserved": 0}, {"is_disabled": 0, "fusion_lon": 0.0, "fusion_lat": 0.0, "lat": 38.8785885, "type": "electric_scooter", "lon": -77.01761283333333, "bike_id": "5c1e5bd47be43d86011ff036e0659691", "rental_uris": {"android": "https://dc.lft.to/lastmile_qr_scan", "ios": "https://dc.lft.to/lastmile_qr_scan"}, "name": "5c1e5bd47be43d86011ff036e0659691", "is_reserved": 0}, {"is_disabled": 0, "fusion_lon": 0.0, "fusion_lat": 0.0, "lat": 38.953323, "type": "electric_scooter", "lon": -77.06850433333334, "bike_id": "d1079bf9c2e6eea24a641806119c6e07", "rental_uris": {"android": "https://dc.lft.to/lastmile_qr_scan", "ios": "https://dc.lft.to/lastmile_qr_scan"}, "name": "d1079bf9c2e6eea24a641806119c6e07", "is_reserved": 0}, {"is_disabled": 0, "fusion_lon": 0.0, "fusion_lat": 0.0, "lat": 38.92767, "type": "electric_scooter", "lon": -77.05346, "bike_id": "59bd7d4709a2c7423207801af8a1b36e", "rental_uris": {"android": "https://dc.lft.to/lastmile_qr_scan", "ios": "https://dc.lft.to/lastmile_qr_scan"}, "name": "59bd7d4709a2c7423207801af8a1b36e", "is_reserved": 0}, {"is_disabled": 0, "fusion_lon": 0.0, "fusion_lat": 0.0, "lat": 38.926541, "type": "electric_bike", "lon": -77.03832416666667, "bike_id": "0360f8b2c612e88ea665a3501dc9b589", "rental_uris": {"android": "https://dc.lft.to/lastmile_qr_scan", "ios": "https://dc.lft.to/lastmile_qr_scan"}, "name": "0360f8b2c612e88ea665a3501dc9b589", "is_reserved": 0}, {"is_disabled": 0, "fusion_lon": 0.0, "fusion_lat": 0.0, "lat": 39.038831333333334, "type": "electric_bike", "lon": -77.10912033333334, "bike_id": "dd1d19cbecfba18ab0ad8c6c7c9f6cf7", "rental_uris": {"android": "https://dc.lft.to/lastmile_qr_scan", "ios": "https://dc.lft.to/lastmile_qr_scan"}, "name": "dd1d19cbecfba18ab0ad8c6c7c9f6cf7", "is_reserved": 0}, {"is_disabled": 0, "fusion_lon": 0.0, "fusion_lat": 0.0, "lat": 38.89213566666667, "type": "electric_bike", "lon": -76.9855565, "bike_id": "6f5f23dfe1bee8a50960546a2d32f031", "rental_uris": {"android": "https://dc.lft.to/lastmile_qr_scan", "ios": "https://dc.lft.to/lastmile_qr_scan"}, "name": "6f5f23dfe1bee8a50960546a2d32f031", "is_reserved": 0}, {"is_disabled": 0, "fusion_lon": 0.0, "fusion_lat": 0.0, "lat": 38.925540166666664, "type": "electric_scooter", "lon": -77.05295483333333, "bike_id": "e66d130bf8280d79ca83ee19e5d69567", "rental_uris": {"android": "https://dc.lft.to/lastmile_qr_scan", "ios": "https://dc.lft.to/lastmile_qr_scan"}, "name": "e66d130bf8280d79ca83ee19e5d69567", "is_reserved": 0}, {"is_disabled": 0, "fusion_lon": 0.0, "fusion_lat": 0.0, "lat": 38.921305333333336, "type": "electric_scooter", "lon": -77.0217585, "bike_id": "3d1ac8cc492440ee280b171015165cc4", "rental_uris": {"android": "https://dc.lft.to/lastmile_qr_scan", "ios": "https://dc.lft.to/lastmile_qr_scan"}, "name": "3d1ac8cc492440ee280b171015165cc4", "is_reserved": 0}, {"is_disabled": 0, "fusion_lon": 0.0, "fusion_lat": 0.0, "lat": 39.000202, "type": "electric_bike", "lon": -76.8728155, "bike_id": "468f89557ab2e86df77ea72af818dfdf", "rental_uris": {"android": "https://dc.lft.to/lastmile_qr_scan", "ios": "https://dc.lft.to/lastmile_qr_scan"}, "name": "468f89557ab2e86df77ea72af818dfdf", "is_reserved": 0}, {"is_disabled": 0, "fusion_lon": 0.0, "fusion_lat": 0.0, "lat": 38.91820333333333, "type": "electric_scooter", "lon": -77.04011433333334, "bike_id": "7abff44e21eaa2e2def6814d5d5b8116", "rental_uris": {"android": "https://dc.lft.to/lastmile_qr_scan", "ios": "https://dc.lft.to/lastmile_qr_scan"}, "name": "7abff44e21eaa2e2def6814d5d5b8116", "is_reserved": 0}, {"is_disabled": 0, "fusion_lon": 0.0, "fusion_lat": 0.0, "lat": 38.9171385, "type": "electric_scooter", "lon": -77.02846066666666, "bike_id": "d1574d7133b24cafd0aceb5df2e74c53", "rental_uris": {"android": "https://dc.lft.to/lastmile_qr_scan", "ios": "https://dc.lft.to/lastmile_qr_scan"}, "name": "d1574d7133b24cafd0aceb5df2e74c53", "is_reserved": 0}, {"is_disabled": 0, "fusion_lon": 0.0, "fusion_lat": 0.0, "lat": 38.915619166666666, "type": "electric_scooter", "lon": -77.03240683333334, "bike_id": "be6f12b056e3cb80535f6e0dbd96b377", "rental_uris": {"android": "https://dc.lft.to/lastmile_qr_scan", "ios": "https://dc.lft.to/lastmile_qr_scan"}, "name": "be6f12b056e3cb80535f6e0dbd96b377", "is_reserved": 0}, {"is_disabled": 0, "fusion_lon": 0.0, "fusion_lat": 0.0, "lat": 38.828682, "type": "electric_bike", "lon": -77.11228783333334, "bike_id": "194a9f5da339165ab7ce5b9f762c18c8", "rental_uris": {"android": "https://dc.lft.to/lastmile_qr_scan", "ios": "https://dc.lft.to/lastmile_qr_scan"}, "name": "194a9f5da339165ab7ce5b9f762c18c8", "is_reserved": 0}, {"is_disabled": 0, "fusion_lon": 0.0, "fusion_lat": 0.0, "lat": 38.9023585, "type": "electric_scooter", "lon": -77.06099316666666, "bike_id": "8df1e19ba3cfb6b0901c482e207cfd1c", "rental_uris": {"android": "https://dc.lft.to/lastmile_qr_scan", "ios": "https://dc.lft.to/lastmile_qr_scan"}, "name": "8df1e19ba3cfb6b0901c482e207cfd1c", "is_reserved": 0}, {"is_disabled": 0, "fusion_lon": 0.0, "fusion_lat": 0.0, "lat": 38.89964633333334, "type": "electric_scooter", "lon": -77.04616083333333, "bike_id": "7ceb10ac14764e98d5fa9cfc4ecd2daf", "rental_uris": {"android": "https://dc.lft.to/lastmile_qr_scan", "ios": "https://dc.lft.to/lastmile_qr_scan"}, "name": "7ceb10ac14764e98d5fa9cfc4ecd2daf", "is_reserved": 0}, {"is_disabled": 0, "fusion_lon": 0.0, "fusion_lat": 0.0, "lat": 38.896181, "type": "electric_scooter", "lon": -76.99634966666666, "bike_id": "009546fe3c987a3880e894698a957a31", "rental_uris": {"android": "https://dc.lft.to/lastmile_qr_scan", "ios": "https://dc.lft.to/lastmile_qr_scan"}, "name": "009546fe3c987a3880e894698a957a31", "is_reserved": 0}, {"is_disabled": 0, "fusion_lon": 0.0, "fusion_lat": 0.0, "lat": 38.915623, "type": "electric_scooter", "lon": -77.0327705, "bike_id": "a2fcb0c2da7d463c2083a7f58edb4bdb", "rental_uris": {"android": "https://dc.lft.to/lastmile_qr_scan", "ios": "https://dc.lft.to/lastmile_qr_scan"}, "name": "a2fcb0c2da7d463c2083a7f58edb4bdb", "is_reserved": 0}, {"is_disabled": 0, "fusion_lon": 0.0, "fusion_lat": 0.0, "lat": 38.912570833333334, "type": "electric_scooter", "lon": -77.03270333333333, "bike_id": "5f109a39368fe147ec32b6c90d97b71a", "rental_uris": {"android": "https://dc.lft.to/lastmile_qr_scan", "ios": "https://dc.lft.to/lastmile_qr_scan"}, "name": "5f109a39368fe147ec32b6c90d97b71a", "is_reserved": 0}, {"is_disabled": 0, "fusion_lon": 0.0, "fusion_lat": 0.0, "lat": 38.9096725, "type": "electric_scooter", "lon": -77.03179483333334, "bike_id": "c5406675cabb3e1e724dbc6731cbcd64", "rental_uris": {"android": "https://dc.lft.to/lastmile_qr_scan", "ios": "https://dc.lft.to/lastmile_qr_scan"}, "name": "c5406675cabb3e1e724dbc6731cbcd64", "is_reserved": 0}, {"is_disabled": 0, "fusion_lon": 0.0, "fusion_lat": 0.0, "lat": 38.91710116666667, "type": "electric_scooter", "lon": -77.03235916666667, "bike_id": "edb0993b6d1b631dbd712dfead995c66", "rental_uris": {"android": "https://dc.lft.to/lastmile_qr_scan", "ios": "https://dc.lft.to/lastmile_qr_scan"}, "name": "edb0993b6d1b631dbd712dfead995c66", "is_reserved": 0}, {"is_disabled": 0, "fusion_lon": 0.0, "fusion_lat": 0.0, "lat": 38.918734666666666, "type": "electric_bike", "lon": -76.9612405, "bike_id": "d2bdd30b4ec2ce5c2e0793ff9f99bd26", "rental_uris": {"android": "https://dc.lft.to/lastmile_qr_scan", "ios": "https://dc.lft.to/lastmile_qr_scan"}, "name": "d2bdd30b4ec2ce5c2e0793ff9f99bd26", "is_reserved": 0}, {"is_disabled": 0, "fusion_lon": 0.0, "fusion_lat": 0.0, "lat": 38.905461, "type": "electric_scooter", "lon": -77.02968416666667, "bike_id": "d22910d51603c05d9faf561336b15904", "rental_uris": {"android": "https://dc.lft.to/lastmile_qr_scan", "ios": "https://dc.lft.to/lastmile_qr_scan"}, "name": "d22910d51603c05d9faf561336b15904", "is_reserved": 0}, {"is_disabled": 0, "fusion_lon": 0.0, "fusion_lat": 0.0, "lat": 38.901804, "type": "electric_scooter", "lon": -76.92826783333334, "bike_id": "3dfa0f8beb0bc6c86f2b19e23c3177eb", "rental_uris": {"android": "https://dc.lft.to/lastmile_qr_scan", "ios": "https://dc.lft.to/lastmile_qr_scan"}, "name": "3dfa0f8beb0bc6c86f2b19e23c3177eb", "is_reserved": 0}, {"is_disabled": 0, "fusion_lon": 0.0, "fusion_lat": 0.0, "lat": 38.9319435, "type": "electric_scooter", "lon": -77.028347, "bike_id": "d522e52aa1cb9369c9180d55c6baf6c8", "rental_uris": {"android": "https://dc.lft.to/lastmile_qr_scan", "ios": "https://dc.lft.to/lastmile_qr_scan"}, "name": "d522e52aa1cb9369c9180d55c6baf6c8", "is_reserved": 0}, {"is_disabled": 0, "fusion_lon": 0.0, "fusion_lat": 0.0, "lat": 38.861085833333334, "type": "electric_scooter", "lon": -76.98373916666667, "bike_id": "6979e985fab91640d6c3e6e6e94d55cc", "rental_uris": {"android": "https://dc.lft.to/lastmile_qr_scan", "ios": "https://dc.lft.to/lastmile_qr_scan"}, "name": "6979e985fab91640d6c3e6e6e94d55cc", "is_reserved": 0}, {"is_disabled": 0, "fusion_lon": 0.0, "fusion_lat": 0.0, "lat": 38.91884666666667, "type": "electric_scooter", "lon": -77.047191, "bike_id": "2ad8461ef7a7f42d7ac925d7e7731cfc", "rental_uris": {"android": "https://dc.lft.to/lastmile_qr_scan", "ios": "https://dc.lft.to/lastmile_qr_scan"}, "name": "2ad8461ef7a7f42d7ac925d7e7731cfc", "is_reserved": 0}, {"is_disabled": 0, "fusion_lon": 0.0, "fusion_lat": 0.0, "lat": 38.947928, "type": "electric_scooter", "lon": -77.092752, "bike_id": "afe3cf491000ac84a6f7cea1ea4a479e", "rental_uris": {"android": "https://dc.lft.to/lastmile_qr_scan", "ios": "https://dc.lft.to/lastmile_qr_scan"}, "name": "afe3cf491000ac84a6f7cea1ea4a479e", "is_reserved": 0}, {"is_disabled": 0, "fusion_lon": 0.0, "fusion_lat": 0.0, "lat": 38.90535083333333, "type": "electric_scooter", "lon": -77.029793, "bike_id": "818f31e0f2ddb4b1303aa5928cfb9379", "rental_uris": {"android": "https://dc.lft.to/lastmile_qr_scan", "ios": "https://dc.lft.to/lastmile_qr_scan"}, "name": "818f31e0f2ddb4b1303aa5928cfb9379", "is_reserved": 0}, {"is_disabled": 0, "fusion_lon": 0.0, "fusion_lat": 0.0, "lat": 38.90972766666667, "type": "electric_scooter", "lon": -77.04541083333334, "bike_id": "e7abce49099d116c236a075815d3ea3e", "rental_uris": {"android": "https://dc.lft.to/lastmile_qr_scan", "ios": "https://dc.lft.to/lastmile_qr_scan"}, "name": "e7abce49099d116c236a075815d3ea3e", "is_reserved": 0}, {"is_disabled": 0, "fusion_lon": 0.0, "fusion_lat": 0.0, "lat": 38.920278833333334, "type": "electric_scooter", "lon": -77.03194466666666, "bike_id": "b031dce223b842429d082be65e24dc38", "rental_uris": {"android": "https://dc.lft.to/lastmile_qr_scan", "ios": "https://dc.lft.to/lastmile_qr_scan"}, "name": "b031dce223b842429d082be65e24dc38", "is_reserved": 0}, {"is_disabled": 0, "fusion_lon": 0.0, "fusion_lat": 0.0, "lat": 38.87734066666667, "type": "electric_scooter", "lon": -77.00062266666667, "bike_id": "829279234827c83491014203090c4214", "rental_uris": {"android": "https://dc.lft.to/lastmile_qr_scan", "ios": "https://dc.lft.to/lastmile_qr_scan"}, "name": "829279234827c83491014203090c4214", "is_reserved": 0}, {"is_disabled": 0, "fusion_lon": 0.0, "fusion_lat": 0.0, "lat": 38.89878083333333, "type": "electric_scooter", "lon": -76.93183333333333, "bike_id": "c4948b976d689639e144d865ba3af01d", "rental_uris": {"android": "https://dc.lft.to/lastmile_qr_scan", "ios": "https://dc.lft.to/lastmile_qr_scan"}, "name": "c4948b976d689639e144d865ba3af01d", "is_reserved": 0}, {"is_disabled": 0, "fusion_lon": 0.0, "fusion_lat": 0.0, "lat": 38.90696416666667, "type": "electric_scooter", "lon": -77.06324816666667, "bike_id": "9c64ab81385d485375152126c206c7a0", "rental_uris": {"android": "https://dc.lft.to/lastmile_qr_scan", "ios": "https://dc.lft.to/lastmile_qr_scan"}, "name": "9c64ab81385d485375152126c206c7a0", "is_reserved": 0}, {"is_disabled": 0, "fusion_lon": 0.0, "fusion_lat": 0.0, "lat": 38.98027716666667, "type": "electric_bike", "lon": -76.92914683333333, "bike_id": "d04ec0ff3c2378e561be7f5b5c355f07", "rental_uris": {"android": "https://dc.lft.to/lastmile_qr_scan", "ios": "https://dc.lft.to/lastmile_qr_scan"}, "name": "d04ec0ff3c2378e561be7f5b5c355f07", "is_reserved": 0}, {"is_disabled": 0, "fusion_lon": 0.0, "fusion_lat": 0.0, "lat": 38.895778, "type": "electric_scooter", "lon": -77.00454083333334, "bike_id": "f18a471cbfd137702db10764f66d7250", "rental_uris": {"android": "https://dc.lft.to/lastmile_qr_scan", "ios": "https://dc.lft.to/lastmile_qr_scan"}, "name": "f18a471cbfd137702db10764f66d7250", "is_reserved": 0}, {"is_disabled": 0, "fusion_lon": 0.0, "fusion_lat": 0.0, "lat": 38.902855, "type": "electric_scooter", "lon": -77.02432916666666, "bike_id": "e00dbcc0501d3cbe9ca8f13719b0736e", "rental_uris": {"android": "https://dc.lft.to/lastmile_qr_scan", "ios": "https://dc.lft.to/lastmile_qr_scan"}, "name": "e00dbcc0501d3cbe9ca8f13719b0736e", "is_reserved": 0}, {"is_disabled": 0, "fusion_lon": 0.0, "fusion_lat": 0.0, "lat": 38.8931435, "type": "electric_scooter", "lon": -77.02201866666667, "bike_id": "23e4f4ff2becf4844fa44c04ce511e60", "rental_uris": {"android": "https://dc.lft.to/lastmile_qr_scan", "ios": "https://dc.lft.to/lastmile_qr_scan"}, "name": "23e4f4ff2becf4844fa44c04ce511e60", "is_reserved": 0}, {"is_disabled": 0, "fusion_lon": 0.0, "fusion_lat": 0.0, "lat": 38.91561933333333, "type": "electric_scooter", "lon": -77.01204816666667, "bike_id": "d3bb1b255696bad5890b93b3eac4af43", "rental_uris": {"android": "https://dc.lft.to/lastmile_qr_scan", "ios": "https://dc.lft.to/lastmile_qr_scan"}, "name": "d3bb1b255696bad5890b93b3eac4af43", "is_reserved": 0}, {"is_disabled": 0, "fusion_lon": 0.0, "fusion_lat": 0.0, "lat": 38.858821666666664, "type": "electric_scooter", "lon": -76.99029766666666, "bike_id": "40b91df6bda7f96684df1f402239b040", "rental_uris": {"android": "https://dc.lft.to/lastmile_qr_scan", "ios": "https://dc.lft.to/lastmile_qr_scan"}, "name": "40b91df6bda7f96684df1f402239b040", "is_reserved": 0}, {"is_disabled": 0, "fusion_lon": 0.0, "fusion_lat": 0.0, "lat": 38.90532283333334, "type": "electric_scooter", "lon": -77.0508645, "bike_id": "6fac66047862511f547473f6b54dfbc0", "rental_uris": {"android": "https://dc.lft.to/lastmile_qr_scan", "ios": "https://dc.lft.to/lastmile_qr_scan"}, "name": "6fac66047862511f547473f6b54dfbc0", "is_reserved": 0}, {"is_disabled": 0, "fusion_lon": 0.0, "fusion_lat": 0.0, "lat": 38.90136716666667, "type": "electric_scooter", "lon": -77.04162833333334, "bike_id": "63d8c5e5c653f59e99d37b4371cababd", "rental_uris": {"android": "https://dc.lft.to/lastmile_qr_scan", "ios": "https://dc.lft.to/lastmile_qr_scan"}, "name": "63d8c5e5c653f59e99d37b4371cababd", "is_reserved": 0}, {"is_disabled": 0, "fusion_lon": 0.0, "fusion_lat": 0.0, "lat": 38.901988833333334, "type": "electric_scooter", "lon": -77.06118366666666, "bike_id": "a9173b428e4a8c5623d3ef8e1c618cdc", "rental_uris": {"android": "https://dc.lft.to/lastmile_qr_scan", "ios": "https://dc.lft.to/lastmile_qr_scan"}, "name": "a9173b428e4a8c5623d3ef8e1c618cdc", "is_reserved": 0}, {"is_disabled": 0, "fusion_lon": 0.0, "fusion_lat": 0.0, "lat": 38.91332166666667, "type": "electric_scooter", "lon": -77.03250216666666, "bike_id": "c9f569eae9931122473dd2640056a391", "rental_uris": {"android": "https://dc.lft.to/lastmile_qr_scan", "ios": "https://dc.lft.to/lastmile_qr_scan"}, "name": "c9f569eae9931122473dd2640056a391", "is_reserved": 0}, {"is_disabled": 0, "fusion_lon": 0.0, "fusion_lat": 0.0, "lat": 38.860420166666664, "type": "electric_bike", "lon": -77.05631033333333, "bike_id": "79957b0dd856b9151d8f9597603a67f6", "rental_uris": {"android": "https://dc.lft.to/lastmile_qr_scan", "ios": "https://dc.lft.to/lastmile_qr_scan"}, "name": "79957b0dd856b9151d8f9597603a67f6", "is_reserved": 0}, {"is_disabled": 0, "fusion_lon": 0.0, "fusion_lat": 0.0, "lat": 38.93499516666667, "type": "electric_scooter", "lon": -77.02420133333334, "bike_id": "ad2c1fb30e02aa9d987ff1350096f699", "rental_uris": {"android": "https://dc.lft.to/lastmile_qr_scan", "ios": "https://dc.lft.to/lastmile_qr_scan"}, "name": "ad2c1fb30e02aa9d987ff1350096f699", "is_reserved": 0}, {"is_disabled": 0, "fusion_lon": 0.0, "fusion_lat": 0.0, "lat": 38.8919225, "type": "electric_scooter", "lon": -76.98833616666667, "bike_id": "7989c0aec936193c9addf0783d4143e7", "rental_uris": {"android": "https://dc.lft.to/lastmile_qr_scan", "ios": "https://dc.lft.to/lastmile_qr_scan"}, "name": "7989c0aec936193c9addf0783d4143e7", "is_reserved": 0}, {"is_disabled": 0, "fusion_lon": 0.0, "fusion_lat": 0.0, "lat": 38.962139, "type": "electric_scooter", "lon": -77.02807566666667, "bike_id": "3377102ff47e20997d65130cd521f6ef", "rental_uris": {"android": "https://dc.lft.to/lastmile_qr_scan", "ios": "https://dc.lft.to/lastmile_qr_scan"}, "name": "3377102ff47e20997d65130cd521f6ef", "is_reserved": 0}, {"is_disabled": 0, "fusion_lon": 0.0, "fusion_lat": 0.0, "lat": 38.92849616666667, "type": "electric_scooter", "lon": -77.0140175, "bike_id": "4d3a0818a325cd57706d03ff67f2e34e", "rental_uris": {"android": "https://dc.lft.to/lastmile_qr_scan", "ios": "https://dc.lft.to/lastmile_qr_scan"}, "name": "4d3a0818a325cd57706d03ff67f2e34e", "is_reserved": 0}, {"is_disabled": 0, "fusion_lon": 0.0, "fusion_lat": 0.0, "lat": 38.923111166666665, "type": "electric_scooter", "lon": -77.02254166666667, "bike_id": "4b59793fc68b7761c7b1fd620ebc87e3", "rental_uris": {"android": "https://dc.lft.to/lastmile_qr_scan", "ios": "https://dc.lft.to/lastmile_qr_scan"}, "name": "4b59793fc68b7761c7b1fd620ebc87e3", "is_reserved": 0}, {"is_disabled": 0, "fusion_lon": 0.0, "fusion_lat": 0.0, "lat": 38.87492733333333, "type": "electric_bike", "lon": -77.04902683333333, "bike_id": "e24cc9310fb496f78d622e16f00d6468", "rental_uris": {"android": "https://dc.lft.to/lastmile_qr_scan", "ios": "https://dc.lft.to/lastmile_qr_scan"}, "name": "e24cc9310fb496f78d622e16f00d6468", "is_reserved": 0}, {"is_disabled": 0, "fusion_lon": 0.0, "fusion_lat": 0.0, "lat": 38.9560325, "type": "electric_scooter", "lon": -77.00984216666667, "bike_id": "6dc40980ce06c8ea004860f35a3c7def", "rental_uris": {"android": "https://dc.lft.to/lastmile_qr_scan", "ios": "https://dc.lft.to/lastmile_qr_scan"}, "name": "6dc40980ce06c8ea004860f35a3c7def", "is_reserved": 0}, {"is_disabled": 0, "fusion_lon": 0.0, "fusion_lat": 0.0, "lat": 38.863552, "type": "electric_scooter", "lon": -76.99066483333333, "bike_id": "70f699847f9ff9b7b345d71edf237257", "rental_uris": {"android": "https://dc.lft.to/lastmile_qr_scan", "ios": "https://dc.lft.to/lastmile_qr_scan"}, "name": "70f699847f9ff9b7b345d71edf237257", "is_reserved": 0}, {"is_disabled": 0, "fusion_lon": 0.0, "fusion_lat": 0.0, "lat": 38.903515, "type": "electric_scooter", "lon": -77.03964116666667, "bike_id": "9f8a7795d3b160711c4de71668f7bccc", "rental_uris": {"android": "https://dc.lft.to/lastmile_qr_scan", "ios": "https://dc.lft.to/lastmile_qr_scan"}, "name": "9f8a7795d3b160711c4de71668f7bccc", "is_reserved": 0}, {"is_disabled": 0, "fusion_lon": 0.0, "fusion_lat": 0.0, "lat": 38.99089433333333, "type": "electric_bike", "lon": -76.87497883333333, "bike_id": "356ec6e3344255894ac36fc4272d0e5b", "rental_uris": {"android": "https://dc.lft.to/lastmile_qr_scan", "ios": "https://dc.lft.to/lastmile_qr_scan"}, "name": "356ec6e3344255894ac36fc4272d0e5b", "is_reserved": 0}, {"is_disabled": 0, "fusion_lon": 0.0, "fusion_lat": 0.0, "lat": 38.94574933333333, "type": "electric_bike", "lon": -76.96031383333333, "bike_id": "3800aae331dfabd00608ae39004bab18", "rental_uris": {"android": "https://dc.lft.to/lastmile_qr_scan", "ios": "https://dc.lft.to/lastmile_qr_scan"}, "name": "3800aae331dfabd00608ae39004bab18", "is_reserved": 0}, {"is_disabled": 0, "fusion_lon": 0.0, "fusion_lat": 0.0, "lat": 38.90525133333333, "type": "electric_scooter", "lon": -77.06521616666667, "bike_id": "4f21610ac787f56c44bb6925a415e6a8", "rental_uris": {"android": "https://dc.lft.to/lastmile_qr_scan", "ios": "https://dc.lft.to/lastmile_qr_scan"}, "name": "4f21610ac787f56c44bb6925a415e6a8", "is_reserved": 0}, {"is_disabled": 0, "fusion_lon": 0.0, "fusion_lat": 0.0, "lat": 38.99063866666667, "type": "electric_bike", "lon": -77.1002645, "bike_id": "a60eab50238e96599b181d8f2aff8a12", "rental_uris": {"android": "https://dc.lft.to/lastmile_qr_scan", "ios": "https://dc.lft.to/lastmile_qr_scan"}, "name": "a60eab50238e96599b181d8f2aff8a12", "is_reserved": 0}, {"is_disabled": 0, "fusion_lon": 0.0, "fusion_lat": 0.0, "lat": 38.91125866666667, "type": "electric_scooter", "lon": -77.03749466666666, "bike_id": "775e3faee55c5121c542f06565d71a4c", "rental_uris": {"android": "https://dc.lft.to/lastmile_qr_scan", "ios": "https://dc.lft.to/lastmile_qr_scan"}, "name": "775e3faee55c5121c542f06565d71a4c", "is_reserved": 0}, {"is_disabled": 0, "fusion_lon": 0.0, "fusion_lat": 0.0, "lat": 38.900209833333335, "type": "electric_scooter", "lon": -76.99346783333333, "bike_id": "f7e99783e46fe155f9d6be73479b78fd", "rental_uris": {"android": "https://dc.lft.to/lastmile_qr_scan", "ios": "https://dc.lft.to/lastmile_qr_scan"}, "name": "f7e99783e46fe155f9d6be73479b78fd", "is_reserved": 0}, {"is_disabled": 0, "fusion_lon": 0.0, "fusion_lat": 0.0, "lat": 38.942068, "type": "electric_scooter", "lon": -77.0259225, "bike_id": "e576dd6d6359e2b1830e95d9f17eefc4", "rental_uris": {"android": "https://dc.lft.to/lastmile_qr_scan", "ios": "https://dc.lft.to/lastmile_qr_scan"}, "name": "e576dd6d6359e2b1830e95d9f17eefc4", "is_reserved": 0}, {"is_disabled": 0, "fusion_lon": 0.0, "fusion_lat": 0.0, "lat": 38.96418966666667, "type": "electric_scooter", "lon": -77.07529183333334, "bike_id": "461fd2ddbc8c283da7959821f3c99aca", "rental_uris": {"android": "https://dc.lft.to/lastmile_qr_scan", "ios": "https://dc.lft.to/lastmile_qr_scan"}, "name": "461fd2ddbc8c283da7959821f3c99aca", "is_reserved": 0}, {"is_disabled": 0, "fusion_lon": 0.0, "fusion_lat": 0.0, "lat": 38.92206933333333, "type": "electric_scooter", "lon": -76.99694683333334, "bike_id": "03bdb0817969f1354c71d366087feb75", "rental_uris": {"android": "https://dc.lft.to/lastmile_qr_scan", "ios": "https://dc.lft.to/lastmile_qr_scan"}, "name": "03bdb0817969f1354c71d366087feb75", "is_reserved": 0}, {"is_disabled": 0, "fusion_lon": 0.0, "fusion_lat": 0.0, "lat": 38.91774916666667, "type": "electric_scooter", "lon": -77.03436283333333, "bike_id": "8ac9b56e3cb73de18dc2d9e70a359c89", "rental_uris": {"android": "https://dc.lft.to/lastmile_qr_scan", "ios": "https://dc.lft.to/lastmile_qr_scan"}, "name": "8ac9b56e3cb73de18dc2d9e70a359c89", "is_reserved": 0}, {"is_disabled": 0, "fusion_lon": 0.0, "fusion_lat": 0.0, "lat": 38.906849, "type": "electric_scooter", "lon": -76.97998983333333, "bike_id": "be1b7774d983c29e513c78706782d17b", "rental_uris": {"android": "https://dc.lft.to/lastmile_qr_scan", "ios": "https://dc.lft.to/lastmile_qr_scan"}, "name": "be1b7774d983c29e513c78706782d17b", "is_reserved": 0}, {"is_disabled": 0, "fusion_lon": 0.0, "fusion_lat": 0.0, "lat": 38.9104075, "type": "electric_scooter", "lon": -77.04009266666667, "bike_id": "483ae2abcee3c22f23cc195084518367", "rental_uris": {"android": "https://dc.lft.to/lastmile_qr_scan", "ios": "https://dc.lft.to/lastmile_qr_scan"}, "name": "483ae2abcee3c22f23cc195084518367", "is_reserved": 0}, {"is_disabled": 0, "fusion_lon": 0.0, "fusion_lat": 0.0, "lat": 38.858049666666666, "type": "electric_scooter", "lon": -76.98654533333334, "bike_id": "ef980658d4263741e3529f0c559fff3e", "rental_uris": {"android": "https://dc.lft.to/lastmile_qr_scan", "ios": "https://dc.lft.to/lastmile_qr_scan"}, "name": "ef980658d4263741e3529f0c559fff3e", "is_reserved": 0}, {"is_disabled": 0, "fusion_lon": 0.0, "fusion_lat": 0.0, "lat": 38.90228, "type": "electric_scooter", "lon": -77.06153116666667, "bike_id": "1f6ea79b6e440f260cd34fb2d44857e4", "rental_uris": {"android": "https://dc.lft.to/lastmile_qr_scan", "ios": "https://dc.lft.to/lastmile_qr_scan"}, "name": "1f6ea79b6e440f260cd34fb2d44857e4", "is_reserved": 0}, {"is_disabled": 0, "fusion_lon": 0.0, "fusion_lat": 0.0, "lat": 38.900761333333335, "type": "electric_scooter", "lon": -77.01817966666667, "bike_id": "ba836a66ca95015cbf47d45ce9ab7278", "rental_uris": {"android": "https://dc.lft.to/lastmile_qr_scan", "ios": "https://dc.lft.to/lastmile_qr_scan"}, "name": "ba836a66ca95015cbf47d45ce9ab7278", "is_reserved": 0}, {"is_disabled": 0, "fusion_lon": 0.0, "fusion_lat": 0.0, "lat": 38.929672333333336, "type": "electric_scooter", "lon": -77.02067816666667, "bike_id": "d90dabe89667711baffa72835d35b0cb", "rental_uris": {"android": "https://dc.lft.to/lastmile_qr_scan", "ios": "https://dc.lft.to/lastmile_qr_scan"}, "name": "d90dabe89667711baffa72835d35b0cb", "is_reserved": 0}, {"is_disabled": 0, "fusion_lon": 0.0, "fusion_lat": 0.0, "lat": 38.907453333333336, "type": "electric_scooter", "lon": -77.0076255, "bike_id": "cff26012a7402ed544245a4cf5916b17", "rental_uris": {"android": "https://dc.lft.to/lastmile_qr_scan", "ios": "https://dc.lft.to/lastmile_qr_scan"}, "name": "cff26012a7402ed544245a4cf5916b17", "is_reserved": 0}, {"is_disabled": 0, "fusion_lon": 0.0, "fusion_lat": 0.0, "lat": 38.92748866666667, "type": "electric_scooter", "lon": -77.016114, "bike_id": "1b5cb5ed1a19e8f33ede9ef51142b274", "rental_uris": {"android": "https://dc.lft.to/lastmile_qr_scan", "ios": "https://dc.lft.to/lastmile_qr_scan"}, "name": "1b5cb5ed1a19e8f33ede9ef51142b274", "is_reserved": 0}, {"is_disabled": 0, "fusion_lon": 0.0, "fusion_lat": 0.0, "lat": 38.91124216666667, "type": "electric_scooter", "lon": -77.04402616666667, "bike_id": "dc3354403ad91d3dde835d5bba3e6b41", "rental_uris": {"android": "https://dc.lft.to/lastmile_qr_scan", "ios": "https://dc.lft.to/lastmile_qr_scan"}, "name": "dc3354403ad91d3dde835d5bba3e6b41", "is_reserved": 0}, {"is_disabled": 0, "fusion_lon": 0.0, "fusion_lat": 0.0, "lat": 38.91261033333333, "type": "electric_scooter", "lon": -77.03755716666667, "bike_id": "921c0499043453103a3cc7015811143b", "rental_uris": {"android": "https://dc.lft.to/lastmile_qr_scan", "ios": "https://dc.lft.to/lastmile_qr_scan"}, "name": "921c0499043453103a3cc7015811143b", "is_reserved": 0}, {"is_disabled": 0, "fusion_lon": 0.0, "fusion_lat": 0.0, "lat": 38.919390666666665, "type": "electric_scooter", "lon": -77.04174933333333, "bike_id": "8664e9b350e9f376f9b4983025b775b1", "rental_uris": {"android": "https://dc.lft.to/lastmile_qr_scan", "ios": "https://dc.lft.to/lastmile_qr_scan"}, "name": "8664e9b350e9f376f9b4983025b775b1", "is_reserved": 0}, {"is_disabled": 0, "fusion_lon": 0.0, "fusion_lat": 0.0, "lat": 38.905202833333334, "type": "electric_scooter", "lon": -77.05391416666667, "bike_id": "7b5c6914b88d29aec1633f2e12cd25c1", "rental_uris": {"android": "https://dc.lft.to/lastmile_qr_scan", "ios": "https://dc.lft.to/lastmile_qr_scan"}, "name": "7b5c6914b88d29aec1633f2e12cd25c1", "is_reserved": 0}, {"is_disabled": 0, "fusion_lon": 0.0, "fusion_lat": 0.0, "lat": 38.9119505, "type": "electric_scooter", "lon": -77.04168116666666, "bike_id": "94f07141d7339d189cda28cb33b19b0d", "rental_uris": {"android": "https://dc.lft.to/lastmile_qr_scan", "ios": "https://dc.lft.to/lastmile_qr_scan"}, "name": "94f07141d7339d189cda28cb33b19b0d", "is_reserved": 0}, {"is_disabled": 0, "fusion_lon": 0.0, "fusion_lat": 0.0, "lat": 38.908862, "type": "electric_scooter", "lon": -77.04136366666667, "bike_id": "ff94861e413b8ac6d6e14f26e586a577", "rental_uris": {"android": "https://dc.lft.to/lastmile_qr_scan", "ios": "https://dc.lft.to/lastmile_qr_scan"}, "name": "ff94861e413b8ac6d6e14f26e586a577", "is_reserved": 0}, {"is_disabled": 0, "fusion_lon": 0.0, "fusion_lat": 0.0, "lat": 38.893986, "type": "electric_scooter", "lon": -76.94989133333333, "bike_id": "cc4553e00dde4e2c01d38ef423d4c0a7", "rental_uris": {"android": "https://dc.lft.to/lastmile_qr_scan", "ios": "https://dc.lft.to/lastmile_qr_scan"}, "name": "cc4553e00dde4e2c01d38ef423d4c0a7", "is_reserved": 0}, {"is_disabled": 0, "fusion_lon": 0.0, "fusion_lat": 0.0, "lat": 38.921203166666665, "type": "electric_scooter", "lon": -77.0366075, "bike_id": "c3049abffab0c1c02dd7c6bae81955df", "rental_uris": {"android": "https://dc.lft.to/lastmile_qr_scan", "ios": "https://dc.lft.to/lastmile_qr_scan"}, "name": "c3049abffab0c1c02dd7c6bae81955df", "is_reserved": 0}, {"is_disabled": 0, "fusion_lon": 0.0, "fusion_lat": 0.0, "lat": 38.91480216666667, "type": "electric_scooter", "lon": -77.03837266666666, "bike_id": "13db6a5356ea03d21db9c558ad348050", "rental_uris": {"android": "https://dc.lft.to/lastmile_qr_scan", "ios": "https://dc.lft.to/lastmile_qr_scan"}, "name": "13db6a5356ea03d21db9c558ad348050", "is_reserved": 0}, {"is_disabled": 0, "fusion_lon": 0.0, "fusion_lat": 0.0, "lat": 38.936429, "type": "electric_bike", "lon": -76.9546065, "bike_id": "397dcdcad351fe7a6f8381e83233bd79", "rental_uris": {"android": "https://dc.lft.to/lastmile_qr_scan", "ios": "https://dc.lft.to/lastmile_qr_scan"}, "name": "397dcdcad351fe7a6f8381e83233bd79", "is_reserved": 0}, {"is_disabled": 0, "fusion_lon": 0.0, "fusion_lat": 0.0, "lat": 38.904658833333336, "type": "electric_scooter", "lon": -77.034815, "bike_id": "fcaf81e882fcd982bf758e2fa3e1e79a", "rental_uris": {"android": "https://dc.lft.to/lastmile_qr_scan", "ios": "https://dc.lft.to/lastmile_qr_scan"}, "name": "fcaf81e882fcd982bf758e2fa3e1e79a", "is_reserved": 0}, {"is_disabled": 0, "fusion_lon": 0.0, "fusion_lat": 0.0, "lat": 38.923571833333334, "type": "electric_scooter", "lon": -77.03232116666666, "bike_id": "2d54bbf415234e1e923c2266639be5f0", "rental_uris": {"android": "https://dc.lft.to/lastmile_qr_scan", "ios": "https://dc.lft.to/lastmile_qr_scan"}, "name": "2d54bbf415234e1e923c2266639be5f0", "is_reserved": 0}, {"is_disabled": 0, "fusion_lon": 0.0, "fusion_lat": 0.0, "lat": 38.90458116666667, "type": "electric_scooter", "lon": -77.0356655, "bike_id": "ea2dcc8ca4a9534522f775090636ba92", "rental_uris": {"android": "https://dc.lft.to/lastmile_qr_scan", "ios": "https://dc.lft.to/lastmile_qr_scan"}, "name": "ea2dcc8ca4a9534522f775090636ba92", "is_reserved": 0}, {"is_disabled": 0, "fusion_lon": 0.0, "fusion_lat": 0.0, "lat": 38.930856666666664, "type": "electric_scooter", "lon": -77.03103983333334, "bike_id": "964cbf0f703c0dac3d3c67e51c3d2e54", "rental_uris": {"android": "https://dc.lft.to/lastmile_qr_scan", "ios": "https://dc.lft.to/lastmile_qr_scan"}, "name": "964cbf0f703c0dac3d3c67e51c3d2e54", "is_reserved": 0}, {"is_disabled": 0, "fusion_lon": 0.0, "fusion_lat": 0.0, "lat": 38.94747133333333, "type": "electric_scooter", "lon": -77.01798183333334, "bike_id": "edf8a02e407ce717cdc7fe6518922dbd", "rental_uris": {"android": "https://dc.lft.to/lastmile_qr_scan", "ios": "https://dc.lft.to/lastmile_qr_scan"}, "name": "edf8a02e407ce717cdc7fe6518922dbd", "is_reserved": 0}, {"is_disabled": 0, "fusion_lon": 0.0, "fusion_lat": 0.0, "lat": 38.90946, "type": "electric_scooter", "lon": -77.032054, "bike_id": "f890ad63e91e68886f24defa0a929ac8", "rental_uris": {"android": "https://dc.lft.to/lastmile_qr_scan", "ios": "https://dc.lft.to/lastmile_qr_scan"}, "name": "f890ad63e91e68886f24defa0a929ac8", "is_reserved": 0}, {"is_disabled": 0, "fusion_lon": 0.0, "fusion_lat": 0.0, "lat": 38.9457745, "type": "electric_bike", "lon": -76.98775916666666, "bike_id": "2b3fdabfe622488e09bb7f636185d2c9", "rental_uris": {"android": "https://dc.lft.to/lastmile_qr_scan", "ios": "https://dc.lft.to/lastmile_qr_scan"}, "name": "2b3fdabfe622488e09bb7f636185d2c9", "is_reserved": 0}, {"is_disabled": 0, "fusion_lon": 0.0, "fusion_lat": 0.0, "lat": 38.9080225, "type": "electric_scooter", "lon": -77.00147666666666, "bike_id": "58145b5f831009668526ddf5465c7d85", "rental_uris": {"android": "https://dc.lft.to/lastmile_qr_scan", "ios": "https://dc.lft.to/lastmile_qr_scan"}, "name": "58145b5f831009668526ddf5465c7d85", "is_reserved": 0}, {"is_disabled": 0, "fusion_lon": 0.0, "fusion_lat": 0.0, "lat": 38.8738935, "type": "electric_scooter", "lon": -77.00205916666667, "bike_id": "70e5b73919e34ff59221370b4ed8edf9", "rental_uris": {"android": "https://dc.lft.to/lastmile_qr_scan", "ios": "https://dc.lft.to/lastmile_qr_scan"}, "name": "70e5b73919e34ff59221370b4ed8edf9", "is_reserved": 0}, {"is_disabled": 0, "fusion_lon": 0.0, "fusion_lat": 0.0, "lat": 38.904573666666664, "type": "electric_scooter", "lon": -77.028841, "bike_id": "d3bf1a76d04d206b46833bb38a26f827", "rental_uris": {"android": "https://dc.lft.to/lastmile_qr_scan", "ios": "https://dc.lft.to/lastmile_qr_scan"}, "name": "d3bf1a76d04d206b46833bb38a26f827", "is_reserved": 0}, {"is_disabled": 0, "fusion_lon": 0.0, "fusion_lat": 0.0, "lat": 38.9142, "type": "electric_scooter", "lon": -77.022298, "bike_id": "431a1b5a051922e96178f7d88c5703da", "rental_uris": {"android": "https://dc.lft.to/lastmile_qr_scan", "ios": "https://dc.lft.to/lastmile_qr_scan"}, "name": "431a1b5a051922e96178f7d88c5703da", "is_reserved": 0}, {"is_disabled": 0, "fusion_lon": 0.0, "fusion_lat": 0.0, "lat": 38.924851, "type": "electric_scooter", "lon": -77.02729183333334, "bike_id": "cdf78f97d420620f707cc36eb95391ec", "rental_uris": {"android": "https://dc.lft.to/lastmile_qr_scan", "ios": "https://dc.lft.to/lastmile_qr_scan"}, "name": "cdf78f97d420620f707cc36eb95391ec", "is_reserved": 0}, {"is_disabled": 0, "fusion_lon": 0.0, "fusion_lat": 0.0, "lat": 38.903701166666664, "type": "electric_scooter", "lon": -77.0419385, "bike_id": "93c99ac856875b6bd28113bf56eb7738", "rental_uris": {"android": "https://dc.lft.to/lastmile_qr_scan", "ios": "https://dc.lft.to/lastmile_qr_scan"}, "name": "93c99ac856875b6bd28113bf56eb7738", "is_reserved": 0}, {"is_disabled": 0, "fusion_lon": 0.0, "fusion_lat": 0.0, "lat": 38.842910333333336, "type": "electric_scooter", "lon": -76.999535, "bike_id": "8b806165256ae4a31071ae91f6eb1b3e", "rental_uris": {"android": "https://dc.lft.to/lastmile_qr_scan", "ios": "https://dc.lft.to/lastmile_qr_scan"}, "name": "8b806165256ae4a31071ae91f6eb1b3e", "is_reserved": 0}, {"is_disabled": 0, "fusion_lon": 0.0, "fusion_lat": 0.0, "lat": 38.985639, "type": "electric_bike", "lon": -76.9882995, "bike_id": "6d6c3bd95eb5d826facef9d4d648734b", "rental_uris": {"android": "https://dc.lft.to/lastmile_qr_scan", "ios": "https://dc.lft.to/lastmile_qr_scan"}, "name": "6d6c3bd95eb5d826facef9d4d648734b", "is_reserved": 0}, {"is_disabled": 0, "fusion_lon": 0.0, "fusion_lat": 0.0, "lat": 38.91813283333333, "type": "electric_scooter", "lon": -77.03654816666666, "bike_id": "3fd4ee27e6dad1e336dcb1c1aaa51342", "rental_uris": {"android": "https://dc.lft.to/lastmile_qr_scan", "ios": "https://dc.lft.to/lastmile_qr_scan"}, "name": "3fd4ee27e6dad1e336dcb1c1aaa51342", "is_reserved": 0}, {"is_disabled": 0, "fusion_lon": 0.0, "fusion_lat": 0.0, "lat": 38.94038883333333, "type": "electric_scooter", "lon": -77.0252115, "bike_id": "6758db21a9083070dd37c2a72cbbf23f", "rental_uris": {"android": "https://dc.lft.to/lastmile_qr_scan", "ios": "https://dc.lft.to/lastmile_qr_scan"}, "name": "6758db21a9083070dd37c2a72cbbf23f", "is_reserved": 0}, {"is_disabled": 0, "fusion_lon": 0.0, "fusion_lat": 0.0, "lat": 38.911834, "type": "electric_scooter", "lon": -77.01875716666666, "bike_id": "c454081d9aeaaaa1e6d2c0b4babd8b07", "rental_uris": {"android": "https://dc.lft.to/lastmile_qr_scan", "ios": "https://dc.lft.to/lastmile_qr_scan"}, "name": "c454081d9aeaaaa1e6d2c0b4babd8b07", "is_reserved": 0}, {"is_disabled": 0, "fusion_lon": 0.0, "fusion_lat": 0.0, "lat": 38.905310666666665, "type": "electric_scooter", "lon": -77.0508915, "bike_id": "ede0dc32da968dc2cd9b3464d06554cd", "rental_uris": {"android": "https://dc.lft.to/lastmile_qr_scan", "ios": "https://dc.lft.to/lastmile_qr_scan"}, "name": "ede0dc32da968dc2cd9b3464d06554cd", "is_reserved": 0}, {"is_disabled": 0, "fusion_lon": 0.0, "fusion_lat": 0.0, "lat": 38.90833383333333, "type": "electric_scooter", "lon": -76.9970105, "bike_id": "21f719e719c2a588a125b3dac586748a", "rental_uris": {"android": "https://dc.lft.to/lastmile_qr_scan", "ios": "https://dc.lft.to/lastmile_qr_scan"}, "name": "21f719e719c2a588a125b3dac586748a", "is_reserved": 0}, {"is_disabled": 0, "fusion_lon": 0.0, "fusion_lat": 0.0, "lat": 39.0300145, "type": "electric_bike", "lon": -77.10653783333333, "bike_id": "1c1c4dc862b011ff429be121d401acda", "rental_uris": {"android": "https://dc.lft.to/lastmile_qr_scan", "ios": "https://dc.lft.to/lastmile_qr_scan"}, "name": "1c1c4dc862b011ff429be121d401acda", "is_reserved": 0}, {"is_disabled": 0, "fusion_lon": 0.0, "fusion_lat": 0.0, "lat": 38.9289015, "type": "electric_scooter", "lon": -77.03230133333334, "bike_id": "c01bf82d2bf1317c6bf201c963608398", "rental_uris": {"android": "https://dc.lft.to/lastmile_qr_scan", "ios": "https://dc.lft.to/lastmile_qr_scan"}, "name": "c01bf82d2bf1317c6bf201c963608398", "is_reserved": 0}, {"is_disabled": 0, "fusion_lon": 0.0, "fusion_lat": 0.0, "lat": 38.899545833333335, "type": "electric_scooter", "lon": -77.05222183333333, "bike_id": "332f4a88116a8e43770ec01e71eb8c1e", "rental_uris": {"android": "https://dc.lft.to/lastmile_qr_scan", "ios": "https://dc.lft.to/lastmile_qr_scan"}, "name": "332f4a88116a8e43770ec01e71eb8c1e", "is_reserved": 0}, {"is_disabled": 0, "fusion_lon": 0.0, "fusion_lat": 0.0, "lat": 38.833515, "type": "electric_bike", "lon": -76.96561216666667, "bike_id": "74143391d00edaddb89e30fc2536abee", "rental_uris": {"android": "https://dc.lft.to/lastmile_qr_scan", "ios": "https://dc.lft.to/lastmile_qr_scan"}, "name": "74143391d00edaddb89e30fc2536abee", "is_reserved": 0}, {"is_disabled": 0, "fusion_lon": 0.0, "fusion_lat": 0.0, "lat": 38.892363333333336, "type": "electric_scooter", "lon": -77.03180816666666, "bike_id": "0b3e6bf7b06c620a047591f04c372890", "rental_uris": {"android": "https://dc.lft.to/lastmile_qr_scan", "ios": "https://dc.lft.to/lastmile_qr_scan"}, "name": "0b3e6bf7b06c620a047591f04c372890", "is_reserved": 0}, {"is_disabled": 0, "fusion_lon": 0.0, "fusion_lat": 0.0, "lat": 38.918623, "type": "electric_bike", "lon": -76.96090383333333, "bike_id": "125dede9129eb7e1fa7e02b6a9317cce", "rental_uris": {"android": "https://dc.lft.to/lastmile_qr_scan", "ios": "https://dc.lft.to/lastmile_qr_scan"}, "name": "125dede9129eb7e1fa7e02b6a9317cce", "is_reserved": 0}, {"is_disabled": 0, "fusion_lon": 0.0, "fusion_lat": 0.0, "lat": 38.9505925, "type": "electric_bike", "lon": -76.967394, "bike_id": "cd8541d87157a1e03c8b603713666cac", "rental_uris": {"android": "https://dc.lft.to/lastmile_qr_scan", "ios": "https://dc.lft.to/lastmile_qr_scan"}, "name": "cd8541d87157a1e03c8b603713666cac", "is_reserved": 0}, {"is_disabled": 0, "fusion_lon": 0.0, "fusion_lat": 0.0, "lat": 38.882543166666665, "type": "electric_scooter", "lon": -77.003448, "bike_id": "b6419ad4401f2e64d16e9dd5a555a3f7", "rental_uris": {"android": "https://dc.lft.to/lastmile_qr_scan", "ios": "https://dc.lft.to/lastmile_qr_scan"}, "name": "b6419ad4401f2e64d16e9dd5a555a3f7", "is_reserved": 0}, {"is_disabled": 0, "fusion_lon": 0.0, "fusion_lat": 0.0, "lat": 38.876590666666665, "type": "electric_scooter", "lon": -77.00445333333333, "bike_id": "28bb5946384285a6280187d8aa556258", "rental_uris": {"android": "https://dc.lft.to/lastmile_qr_scan", "ios": "https://dc.lft.to/lastmile_qr_scan"}, "name": "28bb5946384285a6280187d8aa556258", "is_reserved": 0}, {"is_disabled": 0, "fusion_lon": 0.0, "fusion_lat": 0.0, "lat": 38.901409666666666, "type": "electric_scooter", "lon": -77.03045716666666, "bike_id": "132dcdf7efdd24dddca1579a9d3b9375", "rental_uris": {"android": "https://dc.lft.to/lastmile_qr_scan", "ios": "https://dc.lft.to/lastmile_qr_scan"}, "name": "132dcdf7efdd24dddca1579a9d3b9375", "is_reserved": 0}, {"is_disabled": 0, "fusion_lon": 0.0, "fusion_lat": 0.0, "lat": 38.922610666666664, "type": "electric_scooter", "lon": -77.03070883333334, "bike_id": "fcde46b7860f2020c94c1064b883153f", "rental_uris": {"android": "https://dc.lft.to/lastmile_qr_scan", "ios": "https://dc.lft.to/lastmile_qr_scan"}, "name": "fcde46b7860f2020c94c1064b883153f", "is_reserved": 0}, {"is_disabled": 0, "fusion_lon": 0.0, "fusion_lat": 0.0, "lat": 38.96307566666667, "type": "electric_bike", "lon": -77.057608, "bike_id": "20e843b42d0b70a60a48d97decf598d7", "rental_uris": {"android": "https://dc.lft.to/lastmile_qr_scan", "ios": "https://dc.lft.to/lastmile_qr_scan"}, "name": "20e843b42d0b70a60a48d97decf598d7", "is_reserved": 0}, {"is_disabled": 0, "fusion_lon": 0.0, "fusion_lat": 0.0, "lat": 38.9048475, "type": "electric_scooter", "lon": -77.03837616666667, "bike_id": "fa32dc5efea604d3b83db2bfcea478a0", "rental_uris": {"android": "https://dc.lft.to/lastmile_qr_scan", "ios": "https://dc.lft.to/lastmile_qr_scan"}, "name": "fa32dc5efea604d3b83db2bfcea478a0", "is_reserved": 0}, {"is_disabled": 0, "fusion_lon": 0.0, "fusion_lat": 0.0, "lat": 38.8684665, "type": "electric_bike", "lon": -77.097341, "bike_id": "4d479a7ee3c1b7bceb847f05e9262d11", "rental_uris": {"android": "https://dc.lft.to/lastmile_qr_scan", "ios": "https://dc.lft.to/lastmile_qr_scan"}, "name": "4d479a7ee3c1b7bceb847f05e9262d11", "is_reserved": 0}, {"is_disabled": 0, "fusion_lon": 0.0, "fusion_lat": 0.0, "lat": 38.945543, "type": "electric_scooter", "lon": -77.0423995, "bike_id": "04cf386aa6763f2c996a24ba65365e23", "rental_uris": {"android": "https://dc.lft.to/lastmile_qr_scan", "ios": "https://dc.lft.to/lastmile_qr_scan"}, "name": "04cf386aa6763f2c996a24ba65365e23", "is_reserved": 0}, {"is_disabled": 0, "fusion_lon": 0.0, "fusion_lat": 0.0, "lat": 38.879259, "type": "electric_scooter", "lon": -77.0004835, "bike_id": "2af87fb9809b187f318718bb1aca0b60", "rental_uris": {"android": "https://dc.lft.to/lastmile_qr_scan", "ios": "https://dc.lft.to/lastmile_qr_scan"}, "name": "2af87fb9809b187f318718bb1aca0b60", "is_reserved": 0}, {"is_disabled": 0, "fusion_lon": 0.0, "fusion_lat": 0.0, "lat": 38.88454816666667, "type": "electric_scooter", "lon": -76.95209916666667, "bike_id": "5d1c5bfa9d9b0b8da5aaec2179181ef7", "rental_uris": {"android": "https://dc.lft.to/lastmile_qr_scan", "ios": "https://dc.lft.to/lastmile_qr_scan"}, "name": "5d1c5bfa9d9b0b8da5aaec2179181ef7", "is_reserved": 0}, {"is_disabled": 0, "fusion_lon": 0.0, "fusion_lat": 0.0, "lat": 38.89599183333333, "type": "electric_scooter", "lon": -77.02674083333333, "bike_id": "9a5504ef640418c373bce845cb5ac3af", "rental_uris": {"android": "https://dc.lft.to/lastmile_qr_scan", "ios": "https://dc.lft.to/lastmile_qr_scan"}, "name": "9a5504ef640418c373bce845cb5ac3af", "is_reserved": 0}, {"is_disabled": 0, "fusion_lon": 0.0, "fusion_lat": 0.0, "lat": 38.936998, "type": "electric_bike", "lon": -77.02976716666667, "bike_id": "684f9720ac632248f6ea04244da4f9ea", "rental_uris": {"android": "https://dc.lft.to/lastmile_qr_scan", "ios": "https://dc.lft.to/lastmile_qr_scan"}, "name": "684f9720ac632248f6ea04244da4f9ea", "is_reserved": 0}, {"is_disabled": 0, "fusion_lon": 0.0, "fusion_lat": 0.0, "lat": 38.9182165, "type": "electric_scooter", "lon": -77.0344915, "bike_id": "1f50fcd21877d72f324c857d8b49b11b", "rental_uris": {"android": "https://dc.lft.to/lastmile_qr_scan", "ios": "https://dc.lft.to/lastmile_qr_scan"}, "name": "1f50fcd21877d72f324c857d8b49b11b", "is_reserved": 0}, {"is_disabled": 0, "fusion_lon": 0.0, "fusion_lat": 0.0, "lat": 38.910402500000004, "type": "electric_scooter", "lon": -77.014961, "bike_id": "ed726eac73a226ceaf2cbdc0ebc53b12", "rental_uris": {"android": "https://dc.lft.to/lastmile_qr_scan", "ios": "https://dc.lft.to/lastmile_qr_scan"}, "name": "ed726eac73a226ceaf2cbdc0ebc53b12", "is_reserved": 0}, {"is_disabled": 0, "fusion_lon": 0.0, "fusion_lat": 0.0, "lat": 38.92249983333333, "type": "electric_scooter", "lon": -77.02986683333333, "bike_id": "7f3a08bdba9a24681f9439d48fb446d8", "rental_uris": {"android": "https://dc.lft.to/lastmile_qr_scan", "ios": "https://dc.lft.to/lastmile_qr_scan"}, "name": "7f3a08bdba9a24681f9439d48fb446d8", "is_reserved": 0}, {"is_disabled": 0, "fusion_lon": 0.0, "fusion_lat": 0.0, "lat": 38.937097666666666, "type": "electric_scooter", "lon": -77.02465333333333, "bike_id": "78ae72c0798d199c72345b1a331d210c", "rental_uris": {"android": "https://dc.lft.to/lastmile_qr_scan", "ios": "https://dc.lft.to/lastmile_qr_scan"}, "name": "78ae72c0798d199c72345b1a331d210c", "is_reserved": 0}, {"is_disabled": 0, "fusion_lon": 0.0, "fusion_lat": 0.0, "lat": 38.922297, "type": "electric_scooter", "lon": -76.9753415, "bike_id": "fb6f9030615fd55f0090b839393f686f", "rental_uris": {"android": "https://dc.lft.to/lastmile_qr_scan", "ios": "https://dc.lft.to/lastmile_qr_scan"}, "name": "fb6f9030615fd55f0090b839393f686f", "is_reserved": 0}, {"is_disabled": 0, "fusion_lon": 0.0, "fusion_lat": 0.0, "lat": 38.909690833333336, "type": "electric_scooter", "lon": -77.037333, "bike_id": "a11c030037f9ba102da1eb176ab5b181", "rental_uris": {"android": "https://dc.lft.to/lastmile_qr_scan", "ios": "https://dc.lft.to/lastmile_qr_scan"}, "name": "a11c030037f9ba102da1eb176ab5b181", "is_reserved": 0}, {"is_disabled": 0, "fusion_lon": 0.0, "fusion_lat": 0.0, "lat": 38.885951666666664, "type": "electric_scooter", "lon": -77.0058515, "bike_id": "d23e403b28017cb906b8ed1d8f24555f", "rental_uris": {"android": "https://dc.lft.to/lastmile_qr_scan", "ios": "https://dc.lft.to/lastmile_qr_scan"}, "name": "d23e403b28017cb906b8ed1d8f24555f", "is_reserved": 0}, {"is_disabled": 0, "fusion_lon": 0.0, "fusion_lat": 0.0, "lat": 38.994541166666664, "type": "electric_bike", "lon": -76.90818583333333, "bike_id": "6222eada61e5d2d916f88a8f88dca562", "rental_uris": {"android": "https://dc.lft.to/lastmile_qr_scan", "ios": "https://dc.lft.to/lastmile_qr_scan"}, "name": "6222eada61e5d2d916f88a8f88dca562", "is_reserved": 0}, {"is_disabled": 0, "fusion_lon": 0.0, "fusion_lat": 0.0, "lat": 38.9146135, "type": "electric_scooter", "lon": -77.02798166666666, "bike_id": "98b8bd88f9839d940eb44ef108d0747e", "rental_uris": {"android": "https://dc.lft.to/lastmile_qr_scan", "ios": "https://dc.lft.to/lastmile_qr_scan"}, "name": "98b8bd88f9839d940eb44ef108d0747e", "is_reserved": 0}, {"is_disabled": 0, "fusion_lon": 0.0, "fusion_lat": 0.0, "lat": 38.901678833333335, "type": "electric_scooter", "lon": -77.0206035, "bike_id": "98f98477dadc4030be9eff1144a9ccaa", "rental_uris": {"android": "https://dc.lft.to/lastmile_qr_scan", "ios": "https://dc.lft.to/lastmile_qr_scan"}, "name": "98f98477dadc4030be9eff1144a9ccaa", "is_reserved": 0}, {"is_disabled": 0, "fusion_lon": 0.0, "fusion_lat": 0.0, "lat": 38.901355833333334, "type": "electric_scooter", "lon": -76.95171133333334, "bike_id": "aae9064218ac70d88c31014f72223603", "rental_uris": {"android": "https://dc.lft.to/lastmile_qr_scan", "ios": "https://dc.lft.to/lastmile_qr_scan"}, "name": "aae9064218ac70d88c31014f72223603", "is_reserved": 0}, {"is_disabled": 0, "fusion_lon": 0.0, "fusion_lat": 0.0, "lat": 38.880116666666666, "type": "electric_bike", "lon": -76.91594983333333, "bike_id": "29c2566ddbb0238a49ea20ceb07db103", "rental_uris": {"android": "https://dc.lft.to/lastmile_qr_scan", "ios": "https://dc.lft.to/lastmile_qr_scan"}, "name": "29c2566ddbb0238a49ea20ceb07db103", "is_reserved": 0}, {"is_disabled": 0, "fusion_lon": 0.0, "fusion_lat": 0.0, "lat": 38.868925833333336, "type": "electric_scooter", "lon": -76.98314583333334, "bike_id": "a329d467fbb0dc08f06b9e9d694b53ff", "rental_uris": {"android": "https://dc.lft.to/lastmile_qr_scan", "ios": "https://dc.lft.to/lastmile_qr_scan"}, "name": "a329d467fbb0dc08f06b9e9d694b53ff", "is_reserved": 0}, {"is_disabled": 0, "fusion_lon": 0.0, "fusion_lat": 0.0, "lat": 38.883070833333335, "type": "electric_scooter", "lon": -77.016342, "bike_id": "2537f6c0636ee612c4902ad6f119aef6", "rental_uris": {"android": "https://dc.lft.to/lastmile_qr_scan", "ios": "https://dc.lft.to/lastmile_qr_scan"}, "name": "2537f6c0636ee612c4902ad6f119aef6", "is_reserved": 0}, {"is_disabled": 0, "fusion_lon": 0.0, "fusion_lat": 0.0, "lat": 38.8598655, "type": "electric_bike", "lon": -76.97054283333334, "bike_id": "e2b8e1d7bdeb93fd80f10733f702b4b6", "rental_uris": {"android": "https://dc.lft.to/lastmile_qr_scan", "ios": "https://dc.lft.to/lastmile_qr_scan"}, "name": "e2b8e1d7bdeb93fd80f10733f702b4b6", "is_reserved": 0}, {"is_disabled": 0, "fusion_lon": 0.0, "fusion_lat": 0.0, "lat": 38.910387666666665, "type": "electric_scooter", "lon": -77.04052983333334, "bike_id": "440cf61cf27e23428047b858f8710f3e", "rental_uris": {"android": "https://dc.lft.to/lastmile_qr_scan", "ios": "https://dc.lft.to/lastmile_qr_scan"}, "name": "440cf61cf27e23428047b858f8710f3e", "is_reserved": 0}, {"is_disabled": 0, "fusion_lon": 0.0, "fusion_lat": 0.0, "lat": 38.898783, "type": "electric_scooter", "lon": -76.931858, "bike_id": "39bd8c2d1c9f87d9361a13b9db10a8da", "rental_uris": {"android": "https://dc.lft.to/lastmile_qr_scan", "ios": "https://dc.lft.to/lastmile_qr_scan"}, "name": "39bd8c2d1c9f87d9361a13b9db10a8da", "is_reserved": 0}, {"is_disabled": 0, "fusion_lon": 0.0, "fusion_lat": 0.0, "lat": 38.959632666666664, "type": "electric_bike", "lon": -76.9814745, "bike_id": "22eb62c593187e87d622d878120b3580", "rental_uris": {"android": "https://dc.lft.to/lastmile_qr_scan", "ios": "https://dc.lft.to/lastmile_qr_scan"}, "name": "22eb62c593187e87d622d878120b3580", "is_reserved": 0}, {"is_disabled": 0, "fusion_lon": 0.0, "fusion_lat": 0.0, "lat": 38.8876555, "type": "electric_scooter", "lon": -76.95678816666667, "bike_id": "c9c735fd519634e7bb2f15e4b8d81159", "rental_uris": {"android": "https://dc.lft.to/lastmile_qr_scan", "ios": "https://dc.lft.to/lastmile_qr_scan"}, "name": "c9c735fd519634e7bb2f15e4b8d81159", "is_reserved": 0}, {"is_disabled": 0, "fusion_lon": 0.0, "fusion_lat": 0.0, "lat": 38.905060666666664, "type": "electric_scooter", "lon": -76.988485, "bike_id": "6ec41f011ac001a27d75f3238e7d7afe", "rental_uris": {"android": "https://dc.lft.to/lastmile_qr_scan", "ios": "https://dc.lft.to/lastmile_qr_scan"}, "name": "6ec41f011ac001a27d75f3238e7d7afe", "is_reserved": 0}, {"is_disabled": 0, "fusion_lon": 0.0, "fusion_lat": 0.0, "lat": 38.887355166666666, "type": "electric_scooter", "lon": -77.02828866666667, "bike_id": "02a84b6eae18b14918203ad102d86a89", "rental_uris": {"android": "https://dc.lft.to/lastmile_qr_scan", "ios": "https://dc.lft.to/lastmile_qr_scan"}, "name": "02a84b6eae18b14918203ad102d86a89", "is_reserved": 0}, {"is_disabled": 0, "fusion_lon": 0.0, "fusion_lat": 0.0, "lat": 38.92624883333333, "type": "electric_scooter", "lon": -77.05705616666667, "bike_id": "c27abac2296b6876e92db0b33d4cd77b", "rental_uris": {"android": "https://dc.lft.to/lastmile_qr_scan", "ios": "https://dc.lft.to/lastmile_qr_scan"}, "name": "c27abac2296b6876e92db0b33d4cd77b", "is_reserved": 0}, {"is_disabled": 0, "fusion_lon": 0.0, "fusion_lat": 0.0, "lat": 38.93603683333333, "type": "electric_scooter", "lon": -77.0586055, "bike_id": "3cdd3c6d72e3a20fb1baf27f27258472", "rental_uris": {"android": "https://dc.lft.to/lastmile_qr_scan", "ios": "https://dc.lft.to/lastmile_qr_scan"}, "name": "3cdd3c6d72e3a20fb1baf27f27258472", "is_reserved": 0}, {"is_disabled": 0, "fusion_lon": 0.0, "fusion_lat": 0.0, "lat": 38.923104, "type": "electric_bike", "lon": -77.0380965, "bike_id": "8bd14ed2f77bc62c72332660e9afff12", "rental_uris": {"android": "https://dc.lft.to/lastmile_qr_scan", "ios": "https://dc.lft.to/lastmile_qr_scan"}, "name": "8bd14ed2f77bc62c72332660e9afff12", "is_reserved": 0}, {"is_disabled": 0, "fusion_lon": 0.0, "fusion_lat": 0.0, "lat": 38.905321666666666, "type": "electric_scooter", "lon": -76.98787283333333, "bike_id": "31c2678de30aad6cdf72aaf61471d8ee", "rental_uris": {"android": "https://dc.lft.to/lastmile_qr_scan", "ios": "https://dc.lft.to/lastmile_qr_scan"}, "name": "31c2678de30aad6cdf72aaf61471d8ee", "is_reserved": 0}, {"is_disabled": 0, "fusion_lon": 0.0, "fusion_lat": 0.0, "lat": 38.925945, "type": "electric_bike", "lon": -76.88905916666667, "bike_id": "da1106b1110b6070142c6c82a3f98792", "rental_uris": {"android": "https://dc.lft.to/lastmile_qr_scan", "ios": "https://dc.lft.to/lastmile_qr_scan"}, "name": "da1106b1110b6070142c6c82a3f98792", "is_reserved": 0}, {"is_disabled": 0, "fusion_lon": 0.0, "fusion_lat": 0.0, "lat": 38.914139166666665, "type": "electric_scooter", "lon": -77.03229716666667, "bike_id": "37ff4b7c0bd08954e5c6e37de9fb9690", "rental_uris": {"android": "https://dc.lft.to/lastmile_qr_scan", "ios": "https://dc.lft.to/lastmile_qr_scan"}, "name": "37ff4b7c0bd08954e5c6e37de9fb9690", "is_reserved": 0}, {"is_disabled": 0, "fusion_lon": 0.0, "fusion_lat": 0.0, "lat": 38.892378666666666, "type": "electric_bike", "lon": -76.95220316666666, "bike_id": "3853ccd12a1c62607400a3fe6290c8a9", "rental_uris": {"android": "https://dc.lft.to/lastmile_qr_scan", "ios": "https://dc.lft.to/lastmile_qr_scan"}, "name": "3853ccd12a1c62607400a3fe6290c8a9", "is_reserved": 0}, {"is_disabled": 0, "fusion_lon": 0.0, "fusion_lat": 0.0, "lat": 38.9170865, "type": "electric_scooter", "lon": -77.010728, "bike_id": "885fb9e360a49f5d1859f061c45dcd8f", "rental_uris": {"android": "https://dc.lft.to/lastmile_qr_scan", "ios": "https://dc.lft.to/lastmile_qr_scan"}, "name": "885fb9e360a49f5d1859f061c45dcd8f", "is_reserved": 0}, {"is_disabled": 0, "fusion_lon": 0.0, "fusion_lat": 0.0, "lat": 38.905564, "type": "electric_scooter", "lon": -77.046471, "bike_id": "a7489af586d9ccf147cd2b4d7a2a6061", "rental_uris": {"android": "https://dc.lft.to/lastmile_qr_scan", "ios": "https://dc.lft.to/lastmile_qr_scan"}, "name": "a7489af586d9ccf147cd2b4d7a2a6061", "is_reserved": 0}, {"is_disabled": 0, "fusion_lon": 0.0, "fusion_lat": 0.0, "lat": 38.896011333333334, "type": "electric_scooter", "lon": -77.00920933333333, "bike_id": "d53a9c010027a56dc7ddda044c9005a5", "rental_uris": {"android": "https://dc.lft.to/lastmile_qr_scan", "ios": "https://dc.lft.to/lastmile_qr_scan"}, "name": "d53a9c010027a56dc7ddda044c9005a5", "is_reserved": 0}, {"is_disabled": 0, "fusion_lon": 0.0, "fusion_lat": 0.0, "lat": 38.976768, "type": "electric_bike", "lon": -76.9716895, "bike_id": "40b0bad5abef3f98616106fc589ccf67", "rental_uris": {"android": "https://dc.lft.to/lastmile_qr_scan", "ios": "https://dc.lft.to/lastmile_qr_scan"}, "name": "40b0bad5abef3f98616106fc589ccf67", "is_reserved": 0}, {"is_disabled": 0, "fusion_lon": 0.0, "fusion_lat": 0.0, "lat": 38.95418083333333, "type": "electric_scooter", "lon": -77.028445, "bike_id": "380bae9512c56b540130628a9fbaa150", "rental_uris": {"android": "https://dc.lft.to/lastmile_qr_scan", "ios": "https://dc.lft.to/lastmile_qr_scan"}, "name": "380bae9512c56b540130628a9fbaa150", "is_reserved": 0}, {"is_disabled": 0, "fusion_lon": 0.0, "fusion_lat": 0.0, "lat": 38.921138666666664, "type": "electric_scooter", "lon": -76.99424883333333, "bike_id": "8585e1f96b0728a458ae59e0e17cb4df", "rental_uris": {"android": "https://dc.lft.to/lastmile_qr_scan", "ios": "https://dc.lft.to/lastmile_qr_scan"}, "name": "8585e1f96b0728a458ae59e0e17cb4df", "is_reserved": 0}, {"is_disabled": 0, "fusion_lon": 0.0, "fusion_lat": 0.0, "lat": 38.9133815, "type": "electric_scooter", "lon": -77.03040416666667, "bike_id": "81e9b5692f631b72676dddcd6dc719a9", "rental_uris": {"android": "https://dc.lft.to/lastmile_qr_scan", "ios": "https://dc.lft.to/lastmile_qr_scan"}, "name": "81e9b5692f631b72676dddcd6dc719a9", "is_reserved": 0}, {"is_disabled": 0, "fusion_lon": 0.0, "fusion_lat": 0.0, "lat": 38.9375905, "type": "electric_bike", "lon": -77.032373, "bike_id": "531e68c9516bebe0764c6842a9d830f0", "rental_uris": {"android": "https://dc.lft.to/lastmile_qr_scan", "ios": "https://dc.lft.to/lastmile_qr_scan"}, "name": "531e68c9516bebe0764c6842a9d830f0", "is_reserved": 0}, {"is_disabled": 0, "fusion_lon": 0.0, "fusion_lat": 0.0, "lat": 38.92873016666667, "type": "electric_scooter", "lon": -77.032684, "bike_id": "66a7408496cc15192ab23392008bcd99", "rental_uris": {"android": "https://dc.lft.to/lastmile_qr_scan", "ios": "https://dc.lft.to/lastmile_qr_scan"}, "name": "66a7408496cc15192ab23392008bcd99", "is_reserved": 0}, {"is_disabled": 0, "fusion_lon": 0.0, "fusion_lat": 0.0, "lat": 38.9244645, "type": "electric_bike", "lon": -76.9683385, "bike_id": "7c83a13dc26a3e9230a7bad85439b82d", "rental_uris": {"android": "https://dc.lft.to/lastmile_qr_scan", "ios": "https://dc.lft.to/lastmile_qr_scan"}, "name": "7c83a13dc26a3e9230a7bad85439b82d", "is_reserved": 0}, {"is_disabled": 0, "fusion_lon": 0.0, "fusion_lat": 0.0, "lat": 38.902773, "type": "electric_scooter", "lon": -77.04256366666667, "bike_id": "1c0ac6962e4a906525bd607d440bc40c", "rental_uris": {"android": "https://dc.lft.to/lastmile_qr_scan", "ios": "https://dc.lft.to/lastmile_qr_scan"}, "name": "1c0ac6962e4a906525bd607d440bc40c", "is_reserved": 0}, {"is_disabled": 0, "fusion_lon": 0.0, "fusion_lat": 0.0, "lat": 39.10565966666667, "type": "electric_bike", "lon": -77.15268083333333, "bike_id": "f4a01c1dacd6749dc7f93ff393984770", "rental_uris": {"android": "https://dc.lft.to/lastmile_qr_scan", "ios": "https://dc.lft.to/lastmile_qr_scan"}, "name": "f4a01c1dacd6749dc7f93ff393984770", "is_reserved": 0}, {"is_disabled": 0, "fusion_lon": 0.0, "fusion_lat": 0.0, "lat": 38.89376716666666, "type": "electric_scooter", "lon": -76.94997633333334, "bike_id": "2a14d148974bf104768be0fd9c52abc0", "rental_uris": {"android": "https://dc.lft.to/lastmile_qr_scan", "ios": "https://dc.lft.to/lastmile_qr_scan"}, "name": "2a14d148974bf104768be0fd9c52abc0", "is_reserved": 0}, {"is_disabled": 0, "fusion_lon": 0.0, "fusion_lat": 0.0, "lat": 38.919789, "type": "electric_scooter", "lon": -77.00018166666666, "bike_id": "5c5dc9c5674c9208c0d596163517412f", "rental_uris": {"android": "https://dc.lft.to/lastmile_qr_scan", "ios": "https://dc.lft.to/lastmile_qr_scan"}, "name": "5c5dc9c5674c9208c0d596163517412f", "is_reserved": 0}, {"is_disabled": 0, "fusion_lon": 0.0, "fusion_lat": 0.0, "lat": 38.9296025, "type": "electric_scooter", "lon": -77.0326965, "bike_id": "85d7a01ef22bab0e6a9f07fc1da5396e", "rental_uris": {"android": "https://dc.lft.to/lastmile_qr_scan", "ios": "https://dc.lft.to/lastmile_qr_scan"}, "name": "85d7a01ef22bab0e6a9f07fc1da5396e", "is_reserved": 0}, {"is_disabled": 0, "fusion_lon": 0.0, "fusion_lat": 0.0, "lat": 38.887430333333334, "type": "electric_bike", "lon": -76.90089016666667, "bike_id": "0ea8ef10dbe30e06aa5c2085fc24827d", "rental_uris": {"android": "https://dc.lft.to/lastmile_qr_scan", "ios": "https://dc.lft.to/lastmile_qr_scan"}, "name": "0ea8ef10dbe30e06aa5c2085fc24827d", "is_reserved": 0}, {"is_disabled": 0, "fusion_lon": 0.0, "fusion_lat": 0.0, "lat": 38.93501333333333, "type": "electric_bike", "lon": -77.07266433333334, "bike_id": "4cf04658410f5f978378ab2ee153bba2", "rental_uris": {"android": "https://dc.lft.to/lastmile_qr_scan", "ios": "https://dc.lft.to/lastmile_qr_scan"}, "name": "4cf04658410f5f978378ab2ee153bba2", "is_reserved": 0}, {"is_disabled": 0, "fusion_lon": 0.0, "fusion_lat": 0.0, "lat": 38.94984633333333, "type": "electric_scooter", "lon": -77.02704783333333, "bike_id": "2e102eed1240f2201b061a4dcf20439c", "rental_uris": {"android": "https://dc.lft.to/lastmile_qr_scan", "ios": "https://dc.lft.to/lastmile_qr_scan"}, "name": "2e102eed1240f2201b061a4dcf20439c", "is_reserved": 0}, {"is_disabled": 0, "fusion_lon": 0.0, "fusion_lat": 0.0, "lat": 38.8979275, "type": "electric_scooter", "lon": -76.930545, "bike_id": "95c11fae028ad64355d72c364bb44902", "rental_uris": {"android": "https://dc.lft.to/lastmile_qr_scan", "ios": "https://dc.lft.to/lastmile_qr_scan"}, "name": "95c11fae028ad64355d72c364bb44902", "is_reserved": 0}, {"is_disabled": 0, "fusion_lon": 0.0, "fusion_lat": 0.0, "lat": 38.83154616666667, "type": "electric_bike", "lon": -76.99690833333334, "bike_id": "43ea1324dc018db0acd79919b30911fe", "rental_uris": {"android": "https://dc.lft.to/lastmile_qr_scan", "ios": "https://dc.lft.to/lastmile_qr_scan"}, "name": "43ea1324dc018db0acd79919b30911fe", "is_reserved": 0}, {"is_disabled": 0, "fusion_lon": 0.0, "fusion_lat": 0.0, "lat": 38.924004833333335, "type": "electric_scooter", "lon": -77.03550533333333, "bike_id": "b0550bd3a74dae8d1a68db491e93c84e", "rental_uris": {"android": "https://dc.lft.to/lastmile_qr_scan", "ios": "https://dc.lft.to/lastmile_qr_scan"}, "name": "b0550bd3a74dae8d1a68db491e93c84e", "is_reserved": 0}, {"is_disabled": 0, "fusion_lon": 0.0, "fusion_lat": 0.0, "lat": 38.892465666666666, "type": "electric_scooter", "lon": -77.04660083333333, "bike_id": "fdb3edac141db2ca104ea0a539fefcb3", "rental_uris": {"android": "https://dc.lft.to/lastmile_qr_scan", "ios": "https://dc.lft.to/lastmile_qr_scan"}, "name": "fdb3edac141db2ca104ea0a539fefcb3", "is_reserved": 0}, {"is_disabled": 0, "fusion_lon": 0.0, "fusion_lat": 0.0, "lat": 38.9248255, "type": "electric_scooter", "lon": -77.02731816666666, "bike_id": "fb66181332653f3379bdf22706938cf9", "rental_uris": {"android": "https://dc.lft.to/lastmile_qr_scan", "ios": "https://dc.lft.to/lastmile_qr_scan"}, "name": "fb66181332653f3379bdf22706938cf9", "is_reserved": 0}, {"is_disabled": 0, "fusion_lon": 0.0, "fusion_lat": 0.0, "lat": 38.988178166666664, "type": "electric_bike", "lon": -77.02655316666667, "bike_id": "3b33691eafcf851e403a336e1346ea99", "rental_uris": {"android": "https://dc.lft.to/lastmile_qr_scan", "ios": "https://dc.lft.to/lastmile_qr_scan"}, "name": "3b33691eafcf851e403a336e1346ea99", "is_reserved": 0}, {"is_disabled": 0, "fusion_lon": 0.0, "fusion_lat": 0.0, "lat": 38.90653233333333, "type": "electric_scooter", "lon": -77.04184383333333, "bike_id": "0358edb5beabcdd3d1fef041616a2f2b", "rental_uris": {"android": "https://dc.lft.to/lastmile_qr_scan", "ios": "https://dc.lft.to/lastmile_qr_scan"}, "name": "0358edb5beabcdd3d1fef041616a2f2b", "is_reserved": 0}, {"is_disabled": 0, "fusion_lon": 0.0, "fusion_lat": 0.0, "lat": 38.953129, "type": "electric_scooter", "lon": -77.03600066666667, "bike_id": "04dae30d94f51b2dd158a30643d87126", "rental_uris": {"android": "https://dc.lft.to/lastmile_qr_scan", "ios": "https://dc.lft.to/lastmile_qr_scan"}, "name": "04dae30d94f51b2dd158a30643d87126", "is_reserved": 0}, {"is_disabled": 0, "fusion_lon": 0.0, "fusion_lat": 0.0, "lat": 38.909835, "type": "electric_scooter", "lon": -77.0344065, "bike_id": "80a0788af417992f556c2d802a08e55b", "rental_uris": {"android": "https://dc.lft.to/lastmile_qr_scan", "ios": "https://dc.lft.to/lastmile_qr_scan"}, "name": "80a0788af417992f556c2d802a08e55b", "is_reserved": 0}, {"is_disabled": 0, "fusion_lon": 0.0, "fusion_lat": 0.0, "lat": 38.8957765, "type": "electric_bike", "lon": -76.9761995, "bike_id": "a7190a80155714afc81458deac6d03e0", "rental_uris": {"android": "https://dc.lft.to/lastmile_qr_scan", "ios": "https://dc.lft.to/lastmile_qr_scan"}, "name": "a7190a80155714afc81458deac6d03e0", "is_reserved": 0}, {"is_disabled": 0, "fusion_lon": 0.0, "fusion_lat": 0.0, "lat": 38.905859, "type": "electric_scooter", "lon": -77.02959616666666, "bike_id": "2a6c5e517e1e38a9c9e70889d9a52cae", "rental_uris": {"android": "https://dc.lft.to/lastmile_qr_scan", "ios": "https://dc.lft.to/lastmile_qr_scan"}, "name": "2a6c5e517e1e38a9c9e70889d9a52cae", "is_reserved": 0}, {"is_disabled": 0, "fusion_lon": 0.0, "fusion_lat": 0.0, "lat": 38.9081065, "type": "electric_scooter", "lon": -77.03453333333333, "bike_id": "6f4f8375bdb9e5608474f62939e58e81", "rental_uris": {"android": "https://dc.lft.to/lastmile_qr_scan", "ios": "https://dc.lft.to/lastmile_qr_scan"}, "name": "6f4f8375bdb9e5608474f62939e58e81", "is_reserved": 0}, {"is_disabled": 0, "fusion_lon": 0.0, "fusion_lat": 0.0, "lat": 38.920875833333334, "type": "electric_scooter", "lon": -77.02597316666666, "bike_id": "e0f1418491ed6b56fe6a295a9c6b315e", "rental_uris": {"android": "https://dc.lft.to/lastmile_qr_scan", "ios": "https://dc.lft.to/lastmile_qr_scan"}, "name": "e0f1418491ed6b56fe6a295a9c6b315e", "is_reserved": 0}, {"is_disabled": 0, "fusion_lon": 0.0, "fusion_lat": 0.0, "lat": 38.911095, "type": "electric_scooter", "lon": -77.004008, "bike_id": "7dba813547c64f5c23763fdd0580a8e5", "rental_uris": {"android": "https://dc.lft.to/lastmile_qr_scan", "ios": "https://dc.lft.to/lastmile_qr_scan"}, "name": "7dba813547c64f5c23763fdd0580a8e5", "is_reserved": 0}, {"is_disabled": 0, "fusion_lon": 0.0, "fusion_lat": 0.0, "lat": 38.884496, "type": "electric_scooter", "lon": -76.95095266666667, "bike_id": "342c734fbcdf134bdda78b705a113d3b", "rental_uris": {"android": "https://dc.lft.to/lastmile_qr_scan", "ios": "https://dc.lft.to/lastmile_qr_scan"}, "name": "342c734fbcdf134bdda78b705a113d3b", "is_reserved": 0}, {"is_disabled": 0, "fusion_lon": 0.0, "fusion_lat": 0.0, "lat": 38.900688333333335, "type": "electric_scooter", "lon": -77.04771216666667, "bike_id": "5d1543947dd3fd9e9908c1bf8982811a", "rental_uris": {"android": "https://dc.lft.to/lastmile_qr_scan", "ios": "https://dc.lft.to/lastmile_qr_scan"}, "name": "5d1543947dd3fd9e9908c1bf8982811a", "is_reserved": 0}, {"is_disabled": 0, "fusion_lon": 0.0, "fusion_lat": 0.0, "lat": 38.923565833333335, "type": "electric_scooter", "lon": -77.0390395, "bike_id": "57296ca2eae03f4b74b37cbe314c88f0", "rental_uris": {"android": "https://dc.lft.to/lastmile_qr_scan", "ios": "https://dc.lft.to/lastmile_qr_scan"}, "name": "57296ca2eae03f4b74b37cbe314c88f0", "is_reserved": 0}, {"is_disabled": 0, "fusion_lon": 0.0, "fusion_lat": 0.0, "lat": 38.919787, "type": "electric_scooter", "lon": -77.0416735, "bike_id": "f76df61ea9eff393bb620cb1b3b8316d", "rental_uris": {"android": "https://dc.lft.to/lastmile_qr_scan", "ios": "https://dc.lft.to/lastmile_qr_scan"}, "name": "f76df61ea9eff393bb620cb1b3b8316d", "is_reserved": 0}, {"is_disabled": 0, "fusion_lon": 0.0, "fusion_lat": 0.0, "lat": 38.934124, "type": "electric_scooter", "lon": -77.04268716666667, "bike_id": "991591349ba46a845ebab98486bb3dcf", "rental_uris": {"android": "https://dc.lft.to/lastmile_qr_scan", "ios": "https://dc.lft.to/lastmile_qr_scan"}, "name": "991591349ba46a845ebab98486bb3dcf", "is_reserved": 0}, {"is_disabled": 0, "fusion_lon": 0.0, "fusion_lat": 0.0, "lat": 38.892131166666665, "type": "electric_scooter", "lon": -76.99573016666666, "bike_id": "645f6d9bbf6fa09d7273b99681eaa7a7", "rental_uris": {"android": "https://dc.lft.to/lastmile_qr_scan", "ios": "https://dc.lft.to/lastmile_qr_scan"}, "name": "645f6d9bbf6fa09d7273b99681eaa7a7", "is_reserved": 0},