{"data": {"bikes": [{"rental_uris": {"ios": "https://dc.lft.to/lastmile_qr_scan", "android": "https://dc.lft.to/lastmile_qr_scan"}, "lat": 38.90762183333333, "lon": -77.016953, "fusion_lat": 0.0, "name": "508336e32c74adafaddef8bc6f4d2ab0", "is_disabled": 0, "is_reserved": 0, "bike_id": "508336e32c74adafaddef8bc6f4d2ab0", "fusion_lon": 0.0, "type": "electric_scooter"}, {"rental_uris": {"ios": "https://dc.lft.to/lastmile_qr_scan", "android": "https://dc.lft.to/lastmile_qr_scan"}, "lat": 38.901115833333336, "lon": -77.04246933333333, "fusion_lat": 0.0, "name": "48a3c4328caf0e36780c808cd4338533", "is_disabled": 0, "is_reserved": 0, "bike_id": "48a3c4328caf0e36780c808cd4338533", "fusion_lon": 0.0, "type": "electric_scooter"}, {"rental_uris": {"ios": "https://dc.lft.to/lastmile_qr_scan", "android": "https://dc.lft.to/lastmile_qr_scan"}, "lat": 38.8924455, "lon": -77.05028933333334, "fusion_lat": 0.0, "name": "4bd54df7ea805d9ac87df4e81e5f6c07", "is_disabled": 0, "is_reserved": 0, "bike_id": "4bd54df7ea805d9ac87df4e81e5f6c07", "fusion_lon": 0.0, "type": "electric_scooter"}, {"rental_uris": {"ios": "https://dc.lft.to/lastmile_qr_scan", "android": "https://dc.lft.to/lastmile_qr_scan"}, "lat": 38.892157, "lon": -77.04368516666666, "fusion_lat": 0.0, "name": "cc9f13a521abc4fcf705b9fb13ef0d09", "is_disabled": 0, "is_reserved": 0, "bike_id": "cc9f13a521abc4fcf705b9fb13ef0d09", "fusion_lon": 0.0, "type": "electric_scooter"}, {"rental_uris": {"ios": "https://dc.lft.to/lastmile_qr_scan", "android": "https://dc.lft.to/lastmile_qr_scan"}, "lat": 38.95281083333333, "lon": -77.017947, "fusion_lat": 0.0, "name": "ecda2f57abbbf3c1f4e498b5538716cd", "is_disabled": 0, "is_reserved": 0, "bike_id": "ecda2f57abbbf3c1f4e498b5538716cd", "fusion_lon": 0.0, "type": "electric_scooter"}, {"rental_uris": {"ios": "https://dc.lft.to/lastmile_qr_scan", "android": "https://dc.lft.to/lastmile_qr_scan"}, "lat": 38.89864083333333, "lon": -76.94634666666667, "fusion_lat": 0.0, "name": "c577b78567197a014403cdc22cc1ecd6", "is_disabled": 0, "is_reserved": 0, "bike_id": "c577b78567197a014403cdc22cc1ecd6", "fusion_lon": 0.0, "type": "electric_scooter"}, {"rental_uris": {"ios": "https://dc.lft.to/lastmile_qr_scan", "android": "https://dc.lft.to/lastmile_qr_scan"}, "lat": 38.9191075, "lon": -77.033378, "fusion_lat": 0.0, "name": "7adb8c7c669fde15a8a556ddae0fafd3", "is_disabled": 0, "is_reserved": 0, "bike_id": "7adb8c7c669fde15a8a556ddae0fafd3", "fusion_lon": 0.0, "type": "electric_scooter"}, {"rental_uris": {"ios": "https://dc.lft.to/lastmile_qr_scan", "android": "https://dc.lft.to/lastmile_qr_scan"}, "lat": 38.894767333333334, "lon": -76.94859716666667, "fusion_lat": 0.0, "name": "26c054766f31d1f30510b85dc87dc7a2", "is_disabled": 0, "is_reserved": 0, "bike_id": "26c054766f31d1f30510b85dc87dc7a2", "fusion_lon": 0.0, "type": "electric_scooter"}, {"rental_uris": {"ios": "https://dc.lft.to/lastmile_qr_scan", "android": "https://dc.lft.to/lastmile_qr_scan"}, "lat": 38.87480383333333, "lon": -76.965282, "fusion_lat": 0.0, "name": "cda1b46c9145ba9d3f1f0d26f3d0acf4", "is_disabled": 0, "is_reserved": 0, "bike_id": "cda1b46c9145ba9d3f1f0d26f3d0acf4", "fusion_lon": 0.0, "type": "electric_bike"}, {"rental_uris": {"ios": "https://dc.lft.to/lastmile_qr_scan", "android": "https://dc.lft.to/lastmile_qr_scan"}, "lat": 38.90619916666667, "lon": -77.04893066666666, "fusion_lat": 0.0, "name": "c5977f44331d291cc6ab8269d00095fc", "is_disabled": 0, "is_reserved": 0, "bike_id": "c5977f44331d291cc6ab8269d00095fc", "fusion_lon": 0.0, "type": "electric_scooter"}, {"rental_uris": {"ios": "https://dc.lft.to/lastmile_qr_scan", "android": "https://dc.lft.to/lastmile_qr_scan"}, "lat": 38.91610216666667, "lon": -77.0230145, "fusion_lat": 0.0, "name": "777a8d5aea0fde61aafa9bf9374546ff", "is_disabled": 0, "is_reserved": 0, "bike_id": "777a8d5aea0fde61aafa9bf9374546ff", "fusion_lon": 0.0, "type": "electric_scooter"}, {"rental_uris": {"ios": "https://dc.lft.to/lastmile_qr_scan", "android": "https://dc.lft.to/lastmile_qr_scan"}, "lat": 38.89949133333333, "lon": -77.07179783333333, "fusion_lat": 0.0, "name": "50034c8938cacb1b6823049f093bfbfa", "is_disabled": 0, "is_reserved": 0, "bike_id": "50034c8938cacb1b6823049f093bfbfa", "fusion_lon": 0.0, "type": "electric_scooter"}, {"rental_uris": {"ios": "https://dc.lft.to/lastmile_qr_scan", "android": "https://dc.lft.to/lastmile_qr_scan"}, "lat": 38.904281, "lon": -76.97907133333334, "fusion_lat": 0.0, "name": "8a35a21ba4bdfa3047a2d5ca3a93592d", "is_disabled": 0, "is_reserved": 0, "bike_id": "8a35a21ba4bdfa3047a2d5ca3a93592d", "fusion_lon": 0.0, "type": "electric_scooter"}, {"rental_uris": {"ios": "https://dc.lft.to/lastmile_qr_scan", "android": "https://dc.lft.to/lastmile_qr_scan"}, "lat": 38.92876416666667, "lon": -77.03346783333333, "fusion_lat": 0.0, "name": "61a10cbd9e2bb48c161ce162e5422d6b", "is_disabled": 0, "is_reserved": 0, "bike_id": "61a10cbd9e2bb48c161ce162e5422d6b", "fusion_lon": 0.0, "type": "electric_scooter"}, {"rental_uris": {"ios": "https://dc.lft.to/lastmile_qr_scan", "android": "https://dc.lft.to/lastmile_qr_scan"}, "lat": 38.919603333333335, "lon": -77.01772166666667, "fusion_lat": 0.0, "name": "a0ce833b2c98e2a22b9a1e108e27ce22", "is_disabled": 0, "is_reserved": 0, "bike_id": "a0ce833b2c98e2a22b9a1e108e27ce22", "fusion_lon": 0.0, "type": "electric_scooter"}, {"rental_uris": {"ios": "https://dc.lft.to/lastmile_qr_scan", "android": "https://dc.lft.to/lastmile_qr_scan"}, "lat": 38.932165, "lon": -77.03263316666667, "fusion_lat": 0.0, "name": "a10423294cd6456ec63fa23c74d9e2d6", "is_disabled": 0, "is_reserved": 0, "bike_id": "a10423294cd6456ec63fa23c74d9e2d6", "fusion_lon": 0.0, "type": "electric_scooter"}, {"rental_uris": {"ios": "https://dc.lft.to/lastmile_qr_scan", "android": "https://dc.lft.to/lastmile_qr_scan"}, "lat": 38.888359666666666, "lon": -77.04906283333334, "fusion_lat": 0.0, "name": "c1fe385915d48856b3811d65ce5a9215", "is_disabled": 0, "is_reserved": 0, "bike_id": "c1fe385915d48856b3811d65ce5a9215", "fusion_lon": 0.0, "type": "electric_scooter"}, {"rental_uris": {"ios": "https://dc.lft.to/lastmile_qr_scan", "android": "https://dc.lft.to/lastmile_qr_scan"}, "lat": 38.8921995, "lon": -77.04010233333334, "fusion_lat": 0.0, "name": "cdfd393c5165cb53031ee8cb7928ded1", "is_disabled": 0, "is_reserved": 0, "bike_id": "cdfd393c5165cb53031ee8cb7928ded1", "fusion_lon": 0.0, "type": "electric_scooter"}, {"rental_uris": {"ios": "https://dc.lft.to/lastmile_qr_scan", "android": "https://dc.lft.to/lastmile_qr_scan"}, "lat": 38.91907833333333, "lon": -77.034441, "fusion_lat": 0.0, "name": "d21a4a48d1a25a37ecc29b69d7dc700e", "is_disabled": 0, "is_reserved": 0, "bike_id": "d21a4a48d1a25a37ecc29b69d7dc700e", "fusion_lon": 0.0, "type": "electric_scooter"}, {"rental_uris": {"ios": "https://dc.lft.to/lastmile_qr_scan", "android": "https://dc.lft.to/lastmile_qr_scan"}, "lat": 38.9141305, "lon": -77.03997766666667, "fusion_lat": 0.0, "name": "2777baa9e172f9a98899586d82456ef5", "is_disabled": 0, "is_reserved": 0, "bike_id": "2777baa9e172f9a98899586d82456ef5", "fusion_lon": 0.0, "type": "electric_scooter"}, {"rental_uris": {"ios": "https://dc.lft.to/lastmile_qr_scan", "android": "https://dc.lft.to/lastmile_qr_scan"}, "lat": 38.90023883333333, "lon": -76.9985125, "fusion_lat": 0.0, "name": "05a65b50b698fa81377c34cad59c8705", "is_disabled": 0, "is_reserved": 0, "bike_id": "05a65b50b698fa81377c34cad59c8705", "fusion_lon": 0.0, "type": "electric_scooter"}, {"rental_uris": {"ios": "https://dc.lft.to/lastmile_qr_scan", "android": "https://dc.lft.to/lastmile_qr_scan"}, "lat": 38.845252, "lon": -76.973964, "fusion_lat": 0.0, "name": "ba13901de4c73d2cd8a3950e093d8ca4", "is_disabled": 0, "is_reserved": 0, "bike_id": "ba13901de4c73d2cd8a3950e093d8ca4", "fusion_lon": 0.0, "type": "electric_bike"}, {"rental_uris": {"ios": "https://dc.lft.to/lastmile_qr_scan", "android": "https://dc.lft.to/lastmile_qr_scan"}, "lat": 38.912935166666664, "lon": -77.02387883333333, "fusion_lat": 0.0, "name": "c10e98f798f029d4a724b4c8e14cff5e", "is_disabled": 0, "is_reserved": 0, "bike_id": "c10e98f798f029d4a724b4c8e14cff5e", "fusion_lon": 0.0, "type": "electric_scooter"}, {"rental_uris": {"ios": "https://dc.lft.to/lastmile_qr_scan", "android": "https://dc.lft.to/lastmile_qr_scan"}, "lat": 38.8941505, "lon": -77.03167366666666, "fusion_lat": 0.0, "name": "e790dbcd79ab6e748022cf2687519004", "is_disabled": 0, "is_reserved": 0, "bike_id": "e790dbcd79ab6e748022cf2687519004", "fusion_lon": 0.0, "type": "electric_scooter"}, {"rental_uris": {"ios": "https://dc.lft.to/lastmile_qr_scan", "android": "https://dc.lft.to/lastmile_qr_scan"}, "lat": 38.947747666666665, "lon": -77.021402, "fusion_lat": 0.0, "name": "492ad1cb40c0efd8b537af7917fe5625", "is_disabled": 0, "is_reserved": 0, "bike_id": "492ad1cb40c0efd8b537af7917fe5625", "fusion_lon": 0.0, "type": "electric_scooter"}, {"rental_uris": {"ios": "https://dc.lft.to/lastmile_qr_scan", "android": "https://dc.lft.to/lastmile_qr_scan"}, "lat": 38.92044516666667, "lon": -77.01685983333333, "fusion_lat": 0.0, "name": "67677ab1491a3c7b9807b09e55956137", "is_disabled": 0, "is_reserved": 0, "bike_id": "67677ab1491a3c7b9807b09e55956137", "fusion_lon": 0.0, "type": "electric_scooter"}, {"rental_uris": {"ios": "https://dc.lft.to/lastmile_qr_scan", "android": "https://dc.lft.to/lastmile_qr_scan"}, "lat": 38.897484666666664, "lon": -77.0304465, "fusion_lat": 0.0, "name": "67b515b66d7bd59441bd8bd2a5ec1118", "is_disabled": 0, "is_reserved": 0, "bike_id": "67b515b66d7bd59441bd8bd2a5ec1118", "fusion_lon": 0.0, "type": "electric_scooter"}, {"rental_uris": {"ios": "https://dc.lft.to/lastmile_qr_scan", "android": "https://dc.lft.to/lastmile_qr_scan"}, "lat": 38.89863416666667, "lon": -77.03959866666666, "fusion_lat": 0.0, "name": "3bd352d83573a67be3fa03beb4913654", "is_disabled": 0, "is_reserved": 0, "bike_id": "3bd352d83573a67be3fa03beb4913654", "fusion_lon": 0.0, "type": "electric_scooter"}, {"rental_uris": {"ios": "https://dc.lft.to/lastmile_qr_scan", "android": "https://dc.lft.to/lastmile_qr_scan"}, "lat": 38.8459695, "lon": -77.10858183333333, "fusion_lat": 0.0, "name": "e2c5bcdbfce276fa33943468b7f864e9", "is_disabled": 0, "is_reserved": 0, "bike_id": "e2c5bcdbfce276fa33943468b7f864e9", "fusion_lon": 0.0, "type": "electric_bike"}, {"rental_uris": {"ios": "https://dc.lft.to/lastmile_qr_scan", "android": "https://dc.lft.to/lastmile_qr_scan"}, "lat": 38.91417333333333, "lon": -77.0211915, "fusion_lat": 0.0, "name": "0f1d28b0d3b5116deeaf12b77a45e245", "is_disabled": 0, "is_reserved": 0, "bike_id": "0f1d28b0d3b5116deeaf12b77a45e245", "fusion_lon": 0.0, "type": "electric_scooter"}, {"rental_uris": {"ios": "https://dc.lft.to/lastmile_qr_scan", "android": "https://dc.lft.to/lastmile_qr_scan"}, "lat": 38.901447833333336, "lon": -77.02933316666666, "fusion_lat": 0.0, "name": "2e21bc1e65c00c71954ed020300fced1", "is_disabled": 0, "is_reserved": 0, "bike_id": "2e21bc1e65c00c71954ed020300fced1", "fusion_lon": 0.0, "type": "electric_scooter"}, {"rental_uris": {"ios": "https://dc.lft.to/lastmile_qr_scan", "android": "https://dc.lft.to/lastmile_qr_scan"}, "lat": 38.905522, "lon": -77.06523266666666, "fusion_lat": 0.0, "name": "6608f0517eb5f91bfd3491a05342f2a0", "is_disabled": 0, "is_reserved": 0, "bike_id": "6608f0517eb5f91bfd3491a05342f2a0", "fusion_lon": 0.0, "type": "electric_scooter"}, {"rental_uris": {"ios": "https://dc.lft.to/lastmile_qr_scan", "android": "https://dc.lft.to/lastmile_qr_scan"}, "lat": 38.916691166666666, "lon": -77.02973833333333, "fusion_lat": 0.0, "name": "c5a4beb240ce90d2c0ae6b49de5f141d", "is_disabled": 0, "is_reserved": 0, "bike_id": "c5a4beb240ce90d2c0ae6b49de5f141d", "fusion_lon": 0.0, "type": "electric_scooter"}, {"rental_uris": {"ios": "https://dc.lft.to/lastmile_qr_scan", "android": "https://dc.lft.to/lastmile_qr_scan"}, "lat": 38.91467733333333, "lon": -76.98113433333333, "fusion_lat": 0.0, "name": "2769983da908b7f79e65a4617ed78e31", "is_disabled": 0, "is_reserved": 0, "bike_id": "2769983da908b7f79e65a4617ed78e31", "fusion_lon": 0.0, "type": "electric_scooter"}, {"rental_uris": {"ios": "https://dc.lft.to/lastmile_qr_scan", "android": "https://dc.lft.to/lastmile_qr_scan"}, "lat": 38.935319, "lon": -77.02351583333333, "fusion_lat": 0.0, "name": "35f882ff839ccf625498a71311e786e7", "is_disabled": 0, "is_reserved": 0, "bike_id": "35f882ff839ccf625498a71311e786e7", "fusion_lon": 0.0, "type": "electric_scooter"}, {"rental_uris": {"ios": "https://dc.lft.to/lastmile_qr_scan", "android": "https://dc.lft.to/lastmile_qr_scan"}, "lat": 38.912660833333334, "lon": -77.0221115, "fusion_lat": 0.0, "name": "e839b9fddbaea472450e393018e88966", "is_disabled": 0, "is_reserved": 0, "bike_id": "e839b9fddbaea472450e393018e88966", "fusion_lon": 0.0, "type": "electric_scooter"}, {"rental_uris": {"ios": "https://dc.lft.to/lastmile_qr_scan", "android": "https://dc.lft.to/lastmile_qr_scan"}, "lat": 38.9001175, "lon": -76.9869745, "fusion_lat": 0.0, "name": "42413812430e99045aa6ee69eb86095f", "is_disabled": 0, "is_reserved": 0, "bike_id": "42413812430e99045aa6ee69eb86095f", "fusion_lon": 0.0, "type": "electric_scooter"}, {"rental_uris": {"ios": "https://dc.lft.to/lastmile_qr_scan", "android": "https://dc.lft.to/lastmile_qr_scan"}, "lat": 38.90096716666667, "lon": -77.05143766666667, "fusion_lat": 0.0, "name": "6139671fee03f46d9e7e9e376a46bf73", "is_disabled": 0, "is_reserved": 0, "bike_id": "6139671fee03f46d9e7e9e376a46bf73", "fusion_lon": 0.0, "type": "electric_scooter"}, {"rental_uris": {"ios": "https://dc.lft.to/lastmile_qr_scan", "android": "https://dc.lft.to/lastmile_qr_scan"}, "lat": 38.91834516666667, "lon": -77.03937383333333, "fusion_lat": 0.0, "name": "6f363b8a04017bac2c794a2c263ed5ad", "is_disabled": 0, "is_reserved": 0, "bike_id": "6f363b8a04017bac2c794a2c263ed5ad", "fusion_lon": 0.0, "type": "electric_scooter"}, {"rental_uris": {"ios": "https://dc.lft.to/lastmile_qr_scan", "android": "https://dc.lft.to/lastmile_qr_scan"}, "lat": 38.8935745, "lon": -76.94933516666667, "fusion_lat": 0.0, "name": "ee4652a2438832e21ddc51dbcfe34b5e", "is_disabled": 0, "is_reserved": 0, "bike_id": "ee4652a2438832e21ddc51dbcfe34b5e", "fusion_lon": 0.0, "type": "electric_scooter"}, {"rental_uris": {"ios": "https://dc.lft.to/lastmile_qr_scan", "android": "https://dc.lft.to/lastmile_qr_scan"}, "lat": 38.876857666666666, "lon": -77.017547, "fusion_lat": 0.0, "name": "b42dfca4ca1e1e254fcf4a84e668ade2", "is_disabled": 0, "is_reserved": 0, "bike_id": "b42dfca4ca1e1e254fcf4a84e668ade2", "fusion_lon": 0.0, "type": "electric_scooter"}, {"rental_uris": {"ios": "https://dc.lft.to/lastmile_qr_scan", "android": "https://dc.lft.to/lastmile_qr_scan"}, "lat": 38.8217425, "lon": -76.99503883333334, "fusion_lat": 0.0, "name": "157dc35065f09a00d859752774cc58b4", "is_disabled": 0, "is_reserved": 0, "bike_id": "157dc35065f09a00d859752774cc58b4", "fusion_lon": 0.0, "type": "electric_bike"}, {"rental_uris": {"ios": "https://dc.lft.to/lastmile_qr_scan", "android": "https://dc.lft.to/lastmile_qr_scan"}, "lat": 38.91841, "lon": -77.01640866666666, "fusion_lat": 0.0, "name": "76804dd03d6b96889904f4a040d8e3b3", "is_disabled": 0, "is_reserved": 0, "bike_id": "76804dd03d6b96889904f4a040d8e3b3", "fusion_lon": 0.0, "type": "electric_scooter"}, {"rental_uris": {"ios": "https://dc.lft.to/lastmile_qr_scan", "android": "https://dc.lft.to/lastmile_qr_scan"}, "lat": 38.9207135, "lon": -77.0231865, "fusion_lat": 0.0, "name": "dc69b5366424fd2ac27f7e2f38d91b2d", "is_disabled": 0, "is_reserved": 0, "bike_id": "dc69b5366424fd2ac27f7e2f38d91b2d", "fusion_lon": 0.0, "type": "electric_scooter"}, {"rental_uris": {"ios": "https://dc.lft.to/lastmile_qr_scan", "android": "https://dc.lft.to/lastmile_qr_scan"}, "lat": 38.846387, "lon": -76.9912965, "fusion_lat": 0.0, "name": "1675def42a4660e197bdb95192c36b5d", "is_disabled": 0, "is_reserved": 0, "bike_id": "1675def42a4660e197bdb95192c36b5d", "fusion_lon": 0.0, "type": "electric_scooter"}, {"rental_uris": {"ios": "https://dc.lft.to/lastmile_qr_scan", "android": "https://dc.lft.to/lastmile_qr_scan"}, "lat": 38.90243483333333, "lon": -77.02159416666667, "fusion_lat": 0.0, "name": "24bf01cb56eda4fc85e83cf959cef938", "is_disabled": 0, "is_reserved": 0, "bike_id": "24bf01cb56eda4fc85e83cf959cef938", "fusion_lon": 0.0, "type": "electric_scooter"}, {"rental_uris": {"ios": "https://dc.lft.to/lastmile_qr_scan", "android": "https://dc.lft.to/lastmile_qr_scan"}, "lat": 38.8717195, "lon": -77.00679566666666, "fusion_lat": 0.0, "name": "297544c121e47353f233405b97f39485", "is_disabled": 0, "is_reserved": 0, "bike_id": "297544c121e47353f233405b97f39485", "fusion_lon": 0.0, "type": "electric_scooter"}, {"rental_uris": {"ios": "https://dc.lft.to/lastmile_qr_scan", "android": "https://dc.lft.to/lastmile_qr_scan"}, "lat": 38.9063635, "lon": -77.0219155, "fusion_lat": 0.0, "name": "e8d4bf44b39cb428b548a1746e94122c", "is_disabled": 0, "is_reserved": 0, "bike_id": "e8d4bf44b39cb428b548a1746e94122c", "fusion_lon": 0.0, "type": "electric_scooter"}, {"rental_uris": {"ios": "https://dc.lft.to/lastmile_qr_scan", "android": "https://dc.lft.to/lastmile_qr_scan"}, "lat": 38.9218675, "lon": -77.03924116666667, "fusion_lat": 0.0, "name": "e11ad1afbf23b6626035213a9f1f7bba", "is_disabled": 0, "is_reserved": 0, "bike_id": "e11ad1afbf23b6626035213a9f1f7bba", "fusion_lon": 0.0, "type": "electric_scooter"}, {"rental_uris": {"ios": "https://dc.lft.to/lastmile_qr_scan", "android": "https://dc.lft.to/lastmile_qr_scan"}, "lat": 38.89219, "lon": -77.003376, "fusion_lat": 0.0, "name": "88c4b1e1093a4634d72ff0853a39a140", "is_disabled": 0, "is_reserved": 0, "bike_id": "88c4b1e1093a4634d72ff0853a39a140", "fusion_lon": 0.0, "type": "electric_scooter"}, {"rental_uris": {"ios": "https://dc.lft.to/lastmile_qr_scan", "android": "https://dc.lft.to/lastmile_qr_scan"}, "lat": 38.96664366666667, "lon": -76.97446616666667, "fusion_lat": 0.0, "name": "2841584e74da011b24481ddde2d5eba4", "is_disabled": 0, "is_reserved": 0, "bike_id": "2841584e74da011b24481ddde2d5eba4", "fusion_lon": 0.0, "type": "electric_bike"}, {"rental_uris": {"ios": "https://dc.lft.to/lastmile_qr_scan", "android": "https://dc.lft.to/lastmile_qr_scan"}, "lat": 38.963175166666666, "lon": -76.97369266666666, "fusion_lat": 0.0, "name": "bc7d78959e18e6a15b31cd7256587a76", "is_disabled": 0, "is_reserved": 0, "bike_id": "bc7d78959e18e6a15b31cd7256587a76", "fusion_lon": 0.0, "type": "electric_bike"}, {"rental_uris": {"ios": "https://dc.lft.to/lastmile_qr_scan", "android": "https://dc.lft.to/lastmile_qr_scan"}, "lat": 38.94486783333333, "lon": -77.09433816666666, "fusion_lat": 0.0, "name": "141517f526b329d83ac4878224956648", "is_disabled": 0, "is_reserved": 0, "bike_id": "141517f526b329d83ac4878224956648", "fusion_lon": 0.0, "type": "electric_scooter"}, {"rental_uris": {"ios": "https://dc.lft.to/lastmile_qr_scan", "android": "https://dc.lft.to/lastmile_qr_scan"}, "lat": 38.95523166666667, "lon": -77.02307833333333, "fusion_lat": 0.0, "name": "8f18df6426b72b523bcfab891478b2bb", "is_disabled": 0, "is_reserved": 0, "bike_id": "8f18df6426b72b523bcfab891478b2bb", "fusion_lon": 0.0, "type": "electric_scooter"}, {"rental_uris": {"ios": "https://dc.lft.to/lastmile_qr_scan", "android": "https://dc.lft.to/lastmile_qr_scan"}, "lat": 38.899285, "lon": -76.931593, "fusion_lat": 0.0, "name": "363d73c3c3498f038e0b38ce994b7aff", "is_disabled": 0, "is_reserved": 0, "bike_id": "363d73c3c3498f038e0b38ce994b7aff", "fusion_lon": 0.0, "type": "electric_scooter"}, {"rental_uris": {"ios": "https://dc.lft.to/lastmile_qr_scan", "android": "https://dc.lft.to/lastmile_qr_scan"}, "lat": 38.862385, "lon": -76.95284033333333, "fusion_lat": 0.0, "name": "0027f493dcbbfbb8d0b1ae4b878c4306", "is_disabled": 0, "is_reserved": 0, "bike_id": "0027f493dcbbfbb8d0b1ae4b878c4306", "fusion_lon": 0.0, "type": "electric_bike"}, {"rental_uris": {"ios": "https://dc.lft.to/lastmile_qr_scan", "android": "https://dc.lft.to/lastmile_qr_scan"}, "lat": 38.878881, "lon": -77.02254183333334, "fusion_lat": 0.0, "name": "088affc0c480dfde0bec1a86fb46d07f", "is_disabled": 0, "is_reserved": 0, "bike_id": "088affc0c480dfde0bec1a86fb46d07f", "fusion_lon": 0.0, "type": "electric_scooter"}, {"rental_uris": {"ios": "https://dc.lft.to/lastmile_qr_scan", "android": "https://dc.lft.to/lastmile_qr_scan"}, "lat": 38.87308316666667, "lon": -77.00147483333333, "fusion_lat": 0.0, "name": "910463cfee5ca60f11385d2366bfa0e0", "is_disabled": 0, "is_reserved": 0, "bike_id": "910463cfee5ca60f11385d2366bfa0e0", "fusion_lon": 0.0, "type": "electric_scooter"}, {"rental_uris": {"ios": "https://dc.lft.to/lastmile_qr_scan", "android": "https://dc.lft.to/lastmile_qr_scan"}, "lat": 38.91709816666667, "lon": -77.03472183333334, "fusion_lat": 0.0, "name": "1364c0e46d792df4f1f6241e3cc73446", "is_disabled": 0, "is_reserved": 0, "bike_id": "1364c0e46d792df4f1f6241e3cc73446", "fusion_lon": 0.0, "type": "electric_scooter"}, {"rental_uris": {"ios": "https://dc.lft.to/lastmile_qr_scan", "android": "https://dc.lft.to/lastmile_qr_scan"}, "lat": 38.905286333333336, "lon": -77.070294, "fusion_lat": 0.0, "name": "5b06f5d84359f6867d30bbb511f88bf2", "is_disabled": 0, "is_reserved": 0, "bike_id": "5b06f5d84359f6867d30bbb511f88bf2", "fusion_lon": 0.0, "type": "electric_scooter"}, {"rental_uris": {"ios": "https://dc.lft.to/lastmile_qr_scan", "android": "https://dc.lft.to/lastmile_qr_scan"}, "lat": 38.916345, "lon": -77.0320355, "fusion_lat": 0.0, "name": "2dafe8a0b77fd76ad4f446d26f39c692", "is_disabled": 0, "is_reserved": 0, "bike_id": "2dafe8a0b77fd76ad4f446d26f39c692", "fusion_lon": 0.0, "type": "electric_scooter"}, {"rental_uris": {"ios": "https://dc.lft.to/lastmile_qr_scan", "android": "https://dc.lft.to/lastmile_qr_scan"}, "lat": 38.90431266666667, "lon": -77.03434033333333, "fusion_lat": 0.0, "name": "06f6868194a01445d12b1e8e16e72fe3", "is_disabled": 0, "is_reserved": 0, "bike_id": "06f6868194a01445d12b1e8e16e72fe3", "fusion_lon": 0.0, "type": "electric_scooter"}, {"rental_uris": {"ios": "https://dc.lft.to/lastmile_qr_scan", "android": "https://dc.lft.to/lastmile_qr_scan"}, "lat": 38.86680833333333, "lon": -76.9856945, "fusion_lat": 0.0, "name": "9220d49f21762a39d8b3449b07c4141d", "is_disabled": 0, "is_reserved": 0, "bike_id": "9220d49f21762a39d8b3449b07c4141d", "fusion_lon": 0.0, "type": "electric_scooter"}, {"rental_uris": {"ios": "https://dc.lft.to/lastmile_qr_scan", "android": "https://dc.lft.to/lastmile_qr_scan"}, "lat": 38.941962, "lon": -77.02845566666667, "fusion_lat": 0.0, "name": "e3a8f5aeb21320aaf4b41adaa36548e1", "is_disabled": 0, "is_reserved": 0, "bike_id": "e3a8f5aeb21320aaf4b41adaa36548e1", "fusion_lon": 0.0, "type": "electric_scooter"}, {"rental_uris": {"ios": "https://dc.lft.to/lastmile_qr_scan", "android": "https://dc.lft.to/lastmile_qr_scan"}, "lat": 38.89952066666667, "lon": -77.03168033333333, "fusion_lat": 0.0, "name": "50e86c0e28aa976d84f774faa8ca5a4b", "is_disabled": 0, "is_reserved": 0, "bike_id": "50e86c0e28aa976d84f774faa8ca5a4b", "fusion_lon": 0.0, "type": "electric_scooter"}, {"rental_uris": {"ios": "https://dc.lft.to/lastmile_qr_scan", "android": "https://dc.lft.to/lastmile_qr_scan"}, "lat": 38.92589433333333, "lon": -77.039882, "fusion_lat": 0.0, "name": "0dbe01448af8731f880104d03cadcc32", "is_disabled": 0, "is_reserved": 0, "bike_id": "0dbe01448af8731f880104d03cadcc32", "fusion_lon": 0.0, "type": "electric_scooter"}, {"rental_uris": {"ios": "https://dc.lft.to/lastmile_qr_scan", "android": "https://dc.lft.to/lastmile_qr_scan"}, "lat": 38.90375516666667, "lon": -76.98594766666666, "fusion_lat": 0.0, "name": "038631758c12694bc0cfdd122a6fffaa", "is_disabled": 0, "is_reserved": 0, "bike_id": "038631758c12694bc0cfdd122a6fffaa", "fusion_lon": 0.0, "type": "electric_scooter"}, {"rental_uris": {"ios": "https://dc.lft.to/lastmile_qr_scan", "android": "https://dc.lft.to/lastmile_qr_scan"}, "lat": 38.897465, "lon": -76.97967166666666, "fusion_lat": 0.0, "name": "d61f037ec37d58d40cb3bee5fd750419", "is_disabled": 0, "is_reserved": 0, "bike_id": "d61f037ec37d58d40cb3bee5fd750419", "fusion_lon": 0.0, "type": "electric_scooter"}, {"rental_uris": {"ios": "https://dc.lft.to/lastmile_qr_scan", "android": "https://dc.lft.to/lastmile_qr_scan"}, "lat": 38.9249775, "lon": -77.05117533333333, "fusion_lat": 0.0, "name": "cae47a4dcdbcd942133970d34d5087ba", "is_disabled": 0, "is_reserved": 0, "bike_id": "cae47a4dcdbcd942133970d34d5087ba", "fusion_lon": 0.0, "type": "electric_scooter"}, {"rental_uris": {"ios": "https://dc.lft.to/lastmile_qr_scan", "android": "https://dc.lft.to/lastmile_qr_scan"}, "lat": 38.91552183333334, "lon": -77.02134333333333, "fusion_lat": 0.0, "name": "4dd4551e6978bf687a362f6d4bb43f79", "is_disabled": 0, "is_reserved": 0, "bike_id": "4dd4551e6978bf687a362f6d4bb43f79", "fusion_lon": 0.0, "type": "electric_scooter"}, {"rental_uris": {"ios": "https://dc.lft.to/lastmile_qr_scan", "android": "https://dc.lft.to/lastmile_qr_scan"}, "lat": 38.9105835, "lon": -77.03089233333333, "fusion_lat": 0.0, "name": "35cb32fc08fd4c6d3dbbb637f7a7b4ad", "is_disabled": 0, "is_reserved": 0, "bike_id": "35cb32fc08fd4c6d3dbbb637f7a7b4ad", "fusion_lon": 0.0, "type": "electric_scooter"}, {"rental_uris": {"ios": "https://dc.lft.to/lastmile_qr_scan", "android": "https://dc.lft.to/lastmile_qr_scan"}, "lat": 38.955276833333336, "lon": -77.02777566666667, "fusion_lat": 0.0, "name": "aa64f9f274ab280e821d473ab977d591", "is_disabled": 0, "is_reserved": 0, "bike_id": "aa64f9f274ab280e821d473ab977d591", "fusion_lon": 0.0, "type": "electric_scooter"}, {"rental_uris": {"ios": "https://dc.lft.to/lastmile_qr_scan", "android": "https://dc.lft.to/lastmile_qr_scan"}, "lat": 38.94289583333333, "lon": -77.02170933333333, "fusion_lat": 0.0, "name": "c1bc76164f83c8c0351306066b22cdd9", "is_disabled": 0, "is_reserved": 0, "bike_id": "c1bc76164f83c8c0351306066b22cdd9", "fusion_lon": 0.0, "type": "electric_scooter"}, {"rental_uris": {"ios": "https://dc.lft.to/lastmile_qr_scan", "android": "https://dc.lft.to/lastmile_qr_scan"}, "lat": 38.9183825, "lon": -77.04017866666666, "fusion_lat": 0.0, "name": "9983ac368ffa5b054f58b2e8ba5f1ba7", "is_disabled": 0, "is_reserved": 0, "bike_id": "9983ac368ffa5b054f58b2e8ba5f1ba7", "fusion_lon": 0.0, "type": "electric_scooter"}, {"rental_uris": {"ios": "https://dc.lft.to/lastmile_qr_scan", "android": "https://dc.lft.to/lastmile_qr_scan"}, "lat": 38.85352833333334, "lon": -77.13467633333333, "fusion_lat": 0.0, "name": "35c722b0f641974b180a4abdb1468ce3", "is_disabled": 0, "is_reserved": 0, "bike_id": "35c722b0f641974b180a4abdb1468ce3", "fusion_lon": 0.0, "type": "electric_bike"}, {"rental_uris": {"ios": "https://dc.lft.to/lastmile_qr_scan", "android": "https://dc.lft.to/lastmile_qr_scan"}, "lat": 38.8988235, "lon": -77.021831, "fusion_lat": 0.0, "name": "258c30738719c2a38412d7520d915d11", "is_disabled": 0, "is_reserved": 0, "bike_id": "258c30738719c2a38412d7520d915d11", "fusion_lon": 0.0, "type": "electric_scooter"}, {"rental_uris": {"ios": "https://dc.lft.to/lastmile_qr_scan", "android": "https://dc.lft.to/lastmile_qr_scan"}, "lat": 38.93144, "lon": -77.042447, "fusion_lat": 0.0, "name": "8966ae948c1cb0214554657fd2eb840c", "is_disabled": 0, "is_reserved": 0, "bike_id": "8966ae948c1cb0214554657fd2eb840c", "fusion_lon": 0.0, "type": "electric_scooter"}, {"rental_uris": {"ios": "https://dc.lft.to/lastmile_qr_scan", "android": "https://dc.lft.to/lastmile_qr_scan"}, "lat": 38.918395, "lon": -77.03513366666667, "fusion_lat": 0.0, "name": "28437fb9facc3822e15460764d38b60b", "is_disabled": 0, "is_reserved": 0, "bike_id": "28437fb9facc3822e15460764d38b60b", "fusion_lon": 0.0, "type": "electric_scooter"}, {"rental_uris": {"ios": "https://dc.lft.to/lastmile_qr_scan", "android": "https://dc.lft.to/lastmile_qr_scan"}, "lat": 38.90450083333333, "lon": -77.04849466666667, "fusion_lat": 0.0, "name": "b440677d7ddb1927b2a31cd42fbe7947", "is_disabled": 0, "is_reserved": 0, "bike_id": "b440677d7ddb1927b2a31cd42fbe7947", "fusion_lon": 0.0, "type": "electric_scooter"}, {"rental_uris": {"ios": "https://dc.lft.to/lastmile_qr_scan", "android": "https://dc.lft.to/lastmile_qr_scan"}, "lat": 38.90860383333333, "lon": -76.999569, "fusion_lat": 0.0, "name": "92e08cf01eb8ad977d3e83cc6bf441c1", "is_disabled": 0, "is_reserved": 0, "bike_id": "92e08cf01eb8ad977d3e83cc6bf441c1", "fusion_lon": 0.0, "type": "electric_scooter"}, {"rental_uris": {"ios": "https://dc.lft.to/lastmile_qr_scan", "android": "https://dc.lft.to/lastmile_qr_scan"}, "lat": 39.024361666666664, "lon": -77.1309835, "fusion_lat": 0.0, "name": "201048d8493e69f34e2b2bdaff3577b6", "is_disabled": 0, "is_reserved": 0, "bike_id": "201048d8493e69f34e2b2bdaff3577b6", "fusion_lon": 0.0, "type": "electric_bike"}, {"rental_uris": {"ios": "https://dc.lft.to/lastmile_qr_scan", "android": "https://dc.lft.to/lastmile_qr_scan"}, "lat": 38.9155065, "lon": -77.044448, "fusion_lat": 0.0, "name": "6fa4f3a4406a850d4abe9053710bc987", "is_disabled": 0, "is_reserved": 0, "bike_id": "6fa4f3a4406a850d4abe9053710bc987", "fusion_lon": 0.0, "type": "electric_scooter"}, {"rental_uris": {"ios": "https://dc.lft.to/lastmile_qr_scan", "android": "https://dc.lft.to/lastmile_qr_scan"}, "lat": 38.90204, "lon": -77.01960616666666, "fusion_lat": 0.0, "name": "a5656ad6ac2394a52eeb84cac3e64de6", "is_disabled": 0, "is_reserved": 0, "bike_id": "a5656ad6ac2394a52eeb84cac3e64de6", "fusion_lon": 0.0, "type": "electric_scooter"}, {"rental_uris": {"ios": "https://dc.lft.to/lastmile_qr_scan", "android": "https://dc.lft.to/lastmile_qr_scan"}, "lat": 38.934589, "lon": -76.964407, "fusion_lat": 0.0, "name": "1c96654d34484511d1f49c3385d5335b", "is_disabled": 0, "is_reserved": 0, "bike_id": "1c96654d34484511d1f49c3385d5335b", "fusion_lon": 0.0, "type": "electric_scooter"}, {"rental_uris": {"ios": "https://dc.lft.to/lastmile_qr_scan", "android": "https://dc.lft.to/lastmile_qr_scan"}, "lat": 38.914854166666665, "lon": -77.0455715, "fusion_lat": 0.0, "name": "f162c7c7b9b75d9a6dcbe4a67760a69a", "is_disabled": 0, "is_reserved": 0, "bike_id": "f162c7c7b9b75d9a6dcbe4a67760a69a", "fusion_lon": 0.0, "type": "electric_scooter"}, {"rental_uris": {"ios": "https://dc.lft.to/lastmile_qr_scan", "android": "https://dc.lft.to/lastmile_qr_scan"}, "lat": 38.929746333333334, "lon": -77.03259266666667, "fusion_lat": 0.0, "name": "f1ed7b7a638187e6e1341f5535d9d6e8", "is_disabled": 0, "is_reserved": 0, "bike_id": "f1ed7b7a638187e6e1341f5535d9d6e8", "fusion_lon": 0.0, "type": "electric_scooter"}, {"rental_uris": {"ios": "https://dc.lft.to/lastmile_qr_scan", "android": "https://dc.lft.to/lastmile_qr_scan"}, "lat": 38.917714, "lon": -77.0230965, "fusion_lat": 0.0, "name": "e03292d8333f14298b7edddaf6343256", "is_disabled": 0, "is_reserved": 0, "bike_id": "e03292d8333f14298b7edddaf6343256", "fusion_lon": 0.0, "type": "electric_scooter"}, {"rental_uris": {"ios": "https://dc.lft.to/lastmile_qr_scan", "android": "https://dc.lft.to/lastmile_qr_scan"}, "lat": 38.904682, "lon": -77.02821833333333, "fusion_lat": 0.0, "name": "8338036e95b377b55802ba686fdc8f46", "is_disabled": 0, "is_reserved": 0, "bike_id": "8338036e95b377b55802ba686fdc8f46", "fusion_lon": 0.0, "type": "electric_scooter"}, {"rental_uris": {"ios": "https://dc.lft.to/lastmile_qr_scan", "android": "https://dc.lft.to/lastmile_qr_scan"}, "lat": 38.930774, "lon": -77.03752383333334, "fusion_lat": 0.0, "name": "7aa35eaa64a92edb884def9c1802262f", "is_disabled": 0, "is_reserved": 0, "bike_id": "7aa35eaa64a92edb884def9c1802262f", "fusion_lon": 0.0, "type": "electric_scooter"}, {"rental_uris": {"ios": "https://dc.lft.to/lastmile_qr_scan", "android": "https://dc.lft.to/lastmile_qr_scan"}, "lat": 38.86700416666667, "lon": -76.98709416666667, "fusion_lat": 0.0, "name": "f08885927a17c2b720308fc088fa8cec", "is_disabled": 0, "is_reserved": 0, "bike_id": "f08885927a17c2b720308fc088fa8cec", "fusion_lon": 0.0, "type": "electric_scooter"}, {"rental_uris": {"ios": "https://dc.lft.to/lastmile_qr_scan", "android": "https://dc.lft.to/lastmile_qr_scan"}, "lat": 38.898486166666665, "lon": -77.05299566666666, "fusion_lat": 0.0, "name": "1f0fb74b78dbf9ed3762fbc49eae3b71", "is_disabled": 0, "is_reserved": 0, "bike_id": "1f0fb74b78dbf9ed3762fbc49eae3b71", "fusion_lon": 0.0, "type": "electric_bike"}, {"rental_uris": {"ios": "https://dc.lft.to/lastmile_qr_scan", "android": "https://dc.lft.to/lastmile_qr_scan"}, "lat": 38.896063166666664, "lon": -77.04456983333333, "fusion_lat": 0.0, "name": "8177aba01447a479e72d79ca5195da4c", "is_disabled": 0, "is_reserved": 0, "bike_id": "8177aba01447a479e72d79ca5195da4c", "fusion_lon": 0.0, "type": "electric_scooter"}, {"rental_uris": {"ios": "https://dc.lft.to/lastmile_qr_scan", "android": "https://dc.lft.to/lastmile_qr_scan"}, "lat": 38.91705966666667, "lon": -77.0287445, "fusion_lat": 0.0, "name": "98953fa7accc2f2e1162436e8a3569e0", "is_disabled": 0, "is_reserved": 0, "bike_id": "98953fa7accc2f2e1162436e8a3569e0", "fusion_lon": 0.0, "type": "electric_scooter"}, {"rental_uris": {"ios": "https://dc.lft.to/lastmile_qr_scan", "android": "https://dc.lft.to/lastmile_qr_scan"}, "lat": 38.92308533333333, "lon": -77.03655866666666, "fusion_lat": 0.0, "name": "05f19f43d083337a4eb7fd82d202abb4", "is_disabled": 0, "is_reserved": 0, "bike_id": "05f19f43d083337a4eb7fd82d202abb4", "fusion_lon": 0.0, "type": "electric_scooter"}, {"rental_uris": {"ios": "https://dc.lft.to/lastmile_qr_scan", "android": "https://dc.lft.to/lastmile_qr_scan"}, "lat": 38.9105005, "lon": -77.04371766666667, "fusion_lat": 0.0, "name": "91cd657cc4e05d51db4c8056b5ddcd89", "is_disabled": 0, "is_reserved": 0, "bike_id": "91cd657cc4e05d51db4c8056b5ddcd89", "fusion_lon": 0.0, "type": "electric_scooter"}, {"rental_uris": {"ios": "https://dc.lft.to/lastmile_qr_scan", "android": "https://dc.lft.to/lastmile_qr_scan"}, "lat": 38.8651655, "lon": -77.12934666666666, "fusion_lat": 0.0, "name": "e83b0e09a0e012802106daed34260dc2", "is_disabled": 0, "is_reserved": 0, "bike_id": "e83b0e09a0e012802106daed34260dc2", "fusion_lon": 0.0, "type": "electric_bike"}, {"rental_uris": {"ios": "https://dc.lft.to/lastmile_qr_scan", "android": "https://dc.lft.to/lastmile_qr_scan"}, "lat": 38.803889166666664, "lon": -77.05561016666667, "fusion_lat": 0.0, "name": "6370b546b31c48a44d7766c7692f6934", "is_disabled": 0, "is_reserved": 0, "bike_id": "6370b546b31c48a44d7766c7692f6934", "fusion_lon": 0.0, "type": "electric_bike"}, {"rental_uris": {"ios": "https://dc.lft.to/lastmile_qr_scan", "android": "https://dc.lft.to/lastmile_qr_scan"}, "lat": 38.88711633333333, "lon": -77.02183916666667, "fusion_lat": 0.0, "name": "718d30e091d0071152cde42893174c76", "is_disabled": 0, "is_reserved": 0, "bike_id": "718d30e091d0071152cde42893174c76", "fusion_lon": 0.0, "type": "electric_scooter"}, {"rental_uris": {"ios": "https://dc.lft.to/lastmile_qr_scan", "android": "https://dc.lft.to/lastmile_qr_scan"}, "lat": 38.895112166666664, "lon": -77.02286566666666, "fusion_lat": 0.0, "name": "2a7a2244b7c4b944b29cfa661afaad43", "is_disabled": 0, "is_reserved": 0, "bike_id": "2a7a2244b7c4b944b29cfa661afaad43", "fusion_lon": 0.0, "type": "electric_scooter"}, {"rental_uris": {"ios": "https://dc.lft.to/lastmile_qr_scan", "android": "https://dc.lft.to/lastmile_qr_scan"}, "lat": 38.899562, "lon": -77.04497733333334, "fusion_lat": 0.0, "name": "2b60864f8c241631b8c757d07eee6867", "is_disabled": 0, "is_reserved": 0, "bike_id": "2b60864f8c241631b8c757d07eee6867", "fusion_lon": 0.0, "type": "electric_scooter"}, {"rental_uris": {"ios": "https://dc.lft.to/lastmile_qr_scan", "android": "https://dc.lft.to/lastmile_qr_scan"}, "lat": 38.9169325, "lon": -77.02306016666667, "fusion_lat": 0.0, "name": "a992863e9bd35901034c14f791c3b5d7", "is_disabled": 0, "is_reserved": 0, "bike_id": "a992863e9bd35901034c14f791c3b5d7", "fusion_lon": 0.0, "type": "electric_scooter"}, {"rental_uris": {"ios": "https://dc.lft.to/lastmile_qr_scan", "android": "https://dc.lft.to/lastmile_qr_scan"}, "lat": 38.90015733333333, "lon": -76.986991, "fusion_lat": 0.0, "name": "91140c6e73b1cd46766a01c857c5776b", "is_disabled": 0, "is_reserved": 0, "bike_id": "91140c6e73b1cd46766a01c857c5776b", "fusion_lon": 0.0, "type": "electric_scooter"}, {"rental_uris": {"ios": "https://dc.lft.to/lastmile_qr_scan", "android": "https://dc.lft.to/lastmile_qr_scan"}, "lat": 38.90391366666667, "lon": -77.04659816666667, "fusion_lat": 0.0, "name": "1d419a14ec92f8e8345abaf88bcdd047", "is_disabled": 0, "is_reserved": 0, "bike_id": "1d419a14ec92f8e8345abaf88bcdd047", "fusion_lon": 0.0, "type": "electric_scooter"}, {"rental_uris": {"ios": "https://dc.lft.to/lastmile_qr_scan", "android": "https://dc.lft.to/lastmile_qr_scan"}, "lat": 38.90440066666667, "lon": -77.06295516666667, "fusion_lat": 0.0, "name": "e4aa1b42eb49633ad79b6ed9b0976aec", "is_disabled": 0, "is_reserved": 0, "bike_id": "e4aa1b42eb49633ad79b6ed9b0976aec", "fusion_lon": 0.0, "type": "electric_scooter"}, {"rental_uris": {"ios": "https://dc.lft.to/lastmile_qr_scan", "android": "https://dc.lft.to/lastmile_qr_scan"}, "lat": 38.914081333333336, "lon": -77.01633966666667, "fusion_lat": 0.0, "name": "292c1a12559638ff62c1849e105c0a31", "is_disabled": 0, "is_reserved": 0, "bike_id": "292c1a12559638ff62c1849e105c0a31", "fusion_lon": 0.0, "type": "electric_scooter"}, {"rental_uris": {"ios": "https://dc.lft.to/lastmile_qr_scan", "android": "https://dc.lft.to/lastmile_qr_scan"}, "lat": 38.886370666666664, "lon": -77.013499, "fusion_lat": 0.0, "name": "2dd55acd49775b6e22965fced383e39a", "is_disabled": 0, "is_reserved": 0, "bike_id": "2dd55acd49775b6e22965fced383e39a", "fusion_lon": 0.0, "type": "electric_scooter"}, {"rental_uris": {"ios": "https://dc.lft.to/lastmile_qr_scan", "android": "https://dc.lft.to/lastmile_qr_scan"}, "lat": 38.911971666666666, "lon": -77.03201966666667, "fusion_lat": 0.0, "name": "6ef8bb0c5f4f45b63d043884c1e6e0e5", "is_disabled": 0, "is_reserved": 0, "bike_id": "6ef8bb0c5f4f45b63d043884c1e6e0e5", "fusion_lon": 0.0, "type": "electric_scooter"}, {"rental_uris": {"ios": "https://dc.lft.to/lastmile_qr_scan", "android": "https://dc.lft.to/lastmile_qr_scan"}, "lat": 38.90814566666667, "lon": -77.02603966666666, "fusion_lat": 0.0, "name": "d35dd9a072614db8d43ba93a1aa657e4", "is_disabled": 0, "is_reserved": 0, "bike_id": "d35dd9a072614db8d43ba93a1aa657e4", "fusion_lon": 0.0, "type": "electric_scooter"}, {"rental_uris": {"ios": "https://dc.lft.to/lastmile_qr_scan", "android": "https://dc.lft.to/lastmile_qr_scan"}, "lat": 38.903265, "lon": -77.023876, "fusion_lat": 0.0, "name": "a4de1aa69b337abb23475366bd9e4301", "is_disabled": 0, "is_reserved": 0, "bike_id": "a4de1aa69b337abb23475366bd9e4301", "fusion_lon": 0.0, "type": "electric_scooter"}, {"rental_uris": {"ios": "https://dc.lft.to/lastmile_qr_scan", "android": "https://dc.lft.to/lastmile_qr_scan"}, "lat": 38.87896333333333, "lon": -77.022432, "fusion_lat": 0.0, "name": "26bfaa8a916886b65cfeb38f5df48fac", "is_disabled": 0, "is_reserved": 0, "bike_id": "26bfaa8a916886b65cfeb38f5df48fac", "fusion_lon": 0.0, "type": "electric_scooter"}, {"rental_uris": {"ios": "https://dc.lft.to/lastmile_qr_scan", "android": "https://dc.lft.to/lastmile_qr_scan"}, "lat": 38.86623066666667, "lon": -76.98899283333333, "fusion_lat": 0.0, "name": "c788a47011bf21c705e4ce3ba6d5daf9", "is_disabled": 0, "is_reserved": 0, "bike_id": "c788a47011bf21c705e4ce3ba6d5daf9", "fusion_lon": 0.0, "type": "electric_scooter"}, {"rental_uris": {"ios": "https://dc.lft.to/lastmile_qr_scan", "android": "https://dc.lft.to/lastmile_qr_scan"}, "lat": 38.8789565, "lon": -76.99158933333334, "fusion_lat": 0.0, "name": "7012bf8e9036069e47326df5eaa568e8", "is_disabled": 0, "is_reserved": 0, "bike_id": "7012bf8e9036069e47326df5eaa568e8", "fusion_lon": 0.0, "type": "electric_scooter"}, {"rental_uris": {"ios": "https://dc.lft.to/lastmile_qr_scan", "android": "https://dc.lft.to/lastmile_qr_scan"}, "lat": 38.94914683333333, "lon": -77.007986, "fusion_lat": 0.0, "name": "b833fc50a326d12875881b916beb1f5f", "is_disabled": 0, "is_reserved": 0, "bike_id": "b833fc50a326d12875881b916beb1f5f", "fusion_lon": 0.0, "type": "electric_scooter"}, {"rental_uris": {"ios": "https://dc.lft.to/lastmile_qr_scan", "android": "https://dc.lft.to/lastmile_qr_scan"}, "lat": 38.9243825, "lon": -77.0521215, "fusion_lat": 0.0, "name": "adb31069ed1f7a2f4014055d862ed36a", "is_disabled": 0, "is_reserved": 0, "bike_id": "adb31069ed1f7a2f4014055d862ed36a", "fusion_lon": 0.0, "type": "electric_scooter"}, {"rental_uris": {"ios": "https://dc.lft.to/lastmile_qr_scan", "android": "https://dc.lft.to/lastmile_qr_scan"}, "lat": 38.89701816666667, "lon": -76.92997616666666, "fusion_lat": 0.0, "name": "5970a260b62dbd76b5a7b0094ff2ecd6", "is_disabled": 0, "is_reserved": 0, "bike_id": "5970a260b62dbd76b5a7b0094ff2ecd6", "fusion_lon": 0.0, "type": "electric_scooter"}, {"rental_uris": {"ios": "https://dc.lft.to/lastmile_qr_scan", "android": "https://dc.lft.to/lastmile_qr_scan"}, "lat": 38.87466783333333, "lon": -77.004908, "fusion_lat": 0.0, "name": "c0777df33dbfb16cdcf68a381c27e30a", "is_disabled": 0, "is_reserved": 0, "bike_id": "c0777df33dbfb16cdcf68a381c27e30a", "fusion_lon": 0.0, "type": "electric_scooter"}, {"rental_uris": {"ios": "https://dc.lft.to/lastmile_qr_scan", "android": "https://dc.lft.to/lastmile_qr_scan"}, "lat": 38.900156333333335, "lon": -77.04489733333334, "fusion_lat": 0.0, "name": "cfec07fe949106a114fa42159e0d4f8e", "is_disabled": 0, "is_reserved": 0, "bike_id": "cfec07fe949106a114fa42159e0d4f8e", "fusion_lon": 0.0, "type": "electric_scooter"}, {"rental_uris": {"ios": "https://dc.lft.to/lastmile_qr_scan", "android": "https://dc.lft.to/lastmile_qr_scan"}, "lat": 38.87160433333333, "lon": -77.0135515, "fusion_lat": 0.0, "name": "e28c7af4ffff753c521a44395040b28a", "is_disabled": 0, "is_reserved": 0, "bike_id": "e28c7af4ffff753c521a44395040b28a", "fusion_lon": 0.0, "type": "electric_scooter"}, {"rental_uris": {"ios": "https://dc.lft.to/lastmile_qr_scan", "android": "https://dc.lft.to/lastmile_qr_scan"}, "lat": 38.90644966666667, "lon": -77.01828533333334, "fusion_lat": 0.0, "name": "e52b0fe11f6a47117b879ff954aef181", "is_disabled": 0, "is_reserved": 0, "bike_id": "e52b0fe11f6a47117b879ff954aef181", "fusion_lon": 0.0, "type": "electric_scooter"}, {"rental_uris": {"ios": "https://dc.lft.to/lastmile_qr_scan", "android": "https://dc.lft.to/lastmile_qr_scan"}, "lat": 38.9097525, "lon": -77.03298416666667, "fusion_lat": 0.0, "name": "7953e9cd78b4bd563ca8bf2a03c6307d", "is_disabled": 0, "is_reserved": 0, "bike_id": "7953e9cd78b4bd563ca8bf2a03c6307d", "fusion_lon": 0.0, "type": "electric_scooter"}, {"rental_uris": {"ios": "https://dc.lft.to/lastmile_qr_scan", "android": "https://dc.lft.to/lastmile_qr_scan"}, "lat": 38.9007075, "lon": -77.051618, "fusion_lat": 0.0, "name": "faca314ef671be294209e09962bfda2c", "is_disabled": 0, "is_reserved": 0, "bike_id": "faca314ef671be294209e09962bfda2c", "fusion_lon": 0.0, "type": "electric_scooter"}, {"rental_uris": {"ios": "https://dc.lft.to/lastmile_qr_scan", "android": "https://dc.lft.to/lastmile_qr_scan"}, "lat": 38.90550483333333, "lon": -77.03228983333334, "fusion_lat": 0.0, "name": "63aaa561279ed141d3958b7964201036", "is_disabled": 0, "is_reserved": 0, "bike_id": "63aaa561279ed141d3958b7964201036", "fusion_lon": 0.0, "type": "electric_scooter"}, {"rental_uris": {"ios": "https://dc.lft.to/lastmile_qr_scan", "android": "https://dc.lft.to/lastmile_qr_scan"}, "lat": 38.90393266666667, "lon": -76.98942883333333, "fusion_lat": 0.0, "name": "aaa4477f2c3ae7c375acb9df1cc516fd", "is_disabled": 0, "is_reserved": 0, "bike_id": "aaa4477f2c3ae7c375acb9df1cc516fd", "fusion_lon": 0.0, "type": "electric_scooter"}, {"rental_uris": {"ios": "https://dc.lft.to/lastmile_qr_scan", "android": "https://dc.lft.to/lastmile_qr_scan"}, "lat": 38.901414, "lon": -77.047781, "fusion_lat": 0.0, "name": "5bc9ba8f8f93bb0abd1321412d82e3d0", "is_disabled": 0, "is_reserved": 0, "bike_id": "5bc9ba8f8f93bb0abd1321412d82e3d0", "fusion_lon": 0.0, "type": "electric_scooter"}, {"rental_uris": {"ios": "https://dc.lft.to/lastmile_qr_scan", "android": "https://dc.lft.to/lastmile_qr_scan"}, "lat": 38.899869, "lon": -77.0459365, "fusion_lat": 0.0, "name": "5f075395251569cd9441d07df07761db", "is_disabled": 0, "is_reserved": 0, "bike_id": "5f075395251569cd9441d07df07761db", "fusion_lon": 0.0, "type": "electric_scooter"}, {"rental_uris": {"ios": "https://dc.lft.to/lastmile_qr_scan", "android": "https://dc.lft.to/lastmile_qr_scan"}, "lat": 38.89876966666667, "lon": -77.04878166666667, "fusion_lat": 0.0, "name": "d114b8f67b539fe90fe08721e1a31685", "is_disabled": 0, "is_reserved": 0, "bike_id": "d114b8f67b539fe90fe08721e1a31685", "fusion_lon": 0.0, "type": "electric_scooter"}, {"rental_uris": {"ios": "https://dc.lft.to/lastmile_qr_scan", "android": "https://dc.lft.to/lastmile_qr_scan"}, "lat": 38.894831833333335, "lon": -77.01922933333333, "fusion_lat": 0.0, "name": "32a25020e4a525a8b9153400458fdbdf", "is_disabled": 0, "is_reserved": 0, "bike_id": "32a25020e4a525a8b9153400458fdbdf", "fusion_lon": 0.0, "type": "electric_scooter"}, {"rental_uris": {"ios": "https://dc.lft.to/lastmile_qr_scan", "android": "https://dc.lft.to/lastmile_qr_scan"}, "lat": 38.876618666666666, "lon": -77.00697883333333, "fusion_lat": 0.0, "name": "9f21b4e264db4f7a3f8ff61364bef871", "is_disabled": 0, "is_reserved": 0, "bike_id": "9f21b4e264db4f7a3f8ff61364bef871", "fusion_lon": 0.0, "type": "electric_scooter"}, {"rental_uris": {"ios": "https://dc.lft.to/lastmile_qr_scan", "android": "https://dc.lft.to/lastmile_qr_scan"}, "lat": 38.89734516666667, "lon": -77.02681983333333, "fusion_lat": 0.0, "name": "41637ea0029331354f42db26f74c9633", "is_disabled": 0, "is_reserved": 0, "bike_id": "41637ea0029331354f42db26f74c9633", "fusion_lon": 0.0, "type": "electric_scooter"}, {"rental_uris": {"ios": "https://dc.lft.to/lastmile_qr_scan", "android": "https://dc.lft.to/lastmile_qr_scan"}, "lat": 38.89255266666667, "lon": -76.925668, "fusion_lat": 0.0, "name": "b3d5e41fed6771f495ac29a4fe38c098", "is_disabled": 0, "is_reserved": 0, "bike_id": "b3d5e41fed6771f495ac29a4fe38c098", "fusion_lon": 0.0, "type": "electric_scooter"}, {"rental_uris": {"ios": "https://dc.lft.to/lastmile_qr_scan", "android": "https://dc.lft.to/lastmile_qr_scan"}, "lat": 38.9319945, "lon": -77.03856833333333, "fusion_lat": 0.0, "name": "d2c505862f5bbc88df213d2309d7b249", "is_disabled": 0, "is_reserved": 0, "bike_id": "d2c505862f5bbc88df213d2309d7b249", "fusion_lon": 0.0, "type": "electric_scooter"}, {"rental_uris": {"ios": "https://dc.lft.to/lastmile_qr_scan", "android": "https://dc.lft.to/lastmile_qr_scan"}, "lat": 38.88419283333333, "lon": -77.00054283333333, "fusion_lat": 0.0, "name": "2694941f1d8fbe0c308c0add22879189", "is_disabled": 0, "is_reserved": 0, "bike_id": "2694941f1d8fbe0c308c0add22879189", "fusion_lon": 0.0, "type": "electric_scooter"}, {"rental_uris": {"ios": "https://dc.lft.to/lastmile_qr_scan", "android": "https://dc.lft.to/lastmile_qr_scan"}, "lat": 38.916734166666664, "lon": -77.023958, "fusion_lat": 0.0, "name": "df5c384610189d840019a2cf6dc882eb", "is_disabled": 0, "is_reserved": 0, "bike_id": "df5c384610189d840019a2cf6dc882eb", "fusion_lon": 0.0, "type": "electric_scooter"}, {"rental_uris": {"ios": "https://dc.lft.to/lastmile_qr_scan", "android": "https://dc.lft.to/lastmile_qr_scan"}, "lat": 38.8929105, "lon": -77.048768, "fusion_lat": 0.0, "name": "152c838a0edb032cb645a60a11b36f9a", "is_disabled": 0, "is_reserved": 0, "bike_id": "152c838a0edb032cb645a60a11b36f9a", "fusion_lon": 0.0, "type": "electric_scooter"}, {"rental_uris": {"ios": "https://dc.lft.to/lastmile_qr_scan", "android": "https://dc.lft.to/lastmile_qr_scan"}, "lat": 38.92148183333333, "lon": -77.03861583333334, "fusion_lat": 0.0, "name": "1858fa34e7cfce3957b13105314f6f41", "is_disabled": 0, "is_reserved": 0, "bike_id": "1858fa34e7cfce3957b13105314f6f41", "fusion_lon": 0.0, "type": "electric_scooter"}, {"rental_uris": {"ios": "https://dc.lft.to/lastmile_qr_scan", "android": "https://dc.lft.to/lastmile_qr_scan"}, "lat": 38.92507366666667, "lon": -77.00221883333333, "fusion_lat": 0.0, "name": "7caa2d1f07ef628d1f95b6713431c31c", "is_disabled": 0, "is_reserved": 0, "bike_id": "7caa2d1f07ef628d1f95b6713431c31c", "fusion_lon": 0.0, "type": "electric_scooter"}, {"rental_uris": {"ios": "https://dc.lft.to/lastmile_qr_scan", "android": "https://dc.lft.to/lastmile_qr_scan"}, "lat": 38.9204525, "lon": -77.03354783333333, "fusion_lat": 0.0, "name": "56b7596d047316d60f0eb6a7d2598c8c", "is_disabled": 0, "is_reserved": 0, "bike_id": "56b7596d047316d60f0eb6a7d2598c8c", "fusion_lon": 0.0, "type": "electric_scooter"}, {"rental_uris": {"ios": "https://dc.lft.to/lastmile_qr_scan", "android": "https://dc.lft.to/lastmile_qr_scan"}, "lat": 38.90044666666667, "lon": -76.98289383333334, "fusion_lat": 0.0, "name": "31c1ed7c95e9f4a772cca42478073f4b", "is_disabled": 0, "is_reserved": 0, "bike_id": "31c1ed7c95e9f4a772cca42478073f4b", "fusion_lon": 0.0, "type": "electric_scooter"}, {"rental_uris": {"ios": "https://dc.lft.to/lastmile_qr_scan", "android": "https://dc.lft.to/lastmile_qr_scan"}, "lat": 38.94827083333333, "lon": -77.02488816666667, "fusion_lat": 0.0, "name": "98a26940097d2836f7a2435086ec2dca", "is_disabled": 0, "is_reserved": 0, "bike_id": "98a26940097d2836f7a2435086ec2dca", "fusion_lon": 0.0, "type": "electric_scooter"}, {"rental_uris": {"ios": "https://dc.lft.to/lastmile_qr_scan", "android": "https://dc.lft.to/lastmile_qr_scan"}, "lat": 38.910601166666666, "lon": -77.05518116666667, "fusion_lat": 0.0, "name": "9d1b1d39052a3b89c04c46cb598c4cca", "is_disabled": 0, "is_reserved": 0, "bike_id": "9d1b1d39052a3b89c04c46cb598c4cca", "fusion_lon": 0.0, "type": "electric_bike"}, {"rental_uris": {"ios": "https://dc.lft.to/lastmile_qr_scan", "android": "https://dc.lft.to/lastmile_qr_scan"}, "lat": 38.931820333333334, "lon": -77.04301833333334, "fusion_lat": 0.0, "name": "fa6e5171174bb2c38e81fff2d934197a", "is_disabled": 0, "is_reserved": 0, "bike_id": "fa6e5171174bb2c38e81fff2d934197a", "fusion_lon": 0.0, "type": "electric_scooter"}, {"rental_uris": {"ios": "https://dc.lft.to/lastmile_qr_scan", "android": "https://dc.lft.to/lastmile_qr_scan"}, "lat": 38.915410333333334, "lon": -77.03206083333333, "fusion_lat": 0.0, "name": "7c787111419cecc4b9c8c08e529610fe", "is_disabled": 0, "is_reserved": 0, "bike_id": "7c787111419cecc4b9c8c08e529610fe", "fusion_lon": 0.0, "type": "electric_scooter"}, {"rental_uris": {"ios": "https://dc.lft.to/lastmile_qr_scan", "android": "https://dc.lft.to/lastmile_qr_scan"}, "lat": 38.89849783333333, "lon": -76.92907366666667, "fusion_lat": 0.0, "name": "3d24bbf782dbcbbd455b5aaebe1ec52a", "is_disabled": 0, "is_reserved": 0, "bike_id": "3d24bbf782dbcbbd455b5aaebe1ec52a", "fusion_lon": 0.0, "type": "electric_scooter"}, {"rental_uris": {"ios": "https://dc.lft.to/lastmile_qr_scan", "android": "https://dc.lft.to/lastmile_qr_scan"}, "lat": 38.893865, "lon": -77.02267583333334, "fusion_lat": 0.0, "name": "17c870ee2538ca587ea0af1ee44f51f5", "is_disabled": 0, "is_reserved": 0, "bike_id": "17c870ee2538ca587ea0af1ee44f51f5", "fusion_lon": 0.0, "type": "electric_scooter"}, {"rental_uris": {"ios": "https://dc.lft.to/lastmile_qr_scan", "android": "https://dc.lft.to/lastmile_qr_scan"}, "lat": 38.8792025, "lon": -77.0235305, "fusion_lat": 0.0, "name": "588f74ecd40a167b270ecda52d4a076b", "is_disabled": 0, "is_reserved": 0, "bike_id": "588f74ecd40a167b270ecda52d4a076b", "fusion_lon": 0.0, "type": "electric_scooter"}, {"rental_uris": {"ios": "https://dc.lft.to/lastmile_qr_scan", "android": "https://dc.lft.to/lastmile_qr_scan"}, "lat": 38.9142635, "lon": -77.03181966666666, "fusion_lat": 0.0, "name": "1688bf88efa4eb3277acb1db3c5dcf7d", "is_disabled": 0, "is_reserved": 0, "bike_id": "1688bf88efa4eb3277acb1db3c5dcf7d", "fusion_lon": 0.0, "type": "electric_scooter"}, {"rental_uris": {"ios": "https://dc.lft.to/lastmile_qr_scan", "android": "https://dc.lft.to/lastmile_qr_scan"}, "lat": 38.924457333333336, "lon": -77.02261933333334, "fusion_lat": 0.0, "name": "7ca22c8a1123563faece3f7230fe4bf0", "is_disabled": 0, "is_reserved": 0, "bike_id": "7ca22c8a1123563faece3f7230fe4bf0", "fusion_lon": 0.0, "type": "electric_scooter"}, {"rental_uris": {"ios": "https://dc.lft.to/lastmile_qr_scan", "android": "https://dc.lft.to/lastmile_qr_scan"}, "lat": 38.90246783333333, "lon": -77.03428383333333, "fusion_lat": 0.0, "name": "528f2f75305c028a35759fcd2bc0b875", "is_disabled": 0, "is_reserved": 0, "bike_id": "528f2f75305c028a35759fcd2bc0b875", "fusion_lon": 0.0, "type": "electric_scooter"}, {"rental_uris": {"ios": "https://dc.lft.to/lastmile_qr_scan", "android": "https://dc.lft.to/lastmile_qr_scan"}, "lat": 38.877643, "lon": -77.01049866666666, "fusion_lat": 0.0, "name": "2af1e2683595bf4dda34af38712b9955", "is_disabled": 0, "is_reserved": 0, "bike_id": "2af1e2683595bf4dda34af38712b9955", "fusion_lon": 0.0, "type": "electric_bike"}, {"rental_uris": {"ios": "https://dc.lft.to/lastmile_qr_scan", "android": "https://dc.lft.to/lastmile_qr_scan"}, "lat": 38.89843883333333, "lon": -77.04828666666667, "fusion_lat": 0.0, "name": "6eb68767f5b92c5cf11e9c0b0e68e8d2", "is_disabled": 0, "is_reserved": 0, "bike_id": "6eb68767f5b92c5cf11e9c0b0e68e8d2", "fusion_lon": 0.0, "type": "electric_scooter"}, {"rental_uris": {"ios": "https://dc.lft.to/lastmile_qr_scan", "android": "https://dc.lft.to/lastmile_qr_scan"}, "lat": 38.862115833333334, "lon": -76.99479833333334, "fusion_lat": 0.0, "name": "462e591db07a3b22f779e896547d91fe", "is_disabled": 0, "is_reserved": 0, "bike_id": "462e591db07a3b22f779e896547d91fe", "fusion_lon": 0.0, "type": "electric_scooter"}, {"rental_uris": {"ios": "https://dc.lft.to/lastmile_qr_scan", "android": "https://dc.lft.to/lastmile_qr_scan"}, "lat": 38.9182675, "lon": -77.04927883333333, "fusion_lat": 0.0, "name": "c82779a84d95969ffd6503bac9a68022", "is_disabled": 0, "is_reserved": 0, "bike_id": "c82779a84d95969ffd6503bac9a68022", "fusion_lon": 0.0, "type": "electric_scooter"}, {"rental_uris": {"ios": "https://dc.lft.to/lastmile_qr_scan", "android": "https://dc.lft.to/lastmile_qr_scan"}, "lat": 38.907491666666665, "lon": -77.0320755, "fusion_lat": 0.0, "name": "5cd55c5c126e73008530bc79eb72d387", "is_disabled": 0, "is_reserved": 0, "bike_id": "5cd55c5c126e73008530bc79eb72d387", "fusion_lon": 0.0, "type": "electric_scooter"}, {"rental_uris": {"ios": "https://dc.lft.to/lastmile_qr_scan", "android": "https://dc.lft.to/lastmile_qr_scan"}, "lat": 38.903130166666664, "lon": -77.05173783333333, "fusion_lat": 0.0, "name": "0d6cd8836613d16058ef0771770da0a2", "is_disabled": 0, "is_reserved": 0, "bike_id": "0d6cd8836613d16058ef0771770da0a2", "fusion_lon": 0.0, "type": "electric_scooter"}, {"rental_uris": {"ios": "https://dc.lft.to/lastmile_qr_scan", "android": "https://dc.lft.to/lastmile_qr_scan"}, "lat": 38.898667, "lon": -77.01242766666667, "fusion_lat": 0.0, "name": "6f1c8f3a91650c24b2839b845eb3094a", "is_disabled": 0, "is_reserved": 0, "bike_id": "6f1c8f3a91650c24b2839b845eb3094a", "fusion_lon": 0.0, "type": "electric_scooter"}, {"rental_uris": {"ios": "https://dc.lft.to/lastmile_qr_scan", "android": "https://dc.lft.to/lastmile_qr_scan"}, "lat": 38.89980833333333, "lon": -77.02706716666667, "fusion_lat": 0.0, "name": "653a8a4cdf3aae9648dcbbcd25e4b243", "is_disabled": 0, "is_reserved": 0, "bike_id": "653a8a4cdf3aae9648dcbbcd25e4b243", "fusion_lon": 0.0, "type": "electric_scooter"}, {"rental_uris": {"ios": "https://dc.lft.to/lastmile_qr_scan", "android": "https://dc.lft.to/lastmile_qr_scan"}, "lat": 38.90257066666667, "lon": -77.04687783333334, "fusion_lat": 0.0, "name": "db748de59e7562fa87faf2aa79aabfbb", "is_disabled": 0, "is_reserved": 0, "bike_id": "db748de59e7562fa87faf2aa79aabfbb", "fusion_lon": 0.0, "type": "electric_scooter"}, {"rental_uris": {"ios": "https://dc.lft.to/lastmile_qr_scan", "android": "https://dc.lft.to/lastmile_qr_scan"}, "lat": 38.896565833333334, "lon": -77.02720866666667, "fusion_lat": 0.0, "name": "46d34cf1c0afdaf1f148b1bf26c23956", "is_disabled": 0, "is_reserved": 0, "bike_id": "46d34cf1c0afdaf1f148b1bf26c23956", "fusion_lon": 0.0, "type": "electric_scooter"}, {"rental_uris": {"ios": "https://dc.lft.to/lastmile_qr_scan", "android": "https://dc.lft.to/lastmile_qr_scan"}, "lat": 38.89706, "lon": -77.02811483333333, "fusion_lat": 0.0, "name": "5d0bcc3ab14f23e79e31b65dd4fbc14f", "is_disabled": 0, "is_reserved": 0, "bike_id": "5d0bcc3ab14f23e79e31b65dd4fbc14f", "fusion_lon": 0.0, "type": "electric_scooter"}, {"rental_uris": {"ios": "https://dc.lft.to/lastmile_qr_scan", "android": "https://dc.lft.to/lastmile_qr_scan"}, "lat": 38.90604166666667, "lon": -77.04884466666667, "fusion_lat": 0.0, "name": "618200a6f4220ceb2a1d35cd3124eb01", "is_disabled": 0, "is_reserved": 0, "bike_id": "618200a6f4220ceb2a1d35cd3124eb01", "fusion_lon": 0.0, "type": "electric_scooter"}, {"rental_uris": {"ios": "https://dc.lft.to/lastmile_qr_scan", "android": "https://dc.lft.to/lastmile_qr_scan"}, "lat": 38.91800416666667, "lon": -77.030735, "fusion_lat": 0.0, "name": "820d836aef467868e929b0c57cda7782", "is_disabled": 0, "is_reserved": 0, "bike_id": "820d836aef467868e929b0c57cda7782", "fusion_lon": 0.0, "type": "electric_scooter"}, {"rental_uris": {"ios": "https://dc.lft.to/lastmile_qr_scan", "android": "https://dc.lft.to/lastmile_qr_scan"}, "lat": 38.939994166666665, "lon": -77.03801566666667, "fusion_lat": 0.0, "name": "7830c9fd248190dc8cd16a361db9a1c8", "is_disabled": 0, "is_reserved": 0, "bike_id": "7830c9fd248190dc8cd16a361db9a1c8", "fusion_lon": 0.0, "type": "electric_scooter"}, {"rental_uris": {"ios": "https://dc.lft.to/lastmile_qr_scan", "android": "https://dc.lft.to/lastmile_qr_scan"}, "lat": 38.922298, "lon": -77.043744, "fusion_lat": 0.0, "name": "3b0215d18787b480a93c644f1c08eac6", "is_disabled": 0, "is_reserved": 0, "bike_id": "3b0215d18787b480a93c644f1c08eac6", "fusion_lon": 0.0, "type": "electric_scooter"}, {"rental_uris": {"ios": "https://dc.lft.to/lastmile_qr_scan", "android": "https://dc.lft.to/lastmile_qr_scan"}, "lat": 38.896532, "lon": -77.05023366666667, "fusion_lat": 0.0, "name": "105da9d1e52f01bf8ff621625002e76f", "is_disabled": 0, "is_reserved": 0, "bike_id": "105da9d1e52f01bf8ff621625002e76f", "fusion_lon": 0.0, "type": "electric_scooter"}, {"rental_uris": {"ios": "https://dc.lft.to/lastmile_qr_scan", "android": "https://dc.lft.to/lastmile_qr_scan"}, "lat": 38.884673, "lon": -77.00049633333333, "fusion_lat": 0.0, "name": "4139b9e2b520bd03158c72062c439494", "is_disabled": 0, "is_reserved": 0, "bike_id": "4139b9e2b520bd03158c72062c439494", "fusion_lon": 0.0, "type": "electric_scooter"}, {"rental_uris": {"ios": "https://dc.lft.to/lastmile_qr_scan", "android": "https://dc.lft.to/lastmile_qr_scan"}, "lat": 38.91269883333333, "lon": -77.022112, "fusion_lat": 0.0, "name": "c490bd0d8afe5ec7e4fb2c2a56f9e18a", "is_disabled": 0, "is_reserved": 0, "bike_id": "c490bd0d8afe5ec7e4fb2c2a56f9e18a", "fusion_lon": 0.0, "type": "electric_scooter"}, {"rental_uris": {"ios": "https://dc.lft.to/lastmile_qr_scan", "android": "https://dc.lft.to/lastmile_qr_scan"}, "lat": 38.90193, "lon": -77.01303033333333, "fusion_lat": 0.0, "name": "2098ac166ebadb55a5aa6d98527886fe", "is_disabled": 0, "is_reserved": 0, "bike_id": "2098ac166ebadb55a5aa6d98527886fe", "fusion_lon": 0.0, "type": "electric_scooter"}, {"rental_uris": {"ios": "https://dc.lft.to/lastmile_qr_scan", "android": "https://dc.lft.to/lastmile_qr_scan"}, "lat": 38.90571383333333, "lon": -76.97626733333334, "fusion_lat": 0.0, "name": "80c4b96e63c718f6d67aebd470d542a4", "is_disabled": 0, "is_reserved": 0, "bike_id": "80c4b96e63c718f6d67aebd470d542a4", "fusion_lon": 0.0, "type": "electric_scooter"}, {"rental_uris": {"ios": "https://dc.lft.to/lastmile_qr_scan", "android": "https://dc.lft.to/lastmile_qr_scan"}, "lat": 38.90590916666667, "lon": -77.04108883333333, "fusion_lat": 0.0, "name": "a5decb5770bb22a20f09ed09ca4fc99a", "is_disabled": 0, "is_reserved": 0, "bike_id": "a5decb5770bb22a20f09ed09ca4fc99a", "fusion_lon": 0.0, "type": "electric_scooter"}, {"rental_uris": {"ios": "https://dc.lft.to/lastmile_qr_scan", "android": "https://dc.lft.to/lastmile_qr_scan"}, "lat": 38.9180455, "lon": -77.031752, "fusion_lat": 0.0, "name": "5cbcdc436c07e63f5160e3a27c353ecb", "is_disabled": 0, "is_reserved": 0, "bike_id": "5cbcdc436c07e63f5160e3a27c353ecb", "fusion_lon": 0.0, "type": "electric_scooter"}, {"rental_uris": {"ios": "https://dc.lft.to/lastmile_qr_scan", "android": "https://dc.lft.to/lastmile_qr_scan"}, "lat": 38.917012666666665, "lon": -77.03229266666666, "fusion_lat": 0.0, "name": "b49350598d90d4fca69b439973d42a75", "is_disabled": 0, "is_reserved": 0, "bike_id": "b49350598d90d4fca69b439973d42a75", "fusion_lon": 0.0, "type": "electric_scooter"}, {"rental_uris": {"ios": "https://dc.lft.to/lastmile_qr_scan", "android": "https://dc.lft.to/lastmile_qr_scan"}, "lat": 38.90469316666667, "lon": -77.043431, "fusion_lat": 0.0, "name": "d8ed9795dfe78d0f42245ab5233316a5", "is_disabled": 0, "is_reserved": 0, "bike_id": "d8ed9795dfe78d0f42245ab5233316a5", "fusion_lon": 0.0, "type": "electric_scooter"}, {"rental_uris": {"ios": "https://dc.lft.to/lastmile_qr_scan", "android": "https://dc.lft.to/lastmile_qr_scan"}, "lat": 38.92473483333333, "lon": -77.031008, "fusion_lat": 0.0, "name": "56f1d3221b9ce319dfe880b7404af39b", "is_disabled": 0, "is_reserved": 0, "bike_id": "56f1d3221b9ce319dfe880b7404af39b", "fusion_lon": 0.0, "type": "electric_scooter"}, {"rental_uris": {"ios": "https://dc.lft.to/lastmile_qr_scan", "android": "https://dc.lft.to/lastmile_qr_scan"}, "lat": 38.91694733333333, "lon": -77.02367166666667, "fusion_lat": 0.0, "name": "c63655bcdc034878a3c8abb1f3e344a2", "is_disabled": 0, "is_reserved": 0, "bike_id": "c63655bcdc034878a3c8abb1f3e344a2", "fusion_lon": 0.0, "type": "electric_scooter"}, {"rental_uris": {"ios": "https://dc.lft.to/lastmile_qr_scan", "android": "https://dc.lft.to/lastmile_qr_scan"}, "lat": 38.914738, "lon": -77.04546166666667, "fusion_lat": 0.0, "name": "ed536f3df8f3167b1bda9b5fb2b93dfa", "is_disabled": 0, "is_reserved": 0, "bike_id": "ed536f3df8f3167b1bda9b5fb2b93dfa", "fusion_lon": 0.0, "type": "electric_scooter"}, {"rental_uris": {"ios": "https://dc.lft.to/lastmile_qr_scan", "android": "https://dc.lft.to/lastmile_qr_scan"}, "lat": 38.892281833333335, "lon": -77.02965166666667, "fusion_lat": 0.0, "name": "c670d12bb2a32659922ce75e9bc7e4bf", "is_disabled": 0, "is_reserved": 0, "bike_id": "c670d12bb2a32659922ce75e9bc7e4bf", "fusion_lon": 0.0, "type": "electric_scooter"}, {"rental_uris": {"ios": "https://dc.lft.to/lastmile_qr_scan", "android": "https://dc.lft.to/lastmile_qr_scan"}, "lat": 38.923381166666665, "lon": -77.01908016666667, "fusion_lat": 0.0, "name": "5bd42912e19795f2880cda2ae4b19b49", "is_disabled": 0, "is_reserved": 0, "bike_id": "5bd42912e19795f2880cda2ae4b19b49", "fusion_lon": 0.0, "type": "electric_scooter"}, {"rental_uris": {"ios": "https://dc.lft.to/lastmile_qr_scan", "android": "https://dc.lft.to/lastmile_qr_scan"}, "lat": 38.9006255, "lon": -76.933835, "fusion_lat": 0.0, "name": "99064cba0e069c98b2e6a4e5c8385163", "is_disabled": 0, "is_reserved": 0, "bike_id": "99064cba0e069c98b2e6a4e5c8385163", "fusion_lon": 0.0, "type": "electric_scooter"}, {"rental_uris": {"ios": "https://dc.lft.to/lastmile_qr_scan", "android": "https://dc.lft.to/lastmile_qr_scan"}, "lat": 38.956338, "lon": -76.93873883333333, "fusion_lat": 0.0, "name": "2de7b1b17ee2f3fe774b19e2fb58c555", "is_disabled": 0, "is_reserved": 0, "bike_id": "2de7b1b17ee2f3fe774b19e2fb58c555", "fusion_lon": 0.0, "type": "electric_bike"}, {"rental_uris": {"ios": "https://dc.lft.to/lastmile_qr_scan", "android": "https://dc.lft.to/lastmile_qr_scan"}, "lat": 38.90137, "lon": -77.014967, "fusion_lat": 0.0, "name": "477ec14bb41314c12d44c8153a53ba5f", "is_disabled": 0, "is_reserved": 0, "bike_id": "477ec14bb41314c12d44c8153a53ba5f", "fusion_lon": 0.0, "type": "electric_scooter"}, {"rental_uris": {"ios": "https://dc.lft.to/lastmile_qr_scan", "android": "https://dc.lft.to/lastmile_qr_scan"}, "lat": 38.917017666666666, "lon": -77.095785, "fusion_lat": 0.0, "name": "c798b4aa12f4cfe000156a5c10988e9d", "is_disabled": 0, "is_reserved": 0, "bike_id": "c798b4aa12f4cfe000156a5c10988e9d", "fusion_lon": 0.0, "type": "electric_scooter"}, {"rental_uris": {"ios": "https://dc.lft.to/lastmile_qr_scan", "android": "https://dc.lft.to/lastmile_qr_scan"}, "lat": 38.9049125, "lon": -77.04104433333333, "fusion_lat": 0.0, "name": "5e6f0ec5069df60b5803ae141e290d22", "is_disabled": 0, "is_reserved": 0, "bike_id": "5e6f0ec5069df60b5803ae141e290d22", "fusion_lon": 0.0, "type": "electric_scooter"}, {"rental_uris": {"ios": "https://dc.lft.to/lastmile_qr_scan", "android": "https://dc.lft.to/lastmile_qr_scan"}, "lat": 38.883821833333336, "lon": -77.017635, "fusion_lat": 0.0, "name": "67a6f3cf1d47d66657b4c1fb1dd1e91d", "is_disabled": 0, "is_reserved": 0, "bike_id": "67a6f3cf1d47d66657b4c1fb1dd1e91d", "fusion_lon": 0.0, "type": "electric_scooter"}, {"rental_uris": {"ios": "https://dc.lft.to/lastmile_qr_scan", "android": "https://dc.lft.to/lastmile_qr_scan"}, "lat": 38.9023615, "lon": -77.05906483333334, "fusion_lat": 0.0, "name": "02b4b3e4c1751bd02758afb9a4e0633c", "is_disabled": 0, "is_reserved": 0, "bike_id": "02b4b3e4c1751bd02758afb9a4e0633c", "fusion_lon": 0.0, "type": "electric_scooter"}, {"rental_uris": {"ios": "https://dc.lft.to/lastmile_qr_scan", "android": "https://dc.lft.to/lastmile_qr_scan"}, "lat": 38.943499333333335, "lon": -77.03768733333334, "fusion_lat": 0.0, "name": "6292189ef1f7e60f1bbba4b383412a49", "is_disabled": 0, "is_reserved": 0, "bike_id": "6292189ef1f7e60f1bbba4b383412a49", "fusion_lon": 0.0, "type": "electric_scooter"}, {"rental_uris": {"ios": "https://dc.lft.to/lastmile_qr_scan", "android": "https://dc.lft.to/lastmile_qr_scan"}, "lat": 38.866842166666665, "lon": -76.98574633333334, "fusion_lat": 0.0, "name": "ae5dd4d192ff566dc330112705bb6b06", "is_disabled": 0, "is_reserved": 0, "bike_id": "ae5dd4d192ff566dc330112705bb6b06", "fusion_lon": 0.0, "type": "electric_scooter"}, {"rental_uris": {"ios": "https://dc.lft.to/lastmile_qr_scan", "android": "https://dc.lft.to/lastmile_qr_scan"}, "lat": 38.929684, "lon": -77.0279205, "fusion_lat": 0.0, "name": "b9e14183a5128d57fe3b6a2b463e70b9", "is_disabled": 0, "is_reserved": 0, "bike_id": "b9e14183a5128d57fe3b6a2b463e70b9", "fusion_lon": 0.0, "type": "electric_scooter"}, {"rental_uris": {"ios": "https://dc.lft.to/lastmile_qr_scan", "android": "https://dc.lft.to/lastmile_qr_scan"}, "lat": 38.916735833333334, "lon": -77.023236, "fusion_lat": 0.0, "name": "5c9f70c7da79d569858f4b89ae85c575", "is_disabled": 0, "is_reserved": 0, "bike_id": "5c9f70c7da79d569858f4b89ae85c575", "fusion_lon": 0.0, "type": "electric_scooter"}, {"rental_uris": {"ios": "https://dc.lft.to/lastmile_qr_scan", "android": "https://dc.lft.to/lastmile_qr_scan"}, "lat": 38.904112, "lon": -76.973276, "fusion_lat": 0.0, "name": "dceef3ed29e28950f5d1e0963905301f", "is_disabled": 0, "is_reserved": 0, "bike_id": "dceef3ed29e28950f5d1e0963905301f", "fusion_lon": 0.0, "type": "electric_scooter"}, {"rental_uris": {"ios": "https://dc.lft.to/lastmile_qr_scan", "android": "https://dc.lft.to/lastmile_qr_scan"}, "lat": 38.86504883333333, "lon": -76.99007066666667, "fusion_lat": 0.0, "name": "756916d91e321719b7b0d419a0ecfd1b", "is_disabled": 0, "is_reserved": 0, "bike_id": "756916d91e321719b7b0d419a0ecfd1b", "fusion_lon": 0.0, "type": "electric_scooter"}, {"rental_uris": {"ios": "https://dc.lft.to/lastmile_qr_scan", "android": "https://dc.lft.to/lastmile_qr_scan"}, "lat": 38.905211333333334, "lon": -77.04157083333334, "fusion_lat": 0.0, "name": "e43094165c581c8b6d642b6b6c418fcc", "is_disabled": 0, "is_reserved": 0, "bike_id": "e43094165c581c8b6d642b6b6c418fcc", "fusion_lon": 0.0, "type": "electric_scooter"}, {"rental_uris": {"ios": "https://dc.lft.to/lastmile_qr_scan", "android": "https://dc.lft.to/lastmile_qr_scan"}, "lat": 38.90645283333333, "lon": -77.07022416666666, "fusion_lat": 0.0, "name": "d1b7a772137446762e471c4522e3dbff", "is_disabled": 0, "is_reserved": 0, "bike_id": "d1b7a772137446762e471c4522e3dbff", "fusion_lon": 0.0, "type": "electric_scooter"}, {"rental_uris": {"ios": "https://dc.lft.to/lastmile_qr_scan", "android": "https://dc.lft.to/lastmile_qr_scan"}, "lat": 38.898308, "lon": -76.91950866666667, "fusion_lat": 0.0, "name": "452c33ba42b700909b4b8c52efa985be", "is_disabled": 0, "is_reserved": 0, "bike_id": "452c33ba42b700909b4b8c52efa985be", "fusion_lon": 0.0, "type": "electric_scooter"}, {"rental_uris": {"ios": "https://dc.lft.to/lastmile_qr_scan", "android": "https://dc.lft.to/lastmile_qr_scan"}, "lat": 38.91552166666666, "lon": -77.04444716666667, "fusion_lat": 0.0, "name": "695c8f9986313e5f02b7e6299bedae45", "is_disabled": 0, "is_reserved": 0, "bike_id": "695c8f9986313e5f02b7e6299bedae45", "fusion_lon": 0.0, "type": "electric_scooter"}, {"rental_uris": {"ios": "https://dc.lft.to/lastmile_qr_scan", "android": "https://dc.lft.to/lastmile_qr_scan"}, "lat": 38.91706716666667, "lon": -77.026133, "fusion_lat": 0.0, "name": "cb6083d58502048520c7fd6ce0d7d364", "is_disabled": 0, "is_reserved": 0, "bike_id": "cb6083d58502048520c7fd6ce0d7d364", "fusion_lon": 0.0, "type": "electric_scooter"}, {"rental_uris": {"ios": "https://dc.lft.to/lastmile_qr_scan", "android": "https://dc.lft.to/lastmile_qr_scan"}, "lat": 38.919706, "lon": -77.01213, "fusion_lat": 0.0, "name": "29ad52707fe74c13f55aaf37feb6a082", "is_disabled": 0, "is_reserved": 0, "bike_id": "29ad52707fe74c13f55aaf37feb6a082", "fusion_lon": 0.0, "type": "electric_scooter"}, {"rental_uris": {"ios": "https://dc.lft.to/lastmile_qr_scan", "android": "https://dc.lft.to/lastmile_qr_scan"}, "lat": 38.9003645, "lon": -76.97225766666666, "fusion_lat": 0.0, "name": "628d4a19649a85252b4a02896db38d86", "is_disabled": 0, "is_reserved": 0, "bike_id": "628d4a19649a85252b4a02896db38d86", "fusion_lon": 0.0, "type": "electric_bike"}, {"rental_uris": {"ios": "https://dc.lft.to/lastmile_qr_scan", "android": "https://dc.lft.to/lastmile_qr_scan"}, "lat": 38.91711033333333, "lon": -77.026173, "fusion_lat": 0.0, "name": "35860021aa1b954691edad6e9c22bb18", "is_disabled": 0, "is_reserved": 0, "bike_id": "35860021aa1b954691edad6e9c22bb18", "fusion_lon": 0.0, "type": "electric_scooter"}, {"rental_uris": {"ios": "https://dc.lft.to/lastmile_qr_scan", "android": "https://dc.lft.to/lastmile_qr_scan"}, "lat": 38.90802466666667, "lon": -77.03065683333334, "fusion_lat": 0.0, "name": "5088d934a2ba4e7d58ebc478cccfceb3", "is_disabled": 0, "is_reserved": 0, "bike_id": "5088d934a2ba4e7d58ebc478cccfceb3", "fusion_lon": 0.0, "type": "electric_scooter"}, {"rental_uris": {"ios": "https://dc.lft.to/lastmile_qr_scan", "android": "https://dc.lft.to/lastmile_qr_scan"}, "lat": 38.934714666666665, "lon": -77.022282, "fusion_lat": 0.0, "name": "9a5aeea3077650816465747cc88a3295", "is_disabled": 0, "is_reserved": 0, "bike_id": "9a5aeea3077650816465747cc88a3295", "fusion_lon": 0.0, "type": "electric_scooter"}, {"rental_uris": {"ios": "https://dc.lft.to/lastmile_qr_scan", "android": "https://dc.lft.to/lastmile_qr_scan"}, "lat": 38.9322445, "lon": -77.038609, "fusion_lat": 0.0, "name": "7e1c8608b096c8d2e8cf971192385e7b", "is_disabled": 0, "is_reserved": 0, "bike_id": "7e1c8608b096c8d2e8cf971192385e7b", "fusion_lon": 0.0, "type": "electric_scooter"}, {"rental_uris": {"ios": "https://dc.lft.to/lastmile_qr_scan", "android": "https://dc.lft.to/lastmile_qr_scan"}, "lat": 38.898646666666664, "lon": -76.94636166666666, "fusion_lat": 0.0, "name": "9d638dcfadb4d3c2d47e20b656805adb", "is_disabled": 0, "is_reserved": 0, "bike_id": "9d638dcfadb4d3c2d47e20b656805adb", "fusion_lon": 0.0, "type": "electric_scooter"}, {"rental_uris": {"ios": "https://dc.lft.to/lastmile_qr_scan", "android": "https://dc.lft.to/lastmile_qr_scan"}, "lat": 38.922160166666664, "lon": -77.20140233333333, "fusion_lat": 0.0, "name": "ba4c8d287a5ef23b1ec93aa55878aa88", "is_disabled": 0, "is_reserved": 0, "bike_id": "ba4c8d287a5ef23b1ec93aa55878aa88", "fusion_lon": 0.0, "type": "electric_bike"}, {"rental_uris": {"ios": "https://dc.lft.to/lastmile_qr_scan", "android": "https://dc.lft.to/lastmile_qr_scan"}, "lat": 38.915633, "lon": -77.0221, "fusion_lat": 0.0, "name": "947bf810cb4841687ab9012dce2c4088", "is_disabled": 0, "is_reserved": 0, "bike_id": "947bf810cb4841687ab9012dce2c4088", "fusion_lon": 0.0, "type": "electric_scooter"}, {"rental_uris": {"ios": "https://dc.lft.to/lastmile_qr_scan", "android": "https://dc.lft.to/lastmile_qr_scan"}, "lat": 38.88838483333333, "lon": -77.04904383333333, "fusion_lat": 0.0, "name": "d9f8ba4d6c04c149b66571628af213aa", "is_disabled": 0, "is_reserved": 0, "bike_id": "d9f8ba4d6c04c149b66571628af213aa", "fusion_lon": 0.0, "type": "electric_scooter"}, {"rental_uris": {"ios": "https://dc.lft.to/lastmile_qr_scan", "android": "https://dc.lft.to/lastmile_qr_scan"}, "lat": 38.93390933333333, "lon": -77.05743683333333, "fusion_lat": 0.0, "name": "84cb99b62c38a69eaf717f513dd5c03f", "is_disabled": 0, "is_reserved": 0, "bike_id": "84cb99b62c38a69eaf717f513dd5c03f", "fusion_lon": 0.0, "type": "electric_scooter"}, {"rental_uris": {"ios": "https://dc.lft.to/lastmile_qr_scan", "android": "https://dc.lft.to/lastmile_qr_scan"}, "lat": 38.861507333333336, "lon": -77.09141466666667, "fusion_lat": 0.0, "name": "aa799b70e7fa60827a9deb04d708619a", "is_disabled": 0, "is_reserved": 0, "bike_id": "aa799b70e7fa60827a9deb04d708619a", "fusion_lon": 0.0, "type": "electric_bike"}, {"rental_uris": {"ios": "https://dc.lft.to/lastmile_qr_scan", "android": "https://dc.lft.to/lastmile_qr_scan"}, "lat": 38.9228035, "lon": -77.03659116666667, "fusion_lat": 0.0, "name": "0c0e00209551c8df8108c37d0c79bf2c", "is_disabled": 0, "is_reserved": 0, "bike_id": "0c0e00209551c8df8108c37d0c79bf2c", "fusion_lon": 0.0, "type": "electric_scooter"}, {"rental_uris": {"ios": "https://dc.lft.to/lastmile_qr_scan", "android": "https://dc.lft.to/lastmile_qr_scan"}, "lat": 38.945614, "lon": -76.96686016666666, "fusion_lat": 0.0, "name": "662ce3246ec8143bdf64d623d6b8e280", "is_disabled": 0, "is_reserved": 0, "bike_id": "662ce3246ec8143bdf64d623d6b8e280", "fusion_lon": 0.0, "type": "electric_bike"}, {"rental_uris": {"ios": "https://dc.lft.to/lastmile_qr_scan", "android": "https://dc.lft.to/lastmile_qr_scan"}, "lat": 38.907287, "lon": -77.02373783333333, "fusion_lat": 0.0, "name": "2af72992d2a82e347c33c4ca3bffc1fb", "is_disabled": 0, "is_reserved": 0, "bike_id": "2af72992d2a82e347c33c4ca3bffc1fb", "fusion_lon": 0.0, "type": "electric_scooter"}, {"rental_uris": {"ios": "https://dc.lft.to/lastmile_qr_scan", "android": "https://dc.lft.to/lastmile_qr_scan"}, "lat": 38.90272866666667, "lon": -77.05802166666666, "fusion_lat": 0.0, "name": "11114a3d839bc075cc18feaed5e79a9f", "is_disabled": 0, "is_reserved": 0, "bike_id": "11114a3d839bc075cc18feaed5e79a9f", "fusion_lon": 0.0, "type": "electric_scooter"}, {"rental_uris": {"ios": "https://dc.lft.to/lastmile_qr_scan", "android": "https://dc.lft.to/lastmile_qr_scan"}, "lat": 38.8932785, "lon": -77.04673183333334, "fusion_lat": 0.0, "name": "003a7fa941a76acdc76a01ef1b7066ce", "is_disabled": 0, "is_reserved": 0, "bike_id": "003a7fa941a76acdc76a01ef1b7066ce", "fusion_lon": 0.0, "type": "electric_scooter"}, {"rental_uris": {"ios": "https://dc.lft.to/lastmile_qr_scan", "android": "https://dc.lft.to/lastmile_qr_scan"}, "lat": 38.870627, "lon": -76.97096816666667, "fusion_lat": 0.0, "name": "193925aabf8738903d6017caf7fcdc00", "is_disabled": 0, "is_reserved": 0, "bike_id": "193925aabf8738903d6017caf7fcdc00", "fusion_lon": 0.0, "type": "electric_scooter"}, {"rental_uris": {"ios": "https://dc.lft.to/lastmile_qr_scan", "android": "https://dc.lft.to/lastmile_qr_scan"}, "lat": 38.89527616666667, "lon": -77.00343166666667, "fusion_lat": 0.0, "name": "429c338b0239fb955b2c8ccfeeaac479", "is_disabled": 0, "is_reserved": 0, "bike_id": "429c338b0239fb955b2c8ccfeeaac479", "fusion_lon": 0.0, "type": "electric_scooter"}, {"rental_uris": {"ios": "https://dc.lft.to/lastmile_qr_scan", "android": "https://dc.lft.to/lastmile_qr_scan"}, "lat": 38.9110465, "lon": -77.0436225, "fusion_lat": 0.0, "name": "26a658cb7ea4ee30db2f845647e37f6c", "is_disabled": 0, "is_reserved": 0, "bike_id": "26a658cb7ea4ee30db2f845647e37f6c", "fusion_lon": 0.0, "type": "electric_scooter"}, {"rental_uris": {"ios": "https://dc.lft.to/lastmile_qr_scan", "android": "https://dc.lft.to/lastmile_qr_scan"}, "lat": 38.905589, "lon": -77.02209833333333, "fusion_lat": 0.0, "name": "db0719ce80f8c25c3e744042e6e1138e", "is_disabled": 0, "is_reserved": 0, "bike_id": "db0719ce80f8c25c3e744042e6e1138e", "fusion_lon": 0.0, "type": "electric_scooter"}, {"rental_uris": {"ios": "https://dc.lft.to/lastmile_qr_scan", "android": "https://dc.lft.to/lastmile_qr_scan"}, "lat": 38.918035833333334, "lon": -77.024927, "fusion_lat": 0.0, "name": "641cf4365e925e36cdea9970d1e60ccb", "is_disabled": 0, "is_reserved": 0, "bike_id": "641cf4365e925e36cdea9970d1e60ccb", "fusion_lon": 0.0, "type": "electric_scooter"}, {"rental_uris": {"ios": "https://dc.lft.to/lastmile_qr_scan", "android": "https://dc.lft.to/lastmile_qr_scan"}, "lat": 38.903850166666665, "lon": -77.01780733333334, "fusion_lat": 0.0, "name": "76a833c50de20d4bc2c5f381e440dac6", "is_disabled": 0, "is_reserved": 0, "bike_id": "76a833c50de20d4bc2c5f381e440dac6", "fusion_lon": 0.0, "type": "electric_scooter"}, {"rental_uris": {"ios": "https://dc.lft.to/lastmile_qr_scan", "android": "https://dc.lft.to/lastmile_qr_scan"}, "lat": 38.911039333333335, "lon": -77.04476233333334, "fusion_lat": 0.0, "name": "2a26bb7310b04e2335860248997ff183", "is_disabled": 0, "is_reserved": 0, "bike_id": "2a26bb7310b04e2335860248997ff183", "fusion_lon": 0.0, "type": "electric_scooter"}, {"rental_uris": {"ios": "https://dc.lft.to/lastmile_qr_scan", "android": "https://dc.lft.to/lastmile_qr_scan"}, "lat": 38.819897833333336, "lon": -76.998087, "fusion_lat": 0.0, "name": "5fd0c9b1c52a8d84fd3caa1955dc49b4", "is_disabled": 0, "is_reserved": 0, "bike_id": "5fd0c9b1c52a8d84fd3caa1955dc49b4", "fusion_lon": 0.0, "type": "electric_bike"}, {"rental_uris": {"ios": "https://dc.lft.to/lastmile_qr_scan", "android": "https://dc.lft.to/lastmile_qr_scan"}, "lat": 38.914216333333336, "lon": -77.022081, "fusion_lat": 0.0, "name": "fca185285052f461ae752def394a9fce", "is_disabled": 0, "is_reserved": 0, "bike_id": "fca185285052f461ae752def394a9fce", "fusion_lon": 0.0, "type": "electric_scooter"}, {"rental_uris": {"ios": "https://dc.lft.to/lastmile_qr_scan", "android": "https://dc.lft.to/lastmile_qr_scan"}, "lat": 38.889947666666664, "lon": -77.04910683333334, "fusion_lat": 0.0, "name": "e173c1b49f980f6ee3087ae27002f7b0", "is_disabled": 0, "is_reserved": 0, "bike_id": "e173c1b49f980f6ee3087ae27002f7b0", "fusion_lon": 0.0, "type": "electric_scooter"}, {"rental_uris": {"ios": "https://dc.lft.to/lastmile_qr_scan", "android": "https://dc.lft.to/lastmile_qr_scan"}, "lat": 38.89727416666667, "lon": -77.0552335, "fusion_lat": 0.0, "name": "05ce584639c18f3ca32d697c1fce2f2b", "is_disabled": 0, "is_reserved": 0, "bike_id": "05ce584639c18f3ca32d697c1fce2f2b", "fusion_lon": 0.0, "type": "electric_scooter"}, {"rental_uris": {"ios": "https://dc.lft.to/lastmile_qr_scan", "android": "https://dc.lft.to/lastmile_qr_scan"}, "lat": 38.85835316666667, "lon": -76.99165916666666, "fusion_lat": 0.0, "name": "a7a0dc62f806da44020eed1d74e30dcd", "is_disabled": 0, "is_reserved": 0, "bike_id": "a7a0dc62f806da44020eed1d74e30dcd", "fusion_lon": 0.0, "type": "electric_scooter"}, {"rental_uris": {"ios": "https://dc.lft.to/lastmile_qr_scan", "android": "https://dc.lft.to/lastmile_qr_scan"}, "lat": 38.918162333333335, "lon": -77.0247155, "fusion_lat": 0.0, "name": "7144e1421abcdeb284cc3b22cc9b9401", "is_disabled": 0, "is_reserved": 0, "bike_id": "7144e1421abcdeb284cc3b22cc9b9401", "fusion_lon": 0.0, "type": "electric_scooter"}, {"rental_uris": {"ios": "https://dc.lft.to/lastmile_qr_scan", "android": "https://dc.lft.to/lastmile_qr_scan"}, "lat": 38.901990833333336, "lon": -77.05041133333333, "fusion_lat": 0.0, "name": "f949db76101759538d263644f5325275", "is_disabled": 0, "is_reserved": 0, "bike_id": "f949db76101759538d263644f5325275", "fusion_lon": 0.0, "type": "electric_scooter"}, {"rental_uris": {"ios": "https://dc.lft.to/lastmile_qr_scan", "android": "https://dc.lft.to/lastmile_qr_scan"}, "lat": 38.92672433333333, "lon": -77.01508233333334, "fusion_lat": 0.0, "name": "499a0d2bd3f90a011a02da32008f038e", "is_disabled": 0, "is_reserved": 0, "bike_id": "499a0d2bd3f90a011a02da32008f038e", "fusion_lon": 0.0, "type": "electric_scooter"}, {"rental_uris": {"ios": "https://dc.lft.to/lastmile_qr_scan", "android": "https://dc.lft.to/lastmile_qr_scan"}, "lat": 38.919761666666666, "lon": -77.02250866666667, "fusion_lat": 0.0, "name": "733162a2307f70b614435eebd9a95231", "is_disabled": 0, "is_reserved": 0, "bike_id": "733162a2307f70b614435eebd9a95231", "fusion_lon": 0.0, "type": "electric_scooter"}, {"rental_uris": {"ios": "https://dc.lft.to/lastmile_qr_scan", "android": "https://dc.lft.to/lastmile_qr_scan"}, "lat": 38.894853833333336, "lon": -76.9495025, "fusion_lat": 0.0, "name": "93181773c0856791553d6813b3086ab6", "is_disabled": 0, "is_reserved": 0, "bike_id": "93181773c0856791553d6813b3086ab6", "fusion_lon": 0.0, "type": "electric_scooter"}, {"rental_uris": {"ios": "https://dc.lft.to/lastmile_qr_scan", "android": "https://dc.lft.to/lastmile_qr_scan"}, "lat": 38.90814, "lon": -76.98568333333333, "fusion_lat": 0.0, "name": "06bf444a537ac92ec2a7ca15d67e3d4b", "is_disabled": 0, "is_reserved": 0, "bike_id": "06bf444a537ac92ec2a7ca15d67e3d4b", "fusion_lon": 0.0, "type": "electric_scooter"}, {"rental_uris": {"ios": "https://dc.lft.to/lastmile_qr_scan", "android": "https://dc.lft.to/lastmile_qr_scan"}, "lat": 38.87123716666667, "lon": -76.98238616666667, "fusion_lat": 0.0, "name": "8882305777403661ff551754116030a6", "is_disabled": 0, "is_reserved": 0, "bike_id": "8882305777403661ff551754116030a6", "fusion_lon": 0.0, "type": "electric_scooter"}, {"rental_uris": {"ios": "https://dc.lft.to/lastmile_qr_scan", "android": "https://dc.lft.to/lastmile_qr_scan"}, "lat": 38.918142833333334, "lon": -77.04003616666667, "fusion_lat": 0.0, "name": "8cf63d63500480986218a8aa9394c04f", "is_disabled": 0, "is_reserved": 0, "bike_id": "8cf63d63500480986218a8aa9394c04f", "fusion_lon": 0.0, "type": "electric_scooter"}, {"rental_uris": {"ios": "https://dc.lft.to/lastmile_qr_scan", "android": "https://dc.lft.to/lastmile_qr_scan"}, "lat": 38.904936166666666, "lon": -77.04332966666666, "fusion_lat": 0.0, "name": "3673df75de0c76a92a0c76529b384b6d", "is_disabled": 0, "is_reserved": 0, "bike_id": "3673df75de0c76a92a0c76529b384b6d", "fusion_lon": 0.0, "type": "electric_scooter"}, {"rental_uris": {"ios": "https://dc.lft.to/lastmile_qr_scan", "android": "https://dc.lft.to/lastmile_qr_scan"}, "lat": 38.89553216666667, "lon": -77.04682583333333, "fusion_lat": 0.0, "name": "8280a7f20a112941795d17872cc4d65e", "is_disabled": 0, "is_reserved": 0, "bike_id": "8280a7f20a112941795d17872cc4d65e", "fusion_lon": 0.0, "type": "electric_scooter"}, {"rental_uris": {"ios": "https://dc.lft.to/lastmile_qr_scan", "android": "https://dc.lft.to/lastmile_qr_scan"}, "lat": 38.883534833333336, "lon": -77.02585533333334, "fusion_lat": 0.0, "name": "07781f48ae9496577835b0e2a2988c1e", "is_disabled": 0, "is_reserved": 0, "bike_id": "07781f48ae9496577835b0e2a2988c1e", "fusion_lon": 0.0, "type": "electric_scooter"}, {"rental_uris": {"ios": "https://dc.lft.to/lastmile_qr_scan", "android": "https://dc.lft.to/lastmile_qr_scan"}, "lat": 38.896157333333335, "lon": -77.04410383333334, "fusion_lat": 0.0, "name": "1e8ba25439bb798bd5288fddaa99cf5b", "is_disabled": 0, "is_reserved": 0, "bike_id": "1e8ba25439bb798bd5288fddaa99cf5b", "fusion_lon": 0.0, "type": "electric_scooter"}, {"rental_uris": {"ios": "https://dc.lft.to/lastmile_qr_scan", "android": "https://dc.lft.to/lastmile_qr_scan"}, "lat": 38.96402533333333, "lon": -76.9998805, "fusion_lat": 0.0, "name": "c2ae7f77add29dc6eeee8d5145695bfd", "is_disabled": 0, "is_reserved": 0, "bike_id": "c2ae7f77add29dc6eeee8d5145695bfd", "fusion_lon": 0.0, "type": "electric_bike"}, {"rental_uris": {"ios": "https://dc.lft.to/lastmile_qr_scan", "android": "https://dc.lft.to/lastmile_qr_scan"}, "lat": 38.90724433333333, "lon": -77.00241416666667, "fusion_lat": 0.0, "name": "5034097bb47cd6175c11a2c84d68af16", "is_disabled": 0, "is_reserved": 0, "bike_id": "5034097bb47cd6175c11a2c84d68af16", "fusion_lon": 0.0, "type": "electric_scooter"}, {"rental_uris": {"ios": "https://dc.lft.to/lastmile_qr_scan", "android": "https://dc.lft.to/lastmile_qr_scan"}, "lat": 38.918861166666666, "lon": -77.04492816666666, "fusion_lat": 0.0, "name": "72883531ad81f06c4debc88da1830a32", "is_disabled": 0, "is_reserved": 0, "bike_id": "72883531ad81f06c4debc88da1830a32", "fusion_lon": 0.0, "type": "electric_scooter"}, {"rental_uris": {"ios": "https://dc.lft.to/lastmile_qr_scan", "android": "https://dc.lft.to/lastmile_qr_scan"}, "lat": 38.9170565, "lon": -77.03874716666667, "fusion_lat": 0.0, "name": "4fefdbe4a78bcfefd959edc74996e8e7", "is_disabled": 0, "is_reserved": 0, "bike_id": "4fefdbe4a78bcfefd959edc74996e8e7", "fusion_lon": 0.0, "type": "electric_scooter"}, {"rental_uris": {"ios": "https://dc.lft.to/lastmile_qr_scan", "android": "https://dc.lft.to/lastmile_qr_scan"}, "lat": 38.90397633333333, "lon": -77.0629705, "fusion_lat": 0.0, "name": "38d81d35c4863cae4677d86da0166e07", "is_disabled": 0, "is_reserved": 0, "bike_id": "38d81d35c4863cae4677d86da0166e07", "fusion_lon": 0.0, "type": "electric_scooter"}, {"rental_uris": {"ios": "https://dc.lft.to/lastmile_qr_scan", "android": "https://dc.lft.to/lastmile_qr_scan"}, "lat": 38.90724216666667, "lon": -77.03177683333334, "fusion_lat": 0.0, "name": "2875be6e38c4edfe5c5e0e7e17061c14", "is_disabled": 0, "is_reserved": 0, "bike_id": "2875be6e38c4edfe5c5e0e7e17061c14", "fusion_lon": 0.0, "type": "electric_scooter"}, {"rental_uris": {"ios": "https://dc.lft.to/lastmile_qr_scan", "android": "https://dc.lft.to/lastmile_qr_scan"}, "lat": 38.90635616666667, "lon": -77.03468516666666, "fusion_lat": 0.0, "name": "47b3ee626295c8da475cf6d5b7795d74", "is_disabled": 0, "is_reserved": 0, "bike_id": "47b3ee626295c8da475cf6d5b7795d74", "fusion_lon": 0.0, "type": "electric_scooter"}, {"rental_uris": {"ios": "https://dc.lft.to/lastmile_qr_scan", "android": "https://dc.lft.to/lastmile_qr_scan"}, "lat": 38.934219166666665, "lon": -77.040025, "fusion_lat": 0.0, "name": "9b76aab2543f1376c178d0f0cb878f05", "is_disabled": 0, "is_reserved": 0, "bike_id": "9b76aab2543f1376c178d0f0cb878f05", "fusion_lon": 0.0, "type": "electric_scooter"}, {"rental_uris": {"ios": "https://dc.lft.to/lastmile_qr_scan", "android": "https://dc.lft.to/lastmile_qr_scan"}, "lat": 38.8967705, "lon": -77.027118, "fusion_lat": 0.0, "name": "ef9f91633921261929488d06c0b23334", "is_disabled": 0, "is_reserved": 0, "bike_id": "ef9f91633921261929488d06c0b23334", "fusion_lon": 0.0, "type": "electric_scooter"}, {"rental_uris": {"ios": "https://dc.lft.to/lastmile_qr_scan", "android": "https://dc.lft.to/lastmile_qr_scan"}, "lat": 38.915514333333334, "lon": -77.04448316666667, "fusion_lat": 0.0, "name": "b4d8d63a98f494fc81a74bbcca9e8911", "is_disabled": 0, "is_reserved": 0, "bike_id": "b4d8d63a98f494fc81a74bbcca9e8911", "fusion_lon": 0.0, "type": "electric_scooter"}, {"rental_uris": {"ios": "https://dc.lft.to/lastmile_qr_scan", "android": "https://dc.lft.to/lastmile_qr_scan"}, "lat": 38.91929966666667, "lon": -77.044961, "fusion_lat": 0.0, "name": "78c2be49758b62ffef84298efcacd3bc", "is_disabled": 0, "is_reserved": 0, "bike_id": "78c2be49758b62ffef84298efcacd3bc", "fusion_lon": 0.0, "type": "electric_scooter"}, {"rental_uris": {"ios": "https://dc.lft.to/lastmile_qr_scan", "android": "https://dc.lft.to/lastmile_qr_scan"}, "lat": 38.921434833333336, "lon": -77.0350985, "fusion_lat": 0.0, "name": "a477c53ec899ff24716691e0e8c20b16", "is_disabled": 0, "is_reserved": 0, "bike_id": "a477c53ec899ff24716691e0e8c20b16", "fusion_lon": 0.0, "type": "electric_scooter"}, {"rental_uris": {"ios": "https://dc.lft.to/lastmile_qr_scan", "android": "https://dc.lft.to/lastmile_qr_scan"}, "lat": 38.873765166666665, "lon": -77.00104133333333, "fusion_lat": 0.0, "name": "e38556d3745a509ff6aff10396a983e6", "is_disabled": 0, "is_reserved": 0, "bike_id": "e38556d3745a509ff6aff10396a983e6", "fusion_lon": 0.0, "type": "electric_scooter"}, {"rental_uris": {"ios": "https://dc.lft.to/lastmile_qr_scan", "android": "https://dc.lft.to/lastmile_qr_scan"}, "lat": 38.94325116666667, "lon": -77.07654366666667, "fusion_lat": 0.0, "name": "f6c6c6b3931722b317cb6736e523b6ef", "is_disabled": 0, "is_reserved": 0, "bike_id": "f6c6c6b3931722b317cb6736e523b6ef", "fusion_lon": 0.0, "type": "electric_scooter"}, {"rental_uris": {"ios": "https://dc.lft.to/lastmile_qr_scan", "android": "https://dc.lft.to/lastmile_qr_scan"}, "lat": 38.93890616666667, "lon": -77.02156516666666, "fusion_lat": 0.0, "name": "5e0d0d5eddedafb92135770c094d76f4", "is_disabled": 0, "is_reserved": 0, "bike_id": "5e0d0d5eddedafb92135770c094d76f4", "fusion_lon": 0.0, "type": "electric_scooter"}, {"rental_uris": {"ios": "https://dc.lft.to/lastmile_qr_scan", "android": "https://dc.lft.to/lastmile_qr_scan"}, "lat": 38.918998, "lon": -77.0168845, "fusion_lat": 0.0, "name": "23e875ef897fd16cd407b4a580e7e0a3", "is_disabled": 0, "is_reserved": 0, "bike_id": "23e875ef897fd16cd407b4a580e7e0a3", "fusion_lon": 0.0, "type": "electric_scooter"}, {"rental_uris": {"ios": "https://dc.lft.to/lastmile_qr_scan", "android": "https://dc.lft.to/lastmile_qr_scan"}, "lat": 38.89287216666666, "lon": -77.044824, "fusion_lat": 0.0, "name": "03eadf0aa6a04ce586930e3ceeeaa0c4", "is_disabled": 0, "is_reserved": 0, "bike_id": "03eadf0aa6a04ce586930e3ceeeaa0c4", "fusion_lon": 0.0, "type": "electric_scooter"}, {"rental_uris": {"ios": "https://dc.lft.to/lastmile_qr_scan", "android": "https://dc.lft.to/lastmile_qr_scan"}, "lat": 38.91109766666667, "lon": -77.04356783333333, "fusion_lat": 0.0, "name": "7a60ee60ffcd9ff178879b4c02545f8a", "is_disabled": 0, "is_reserved": 0, "bike_id": "7a60ee60ffcd9ff178879b4c02545f8a", "fusion_lon": 0.0, "type": "electric_scooter"}, {"rental_uris": {"ios": "https://dc.lft.to/lastmile_qr_scan", "android": "https://dc.lft.to/lastmile_qr_scan"}, "lat": 38.90572516666667, "lon": -77.03422116666667, "fusion_lat": 0.0, "name": "1d0e2b062c2bed223016d72c61666f04", "is_disabled": 0, "is_reserved": 0, "bike_id": "1d0e2b062c2bed223016d72c61666f04", "fusion_lon": 0.0, "type": "electric_scooter"}, {"rental_uris": {"ios": "https://dc.lft.to/lastmile_qr_scan", "android": "https://dc.lft.to/lastmile_qr_scan"}, "lat": 38.901919166666666, "lon": -76.9788005, "fusion_lat": 0.0, "name": "4ab07f616e2f831b9be2036d5ca63fc6", "is_disabled": 0, "is_reserved": 0, "bike_id": "4ab07f616e2f831b9be2036d5ca63fc6", "fusion_lon": 0.0, "type": "electric_scooter"}, {"rental_uris": {"ios": "https://dc.lft.to/lastmile_qr_scan", "android": "https://dc.lft.to/lastmile_qr_scan"}, "lat": 38.92231433333333, "lon": -77.00843166666667, "fusion_lat": 0.0, "name": "cf50c1e501315af8cb293ab5a034dce8", "is_disabled": 0, "is_reserved": 0, "bike_id": "cf50c1e501315af8cb293ab5a034dce8", "fusion_lon": 0.0, "type": "electric_scooter"}, {"rental_uris": {"ios": "https://dc.lft.to/lastmile_qr_scan", "android": "https://dc.lft.to/lastmile_qr_scan"}, "lat": 38.93247566666667, "lon": -76.99511366666667, "fusion_lat": 0.0, "name": "5019159a7777516ec62d0cb177ea244c", "is_disabled": 0, "is_reserved": 0, "bike_id": "5019159a7777516ec62d0cb177ea244c", "fusion_lon": 0.0, "type": "electric_scooter"}, {"rental_uris": {"ios": "https://dc.lft.to/lastmile_qr_scan", "android": "https://dc.lft.to/lastmile_qr_scan"}, "lat": 38.892231333333335, "lon": -77.03167266666667, "fusion_lat": 0.0, "name": "e42533b1850031e7b89623675834a1b9", "is_disabled": 0, "is_reserved": 0, "bike_id": "e42533b1850031e7b89623675834a1b9", "fusion_lon": 0.0, "type": "electric_scooter"}, {"rental_uris": {"ios": "https://dc.lft.to/lastmile_qr_scan", "android": "https://dc.lft.to/lastmile_qr_scan"}, "lat": 38.918081, "lon": -77.02493366666667, "fusion_lat": 0.0, "name": "bab26b01d1d8ea44bb5b9ead9b4ed364", "is_disabled": 0, "is_reserved": 0, "bike_id": "bab26b01d1d8ea44bb5b9ead9b4ed364", "fusion_lon": 0.0, "type": "electric_scooter"}, {"rental_uris": {"ios": "https://dc.lft.to/lastmile_qr_scan", "android": "https://dc.lft.to/lastmile_qr_scan"}, "lat": 38.883731166666664, "lon": -76.99544016666667, "fusion_lat": 0.0, "name": "50d1c1f746126efbb1127a6ef58676f7", "is_disabled": 0, "is_reserved": 0, "bike_id": "50d1c1f746126efbb1127a6ef58676f7", "fusion_lon": 0.0, "type": "electric_scooter"}, {"rental_uris": {"ios": "https://dc.lft.to/lastmile_qr_scan", "android": "https://dc.lft.to/lastmile_qr_scan"}, "lat": 38.91749633333333, "lon": -77.02713266666666, "fusion_lat": 0.0, "name": "52b86c8b4bcf851e4ec20fac9e550b97", "is_disabled": 0, "is_reserved": 0, "bike_id": "52b86c8b4bcf851e4ec20fac9e550b97", "fusion_lon": 0.0, "type": "electric_scooter"}, {"rental_uris": {"ios": "https://dc.lft.to/lastmile_qr_scan", "android": "https://dc.lft.to/lastmile_qr_scan"}, "lat": 38.923489833333335, "lon": -77.0350495, "fusion_lat": 0.0, "name": "7a2470694df79af09f9e63717f3ccb47", "is_disabled": 0, "is_reserved": 0, "bike_id": "7a2470694df79af09f9e63717f3ccb47", "fusion_lon": 0.0, "type": "electric_scooter"}, {"rental_uris": {"ios": "https://dc.lft.to/lastmile_qr_scan", "android": "https://dc.lft.to/lastmile_qr_scan"}, "lat": 38.90611766666667, "lon": -77.05657366666667, "fusion_lat": 0.0, "name": "24ea7ea41b4074dc615f713b184a5c43", "is_disabled": 0, "is_reserved": 0, "bike_id": "24ea7ea41b4074dc615f713b184a5c43", "fusion_lon": 0.0, "type": "electric_scooter"}, {"rental_uris": {"ios": "https://dc.lft.to/lastmile_qr_scan", "android": "https://dc.lft.to/lastmile_qr_scan"}, "lat": 38.884866333333335, "lon": -77.03474233333333, "fusion_lat": 0.0, "name": "b7b5a59ea58a3fd89313eeffc4f6bb91", "is_disabled": 0, "is_reserved": 0, "bike_id": "b7b5a59ea58a3fd89313eeffc4f6bb91", "fusion_lon": 0.0, "type": "electric_scooter"}, {"rental_uris": {"ios": "https://dc.lft.to/lastmile_qr_scan", "android": "https://dc.lft.to/lastmile_qr_scan"}, "lat": 38.84472866666667, "lon": -76.97853816666667, "fusion_lat": 0.0, "name": "1b82c157c0706836a5a0926227bdeee0", "is_disabled": 0, "is_reserved": 0, "bike_id": "1b82c157c0706836a5a0926227bdeee0", "fusion_lon": 0.0, "type": "electric_bike"}, {"rental_uris": {"ios": "https://dc.lft.to/lastmile_qr_scan", "android": "https://dc.lft.to/lastmile_qr_scan"}, "lat": 38.96677916666667, "lon": -77.02250733333334, "fusion_lat": 0.0, "name": "b4c8889f13a81d7fc204ad30f2c9de14", "is_disabled": 0, "is_reserved": 0, "bike_id": "b4c8889f13a81d7fc204ad30f2c9de14", "fusion_lon": 0.0, "type": "electric_bike"}, {"rental_uris": {"ios": "https://dc.lft.to/lastmile_qr_scan", "android": "https://dc.lft.to/lastmile_qr_scan"}, "lat": 38.90328916666667, "lon": -77.01746816666666, "fusion_lat": 0.0, "name": "ef77dfc86406d1a56873543d9848fe9f", "is_disabled": 0, "is_reserved": 0, "bike_id": "ef77dfc86406d1a56873543d9848fe9f", "fusion_lon": 0.0, "type": "electric_scooter"}, {"rental_uris": {"ios": "https://dc.lft.to/lastmile_qr_scan", "android": "https://dc.lft.to/lastmile_qr_scan"}, "lat": 38.87814066666667, "lon": -76.97170116666666, "fusion_lat": 0.0, "name": "b935b24654596e8033bab840c3211a9b", "is_disabled": 0, "is_reserved": 0, "bike_id": "b935b24654596e8033bab840c3211a9b", "fusion_lon": 0.0, "type": "electric_scooter"}, {"rental_uris": {"ios": "https://dc.lft.to/lastmile_qr_scan", "android": "https://dc.lft.to/lastmile_qr_scan"}, "lat": 38.99097183333333, "lon": -76.99372616666666, "fusion_lat": 0.0, "name": "10fc5f65e98cd9607b33ccfd1a1de874", "is_disabled": 0, "is_reserved": 0, "bike_id": "10fc5f65e98cd9607b33ccfd1a1de874", "fusion_lon": 0.0, "type": "electric_bike"}, {"rental_uris": {"ios": "https://dc.lft.to/lastmile_qr_scan", "android": "https://dc.lft.to/lastmile_qr_scan"}, "lat": 38.926253333333335, "lon": -77.03789266666666, "fusion_lat": 0.0, "name": "90c9bc1afc3347c9cbcdc35bec757553", "is_disabled": 0, "is_reserved": 0, "bike_id": "90c9bc1afc3347c9cbcdc35bec757553", "fusion_lon": 0.0, "type": "electric_scooter"}, {"rental_uris": {"ios": "https://dc.lft.to/lastmile_qr_scan", "android": "https://dc.lft.to/lastmile_qr_scan"}, "lat": 38.91563583333333, "lon": -77.03139, "fusion_lat": 0.0, "name": "4222397ea8672d8291964a83dbc7f7b0", "is_disabled": 0, "is_reserved": 0, "bike_id": "4222397ea8672d8291964a83dbc7f7b0", "fusion_lon": 0.0, "type": "electric_scooter"}, {"rental_uris": {"ios": "https://dc.lft.to/lastmile_qr_scan", "android": "https://dc.lft.to/lastmile_qr_scan"}, "lat": 38.883135333333335, "lon": -77.00343233333334, "fusion_lat": 0.0, "name": "96047d67dd77956fd5aae03159a915a0", "is_disabled": 0, "is_reserved": 0, "bike_id": "96047d67dd77956fd5aae03159a915a0", "fusion_lon": 0.0, "type": "electric_scooter"}, {"rental_uris": {"ios": "https://dc.lft.to/lastmile_qr_scan", "android": "https://dc.lft.to/lastmile_qr_scan"}, "lat": 38.88498033333333, "lon": -77.007276, "fusion_lat": 0.0, "name": "3ed6181f990baa4c1a77b5102189e292", "is_disabled": 0, "is_reserved": 0, "bike_id": "3ed6181f990baa4c1a77b5102189e292", "fusion_lon": 0.0, "type": "electric_scooter"}, {"rental_uris": {"ios": "https://dc.lft.to/lastmile_qr_scan", "android": "https://dc.lft.to/lastmile_qr_scan"}, "lat": 38.907245333333336, "lon": -77.02983333333333, "fusion_lat": 0.0, "name": "3347e26d79d2f90810d9cc81fc0d8b54", "is_disabled": 0, "is_reserved": 0, "bike_id": "3347e26d79d2f90810d9cc81fc0d8b54", "fusion_lon": 0.0, "type": "electric_scooter"}, {"rental_uris": {"ios": "https://dc.lft.to/lastmile_qr_scan", "android": "https://dc.lft.to/lastmile_qr_scan"}, "lat": 38.9166835, "lon": -76.98177466666667, "fusion_lat": 0.0, "name": "6baf3edf6cc918a235276bf7579330c2", "is_disabled": 0, "is_reserved": 0, "bike_id": "6baf3edf6cc918a235276bf7579330c2", "fusion_lon": 0.0, "type": "electric_scooter"}, {"rental_uris": {"ios": "https://dc.lft.to/lastmile_qr_scan", "android": "https://dc.lft.to/lastmile_qr_scan"}, "lat": 38.8589465, "lon": -76.99729833333333, "fusion_lat": 0.0, "name": "2e92e05e020f1c5b8c6b1c789b7fb39e", "is_disabled": 0, "is_reserved": 0, "bike_id": "2e92e05e020f1c5b8c6b1c789b7fb39e", "fusion_lon": 0.0, "type": "electric_scooter"}, {"rental_uris": {"ios": "https://dc.lft.to/lastmile_qr_scan", "android": "https://dc.lft.to/lastmile_qr_scan"}, "lat": 38.892415, "lon": -77.04498966666667, "fusion_lat": 0.0, "name": "717106ec98b099b38293c6e8083c4467", "is_disabled": 0, "is_reserved": 0, "bike_id": "717106ec98b099b38293c6e8083c4467", "fusion_lon": 0.0, "type": "electric_scooter"}, {"rental_uris": {"ios": "https://dc.lft.to/lastmile_qr_scan", "android": "https://dc.lft.to/lastmile_qr_scan"}, "lat": 38.90858, "lon": -77.026977, "fusion_lat": 0.0, "name": "c45e3cc2596485b92a77cd21d42cf709", "is_disabled": 0, "is_reserved": 0, "bike_id": "c45e3cc2596485b92a77cd21d42cf709", "fusion_lon": 0.0, "type": "electric_scooter"}, {"rental_uris": {"ios": "https://dc.lft.to/lastmile_qr_scan", "android": "https://dc.lft.to/lastmile_qr_scan"}, "lat": 38.89835516666667, "lon": -77.04501666666667, "fusion_lat": 0.0, "name": "994945f249d0202360f072c210e1e357", "is_disabled": 0, "is_reserved": 0, "bike_id": "994945f249d0202360f072c210e1e357", "fusion_lon": 0.0, "type": "electric_scooter"}, {"rental_uris": {"ios": "https://dc.lft.to/lastmile_qr_scan", "android": "https://dc.lft.to/lastmile_qr_scan"}, "lat": 38.9086345, "lon": -77.02455783333333, "fusion_lat": 0.0, "name": "03294e0bc4710c2601e25a98fbd66364", "is_disabled": 0, "is_reserved": 0, "bike_id": "03294e0bc4710c2601e25a98fbd66364", "fusion_lon": 0.0, "type": "electric_scooter"}, {"rental_uris": {"ios": "https://dc.lft.to/lastmile_qr_scan", "android": "https://dc.lft.to/lastmile_qr_scan"}, "lat": 38.89226083333333, "lon": -77.03167633333334, "fusion_lat": 0.0, "name": "ee5890da1c808c67bbec73666d356bdf", "is_disabled": 0, "is_reserved": 0, "bike_id": "ee5890da1c808c67bbec73666d356bdf", "fusion_lon": 0.0, "type": "electric_scooter"}, {"rental_uris": {"ios": "https://dc.lft.to/lastmile_qr_scan", "android": "https://dc.lft.to/lastmile_qr_scan"},