{"data": {"bikes": [{"is_reserved": 0, "type": "electric_scooter", "bike_id": "2164a012f91ad2aab910cb319987dec0", "lat": 38.930995333333335, "lon": -77.024795, "rental_uris": {"android": "https://dc.lft.to/lastmile_qr_scan", "ios": "https://dc.lft.to/lastmile_qr_scan"}, "is_disabled": 0, "fusion_lat": 0.0, "name": "2164a012f91ad2aab910cb319987dec0", "fusion_lon": 0.0}, {"is_reserved": 0, "type": "electric_scooter", "bike_id": "8a5a1b4d267db67bb80418d74e95d624", "lat": 38.945112, "lon": -77.03359783333333, "rental_uris": {"android": "https://dc.lft.to/lastmile_qr_scan", "ios": "https://dc.lft.to/lastmile_qr_scan"}, "is_disabled": 0, "fusion_lat": 0.0, "name": "8a5a1b4d267db67bb80418d74e95d624", "fusion_lon": 0.0}, {"is_reserved": 0, "type": "electric_scooter", "bike_id": "4b87e38e82fb8ea4a8815de4e8625a04", "lat": 38.91629316666667, "lon": -77.03170633333333, "rental_uris": {"android": "https://dc.lft.to/lastmile_qr_scan", "ios": "https://dc.lft.to/lastmile_qr_scan"}, "is_disabled": 0, "fusion_lat": 0.0, "name": "4b87e38e82fb8ea4a8815de4e8625a04", "fusion_lon": 0.0}, {"is_reserved": 0, "type": "electric_scooter", "bike_id": "594f6284f58495b0a6a69511263b077f", "lat": 38.93061433333333, "lon": -77.03947833333334, "rental_uris": {"android": "https://dc.lft.to/lastmile_qr_scan", "ios": "https://dc.lft.to/lastmile_qr_scan"}, "is_disabled": 0, "fusion_lat": 0.0, "name": "594f6284f58495b0a6a69511263b077f", "fusion_lon": 0.0}, {"is_reserved": 0, "type": "electric_scooter", "bike_id": "9fb6709af00d36f43234ed53e00f16a3", "lat": 38.894702333333335, "lon": -77.02157233333334, "rental_uris": {"android": "https://dc.lft.to/lastmile_qr_scan", "ios": "https://dc.lft.to/lastmile_qr_scan"}, "is_disabled": 0, "fusion_lat": 0.0, "name": "9fb6709af00d36f43234ed53e00f16a3", "fusion_lon": 0.0}, {"is_reserved": 0, "type": "electric_scooter", "bike_id": "6defde8140523fc6db2de96b974c18e3", "lat": 38.887274166666664, "lon": -77.028307, "rental_uris": {"android": "https://dc.lft.to/lastmile_qr_scan", "ios": "https://dc.lft.to/lastmile_qr_scan"}, "is_disabled": 0, "fusion_lat": 0.0, "name": "6defde8140523fc6db2de96b974c18e3", "fusion_lon": 0.0}, {"is_reserved": 0, "type": "electric_scooter", "bike_id": "5699e4f2258e4463e14b02494e12bcd7", "lat": 38.905671, "lon": -77.0059585, "rental_uris": {"android": "https://dc.lft.to/lastmile_qr_scan", "ios": "https://dc.lft.to/lastmile_qr_scan"}, "is_disabled": 0, "fusion_lat": 0.0, "name": "5699e4f2258e4463e14b02494e12bcd7", "fusion_lon": 0.0}, {"is_reserved": 0, "type": "electric_scooter", "bike_id": "2e3f1482d45e37c14264595c782cd769", "lat": 38.934922, "lon": -77.03656683333334, "rental_uris": {"android": "https://dc.lft.to/lastmile_qr_scan", "ios": "https://dc.lft.to/lastmile_qr_scan"}, "is_disabled": 0, "fusion_lat": 0.0, "name": "2e3f1482d45e37c14264595c782cd769", "fusion_lon": 0.0}, {"is_reserved": 0, "type": "electric_bike", "bike_id": "5adb660ddcba683a767265efa49c03bc", "lat": 38.920374833333334, "lon": -76.9795655, "rental_uris": {"android": "https://dc.lft.to/lastmile_qr_scan", "ios": "https://dc.lft.to/lastmile_qr_scan"}, "is_disabled": 0, "fusion_lat": 0.0, "name": "5adb660ddcba683a767265efa49c03bc", "fusion_lon": 0.0}, {"is_reserved": 0, "type": "electric_scooter", "bike_id": "1b69692670be4733962b401fd464004f", "lat": 38.903011666666664, "lon": -76.9341515, "rental_uris": {"android": "https://dc.lft.to/lastmile_qr_scan", "ios": "https://dc.lft.to/lastmile_qr_scan"}, "is_disabled": 0, "fusion_lat": 0.0, "name": "1b69692670be4733962b401fd464004f", "fusion_lon": 0.0}, {"is_reserved": 0, "type": "electric_scooter", "bike_id": "9317551d57103580b783ba2cc2de78f6", "lat": 38.935369, "lon": -77.0235295, "rental_uris": {"android": "https://dc.lft.to/lastmile_qr_scan", "ios": "https://dc.lft.to/lastmile_qr_scan"}, "is_disabled": 0, "fusion_lat": 0.0, "name": "9317551d57103580b783ba2cc2de78f6", "fusion_lon": 0.0}, {"is_reserved": 0, "type": "electric_scooter", "bike_id": "267b03b095a2746051d5b2f1abef425e", "lat": 38.961345, "lon": -77.084729, "rental_uris": {"android": "https://dc.lft.to/lastmile_qr_scan", "ios": "https://dc.lft.to/lastmile_qr_scan"}, "is_disabled": 0, "fusion_lat": 0.0, "name": "267b03b095a2746051d5b2f1abef425e", "fusion_lon": 0.0}, {"is_reserved": 0, "type": "electric_scooter", "bike_id": "ca17d00a3bb6f857602cc91f20a4cc9c", "lat": 38.946518833333336, "lon": -77.06474733333333, "rental_uris": {"android": "https://dc.lft.to/lastmile_qr_scan", "ios": "https://dc.lft.to/lastmile_qr_scan"}, "is_disabled": 0, "fusion_lat": 0.0, "name": "ca17d00a3bb6f857602cc91f20a4cc9c", "fusion_lon": 0.0}, {"is_reserved": 0, "type": "electric_scooter", "bike_id": "c5081fa8731668b2e03b2b63b673d8c9", "lat": 38.9191615, "lon": -77.01345266666667, "rental_uris": {"android": "https://dc.lft.to/lastmile_qr_scan", "ios": "https://dc.lft.to/lastmile_qr_scan"}, "is_disabled": 0, "fusion_lat": 0.0, "name": "c5081fa8731668b2e03b2b63b673d8c9", "fusion_lon": 0.0}, {"is_reserved": 0, "type": "electric_bike", "bike_id": "786033da46ca4cfc04651bb9b1090da0", "lat": 38.90693666666667, "lon": -76.95250883333334, "rental_uris": {"android": "https://dc.lft.to/lastmile_qr_scan", "ios": "https://dc.lft.to/lastmile_qr_scan"}, "is_disabled": 0, "fusion_lat": 0.0, "name": "786033da46ca4cfc04651bb9b1090da0", "fusion_lon": 0.0}, {"is_reserved": 0, "type": "electric_scooter", "bike_id": "810e17eccb90d59e18cb37327a877283", "lat": 38.92419966666667, "lon": -77.0194215, "rental_uris": {"android": "https://dc.lft.to/lastmile_qr_scan", "ios": "https://dc.lft.to/lastmile_qr_scan"}, "is_disabled": 0, "fusion_lat": 0.0, "name": "810e17eccb90d59e18cb37327a877283", "fusion_lon": 0.0}, {"is_reserved": 0, "type": "electric_scooter", "bike_id": "3d1a54d074a41be6cb251358dbca11a2", "lat": 38.9385945, "lon": -77.07581216666667, "rental_uris": {"android": "https://dc.lft.to/lastmile_qr_scan", "ios": "https://dc.lft.to/lastmile_qr_scan"}, "is_disabled": 0, "fusion_lat": 0.0, "name": "3d1a54d074a41be6cb251358dbca11a2", "fusion_lon": 0.0}, {"is_reserved": 0, "type": "electric_scooter", "bike_id": "a9326f38d526768a4e736236de7d1900", "lat": 38.94023116666666, "lon": -77.02502233333334, "rental_uris": {"android": "https://dc.lft.to/lastmile_qr_scan", "ios": "https://dc.lft.to/lastmile_qr_scan"}, "is_disabled": 0, "fusion_lat": 0.0, "name": "a9326f38d526768a4e736236de7d1900", "fusion_lon": 0.0}, {"is_reserved": 0, "type": "electric_scooter", "bike_id": "84f13736fb7e9298a734b44851918a4e", "lat": 38.883478833333335, "lon": -77.01999216666667, "rental_uris": {"android": "https://dc.lft.to/lastmile_qr_scan", "ios": "https://dc.lft.to/lastmile_qr_scan"}, "is_disabled": 0, "fusion_lat": 0.0, "name": "84f13736fb7e9298a734b44851918a4e", "fusion_lon": 0.0}, {"is_reserved": 0, "type": "electric_scooter", "bike_id": "5c5a1d61dd9412b52fdb8383f5badf0b", "lat": 38.91710333333333, "lon": -77.02679133333334, "rental_uris": {"android": "https://dc.lft.to/lastmile_qr_scan", "ios": "https://dc.lft.to/lastmile_qr_scan"}, "is_disabled": 0, "fusion_lat": 0.0, "name": "5c5a1d61dd9412b52fdb8383f5badf0b", "fusion_lon": 0.0}, {"is_reserved": 0, "type": "electric_scooter", "bike_id": "46e9f3f1785ae87d309fb3d33a41fc77", "lat": 38.93539533333333, "lon": -77.07267233333333, "rental_uris": {"android": "https://dc.lft.to/lastmile_qr_scan", "ios": "https://dc.lft.to/lastmile_qr_scan"}, "is_disabled": 0, "fusion_lat": 0.0, "name": "46e9f3f1785ae87d309fb3d33a41fc77", "fusion_lon": 0.0}, {"is_reserved": 0, "type": "electric_scooter", "bike_id": "6a547af4ab57843bc976244cbd63e31c", "lat": 38.9050315, "lon": -77.02943583333334, "rental_uris": {"android": "https://dc.lft.to/lastmile_qr_scan", "ios": "https://dc.lft.to/lastmile_qr_scan"}, "is_disabled": 0, "fusion_lat": 0.0, "name": "6a547af4ab57843bc976244cbd63e31c", "fusion_lon": 0.0}, {"is_reserved": 0, "type": "electric_scooter", "bike_id": "e6abe1b16dcbfaf14954e76cdd394d40", "lat": 38.90270733333333, "lon": -77.03974683333334, "rental_uris": {"android": "https://dc.lft.to/lastmile_qr_scan", "ios": "https://dc.lft.to/lastmile_qr_scan"}, "is_disabled": 0, "fusion_lat": 0.0, "name": "e6abe1b16dcbfaf14954e76cdd394d40", "fusion_lon": 0.0}, {"is_reserved": 0, "type": "electric_scooter", "bike_id": "f7ff992a204aae174b7b019ed8c21300", "lat": 38.89887133333333, "lon": -76.98836216666666, "rental_uris": {"android": "https://dc.lft.to/lastmile_qr_scan", "ios": "https://dc.lft.to/lastmile_qr_scan"}, "is_disabled": 0, "fusion_lat": 0.0, "name": "f7ff992a204aae174b7b019ed8c21300", "fusion_lon": 0.0}, {"is_reserved": 0, "type": "electric_scooter", "bike_id": "f04a5b3b6124e4fa64a37db4cdc2b244", "lat": 38.89543316666666, "lon": -76.98335866666666, "rental_uris": {"android": "https://dc.lft.to/lastmile_qr_scan", "ios": "https://dc.lft.to/lastmile_qr_scan"}, "is_disabled": 0, "fusion_lat": 0.0, "name": "f04a5b3b6124e4fa64a37db4cdc2b244", "fusion_lon": 0.0}, {"is_reserved": 0, "type": "electric_scooter", "bike_id": "f1cabf88a648e735fad929fb4f3c1634", "lat": 38.91496983333333, "lon": -77.01225566666666, "rental_uris": {"android": "https://dc.lft.to/lastmile_qr_scan", "ios": "https://dc.lft.to/lastmile_qr_scan"}, "is_disabled": 0, "fusion_lat": 0.0, "name": "f1cabf88a648e735fad929fb4f3c1634", "fusion_lon": 0.0}, {"is_reserved": 0, "type": "electric_scooter", "bike_id": "41654de1100e041739ae556320bffed3", "lat": 38.916282833333334, "lon": -77.02805566666666, "rental_uris": {"android": "https://dc.lft.to/lastmile_qr_scan", "ios": "https://dc.lft.to/lastmile_qr_scan"}, "is_disabled": 0, "fusion_lat": 0.0, "name": "41654de1100e041739ae556320bffed3", "fusion_lon": 0.0}, {"is_reserved": 0, "type": "electric_scooter", "bike_id": "7a8a2ebfa4a68f24bc2c4c7ce7c02578", "lat": 38.926075166666664, "lon": -77.02411316666667, "rental_uris": {"android": "https://dc.lft.to/lastmile_qr_scan", "ios": "https://dc.lft.to/lastmile_qr_scan"}, "is_disabled": 0, "fusion_lat": 0.0, "name": "7a8a2ebfa4a68f24bc2c4c7ce7c02578", "fusion_lon": 0.0}, {"is_reserved": 0, "type": "electric_scooter", "bike_id": "0fa547c80e689f1e3741ceab1b4140ce", "lat": 38.916825833333334, "lon": -77.023992, "rental_uris": {"android": "https://dc.lft.to/lastmile_qr_scan", "ios": "https://dc.lft.to/lastmile_qr_scan"}, "is_disabled": 0, "fusion_lat": 0.0, "name": "0fa547c80e689f1e3741ceab1b4140ce", "fusion_lon": 0.0}, {"is_reserved": 0, "type": "electric_scooter", "bike_id": "d48318b37f7110aa29fa2549f07ae41c", "lat": 38.898355333333335, "lon": -77.02964466666667, "rental_uris": {"android": "https://dc.lft.to/lastmile_qr_scan", "ios": "https://dc.lft.to/lastmile_qr_scan"}, "is_disabled": 0, "fusion_lat": 0.0, "name": "d48318b37f7110aa29fa2549f07ae41c", "fusion_lon": 0.0}, {"is_reserved": 0, "type": "electric_scooter", "bike_id": "251791624773d4c7597a38d809ba2db6", "lat": 38.860893833333336, "lon": -76.98105783333334, "rental_uris": {"android": "https://dc.lft.to/lastmile_qr_scan", "ios": "https://dc.lft.to/lastmile_qr_scan"}, "is_disabled": 0, "fusion_lat": 0.0, "name": "251791624773d4c7597a38d809ba2db6", "fusion_lon": 0.0}, {"is_reserved": 0, "type": "electric_scooter", "bike_id": "f703a277348d6af6f907bb4a6a395b1b", "lat": 38.87651983333333, "lon": -77.00581583333333, "rental_uris": {"android": "https://dc.lft.to/lastmile_qr_scan", "ios": "https://dc.lft.to/lastmile_qr_scan"}, "is_disabled": 0, "fusion_lat": 0.0, "name": "f703a277348d6af6f907bb4a6a395b1b", "fusion_lon": 0.0}, {"is_reserved": 0, "type": "electric_scooter", "bike_id": "cd6e1aa060328585506d1446026b8b82", "lat": 38.9141685, "lon": -77.01880033333333, "rental_uris": {"android": "https://dc.lft.to/lastmile_qr_scan", "ios": "https://dc.lft.to/lastmile_qr_scan"}, "is_disabled": 0, "fusion_lat": 0.0, "name": "cd6e1aa060328585506d1446026b8b82", "fusion_lon": 0.0}, {"is_reserved": 0, "type": "electric_scooter", "bike_id": "42f04e089c7fb8b0287ebeaddb2ecafc", "lat": 38.88024166666667, "lon": -77.02461483333333, "rental_uris": {"android": "https://dc.lft.to/lastmile_qr_scan", "ios": "https://dc.lft.to/lastmile_qr_scan"}, "is_disabled": 0, "fusion_lat": 0.0, "name": "42f04e089c7fb8b0287ebeaddb2ecafc", "fusion_lon": 0.0}, {"is_reserved": 0, "type": "electric_scooter", "bike_id": "537ddba0c4f4440eeb6abef522b020fe", "lat": 38.951842, "lon": -77.0292955, "rental_uris": {"android": "https://dc.lft.to/lastmile_qr_scan", "ios": "https://dc.lft.to/lastmile_qr_scan"}, "is_disabled": 0, "fusion_lat": 0.0, "name": "537ddba0c4f4440eeb6abef522b020fe", "fusion_lon": 0.0}, {"is_reserved": 0, "type": "electric_scooter", "bike_id": "35d08e47887415b628fe8a35c1c1a4a9", "lat": 38.930212, "lon": -77.02326316666667, "rental_uris": {"android": "https://dc.lft.to/lastmile_qr_scan", "ios": "https://dc.lft.to/lastmile_qr_scan"}, "is_disabled": 0, "fusion_lat": 0.0, "name": "35d08e47887415b628fe8a35c1c1a4a9", "fusion_lon": 0.0}, {"is_reserved": 0, "type": "electric_scooter", "bike_id": "30ff08cae482f28e5764351239cfb1a4", "lat": 38.91107733333333, "lon": -77.01904716666667, "rental_uris": {"android": "https://dc.lft.to/lastmile_qr_scan", "ios": "https://dc.lft.to/lastmile_qr_scan"}, "is_disabled": 0, "fusion_lat": 0.0, "name": "30ff08cae482f28e5764351239cfb1a4", "fusion_lon": 0.0}, {"is_reserved": 0, "type": "electric_scooter", "bike_id": "70be20cae682a7f2a6e351090ad8dd08", "lat": 38.91188, "lon": -77.02387683333333, "rental_uris": {"android": "https://dc.lft.to/lastmile_qr_scan", "ios": "https://dc.lft.to/lastmile_qr_scan"}, "is_disabled": 0, "fusion_lat": 0.0, "name": "70be20cae682a7f2a6e351090ad8dd08", "fusion_lon": 0.0}, {"is_reserved": 0, "type": "electric_scooter", "bike_id": "58cbcd9bd6272c1a4af70a3f52fb17ae", "lat": 38.895577833333334, "lon": -77.039569, "rental_uris": {"android": "https://dc.lft.to/lastmile_qr_scan", "ios": "https://dc.lft.to/lastmile_qr_scan"}, "is_disabled": 0, "fusion_lat": 0.0, "name": "58cbcd9bd6272c1a4af70a3f52fb17ae", "fusion_lon": 0.0}, {"is_reserved": 0, "type": "electric_scooter", "bike_id": "a6629dc08170cecefa6076b54be3c4b8", "lat": 38.925664833333336, "lon": -77.02280733333333, "rental_uris": {"android": "https://dc.lft.to/lastmile_qr_scan", "ios": "https://dc.lft.to/lastmile_qr_scan"}, "is_disabled": 0, "fusion_lat": 0.0, "name": "a6629dc08170cecefa6076b54be3c4b8", "fusion_lon": 0.0}, {"is_reserved": 0, "type": "electric_bike", "bike_id": "856c0160d96f9ce0f6e0b1c416e83983", "lat": 38.93590416666667, "lon": -77.02116533333333, "rental_uris": {"android": "https://dc.lft.to/lastmile_qr_scan", "ios": "https://dc.lft.to/lastmile_qr_scan"}, "is_disabled": 0, "fusion_lat": 0.0, "name": "856c0160d96f9ce0f6e0b1c416e83983", "fusion_lon": 0.0}, {"is_reserved": 0, "type": "electric_scooter", "bike_id": "2af769ba5f2946883c38f3b814c7d590", "lat": 38.9110335, "lon": -77.02002266666666, "rental_uris": {"android": "https://dc.lft.to/lastmile_qr_scan", "ios": "https://dc.lft.to/lastmile_qr_scan"}, "is_disabled": 0, "fusion_lat": 0.0, "name": "2af769ba5f2946883c38f3b814c7d590", "fusion_lon": 0.0}, {"is_reserved": 0, "type": "electric_scooter", "bike_id": "7cfd16ec644c9ad2c282edff976fa672", "lat": 38.93534566666666, "lon": -77.023491, "rental_uris": {"android": "https://dc.lft.to/lastmile_qr_scan", "ios": "https://dc.lft.to/lastmile_qr_scan"}, "is_disabled": 0, "fusion_lat": 0.0, "name": "7cfd16ec644c9ad2c282edff976fa672", "fusion_lon": 0.0}, {"is_reserved": 0, "type": "electric_scooter", "bike_id": "c54ad52f7d47251e84553b213e3df41c", "lat": 38.896196, "lon": -76.97683516666666, "rental_uris": {"android": "https://dc.lft.to/lastmile_qr_scan", "ios": "https://dc.lft.to/lastmile_qr_scan"}, "is_disabled": 0, "fusion_lat": 0.0, "name": "c54ad52f7d47251e84553b213e3df41c", "fusion_lon": 0.0}, {"is_reserved": 0, "type": "electric_scooter", "bike_id": "fddff6bc2d808280c98f6170e0069b7a", "lat": 38.900142833333334, "lon": -76.93024833333334, "rental_uris": {"android": "https://dc.lft.to/lastmile_qr_scan", "ios": "https://dc.lft.to/lastmile_qr_scan"}, "is_disabled": 0, "fusion_lat": 0.0, "name": "fddff6bc2d808280c98f6170e0069b7a", "fusion_lon": 0.0}, {"is_reserved": 0, "type": "electric_scooter", "bike_id": "ec64d73ca9ab9226501eff6caefd5cd3", "lat": 38.8840125, "lon": -76.9304295, "rental_uris": {"android": "https://dc.lft.to/lastmile_qr_scan", "ios": "https://dc.lft.to/lastmile_qr_scan"}, "is_disabled": 0, "fusion_lat": 0.0, "name": "ec64d73ca9ab9226501eff6caefd5cd3", "fusion_lon": 0.0}, {"is_reserved": 0, "type": "electric_scooter", "bike_id": "7ef7010b43c65e35e7fc7bec9d0c12a2", "lat": 38.896465166666665, "lon": -76.990352, "rental_uris": {"android": "https://dc.lft.to/lastmile_qr_scan", "ios": "https://dc.lft.to/lastmile_qr_scan"}, "is_disabled": 0, "fusion_lat": 0.0, "name": "7ef7010b43c65e35e7fc7bec9d0c12a2", "fusion_lon": 0.0}, {"is_reserved": 0, "type": "electric_scooter", "bike_id": "4875fd313ef75cf8d8324bd4eb4876fb", "lat": 38.923115333333335, "lon": -77.02973416666667, "rental_uris": {"android": "https://dc.lft.to/lastmile_qr_scan", "ios": "https://dc.lft.to/lastmile_qr_scan"}, "is_disabled": 0, "fusion_lat": 0.0, "name": "4875fd313ef75cf8d8324bd4eb4876fb", "fusion_lon": 0.0}, {"is_reserved": 0, "type": "electric_scooter", "bike_id": "21dc7a891c3c2257434a05e5749d5cdf", "lat": 38.91495466666667, "lon": -77.02422566666667, "rental_uris": {"android": "https://dc.lft.to/lastmile_qr_scan", "ios": "https://dc.lft.to/lastmile_qr_scan"}, "is_disabled": 0, "fusion_lat": 0.0, "name": "21dc7a891c3c2257434a05e5749d5cdf", "fusion_lon": 0.0}, {"is_reserved": 0, "type": "electric_scooter", "bike_id": "866d27b3a134cf9f7a0385363b183f74", "lat": 38.899515666666666, "lon": -77.01977816666667, "rental_uris": {"android": "https://dc.lft.to/lastmile_qr_scan", "ios": "https://dc.lft.to/lastmile_qr_scan"}, "is_disabled": 0, "fusion_lat": 0.0, "name": "866d27b3a134cf9f7a0385363b183f74", "fusion_lon": 0.0}, {"is_reserved": 0, "type": "electric_scooter", "bike_id": "926c0c4b69a49b01f7cd6ae837d6c74d", "lat": 38.89268116666667, "lon": -76.93002383333334, "rental_uris": {"android": "https://dc.lft.to/lastmile_qr_scan", "ios": "https://dc.lft.to/lastmile_qr_scan"}, "is_disabled": 0, "fusion_lat": 0.0, "name": "926c0c4b69a49b01f7cd6ae837d6c74d", "fusion_lon": 0.0}, {"is_reserved": 0, "type": "electric_scooter", "bike_id": "1b6414b2f2b4be5d65af7daad6d30f57", "lat": 38.917365, "lon": -77.00917316666667, "rental_uris": {"android": "https://dc.lft.to/lastmile_qr_scan", "ios": "https://dc.lft.to/lastmile_qr_scan"}, "is_disabled": 0, "fusion_lat": 0.0, "name": "1b6414b2f2b4be5d65af7daad6d30f57", "fusion_lon": 0.0}, {"is_reserved": 0, "type": "electric_scooter", "bike_id": "82708456f9cb4993f1a9bc09c530b961", "lat": 38.90631283333333, "lon": -77.07032833333334, "rental_uris": {"android": "https://dc.lft.to/lastmile_qr_scan", "ios": "https://dc.lft.to/lastmile_qr_scan"}, "is_disabled": 0, "fusion_lat": 0.0, "name": "82708456f9cb4993f1a9bc09c530b961", "fusion_lon": 0.0}, {"is_reserved": 0, "type": "electric_scooter", "bike_id": "7cc0598c40861b08c1e41772c5d619a5", "lat": 38.930049333333336, "lon": -77.0182615, "rental_uris": {"android": "https://dc.lft.to/lastmile_qr_scan", "ios": "https://dc.lft.to/lastmile_qr_scan"}, "is_disabled": 0, "fusion_lat": 0.0, "name": "7cc0598c40861b08c1e41772c5d619a5", "fusion_lon": 0.0}, {"is_reserved": 0, "type": "electric_scooter", "bike_id": "914d37382f7e5c0ff99e9d987be9e0ea", "lat": 38.90845, "lon": -77.02593733333333, "rental_uris": {"android": "https://dc.lft.to/lastmile_qr_scan", "ios": "https://dc.lft.to/lastmile_qr_scan"}, "is_disabled": 0, "fusion_lat": 0.0, "name": "914d37382f7e5c0ff99e9d987be9e0ea", "fusion_lon": 0.0}, {"is_reserved": 0, "type": "electric_scooter", "bike_id": "6649e40e2870bd5c2a6b970d7dbba5ed", "lat": 38.90787383333333, "lon": -77.00204466666666, "rental_uris": {"android": "https://dc.lft.to/lastmile_qr_scan", "ios": "https://dc.lft.to/lastmile_qr_scan"}, "is_disabled": 0, "fusion_lat": 0.0, "name": "6649e40e2870bd5c2a6b970d7dbba5ed", "fusion_lon": 0.0}, {"is_reserved": 0, "type": "electric_bike", "bike_id": "a96d765e4f3f774ea28b09b6236c8a10", "lat": 38.87039633333333, "lon": -77.229085, "rental_uris": {"android": "https://dc.lft.to/lastmile_qr_scan", "ios": "https://dc.lft.to/lastmile_qr_scan"}, "is_disabled": 0, "fusion_lat": 0.0, "name": "a96d765e4f3f774ea28b09b6236c8a10", "fusion_lon": 0.0}, {"is_reserved": 0, "type": "electric_scooter", "bike_id": "ff8a42ae229063cac814ae618326b6c4", "lat": 38.901115, "lon": -77.01223666666667, "rental_uris": {"android": "https://dc.lft.to/lastmile_qr_scan", "ios": "https://dc.lft.to/lastmile_qr_scan"}, "is_disabled": 0, "fusion_lat": 0.0, "name": "ff8a42ae229063cac814ae618326b6c4", "fusion_lon": 0.0}, {"is_reserved": 0, "type": "electric_bike", "bike_id": "354bb218323f1f0d1883fab079db742f", "lat": 38.99886333333333, "lon": -76.90858366666667, "rental_uris": {"android": "https://dc.lft.to/lastmile_qr_scan", "ios": "https://dc.lft.to/lastmile_qr_scan"}, "is_disabled": 0, "fusion_lat": 0.0, "name": "354bb218323f1f0d1883fab079db742f", "fusion_lon": 0.0}, {"is_reserved": 0, "type": "electric_scooter", "bike_id": "cd1aca8662b3c03004fa7773da488148", "lat": 38.922349, "lon": -77.04381966666666, "rental_uris": {"android": "https://dc.lft.to/lastmile_qr_scan", "ios": "https://dc.lft.to/lastmile_qr_scan"}, "is_disabled": 0, "fusion_lat": 0.0, "name": "cd1aca8662b3c03004fa7773da488148", "fusion_lon": 0.0}, {"is_reserved": 0, "type": "electric_scooter", "bike_id": "2b3da2c84770bc31d138c0f760f6dd6e", "lat": 38.91405133333333, "lon": -77.0326495, "rental_uris": {"android": "https://dc.lft.to/lastmile_qr_scan", "ios": "https://dc.lft.to/lastmile_qr_scan"}, "is_disabled": 0, "fusion_lat": 0.0, "name": "2b3da2c84770bc31d138c0f760f6dd6e", "fusion_lon": 0.0}, {"is_reserved": 0, "type": "electric_scooter", "bike_id": "b7641ff647e606176a32e512a0b00c2d", "lat": 38.942229166666664, "lon": -77.02962833333333, "rental_uris": {"android": "https://dc.lft.to/lastmile_qr_scan", "ios": "https://dc.lft.to/lastmile_qr_scan"}, "is_disabled": 0, "fusion_lat": 0.0, "name": "b7641ff647e606176a32e512a0b00c2d", "fusion_lon": 0.0}, {"is_reserved": 0, "type": "electric_scooter", "bike_id": "d8d01f4e82abbe85de20b30c0dbb3a13", "lat": 38.92421233333334, "lon": -77.019496, "rental_uris": {"android": "https://dc.lft.to/lastmile_qr_scan", "ios": "https://dc.lft.to/lastmile_qr_scan"}, "is_disabled": 0, "fusion_lat": 0.0, "name": "d8d01f4e82abbe85de20b30c0dbb3a13", "fusion_lon": 0.0}, {"is_reserved": 0, "type": "electric_scooter", "bike_id": "2d0a73066e1033ec042af244f2454436", "lat": 38.9136785, "lon": -77.020016, "rental_uris": {"android": "https://dc.lft.to/lastmile_qr_scan", "ios": "https://dc.lft.to/lastmile_qr_scan"}, "is_disabled": 0, "fusion_lat": 0.0, "name": "2d0a73066e1033ec042af244f2454436", "fusion_lon": 0.0}, {"is_reserved": 0, "type": "electric_bike", "bike_id": "25db70ca812a87ec48ab686fc7df59bc", "lat": 38.854324, "lon": -77.083182, "rental_uris": {"android": "https://dc.lft.to/lastmile_qr_scan", "ios": "https://dc.lft.to/lastmile_qr_scan"}, "is_disabled": 0, "fusion_lat": 0.0, "name": "25db70ca812a87ec48ab686fc7df59bc", "fusion_lon": 0.0}, {"is_reserved": 0, "type": "electric_scooter", "bike_id": "d7698f0465ff585c3b3dff1ea317c1d8", "lat": 38.8941945, "lon": -76.99825966666667, "rental_uris": {"android": "https://dc.lft.to/lastmile_qr_scan", "ios": "https://dc.lft.to/lastmile_qr_scan"}, "is_disabled": 0, "fusion_lat": 0.0, "name": "d7698f0465ff585c3b3dff1ea317c1d8", "fusion_lon": 0.0}, {"is_reserved": 0, "type": "electric_scooter", "bike_id": "39bf3f1afbe01239c38248fb746e9dbd", "lat": 38.92450266666667, "lon": -77.0203485, "rental_uris": {"android": "https://dc.lft.to/lastmile_qr_scan", "ios": "https://dc.lft.to/lastmile_qr_scan"}, "is_disabled": 0, "fusion_lat": 0.0, "name": "39bf3f1afbe01239c38248fb746e9dbd", "fusion_lon": 0.0}, {"is_reserved": 0, "type": "electric_scooter", "bike_id": "d0387d26fe041e732823f6d2a571fe48", "lat": 38.913886166666664, "lon": -77.02610316666667, "rental_uris": {"android": "https://dc.lft.to/lastmile_qr_scan", "ios": "https://dc.lft.to/lastmile_qr_scan"}, "is_disabled": 0, "fusion_lat": 0.0, "name": "d0387d26fe041e732823f6d2a571fe48", "fusion_lon": 0.0}, {"is_reserved": 0, "type": "electric_scooter", "bike_id": "2373751e8d289719c2925bdb558cb5d4", "lat": 38.9311785, "lon": -77.0209785, "rental_uris": {"android": "https://dc.lft.to/lastmile_qr_scan", "ios": "https://dc.lft.to/lastmile_qr_scan"}, "is_disabled": 0, "fusion_lat": 0.0, "name": "2373751e8d289719c2925bdb558cb5d4", "fusion_lon": 0.0}, {"is_reserved": 0, "type": "electric_scooter", "bike_id": "7dee240c0d8015dddd4deebce2861bfd", "lat": 38.901369, "lon": -77.02755066666667, "rental_uris": {"android": "https://dc.lft.to/lastmile_qr_scan", "ios": "https://dc.lft.to/lastmile_qr_scan"}, "is_disabled": 0, "fusion_lat": 0.0, "name": "7dee240c0d8015dddd4deebce2861bfd", "fusion_lon": 0.0}, {"is_reserved": 0, "type": "electric_bike", "bike_id": "b6ba61de3d7f162a48d6db1b9ced5c4e", "lat": 38.96433833333333, "lon": -77.03155, "rental_uris": {"android": "https://dc.lft.to/lastmile_qr_scan", "ios": "https://dc.lft.to/lastmile_qr_scan"}, "is_disabled": 0, "fusion_lat": 0.0, "name": "b6ba61de3d7f162a48d6db1b9ced5c4e", "fusion_lon": 0.0}, {"is_reserved": 0, "type": "electric_scooter", "bike_id": "8c9ff2c9b8d640e0709197b283111fdf", "lat": 38.919304333333336, "lon": -77.034315, "rental_uris": {"android": "https://dc.lft.to/lastmile_qr_scan", "ios": "https://dc.lft.to/lastmile_qr_scan"}, "is_disabled": 0, "fusion_lat": 0.0, "name": "8c9ff2c9b8d640e0709197b283111fdf", "fusion_lon": 0.0}, {"is_reserved": 0, "type": "electric_scooter", "bike_id": "68cd6c2199af628422b360c70f7e6db5", "lat": 38.930235, "lon": -77.03785416666666, "rental_uris": {"android": "https://dc.lft.to/lastmile_qr_scan", "ios": "https://dc.lft.to/lastmile_qr_scan"}, "is_disabled": 0, "fusion_lat": 0.0, "name": "68cd6c2199af628422b360c70f7e6db5", "fusion_lon": 0.0}, {"is_reserved": 0, "type": "electric_bike", "bike_id": "90b4813953fa941c6fc56adc9570713d", "lat": 38.928693, "lon": -77.0380925, "rental_uris": {"android": "https://dc.lft.to/lastmile_qr_scan", "ios": "https://dc.lft.to/lastmile_qr_scan"}, "is_disabled": 0, "fusion_lat": 0.0, "name": "90b4813953fa941c6fc56adc9570713d", "fusion_lon": 0.0}, {"is_reserved": 0, "type": "electric_scooter", "bike_id": "98622544767c63d80af19bd48d481d57", "lat": 38.914943, "lon": -77.01995816666667, "rental_uris": {"android": "https://dc.lft.to/lastmile_qr_scan", "ios": "https://dc.lft.to/lastmile_qr_scan"}, "is_disabled": 0, "fusion_lat": 0.0, "name": "98622544767c63d80af19bd48d481d57", "fusion_lon": 0.0}, {"is_reserved": 0, "type": "electric_scooter", "bike_id": "8836078f98d4ec94931de9952f9103fb", "lat": 38.916844, "lon": -77.03205033333333, "rental_uris": {"android": "https://dc.lft.to/lastmile_qr_scan", "ios": "https://dc.lft.to/lastmile_qr_scan"}, "is_disabled": 0, "fusion_lat": 0.0, "name": "8836078f98d4ec94931de9952f9103fb", "fusion_lon": 0.0}, {"is_reserved": 0, "type": "electric_scooter", "bike_id": "91025a344e331e0626758c33e4e95ee2", "lat": 38.9237375, "lon": -77.0805075, "rental_uris": {"android": "https://dc.lft.to/lastmile_qr_scan", "ios": "https://dc.lft.to/lastmile_qr_scan"}, "is_disabled": 0, "fusion_lat": 0.0, "name": "91025a344e331e0626758c33e4e95ee2", "fusion_lon": 0.0}, {"is_reserved": 0, "type": "electric_scooter", "bike_id": "b7e2302af9a3da4e5fa1873118f8ce35", "lat": 38.89712, "lon": -76.991187, "rental_uris": {"android": "https://dc.lft.to/lastmile_qr_scan", "ios": "https://dc.lft.to/lastmile_qr_scan"}, "is_disabled": 0, "fusion_lat": 0.0, "name": "b7e2302af9a3da4e5fa1873118f8ce35", "fusion_lon": 0.0}, {"is_reserved": 0, "type": "electric_scooter", "bike_id": "10176efad87b144740aa38d00959b6b9", "lat": 38.92485816666667, "lon": -77.02815, "rental_uris": {"android": "https://dc.lft.to/lastmile_qr_scan", "ios": "https://dc.lft.to/lastmile_qr_scan"}, "is_disabled": 0, "fusion_lat": 0.0, "name": "10176efad87b144740aa38d00959b6b9", "fusion_lon": 0.0}, {"is_reserved": 0, "type": "electric_scooter", "bike_id": "24420ec8658a2e3ad2d8e2364aa5324c", "lat": 38.93638033333333, "lon": -77.06004966666667, "rental_uris": {"android": "https://dc.lft.to/lastmile_qr_scan", "ios": "https://dc.lft.to/lastmile_qr_scan"}, "is_disabled": 0, "fusion_lat": 0.0, "name": "24420ec8658a2e3ad2d8e2364aa5324c", "fusion_lon": 0.0}, {"is_reserved": 0, "type": "electric_scooter", "bike_id": "219692d5cc1b6014e4f59b6e1e6a55ac", "lat": 38.9170645, "lon": -77.01075683333333, "rental_uris": {"android": "https://dc.lft.to/lastmile_qr_scan", "ios": "https://dc.lft.to/lastmile_qr_scan"}, "is_disabled": 0, "fusion_lat": 0.0, "name": "219692d5cc1b6014e4f59b6e1e6a55ac", "fusion_lon": 0.0}, {"is_reserved": 0, "type": "electric_scooter", "bike_id": "3cbce05e1f8e3929b18187c72c6c92b4", "lat": 38.864484, "lon": -76.99112833333334, "rental_uris": {"android": "https://dc.lft.to/lastmile_qr_scan", "ios": "https://dc.lft.to/lastmile_qr_scan"}, "is_disabled": 0, "fusion_lat": 0.0, "name": "3cbce05e1f8e3929b18187c72c6c92b4", "fusion_lon": 0.0}, {"is_reserved": 0, "type": "electric_scooter", "bike_id": "3649e274aff9c5b90c8156ddb69ddf8d", "lat": 38.91715583333333, "lon": -77.03856716666667, "rental_uris": {"android": "https://dc.lft.to/lastmile_qr_scan", "ios": "https://dc.lft.to/lastmile_qr_scan"}, "is_disabled": 0, "fusion_lat": 0.0, "name": "3649e274aff9c5b90c8156ddb69ddf8d", "fusion_lon": 0.0}, {"is_reserved": 0, "type": "electric_scooter", "bike_id": "8e50a6c052dfb1a9b7f6c3d4f81ce842", "lat": 38.924724166666664, "lon": -77.02992733333333, "rental_uris": {"android": "https://dc.lft.to/lastmile_qr_scan", "ios": "https://dc.lft.to/lastmile_qr_scan"}, "is_disabled": 0, "fusion_lat": 0.0, "name": "8e50a6c052dfb1a9b7f6c3d4f81ce842", "fusion_lon": 0.0}, {"is_reserved": 0, "type": "electric_scooter", "bike_id": "791650f000e75bec554fcc4a0835a922", "lat": 38.9142225, "lon": -77.01806483333333, "rental_uris": {"android": "https://dc.lft.to/lastmile_qr_scan", "ios": "https://dc.lft.to/lastmile_qr_scan"}, "is_disabled": 0, "fusion_lat": 0.0, "name": "791650f000e75bec554fcc4a0835a922", "fusion_lon": 0.0}, {"is_reserved": 0, "type": "electric_bike", "bike_id": "c51d2a6de98743022b4324063f389b56", "lat": 39.094458, "lon": -77.13458066666666, "rental_uris": {"android": "https://dc.lft.to/lastmile_qr_scan", "ios": "https://dc.lft.to/lastmile_qr_scan"}, "is_disabled": 0, "fusion_lat": 0.0, "name": "c51d2a6de98743022b4324063f389b56", "fusion_lon": 0.0}, {"is_reserved": 0, "type": "electric_scooter", "bike_id": "cde188c5b227aa1dd18d0c2fe15c68d3", "lat": 38.972378, "lon": -77.027125, "rental_uris": {"android": "https://dc.lft.to/lastmile_qr_scan", "ios": "https://dc.lft.to/lastmile_qr_scan"}, "is_disabled": 0, "fusion_lat": 0.0, "name": "cde188c5b227aa1dd18d0c2fe15c68d3", "fusion_lon": 0.0}, {"is_reserved": 0, "type": "electric_scooter", "bike_id": "b6e8892f8e254b564fa3cf927bb9251e", "lat": 38.92692316666667, "lon": -77.02407333333333, "rental_uris": {"android": "https://dc.lft.to/lastmile_qr_scan", "ios": "https://dc.lft.to/lastmile_qr_scan"}, "is_disabled": 0, "fusion_lat": 0.0, "name": "b6e8892f8e254b564fa3cf927bb9251e", "fusion_lon": 0.0}, {"is_reserved": 0, "type": "electric_scooter", "bike_id": "44fcb421aece28e3ad69e06fb76e1907", "lat": 38.946093166666664, "lon": -77.03056333333333, "rental_uris": {"android": "https://dc.lft.to/lastmile_qr_scan", "ios": "https://dc.lft.to/lastmile_qr_scan"}, "is_disabled": 0, "fusion_lat": 0.0, "name": "44fcb421aece28e3ad69e06fb76e1907", "fusion_lon": 0.0}, {"is_reserved": 0, "type": "electric_scooter", "bike_id": "54a756d6390a1ca3ca1992b98b4db28a", "lat": 38.918598833333334, "lon": -76.9655095, "rental_uris": {"android": "https://dc.lft.to/lastmile_qr_scan", "ios": "https://dc.lft.to/lastmile_qr_scan"}, "is_disabled": 0, "fusion_lat": 0.0, "name": "54a756d6390a1ca3ca1992b98b4db28a", "fusion_lon": 0.0}, {"is_reserved": 0, "type": "electric_scooter", "bike_id": "8b9bc31eb5d7b21edd01868e399fc6f8", "lat": 38.949783, "lon": -77.02453566666667, "rental_uris": {"android": "https://dc.lft.to/lastmile_qr_scan", "ios": "https://dc.lft.to/lastmile_qr_scan"}, "is_disabled": 0, "fusion_lat": 0.0, "name": "8b9bc31eb5d7b21edd01868e399fc6f8", "fusion_lon": 0.0}, {"is_reserved": 0, "type": "electric_scooter", "bike_id": "908542d7647ee856e7825712640c10c4", "lat": 38.919547666666666, "lon": -77.018002, "rental_uris": {"android": "https://dc.lft.to/lastmile_qr_scan", "ios": "https://dc.lft.to/lastmile_qr_scan"}, "is_disabled": 0, "fusion_lat": 0.0, "name": "908542d7647ee856e7825712640c10c4", "fusion_lon": 0.0}, {"is_reserved": 0, "type": "electric_scooter", "bike_id": "0f8836039bad7f9d14116fe8450d3ecd", "lat": 38.89406366666667, "lon": -77.02325066666667, "rental_uris": {"android": "https://dc.lft.to/lastmile_qr_scan", "ios": "https://dc.lft.to/lastmile_qr_scan"}, "is_disabled": 0, "fusion_lat": 0.0, "name": "0f8836039bad7f9d14116fe8450d3ecd", "fusion_lon": 0.0}, {"is_reserved": 0, "type": "electric_bike", "bike_id": "442a88f89644b87f89cc581feadf9132", "lat": 39.01076366666667, "lon": -76.91062533333333, "rental_uris": {"android": "https://dc.lft.to/lastmile_qr_scan", "ios": "https://dc.lft.to/lastmile_qr_scan"}, "is_disabled": 0, "fusion_lat": 0.0, "name": "442a88f89644b87f89cc581feadf9132", "fusion_lon": 0.0}, {"is_reserved": 0, "type": "electric_scooter", "bike_id": "dc8c4036b5f32bb98a529f96b6419701", "lat": 38.914074166666666, "lon": -77.02835683333333, "rental_uris": {"android": "https://dc.lft.to/lastmile_qr_scan", "ios": "https://dc.lft.to/lastmile_qr_scan"}, "is_disabled": 0, "fusion_lat": 0.0, "name": "dc8c4036b5f32bb98a529f96b6419701", "fusion_lon": 0.0}, {"is_reserved": 0, "type": "electric_scooter", "bike_id": "a0e1f3c9455d3a11bbb0276201722111", "lat": 38.90791566666667, "lon": -77.036406, "rental_uris": {"android": "https://dc.lft.to/lastmile_qr_scan", "ios": "https://dc.lft.to/lastmile_qr_scan"}, "is_disabled": 0, "fusion_lat": 0.0, "name": "a0e1f3c9455d3a11bbb0276201722111", "fusion_lon": 0.0}, {"is_reserved": 0, "type": "electric_scooter", "bike_id": "e4b0f63c16295acbca237e30f060543d", "lat": 38.90236483333333, "lon": -77.0534315, "rental_uris": {"android": "https://dc.lft.to/lastmile_qr_scan", "ios": "https://dc.lft.to/lastmile_qr_scan"}, "is_disabled": 0, "fusion_lat": 0.0, "name": "e4b0f63c16295acbca237e30f060543d", "fusion_lon": 0.0}, {"is_reserved": 0, "type": "electric_scooter", "bike_id": "8d479d7c81c7313bc3271f4ef16a024b", "lat": 38.90832316666667, "lon": -76.9871705, "rental_uris": {"android": "https://dc.lft.to/lastmile_qr_scan", "ios": "https://dc.lft.to/lastmile_qr_scan"}, "is_disabled": 0, "fusion_lat": 0.0, "name": "8d479d7c81c7313bc3271f4ef16a024b", "fusion_lon": 0.0}, {"is_reserved": 0, "type": "electric_scooter", "bike_id": "74f3a5f8de4fd84c9266f4cfc131cbd4", "lat": 38.913020333333336, "lon": -76.984738, "rental_uris": {"android": "https://dc.lft.to/lastmile_qr_scan", "ios": "https://dc.lft.to/lastmile_qr_scan"}, "is_disabled": 0, "fusion_lat": 0.0, "name": "74f3a5f8de4fd84c9266f4cfc131cbd4", "fusion_lon": 0.0}, {"is_reserved": 0, "type": "electric_scooter", "bike_id": "e67469bb529298d10de27063bc7fc0e2", "lat": 38.901043, "lon": -77.02235733333333, "rental_uris": {"android": "https://dc.lft.to/lastmile_qr_scan", "ios": "https://dc.lft.to/lastmile_qr_scan"}, "is_disabled": 0, "fusion_lat": 0.0, "name": "e67469bb529298d10de27063bc7fc0e2", "fusion_lon": 0.0}, {"is_reserved": 0, "type": "electric_scooter", "bike_id": "15a01d4ecb1197f20c3a710fce1a9570", "lat": 38.91414966666667, "lon": -77.022115, "rental_uris": {"android": "https://dc.lft.to/lastmile_qr_scan", "ios": "https://dc.lft.to/lastmile_qr_scan"}, "is_disabled": 0, "fusion_lat": 0.0, "name": "15a01d4ecb1197f20c3a710fce1a9570", "fusion_lon": 0.0}, {"is_reserved": 0, "type": "electric_bike", "bike_id": "784f5d37045235a696a9cd4d8542ceeb", "lat": 38.93597333333334, "lon": -77.03141583333333, "rental_uris": {"android": "https://dc.lft.to/lastmile_qr_scan", "ios": "https://dc.lft.to/lastmile_qr_scan"}, "is_disabled": 0, "fusion_lat": 0.0, "name": "784f5d37045235a696a9cd4d8542ceeb", "fusion_lon": 0.0}, {"is_reserved": 0, "type": "electric_bike", "bike_id": "06922fe938864fe74d3595765fb65047", "lat": 38.882758833333334, "lon": -76.93237983333333, "rental_uris": {"android": "https://dc.lft.to/lastmile_qr_scan", "ios": "https://dc.lft.to/lastmile_qr_scan"}, "is_disabled": 0, "fusion_lat": 0.0, "name": "06922fe938864fe74d3595765fb65047", "fusion_lon": 0.0}, {"is_reserved": 0, "type": "electric_scooter", "bike_id": "5dd841fd38074c2ee189af6a731f47c7", "lat": 38.886022833333335, "lon": -77.0040685, "rental_uris": {"android": "https://dc.lft.to/lastmile_qr_scan", "ios": "https://dc.lft.to/lastmile_qr_scan"}, "is_disabled": 0, "fusion_lat": 0.0, "name": "5dd841fd38074c2ee189af6a731f47c7", "fusion_lon": 0.0}, {"is_reserved": 0, "type": "electric_scooter", "bike_id": "e62736e79f7a6a7fd64c400dc39695fe", "lat": 38.91564566666667, "lon": -77.03671733333333, "rental_uris": {"android": "https://dc.lft.to/lastmile_qr_scan", "ios": "https://dc.lft.to/lastmile_qr_scan"}, "is_disabled": 0, "fusion_lat": 0.0, "name": "e62736e79f7a6a7fd64c400dc39695fe", "fusion_lon": 0.0}, {"is_reserved": 0, "type": "electric_scooter", "bike_id": "bef85af640e361912d43e0ac14cb9bf8", "lat": 38.9006905, "lon": -76.927434, "rental_uris": {"android": "https://dc.lft.to/lastmile_qr_scan", "ios": "https://dc.lft.to/lastmile_qr_scan"}, "is_disabled": 0, "fusion_lat": 0.0, "name": "bef85af640e361912d43e0ac14cb9bf8", "fusion_lon": 0.0}, {"is_reserved": 0, "type": "electric_scooter", "bike_id": "bb3015a196b5091fe49d63b867707c75", "lat": 38.89563166666667, "lon": -77.03171333333333, "rental_uris": {"android": "https://dc.lft.to/lastmile_qr_scan", "ios": "https://dc.lft.to/lastmile_qr_scan"}, "is_disabled": 0, "fusion_lat": 0.0, "name": "bb3015a196b5091fe49d63b867707c75", "fusion_lon": 0.0}, {"is_reserved": 0, "type": "electric_scooter", "bike_id": "4871bed9289e1e380aad1045f0ae8549", "lat": 38.92967866666667, "lon": -77.02344083333334, "rental_uris": {"android": "https://dc.lft.to/lastmile_qr_scan", "ios": "https://dc.lft.to/lastmile_qr_scan"}, "is_disabled": 0, "fusion_lat": 0.0, "name": "4871bed9289e1e380aad1045f0ae8549", "fusion_lon": 0.0}, {"is_reserved": 0, "type": "electric_scooter", "bike_id": "9c9c8c6b89a7139a683ae2fc93beb8b9", "lat": 38.9256495, "lon": -76.97005783333333, "rental_uris": {"android": "https://dc.lft.to/lastmile_qr_scan", "ios": "https://dc.lft.to/lastmile_qr_scan"}, "is_disabled": 0, "fusion_lat": 0.0, "name": "9c9c8c6b89a7139a683ae2fc93beb8b9", "fusion_lon": 0.0}, {"is_reserved": 0, "type": "electric_scooter", "bike_id": "21f69df9e9f35287ece0c79396245d75", "lat": 38.90266316666667, "lon": -77.0032705, "rental_uris": {"android": "https://dc.lft.to/lastmile_qr_scan", "ios": "https://dc.lft.to/lastmile_qr_scan"}, "is_disabled": 0, "fusion_lat": 0.0, "name": "21f69df9e9f35287ece0c79396245d75", "fusion_lon": 0.0}, {"is_reserved": 0, "type": "electric_scooter", "bike_id": "5a50f864467588ce99c69df675220f27", "lat": 38.947312833333335, "lon": -77.0246225, "rental_uris": {"android": "https://dc.lft.to/lastmile_qr_scan", "ios": "https://dc.lft.to/lastmile_qr_scan"}, "is_disabled": 0, "fusion_lat": 0.0, "name": "5a50f864467588ce99c69df675220f27", "fusion_lon": 0.0}, {"is_reserved": 0, "type": "electric_scooter", "bike_id": "a23c3e908370d97a1acfc2355a3b8b57", "lat": 38.947470833333334, "lon": -77.01933266666667, "rental_uris": {"android": "https://dc.lft.to/lastmile_qr_scan", "ios": "https://dc.lft.to/lastmile_qr_scan"}, "is_disabled": 0, "fusion_lat": 0.0, "name": "a23c3e908370d97a1acfc2355a3b8b57", "fusion_lon": 0.0}, {"is_reserved": 0, "type": "electric_scooter", "bike_id": "14dca4a27ddc8e823fc4a9077ac66ad8", "lat": 38.8979895, "lon": -77.01187116666667, "rental_uris": {"android": "https://dc.lft.to/lastmile_qr_scan", "ios": "https://dc.lft.to/lastmile_qr_scan"}, "is_disabled": 0, "fusion_lat": 0.0, "name": "14dca4a27ddc8e823fc4a9077ac66ad8", "fusion_lon": 0.0}, {"is_reserved": 0, "type": "electric_scooter", "bike_id": "0c129bcf4bd4d0c1ac350d87d7cf71d3", "lat": 38.928403333333335, "lon": -77.05508383333333, "rental_uris": {"android": "https://dc.lft.to/lastmile_qr_scan", "ios": "https://dc.lft.to/lastmile_qr_scan"}, "is_disabled": 0, "fusion_lat": 0.0, "name": "0c129bcf4bd4d0c1ac350d87d7cf71d3", "fusion_lon": 0.0}, {"is_reserved": 0, "type": "electric_scooter", "bike_id": "cf84f5aa1254d2172317fb0da47a65c8", "lat": 38.90398833333333, "lon": -77.01994516666667, "rental_uris": {"android": "https://dc.lft.to/lastmile_qr_scan", "ios": "https://dc.lft.to/lastmile_qr_scan"}, "is_disabled": 0, "fusion_lat": 0.0, "name": "cf84f5aa1254d2172317fb0da47a65c8", "fusion_lon": 0.0}, {"is_reserved": 0, "type": "electric_scooter", "bike_id": "0fe57e95456241b2a902178d235f2c8e", "lat": 38.930892666666665, "lon": -77.02554533333333, "rental_uris": {"android": "https://dc.lft.to/lastmile_qr_scan", "ios": "https://dc.lft.to/lastmile_qr_scan"}, "is_disabled": 0, "fusion_lat": 0.0, "name": "0fe57e95456241b2a902178d235f2c8e", "fusion_lon": 0.0}, {"is_reserved": 0, "type": "electric_scooter", "bike_id": "822f8fe3b322412c78cf4737575b553f", "lat": 38.917329, "lon": -77.0160035, "rental_uris": {"android": "https://dc.lft.to/lastmile_qr_scan", "ios": "https://dc.lft.to/lastmile_qr_scan"}, "is_disabled": 0, "fusion_lat": 0.0, "name": "822f8fe3b322412c78cf4737575b553f", "fusion_lon": 0.0}, {"is_reserved": 0, "type": "electric_scooter", "bike_id": "bf2ed373d24b3200d5d3d112281234cd", "lat": 38.93500133333333, "lon": -77.04280483333334, "rental_uris": {"android": "https://dc.lft.to/lastmile_qr_scan", "ios": "https://dc.lft.to/lastmile_qr_scan"}, "is_disabled": 0, "fusion_lat": 0.0, "name": "bf2ed373d24b3200d5d3d112281234cd", "fusion_lon": 0.0}, {"is_reserved": 0, "type": "electric_scooter", "bike_id": "9c3af3bc8f5cc890874132066281c0f3", "lat": 38.9277245, "lon": -77.02786, "rental_uris": {"android": "https://dc.lft.to/lastmile_qr_scan", "ios": "https://dc.lft.to/lastmile_qr_scan"}, "is_disabled": 0, "fusion_lat": 0.0, "name": "9c3af3bc8f5cc890874132066281c0f3", "fusion_lon": 0.0}, {"is_reserved": 0, "type": "electric_scooter", "bike_id": "0c63ea62493b3d697127d0f63ec1dac2", "lat": 38.92390966666667, "lon": -77.05050333333334, "rental_uris": {"android": "https://dc.lft.to/lastmile_qr_scan", "ios": "https://dc.lft.to/lastmile_qr_scan"}, "is_disabled": 0, "fusion_lat": 0.0, "name": "0c63ea62493b3d697127d0f63ec1dac2", "fusion_lon": 0.0}, {"is_reserved": 0, "type": "electric_scooter", "bike_id": "450ab2c5c0b4493b94d3a103153e7ad9", "lat": 38.9238735, "lon": -77.05051866666666, "rental_uris": {"android": "https://dc.lft.to/lastmile_qr_scan", "ios": "https://dc.lft.to/lastmile_qr_scan"}, "is_disabled": 0, "fusion_lat": 0.0, "name": "450ab2c5c0b4493b94d3a103153e7ad9", "fusion_lon": 0.0}, {"is_reserved": 0, "type": "electric_scooter", "bike_id": "8e59365854e7b3339c45164ed293b842", "lat": 38.918662833333336, "lon": -77.01353866666666, "rental_uris": {"android": "https://dc.lft.to/lastmile_qr_scan", "ios": "https://dc.lft.to/lastmile_qr_scan"}, "is_disabled": 0, "fusion_lat": 0.0, "name": "8e59365854e7b3339c45164ed293b842", "fusion_lon": 0.0}, {"is_reserved": 0, "type": "electric_scooter", "bike_id": "1ba4caf068499ec0f854d00ff33fa412", "lat": 38.9386225, "lon": -77.02553516666667, "rental_uris": {"android": "https://dc.lft.to/lastmile_qr_scan", "ios": "https://dc.lft.to/lastmile_qr_scan"}, "is_disabled": 0, "fusion_lat": 0.0, "name": "1ba4caf068499ec0f854d00ff33fa412", "fusion_lon": 0.0}, {"is_reserved": 0, "type": "electric_scooter", "bike_id": "29dd3ad9acbbf040ee54b31921203d3a", "lat": 38.96648416666667, "lon": -77.00893616666667, "rental_uris": {"android": "https://dc.lft.to/lastmile_qr_scan", "ios": "https://dc.lft.to/lastmile_qr_scan"}, "is_disabled": 0, "fusion_lat": 0.0, "name": "29dd3ad9acbbf040ee54b31921203d3a", "fusion_lon": 0.0}, {"is_reserved": 0, "type": "electric_scooter", "bike_id": "81d4a7349199ec4410dd95d0aef29a32", "lat": 38.926141333333334, "lon": -77.02161233333334, "rental_uris": {"android": "https://dc.lft.to/lastmile_qr_scan", "ios": "https://dc.lft.to/lastmile_qr_scan"}, "is_disabled": 0, "fusion_lat": 0.0, "name": "81d4a7349199ec4410dd95d0aef29a32", "fusion_lon": 0.0}, {"is_reserved": 0, "type": "electric_scooter", "bike_id": "bfa141a6fc3cc6e3abc9c3caf6cde93a", "lat": 38.900107166666665, "lon": -77.0449465, "rental_uris": {"android": "https://dc.lft.to/lastmile_qr_scan", "ios": "https://dc.lft.to/lastmile_qr_scan"}, "is_disabled": 0, "fusion_lat": 0.0, "name": "bfa141a6fc3cc6e3abc9c3caf6cde93a", "fusion_lon": 0.0}, {"is_reserved": 0, "type": "electric_scooter", "bike_id": "f194b400f2e0a236fae5d3b5b2656f98", "lat": 38.90586583333334, "lon": -77.00605916666666, "rental_uris": {"android": "https://dc.lft.to/lastmile_qr_scan", "ios": "https://dc.lft.to/lastmile_qr_scan"}, "is_disabled": 0, "fusion_lat": 0.0, "name": "f194b400f2e0a236fae5d3b5b2656f98", "fusion_lon": 0.0}, {"is_reserved": 0, "type": "electric_scooter", "bike_id": "3979b905b636ee6131078c1f7be141b1", "lat": 38.92655383333334, "lon": -77.02422966666667, "rental_uris": {"android": "https://dc.lft.to/lastmile_qr_scan", "ios": "https://dc.lft.to/lastmile_qr_scan"}, "is_disabled": 0, "fusion_lat": 0.0, "name": "3979b905b636ee6131078c1f7be141b1", "fusion_lon": 0.0}, {"is_reserved": 0, "type": "electric_scooter", "bike_id": "14091a695e322986e4920140efaa7eac", "lat": 38.9524415, "lon": -77.02385883333334, "rental_uris": {"android": "https://dc.lft.to/lastmile_qr_scan", "ios": "https://dc.lft.to/lastmile_qr_scan"}, "is_disabled": 0, "fusion_lat": 0.0, "name": "14091a695e322986e4920140efaa7eac", "fusion_lon": 0.0}, {"is_reserved": 0, "type": "electric_scooter", "bike_id": "916534b50dee6d662fc92867670bd096", "lat": 38.90586783333333, "lon": -77.036349, "rental_uris": {"android": "https://dc.lft.to/lastmile_qr_scan", "ios": "https://dc.lft.to/lastmile_qr_scan"}, "is_disabled": 0, "fusion_lat": 0.0, "name": "916534b50dee6d662fc92867670bd096", "fusion_lon": 0.0}, {"is_reserved": 0, "type": "electric_bike", "bike_id": "6ad8f4e3946366a8b9f7b37fc0013707", "lat": 38.995573666666665, "lon": -77.07471566666666, "rental_uris": {"android": "https://dc.lft.to/lastmile_qr_scan", "ios": "https://dc.lft.to/lastmile_qr_scan"}, "is_disabled": 0, "fusion_lat": 0.0, "name": "6ad8f4e3946366a8b9f7b37fc0013707", "fusion_lon": 0.0}, {"is_reserved": 0, "type": "electric_scooter", "bike_id": "97a86f5d6cfb503bdfcf9d0417a67758", "lat": 38.91608133333333, "lon": -77.03727583333334, "rental_uris": {"android": "https://dc.lft.to/lastmile_qr_scan", "ios": "https://dc.lft.to/lastmile_qr_scan"}, "is_disabled": 0, "fusion_lat": 0.0, "name": "97a86f5d6cfb503bdfcf9d0417a67758", "fusion_lon": 0.0}, {"is_reserved": 0, "type": "electric_scooter", "bike_id": "be0369cd683a253cb227c5b76ab374b8", "lat": 38.8780145, "lon": -77.0175515, "rental_uris": {"android": "https://dc.lft.to/lastmile_qr_scan", "ios": "https://dc.lft.to/lastmile_qr_scan"}, "is_disabled": 0, "fusion_lat": 0.0, "name": "be0369cd683a253cb227c5b76ab374b8", "fusion_lon": 0.0}, {"is_reserved": 0, "type": "electric_scooter", "bike_id": "509b86803250e06e8e78200e09e51632", "lat": 38.93192666666667, "lon": -77.02382433333334, "rental_uris": {"android": "https://dc.lft.to/lastmile_qr_scan", "ios": "https://dc.lft.to/lastmile_qr_scan"}, "is_disabled": 0, "fusion_lat": 0.0, "name": "509b86803250e06e8e78200e09e51632", "fusion_lon": 0.0}, {"is_reserved": 0, "type": "electric_scooter", "bike_id": "cff1934192e04a1bd0ee025b65fd526a", "lat": 38.8923825, "lon": -77.013495, "rental_uris": {"android": "https://dc.lft.to/lastmile_qr_scan", "ios": "https://dc.lft.to/lastmile_qr_scan"}, "is_disabled": 0, "fusion_lat": 0.0, "name": "cff1934192e04a1bd0ee025b65fd526a", "fusion_lon": 0.0}, {"is_reserved": 0, "type": "electric_scooter", "bike_id": "23b3ff8bd0626aa0a470487e5242e153", "lat": 38.91910766666667, "lon": -77.04807383333333, "rental_uris": {"android": "https://dc.lft.to/lastmile_qr_scan", "ios": "https://dc.lft.to/lastmile_qr_scan"}, "is_disabled": 0, "fusion_lat": 0.0, "name": "23b3ff8bd0626aa0a470487e5242e153", "fusion_lon": 0.0}, {"is_reserved": 0, "type": "electric_scooter", "bike_id": "043315246ec37eaf0a413046d6260c0f", "lat": 38.91112416666667, "lon": -77.043058, "rental_uris": {"android": "https://dc.lft.to/lastmile_qr_scan", "ios": "https://dc.lft.to/lastmile_qr_scan"}, "is_disabled": 0, "fusion_lat": 0.0, "name": "043315246ec37eaf0a413046d6260c0f", "fusion_lon": 0.0}, {"is_reserved": 0, "type": "electric_scooter", "bike_id": "449444c36a59822e4ef07266bba853dd", "lat": 38.892221166666666, "lon": -77.04866683333333, "rental_uris": {"android": "https://dc.lft.to/lastmile_qr_scan", "ios": "https://dc.lft.to/lastmile_qr_scan"}, "is_disabled": 0, "fusion_lat": 0.0, "name": "449444c36a59822e4ef07266bba853dd", "fusion_lon": 0.0}, {"is_reserved": 0, "type": "electric_scooter", "bike_id": "c7302867dca84ce8a9a79bbc3e5a537e", "lat": 38.9243415, "lon": -77.000616, "rental_uris": {"android": "https://dc.lft.to/lastmile_qr_scan", "ios": "https://dc.lft.to/lastmile_qr_scan"}, "is_disabled": 0, "fusion_lat": 0.0, "name": "c7302867dca84ce8a9a79bbc3e5a537e", "fusion_lon": 0.0}, {"is_reserved": 0, "type": "electric_scooter", "bike_id": "cec3e48fd4874e65903d6deb44805886", "lat": 38.95044583333333, "lon": -77.05411283333333, "rental_uris": {"android": "https://dc.lft.to/lastmile_qr_scan", "ios": "https://dc.lft.to/lastmile_qr_scan"}, "is_disabled": 0, "fusion_lat": 0.0, "name": "cec3e48fd4874e65903d6deb44805886", "fusion_lon": 0.0}, {"is_reserved": 0, "type": "electric_bike", "bike_id": "543e2525ba0f5837c3afc2072a7d5a78", "lat": 38.94471866666667, "lon": -76.98692366666667, "rental_uris": {"android": "https://dc.lft.to/lastmile_qr_scan", "ios": "https://dc.lft.to/lastmile_qr_scan"}, "is_disabled": 0, "fusion_lat": 0.0, "name": "543e2525ba0f5837c3afc2072a7d5a78", "fusion_lon": 0.0}, {"is_reserved": 0, "type": "electric_scooter", "bike_id": "b4456696cb1e2815cae543a2fc48fff1", "lat": 38.957453666666666, "lon": -77.02101916666666, "rental_uris": {"android": "https://dc.lft.to/lastmile_qr_scan", "ios": "https://dc.lft.to/lastmile_qr_scan"}, "is_disabled": 0, "fusion_lat": 0.0, "name": "b4456696cb1e2815cae543a2fc48fff1", "fusion_lon": 0.0}, {"is_reserved": 0, "type": "electric_scooter", "bike_id": "760e04520ccee3987ba7867af74dc214", "lat": 38.923925833333335, "lon": -77.04446766666666, "rental_uris": {"android": "https://dc.lft.to/lastmile_qr_scan", "ios": "https://dc.lft.to/lastmile_qr_scan"}, "is_disabled": 0, "fusion_lat": 0.0, "name": "760e04520ccee3987ba7867af74dc214", "fusion_lon": 0.0}, {"is_reserved": 0, "type": "electric_scooter", "bike_id": "1cd54475a4503490162b00d5feaf3811", "lat": 38.8984035, "lon": -77.0307195, "rental_uris": {"android": "https://dc.lft.to/lastmile_qr_scan", "ios": "https://dc.lft.to/lastmile_qr_scan"}, "is_disabled": 0, "fusion_lat": 0.0, "name": "1cd54475a4503490162b00d5feaf3811", "fusion_lon": 0.0}, {"is_reserved": 0, "type": "electric_scooter", "bike_id": "feff0b0fc523688be34c5f6d40305819", "lat": 38.9167385, "lon": -77.0345905, "rental_uris": {"android": "https://dc.lft.to/lastmile_qr_scan", "ios": "https://dc.lft.to/lastmile_qr_scan"}, "is_disabled": 0, "fusion_lat": 0.0, "name": "feff0b0fc523688be34c5f6d40305819", "fusion_lon": 0.0}, {"is_reserved": 0, "type": "electric_scooter", "bike_id": "92a23a673494b113664c854b16609525", "lat": 38.8959335, "lon": -76.929838, "rental_uris": {"android": "https://dc.lft.to/lastmile_qr_scan", "ios": "https://dc.lft.to/lastmile_qr_scan"}, "is_disabled": 0, "fusion_lat": 0.0, "name": "92a23a673494b113664c854b16609525", "fusion_lon": 0.0}, {"is_reserved": 0, "type": "electric_scooter", "bike_id": "c21516ff1393a6dc77941b1cffd44239", "lat": 38.898172833333334, "lon": -77.0219765, "rental_uris": {"android": "https://dc.lft.to/lastmile_qr_scan", "ios": "https://dc.lft.to/lastmile_qr_scan"}, "is_disabled": 0, "fusion_lat": 0.0, "name": "c21516ff1393a6dc77941b1cffd44239", "fusion_lon": 0.0}, {"is_reserved": 0, "type": "electric_scooter", "bike_id": "94d6595a3352c21c829390fd4a071baf", "lat": 38.9700345, "lon": -77.00910733333333, "rental_uris": {"android": "https://dc.lft.to/lastmile_qr_scan", "ios": "https://dc.lft.to/lastmile_qr_scan"}, "is_disabled": 0, "fusion_lat": 0.0, "name": "94d6595a3352c21c829390fd4a071baf", "fusion_lon": 0.0}, {"is_reserved": 0, "type": "electric_scooter", "bike_id": "62fb9f79d50b38ccb73287fd1bb2483a", "lat": 38.90592483333333, "lon": -77.03217233333334, "rental_uris": {"android": "https://dc.lft.to/lastmile_qr_scan", "ios": "https://dc.lft.to/lastmile_qr_scan"}, "is_disabled": 0, "fusion_lat": 0.0, "name": "62fb9f79d50b38ccb73287fd1bb2483a", "fusion_lon": 0.0}, {"is_reserved": 0, "type": "electric_scooter", "bike_id": "be8eccacbb23e6bfede82c98da9f943f", "lat": 38.876606333333335, "lon": -77.00812533333334, "rental_uris": {"android": "https://dc.lft.to/lastmile_qr_scan", "ios": "https://dc.lft.to/lastmile_qr_scan"}, "is_disabled": 0, "fusion_lat": 0.0, "name": "be8eccacbb23e6bfede82c98da9f943f", "fusion_lon": 0.0}, {"is_reserved": 0, "type": "electric_scooter", "bike_id": "b360af8b614e724b9bd354da0220b5b5", "lat": 38.8921535, "lon": -77.02421316666667, "rental_uris": {"android": "https://dc.lft.to/lastmile_qr_scan", "ios": "https://dc.lft.to/lastmile_qr_scan"}, "is_disabled": 0, "fusion_lat": 0.0, "name": "b360af8b614e724b9bd354da0220b5b5", "fusion_lon": 0.0}, {"is_reserved": 0, "type": "electric_scooter", "bike_id": "55ac92d6a8a890c6b4d8420612aa3de9", "lat": 38.90960783333333, "lon": -77.02282433333333, "rental_uris": {"android": "https://dc.lft.to/lastmile_qr_scan", "ios": "https://dc.lft.to/lastmile_qr_scan"}, "is_disabled": 0, "fusion_lat": 0.0, "name": "55ac92d6a8a890c6b4d8420612aa3de9", "fusion_lon": 0.0}, {"is_reserved": 0, "type": "electric_scooter", "bike_id": "68e780cb912b571db3649a6c1966ff7e", "lat": 38.895195, "lon": -77.03957783333334, "rental_uris": {"android": "https://dc.lft.to/lastmile_qr_scan", "ios": "https://dc.lft.to/lastmile_qr_scan"}, "is_disabled": 0, "fusion_lat": 0.0, "name": "68e780cb912b571db3649a6c1966ff7e", "fusion_lon": 0.0}, {"is_reserved": 0, "type": "electric_scooter", "bike_id": "dfc4d65c8ba76af2da0351c0ddc2f03e", "lat": 38.934542666666665, "lon": -77.02915283333333, "rental_uris": {"android": "https://dc.lft.to/lastmile_qr_scan", "ios": "https://dc.lft.to/lastmile_qr_scan"}, "is_disabled": 0, "fusion_lat": 0.0, "name": "dfc4d65c8ba76af2da0351c0ddc2f03e", "fusion_lon": 0.0}, {"is_reserved": 0, "type": "electric_scooter", "bike_id": "ef4c93acd11d750ddbd4179612acd28a", "lat": 38.887375166666665, "lon": -77.00344933333334, "rental_uris": {"android": "https://dc.lft.to/lastmile_qr_scan", "ios": "https://dc.lft.to/lastmile_qr_scan"}, "is_disabled": 0, "fusion_lat": 0.0, "name": "ef4c93acd11d750ddbd4179612acd28a", "fusion_lon": 0.0}, {"is_reserved": 0, "type": "electric_scooter", "bike_id": "0a023b474cae7624ec3db1c2c78c48b1", "lat": 38.92353283333333, "lon": -77.035062, "rental_uris": {"android": "https://dc.lft.to/lastmile_qr_scan", "ios": "https://dc.lft.to/lastmile_qr_scan"}, "is_disabled": 0, "fusion_lat": 0.0, "name": "0a023b474cae7624ec3db1c2c78c48b1", "fusion_lon": 0.0}, {"is_reserved": 0, "type": "electric_scooter", "bike_id": "035c4123cd620d774a7aa14b6be63152", "lat": 38.87658316666667, "lon": -77.01580083333333, "rental_uris": {"android": "https://dc.lft.to/lastmile_qr_scan", "ios": "https://dc.lft.to/lastmile_qr_scan"}, "is_disabled": 0, "fusion_lat": 0.0, "name": "035c4123cd620d774a7aa14b6be63152", "fusion_lon": 0.0}, {"is_reserved": 0, "type": "electric_scooter", "bike_id": "343efdd712e68b88751c8c500ca56617", "lat": 38.89633283333333, "lon": -76.92799533333333, "rental_uris": {"android": "https://dc.lft.to/lastmile_qr_scan", "ios": "https://dc.lft.to/lastmile_qr_scan"}, "is_disabled": 0, "fusion_lat": 0.0, "name": "343efdd712e68b88751c8c500ca56617", "fusion_lon": 0.0}, {"is_reserved": 0, "type": "electric_bike", "bike_id": "027551d1de573d8780b17d7f8b56d202", "lat": 38.9426595, "lon": -76.99072616666666, "rental_uris": {"android": "https://dc.lft.to/lastmile_qr_scan", "ios": "https://dc.lft.to/lastmile_qr_scan"}, "is_disabled": 0, "fusion_lat": 0.0, "name": "027551d1de573d8780b17d7f8b56d202", "fusion_lon": 0.0}, {"is_reserved": 0, "type": "electric_scooter", "bike_id": "6b0c36cb13bb2a94b8c1de9f079a8cdb", "lat": 38.900360166666665, "lon": -76.99653383333333, "rental_uris": {"android": "https://dc.lft.to/lastmile_qr_scan", "ios": "https://dc.lft.to/lastmile_qr_scan"}, "is_disabled": 0, "fusion_lat": 0.0, "name": "6b0c36cb13bb2a94b8c1de9f079a8cdb", "fusion_lon": 0.0}, {"is_reserved": 0, "type": "electric_scooter", "bike_id": "8528dfe90bf9fa1e3739ff77c6f5b28c", "lat": 38.89470766666667, "lon": -76.997122, "rental_uris": {"android": "https://dc.lft.to/lastmile_qr_scan", "ios": "https://dc.lft.to/lastmile_qr_scan"}, "is_disabled": 0, "fusion_lat": 0.0, "name": "8528dfe90bf9fa1e3739ff77c6f5b28c", "fusion_lon": 0.0}, {"is_reserved": 0, "type": "electric_scooter", "bike_id": "7361c2f0d766586d5f56af35ba820058", "lat": 38.896887166666666, "lon": -77.04342483333333, "rental_uris": {"android": "https://dc.lft.to/lastmile_qr_scan", "ios": "https://dc.lft.to/lastmile_qr_scan"}, "is_disabled": 0, "fusion_lat": 0.0, "name": "7361c2f0d766586d5f56af35ba820058", "fusion_lon": 0.0}, {"is_reserved": 0, "type": "electric_scooter", "bike_id": "afba789c6a0c5860d04c67f3b32a4369", "lat": 38.95911983333333, "lon": -77.000179, "rental_uris": {"android": "https://dc.lft.to/lastmile_qr_scan", "ios": "https://dc.lft.to/lastmile_qr_scan"}, "is_disabled": 0, "fusion_lat": 0.0, "name": "afba789c6a0c5860d04c67f3b32a4369", "fusion_lon": 0.0}, {"is_reserved": 0, "type": "electric_scooter", "bike_id": "06c6b4c7b6a8d37d4197165eb810dec0", "lat": 38.90125, "lon": -77.0415455, "rental_uris": {"android": "https://dc.lft.to/lastmile_qr_scan", "ios": "https://dc.lft.to/lastmile_qr_scan"}, "is_disabled": 0, "fusion_lat": 0.0, "name": "06c6b4c7b6a8d37d4197165eb810dec0", "fusion_lon": 0.0}, {"is_reserved": 0, "type": "electric_scooter", "bike_id": "f9bd588d7e0a3e97b8682c4f4db1cbe0", "lat": 38.92679483333333, "lon": -77.03201683333333, "rental_uris": {"android": "https://dc.lft.to/lastmile_qr_scan", "ios": "https://dc.lft.to/lastmile_qr_scan"}, "is_disabled": 0, "fusion_lat": 0.0, "name": "f9bd588d7e0a3e97b8682c4f4db1cbe0", "fusion_lon": 0.0}, {"is_reserved": 0, "type": "electric_scooter", "bike_id": "09bdb9463136a83fb522f9883d87cffd", "lat": 38.89600733333333, "lon": -77.030132, "rental_uris": {"android": "https://dc.lft.to/lastmile_qr_scan", "ios": "https://dc.lft.to/lastmile_qr_scan"}, "is_disabled": 0, "fusion_lat": 0.0, "name": "09bdb9463136a83fb522f9883d87cffd", "fusion_lon": 0.0}, {"is_reserved": 0, "type": "electric_scooter", "bike_id": "455eebc00572c41fa6f59a2a8b5c3002", "lat": 38.94590683333333, "lon": -77.02033783333333, "rental_uris": {"android": "https://dc.lft.to/lastmile_qr_scan", "ios": "https://dc.lft.to/lastmile_qr_scan"}, "is_disabled": 0, "fusion_lat": 0.0, "name": "455eebc00572c41fa6f59a2a8b5c3002", "fusion_lon": 0.0}, {"is_reserved": 0, "type": "electric_scooter", "bike_id": "20caca390a568553ca0952f4b7fe5930", "lat": 38.92392266666667, "lon": -77.05053416666667, "rental_uris": {"android": "https://dc.lft.to/lastmile_qr_scan", "ios": "https://dc.lft.to/lastmile_qr_scan"}, "is_disabled": 0, "fusion_lat": 0.0, "name": "20caca390a568553ca0952f4b7fe5930", "fusion_lon": 0.0}, {"is_reserved": 0, "type": "electric_scooter", "bike_id": "ad87fae69dd5f5f590b02012ae0c4267", "lat": 38.88576883333333, "lon": -77.02169383333333, "rental_uris": {"android": "https://dc.lft.to/lastmile_qr_scan", "ios": "https://dc.lft.to/lastmile_qr_scan"}, "is_disabled": 0, "fusion_lat": 0.0, "name": "ad87fae69dd5f5f590b02012ae0c4267", "fusion_lon": 0.0}, {"is_reserved": 0, "type": "electric_scooter", "bike_id": "99a95471ddf4c7b24885673a42dd2320", "lat": 38.9039525, "lon": -77.06296683333333, "rental_uris": {"android": "https://dc.lft.to/lastmile_qr_scan", "ios": "https://dc.lft.to/lastmile_qr_scan"}, "is_disabled": 0, "fusion_lat": 0.0, "name": "99a95471ddf4c7b24885673a42dd2320", "fusion_lon": 0.0}, {"is_reserved": 0, "type": "electric_scooter", "bike_id": "112ec760d92788e47e5c61ccbc25676e", "lat": 38.904939166666665, "lon": -77.0259105, "rental_uris": {"android": "https://dc.lft.to/lastmile_qr_scan", "ios": "https://dc.lft.to/lastmile_qr_scan"}, "is_disabled": 0, "fusion_lat": 0.0, "name": "112ec760d92788e47e5c61ccbc25676e", "fusion_lon": 0.0}, {"is_reserved": 0, "type": "electric_scooter", "bike_id": "7287e272a7f5ea2733b7224a5d48a565", "lat": 38.936317833333334, "lon": -77.0366245, "rental_uris": {"android": "https://dc.lft.to/lastmile_qr_scan", "ios": "https://dc.lft.to/lastmile_qr_scan"}, "is_disabled": 0, "fusion_lat": 0.0, "name": "7287e272a7f5ea2733b7224a5d48a565", "fusion_lon": 0.0}, {"is_reserved": 0, "type": "electric_scooter", "bike_id": "6d39d7ae984830f79cf7ed6c9e939c03", "lat": 38.93609033333333, "lon": -77.05869116666666, "rental_uris": {"android": "https://dc.lft.to/lastmile_qr_scan", "ios": "https://dc.lft.to/lastmile_qr_scan"}, "is_disabled": 0, "fusion_lat": 0.0, "name": "6d39d7ae984830f79cf7ed6c9e939c03", "fusion_lon": 0.0}, {"is_reserved": 0, "type": "electric_scooter", "bike_id": "934487215e002c1275186df5b45c690b", "lat": 38.899795, "lon": -77.02127916666667, "rental_uris": {"android": "https://dc.lft.to/lastmile_qr_scan", "ios": "https://dc.lft.to/lastmile_qr_scan"}, "is_disabled": 0, "fusion_lat": 0.0, "name": "934487215e002c1275186df5b45c690b", "fusion_lon": 0.0}, {"is_reserved": 0, "type": "electric_scooter", "bike_id": "c3cfc879d5f687a8e52ca54a7f4a7ca7", "lat": 38.907167, "lon": -77.017459, "rental_uris": {"android": "https://dc.lft.to/lastmile_qr_scan", "ios": "https://dc.lft.to/lastmile_qr_scan"}, "is_disabled": 0, "fusion_lat": 0.0, "name": "c3cfc879d5f687a8e52ca54a7f4a7ca7", "fusion_lon": 0.0}, {"is_reserved": 0, "type": "electric_scooter", "bike_id": "3f04992e77c47de2ca4e88b487733af7", "lat": 38.896288, "lon": -77.032249, "rental_uris": {"android": "https://dc.lft.to/lastmile_qr_scan", "ios": "https://dc.lft.to/lastmile_qr_scan"}, "is_disabled": 0, "fusion_lat": 0.0, "name": "3f04992e77c47de2ca4e88b487733af7", "fusion_lon": 0.0}, {"is_reserved": 0, "type": "electric_scooter", "bike_id": "2096e23d27f95993d52d3f932bd28ede", "lat": 38.89222733333333, "lon": -77.03114, "rental_uris": {"android": "https://dc.lft.to/lastmile_qr_scan", "ios": "https://dc.lft.to/lastmile_qr_scan"}, "is_disabled": 0, "fusion_lat": 0.0, "name": "2096e23d27f95993d52d3f932bd28ede", "fusion_lon": 0.0}, {"is_reserved": 0, "type": "electric_bike", "bike_id": "3282201f8e27adc0adcd3e2017562567", "lat": 38.86451733333333, "lon": -76.98994533333334, "rental_uris": {"android": "https://dc.lft.to/lastmile_qr_scan", "ios": "https://dc.lft.to/lastmile_qr_scan"}, "is_disabled": 0, "fusion_lat": 0.0, "name": "3282201f8e27adc0adcd3e2017562567", "fusion_lon": 0.0}, {"is_reserved": 0, "type": "electric_scooter", "bike_id": "9dde57d4fce6a4297acab8e9bdb37cc2", "lat": 38.92839433333333, "lon": -77.05508583333334, "rental_uris": {"android": "https://dc.lft.to/lastmile_qr_scan", "ios": "https://dc.lft.to/lastmile_qr_scan"}, "is_disabled": 0, "fusion_lat": 0.0, "name": "9dde57d4fce6a4297acab8e9bdb37cc2", "fusion_lon": 0.0}, {"is_reserved": 0, "type": "electric_scooter", "bike_id": "4f42627430cf0695cae42ac9fb35fe27", "lat": 38.915649, "lon": -77.03670416666667, "rental_uris": {"android": "https://dc.lft.to/lastmile_qr_scan", "ios": "https://dc.lft.to/lastmile_qr_scan"}, "is_disabled": 0, "fusion_lat": 0.0, "name": "4f42627430cf0695cae42ac9fb35fe27", "fusion_lon": 0.0}, {"is_reserved": 0, "type": "electric_scooter", "bike_id": "d41fa2ccfbec415b1cd471886ee7d1dd", "lat": 38.9174075, "lon": -77.02783466666666, "rental_uris": {"android": "https://dc.lft.to/lastmile_qr_scan", "ios": "https://dc.lft.to/lastmile_qr_scan"}, "is_disabled": 0, "fusion_lat": 0.0, "name": "d41fa2ccfbec415b1cd471886ee7d1dd", "fusion_lon": 0.0}, {"is_reserved": 0, "type": "electric_scooter", "bike_id": "434d7f6d3734b6935796f5a033ef1c0d", "lat": 38.891887833333335, "lon": -76.99852133333333, "rental_uris": {"android": "https://dc.lft.to/lastmile_qr_scan", "ios": "https://dc.lft.to/lastmile_qr_scan"}, "is_disabled": 0, "fusion_lat": 0.0, "name": "434d7f6d3734b6935796f5a033ef1c0d", "fusion_lon": 0.0}, {"is_reserved": 0, "type": "electric_scooter", "bike_id": "5f961c8821b1a003084c547d09753859", "lat": 38.89909466666667, "lon": -76.93367683333334, "rental_uris": {"android": "https://dc.lft.to/lastmile_qr_scan", "ios": "https://dc.lft.to/lastmile_qr_scan"}, "is_disabled": 0, "fusion_lat": 0.0, "name": "5f961c8821b1a003084c547d09753859", "fusion_lon": 0.0}, {"is_reserved": 0, "type": "electric_scooter", "bike_id": "0651d200b7cd8ddd80c6d478cd77540b", "lat": 38.9111945, "lon": -77.03831133333334, "rental_uris": {"android": "https://dc.lft.to/lastmile_qr_scan", "ios": "https://dc.lft.to/lastmile_qr_scan"}, "is_disabled": 0, "fusion_lat": 0.0, "name": "0651d200b7cd8ddd80c6d478cd77540b", "fusion_lon": 0.0}, {"is_reserved": 0, "type": "electric_scooter", "bike_id": "5cb0306df6e58f9bda2e893546ccd58e", "lat": 38.92434316666667, "lon": -77.00320383333333, "rental_uris": {"android": "https://dc.lft.to/lastmile_qr_scan", "ios": "https://dc.lft.to/lastmile_qr_scan"}, "is_disabled": 0, "fusion_lat": 0.0, "name": "5cb0306df6e58f9bda2e893546ccd58e", "fusion_lon": 0.0}, {"is_reserved": 0, "type": "electric_scooter", "bike_id": "b20449bec4aec3c48613274acd79dc1f", "lat": 38.901778166666666, "lon": -77.04865466666666, "rental_uris": {"android": "https://dc.lft.to/lastmile_qr_scan", "ios": "https://dc.lft.to/lastmile_qr_scan"}, "is_disabled": 0, "fusion_lat": 0.0, "name": "b20449bec4aec3c48613274acd79dc1f", "fusion_lon": 0.0}, {"is_reserved": 0, "type": "electric_scooter", "bike_id": "45e0de885660630178c411400b61a5b9", "lat": 38.9283815, "lon": -77.00604816666667, "rental_uris": {"android": "https://dc.lft.to/lastmile_qr_scan", "ios": "https://dc.lft.to/lastmile_qr_scan"}, "is_disabled": 0, "fusion_lat": 0.0, "name": "45e0de885660630178c411400b61a5b9", "fusion_lon": 0.0}, {"is_reserved": 0, "type": "electric_scooter", "bike_id": "16bddfc980168d4bb4546884bc31819c", "lat": 38.884397666666665, "lon": -76.95767933333333, "rental_uris": {"android": "https://dc.lft.to/lastmile_qr_scan", "ios": "https://dc.lft.to/lastmile_qr_scan"}, "is_disabled": 0, "fusion_lat": 0.0, "name": "16bddfc980168d4bb4546884bc31819c", "fusion_lon": 0.0}, {"is_reserved": 0, "type": "electric_scooter", "bike_id": "ced54d56726f5ef654dde7721fe3225a", "lat": 38.91567033333333, "lon": -77.03090583333334, "rental_uris": {"android": "https://dc.lft.to/lastmile_qr_scan", "ios": "https://dc.lft.to/lastmile_qr_scan"}, "is_disabled": 0, "fusion_lat": 0.0, "name": "ced54d56726f5ef654dde7721fe3225a", "fusion_lon": 0.0}, {"is_reserved": 0, "type": "electric_scooter", "bike_id": "d60b2838b08f204408cb4d757d530019", "lat": 38.878495666666666, "lon": -77.00132066666667, "rental_uris": {"android": "https://dc.lft.to/lastmile_qr_scan", "ios": "https://dc.lft.to/lastmile_qr_scan"}, "is_disabled": 0, "fusion_lat": 0.0, "name": "d60b2838b08f204408cb4d757d530019", "fusion_lon": 0.0}, {"is_reserved": 0, "type": "electric_scooter", "bike_id": "a5fa8d6190105149f1dffae84a84c27b", "lat": 38.92458716666667, "lon": -77.052235, "rental_uris": {"android": "https://dc.lft.to/lastmile_qr_scan", "ios": "https://dc.lft.to/lastmile_qr_scan"}, "is_disabled": 0, "fusion_lat": 0.0, "name": "a5fa8d6190105149f1dffae84a84c27b", "fusion_lon": 0.0}, {"is_reserved": 0, "type": "electric_scooter", "bike_id": "f5c65f1b1e79354a5f4af63b77bc5009", "lat": 38.886070833333335, "lon": -76.98820866666667, "rental_uris": {"android": "https://dc.lft.to/lastmile_qr_scan", "ios": "https://dc.lft.to/lastmile_qr_scan"}, "is_disabled": 0, "fusion_lat": 0.0, "name": "f5c65f1b1e79354a5f4af63b77bc5009", "fusion_lon": 0.0}, {"is_reserved": 0, "type": "electric_scooter", "bike_id": "3686841a097dd70d3bca5512e3dd1366", "lat": 38.9260245, "lon": -77.0215395, "rental_uris": {"android": "https://dc.lft.to/lastmile_qr_scan", "ios": "https://dc.lft.to/lastmile_qr_scan"}, "is_disabled": 0, "fusion_lat": 0.0, "name": "3686841a097dd70d3bca5512e3dd1366", "fusion_lon": 0.0}, {"is_reserved": 0, "type": "electric_scooter", "bike_id": "b42ae796a6c4d1115ae92cb52e99effd", "lat": 38.914035166666665, "lon": -77.02208716666667, "rental_uris": {"android": "https://dc.lft.to/lastmile_qr_scan", "ios": "https://dc.lft.to/lastmile_qr_scan"}, "is_disabled": 0, "fusion_lat": 0.0, "name": "b42ae796a6c4d1115ae92cb52e99effd", "fusion_lon": 0.0}, {"is_reserved": 0, "type": "electric_scooter", "bike_id": "8962b5cd6163a6e7dac79258f71cd5b2", "lat": 38.90572316666667, "lon": -77.0072365, "rental_uris": {"android": "https://dc.lft.to/lastmile_qr_scan", "ios": "https://dc.lft.to/lastmile_qr_scan"}, "is_disabled": 0, "fusion_lat": 0.0, "name": "8962b5cd6163a6e7dac79258f71cd5b2", "fusion_lon": 0.0}, {"is_reserved": 0, "type": "electric_scooter", "bike_id": "ad0d06deac095120a612eb69f940a1e4", "lat": 38.8622035, "lon": -76.979095, "rental_uris": {"android": "https://dc.lft.to/lastmile_qr_scan", "ios": "https://dc.lft.to/lastmile_qr_scan"}, "is_disabled": 0, "fusion_lat": 0.0, "name": "ad0d06deac095120a612eb69f940a1e4", "fusion_lon": 0.0}, {"is_reserved": 0, "type": "electric_scooter", "bike_id": "a918380e79a5e9e2bb3766605d119264", "lat": 38.896012166666665, "lon": -77.0440675, "rental_uris": {"android": "https://dc.lft.to/lastmile_qr_scan", "ios": "https://dc.lft.to/lastmile_qr_scan"}, "is_disabled": 0, "fusion_lat": 0.0, "name": "a918380e79a5e9e2bb3766605d119264", "fusion_lon": 0.0}, {"is_reserved": 0, "type": "electric_scooter", "bike_id": "9eafad955a84870cbd361243e0bdfcc9", "lat": 38.89713033333334, "lon": -77.022825, "rental_uris": {"android": "https://dc.lft.to/lastmile_qr_scan", "ios": "https://dc.lft.to/lastmile_qr_scan"}, "is_disabled": 0, "fusion_lat": 0.0, "name": "9eafad955a84870cbd361243e0bdfcc9", "fusion_lon": 0.0}, {"is_reserved": 0, "type": "electric_scooter", "bike_id": "91422bd43f2c7468c24baec106dbb0fc", "lat": 38.9192725, "lon": -77.0349055, "rental_uris": {"android": "https://dc.lft.to/lastmile_qr_scan", "ios": "https://dc.lft.to/lastmile_qr_scan"}, "is_disabled": 0, "fusion_lat": 0.0, "name": "91422bd43f2c7468c24baec106dbb0fc", "fusion_lon": 0.0}, {"is_reserved": 0, "type": "electric_scooter", "bike_id": "d88d0a65799a5da6d1cdd1bb4ac0b611", "lat": 38.88270333333333, "lon": -77.003568, "rental_uris": {"android": "https://dc.lft.to/lastmile_qr_scan", "ios": "https://dc.lft.to/lastmile_qr_scan"}, "is_disabled": 0, "fusion_lat": 0.0, "name": "d88d0a65799a5da6d1cdd1bb4ac0b611", "fusion_lon": 0.0}, {"is_reserved": 0, "type": "electric_scooter", "bike_id": "ce61273c5490188441e0006225ccb611", "lat": 38.91798033333333, "lon": -77.03432766666667, "rental_uris": {"android": "https://dc.lft.to/lastmile_qr_scan", "ios": "https://dc.lft.to/lastmile_qr_scan"}, "is_disabled": 0, "fusion_lat": 0.0, "name": "ce61273c5490188441e0006225ccb611", "fusion_lon": 0.0}, {"is_reserved": 0, "type": "electric_scooter", "bike_id": "394cd58af28e512c6c01a63bcb98f517", "lat": 38.89919883333334, "lon": -76.97831533333333, "rental_uris": {"android": "https://dc.lft.to/lastmile_qr_scan", "ios": "https://dc.lft.to/lastmile_qr_scan"}, "is_disabled": 0, "fusion_lat": 0.0, "name": "394cd58af28e512c6c01a63bcb98f517", "fusion_lon": 0.0}, {"is_reserved": 0, "type": "electric_scooter", "bike_id": "c7a2dbcb7d80557e4f713d412e480176", "lat": 38.90155516666667, "lon": -77.02875766666666, "rental_uris": {"android": "https://dc.lft.to/lastmile_qr_scan", "ios": "https://dc.lft.to/lastmile_qr_scan"}, "is_disabled": 0, "fusion_lat": 0.0, "name": "c7a2dbcb7d80557e4f713d412e480176", "fusion_lon": 0.0}, {"is_reserved": 0, "type": "electric_scooter", "bike_id": "244c3281421ef7d2833157c275c96279", "lat": 38.937031, "lon": -77.02121, "rental_uris": {"android": "https://dc.lft.to/lastmile_qr_scan", "ios": "https://dc.lft.to/lastmile_qr_scan"}, "is_disabled": 0, "fusion_lat": 0.0, "name": "244c3281421ef7d2833157c275c96279", "fusion_lon": 0.0}, {"is_reserved": 0, "type": "electric_scooter", "bike_id": "6d1116c04814b677d7cc2a6d73569c71", "lat": 38.89537283333333, "lon": -77.03016816666667, "rental_uris": {"android": "https://dc.lft.to/lastmile_qr_scan", "ios": "https://dc.lft.to/lastmile_qr_scan"}, "is_disabled": 0, "fusion_lat": 0.0, "name": "6d1116c04814b677d7cc2a6d73569c71", "fusion_lon": 0.0}, {"is_reserved": 0, "type": "electric_scooter", "bike_id": "d9c7f27a9b3085cfb3b9efcbf8fbc247", "lat": 38.9233015, "lon": -77.04307133333333, "rental_uris": {"android": "https://dc.lft.to/lastmile_qr_scan", "ios": "https://dc.lft.to/lastmile_qr_scan"}, "is_disabled": 0, "fusion_lat": 0.0, "name": "d9c7f27a9b3085cfb3b9efcbf8fbc247", "fusion_lon": 0.0}, {"is_reserved": 0, "type": "electric_scooter", "bike_id": "b5867eee22128a50a660fafe20056b6b", "lat": 38.92361566666666, "lon": -77.05026916666667, "rental_uris": {"android": "https://dc.lft.to/lastmile_qr_scan", "ios": "https://dc.lft.to/lastmile_qr_scan"}, "is_disabled": 0, "fusion_lat": 0.0, "name": "b5867eee22128a50a660fafe20056b6b", "fusion_lon": 0.0}, {"is_reserved": 0, "type": "electric_scooter", "bike_id": "b8d898ee699ae539ab97dc6c152b43f2", "lat": 38.9027105, "lon": -77.03141666666667, "rental_uris": {"android": "https://dc.lft.to/lastmile_qr_scan", "ios": "https://dc.lft.to/lastmile_qr_scan"}, "is_disabled": 0, "fusion_lat": 0.0, "name": "b8d898ee699ae539ab97dc6c152b43f2", "fusion_lon": 0.0}, {"is_reserved": 0, "type": "electric_scooter", "bike_id": "c0c3e860c1e77de3b19633abe7de1502", "lat": 38.893441833333334, "lon": -76.993818, "rental_uris": {"android": "https://dc.lft.to/lastmile_qr_scan", "ios": "https://dc.lft.to/lastmile_qr_scan"}, "is_disabled": 0, "fusion_lat": 0.0, "name": "c0c3e860c1e77de3b19633abe7de1502", "fusion_lon": 0.0}, {"is_reserved": 0, "type": "electric_scooter", "bike_id": "1d7204112f623725cad97eb48eb598ed", "lat": 38.91880483333333, "lon": -77.027117, "rental_uris": {"android": "https://dc.lft.to/lastmile_qr_scan", "ios": "https://dc.lft.to/lastmile_qr_scan"}, "is_disabled": 0, "fusion_lat": 0.0, "name": "1d7204112f623725cad97eb48eb598ed", "fusion_lon": 0.0}, {"is_reserved": 0, "type": "electric_scooter", "bike_id": "2114e54575ae3c6de7c9e7be424447d7", "lat": 38.91091766666667, "lon": -76.98473133333333, "rental_uris": {"android": "https://dc.lft.to/lastmile_qr_scan", "ios": "https://dc.lft.to/lastmile_qr_scan"}, "is_disabled": 0, "fusion_lat": 0.0, "name": "2114e54575ae3c6de7c9e7be424447d7", "fusion_lon": 0.0}, {"is_reserved": 0, "type": "electric_scooter", "bike_id": "ac3e36671d5fcc3510b7963e21222ba1", "lat": 38.92171066666667, "lon": -77.04133833333333, "rental_uris": {"android": "https://dc.lft.to/lastmile_qr_scan", "ios": "https://dc.lft.to/lastmile_qr_scan"}, "is_disabled": 0, "fusion_lat": 0.0, "name": "ac3e36671d5fcc3510b7963e21222ba1", "fusion_lon": 0.0}, {"is_reserved": 0, "type": "electric_scooter", "bike_id": "ae8d57c751895ae9d5b3453bc650a861", "lat": 38.899849, "lon": -77.02940683333334, "rental_uris": {"android": "https://dc.lft.to/lastmile_qr_scan", "ios": "https://dc.lft.to/lastmile_qr_scan"}, "is_disabled": 0, "fusion_lat": 0.0, "name": "ae8d57c751895ae9d5b3453bc650a861", "fusion_lon": 0.0}, {"is_reserved": 0, "type": "electric_scooter", "bike_id": "5e1e01f0c244f0347ef6f0bf20268c54", "lat": 38.887341, "lon": -77.026181, "rental_uris": {"android": "https://dc.lft.to/lastmile_qr_scan", "ios": "https://dc.lft.to/lastmile_qr_scan"}, "is_disabled": 0, "fusion_lat": 0.0, "name": "5e1e01f0c244f0347ef6f0bf20268c54", "fusion_lon": 0.0}, {"is_reserved": 0, "type": "electric_scooter", "bike_id": "4a7053707e3d6dfdbbc1bbd0fc525849", "lat": 38.9232535, "lon": -77.02966983333333, "rental_uris": {"android": "https://dc.lft.to/lastmile_qr_scan", "ios": "https://dc.lft.to/lastmile_qr_scan"}, "is_disabled": 0, "fusion_lat": 0.0, "name": "4a7053707e3d6dfdbbc1bbd0fc525849", "fusion_lon": 0.0}, {"is_reserved": 0, "type": "electric_scooter", "bike_id": "52c7d99d36e7486a9519e9d80343c1b1", "lat": 38.915806, "lon": -76.983918, "rental_uris": {"android": "https://dc.lft.to/lastmile_qr_scan", "ios": "https://dc.lft.to/lastmile_qr_scan"}, "is_disabled": 0, "fusion_lat": 0.0, "name": "52c7d99d36e7486a9519e9d80343c1b1", "fusion_lon": 0.0}, {"is_reserved": 0, "type": "electric_scooter", "bike_id": "7c5487d0b11af2804b2436b0a7d37198", "lat": 38.91682733333333, "lon": -77.02819716666667, "rental_uris": {"android": "https://dc.lft.to/lastmile_qr_scan", "ios": "https://dc.lft.to/lastmile_qr_scan"}, "is_disabled": 0, "fusion_lat": 0.0, "name": "7c5487d0b11af2804b2436b0a7d37198", "fusion_lon": 0.0}, {"is_reserved": 0, "type": "electric_scooter", "bike_id": "55ac78880ea3cd5f97b0f5983206060f", "lat": 38.949227, "lon": -77.02696883333333, "rental_uris": {"android": "https://dc.lft.to/lastmile_qr_scan", "ios": "https://dc.lft.to/lastmile_qr_scan"}, "is_disabled": 0, "fusion_lat": 0.0, "name": "55ac78880ea3cd5f97b0f5983206060f", "fusion_lon": 0.0}, {"is_reserved": 0, "type": "electric_scooter", "bike_id": "c5cb47c4405406a03bc732b8d445f3c2", "lat": 38.902689333333335, "lon": -77.00327133333333, "rental_uris": {"android": "https://dc.lft.to/lastmile_qr_scan", "ios": "https://dc.lft.to/lastmile_qr_scan"}, "is_disabled": 0, "fusion_lat": 0.0, "name": "c5cb47c4405406a03bc732b8d445f3c2", "fusion_lon": 0.0}, {"is_reserved": 0, "type": "electric_scooter", "bike_id": "d7ff8e00987b49df10013780540abe87", "lat": 38.927615, "lon": -77.03274333333333, "rental_uris": {"android": "https://dc.lft.to/lastmile_qr_scan", "ios": "https://dc.lft.to/lastmile_qr_scan"}, "is_disabled": 0, "fusion_lat": 0.0, "name": "d7ff8e00987b49df10013780540abe87", "fusion_lon": 0.0}, {"is_reserved": 0, "type": "electric_scooter", "bike_id": "75b3fc5e10697454efc79ba77843e888", "lat": 38.9164785, "lon": -77.0217925, "rental_uris": {"android": "https://dc.lft.to/lastmile_qr_scan", "ios": "https://dc.lft.to/lastmile_qr_scan"}, "is_disabled": 0, "fusion_lat": 0.0, "name": "75b3fc5e10697454efc79ba77843e888", "fusion_lon": 0.0}, {"is_reserved": 0, "type": "electric_scooter", "bike_id": "215edc2bbc20ab4729b214f168169905", "lat": 38.898857166666666, "lon": -76.93178633333333, "rental_uris": {"android": "https://dc.lft.to/lastmile_qr_scan", "ios": "https://dc.lft.to/lastmile_qr_scan"}, "is_disabled": 0, "fusion_lat": 0.0, "name": "215edc2bbc20ab4729b214f168169905", "fusion_lon": 0.0}, {"is_reserved": 0, "type": "electric_scooter", "bike_id": "09d401decccaf40cd6acc5a43afceb66", "lat": 38.91799983333333, "lon": -77.03180433333333, "rental_uris": {"android": "https://dc.lft.to/lastmile_qr_scan", "ios": "https://dc.lft.to/lastmile_qr_scan"}, "is_disabled": 0, "fusion_lat": 0.0, "name": "09d401decccaf40cd6acc5a43afceb66", "fusion_lon": 0.0}, {"is_reserved": 0, "type": "electric_scooter", "bike_id": "4bcc9449c5a64c39ed73c750ec3306ef", "lat": 38.923200666666666, "lon": -77.02915033333333, "rental_uris": {"android": "https://dc.lft.to/lastmile_qr_scan", "ios": "https://dc.lft.to/lastmile_qr_scan"}, "is_disabled": 0, "fusion_lat": 0.0, "name": "4bcc9449c5a64c39ed73c750ec3306ef", "fusion_lon": 0.0}, {"is_reserved": 0, "type": "electric_scooter", "bike_id": "0255ec8cbdf7e4a9eb40a161245952f0", "lat": 38.904497666666664, "lon": -77.0586215, "rental_uris": {"android": "https://dc.lft.to/lastmile_qr_scan", "ios": "https://dc.lft.to/lastmile_qr_scan"}, "is_disabled": 0, "fusion_lat": 0.0, "name": "0255ec8cbdf7e4a9eb40a161245952f0", "fusion_lon": 0.0}, {"is_reserved": 0, "type": "electric_scooter", "bike_id": "17d6b51a4d092389c6fdeaecd01cb538", "lat": 38.940088833333334, "lon": -77.027296, "rental_uris": {"android": "https://dc.lft.to/lastmile_qr_scan", "ios": "https://dc.lft.to/lastmile_qr_scan"}, "is_disabled": 0, "fusion_lat": 0.0, "name": "17d6b51a4d092389c6fdeaecd01cb538", "fusion_lon": 0.0}, {"is_reserved": 0, "type": "electric_scooter", "bike_id": "5709245048b068341e9df6b08141e237", "lat": 38.920533666666664, "lon": -76.99884533333334, "rental_uris": {"android": "https://dc.lft.to/lastmile_qr_scan", "ios": "https://dc.lft.to/lastmile_qr_scan"}, "is_disabled": 0, "fusion_lat": 0.0, "name": "5709245048b068341e9df6b08141e237", "fusion_lon": 0.0}, {"is_reserved": 0, "type": "electric_scooter", "bike_id": "affabb4f2812e3946528646f3c802606", "lat": 38.975184, "lon": -77.01743316666666, "rental_uris": {"android": "https://dc.lft.to/lastmile_qr_scan", "ios": "https://dc.lft.to/lastmile_qr_scan"}, "is_disabled": 0, "fusion_lat": 0.0, "name": "affabb4f2812e3946528646f3c802606", "fusion_lon": 0.0}, {"is_reserved": 0, "type": "electric_scooter", "bike_id": "b14ec584409233310a3650adb8248159", "lat": 38.903488, "lon": -76.98615933333333, "rental_uris": {"android": "https://dc.lft.to/lastmile_qr_scan", "ios": "https://dc.lft.to/lastmile_qr_scan"}, "is_disabled": 0, "fusion_lat": 0.0, "name": "b14ec584409233310a3650adb8248159", "fusion_lon": 0.0}, {"is_reserved": 0, "type": "electric_scooter", "bike_id": "566c14fefa2aff25d8268b08ef3a72de", "lat": 38.901252666666664, "lon": -76.991013, "rental_uris": {"android": "https://dc.lft.to/lastmile_qr_scan", "ios": "https://dc.lft.to/lastmile_qr_scan"}, "is_disabled": 0, "fusion_lat": 0.0, "name": "566c14fefa2aff25d8268b08ef3a72de", "fusion_lon": 0.0}, {"is_reserved": 0, "type": "electric_scooter", "bike_id": "ba023fc62cdf2cc20723f4a327ba0c7f", "lat": 38.914185833333335, "lon": -77.01803316666667, "rental_uris": {"android": "https://dc.lft.to/lastmile_qr_scan", "ios": "https://dc.lft.to/lastmile_qr_scan"}, "is_disabled": 0, "fusion_lat": 0.0, "name": "ba023fc62cdf2cc20723f4a327ba0c7f", "fusion_lon": 0.0}, {"is_reserved": 0, "type": "electric_scooter", "bike_id": "3e7432f12b29a6ee122342afe4a4cee0", "lat": 38.9407575, "lon": -77.06147933333334, "rental_uris": {"android": "https://dc.lft.to/lastmile_qr_scan", "ios": "https://dc.lft.to/lastmile_qr_scan"}, "is_disabled": 0, "fusion_lat": 0.0, "name": "3e7432f12b29a6ee122342afe4a4cee0", "fusion_lon": 0.0}, {"is_reserved": 0, "type": "electric_scooter", "bike_id": "b3c76999928eb32144a49ad56edf78e1", "lat": 38.902618333333336, "lon": -77.01773933333334, "rental_uris": {"android": "https://dc.lft.to/lastmile_qr_scan", "ios": "https://dc.lft.to/lastmile_qr_scan"}, "is_disabled": 0, "fusion_lat": 0.0, "name": "b3c76999928eb32144a49ad56edf78e1", "fusion_lon": 0.0}, {"is_reserved": 0, "type": "electric_scooter", "bike_id": "e0126f869e61728e9e84cd67fa87b458", "lat": 38.916549, "lon": -77.02304333333333, "rental_uris": {"android": "https://dc.lft.to/lastmile_qr_scan", "ios": "https://dc.lft.to/lastmile_qr_scan"}, "is_disabled": 0, "fusion_lat": 0.0, "name": "e0126f869e61728e9e84cd67fa87b458", "fusion_lon": 0.0}, {"is_reserved": 0, "type": "electric_scooter", "bike_id": "e5e2cc26626bf04e12a2b95ee0d5ac8f", "lat": 38.91276583333333, "lon": -77.01225283333333, "rental_uris": {"android": "https://dc.lft.to/lastmile_qr_scan", "ios": "https://dc.lft.to/lastmile_qr_scan"}, "is_disabled": 0, "fusion_lat": 0.0, "name": "e5e2cc26626bf04e12a2b95ee0d5ac8f", "fusion_lon": 0.0}, {"is_reserved": 0, "type": "electric_scooter", "bike_id": "3fa66d723225f434bb6130d4d57a6846", "lat": 38.927992333333336, "lon": -77.0253635, "rental_uris": {"android": "https://dc.lft.to/lastmile_qr_scan", "ios": "https://dc.lft.to/lastmile_qr_scan"}, "is_disabled": 0, "fusion_lat": 0.0, "name": "3fa66d723225f434bb6130d4d57a6846", "fusion_lon": 0.0}, {"is_reserved": 0, "type": "electric_scooter", "bike_id": "cf7a486d3f66a03686e4953038e7f370", "lat": 38.930738833333336, "lon": -77.02816966666667, "rental_uris": {"android": "https://dc.lft.to/lastmile_qr_scan", "ios": "https://dc.lft.to/lastmile_qr_scan"}, "is_disabled": 0, "fusion_lat": 0.0, "name": "cf7a486d3f66a03686e4953038e7f370", "fusion_lon": 0.0}, {"is_reserved": 0, "type": "electric_bike", "bike_id": "cf25bec5d23b98efdd999383fda15523", "lat": 38.88390016666666, "lon": -76.954489, "rental_uris": {"android": "https://dc.lft.to/lastmile_qr_scan", "ios": "https://dc.lft.to/lastmile_qr_scan"}, "is_disabled": 0, "fusion_lat": 0.0, "name": "cf25bec5d23b98efdd999383fda15523", "fusion_lon": 0.0}, {"is_reserved": 0, "type": "electric_scooter", "bike_id": "a2ed16bdea877ecb1ecdb339e8a8dca5", "lat": 38.9048545, "lon": -77.0416145, "rental_uris": {"android": "https://dc.lft.to/lastmile_qr_scan", "ios": "https://dc.lft.to/lastmile_qr_scan"}, "is_disabled": 0, "fusion_lat": 0.0, "name": "a2ed16bdea877ecb1ecdb339e8a8dca5", "fusion_lon": 0.0}, {"is_reserved": 0, "type": "electric_scooter", "bike_id": "35571df2fdaffef7df7bd25363f0554c", "lat": 38.905152, "lon": -77.02589333333333, "rental_uris": {"android": "https://dc.lft.to/lastmile_qr_scan", "ios": "https://dc.lft.to/lastmile_qr_scan"}, "is_disabled": 0, "fusion_lat": 0.0, "name": "35571df2fdaffef7df7bd25363f0554c", "fusion_lon": 0.0}, {"is_reserved": 0, "type": "electric_scooter", "bike_id": "ae456c8f11b24d7b000d625df1fba577", "lat": 38.91839316666667, "lon": -77.02302733333333, "rental_uris": {"android": "https://dc.lft.to/lastmile_qr_scan", "ios": "https://dc.lft.to/lastmile_qr_scan"}, "is_disabled": 0, "fusion_lat": 0.0, "name": "ae456c8f11b24d7b000d625df1fba577", "fusion_lon": 0.0}, {"is_reserved": 0, "type": "electric_bike", "bike_id": "fde1cd936ea3849a38bba687874b17d3", "lat": 38.83232666666667, "lon": -76.94617183333334, "rental_uris": {"android": "https://dc.lft.to/lastmile_qr_scan", "ios": "https://dc.lft.to/lastmile_qr_scan"}, "is_disabled": 0, "fusion_lat": 0.0, "name": "fde1cd936ea3849a38bba687874b17d3", "fusion_lon": 0.0}, {"is_reserved": 0, "type": "electric_scooter", "bike_id": "598ac261b7fc09ea3d0000789f9993f3", "lat": 38.94491816666667, "lon": -77.00735416666667, "rental_uris": {"android": "https://dc.lft.to/lastmile_qr_scan", "ios": "https://dc.lft.to/lastmile_qr_scan"}, "is_disabled": 0, "fusion_lat": 0.0, "name": "598ac261b7fc09ea3d0000789f9993f3", "fusion_lon": 0.0}, {"is_reserved": 0, "type": "electric_scooter", "bike_id": "ee402691ef3b3aaceb92390562184773", "lat": 38.8876525, "lon": -77.000495, "rental_uris": {"android": "https://dc.lft.to/lastmile_qr_scan", "ios": "https://dc.lft.to/lastmile_qr_scan"}, "is_disabled": 0, "fusion_lat": 0.0, "name": "ee402691ef3b3aaceb92390562184773", "fusion_lon": 0.0}, {"is_reserved": 0, "type": "electric_bike", "bike_id": "135b62a13afed8d0c5970d07bac8ba4d", "lat": 38.94495166666667, "lon": -77.00681766666666, "rental_uris": {"android": "https://dc.lft.to/lastmile_qr_scan", "ios": "https://dc.lft.to/lastmile_qr_scan"}, "is_disabled": 0, "fusion_lat": 0.0, "name": "135b62a13afed8d0c5970d07bac8ba4d", "fusion_lon": 0.0}, {"is_reserved": 0, "type": "electric_scooter", "bike_id": "934f335e47e34cd68216052be7f6746e", "lat": 38.9271955, "lon": -77.02083216666666, "rental_uris": {"android": "https://dc.lft.to/lastmile_qr_scan", "ios": "https://dc.lft.to/lastmile_qr_scan"}, "is_disabled": 0, "fusion_lat": 0.0, "name": "934f335e47e34cd68216052be7f6746e", "fusion_lon": 0.0}, {"is_reserved": 0, "type": "electric_bike", "bike_id": "6cac82cc9ba719c37e429adf2723797f", "lat": 38.823416333333334, "lon": -77.05826133333333, "rental_uris": {"android": "https://dc.lft.to/lastmile_qr_scan", "ios": "https://dc.lft.to/lastmile_qr_scan"}, "is_disabled": 0, "fusion_lat": 0.0, "name": "6cac82cc9ba719c37e429adf2723797f", "fusion_lon": 0.0}, {"is_reserved": 0, "type": "electric_scooter", "bike_id": "7e505cad7841ade339dc3ae4ef9e98ba", "lat": 38.93363816666667, "lon": -77.02421433333333, "rental_uris": {"android": "https://dc.lft.to/lastmile_qr_scan", "ios": "https://dc.lft.to/lastmile_qr_scan"}, "is_disabled": 0, "fusion_lat": 0.0, "name": "7e505cad7841ade339dc3ae4ef9e98ba", "fusion_lon": 0.0}, {"is_reserved": 0, "type": "electric_scooter", "bike_id": "ac505b90e341a5cbb143b8f1c89f345b", "lat": 38.89345333333333, "lon": -77.01165133333333, "rental_uris": {"android": "https://dc.lft.to/lastmile_qr_scan", "ios": "https://dc.lft.to/lastmile_qr_scan"}, "is_disabled": 0, "fusion_lat": 0.0, "name": "ac505b90e341a5cbb143b8f1c89f345b", "fusion_lon": 0.0}, {"is_reserved": 0, "type": "electric_scooter", "bike_id": "e1bf179c59a67d23d8489e9f29f99ac7", "lat": 38.92356766666666, "lon": -76.9994885, "rental_uris": {"android": "https://dc.lft.to/lastmile_qr_scan", "ios": "https://dc.lft.to/lastmile_qr_scan"}, "is_disabled": 0, "fusion_lat": 0.0, "name": "e1bf179c59a67d23d8489e9f29f99ac7", "fusion_lon": 0.0}, {"is_reserved": 0, "type": "electric_scooter", "bike_id": "a866275f5850a618d0c7b9c620fade3b", "lat": 38.9169125, "lon": -77.03161533333333, "rental_uris": {"android": "https://dc.lft.to/lastmile_qr_scan", "ios": "https://dc.lft.to/lastmile_qr_scan"}, "is_disabled": 0, "fusion_lat": 0.0, "name": "a866275f5850a618d0c7b9c620fade3b", "fusion_lon": 0.0}, {"is_reserved": 0, "type": "electric_scooter", "bike_id": "df4a1dc321187b8f8014c145b5fb7d33", "lat": 38.89970616666667, "lon": -77.0316235, "rental_uris": {"android": "https://dc.lft.to/lastmile_qr_scan", "ios": "https://dc.lft.to/lastmile_qr_scan"}, "is_disabled": 0, "fusion_lat": 0.0, "name": "df4a1dc321187b8f8014c145b5fb7d33", "fusion_lon": 0.0}, {"is_reserved": 0, "type": "electric_scooter", "bike_id": "72c03e0a0c8b0cc869dee56359bb8d4d", "lat": 38.92461016666667, "lon": -77.00891066666667, "rental_uris": {"android": "https://dc.lft.to/lastmile_qr_scan", "ios": "https://dc.lft.to/lastmile_qr_scan"}, "is_disabled": 0, "fusion_lat": 0.0, "name": "72c03e0a0c8b0cc869dee56359bb8d4d", "fusion_lon": 0.0}, {"is_reserved": 0, "type": "electric_scooter", "bike_id": "28b99eb2043353a4bc32ae66fc748b44", "lat": 38.906685333333336, "lon": -77.075028, "rental_uris": {"android": "https://dc.lft.to/lastmile_qr_scan", "ios": "https://dc.lft.to/lastmile_qr_scan"}, "is_disabled": 0, "fusion_lat": 0.0, "name": "28b99eb2043353a4bc32ae66fc748b44", "fusion_lon": 0.0}, {"is_reserved": 0, "type": "electric_scooter", "bike_id": "a2d604db56ee5758bdc1641f25905bc9", "lat": 38.916581666666666, "lon": -77.0223475, "rental_uris": {"android": "https://dc.lft.to/lastmile_qr_scan", "ios": "https://dc.lft.to/lastmile_qr_scan"}, "is_disabled": 0, "fusion_lat": 0.0, "name": "a2d604db56ee5758bdc1641f25905bc9", "fusion_lon": 0.0}, {"is_reserved": 0, "type": "electric_scooter", "bike_id": "5ab6bb5406e3a63eaeda8db4e9bcd68e", "lat": 38.892257, "lon": -77.04162916666667, "rental_uris": {"android": "https://dc.lft.to/lastmile_qr_scan", "ios": "https://dc.lft.to/lastmile_qr_scan"}, "is_disabled": 0, "fusion_lat": 0.0, "name": "5ab6bb5406e3a63eaeda8db4e9bcd68e", "fusion_lon": 0.0}, {"is_reserved": 0, "type": "electric_scooter", "bike_id": "0cdcd9270f3933d7c3e0044928c011fc", "lat": 38.9418765, "lon": -77.02345233333334, "rental_uris": {"android": "https://dc.lft.to/lastmile_qr_scan", "ios": "https://dc.lft.to/lastmile_qr_scan"}, "is_disabled": 0, "fusion_lat": 0.0, "name": "0cdcd9270f3933d7c3e0044928c011fc", "fusion_lon": 0.0}, {"is_reserved": 0, "type": "electric_bike", "bike_id": "3be8145cf3c75b756877b5edb387a147", "lat": 38.862840166666665, "lon": -76.98010583333334, "rental_uris": {"android": "https://dc.lft.to/lastmile_qr_scan", "ios": "https://dc.lft.to/lastmile_qr_scan"}, "is_disabled": 0, "fusion_lat": 0.0, "name": "3be8145cf3c75b756877b5edb387a147", "fusion_lon": 0.0}, {"is_reserved": 0, "type": "electric_bike", "bike_id": "3dd07eca1a4c4709b0092d625a063cd6", "lat": 38.92112133333333, "lon": -76.98879183333334, "rental_uris": {"android": "https://dc.lft.to/lastmile_qr_scan", "ios": "https://dc.lft.to/lastmile_qr_scan"}, "is_disabled": 0, "fusion_lat": 0.0, "name": "3dd07eca1a4c4709b0092d625a063cd6", "fusion_lon": 0.0}, {"is_reserved": 0, "type": "electric_scooter", "bike_id": "2496f6a741611e063370af73f36a3826", "lat": 38.92444916666667, "lon": -76.99668766666667, "rental_uris": {"android": "https://dc.lft.to/lastmile_qr_scan", "ios": "https://dc.lft.to/lastmile_qr_scan"}, "is_disabled": 0, "fusion_lat": 0.0, "name": "2496f6a741611e063370af73f36a3826", "fusion_lon": 0.0}, {"is_reserved": 0, "type": "electric_scooter", "bike_id": "c40f77ee954aaf17afa256ee05466584", "lat": 38.90787016666667, "lon": -77.001955, "rental_uris": {"android": "https://dc.lft.to/lastmile_qr_scan", "ios": "https://dc.lft.to/lastmile_qr_scan"}, "is_disabled": 0, "fusion_lat": 0.0, "name": "c40f77ee954aaf17afa256ee05466584", "fusion_lon": 0.0}, {"is_reserved": 0, "type": "electric_bike", "bike_id": "a7c61ade312a0d60548f7d1e69458c95", "lat": 39.01092116666667, "lon": -77.049557, "rental_uris": {"android": "https://dc.lft.to/lastmile_qr_scan", "ios": "https://dc.lft.to/lastmile_qr_scan"}, "is_disabled": 0, "fusion_lat": 0.0, "name": "a7c61ade312a0d60548f7d1e69458c95", "fusion_lon": 0.0}, {"is_reserved": 0, "type": "electric_scooter", "bike_id": "733194a5da3efc4be50f6b5ffa8be177", "lat": 38.918191666666665, "lon": -77.0121655, "rental_uris": {"android": "https://dc.lft.to/lastmile_qr_scan", "ios": "https://dc.lft.to/lastmile_qr_scan"}, "is_disabled": 0, "fusion_lat": 0.0, "name": "733194a5da3efc4be50f6b5ffa8be177", "fusion_lon": 0.0}, {"is_reserved": 0, "type": "electric_scooter", "bike_id": "0e2ad05db1cecbe17b7b20b5ee267e69", "lat": 38.907307, "lon": -77.011037, "rental_uris": {"android": "https://dc.lft.to/lastmile_qr_scan", "ios": "https://dc.lft.to/lastmile_qr_scan"}, "is_disabled": 0, "fusion_lat": 0.0, "name": "0e2ad05db1cecbe17b7b20b5ee267e69", "fusion_lon": 0.0}, {"is_reserved": 0, "type": "electric_bike", "bike_id": "dd330ed2e52b9ac34455064b61f7b345", "lat": 39.000058333333335, "lon": -76.918027, "rental_uris": {"android": "https://dc.lft.to/lastmile_qr_scan", "ios": "https://dc.lft.to/lastmile_qr_scan"}, "is_disabled": 0, "fusion_lat": 0.0, "name": "dd330ed2e52b9ac34455064b61f7b345", "fusion_lon": 0.0}, {"is_reserved": 0, "type": "electric_scooter", "bike_id": "fd190603d3b89ee53c620901d659db4a", "lat": 38.91799816666666, "lon": -77.03199133333334, "rental_uris": {"android": "https://dc.lft.to/lastmile_qr_scan", "ios": "https://dc.lft.to/lastmile_qr_scan"}, "is_disabled": 0, "fusion_lat": 0.0, "name": "fd190603d3b89ee53c620901d659db4a", "fusion_lon": 0.0}, {"is_reserved": 0, "type": "electric_scooter", "bike_id": "e70e171774df3bb3d66a164411d121e9", "lat": 38.925419, "lon": -77.0383885, "rental_uris": {"android": "https://dc.lft.to/lastmile_qr_scan", "ios": "https://dc.lft.to/lastmile_qr_scan"}, "is_disabled": 0, "fusion_lat": 0.0, "name": "e70e171774df3bb3d66a164411d121e9", "fusion_lon": 0.0}, {"is_reserved": 0, "type": "electric_scooter", "bike_id": "87cd8f17527a96675e29060f3b73181b", "lat": 38.936380666666665, "lon": -77.0367505, "rental_uris": {"android": "https://dc.lft.to/lastmile_qr_scan", "ios": "https://dc.lft.to/lastmile_qr_scan"}, "is_disabled": 0, "fusion_lat": 0.0, "name": "87cd8f17527a96675e29060f3b73181b", "fusion_lon": 0.0}, {"is_reserved": 0, "type": "electric_scooter", "bike_id": "59d87b5d81535cd717d7ce121e221e5d", "lat": 38.916943, "lon": -77.03159916666667, "rental_uris": {"android": "https://dc.lft.to/lastmile_qr_scan", "ios": "https://dc.lft.to/lastmile_qr_scan"}, "is_disabled": 0, "fusion_lat": 0.0, "name": "59d87b5d81535cd717d7ce121e221e5d", "fusion_lon": 0.0}, {"is_reserved": 0, "type": "electric_scooter", "bike_id": "d5160d02a09770422e256686112b9947", "lat": 38.938621833333336, "lon": -77.02703666666666, "rental_uris": {"android": "https://dc.lft.to/lastmile_qr_scan", "ios": "https://dc.lft.to/lastmile_qr_scan"}, "is_disabled": 0, "fusion_lat": 0.0, "name": "d5160d02a09770422e256686112b9947", "fusion_lon": 0.0}, {"is_reserved": 0, "type": "electric_scooter", "bike_id": "9b2c58c94e427bcd8f03924b72e53f3b", "lat": 38.92383783333333, "lon": -77.019156, "rental_uris": {"android": "https://dc.lft.to/lastmile_qr_scan", "ios": "https://dc.lft.to/lastmile_qr_scan"}, "is_disabled": 0, "fusion_lat": 0.0, "name": "9b2c58c94e427bcd8f03924b72e53f3b", "fusion_lon": 0.0}, {"is_reserved": 0, "type": "electric_scooter", "bike_id": "65e45066f4655571fb5d9dacd99fa297", "lat": 38.898191, "lon": -77.0489115, "rental_uris": {"android": "https://dc.lft.to/lastmile_qr_scan", "ios": "https://dc.lft.to/lastmile_qr_scan"}, "is_disabled": 0, "fusion_lat": 0.0, "name": "65e45066f4655571fb5d9dacd99fa297", "fusion_lon": 0.0}, {"is_reserved": 0, "type": "electric_scooter", "bike_id": "7656e21502193d968d2cbcead61e3a31", "lat": 38.90524516666667, "lon": -76.9840575, "rental_uris": {"android": "https://dc.lft.to/lastmile_qr_scan", "ios": "https://dc.lft.to/lastmile_qr_scan"}, "is_disabled": 0, "fusion_lat": 0.0, "name": "7656e21502193d968d2cbcead61e3a31", "fusion_lon": 0.0}, {"is_reserved": 0, "type": "electric_scooter", "bike_id": "a235d677f28ef8b4e32bc0d5dea01cbc", "lat": 38.91222466666667, "lon": -76.98705733333334, "rental_uris": {"android": "https://dc.lft.to/lastmile_qr_scan", "ios": "https://dc.lft.to/lastmile_qr_scan"}, "is_disabled": 0, "fusion_lat": 0.0, "name": "a235d677f28ef8b4e32bc0d5dea01cbc", "fusion_lon": 0.0}, {"is_reserved": 0, "type": "electric_scooter", "bike_id": "f509dc8cbdc626e6733ab802cbbb609b", "lat": 38.915661, "lon": -77.03134983333334, "rental_uris": {"android": "https://dc.lft.to/lastmile_qr_scan", "ios": "https://dc.lft.to/lastmile_qr_scan"}, "is_disabled": 0, "fusion_lat": 0.0, "name": "f509dc8cbdc626e6733ab802cbbb609b", "fusion_lon": 0.0}, {"is_reserved": 0, "type": "electric_scooter", "bike_id": "744cb78b96315340f7729553b8a9c5c4", "lat": 38.908720333333335, "lon": -77.067632, "rental_uris": {"android": "https://dc.lft.to/lastmile_qr_scan", "ios": "https://dc.lft.to/lastmile_qr_scan"}, "is_disabled": 0, "fusion_lat": 0.0, "name": "744cb78b96315340f7729553b8a9c5c4", "fusion_lon": 0.0}, {"is_reserved": 0, "type": "electric_scooter", "bike_id": "636a98fa9b5d8d162f395c8c402807fa", "lat": 38.899590833333335, "lon": -77.04477983333334, "rental_uris": {"android": "https://dc.lft.to/lastmile_qr_scan", "ios": "https://dc.lft.to/lastmile_qr_scan"}, "is_disabled": 0, "fusion_lat": 0.0, "name": "636a98fa9b5d8d162f395c8c402807fa", "fusion_lon": 0.0}, {"is_reserved": 0, "type": "electric_scooter", "bike_id": "897c30fc6c326770dde54dd0a4ee06aa", "lat": 38.91918916666667, "lon": -77.02512483333334, "rental_uris": {"android": "https://dc.lft.to/lastmile_qr_scan", "ios": "https://dc.lft.to/lastmile_qr_scan"}, "is_disabled": 0, "fusion_lat": 0.0, "name": "897c30fc6c326770dde54dd0a4ee06aa", "fusion_lon": 0.0}, {"is_reserved": 0, "type": "electric_scooter", "bike_id": "7f809c6a3edaea954c2f2ed7b176d2f0", "lat": 38.92077283333333, "lon": -77.03561483333333, "rental_uris": {"android": "https://dc.lft.to/lastmile_qr_scan", "ios": "https://dc.lft.to/lastmile_qr_scan"}, "is_disabled": 0, "fusion_lat": 0.0, "name": "7f809c6a3edaea954c2f2ed7b176d2f0", "fusion_lon": 0.0}, {"is_reserved": 0, "type": "electric_scooter", "bike_id": "1b3c249b1198e46386ef2f9cc84e923e", "lat": 38.90391366666667, "lon": -77.03842066666667, "rental_uris": {"android": "https://dc.lft.to/lastmile_qr_scan", "ios": "https://dc.lft.to/lastmile_qr_scan"}, "is_disabled": 0, "fusion_lat": 0.0, "name": "1b3c249b1198e46386ef2f9cc84e923e", "fusion_lon": 0.0}, {"is_reserved": 0, "type": "electric_scooter", "bike_id": "413e835e65292f29c0d7b05ac4c111ce", "lat": 38.91596, "lon": -77.04479283333333, "rental_uris": {"android": "https://dc.lft.to/lastmile_qr_scan", "ios": "https://dc.lft.to/lastmile_qr_scan"}, "is_disabled": 0, "fusion_lat": 0.0, "name": "413e835e65292f29c0d7b05ac4c111ce", "fusion_lon": 0.0}, {"is_reserved": 0, "type": "electric_scooter", "bike_id": "608364e72ff80932b28f4abb544c30d0", "lat": 38.92034733333333, "lon": -77.01736066666666, "rental_uris": {"android": "https://dc.lft.to/lastmile_qr_scan", "ios": "https://dc.lft.to/lastmile_qr_scan"}, "is_disabled": 0, "fusion_lat": 0.0, "name": "608364e72ff80932b28f4abb544c30d0", "fusion_lon": 0.0},