{"data": {"bikes": [{"fusion_lat": 0.0, "name": "c6a9eb103c450e41cd33ecfaf1094046", "is_disabled": 0, "rental_uris": {"android": "https://dc.lft.to/lastmile_qr_scan", "ios": "https://dc.lft.to/lastmile_qr_scan"}, "fusion_lon": 0.0, "lat": 38.92985983333333, "bike_id": "c6a9eb103c450e41cd33ecfaf1094046", "type": "electric_scooter", "is_reserved": 0, "lon": -77.0550245}, {"fusion_lat": 0.0, "name": "570d17bdb7b1a060f7d8e273efcc97f0", "is_disabled": 0, "rental_uris": {"android": "https://dc.lft.to/lastmile_qr_scan", "ios": "https://dc.lft.to/lastmile_qr_scan"}, "fusion_lon": 0.0, "lat": 38.88181383333333, "bike_id": "570d17bdb7b1a060f7d8e273efcc97f0", "type": "electric_scooter", "is_reserved": 0, "lon": -77.02806866666667}, {"fusion_lat": 0.0, "name": "2781f62470ed6d6cd83b86d4cb12f649", "is_disabled": 0, "rental_uris": {"android": "https://dc.lft.to/lastmile_qr_scan", "ios": "https://dc.lft.to/lastmile_qr_scan"}, "fusion_lon": 0.0, "lat": 38.91413466666667, "bike_id": "2781f62470ed6d6cd83b86d4cb12f649", "type": "electric_scooter", "is_reserved": 0, "lon": -77.0317575}, {"fusion_lat": 0.0, "name": "ac6dca6eecbc582f5eb8e50619fa6dfd", "is_disabled": 0, "rental_uris": {"android": "https://dc.lft.to/lastmile_qr_scan", "ios": "https://dc.lft.to/lastmile_qr_scan"}, "fusion_lon": 0.0, "lat": 38.879703166666665, "bike_id": "ac6dca6eecbc582f5eb8e50619fa6dfd", "type": "electric_bike", "is_reserved": 0, "lon": -76.9161245}, {"fusion_lat": 0.0, "name": "669b8b6c9d7a2a272c2835ae463103e0", "is_disabled": 0, "rental_uris": {"android": "https://dc.lft.to/lastmile_qr_scan", "ios": "https://dc.lft.to/lastmile_qr_scan"}, "fusion_lon": 0.0, "lat": 38.91326383333333, "bike_id": "669b8b6c9d7a2a272c2835ae463103e0", "type": "electric_scooter", "is_reserved": 0, "lon": -77.02140683333333}, {"fusion_lat": 0.0, "name": "689183d851e34d0b6957e76b8949fc6d", "is_disabled": 0, "rental_uris": {"android": "https://dc.lft.to/lastmile_qr_scan", "ios": "https://dc.lft.to/lastmile_qr_scan"}, "fusion_lon": 0.0, "lat": 38.91564666666667, "bike_id": "689183d851e34d0b6957e76b8949fc6d", "type": "electric_scooter", "is_reserved": 0, "lon": -77.03148566666667}, {"fusion_lat": 0.0, "name": "5ac59d049001b8aa404447782b17a9ad", "is_disabled": 0, "rental_uris": {"android": "https://dc.lft.to/lastmile_qr_scan", "ios": "https://dc.lft.to/lastmile_qr_scan"}, "fusion_lon": 0.0, "lat": 38.919495, "bike_id": "5ac59d049001b8aa404447782b17a9ad", "type": "electric_scooter", "is_reserved": 0, "lon": -77.02490416666667}, {"fusion_lat": 0.0, "name": "0122b6150347cc11cba81eb85a523152", "is_disabled": 0, "rental_uris": {"android": "https://dc.lft.to/lastmile_qr_scan", "ios": "https://dc.lft.to/lastmile_qr_scan"}, "fusion_lon": 0.0, "lat": 38.924148333333335, "bike_id": "0122b6150347cc11cba81eb85a523152", "type": "electric_scooter", "is_reserved": 0, "lon": -77.0196005}, {"fusion_lat": 0.0, "name": "b48c25b6dcebeca5e8d39b26b5008e81", "is_disabled": 0, "rental_uris": {"android": "https://dc.lft.to/lastmile_qr_scan", "ios": "https://dc.lft.to/lastmile_qr_scan"}, "fusion_lon": 0.0, "lat": 38.900111333333335, "bike_id": "b48c25b6dcebeca5e8d39b26b5008e81", "type": "electric_scooter", "is_reserved": 0, "lon": -76.98813933333334}, {"fusion_lat": 0.0, "name": "5223cb52c563d42218dcff14c7c7c221", "is_disabled": 0, "rental_uris": {"android": "https://dc.lft.to/lastmile_qr_scan", "ios": "https://dc.lft.to/lastmile_qr_scan"}, "fusion_lon": 0.0, "lat": 38.921145333333335, "bike_id": "5223cb52c563d42218dcff14c7c7c221", "type": "electric_scooter", "is_reserved": 0, "lon": -77.04384483333334}, {"fusion_lat": 0.0, "name": "da22a1f8cd843f50e8245e4a66524a04", "is_disabled": 0, "rental_uris": {"android": "https://dc.lft.to/lastmile_qr_scan", "ios": "https://dc.lft.to/lastmile_qr_scan"}, "fusion_lon": 0.0, "lat": 38.90426, "bike_id": "da22a1f8cd843f50e8245e4a66524a04", "type": "electric_scooter", "is_reserved": 0, "lon": -76.949744}, {"fusion_lat": 0.0, "name": "b49fb5e08444b4b80b53725816f737ff", "is_disabled": 0, "rental_uris": {"android": "https://dc.lft.to/lastmile_qr_scan", "ios": "https://dc.lft.to/lastmile_qr_scan"}, "fusion_lon": 0.0, "lat": 38.88523983333333, "bike_id": "b49fb5e08444b4b80b53725816f737ff", "type": "electric_scooter", "is_reserved": 0, "lon": -77.01505983333334}, {"fusion_lat": 0.0, "name": "762fb843a62dada19c442e18cb86de63", "is_disabled": 0, "rental_uris": {"android": "https://dc.lft.to/lastmile_qr_scan", "ios": "https://dc.lft.to/lastmile_qr_scan"}, "fusion_lon": 0.0, "lat": 38.92047133333333, "bike_id": "762fb843a62dada19c442e18cb86de63", "type": "electric_scooter", "is_reserved": 0, "lon": -77.033944}, {"fusion_lat": 0.0, "name": "a59c405ffa829e92c8022647be0b5369", "is_disabled": 0, "rental_uris": {"android": "https://dc.lft.to/lastmile_qr_scan", "ios": "https://dc.lft.to/lastmile_qr_scan"}, "fusion_lon": 0.0, "lat": 38.913983333333334, "bike_id": "a59c405ffa829e92c8022647be0b5369", "type": "electric_scooter", "is_reserved": 0, "lon": -77.03182266666667}, {"fusion_lat": 0.0, "name": "cd01b5a659fa0b9c685892f294612ad8", "is_disabled": 0, "rental_uris": {"android": "https://dc.lft.to/lastmile_qr_scan", "ios": "https://dc.lft.to/lastmile_qr_scan"}, "fusion_lon": 0.0, "lat": 38.898654, "bike_id": "cd01b5a659fa0b9c685892f294612ad8", "type": "electric_scooter", "is_reserved": 0, "lon": -77.01876283333333}, {"fusion_lat": 0.0, "name": "c4976ecc1fa2eae1c2ac2446fb845ef7", "is_disabled": 0, "rental_uris": {"android": "https://dc.lft.to/lastmile_qr_scan", "ios": "https://dc.lft.to/lastmile_qr_scan"}, "fusion_lon": 0.0, "lat": 38.896049833333336, "bike_id": "c4976ecc1fa2eae1c2ac2446fb845ef7", "type": "electric_scooter", "is_reserved": 0, "lon": -77.032361}, {"fusion_lat": 0.0, "name": "357c84a3471cb4014ca5e112261ac9a0", "is_disabled": 0, "rental_uris": {"android": "https://dc.lft.to/lastmile_qr_scan", "ios": "https://dc.lft.to/lastmile_qr_scan"}, "fusion_lon": 0.0, "lat": 38.90248716666667, "bike_id": "357c84a3471cb4014ca5e112261ac9a0", "type": "electric_scooter", "is_reserved": 0, "lon": -77.00196383333333}, {"fusion_lat": 0.0, "name": "560c7a1d020a68c9e04c4fc8894dff01", "is_disabled": 0, "rental_uris": {"android": "https://dc.lft.to/lastmile_qr_scan", "ios": "https://dc.lft.to/lastmile_qr_scan"}, "fusion_lon": 0.0, "lat": 38.903959666666665, "bike_id": "560c7a1d020a68c9e04c4fc8894dff01", "type": "electric_scooter", "is_reserved": 0, "lon": -77.04887016666666}, {"fusion_lat": 0.0, "name": "ba433d53b42b903225ff6c02b828030e", "is_disabled": 0, "rental_uris": {"android": "https://dc.lft.to/lastmile_qr_scan", "ios": "https://dc.lft.to/lastmile_qr_scan"}, "fusion_lon": 0.0, "lat": 38.90979683333333, "bike_id": "ba433d53b42b903225ff6c02b828030e", "type": "electric_scooter", "is_reserved": 0, "lon": -77.033849}, {"fusion_lat": 0.0, "name": "5e555f7f66d18f3af40a847f78e1ac11", "is_disabled": 0, "rental_uris": {"android": "https://dc.lft.to/lastmile_qr_scan", "ios": "https://dc.lft.to/lastmile_qr_scan"}, "fusion_lon": 0.0, "lat": 38.91716433333333, "bike_id": "5e555f7f66d18f3af40a847f78e1ac11", "type": "electric_scooter", "is_reserved": 0, "lon": -77.032521}, {"fusion_lat": 0.0, "name": "78892adfface18b984995e9b8d80a48f", "is_disabled": 0, "rental_uris": {"android": "https://dc.lft.to/lastmile_qr_scan", "ios": "https://dc.lft.to/lastmile_qr_scan"}, "fusion_lon": 0.0, "lat": 38.9239995, "bike_id": "78892adfface18b984995e9b8d80a48f", "type": "electric_scooter", "is_reserved": 0, "lon": -77.04297033333333}, {"fusion_lat": 0.0, "name": "8ed0387c7c32b8e32df731737ea10a7f", "is_disabled": 0, "rental_uris": {"android": "https://dc.lft.to/lastmile_qr_scan", "ios": "https://dc.lft.to/lastmile_qr_scan"}, "fusion_lon": 0.0, "lat": 38.9249195, "bike_id": "8ed0387c7c32b8e32df731737ea10a7f", "type": "electric_scooter", "is_reserved": 0, "lon": -77.0575575}, {"fusion_lat": 0.0, "name": "efdee091c3970f1d6667f86691241a92", "is_disabled": 0, "rental_uris": {"android": "https://dc.lft.to/lastmile_qr_scan", "ios": "https://dc.lft.to/lastmile_qr_scan"}, "fusion_lon": 0.0, "lat": 38.8782095, "bike_id": "efdee091c3970f1d6667f86691241a92", "type": "electric_scooter", "is_reserved": 0, "lon": -76.99016333333333}, {"fusion_lat": 0.0, "name": "a558c81b39ae16534efc229fdb586ec8", "is_disabled": 0, "rental_uris": {"android": "https://dc.lft.to/lastmile_qr_scan", "ios": "https://dc.lft.to/lastmile_qr_scan"}, "fusion_lon": 0.0, "lat": 38.838533166666664, "bike_id": "a558c81b39ae16534efc229fdb586ec8", "type": "electric_scooter", "is_reserved": 0, "lon": -76.997044}, {"fusion_lat": 0.0, "name": "6288be4dab8b747427f43aa2521b84c1", "is_disabled": 0, "rental_uris": {"android": "https://dc.lft.to/lastmile_qr_scan", "ios": "https://dc.lft.to/lastmile_qr_scan"}, "fusion_lon": 0.0, "lat": 38.929983666666665, "bike_id": "6288be4dab8b747427f43aa2521b84c1", "type": "electric_scooter", "is_reserved": 0, "lon": -77.03798433333333}, {"fusion_lat": 0.0, "name": "1c238f839dceaccd9fabdb6b13ce648f", "is_disabled": 0, "rental_uris": {"android": "https://dc.lft.to/lastmile_qr_scan", "ios": "https://dc.lft.to/lastmile_qr_scan"}, "fusion_lon": 0.0, "lat": 38.920825666666666, "bike_id": "1c238f839dceaccd9fabdb6b13ce648f", "type": "electric_scooter", "is_reserved": 0, "lon": -77.02305266666667}, {"fusion_lat": 0.0, "name": "014f9ea4f55e0dc98decc36b3bb35268", "is_disabled": 0, "rental_uris": {"android": "https://dc.lft.to/lastmile_qr_scan", "ios": "https://dc.lft.to/lastmile_qr_scan"}, "fusion_lon": 0.0, "lat": 38.898861833333335, "bike_id": "014f9ea4f55e0dc98decc36b3bb35268", "type": "electric_scooter", "is_reserved": 0, "lon": -77.0282115}, {"fusion_lat": 0.0, "name": "035a750b6ce556b76d311b4f465af5ed", "is_disabled": 0, "rental_uris": {"android": "https://dc.lft.to/lastmile_qr_scan", "ios": "https://dc.lft.to/lastmile_qr_scan"}, "fusion_lon": 0.0, "lat": 38.928796166666665, "bike_id": "035a750b6ce556b76d311b4f465af5ed", "type": "electric_scooter", "is_reserved": 0, "lon": -77.03247283333333}, {"fusion_lat": 0.0, "name": "4b736cbfdc2e17200c2f2f5a5e672942", "is_disabled": 0, "rental_uris": {"android": "https://dc.lft.to/lastmile_qr_scan", "ios": "https://dc.lft.to/lastmile_qr_scan"}, "fusion_lon": 0.0, "lat": 38.916926833333335, "bike_id": "4b736cbfdc2e17200c2f2f5a5e672942", "type": "electric_scooter", "is_reserved": 0, "lon": -77.02517333333333}, {"fusion_lat": 0.0, "name": "24b103332e7ae5edb8441f3a86386bf3", "is_disabled": 0, "rental_uris": {"android": "https://dc.lft.to/lastmile_qr_scan", "ios": "https://dc.lft.to/lastmile_qr_scan"}, "fusion_lon": 0.0, "lat": 38.93324833333333, "bike_id": "24b103332e7ae5edb8441f3a86386bf3", "type": "electric_scooter", "is_reserved": 0, "lon": -77.0326615}, {"fusion_lat": 0.0, "name": "8b430ba6311614cc7a535c4f61267729", "is_disabled": 0, "rental_uris": {"android": "https://dc.lft.to/lastmile_qr_scan", "ios": "https://dc.lft.to/lastmile_qr_scan"}, "fusion_lon": 0.0, "lat": 38.915660833333334, "bike_id": "8b430ba6311614cc7a535c4f61267729", "type": "electric_scooter", "is_reserved": 0, "lon": -77.03150866666667}, {"fusion_lat": 0.0, "name": "22583493589dd8673f9a9df7bb33566d", "is_disabled": 0, "rental_uris": {"android": "https://dc.lft.to/lastmile_qr_scan", "ios": "https://dc.lft.to/lastmile_qr_scan"}, "fusion_lon": 0.0, "lat": 38.9206765, "bike_id": "22583493589dd8673f9a9df7bb33566d", "type": "electric_scooter", "is_reserved": 0, "lon": -77.04381566666666}, {"fusion_lat": 0.0, "name": "73285389a8bdbe4207f221e9ef621b0e", "is_disabled": 0, "rental_uris": {"android": "https://dc.lft.to/lastmile_qr_scan", "ios": "https://dc.lft.to/lastmile_qr_scan"}, "fusion_lon": 0.0, "lat": 38.9207865, "bike_id": "73285389a8bdbe4207f221e9ef621b0e", "type": "electric_scooter", "is_reserved": 0, "lon": -77.024032}, {"fusion_lat": 0.0, "name": "a88714335dba696a61106d6572d7e938", "is_disabled": 0, "rental_uris": {"android": "https://dc.lft.to/lastmile_qr_scan", "ios": "https://dc.lft.to/lastmile_qr_scan"}, "fusion_lon": 0.0, "lat": 38.883904333333334, "bike_id": "a88714335dba696a61106d6572d7e938", "type": "electric_scooter", "is_reserved": 0, "lon": -77.03042516666666}, {"fusion_lat": 0.0, "name": "2ff6143d99266ff3661a3d84befe4dbb", "is_disabled": 0, "rental_uris": {"android": "https://dc.lft.to/lastmile_qr_scan", "ios": "https://dc.lft.to/lastmile_qr_scan"}, "fusion_lon": 0.0, "lat": 38.931997833333334, "bike_id": "2ff6143d99266ff3661a3d84befe4dbb", "type": "electric_scooter", "is_reserved": 0, "lon": -77.02507316666667}, {"fusion_lat": 0.0, "name": "420c3d9254595cd65e7242f363259bc6", "is_disabled": 0, "rental_uris": {"android": "https://dc.lft.to/lastmile_qr_scan", "ios": "https://dc.lft.to/lastmile_qr_scan"}, "fusion_lon": 0.0, "lat": 39.0418245, "bike_id": "420c3d9254595cd65e7242f363259bc6", "type": "electric_bike", "is_reserved": 0, "lon": -77.0524095}, {"fusion_lat": 0.0, "name": "85762ba614dce0dd688324ba816afe53", "is_disabled": 0, "rental_uris": {"android": "https://dc.lft.to/lastmile_qr_scan", "ios": "https://dc.lft.to/lastmile_qr_scan"}, "fusion_lon": 0.0, "lat": 38.92323866666667, "bike_id": "85762ba614dce0dd688324ba816afe53", "type": "electric_scooter", "is_reserved": 0, "lon": -77.02967933333333}, {"fusion_lat": 0.0, "name": "53c2958c6d8f3479aa90e905545ccd50", "is_disabled": 0, "rental_uris": {"android": "https://dc.lft.to/lastmile_qr_scan", "ios": "https://dc.lft.to/lastmile_qr_scan"}, "fusion_lon": 0.0, "lat": 38.853143333333335, "bike_id": "53c2958c6d8f3479aa90e905545ccd50", "type": "electric_bike", "is_reserved": 0, "lon": -77.04604466666666}, {"fusion_lat": 0.0, "name": "0af13b7a9714a1437282f891f2ed4054", "is_disabled": 0, "rental_uris": {"android": "https://dc.lft.to/lastmile_qr_scan", "ios": "https://dc.lft.to/lastmile_qr_scan"}, "fusion_lon": 0.0, "lat": 38.92951816666667, "bike_id": "0af13b7a9714a1437282f891f2ed4054", "type": "electric_scooter", "is_reserved": 0, "lon": -77.03471966666666}, {"fusion_lat": 0.0, "name": "ee404d77ef700d4368af5d05a8f4049e", "is_disabled": 0, "rental_uris": {"android": "https://dc.lft.to/lastmile_qr_scan", "ios": "https://dc.lft.to/lastmile_qr_scan"}, "fusion_lon": 0.0, "lat": 38.8974535, "bike_id": "ee404d77ef700d4368af5d05a8f4049e", "type": "electric_scooter", "is_reserved": 0, "lon": -77.0435005}, {"fusion_lat": 0.0, "name": "010ffdc026dc4c670a2f50a67997b7ab", "is_disabled": 0, "rental_uris": {"android": "https://dc.lft.to/lastmile_qr_scan", "ios": "https://dc.lft.to/lastmile_qr_scan"}, "fusion_lon": 0.0, "lat": 38.928287, "bike_id": "010ffdc026dc4c670a2f50a67997b7ab", "type": "electric_scooter", "is_reserved": 0, "lon": -77.03263466666667}, {"fusion_lat": 0.0, "name": "d2e3dab07202ee2b8f3fb41dd1ece4ff", "is_disabled": 0, "rental_uris": {"android": "https://dc.lft.to/lastmile_qr_scan", "ios": "https://dc.lft.to/lastmile_qr_scan"}, "fusion_lon": 0.0, "lat": 38.906398333333335, "bike_id": "d2e3dab07202ee2b8f3fb41dd1ece4ff", "type": "electric_scooter", "is_reserved": 0, "lon": -77.03148316666666}, {"fusion_lat": 0.0, "name": "203f7e6b77368b4241b4ede2f9991f77", "is_disabled": 0, "rental_uris": {"android": "https://dc.lft.to/lastmile_qr_scan", "ios": "https://dc.lft.to/lastmile_qr_scan"}, "fusion_lon": 0.0, "lat": 38.92400633333333, "bike_id": "203f7e6b77368b4241b4ede2f9991f77", "type": "electric_scooter", "is_reserved": 0, "lon": -77.042941}, {"fusion_lat": 0.0, "name": "029e33b8063ee61994dffaed60d11cb2", "is_disabled": 0, "rental_uris": {"android": "https://dc.lft.to/lastmile_qr_scan", "ios": "https://dc.lft.to/lastmile_qr_scan"}, "fusion_lon": 0.0, "lat": 38.917119, "bike_id": "029e33b8063ee61994dffaed60d11cb2", "type": "electric_scooter", "is_reserved": 0, "lon": -77.03675916666667}, {"fusion_lat": 0.0, "name": "e3fbc328c8d03c84d0e6237e989943f5", "is_disabled": 0, "rental_uris": {"android": "https://dc.lft.to/lastmile_qr_scan", "ios": "https://dc.lft.to/lastmile_qr_scan"}, "fusion_lon": 0.0, "lat": 38.842851333333336, "bike_id": "e3fbc328c8d03c84d0e6237e989943f5", "type": "electric_bike", "is_reserved": 0, "lon": -77.04500366666667}, {"fusion_lat": 0.0, "name": "88c77b8004958919d8a371241857274f", "is_disabled": 0, "rental_uris": {"android": "https://dc.lft.to/lastmile_qr_scan", "ios": "https://dc.lft.to/lastmile_qr_scan"}, "fusion_lon": 0.0, "lat": 38.8866285, "bike_id": "88c77b8004958919d8a371241857274f", "type": "electric_bike", "is_reserved": 0, "lon": -77.16230183333333}, {"fusion_lat": 0.0, "name": "07ea37bd010bb2fcd0ad32e5430f3199", "is_disabled": 0, "rental_uris": {"android": "https://dc.lft.to/lastmile_qr_scan", "ios": "https://dc.lft.to/lastmile_qr_scan"}, "fusion_lon": 0.0, "lat": 38.91692883333333, "bike_id": "07ea37bd010bb2fcd0ad32e5430f3199", "type": "electric_scooter", "is_reserved": 0, "lon": -77.0376435}, {"fusion_lat": 0.0, "name": "c465f5c4cb640607c4f6bb19fb9140e2", "is_disabled": 0, "rental_uris": {"android": "https://dc.lft.to/lastmile_qr_scan", "ios": "https://dc.lft.to/lastmile_qr_scan"}, "fusion_lon": 0.0, "lat": 38.911036333333335, "bike_id": "c465f5c4cb640607c4f6bb19fb9140e2", "type": "electric_scooter", "is_reserved": 0, "lon": -77.0319815}, {"fusion_lat": 0.0, "name": "c836f55d7ab067be870b0d6c61688668", "is_disabled": 0, "rental_uris": {"android": "https://dc.lft.to/lastmile_qr_scan", "ios": "https://dc.lft.to/lastmile_qr_scan"}, "fusion_lon": 0.0, "lat": 38.88500716666667, "bike_id": "c836f55d7ab067be870b0d6c61688668", "type": "electric_scooter", "is_reserved": 0, "lon": -77.020963}, {"fusion_lat": 0.0, "name": "d04e315121cc1ba49adb61f5751a6d09", "is_disabled": 0, "rental_uris": {"android": "https://dc.lft.to/lastmile_qr_scan", "ios": "https://dc.lft.to/lastmile_qr_scan"}, "fusion_lon": 0.0, "lat": 38.90399166666667, "bike_id": "d04e315121cc1ba49adb61f5751a6d09", "type": "electric_scooter", "is_reserved": 0, "lon": -76.980994}, {"fusion_lat": 0.0, "name": "ceadd5abbda84b9d0395ccab80649380", "is_disabled": 0, "rental_uris": {"android": "https://dc.lft.to/lastmile_qr_scan", "ios": "https://dc.lft.to/lastmile_qr_scan"}, "fusion_lon": 0.0, "lat": 38.887572666666664, "bike_id": "ceadd5abbda84b9d0395ccab80649380", "type": "electric_scooter", "is_reserved": 0, "lon": -77.0025665}, {"fusion_lat": 0.0, "name": "e67ff154ff1dca9961081e455487ab60", "is_disabled": 0, "rental_uris": {"android": "https://dc.lft.to/lastmile_qr_scan", "ios": "https://dc.lft.to/lastmile_qr_scan"}, "fusion_lon": 0.0, "lat": 38.9219455, "bike_id": "e67ff154ff1dca9961081e455487ab60", "type": "electric_scooter", "is_reserved": 0, "lon": -77.050509}, {"fusion_lat": 0.0, "name": "37e6e15442fe7284f3e43d218c7e0cdc", "is_disabled": 0, "rental_uris": {"android": "https://dc.lft.to/lastmile_qr_scan", "ios": "https://dc.lft.to/lastmile_qr_scan"}, "fusion_lon": 0.0, "lat": 38.924370333333336, "bike_id": "37e6e15442fe7284f3e43d218c7e0cdc", "type": "electric_scooter", "is_reserved": 0, "lon": -77.00071216666667}, {"fusion_lat": 0.0, "name": "e29a075ddcdde5f27087dd580282076f", "is_disabled": 0, "rental_uris": {"android": "https://dc.lft.to/lastmile_qr_scan", "ios": "https://dc.lft.to/lastmile_qr_scan"}, "fusion_lon": 0.0, "lat": 38.8413705, "bike_id": "e29a075ddcdde5f27087dd580282076f", "type": "electric_bike", "is_reserved": 0, "lon": -76.94763}, {"fusion_lat": 0.0, "name": "4a2ef532da39eb7b9187f02bf6fcb1ea", "is_disabled": 0, "rental_uris": {"android": "https://dc.lft.to/lastmile_qr_scan", "ios": "https://dc.lft.to/lastmile_qr_scan"}, "fusion_lon": 0.0, "lat": 38.912711, "bike_id": "4a2ef532da39eb7b9187f02bf6fcb1ea", "type": "electric_scooter", "is_reserved": 0, "lon": -77.01225083333334}, {"fusion_lat": 0.0, "name": "cdbc3ef61fa0b75e1522a33af14a2bef", "is_disabled": 0, "rental_uris": {"android": "https://dc.lft.to/lastmile_qr_scan", "ios": "https://dc.lft.to/lastmile_qr_scan"}, "fusion_lon": 0.0, "lat": 38.8872615, "bike_id": "cdbc3ef61fa0b75e1522a33af14a2bef", "type": "electric_scooter", "is_reserved": 0, "lon": -76.98357083333333}, {"fusion_lat": 0.0, "name": "9a7759768b889d08e51f5b42880914cc", "is_disabled": 0, "rental_uris": {"android": "https://dc.lft.to/lastmile_qr_scan", "ios": "https://dc.lft.to/lastmile_qr_scan"}, "fusion_lon": 0.0, "lat": 38.90556466666666, "bike_id": "9a7759768b889d08e51f5b42880914cc", "type": "electric_scooter", "is_reserved": 0, "lon": -77.06263233333334}, {"fusion_lat": 0.0, "name": "b0543e2cb37744fe58266d177de00e77", "is_disabled": 0, "rental_uris": {"android": "https://dc.lft.to/lastmile_qr_scan", "ios": "https://dc.lft.to/lastmile_qr_scan"}, "fusion_lon": 0.0, "lat": 38.87638883333333, "bike_id": "b0543e2cb37744fe58266d177de00e77", "type": "electric_scooter", "is_reserved": 0, "lon": -77.009117}, {"fusion_lat": 0.0, "name": "e5a6e52027ce7f45727df859231b6d76", "is_disabled": 0, "rental_uris": {"android": "https://dc.lft.to/lastmile_qr_scan", "ios": "https://dc.lft.to/lastmile_qr_scan"}, "fusion_lon": 0.0, "lat": 38.93184516666667, "bike_id": "e5a6e52027ce7f45727df859231b6d76", "type": "electric_scooter", "is_reserved": 0, "lon": -77.04296133333334}, {"fusion_lat": 0.0, "name": "036e176d99f0d2ecd010f680efbe5be3", "is_disabled": 0, "rental_uris": {"android": "https://dc.lft.to/lastmile_qr_scan", "ios": "https://dc.lft.to/lastmile_qr_scan"}, "fusion_lon": 0.0, "lat": 38.857002, "bike_id": "036e176d99f0d2ecd010f680efbe5be3", "type": "electric_scooter", "is_reserved": 0, "lon": -76.99595033333334}, {"fusion_lat": 0.0, "name": "22e9160fb562fd0b9d293ec54037f2ed", "is_disabled": 0, "rental_uris": {"android": "https://dc.lft.to/lastmile_qr_scan", "ios": "https://dc.lft.to/lastmile_qr_scan"}, "fusion_lon": 0.0, "lat": 38.906287, "bike_id": "22e9160fb562fd0b9d293ec54037f2ed", "type": "electric_scooter", "is_reserved": 0, "lon": -77.0397465}, {"fusion_lat": 0.0, "name": "46f88b654a375c6ff62a7c67df821bfc", "is_disabled": 0, "rental_uris": {"android": "https://dc.lft.to/lastmile_qr_scan", "ios": "https://dc.lft.to/lastmile_qr_scan"}, "fusion_lon": 0.0, "lat": 38.888005, "bike_id": "46f88b654a375c6ff62a7c67df821bfc", "type": "electric_bike", "is_reserved": 0, "lon": -76.92997316666667}, {"fusion_lat": 0.0, "name": "4428c197f9de5de713e706edd70d7c48", "is_disabled": 0, "rental_uris": {"android": "https://dc.lft.to/lastmile_qr_scan", "ios": "https://dc.lft.to/lastmile_qr_scan"}, "fusion_lon": 0.0, "lat": 38.88183733333334, "bike_id": "4428c197f9de5de713e706edd70d7c48", "type": "electric_scooter", "is_reserved": 0, "lon": -77.02809516666666}, {"fusion_lat": 0.0, "name": "34005e4c247c04b0354a3632345eb04f", "is_disabled": 0, "rental_uris": {"android": "https://dc.lft.to/lastmile_qr_scan", "ios": "https://dc.lft.to/lastmile_qr_scan"}, "fusion_lon": 0.0, "lat": 38.88991216666667, "bike_id": "34005e4c247c04b0354a3632345eb04f", "type": "electric_scooter", "is_reserved": 0, "lon": -76.98413816666667}, {"fusion_lat": 0.0, "name": "cccc76f6aecd40ba853405dc86d50259", "is_disabled": 0, "rental_uris": {"android": "https://dc.lft.to/lastmile_qr_scan", "ios": "https://dc.lft.to/lastmile_qr_scan"}, "fusion_lon": 0.0, "lat": 38.927981833333334, "bike_id": "cccc76f6aecd40ba853405dc86d50259", "type": "electric_scooter", "is_reserved": 0, "lon": -77.05522933333333}, {"fusion_lat": 0.0, "name": "709802d7e2cbfa3b0a5c03822f6baba0", "is_disabled": 0, "rental_uris": {"android": "https://dc.lft.to/lastmile_qr_scan", "ios": "https://dc.lft.to/lastmile_qr_scan"}, "fusion_lon": 0.0, "lat": 38.9169785, "bike_id": "709802d7e2cbfa3b0a5c03822f6baba0", "type": "electric_scooter", "is_reserved": 0, "lon": -77.03768666666667}, {"fusion_lat": 0.0, "name": "8732e02085264fd7051c19e42a52ce99", "is_disabled": 0, "rental_uris": {"android": "https://dc.lft.to/lastmile_qr_scan", "ios": "https://dc.lft.to/lastmile_qr_scan"}, "fusion_lon": 0.0, "lat": 38.89876116666667, "bike_id": "8732e02085264fd7051c19e42a52ce99", "type": "electric_scooter", "is_reserved": 0, "lon": -76.93184633333334}, {"fusion_lat": 0.0, "name": "0cee7f74c48a9d46c7f8cbf12d404f79", "is_disabled": 0, "rental_uris": {"android": "https://dc.lft.to/lastmile_qr_scan", "ios": "https://dc.lft.to/lastmile_qr_scan"}, "fusion_lon": 0.0, "lat": 38.928672166666665, "bike_id": "0cee7f74c48a9d46c7f8cbf12d404f79", "type": "electric_scooter", "is_reserved": 0, "lon": -77.03502616666667}, {"fusion_lat": 0.0, "name": "bb18cbf1a9f3f4d90413b4bc6ae70169", "is_disabled": 0, "rental_uris": {"android": "https://dc.lft.to/lastmile_qr_scan", "ios": "https://dc.lft.to/lastmile_qr_scan"}, "fusion_lon": 0.0, "lat": 38.93101516666667, "bike_id": "bb18cbf1a9f3f4d90413b4bc6ae70169", "type": "electric_scooter", "is_reserved": 0, "lon": -77.02473983333333}, {"fusion_lat": 0.0, "name": "82ff0ee63ce89bef4228b72c00be3dd1", "is_disabled": 0, "rental_uris": {"android": "https://dc.lft.to/lastmile_qr_scan", "ios": "https://dc.lft.to/lastmile_qr_scan"}, "fusion_lon": 0.0, "lat": 38.90969233333333, "bike_id": "82ff0ee63ce89bef4228b72c00be3dd1", "type": "electric_scooter", "is_reserved": 0, "lon": -77.0333435}, {"fusion_lat": 0.0, "name": "05ded556d5100b02c4258f1f8aa022b3", "is_disabled": 0, "rental_uris": {"android": "https://dc.lft.to/lastmile_qr_scan", "ios": "https://dc.lft.to/lastmile_qr_scan"}, "fusion_lon": 0.0, "lat": 38.93188033333333, "bike_id": "05ded556d5100b02c4258f1f8aa022b3", "type": "electric_scooter", "is_reserved": 0, "lon": -77.04297616666666}, {"fusion_lat": 0.0, "name": "ffd1292ed9786b1675777f57b982f384", "is_disabled": 0, "rental_uris": {"android": "https://dc.lft.to/lastmile_qr_scan", "ios": "https://dc.lft.to/lastmile_qr_scan"}, "fusion_lon": 0.0, "lat": 38.90234683333333, "bike_id": "ffd1292ed9786b1675777f57b982f384", "type": "electric_bike", "is_reserved": 0, "lon": -77.02298033333334}, {"fusion_lat": 0.0, "name": "bcf8ac331a16f099242164176a8a5fd0", "is_disabled": 0, "rental_uris": {"android": "https://dc.lft.to/lastmile_qr_scan", "ios": "https://dc.lft.to/lastmile_qr_scan"}, "fusion_lon": 0.0, "lat": 38.9209195, "bike_id": "bcf8ac331a16f099242164176a8a5fd0", "type": "electric_scooter", "is_reserved": 0, "lon": -77.02211733333333}, {"fusion_lat": 0.0, "name": "3bc2882f06dc3f1a28238bb9db927a06", "is_disabled": 0, "rental_uris": {"android": "https://dc.lft.to/lastmile_qr_scan", "ios": "https://dc.lft.to/lastmile_qr_scan"}, "fusion_lon": 0.0, "lat": 38.89987566666667, "bike_id": "3bc2882f06dc3f1a28238bb9db927a06", "type": "electric_scooter", "is_reserved": 0, "lon": -77.04048783333333}, {"fusion_lat": 0.0, "name": "7234ba3d01e1d82b06da722fc8cad5fb", "is_disabled": 0, "rental_uris": {"android": "https://dc.lft.to/lastmile_qr_scan", "ios": "https://dc.lft.to/lastmile_qr_scan"}, "fusion_lon": 0.0, "lat": 38.92383183333333, "bike_id": "7234ba3d01e1d82b06da722fc8cad5fb", "type": "electric_scooter", "is_reserved": 0, "lon": -77.07534666666666}, {"fusion_lat": 0.0, "name": "33e0a95780de3267f49be60697c00a7a", "is_disabled": 0, "rental_uris": {"android": "https://dc.lft.to/lastmile_qr_scan", "ios": "https://dc.lft.to/lastmile_qr_scan"}, "fusion_lon": 0.0, "lat": 38.921268833333336, "bike_id": "33e0a95780de3267f49be60697c00a7a", "type": "electric_scooter", "is_reserved": 0, "lon": -77.04431316666667}, {"fusion_lat": 0.0, "name": "0f603a46a9b22b11abc5be6d6169e5d7", "is_disabled": 0, "rental_uris": {"android": "https://dc.lft.to/lastmile_qr_scan", "ios": "https://dc.lft.to/lastmile_qr_scan"}, "fusion_lon": 0.0, "lat": 38.927853, "bike_id": "0f603a46a9b22b11abc5be6d6169e5d7", "type": "electric_scooter", "is_reserved": 0, "lon": -77.02572366666666}, {"fusion_lat": 0.0, "name": "65b61ef76ea8367576018e0be6f032c1", "is_disabled": 0, "rental_uris": {"android": "https://dc.lft.to/lastmile_qr_scan", "ios": "https://dc.lft.to/lastmile_qr_scan"}, "fusion_lon": 0.0, "lat": 38.94185183333333, "bike_id": "65b61ef76ea8367576018e0be6f032c1", "type": "electric_scooter", "is_reserved": 0, "lon": -77.024111}, {"fusion_lat": 0.0, "name": "387d6f7e273292227d051a563fa12951", "is_disabled": 0, "rental_uris": {"android": "https://dc.lft.to/lastmile_qr_scan", "ios": "https://dc.lft.to/lastmile_qr_scan"}, "fusion_lon": 0.0, "lat": 38.9180655, "bike_id": "387d6f7e273292227d051a563fa12951", "type": "electric_scooter", "is_reserved": 0, "lon": -77.03660683333334}, {"fusion_lat": 0.0, "name": "856eb6c56e07e75c7d4385e892290466", "is_disabled": 0, "rental_uris": {"android": "https://dc.lft.to/lastmile_qr_scan", "ios": "https://dc.lft.to/lastmile_qr_scan"}, "fusion_lon": 0.0, "lat": 38.845879, "bike_id": "856eb6c56e07e75c7d4385e892290466", "type": "electric_bike", "is_reserved": 0, "lon": -76.9816745}, {"fusion_lat": 0.0, "name": "b3630801284bb2606ad246993cc1c88f", "is_disabled": 0, "rental_uris": {"android": "https://dc.lft.to/lastmile_qr_scan", "ios": "https://dc.lft.to/lastmile_qr_scan"}, "fusion_lon": 0.0, "lat": 38.90400566666667, "bike_id": "b3630801284bb2606ad246993cc1c88f", "type": "electric_scooter", "is_reserved": 0, "lon": -77.02412266666667}, {"fusion_lat": 0.0, "name": "a43175a4517685cbe410f0c5505fbb50", "is_disabled": 0, "rental_uris": {"android": "https://dc.lft.to/lastmile_qr_scan", "ios": "https://dc.lft.to/lastmile_qr_scan"}, "fusion_lon": 0.0, "lat": 38.90742383333333, "bike_id": "a43175a4517685cbe410f0c5505fbb50", "type": "electric_scooter", "is_reserved": 0, "lon": -77.02388516666667}, {"fusion_lat": 0.0, "name": "8504e9b4582c6c400714cd6ceb35d19e", "is_disabled": 0, "rental_uris": {"android": "https://dc.lft.to/lastmile_qr_scan", "ios": "https://dc.lft.to/lastmile_qr_scan"}, "fusion_lon": 0.0, "lat": 38.9003725, "bike_id": "8504e9b4582c6c400714cd6ceb35d19e", "type": "electric_scooter", "is_reserved": 0, "lon": -77.012257}, {"fusion_lat": 0.0, "name": "2aae0e39d7a6694171ef232741db3d88", "is_disabled": 0, "rental_uris": {"android": "https://dc.lft.to/lastmile_qr_scan", "ios": "https://dc.lft.to/lastmile_qr_scan"}, "fusion_lon": 0.0, "lat": 38.88986533333333, "bike_id": "2aae0e39d7a6694171ef232741db3d88", "type": "electric_scooter", "is_reserved": 0, "lon": -76.98737216666666}, {"fusion_lat": 0.0, "name": "88d2aa72720809475311706a03d8526a", "is_disabled": 0, "rental_uris": {"android": "https://dc.lft.to/lastmile_qr_scan", "ios": "https://dc.lft.to/lastmile_qr_scan"}, "fusion_lon": 0.0, "lat": 38.9088515, "bike_id": "88d2aa72720809475311706a03d8526a", "type": "electric_scooter", "is_reserved": 0, "lon": -77.05406}, {"fusion_lat": 0.0, "name": "294810c9c74551cafecdc064d6080bc3", "is_disabled": 0, "rental_uris": {"android": "https://dc.lft.to/lastmile_qr_scan", "ios": "https://dc.lft.to/lastmile_qr_scan"}, "fusion_lon": 0.0, "lat": 38.93948983333333, "bike_id": "294810c9c74551cafecdc064d6080bc3", "type": "electric_scooter", "is_reserved": 0, "lon": -77.0332345}, {"fusion_lat": 0.0, "name": "1c4e82d0087b4038c900044d60ce97ee", "is_disabled": 0, "rental_uris": {"android": "https://dc.lft.to/lastmile_qr_scan", "ios": "https://dc.lft.to/lastmile_qr_scan"}, "fusion_lon": 0.0, "lat": 38.893956333333335, "bike_id": "1c4e82d0087b4038c900044d60ce97ee", "type": "electric_scooter", "is_reserved": 0, "lon": -76.9481475}, {"fusion_lat": 0.0, "name": "d4a7d6e4abcdca8b28688e600419298c", "is_disabled": 0, "rental_uris": {"android": "https://dc.lft.to/lastmile_qr_scan", "ios": "https://dc.lft.to/lastmile_qr_scan"}, "fusion_lon": 0.0, "lat": 38.92079716666667, "bike_id": "d4a7d6e4abcdca8b28688e600419298c", "type": "electric_scooter", "is_reserved": 0, "lon": -77.02376466666666}, {"fusion_lat": 0.0, "name": "48605f7a1093aa2d6a4ab379ca7deee1", "is_disabled": 0, "rental_uris": {"android": "https://dc.lft.to/lastmile_qr_scan", "ios": "https://dc.lft.to/lastmile_qr_scan"}, "fusion_lon": 0.0, "lat": 38.915693, "bike_id": "48605f7a1093aa2d6a4ab379ca7deee1", "type": "electric_scooter", "is_reserved": 0, "lon": -77.0220415}, {"fusion_lat": 0.0, "name": "c9f3c03253239836c3290b63188eac58", "is_disabled": 0, "rental_uris": {"android": "https://dc.lft.to/lastmile_qr_scan", "ios": "https://dc.lft.to/lastmile_qr_scan"}, "fusion_lon": 0.0, "lat": 38.903102, "bike_id": "c9f3c03253239836c3290b63188eac58", "type": "electric_scooter", "is_reserved": 0, "lon": -77.03358583333333}, {"fusion_lat": 0.0, "name": "261429804b9601442446ae5b376ed574", "is_disabled": 0, "rental_uris": {"android": "https://dc.lft.to/lastmile_qr_scan", "ios": "https://dc.lft.to/lastmile_qr_scan"}, "fusion_lon": 0.0, "lat": 38.91703183333333, "bike_id": "261429804b9601442446ae5b376ed574", "type": "electric_scooter", "is_reserved": 0, "lon": -77.03721183333333}, {"fusion_lat": 0.0, "name": "38771d053fc5188eb55c7d97295e34f8", "is_disabled": 0, "rental_uris": {"android": "https://dc.lft.to/lastmile_qr_scan", "ios": "https://dc.lft.to/lastmile_qr_scan"}, "fusion_lon": 0.0, "lat": 38.901184666666666, "bike_id": "38771d053fc5188eb55c7d97295e34f8", "type": "electric_scooter", "is_reserved": 0, "lon": -77.026658}, {"fusion_lat": 0.0, "name": "d81a3e1f69c9fa6db0f63cfeda2a5d86", "is_disabled": 0, "rental_uris": {"android": "https://dc.lft.to/lastmile_qr_scan", "ios": "https://dc.lft.to/lastmile_qr_scan"}, "fusion_lon": 0.0, "lat": 38.85354016666667, "bike_id": "d81a3e1f69c9fa6db0f63cfeda2a5d86", "type": "electric_bike", "is_reserved": 0, "lon": -77.1347245}, {"fusion_lat": 0.0, "name": "86ce63f7d3ffb730d91614d45cf1609a", "is_disabled": 0, "rental_uris": {"android": "https://dc.lft.to/lastmile_qr_scan", "ios": "https://dc.lft.to/lastmile_qr_scan"}, "fusion_lon": 0.0, "lat": 38.847581, "bike_id": "86ce63f7d3ffb730d91614d45cf1609a", "type": "electric_scooter", "is_reserved": 0, "lon": -76.99504516666667}, {"fusion_lat": 0.0, "name": "bb92d0a24914c9a02925eec750591f98", "is_disabled": 0, "rental_uris": {"android": "https://dc.lft.to/lastmile_qr_scan", "ios": "https://dc.lft.to/lastmile_qr_scan"}, "fusion_lon": 0.0, "lat": 38.923208833333334, "bike_id": "bb92d0a24914c9a02925eec750591f98", "type": "electric_scooter", "is_reserved": 0, "lon": -77.04585333333333}, {"fusion_lat": 0.0, "name": "543e959ef3d46b822173100a6cc2a5a2", "is_disabled": 0, "rental_uris": {"android": "https://dc.lft.to/lastmile_qr_scan", "ios": "https://dc.lft.to/lastmile_qr_scan"}, "fusion_lon": 0.0, "lat": 38.901422, "bike_id": "543e959ef3d46b822173100a6cc2a5a2", "type": "electric_scooter", "is_reserved": 0, "lon": -76.99838733333333}, {"fusion_lat": 0.0, "name": "b21d61a7e18cd3396f1a52b946a43654", "is_disabled": 0, "rental_uris": {"android": "https://dc.lft.to/lastmile_qr_scan", "ios": "https://dc.lft.to/lastmile_qr_scan"}, "fusion_lon": 0.0, "lat": 38.863324666666664, "bike_id": "b21d61a7e18cd3396f1a52b946a43654", "type": "electric_bike", "is_reserved": 0, "lon": -76.9871995}, {"fusion_lat": 0.0, "name": "74949ee0be1c233b72d60a139aecfb40", "is_disabled": 0, "rental_uris": {"android": "https://dc.lft.to/lastmile_qr_scan", "ios": "https://dc.lft.to/lastmile_qr_scan"}, "fusion_lon": 0.0, "lat": 38.887794666666665, "bike_id": "74949ee0be1c233b72d60a139aecfb40", "type": "electric_scooter", "is_reserved": 0, "lon": -77.01506033333334}, {"fusion_lat": 0.0, "name": "d74899ebb09fa429ee456833a3e849ba", "is_disabled": 0, "rental_uris": {"android": "https://dc.lft.to/lastmile_qr_scan", "ios": "https://dc.lft.to/lastmile_qr_scan"}, "fusion_lon": 0.0, "lat": 38.92609083333333, "bike_id": "d74899ebb09fa429ee456833a3e849ba", "type": "electric_scooter", "is_reserved": 0, "lon": -77.0396305}, {"fusion_lat": 0.0, "name": "cf2a7a44ba363d182e7d9facbc20f23a", "is_disabled": 0, "rental_uris": {"android": "https://dc.lft.to/lastmile_qr_scan", "ios": "https://dc.lft.to/lastmile_qr_scan"}, "fusion_lon": 0.0, "lat": 38.807535, "bike_id": "cf2a7a44ba363d182e7d9facbc20f23a", "type": "electric_bike", "is_reserved": 0, "lon": -77.09455533333333}, {"fusion_lat": 0.0, "name": "ab97358bd89328a04ccf2d92f4027781", "is_disabled": 0, "rental_uris": {"android": "https://dc.lft.to/lastmile_qr_scan", "ios": "https://dc.lft.to/lastmile_qr_scan"}, "fusion_lon": 0.0, "lat": 38.85598816666667, "bike_id": "ab97358bd89328a04ccf2d92f4027781", "type": "electric_scooter", "is_reserved": 0, "lon": -76.97267983333333}, {"fusion_lat": 0.0, "name": "5f68f1a24faa455a76bad276d0f94cd2", "is_disabled": 0, "rental_uris": {"android": "https://dc.lft.to/lastmile_qr_scan", "ios": "https://dc.lft.to/lastmile_qr_scan"}, "fusion_lon": 0.0, "lat": 38.91692316666666, "bike_id": "5f68f1a24faa455a76bad276d0f94cd2", "type": "electric_scooter", "is_reserved": 0, "lon": -77.0230085}, {"fusion_lat": 0.0, "name": "e25e571dce961e072302f99f19d9ffd7", "is_disabled": 0, "rental_uris": {"android": "https://dc.lft.to/lastmile_qr_scan", "ios": "https://dc.lft.to/lastmile_qr_scan"}, "fusion_lon": 0.0, "lat": 38.93006466666667, "bike_id": "e25e571dce961e072302f99f19d9ffd7", "type": "electric_scooter", "is_reserved": 0, "lon": -77.03279633333334}, {"fusion_lat": 0.0, "name": "1417c195d45da1e30f65b7eea127ca35", "is_disabled": 0, "rental_uris": {"android": "https://dc.lft.to/lastmile_qr_scan", "ios": "https://dc.lft.to/lastmile_qr_scan"}, "fusion_lon": 0.0, "lat": 38.890133166666665, "bike_id": "1417c195d45da1e30f65b7eea127ca35", "type": "electric_scooter", "is_reserved": 0, "lon": -76.937395}, {"fusion_lat": 0.0, "name": "05dac623dd44bdcd3917c786af119eb5", "is_disabled": 0, "rental_uris": {"android": "https://dc.lft.to/lastmile_qr_scan", "ios": "https://dc.lft.to/lastmile_qr_scan"}, "fusion_lon": 0.0, "lat": 38.90022916666667, "bike_id": "05dac623dd44bdcd3917c786af119eb5", "type": "electric_scooter", "is_reserved": 0, "lon": -77.01121866666666}, {"fusion_lat": 0.0, "name": "b810a2d8ae8497be5da680a69b53e126", "is_disabled": 0, "rental_uris": {"android": "https://dc.lft.to/lastmile_qr_scan", "ios": "https://dc.lft.to/lastmile_qr_scan"}, "fusion_lon": 0.0, "lat": 38.93769, "bike_id": "b810a2d8ae8497be5da680a69b53e126", "type": "electric_scooter", "is_reserved": 0, "lon": -77.02077416666667}, {"fusion_lat": 0.0, "name": "d38a31857136c260e0389edc33279bf0", "is_disabled": 0, "rental_uris": {"android": "https://dc.lft.to/lastmile_qr_scan", "ios": "https://dc.lft.to/lastmile_qr_scan"}, "fusion_lon": 0.0, "lat": 38.896898166666666, "bike_id": "d38a31857136c260e0389edc33279bf0", "type": "electric_scooter", "is_reserved": 0, "lon": -77.0433015}, {"fusion_lat": 0.0, "name": "0cfdd63cddc3a5c452f8b3587ade9fc0", "is_disabled": 0, "rental_uris": {"android": "https://dc.lft.to/lastmile_qr_scan", "ios": "https://dc.lft.to/lastmile_qr_scan"}, "fusion_lon": 0.0, "lat": 38.91132966666667, "bike_id": "0cfdd63cddc3a5c452f8b3587ade9fc0", "type": "electric_scooter", "is_reserved": 0, "lon": -77.02081516666667}, {"fusion_lat": 0.0, "name": "f1c813c6d9ab1ce27a5c7aed8948e776", "is_disabled": 0, "rental_uris": {"android": "https://dc.lft.to/lastmile_qr_scan", "ios": "https://dc.lft.to/lastmile_qr_scan"}, "fusion_lon": 0.0, "lat": 38.911190833333336, "bike_id": "f1c813c6d9ab1ce27a5c7aed8948e776", "type": "electric_scooter", "is_reserved": 0, "lon": -77.027648}, {"fusion_lat": 0.0, "name": "fe568d7238b3b1978245a338364365e9", "is_disabled": 0, "rental_uris": {"android": "https://dc.lft.to/lastmile_qr_scan", "ios": "https://dc.lft.to/lastmile_qr_scan"}, "fusion_lon": 0.0, "lat": 38.961865833333334, "bike_id": "fe568d7238b3b1978245a338364365e9", "type": "electric_bike", "is_reserved": 0, "lon": -77.05268966666667}, {"fusion_lat": 0.0, "name": "c1e8b754255bfbaa74680cb08d7f460a", "is_disabled": 0, "rental_uris": {"android": "https://dc.lft.to/lastmile_qr_scan", "ios": "https://dc.lft.to/lastmile_qr_scan"}, "fusion_lon": 0.0, "lat": 38.891134, "bike_id": "c1e8b754255bfbaa74680cb08d7f460a", "type": "electric_scooter", "is_reserved": 0, "lon": -76.94378}, {"fusion_lat": 0.0, "name": "37b005b52562054b4fbbf2d492f84749", "is_disabled": 0, "rental_uris": {"android": "https://dc.lft.to/lastmile_qr_scan", "ios": "https://dc.lft.to/lastmile_qr_scan"}, "fusion_lon": 0.0, "lat": 38.969908, "bike_id": "37b005b52562054b4fbbf2d492f84749", "type": "electric_scooter", "is_reserved": 0, "lon": -77.01161166666667}, {"fusion_lat": 0.0, "name": "cb5abb01c6b9387d03ddc207e9906c11", "is_disabled": 0, "rental_uris": {"android": "https://dc.lft.to/lastmile_qr_scan", "ios": "https://dc.lft.to/lastmile_qr_scan"}, "fusion_lon": 0.0, "lat": 38.90014333333333, "bike_id": "cb5abb01c6b9387d03ddc207e9906c11", "type": "electric_scooter", "is_reserved": 0, "lon": -77.044968}, {"fusion_lat": 0.0, "name": "7ff3647e0ffb7f4eec4f64961617a9fb", "is_disabled": 0, "rental_uris": {"android": "https://dc.lft.to/lastmile_qr_scan", "ios": "https://dc.lft.to/lastmile_qr_scan"}, "fusion_lon": 0.0, "lat": 38.909029833333335, "bike_id": "7ff3647e0ffb7f4eec4f64961617a9fb", "type": "electric_scooter", "is_reserved": 0, "lon": -77.07276266666666}, {"fusion_lat": 0.0, "name": "80555fb6cf1e23a7597a63b964635660", "is_disabled": 0, "rental_uris": {"android": "https://dc.lft.to/lastmile_qr_scan", "ios": "https://dc.lft.to/lastmile_qr_scan"}, "fusion_lon": 0.0, "lat": 38.930613666666666, "bike_id": "80555fb6cf1e23a7597a63b964635660", "type": "electric_scooter", "is_reserved": 0, "lon": -77.0405865}, {"fusion_lat": 0.0, "name": "c1056414044caea788e591bd92834ad5", "is_disabled": 0, "rental_uris": {"android": "https://dc.lft.to/lastmile_qr_scan", "ios": "https://dc.lft.to/lastmile_qr_scan"}, "fusion_lon": 0.0, "lat": 38.97378766666667, "bike_id": "c1056414044caea788e591bd92834ad5", "type": "electric_scooter", "is_reserved": 0, "lon": -77.012826}, {"fusion_lat": 0.0, "name": "80617605b13b656376cf2f50c6f93859", "is_disabled": 0, "rental_uris": {"android": "https://dc.lft.to/lastmile_qr_scan", "ios": "https://dc.lft.to/lastmile_qr_scan"}, "fusion_lon": 0.0, "lat": 38.89734883333333, "bike_id": "80617605b13b656376cf2f50c6f93859", "type": "electric_bike", "is_reserved": 0, "lon": -76.9204675}, {"fusion_lat": 0.0, "name": "8b35e7fede1cd421fa20fe159563a10d", "is_disabled": 0, "rental_uris": {"android": "https://dc.lft.to/lastmile_qr_scan", "ios": "https://dc.lft.to/lastmile_qr_scan"}, "fusion_lon": 0.0, "lat": 38.9087, "bike_id": "8b35e7fede1cd421fa20fe159563a10d", "type": "electric_scooter", "is_reserved": 0, "lon": -77.042863}, {"fusion_lat": 0.0, "name": "a853c119e5b66d4e2a321f8b5368f326", "is_disabled": 0, "rental_uris": {"android": "https://dc.lft.to/lastmile_qr_scan", "ios": "https://dc.lft.to/lastmile_qr_scan"}, "fusion_lon": 0.0, "lat": 38.916298166666664, "bike_id": "a853c119e5b66d4e2a321f8b5368f326", "type": "electric_scooter", "is_reserved": 0, "lon": -77.02210483333333}, {"fusion_lat": 0.0, "name": "c6ffe83c8e38a7b749a9ff6adae1a9a2", "is_disabled": 0, "rental_uris": {"android": "https://dc.lft.to/lastmile_qr_scan", "ios": "https://dc.lft.to/lastmile_qr_scan"}, "fusion_lon": 0.0, "lat": 38.884829, "bike_id": "c6ffe83c8e38a7b749a9ff6adae1a9a2", "type": "electric_scooter", "is_reserved": 0, "lon": -77.02408566666666}, {"fusion_lat": 0.0, "name": "0fd14491521d2feddf45b14914480060", "is_disabled": 0, "rental_uris": {"android": "https://dc.lft.to/lastmile_qr_scan", "ios": "https://dc.lft.to/lastmile_qr_scan"}, "fusion_lon": 0.0, "lat": 38.90964433333333, "bike_id": "0fd14491521d2feddf45b14914480060", "type": "electric_scooter", "is_reserved": 0, "lon": -77.03937}, {"fusion_lat": 0.0, "name": "2da7b46435fbacfd4b245359efaf55fd", "is_disabled": 0, "rental_uris": {"android": "https://dc.lft.to/lastmile_qr_scan", "ios": "https://dc.lft.to/lastmile_qr_scan"}, "fusion_lon": 0.0, "lat": 38.92262616666667, "bike_id": "2da7b46435fbacfd4b245359efaf55fd", "type": "electric_bike", "is_reserved": 0, "lon": -77.0702935}, {"fusion_lat": 0.0, "name": "49355416066bfcb1236b05f1dd116ef9", "is_disabled": 0, "rental_uris": {"android": "https://dc.lft.to/lastmile_qr_scan", "ios": "https://dc.lft.to/lastmile_qr_scan"}, "fusion_lon": 0.0, "lat": 38.89011216666667, "bike_id": "49355416066bfcb1236b05f1dd116ef9", "type": "electric_scooter", "is_reserved": 0, "lon": -76.93742466666667}, {"fusion_lat": 0.0, "name": "b197c16e2bfe0a42d3728551069e22f6", "is_disabled": 0, "rental_uris": {"android": "https://dc.lft.to/lastmile_qr_scan", "ios": "https://dc.lft.to/lastmile_qr_scan"}, "fusion_lon": 0.0, "lat": 38.9018405, "bike_id": "b197c16e2bfe0a42d3728551069e22f6", "type": "electric_scooter", "is_reserved": 0, "lon": -77.0590755}, {"fusion_lat": 0.0, "name": "f99930bfbbffeebf5d71ead7cc9ff333", "is_disabled": 0, "rental_uris": {"android": "https://dc.lft.to/lastmile_qr_scan", "ios": "https://dc.lft.to/lastmile_qr_scan"}, "fusion_lon": 0.0, "lat": 38.924550333333336, "bike_id": "f99930bfbbffeebf5d71ead7cc9ff333", "type": "electric_scooter", "is_reserved": 0, "lon": -77.0240975}, {"fusion_lat": 0.0, "name": "912a00809573c35bba37a0965c1ea8d8", "is_disabled": 0, "rental_uris": {"android": "https://dc.lft.to/lastmile_qr_scan", "ios": "https://dc.lft.to/lastmile_qr_scan"}, "fusion_lon": 0.0, "lat": 38.9203585, "bike_id": "912a00809573c35bba37a0965c1ea8d8", "type": "electric_scooter", "is_reserved": 0, "lon": -77.0306795}, {"fusion_lat": 0.0, "name": "fe108307b747fa230a64fad5ae913cdc", "is_disabled": 0, "rental_uris": {"android": "https://dc.lft.to/lastmile_qr_scan", "ios": "https://dc.lft.to/lastmile_qr_scan"}, "fusion_lon": 0.0, "lat": 38.90146983333333, "bike_id": "fe108307b747fa230a64fad5ae913cdc", "type": "electric_scooter", "is_reserved": 0, "lon": -77.03936233333333}, {"fusion_lat": 0.0, "name": "730a78f6c201d0ffdc3427e1f6b07ddf", "is_disabled": 0, "rental_uris": {"android": "https://dc.lft.to/lastmile_qr_scan", "ios": "https://dc.lft.to/lastmile_qr_scan"}, "fusion_lon": 0.0, "lat": 38.91415516666667, "bike_id": "730a78f6c201d0ffdc3427e1f6b07ddf", "type": "electric_scooter", "is_reserved": 0, "lon": -77.031751}, {"fusion_lat": 0.0, "name": "237c367e0423f759955568c99319874f", "is_disabled": 0, "rental_uris": {"android": "https://dc.lft.to/lastmile_qr_scan", "ios": "https://dc.lft.to/lastmile_qr_scan"}, "fusion_lon": 0.0, "lat": 38.918164833333336, "bike_id": "237c367e0423f759955568c99319874f", "type": "electric_scooter", "is_reserved": 0, "lon": -77.03273316666667}, {"fusion_lat": 0.0, "name": "600f2e9135f48810ea463940285fa836", "is_disabled": 0, "rental_uris": {"android": "https://dc.lft.to/lastmile_qr_scan", "ios": "https://dc.lft.to/lastmile_qr_scan"}, "fusion_lon": 0.0, "lat": 38.934651333333335, "bike_id": "600f2e9135f48810ea463940285fa836", "type": "electric_scooter", "is_reserved": 0, "lon": -77.05781433333334}, {"fusion_lat": 0.0, "name": "cf62084523202e2f7ce1d2a3f3704573", "is_disabled": 0, "rental_uris": {"android": "https://dc.lft.to/lastmile_qr_scan", "ios": "https://dc.lft.to/lastmile_qr_scan"}, "fusion_lon": 0.0, "lat": 38.9207405, "bike_id": "cf62084523202e2f7ce1d2a3f3704573", "type": "electric_scooter", "is_reserved": 0, "lon": -77.0286}, {"fusion_lat": 0.0, "name": "e19efd356c0ea3da19a6f3aa6aa73b41", "is_disabled": 0, "rental_uris": {"android": "https://dc.lft.to/lastmile_qr_scan", "ios": "https://dc.lft.to/lastmile_qr_scan"}, "fusion_lon": 0.0, "lat": 38.89216316666667, "bike_id": "e19efd356c0ea3da19a6f3aa6aa73b41", "type": "electric_scooter", "is_reserved": 0, "lon": -77.01574766666667}, {"fusion_lat": 0.0, "name": "2f31ab267d80271678e33bb034e1e579", "is_disabled": 0, "rental_uris": {"android": "https://dc.lft.to/lastmile_qr_scan", "ios": "https://dc.lft.to/lastmile_qr_scan"}, "fusion_lon": 0.0, "lat": 38.8922235, "bike_id": "2f31ab267d80271678e33bb034e1e579", "type": "electric_scooter", "is_reserved": 0, "lon": -77.03221633333334}, {"fusion_lat": 0.0, "name": "11885195bbbb7be8ae89ca11b4620b94", "is_disabled": 0, "rental_uris": {"android": "https://dc.lft.to/lastmile_qr_scan", "ios": "https://dc.lft.to/lastmile_qr_scan"}, "fusion_lon": 0.0, "lat": 38.915539333333335, "bike_id": "11885195bbbb7be8ae89ca11b4620b94", "type": "electric_scooter", "is_reserved": 0, "lon": -77.032434}, {"fusion_lat": 0.0, "name": "6f0506597079e1f6b6cd153b6f3f8e04", "is_disabled": 0, "rental_uris": {"android": "https://dc.lft.to/lastmile_qr_scan", "ios": "https://dc.lft.to/lastmile_qr_scan"}, "fusion_lon": 0.0, "lat": 38.967527, "bike_id": "6f0506597079e1f6b6cd153b6f3f8e04", "type": "electric_bike", "is_reserved": 0, "lon": -77.027964}, {"fusion_lat": 0.0, "name": "d5ec659acdbbde557a0629458692ddc2", "is_disabled": 0, "rental_uris": {"android": "https://dc.lft.to/lastmile_qr_scan", "ios": "https://dc.lft.to/lastmile_qr_scan"}, "fusion_lon": 0.0, "lat": 38.878356333333336, "bike_id": "d5ec659acdbbde557a0629458692ddc2", "type": "electric_scooter", "is_reserved": 0, "lon": -77.02281016666667}, {"fusion_lat": 0.0, "name": "e7520258f5711aff7006db8d5486c804", "is_disabled": 0, "rental_uris": {"android": "https://dc.lft.to/lastmile_qr_scan", "ios": "https://dc.lft.to/lastmile_qr_scan"}, "fusion_lon": 0.0, "lat": 38.87570066666667, "bike_id": "e7520258f5711aff7006db8d5486c804", "type": "electric_scooter", "is_reserved": 0, "lon": -77.0093775}, {"fusion_lat": 0.0, "name": "8e05ba2424b07ddb05751b11d2bf001c", "is_disabled": 0, "rental_uris": {"android": "https://dc.lft.to/lastmile_qr_scan", "ios": "https://dc.lft.to/lastmile_qr_scan"}, "fusion_lon": 0.0, "lat": 38.88249416666667, "bike_id": "8e05ba2424b07ddb05751b11d2bf001c", "type": "electric_bike", "is_reserved": 0, "lon": -76.96259716666667}, {"fusion_lat": 0.0, "name": "1255c44df94e886e9d669d36bbcf72d5", "is_disabled": 0, "rental_uris": {"android": "https://dc.lft.to/lastmile_qr_scan", "ios": "https://dc.lft.to/lastmile_qr_scan"}, "fusion_lon": 0.0, "lat": 38.9012685, "bike_id": "1255c44df94e886e9d669d36bbcf72d5", "type": "electric_scooter", "is_reserved": 0, "lon": -77.03665266666667}, {"fusion_lat": 0.0, "name": "2d845f76fa1b0c356b105c1e43ad39b3", "is_disabled": 0, "rental_uris": {"android": "https://dc.lft.to/lastmile_qr_scan", "ios": "https://dc.lft.to/lastmile_qr_scan"}, "fusion_lon": 0.0, "lat": 38.988229, "bike_id": "2d845f76fa1b0c356b105c1e43ad39b3", "type": "electric_bike", "is_reserved": 0, "lon": -77.02660516666667}, {"fusion_lat": 0.0, "name": "180c56663b36582d49cb644e8a2dcd97", "is_disabled": 0, "rental_uris": {"android": "https://dc.lft.to/lastmile_qr_scan", "ios": "https://dc.lft.to/lastmile_qr_scan"}, "fusion_lon": 0.0, "lat": 38.9011935, "bike_id": "180c56663b36582d49cb644e8a2dcd97", "type": "electric_scooter", "is_reserved": 0, "lon": -77.03949633333333}, {"fusion_lat": 0.0, "name": "c699c9302ab2318d886a94f675252a9d", "is_disabled": 0, "rental_uris": {"android": "https://dc.lft.to/lastmile_qr_scan", "ios": "https://dc.lft.to/lastmile_qr_scan"}, "fusion_lon": 0.0, "lat": 38.90548483333333, "bike_id": "c699c9302ab2318d886a94f675252a9d", "type": "electric_scooter", "is_reserved": 0, "lon": -77.007048}, {"fusion_lat": 0.0, "name": "cb06b1ea2bb5ca1b9d81b161880234d6", "is_disabled": 0, "rental_uris": {"android": "https://dc.lft.to/lastmile_qr_scan", "ios": "https://dc.lft.to/lastmile_qr_scan"}, "fusion_lon": 0.0, "lat": 38.9037295, "bike_id": "cb06b1ea2bb5ca1b9d81b161880234d6", "type": "electric_scooter", "is_reserved": 0, "lon": -77.04381716666667}, {"fusion_lat": 0.0, "name": "fecfa1f0a1bc5e28cd2218a63e8e0fdd", "is_disabled": 0, "rental_uris": {"android": "https://dc.lft.to/lastmile_qr_scan", "ios": "https://dc.lft.to/lastmile_qr_scan"}, "fusion_lon": 0.0, "lat": 38.9193745, "bike_id": "fecfa1f0a1bc5e28cd2218a63e8e0fdd", "type": "electric_scooter", "is_reserved": 0, "lon": -77.03190216666667}, {"fusion_lat": 0.0, "name": "c73962844a9b187b34ec5ff4e7b35fac", "is_disabled": 0, "rental_uris": {"android": "https://dc.lft.to/lastmile_qr_scan", "ios": "https://dc.lft.to/lastmile_qr_scan"}, "fusion_lon": 0.0, "lat": 38.927996, "bike_id": "c73962844a9b187b34ec5ff4e7b35fac", "type": "electric_scooter", "is_reserved": 0, "lon": -76.95558933333334}, {"fusion_lat": 0.0, "name": "c96a18360bdc87c5bd8745e9e27f2c25", "is_disabled": 0, "rental_uris": {"android": "https://dc.lft.to/lastmile_qr_scan", "ios": "https://dc.lft.to/lastmile_qr_scan"}, "fusion_lon": 0.0, "lat": 38.904880166666665, "bike_id": "c96a18360bdc87c5bd8745e9e27f2c25", "type": "electric_scooter", "is_reserved": 0, "lon": -76.94955366666667}, {"fusion_lat": 0.0, "name": "047f18ed3402a709fd1a85c021b7fecf", "is_disabled": 0, "rental_uris": {"android": "https://dc.lft.to/lastmile_qr_scan", "ios": "https://dc.lft.to/lastmile_qr_scan"}, "fusion_lon": 0.0, "lat": 38.9272085, "bike_id": "047f18ed3402a709fd1a85c021b7fecf", "type": "electric_scooter", "is_reserved": 0, "lon": -77.06014583333334}, {"fusion_lat": 0.0, "name": "6fa893acb32e57720b8004beffed03f5", "is_disabled": 0, "rental_uris": {"android": "https://dc.lft.to/lastmile_qr_scan", "ios": "https://dc.lft.to/lastmile_qr_scan"}, "fusion_lon": 0.0, "lat": 38.9244645, "bike_id": "6fa893acb32e57720b8004beffed03f5", "type": "electric_scooter", "is_reserved": 0, "lon": -77.05243866666666}, {"fusion_lat": 0.0, "name": "26268bc9d9a97d03316cffe7cd3fabd2", "is_disabled": 0, "rental_uris": {"android": "https://dc.lft.to/lastmile_qr_scan", "ios": "https://dc.lft.to/lastmile_qr_scan"}, "fusion_lon": 0.0, "lat": 38.9492205, "bike_id": "26268bc9d9a97d03316cffe7cd3fabd2", "type": "electric_scooter", "is_reserved": 0, "lon": -77.01851766666667}, {"fusion_lat": 0.0, "name": "f9e7ec74b815fc61a5c4a1e1e9252e9e", "is_disabled": 0, "rental_uris": {"android": "https://dc.lft.to/lastmile_qr_scan", "ios": "https://dc.lft.to/lastmile_qr_scan"}, "fusion_lon": 0.0, "lat": 38.905342, "bike_id": "f9e7ec74b815fc61a5c4a1e1e9252e9e", "type": "electric_bike", "is_reserved": 0, "lon": -77.0294305}, {"fusion_lat": 0.0, "name": "76f045e60badd20a16aae816ec8ebe45", "is_disabled": 0, "rental_uris": {"android": "https://dc.lft.to/lastmile_qr_scan", "ios": "https://dc.lft.to/lastmile_qr_scan"}, "fusion_lon": 0.0, "lat": 38.900431166666664, "bike_id": "76f045e60badd20a16aae816ec8ebe45", "type": "electric_scooter", "is_reserved": 0, "lon": -77.03350633333334}, {"fusion_lat": 0.0, "name": "3da959d7985cadd6d55d5e8880f58f65", "is_disabled": 0, "rental_uris": {"android": "https://dc.lft.to/lastmile_qr_scan", "ios": "https://dc.lft.to/lastmile_qr_scan"}, "fusion_lon": 0.0, "lat": 38.968125, "bike_id": "3da959d7985cadd6d55d5e8880f58f65", "type": "electric_bike", "is_reserved": 0, "lon": -76.95527566666667}, {"fusion_lat": 0.0, "name": "2acf2246da153e06a1722ca2472030c2", "is_disabled": 0, "rental_uris": {"android": "https://dc.lft.to/lastmile_qr_scan", "ios": "https://dc.lft.to/lastmile_qr_scan"}, "fusion_lon": 0.0, "lat": 38.935835833333336, "bike_id": "2acf2246da153e06a1722ca2472030c2", "type": "electric_scooter", "is_reserved": 0, "lon": -77.02448066666666}, {"fusion_lat": 0.0, "name": "85ba0342986ba891cf7b77e6e19a6df1", "is_disabled": 0, "rental_uris": {"android": "https://dc.lft.to/lastmile_qr_scan", "ios": "https://dc.lft.to/lastmile_qr_scan"}, "fusion_lon": 0.0, "lat": 38.90053116666667, "bike_id": "85ba0342986ba891cf7b77e6e19a6df1", "type": "electric_scooter", "is_reserved": 0, "lon": -77.05601483333334}, {"fusion_lat": 0.0, "name": "164bd91d6049dbe363fc3063e7e471cd", "is_disabled": 0, "rental_uris": {"android": "https://dc.lft.to/lastmile_qr_scan", "ios": "https://dc.lft.to/lastmile_qr_scan"}, "fusion_lon": 0.0, "lat": 38.917591333333334, "bike_id": "164bd91d6049dbe363fc3063e7e471cd", "type": "electric_scooter", "is_reserved": 0, "lon": -77.02702}, {"fusion_lat": 0.0, "name": "7d8809406c6b4f589210e198ca2825b3", "is_disabled": 0, "rental_uris": {"android": "https://dc.lft.to/lastmile_qr_scan", "ios": "https://dc.lft.to/lastmile_qr_scan"}, "fusion_lon": 0.0, "lat": 38.90730716666667, "bike_id": "7d8809406c6b4f589210e198ca2825b3", "type": "electric_scooter", "is_reserved": 0, "lon": -77.0631535}, {"fusion_lat": 0.0, "name": "38633677102133fe60f84c8eb7d4a965", "is_disabled": 0, "rental_uris": {"android": "https://dc.lft.to/lastmile_qr_scan", "ios": "https://dc.lft.to/lastmile_qr_scan"}, "fusion_lon": 0.0, "lat": 38.79470666666667, "bike_id": "38633677102133fe60f84c8eb7d4a965", "type": "electric_bike", "is_reserved": 0, "lon": -76.99246733333334}, {"fusion_lat": 0.0, "name": "1117574263054db58c46fcf247e77959", "is_disabled": 0, "rental_uris": {"android": "https://dc.lft.to/lastmile_qr_scan", "ios": "https://dc.lft.to/lastmile_qr_scan"}, "fusion_lon": 0.0, "lat": 38.897331333333334, "bike_id": "1117574263054db58c46fcf247e77959", "type": "electric_scooter", "is_reserved": 0, "lon": -76.947017}, {"fusion_lat": 0.0, "name": "90f54de3eab9f6c207041cfd7a7a7a78", "is_disabled": 0, "rental_uris": {"android": "https://dc.lft.to/lastmile_qr_scan", "ios": "https://dc.lft.to/lastmile_qr_scan"}, "fusion_lon": 0.0, "lat": 38.91904066666667, "bike_id": "90f54de3eab9f6c207041cfd7a7a7a78", "type": "electric_scooter", "is_reserved": 0, "lon": -77.0275835}, {"fusion_lat": 0.0, "name": "645ff11a3f639e20a1029194cf4f0d77", "is_disabled": 0, "rental_uris": {"android": "https://dc.lft.to/lastmile_qr_scan", "ios": "https://dc.lft.to/lastmile_qr_scan"}, "fusion_lon": 0.0, "lat": 38.900369166666664, "bike_id": "645ff11a3f639e20a1029194cf4f0d77", "type": "electric_scooter", "is_reserved": 0, "lon": -77.0582595}, {"fusion_lat": 0.0, "name": "e72f66010bfb493d229fadc695964401", "is_disabled": 0, "rental_uris": {"android": "https://dc.lft.to/lastmile_qr_scan", "ios": "https://dc.lft.to/lastmile_qr_scan"}, "fusion_lon": 0.0, "lat": 38.89845433333333, "bike_id": "e72f66010bfb493d229fadc695964401", "type": "electric_scooter", "is_reserved": 0, "lon": -77.03018416666667}, {"fusion_lat": 0.0, "name": "233bb7d6076087c116a557ffa970d10e", "is_disabled": 0, "rental_uris": {"android": "https://dc.lft.to/lastmile_qr_scan", "ios": "https://dc.lft.to/lastmile_qr_scan"}, "fusion_lon": 0.0, "lat": 39.056346833333336, "bike_id": "233bb7d6076087c116a557ffa970d10e", "type": "electric_bike", "is_reserved": 0, "lon": -77.125291}, {"fusion_lat": 0.0, "name": "eebc9c0753172896fb8077487c5448f3", "is_disabled": 0, "rental_uris": {"android": "https://dc.lft.to/lastmile_qr_scan", "ios": "https://dc.lft.to/lastmile_qr_scan"}, "fusion_lon": 0.0, "lat": 38.89879083333334, "bike_id": "eebc9c0753172896fb8077487c5448f3", "type": "electric_scooter", "is_reserved": 0, "lon": -77.02824416666667}, {"fusion_lat": 0.0, "name": "8eb538abc1a1731ff7dadf740816e18b", "is_disabled": 0, "rental_uris": {"android": "https://dc.lft.to/lastmile_qr_scan", "ios": "https://dc.lft.to/lastmile_qr_scan"}, "fusion_lon": 0.0, "lat": 38.913622833333335, "bike_id": "8eb538abc1a1731ff7dadf740816e18b", "type": "electric_scooter", "is_reserved": 0, "lon": -77.04880066666666}, {"fusion_lat": 0.0, "name": "e69362b14cfe8f69655c8e812cb63ad0", "is_disabled": 0, "rental_uris": {"android": "https://dc.lft.to/lastmile_qr_scan", "ios": "https://dc.lft.to/lastmile_qr_scan"}, "fusion_lon": 0.0, "lat": 38.9047925, "bike_id": "e69362b14cfe8f69655c8e812cb63ad0", "type": "electric_scooter", "is_reserved": 0, "lon": -77.033656}, {"fusion_lat": 0.0, "name": "b0e939cdd1033d03fb20dd6e14fd4c57", "is_disabled": 0, "rental_uris": {"android": "https://dc.lft.to/lastmile_qr_scan", "ios": "https://dc.lft.to/lastmile_qr_scan"}, "fusion_lon": 0.0, "lat": 38.912716, "bike_id": "b0e939cdd1033d03fb20dd6e14fd4c57", "type": "electric_scooter", "is_reserved": 0, "lon": -77.04917433333334}, {"fusion_lat": 0.0, "name": "2a2a9ad41878284d963b2d763063a779", "is_disabled": 0, "rental_uris": {"android": "https://dc.lft.to/lastmile_qr_scan", "ios": "https://dc.lft.to/lastmile_qr_scan"}, "fusion_lon": 0.0, "lat": 38.91032916666666, "bike_id": "2a2a9ad41878284d963b2d763063a779", "type": "electric_scooter", "is_reserved": 0, "lon": -77.015164}, {"fusion_lat": 0.0, "name": "a05d14ca314cdcc99057f2b9b77be376", "is_disabled": 0, "rental_uris": {"android": "https://dc.lft.to/lastmile_qr_scan", "ios": "https://dc.lft.to/lastmile_qr_scan"}, "fusion_lon": 0.0, "lat": 38.89004966666667, "bike_id": "a05d14ca314cdcc99057f2b9b77be376", "type": "electric_scooter", "is_reserved": 0, "lon": -76.9374685}, {"fusion_lat": 0.0, "name": "5a8d12447fddb85a4f0594e395aa783a", "is_disabled": 0, "rental_uris": {"android": "https://dc.lft.to/lastmile_qr_scan", "ios": "https://dc.lft.to/lastmile_qr_scan"}, "fusion_lon": 0.0, "lat": 38.919542, "bike_id": "5a8d12447fddb85a4f0594e395aa783a", "type": "electric_scooter", "is_reserved": 0, "lon": -77.01780166666667}, {"fusion_lat": 0.0, "name": "f687fe20a2287acf9cbd4fb48fac5e7c", "is_disabled": 0, "rental_uris": {"android": "https://dc.lft.to/lastmile_qr_scan", "ios": "https://dc.lft.to/lastmile_qr_scan"}, "fusion_lon": 0.0, "lat": 38.923996333333335, "bike_id": "f687fe20a2287acf9cbd4fb48fac5e7c", "type": "electric_scooter", "is_reserved": 0, "lon": -77.02416183333334}, {"fusion_lat": 0.0, "name": "ae43b98b7925a2d9520e28ff553fbbcc", "is_disabled": 0, "rental_uris": {"android": "https://dc.lft.to/lastmile_qr_scan", "ios": "https://dc.lft.to/lastmile_qr_scan"}, "fusion_lon": 0.0, "lat": 38.916635166666666, "bike_id": "ae43b98b7925a2d9520e28ff553fbbcc", "type": "electric_scooter", "is_reserved": 0, "lon": -77.043821}, {"fusion_lat": 0.0, "name": "659b907d729167c984de6885d915737d", "is_disabled": 0, "rental_uris": {"android": "https://dc.lft.to/lastmile_qr_scan", "ios": "https://dc.lft.to/lastmile_qr_scan"}, "fusion_lon": 0.0, "lat": 38.9140735, "bike_id": "659b907d729167c984de6885d915737d", "type": "electric_scooter", "is_reserved": 0, "lon": -77.0456085}, {"fusion_lat": 0.0, "name": "7c7bcd4a476265a19f00cf3def5f0f98", "is_disabled": 0, "rental_uris": {"android": "https://dc.lft.to/lastmile_qr_scan", "ios": "https://dc.lft.to/lastmile_qr_scan"}, "fusion_lon": 0.0, "lat": 38.91704933333333, "bike_id": "7c7bcd4a476265a19f00cf3def5f0f98", "type": "electric_scooter", "is_reserved": 0, "lon": -77.03586833333334}, {"fusion_lat": 0.0, "name": "8c92154c287321f56f8033ca53faea33", "is_disabled": 0, "rental_uris": {"android": "https://dc.lft.to/lastmile_qr_scan", "ios": "https://dc.lft.to/lastmile_qr_scan"}, "fusion_lon": 0.0, "lat": 38.9217965, "bike_id": "8c92154c287321f56f8033ca53faea33", "type": "electric_scooter", "is_reserved": 0, "lon": -76.99791916666666}, {"fusion_lat": 0.0, "name": "c8dd077478d525242fbc30a95d74705f", "is_disabled": 0, "rental_uris": {"android": "https://dc.lft.to/lastmile_qr_scan", "ios": "https://dc.lft.to/lastmile_qr_scan"}, "fusion_lon": 0.0, "lat": 38.916171, "bike_id": "c8dd077478d525242fbc30a95d74705f", "type": "electric_scooter", "is_reserved": 0, "lon": -77.02964233333333}, {"fusion_lat": 0.0, "name": "572616e87c9447f9b5ba288acd816a2b", "is_disabled": 0, "rental_uris": {"android": "https://dc.lft.to/lastmile_qr_scan", "ios": "https://dc.lft.to/lastmile_qr_scan"}, "fusion_lon": 0.0, "lat": 38.908573, "bike_id": "572616e87c9447f9b5ba288acd816a2b", "type": "electric_scooter", "is_reserved": 0, "lon": -77.045992}, {"fusion_lat": 0.0, "name": "ea06e478847fce8f42598c32bc4bb0b2", "is_disabled": 0, "rental_uris": {"android": "https://dc.lft.to/lastmile_qr_scan", "ios": "https://dc.lft.to/lastmile_qr_scan"}, "fusion_lon": 0.0, "lat": 38.923597666666666, "bike_id": "ea06e478847fce8f42598c32bc4bb0b2", "type": "electric_scooter", "is_reserved": 0, "lon": -77.0423735}, {"fusion_lat": 0.0, "name": "393755490a7fe386bda1a495f0c013a9", "is_disabled": 0, "rental_uris": {"android": "https://dc.lft.to/lastmile_qr_scan", "ios": "https://dc.lft.to/lastmile_qr_scan"}, "fusion_lon": 0.0, "lat": 38.88388783333333, "bike_id": "393755490a7fe386bda1a495f0c013a9", "type": "electric_scooter", "is_reserved": 0, "lon": -76.99607633333333}, {"fusion_lat": 0.0, "name": "0b52b98e3b8b1b2c3ed00cb12d92273e", "is_disabled": 0, "rental_uris": {"android": "https://dc.lft.to/lastmile_qr_scan", "ios": "https://dc.lft.to/lastmile_qr_scan"}, "fusion_lon": 0.0, "lat": 38.93520866666667, "bike_id": "0b52b98e3b8b1b2c3ed00cb12d92273e", "type": "electric_scooter", "is_reserved": 0, "lon": -77.03081516666667}, {"fusion_lat": 0.0, "name": "65974857cd8ffea741ba413d955cd541", "is_disabled": 0, "rental_uris": {"android": "https://dc.lft.to/lastmile_qr_scan", "ios": "https://dc.lft.to/lastmile_qr_scan"}, "fusion_lon": 0.0, "lat": 38.897437833333335, "bike_id": "65974857cd8ffea741ba413d955cd541", "type": "electric_scooter", "is_reserved": 0, "lon": -77.02774583333333}, {"fusion_lat": 0.0, "name": "f35a3df126d3ce17c6e2aa77c2b193d7", "is_disabled": 0, "rental_uris": {"android": "https://dc.lft.to/lastmile_qr_scan", "ios": "https://dc.lft.to/lastmile_qr_scan"}, "fusion_lon": 0.0, "lat": 38.9165145, "bike_id": "f35a3df126d3ce17c6e2aa77c2b193d7", "type": "electric_scooter", "is_reserved": 0, "lon": -77.02828816666667}, {"fusion_lat": 0.0, "name": "b231594a5f23000f9893de1b192d78f5", "is_disabled": 0, "rental_uris": {"android": "https://dc.lft.to/lastmile_qr_scan", "ios": "https://dc.lft.to/lastmile_qr_scan"}, "fusion_lon": 0.0, "lat": 38.946622, "bike_id": "b231594a5f23000f9893de1b192d78f5", "type": "electric_bike", "is_reserved": 0, "lon": -77.00697516666666}, {"fusion_lat": 0.0, "name": "a9ed732914204c7f2b5243577d82cd4e", "is_disabled": 0, "rental_uris": {"android": "https://dc.lft.to/lastmile_qr_scan", "ios": "https://dc.lft.to/lastmile_qr_scan"}, "fusion_lon": 0.0, "lat": 38.907932833333334, "bike_id": "a9ed732914204c7f2b5243577d82cd4e", "type": "electric_scooter", "is_reserved": 0, "lon": -77.03200516666666}, {"fusion_lat": 0.0, "name": "cbbaf306022211d1a3767bbf1c412ab8", "is_disabled": 0, "rental_uris": {"android": "https://dc.lft.to/lastmile_qr_scan", "ios": "https://dc.lft.to/lastmile_qr_scan"}, "fusion_lon": 0.0, "lat": 38.906840833333334, "bike_id": "cbbaf306022211d1a3767bbf1c412ab8", "type": "electric_scooter", "is_reserved": 0, "lon": -77.02387233333333}, {"fusion_lat": 0.0, "name": "ace83cd950415d7c7b17ce0275516d32", "is_disabled": 0, "rental_uris": {"android": "https://dc.lft.to/lastmile_qr_scan", "ios": "https://dc.lft.to/lastmile_qr_scan"}, "fusion_lon": 0.0, "lat": 38.862633, "bike_id": "ace83cd950415d7c7b17ce0275516d32", "type": "electric_bike", "is_reserved": 0, "lon": -76.98350583333334}, {"fusion_lat": 0.0, "name": "1fe5957a6ee208e62534fe1f33826ab6", "is_disabled": 0, "rental_uris": {"android": "https://dc.lft.to/lastmile_qr_scan", "ios": "https://dc.lft.to/lastmile_qr_scan"}, "fusion_lon": 0.0, "lat": 38.886264833333335, "bike_id": "1fe5957a6ee208e62534fe1f33826ab6", "type": "electric_scooter", "is_reserved": 0, "lon": -77.01992716666666}, {"fusion_lat": 0.0, "name": "59d77dc603bde2e7dc8da0cd0710a2d7", "is_disabled": 0, "rental_uris": {"android": "https://dc.lft.to/lastmile_qr_scan", "ios": "https://dc.lft.to/lastmile_qr_scan"}, "fusion_lon": 0.0, "lat": 38.92849316666667, "bike_id": "59d77dc603bde2e7dc8da0cd0710a2d7", "type": "electric_scooter", "is_reserved": 0, "lon": -76.979837}, {"fusion_lat": 0.0, "name": "bf0350552f884479b72c179911d42493", "is_disabled": 0, "rental_uris": {"android": "https://dc.lft.to/lastmile_qr_scan", "ios": "https://dc.lft.to/lastmile_qr_scan"}, "fusion_lon": 0.0, "lat": 38.88727633333333, "bike_id": "bf0350552f884479b72c179911d42493", "type": "electric_scooter", "is_reserved": 0, "lon": -77.02195583333334}, {"fusion_lat": 0.0, "name": "29a387ef678a8cb61ac7735886ca5a84", "is_disabled": 0, "rental_uris": {"android": "https://dc.lft.to/lastmile_qr_scan", "ios": "https://dc.lft.to/lastmile_qr_scan"}, "fusion_lon": 0.0, "lat": 38.90698183333333, "bike_id": "29a387ef678a8cb61ac7735886ca5a84", "type": "electric_scooter", "is_reserved": 0, "lon": -77.04191983333334}, {"fusion_lat": 0.0, "name": "8802070f4b7d8dfa2fc42e1d6ee8cb46", "is_disabled": 0, "rental_uris": {"android": "https://dc.lft.to/lastmile_qr_scan", "ios": "https://dc.lft.to/lastmile_qr_scan"}, "fusion_lon": 0.0, "lat": 38.995361833333334, "bike_id": "8802070f4b7d8dfa2fc42e1d6ee8cb46", "type": "electric_bike", "is_reserved": 0, "lon": -77.07467466666667}, {"fusion_lat": 0.0, "name": "b29b8b99bc20ad8b6e86e08ddd3ce786", "is_disabled": 0, "rental_uris": {"android": "https://dc.lft.to/lastmile_qr_scan", "ios": "https://dc.lft.to/lastmile_qr_scan"}, "fusion_lon": 0.0, "lat": 38.927011666666665, "bike_id": "b29b8b99bc20ad8b6e86e08ddd3ce786", "type": "electric_scooter", "is_reserved": 0, "lon": -77.02424883333333}, {"fusion_lat": 0.0, "name": "c8a0bde6be50ae4465b38abd5c67746c", "is_disabled": 0, "rental_uris": {"android": "https://dc.lft.to/lastmile_qr_scan", "ios": "https://dc.lft.to/lastmile_qr_scan"}, "fusion_lon": 0.0, "lat": 38.956361, "bike_id": "c8a0bde6be50ae4465b38abd5c67746c", "type": "electric_scooter", "is_reserved": 0, "lon": -77.033066}, {"fusion_lat": 0.0, "name": "b96ac528932e92211de8e636bd95dd1c", "is_disabled": 0, "rental_uris": {"android": "https://dc.lft.to/lastmile_qr_scan", "ios": "https://dc.lft.to/lastmile_qr_scan"}, "fusion_lon": 0.0, "lat": 38.8877255, "bike_id": "b96ac528932e92211de8e636bd95dd1c", "type": "electric_scooter", "is_reserved": 0, "lon": -77.01509916666667}, {"fusion_lat": 0.0, "name": "66943523499845bdff32e22d54e8de80", "is_disabled": 0, "rental_uris": {"android": "https://dc.lft.to/lastmile_qr_scan", "ios": "https://dc.lft.to/lastmile_qr_scan"}, "fusion_lon": 0.0, "lat": 38.957465, "bike_id": "66943523499845bdff32e22d54e8de80", "type": "electric_bike", "is_reserved": 0, "lon": -76.9725455}, {"fusion_lat": 0.0, "name": "45fdb4b6f6b3217aa30d127efc6e65cf", "is_disabled": 0, "rental_uris": {"android": "https://dc.lft.to/lastmile_qr_scan", "ios": "https://dc.lft.to/lastmile_qr_scan"}, "fusion_lon": 0.0, "lat": 38.899840833333336, "bike_id": "45fdb4b6f6b3217aa30d127efc6e65cf", "type": "electric_scooter", "is_reserved": 0, "lon": -77.01497716666667}, {"fusion_lat": 0.0, "name": "067f8e6805cf64a775c3035487d66553", "is_disabled": 0, "rental_uris": {"android": "https://dc.lft.to/lastmile_qr_scan", "ios": "https://dc.lft.to/lastmile_qr_scan"}, "fusion_lon": 0.0, "lat": 38.920897833333335, "bike_id": "067f8e6805cf64a775c3035487d66553", "type": "electric_scooter", "is_reserved": 0, "lon": -77.0736715}, {"fusion_lat": 0.0, "name": "1cde068cd94d2768f673a37c77796091", "is_disabled": 0, "rental_uris": {"android": "https://dc.lft.to/lastmile_qr_scan", "ios": "https://dc.lft.to/lastmile_qr_scan"}, "fusion_lon": 0.0, "lat": 38.90792066666667, "bike_id": "1cde068cd94d2768f673a37c77796091", "type": "electric_scooter", "is_reserved": 0, "lon": -77.03191416666667}, {"fusion_lat": 0.0, "name": "d9d89beb6d7256703a99995e9c76fe6a", "is_disabled": 0, "rental_uris": {"android": "https://dc.lft.to/lastmile_qr_scan", "ios": "https://dc.lft.to/lastmile_qr_scan"}, "fusion_lon": 0.0, "lat": 38.919883, "bike_id": "d9d89beb6d7256703a99995e9c76fe6a", "type": "electric_scooter", "is_reserved": 0, "lon": -77.033302}, {"fusion_lat": 0.0, "name": "ffb926b3a5ae4942b0bac94c945be4ac", "is_disabled": 0, "rental_uris": {"android": "https://dc.lft.to/lastmile_qr_scan", "ios": "https://dc.lft.to/lastmile_qr_scan"}, "fusion_lon": 0.0, "lat": 38.90287633333333, "bike_id": "ffb926b3a5ae4942b0bac94c945be4ac", "type": "electric_scooter", "is_reserved": 0, "lon": -77.033488}, {"fusion_lat": 0.0, "name": "1fd94ee51aa150e63d5a694f8fef47d5", "is_disabled": 0, "rental_uris": {"android": "https://dc.lft.to/lastmile_qr_scan", "ios": "https://dc.lft.to/lastmile_qr_scan"}, "fusion_lon": 0.0, "lat": 38.925040333333335, "bike_id": "1fd94ee51aa150e63d5a694f8fef47d5", "type": "electric_scooter", "is_reserved": 0, "lon": -77.0232765}, {"fusion_lat": 0.0, "name": "f20c0cf9f15af318b9945b1daf0ed18d", "is_disabled": 0, "rental_uris": {"android": "https://dc.lft.to/lastmile_qr_scan", "ios": "https://dc.lft.to/lastmile_qr_scan"}, "fusion_lon": 0.0, "lat": 38.90024983333333, "bike_id": "f20c0cf9f15af318b9945b1daf0ed18d", "type": "electric_scooter", "is_reserved": 0, "lon": -77.0447445}, {"fusion_lat": 0.0, "name": "5878b3513164270a4881ba2f8d190353", "is_disabled": 0, "rental_uris": {"android": "https://dc.lft.to/lastmile_qr_scan", "ios": "https://dc.lft.to/lastmile_qr_scan"}, "fusion_lon": 0.0, "lat": 38.95876583333333, "bike_id": "5878b3513164270a4881ba2f8d190353", "type": "electric_bike", "is_reserved": 0, "lon": -76.97055883333333}, {"fusion_lat": 0.0, "name": "5f89cade0c2d912ef8411d35c3fb6936", "is_disabled": 0, "rental_uris": {"android": "https://dc.lft.to/lastmile_qr_scan", "ios": "https://dc.lft.to/lastmile_qr_scan"}, "fusion_lon": 0.0, "lat": 38.84920433333333, "bike_id": "5f89cade0c2d912ef8411d35c3fb6936", "type": "electric_bike", "is_reserved": 0, "lon": -77.07931}, {"fusion_lat": 0.0, "name": "5f85438dd8d10213f798a233fe8f660b", "is_disabled": 0, "rental_uris": {"android": "https://dc.lft.to/lastmile_qr_scan", "ios": "https://dc.lft.to/lastmile_qr_scan"}, "fusion_lon": 0.0, "lat": 38.91632583333333, "bike_id": "5f85438dd8d10213f798a233fe8f660b", "type": "electric_scooter", "is_reserved": 0, "lon": -77.02950333333334}, {"fusion_lat": 0.0, "name": "524a4408ed93997eb14f7e216e87dace", "is_disabled": 0, "rental_uris": {"android": "https://dc.lft.to/lastmile_qr_scan", "ios": "https://dc.lft.to/lastmile_qr_scan"}, "fusion_lon": 0.0, "lat": 39.01412833333333, "bike_id": "524a4408ed93997eb14f7e216e87dace", "type": "electric_bike", "is_reserved": 0, "lon": -77.04499316666667}, {"fusion_lat": 0.0, "name": "df57281a70d7e056c35c7e72c2b44ca0", "is_disabled": 0, "rental_uris": {"android": "https://dc.lft.to/lastmile_qr_scan", "ios": "https://dc.lft.to/lastmile_qr_scan"}, "fusion_lon": 0.0, "lat": 38.878873666666664, "bike_id": "df57281a70d7e056c35c7e72c2b44ca0", "type": "electric_bike", "is_reserved": 0, "lon": -77.02096566666667}, {"fusion_lat": 0.0, "name": "89d691d04efe53f870796e1897df4053", "is_disabled": 0, "rental_uris": {"android": "https://dc.lft.to/lastmile_qr_scan", "ios": "https://dc.lft.to/lastmile_qr_scan"}, "fusion_lon": 0.0, "lat": 38.81609783333333, "bike_id": "89d691d04efe53f870796e1897df4053", "type": "electric_bike", "is_reserved": 0, "lon": -76.9966045}, {"fusion_lat": 0.0, "name": "b24c4f8ad4f1efce7c0239d900da6d9d", "is_disabled": 0, "rental_uris": {"android": "https://dc.lft.to/lastmile_qr_scan", "ios": "https://dc.lft.to/lastmile_qr_scan"}, "fusion_lon": 0.0, "lat": 38.90060316666667, "bike_id": "b24c4f8ad4f1efce7c0239d900da6d9d", "type": "electric_scooter", "is_reserved": 0, "lon": -76.98717633333334}, {"fusion_lat": 0.0, "name": "93fd2dc062a50f8c0b89110720f45c81", "is_disabled": 0, "rental_uris": {"android": "https://dc.lft.to/lastmile_qr_scan", "ios": "https://dc.lft.to/lastmile_qr_scan"}, "fusion_lon": 0.0, "lat": 38.885064666666665, "bike_id": "93fd2dc062a50f8c0b89110720f45c81", "type": "electric_scooter", "is_reserved": 0, "lon": -76.997546}, {"fusion_lat": 0.0, "name": "0feb40cd0a43e096364a44aced78980d", "is_disabled": 0, "rental_uris": {"android": "https://dc.lft.to/lastmile_qr_scan", "ios": "https://dc.lft.to/lastmile_qr_scan"}, "fusion_lon": 0.0, "lat": 38.909768666666665, "bike_id": "0feb40cd0a43e096364a44aced78980d", "type": "electric_scooter", "is_reserved": 0, "lon": -77.03336216666666}, {"fusion_lat": 0.0, "name": "52a2490c88f0b98611724889cd59c529", "is_disabled": 0, "rental_uris": {"android": "https://dc.lft.to/lastmile_qr_scan", "ios": "https://dc.lft.to/lastmile_qr_scan"}, "fusion_lon": 0.0, "lat": 38.921606833333335, "bike_id": "52a2490c88f0b98611724889cd59c529", "type": "electric_scooter", "is_reserved": 0, "lon": -77.02098983333333}, {"fusion_lat": 0.0, "name": "173b2d5fea7d47dd8d2a95a38b872861", "is_disabled": 0, "rental_uris": {"android": "https://dc.lft.to/lastmile_qr_scan", "ios": "https://dc.lft.to/lastmile_qr_scan"}, "fusion_lon": 0.0, "lat": 38.87935133333333, "bike_id": "173b2d5fea7d47dd8d2a95a38b872861", "type": "electric_scooter", "is_reserved": 0, "lon": -77.0238215}, {"fusion_lat": 0.0, "name": "65d1f8693d086f49b25183e2fce0de9c", "is_disabled": 0, "rental_uris": {"android": "https://dc.lft.to/lastmile_qr_scan", "ios": "https://dc.lft.to/lastmile_qr_scan"}, "fusion_lon": 0.0, "lat": 38.88493366666667, "bike_id": "65d1f8693d086f49b25183e2fce0de9c", "type": "electric_scooter", "is_reserved": 0, "lon": -77.01085883333333}, {"fusion_lat": 0.0, "name": "9cd8259b176453b280b2f2e5ea45dba4", "is_disabled": 0, "rental_uris": {"android": "https://dc.lft.to/lastmile_qr_scan", "ios": "https://dc.lft.to/lastmile_qr_scan"}, "fusion_lon": 0.0, "lat": 38.90411366666667, "bike_id": "9cd8259b176453b280b2f2e5ea45dba4", "type": "electric_scooter", "is_reserved": 0, "lon": -77.02122683333333}, {"fusion_lat": 0.0, "name": "460f8f6c5f2cddabfa789633c175ad25", "is_disabled": 0, "rental_uris": {"android": "https://dc.lft.to/lastmile_qr_scan", "ios": "https://dc.lft.to/lastmile_qr_scan"}, "fusion_lon": 0.0, "lat": 38.92372983333333, "bike_id": "460f8f6c5f2cddabfa789633c175ad25", "type": "electric_scooter", "is_reserved": 0, "lon": -77.02137333333333}, {"fusion_lat": 0.0, "name": "8561e38940d98d1a931626c9b96d6e9b", "is_disabled": 0, "rental_uris": {"android": "https://dc.lft.to/lastmile_qr_scan", "ios": "https://dc.lft.to/lastmile_qr_scan"}, "fusion_lon": 0.0, "lat": 38.913193, "bike_id": "8561e38940d98d1a931626c9b96d6e9b", "type": "electric_scooter", "is_reserved": 0, "lon": -77.021233}, {"fusion_lat": 0.0, "name": "82fbed446af8f9a571584d70b3cc2430", "is_disabled": 0, "rental_uris": {"android": "https://dc.lft.to/lastmile_qr_scan", "ios": "https://dc.lft.to/lastmile_qr_scan"}, "fusion_lon": 0.0, "lat": 38.890175, "bike_id": "82fbed446af8f9a571584d70b3cc2430", "type": "electric_scooter", "is_reserved": 0, "lon": -76.93734333333333}, {"fusion_lat": 0.0, "name": "d77b519c9277f7b51930981d863a959a", "is_disabled": 0, "rental_uris": {"android": "https://dc.lft.to/lastmile_qr_scan", "ios": "https://dc.lft.to/lastmile_qr_scan"}, "fusion_lon": 0.0, "lat": 38.90862333333333, "bike_id": "d77b519c9277f7b51930981d863a959a", "type": "electric_scooter", "is_reserved": 0, "lon": -76.999622}, {"fusion_lat": 0.0, "name": "f244397f17184b79ee554978e98e41bf", "is_disabled": 0, "rental_uris": {"android": "https://dc.lft.to/lastmile_qr_scan", "ios": "https://dc.lft.to/lastmile_qr_scan"}, "fusion_lon": 0.0, "lat": 38.88342933333333, "bike_id": "f244397f17184b79ee554978e98e41bf", "type": "electric_scooter", "is_reserved": 0, "lon": -77.01700183333334}, {"fusion_lat": 0.0, "name": "f7c6f557f7c736da7df021021d33b75c", "is_disabled": 0, "rental_uris": {"android": "https://dc.lft.to/lastmile_qr_scan", "ios": "https://dc.lft.to/lastmile_qr_scan"}, "fusion_lon": 0.0, "lat": 38.923091166666666, "bike_id": "f7c6f557f7c736da7df021021d33b75c", "type": "electric_scooter", "is_reserved": 0, "lon": -77.04310883333333}, {"fusion_lat": 0.0, "name": "dd18eeddb019e083aedb47d7d6d21200", "is_disabled": 0, "rental_uris": {"android": "https://dc.lft.to/lastmile_qr_scan", "ios": "https://dc.lft.to/lastmile_qr_scan"}, "fusion_lon": 0.0, "lat": 38.8709065, "bike_id": "dd18eeddb019e083aedb47d7d6d21200", "type": "electric_scooter", "is_reserved": 0, "lon": -77.01207733333334}, {"fusion_lat": 0.0, "name": "ba82c1ffa15c644222bdd3c0376c3880", "is_disabled": 0, "rental_uris": {"android": "https://dc.lft.to/lastmile_qr_scan", "ios": "https://dc.lft.to/lastmile_qr_scan"}, "fusion_lon": 0.0, "lat": 38.923252, "bike_id": "ba82c1ffa15c644222bdd3c0376c3880", "type": "electric_scooter", "is_reserved": 0, "lon": -77.02971933333333}, {"fusion_lat": 0.0, "name": "3e36c5706b0c7bc1a246cc6b695cd446", "is_disabled": 0, "rental_uris": {"android": "https://dc.lft.to/lastmile_qr_scan", "ios": "https://dc.lft.to/lastmile_qr_scan"}, "fusion_lon": 0.0, "lat": 38.901412, "bike_id": "3e36c5706b0c7bc1a246cc6b695cd446", "type": "electric_scooter", "is_reserved": 0, "lon": -77.0007375}, {"fusion_lat": 0.0, "name": "25224f4a4c3957e6e5a7587809138822", "is_disabled": 0, "rental_uris": {"android": "https://dc.lft.to/lastmile_qr_scan", "ios": "https://dc.lft.to/lastmile_qr_scan"}, "fusion_lon": 0.0, "lat": 38.900253666666664, "bike_id": "25224f4a4c3957e6e5a7587809138822", "type": "electric_scooter", "is_reserved": 0, "lon": -76.998583}, {"fusion_lat": 0.0, "name": "fa58170bb22663be291d2c326fe47486", "is_disabled": 0, "rental_uris": {"android": "https://dc.lft.to/lastmile_qr_scan", "ios": "https://dc.lft.to/lastmile_qr_scan"}, "fusion_lon": 0.0, "lat": 38.8901585, "bike_id": "fa58170bb22663be291d2c326fe47486", "type": "electric_scooter", "is_reserved": 0, "lon": -76.93743866666667}, {"fusion_lat": 0.0, "name": "43009c6dbac5fb4f6883f6400c569b59", "is_disabled": 0, "rental_uris": {"android": "https://dc.lft.to/lastmile_qr_scan", "ios": "https://dc.lft.to/lastmile_qr_scan"}, "fusion_lon": 0.0, "lat": 38.92076733333333, "bike_id": "43009c6dbac5fb4f6883f6400c569b59", "type": "electric_scooter", "is_reserved": 0, "lon": -76.99468133333333}, {"fusion_lat": 0.0, "name": "a3552cad86b6b6b64b670942e6f0cd86", "is_disabled": 0, "rental_uris": {"android": "https://dc.lft.to/lastmile_qr_scan", "ios": "https://dc.lft.to/lastmile_qr_scan"}, "fusion_lon": 0.0, "lat": 38.91691616666667, "bike_id": "a3552cad86b6b6b64b670942e6f0cd86", "type": "electric_scooter", "is_reserved": 0, "lon": -77.02305766666667}, {"fusion_lat": 0.0, "name": "22a5eb1ea2ff629587d5e63cb538898f", "is_disabled": 0, "rental_uris": {"android": "https://dc.lft.to/lastmile_qr_scan", "ios": "https://dc.lft.to/lastmile_qr_scan"}, "fusion_lon": 0.0, "lat": 38.9209995, "bike_id": "22a5eb1ea2ff629587d5e63cb538898f", "type": "electric_scooter", "is_reserved": 0, "lon": -77.0219395}, {"fusion_lat": 0.0, "name": "3175ccaa731d50de1c1acbc3b2c5496e", "is_disabled": 0, "rental_uris": {"android": "https://dc.lft.to/lastmile_qr_scan", "ios": "https://dc.lft.to/lastmile_qr_scan"}, "fusion_lon": 0.0, "lat": 38.99099916666667, "bike_id": "3175ccaa731d50de1c1acbc3b2c5496e", "type": "electric_bike", "is_reserved": 0, "lon": -76.99371416666666}, {"fusion_lat": 0.0, "name": "551e3f91c2f7d7acdd88f912532ad9f1", "is_disabled": 0, "rental_uris": {"android": "https://dc.lft.to/lastmile_qr_scan", "ios": "https://dc.lft.to/lastmile_qr_scan"}, "fusion_lon": 0.0, "lat": 38.89612866666667, "bike_id": "551e3f91c2f7d7acdd88f912532ad9f1", "type": "electric_scooter", "is_reserved": 0, "lon": -76.98109216666667}, {"fusion_lat": 0.0, "name": "0da3bb343245773f7ac1146a0839500f", "is_disabled": 0, "rental_uris": {"android": "https://dc.lft.to/lastmile_qr_scan", "ios": "https://dc.lft.to/lastmile_qr_scan"}, "fusion_lon": 0.0, "lat": 38.885305833333334, "bike_id": "0da3bb343245773f7ac1146a0839500f", "type": "electric_scooter", "is_reserved": 0, "lon": -76.92921566666666}, {"fusion_lat": 0.0, "name": "9154a26a385bd2b113e58dd0970cb43d", "is_disabled": 0, "rental_uris": {"android": "https://dc.lft.to/lastmile_qr_scan", "ios": "https://dc.lft.to/lastmile_qr_scan"}, "fusion_lon": 0.0, "lat": 38.91693983333333, "bike_id": "9154a26a385bd2b113e58dd0970cb43d", "type": "electric_scooter", "is_reserved": 0, "lon": -77.02594483333333}, {"fusion_lat": 0.0, "name": "b9e5134fef98e4d088688cd4429a4723", "is_disabled": 0, "rental_uris": {"android": "https://dc.lft.to/lastmile_qr_scan", "ios": "https://dc.lft.to/lastmile_qr_scan"}, "fusion_lon": 0.0, "lat": 38.897476166666664, "bike_id": "b9e5134fef98e4d088688cd4429a4723", "type": "electric_scooter", "is_reserved": 0, "lon": -77.0235285}, {"fusion_lat": 0.0, "name": "2e81e810c0ab2fdf9f28aadfa00ccdf4", "is_disabled": 0, "rental_uris": {"android": "https://dc.lft.to/lastmile_qr_scan", "ios": "https://dc.lft.to/lastmile_qr_scan"}, "fusion_lon": 0.0, "lat": 38.89911983333333, "bike_id": "2e81e810c0ab2fdf9f28aadfa00ccdf4", "type": "electric_scooter", "is_reserved": 0, "lon": -76.94583666666666}, {"fusion_lat": 0.0, "name": "82e3ba346a24d78295e987d2b6cbb2de", "is_disabled": 0, "rental_uris": {"android": "https://dc.lft.to/lastmile_qr_scan", "ios": "https://dc.lft.to/lastmile_qr_scan"}, "fusion_lon": 0.0, "lat": 38.9195225, "bike_id": "82e3ba346a24d78295e987d2b6cbb2de", "type": "electric_scooter", "is_reserved": 0, "lon": -77.02497666666666}, {"fusion_lat": 0.0, "name": "87c84c6eea882b7759f19bb68b4751d0", "is_disabled": 0, "rental_uris": {"android": "https://dc.lft.to/lastmile_qr_scan", "ios": "https://dc.lft.to/lastmile_qr_scan"}, "fusion_lon": 0.0, "lat": 38.921267, "bike_id": "87c84c6eea882b7759f19bb68b4751d0", "type": "electric_scooter", "is_reserved": 0, "lon": -77.01808916666667}, {"fusion_lat": 0.0, "name": "3c12c187d3973b0ef68676940f7208c1", "is_disabled": 0, "rental_uris": {"android": "https://dc.lft.to/lastmile_qr_scan", "ios": "https://dc.lft.to/lastmile_qr_scan"}, "fusion_lon": 0.0, "lat": 38.919964666666665, "bike_id": "3c12c187d3973b0ef68676940f7208c1", "type": "electric_scooter", "is_reserved": 0, "lon": -77.02393516666666}, {"fusion_lat": 0.0, "name": "c4b363c8605fd3de2dcc0d4d64ec9be4", "is_disabled": 0, "rental_uris": {"android": "https://dc.lft.to/lastmile_qr_scan", "ios": "https://dc.lft.to/lastmile_qr_scan"}, "fusion_lon": 0.0, "lat": 38.89904116666666, "bike_id": "c4b363c8605fd3de2dcc0d4d64ec9be4", "type": "electric_scooter", "is_reserved": 0, "lon": -76.9336235}, {"fusion_lat": 0.0, "name": "f5672554ec777b59433d0a5c37bdb645", "is_disabled": 0, "rental_uris": {"android": "https://dc.lft.to/lastmile_qr_scan", "ios": "https://dc.lft.to/lastmile_qr_scan"}, "fusion_lon": 0.0, "lat": 38.916815666666665, "bike_id": "f5672554ec777b59433d0a5c37bdb645", "type": "electric_scooter", "is_reserved": 0, "lon": -77.0229615}, {"fusion_lat": 0.0, "name": "8a28f8b7796a8551deae34595b5554f4", "is_disabled": 0, "rental_uris": {"android": "https://dc.lft.to/lastmile_qr_scan", "ios": "https://dc.lft.to/lastmile_qr_scan"}, "fusion_lon": 0.0, "lat": 38.91691816666667, "bike_id": "8a28f8b7796a8551deae34595b5554f4", "type": "electric_scooter", "is_reserved": 0, "lon": -77.03217983333333}, {"fusion_lat": 0.0, "name": "e1e75f5743eebcfd3a3b4a75c69c1b46", "is_disabled": 0, "rental_uris": {"android": "https://dc.lft.to/lastmile_qr_scan", "ios": "https://dc.lft.to/lastmile_qr_scan"}, "fusion_lon": 0.0, "lat": 38.875795833333335, "bike_id": "e1e75f5743eebcfd3a3b4a75c69c1b46", "type": "electric_bike", "is_reserved": 0, "lon": -77.234105}, {"fusion_lat": 0.0, "name": "7d08c5a4858c19513afd2d98d4298257", "is_disabled": 0, "rental_uris": {"android": "https://dc.lft.to/lastmile_qr_scan", "ios": "https://dc.lft.to/lastmile_qr_scan"}, "fusion_lon": 0.0, "lat": 38.95054783333333, "bike_id": "7d08c5a4858c19513afd2d98d4298257", "type": "electric_scooter", "is_reserved": 0, "lon": -77.08028833333333}, {"fusion_lat": 0.0, "name": "b56ce482da991df75e77ef31f1e5b911", "is_disabled": 0, "rental_uris": {"android": "https://dc.lft.to/lastmile_qr_scan", "ios": "https://dc.lft.to/lastmile_qr_scan"}, "fusion_lon": 0.0, "lat": 38.907279, "bike_id": "b56ce482da991df75e77ef31f1e5b911", "type": "electric_scooter", "is_reserved": 0, "lon": -77.04361566666667}, {"fusion_lat": 0.0, "name": "5122550c38fbb7d58d9a1d5d4fb47cee", "is_disabled": 0, "rental_uris": {"android": "https://dc.lft.to/lastmile_qr_scan", "ios": "https://dc.lft.to/lastmile_qr_scan"}, "fusion_lon": 0.0, "lat": 38.8845325, "bike_id": "5122550c38fbb7d58d9a1d5d4fb47cee", "type": "electric_scooter", "is_reserved": 0, "lon": -76.99391316666667}, {"fusion_lat": 0.0, "name": "28ef1a6ee8212c8b174070e62177cebc", "is_disabled": 0, "rental_uris": {"android": "https://dc.lft.to/lastmile_qr_scan", "ios": "https://dc.lft.to/lastmile_qr_scan"}, "fusion_lon": 0.0, "lat": 38.89555166666667, "bike_id": "28ef1a6ee8212c8b174070e62177cebc", "type": "electric_scooter", "is_reserved": 0, "lon": -77.02578083333333}, {"fusion_lat": 0.0, "name": "61d48d8b604cf0ce2b61775823413ae2", "is_disabled": 0, "rental_uris": {"android": "https://dc.lft.to/lastmile_qr_scan", "ios": "https://dc.lft.to/lastmile_qr_scan"}, "fusion_lon": 0.0, "lat": 38.90432583333333, "bike_id": "61d48d8b604cf0ce2b61775823413ae2", "type": "electric_scooter", "is_reserved": 0, "lon": -76.9961495}, {"fusion_lat": 0.0, "name": "b3139ad7660a89dc73c609e826f38cd6", "is_disabled": 0, "rental_uris": {"android": "https://dc.lft.to/lastmile_qr_scan", "ios": "https://dc.lft.to/lastmile_qr_scan"}, "fusion_lon": 0.0, "lat": 38.916963833333334, "bike_id": "b3139ad7660a89dc73c609e826f38cd6", "type": "electric_bike", "is_reserved": 0, "lon": -77.03125516666667}, {"fusion_lat": 0.0, "name": "d0e6dfe2f46d1a327a6ec3b6ab2eea89", "is_disabled": 0, "rental_uris": {"android": "https://dc.lft.to/lastmile_qr_scan", "ios": "https://dc.lft.to/lastmile_qr_scan"}, "fusion_lon": 0.0, "lat": 38.80676533333333, "bike_id": "d0e6dfe2f46d1a327a6ec3b6ab2eea89", "type": "electric_bike", "is_reserved": 0, "lon": -77.06923433333333}, {"fusion_lat": 0.0, "name": "9636b1043d052919a51841e4caaebc90", "is_disabled": 0, "rental_uris": {"android": "https://dc.lft.to/lastmile_qr_scan", "ios": "https://dc.lft.to/lastmile_qr_scan"}, "fusion_lon": 0.0, "lat": 38.90567, "bike_id": "9636b1043d052919a51841e4caaebc90", "type": "electric_scooter", "is_reserved": 0, "lon": -77.03800583333333}, {"fusion_lat": 0.0, "name": "2fe6e0bb5792d6a6f3c40712bafe39f7", "is_disabled": 0, "rental_uris": {"android": "https://dc.lft.to/lastmile_qr_scan", "ios": "https://dc.lft.to/lastmile_qr_scan"}, "fusion_lon": 0.0, "lat": 38.95625666666667, "bike_id": "2fe6e0bb5792d6a6f3c40712bafe39f7", "type": "electric_bike", "is_reserved": 0, "lon": -76.93874133333334}, {"fusion_lat": 0.0, "name": "07103385f7d97f0e1ad03deffbe94874", "is_disabled": 0, "rental_uris": {"android": "https://dc.lft.to/lastmile_qr_scan", "ios": "https://dc.lft.to/lastmile_qr_scan"}, "fusion_lon": 0.0, "lat": 38.9255155, "bike_id": "07103385f7d97f0e1ad03deffbe94874", "type": "electric_scooter", "is_reserved": 0, "lon": -76.983187}, {"fusion_lat": 0.0, "name": "532545fc2e0d8b286d609fd74187bf5b", "is_disabled": 0, "rental_uris": {"android": "https://dc.lft.to/lastmile_qr_scan", "ios": "https://dc.lft.to/lastmile_qr_scan"}, "fusion_lon": 0.0, "lat": 38.90243616666667, "bike_id": "532545fc2e0d8b286d609fd74187bf5b", "type": "electric_scooter", "is_reserved": 0, "lon": -77.05901366666667}, {"fusion_lat": 0.0, "name": "7bdea91360740617c9247e51b47821ec", "is_disabled": 0, "rental_uris": {"android": "https://dc.lft.to/lastmile_qr_scan", "ios": "https://dc.lft.to/lastmile_qr_scan"}, "fusion_lon": 0.0, "lat": 38.9125285, "bike_id": "7bdea91360740617c9247e51b47821ec", "type": "electric_scooter", "is_reserved": 0, "lon": -77.03849833333334}, {"fusion_lat": 0.0, "name": "901ba0fe21869bece534a223b87dcd55", "is_disabled": 0, "rental_uris": {"android": "https://dc.lft.to/lastmile_qr_scan", "ios": "https://dc.lft.to/lastmile_qr_scan"}, "fusion_lon": 0.0, "lat": 38.95310083333333, "bike_id": "901ba0fe21869bece534a223b87dcd55", "type": "electric_scooter", "is_reserved": 0, "lon": -77.022502}, {"fusion_lat": 0.0, "name": "0f2144f85c2368023b2500dbf74634f7", "is_disabled": 0, "rental_uris": {"android": "https://dc.lft.to/lastmile_qr_scan", "ios": "https://dc.lft.to/lastmile_qr_scan"}, "fusion_lon": 0.0, "lat": 38.992297, "bike_id": "0f2144f85c2368023b2500dbf74634f7", "type": "electric_bike", "is_reserved": 0, "lon": -76.94416583333333}, {"fusion_lat": 0.0, "name": "f9672a8e1679b430e3070129fea10145", "is_disabled": 0, "rental_uris": {"android": "https://dc.lft.to/lastmile_qr_scan", "ios": "https://dc.lft.to/lastmile_qr_scan"}, "fusion_lon": 0.0, "lat": 38.855254333333335, "bike_id": "f9672a8e1679b430e3070129fea10145", "type": "electric_bike", "is_reserved": 0, "lon": -77.12012466666667}, {"fusion_lat": 0.0, "name": "5a9f1f8040a0de69d4e65fca671ca6de", "is_disabled": 0, "rental_uris": {"android": "https://dc.lft.to/lastmile_qr_scan", "ios": "https://dc.lft.to/lastmile_qr_scan"}, "fusion_lon": 0.0, "lat": 38.91786316666666, "bike_id": "5a9f1f8040a0de69d4e65fca671ca6de", "type": "electric_scooter", "is_reserved": 0, "lon": -77.02305133333333}, {"fusion_lat": 0.0, "name": "848a3519f8c64c612aa3d6df5ec02190", "is_disabled": 0, "rental_uris": {"android": "https://dc.lft.to/lastmile_qr_scan", "ios": "https://dc.lft.to/lastmile_qr_scan"}, "fusion_lon": 0.0, "lat": 38.88506816666667, "bike_id": "848a3519f8c64c612aa3d6df5ec02190", "type": "electric_scooter", "is_reserved": 0, "lon": -77.0006625}, {"fusion_lat": 0.0, "name": "e7e51ee32fa0fb45ebc1a41f1e9e505d", "is_disabled": 0, "rental_uris": {"android": "https://dc.lft.to/lastmile_qr_scan", "ios": "https://dc.lft.to/lastmile_qr_scan"}, "fusion_lon": 0.0, "lat": 38.915178166666664, "bike_id": "e7e51ee32fa0fb45ebc1a41f1e9e505d", "type": "electric_scooter", "is_reserved": 0, "lon": -77.01327183333333}, {"fusion_lat": 0.0, "name": "cf6827eb682ebf9572641eb36d4e3d5d", "is_disabled": 0, "rental_uris": {"android": "https://dc.lft.to/lastmile_qr_scan", "ios": "https://dc.lft.to/lastmile_qr_scan"}, "fusion_lon": 0.0, "lat": 38.9172005, "bike_id": "cf6827eb682ebf9572641eb36d4e3d5d", "type": "electric_scooter", "is_reserved": 0, "lon": -77.02377516666667}, {"fusion_lat": 0.0, "name": "5ec561d1b476f7b9002331abebbef45f", "is_disabled": 0, "rental_uris": {"android": "https://dc.lft.to/lastmile_qr_scan", "ios": "https://dc.lft.to/lastmile_qr_scan"}, "fusion_lon": 0.0, "lat": 38.919988000000004, "bike_id": "5ec561d1b476f7b9002331abebbef45f", "type": "electric_scooter", "is_reserved": 0, "lon": -77.02388733333333}, {"fusion_lat": 0.0, "name": "a533cd856cc6d3853ba57150f9c7cefa", "is_disabled": 0, "rental_uris": {"android": "https://dc.lft.to/lastmile_qr_scan", "ios": "https://dc.lft.to/lastmile_qr_scan"}, "fusion_lon": 0.0, "lat": 38.89817216666667, "bike_id": "a533cd856cc6d3853ba57150f9c7cefa", "type": "electric_scooter", "is_reserved": 0, "lon": -77.03177033333333}, {"fusion_lat": 0.0, "name": "8900b93f90ab73c939b6274043a1ddd9", "is_disabled": 0, "rental_uris": {"android": "https://dc.lft.to/lastmile_qr_scan", "ios": "https://dc.lft.to/lastmile_qr_scan"}, "fusion_lon": 0.0, "lat": 38.922292666666664, "bike_id": "8900b93f90ab73c939b6274043a1ddd9", "type": "electric_scooter", "is_reserved": 0, "lon": -77.04647116666666}, {"fusion_lat": 0.0, "name": "48689a63fd182393a9a42bba3fd0d271", "is_disabled": 0, "rental_uris": {"android": "https://dc.lft.to/lastmile_qr_scan", "ios": "https://dc.lft.to/lastmile_qr_scan"}, "fusion_lon": 0.0, "lat": 38.9215535, "bike_id": "48689a63fd182393a9a42bba3fd0d271", "type": "electric_scooter", "is_reserved": 0, "lon": -77.02424733333334}, {"fusion_lat": 0.0, "name": "aea0f5e4172eef9a0f1636f63348257a", "is_disabled": 0, "rental_uris": {"android": "https://dc.lft.to/lastmile_qr_scan", "ios": "https://dc.lft.to/lastmile_qr_scan"}, "fusion_lon": 0.0, "lat": 38.867669, "bike_id": "aea0f5e4172eef9a0f1636f63348257a", "type": "electric_scooter", "is_reserved": 0, "lon": -76.98271983333333}, {"fusion_lat": 0.0, "name": "c834ba06372f8dff7115bdcd8853bdb1", "is_disabled": 0, "rental_uris": {"android": "https://dc.lft.to/lastmile_qr_scan", "ios": "https://dc.lft.to/lastmile_qr_scan"}, "fusion_lon": 0.0, "lat": 38.88988033333333, "bike_id": "c834ba06372f8dff7115bdcd8853bdb1", "type": "electric_scooter", "is_reserved": 0, "lon": -76.9779405}, {"fusion_lat": 0.0, "name": "1843983b66dfd5794278500d7770b493", "is_disabled": 0, "rental_uris": {"android": "https://dc.lft.to/lastmile_qr_scan", "ios": "https://dc.lft.to/lastmile_qr_scan"}, "fusion_lon": 0.0, "lat": 38.87389616666667, "bike_id": "1843983b66dfd5794278500d7770b493", "type": "electric_scooter", "is_reserved": 0, "lon": -77.00127066666667}, {"fusion_lat": 0.0, "name": "a1239474f4c9423fbd54d41bd1d5f602", "is_disabled": 0, "rental_uris": {"android": "https://dc.lft.to/lastmile_qr_scan", "ios": "https://dc.lft.to/lastmile_qr_scan"}, "fusion_lon": 0.0, "lat": 38.88716183333333, "bike_id": "a1239474f4c9423fbd54d41bd1d5f602", "type": "electric_scooter", "is_reserved": 0, "lon": -77.01775516666666}, {"fusion_lat": 0.0, "name": "dc2845a76b0e22b528384fb823944227", "is_disabled": 0, "rental_uris": {"android": "https://dc.lft.to/lastmile_qr_scan", "ios": "https://dc.lft.to/lastmile_qr_scan"}, "fusion_lon": 0.0, "lat": 38.8950025, "bike_id": "dc2845a76b0e22b528384fb823944227", "type": "electric_scooter", "is_reserved": 0, "lon": -77.00301666666667}, {"fusion_lat": 0.0, "name": "9eaa5362f7c083a2c05c77ee6b094a05", "is_disabled": 0, "rental_uris": {"android": "https://dc.lft.to/lastmile_qr_scan", "ios": "https://dc.lft.to/lastmile_qr_scan"}, "fusion_lon": 0.0, "lat": 38.95964583333333, "bike_id": "9eaa5362f7c083a2c05c77ee6b094a05", "type": "electric_bike", "is_reserved": 0, "lon": -76.98153716666667}, {"fusion_lat": 0.0, "name": "42286ca3ace9914d4e569dcf461e17be", "is_disabled": 0, "rental_uris": {"android": "https://dc.lft.to/lastmile_qr_scan", "ios": "https://dc.lft.to/lastmile_qr_scan"}, "fusion_lon": 0.0, "lat": 38.927044, "bike_id": "42286ca3ace9914d4e569dcf461e17be", "type": "electric_scooter", "is_reserved": 0, "lon": -77.02424083333334}, {"fusion_lat": 0.0, "name": "8e878ed55daada2ec7050347181386d9", "is_disabled": 0, "rental_uris": {"android": "https://dc.lft.to/lastmile_qr_scan", "ios": "https://dc.lft.to/lastmile_qr_scan"}, "fusion_lon": 0.0, "lat": 38.928599, "bike_id": "8e878ed55daada2ec7050347181386d9", "type": "electric_scooter", "is_reserved": 0, "lon": -77.03096216666667}, {"fusion_lat": 0.0, "name": "35ac1531711edfc90cf55a61d18968ee", "is_disabled": 0, "rental_uris": {"android": "https://dc.lft.to/lastmile_qr_scan", "ios": "https://dc.lft.to/lastmile_qr_scan"}, "fusion_lon": 0.0, "lat": 38.95737416666667, "bike_id": "35ac1531711edfc90cf55a61d18968ee", "type": "electric_bike", "is_reserved": 0, "lon": -76.9808575}, {"fusion_lat": 0.0, "name": "fc7f30f78441968eb233e37e32f9b9af", "is_disabled": 0, "rental_uris": {"android": "https://dc.lft.to/lastmile_qr_scan", "ios": "https://dc.lft.to/lastmile_qr_scan"}, "fusion_lon": 0.0, "lat": 38.92202133333333, "bike_id": "fc7f30f78441968eb233e37e32f9b9af", "type": "electric_scooter", "is_reserved": 0, "lon": -77.08084283333334}, {"fusion_lat": 0.0, "name": "ae9c2b640c027997ca4947cc28837b5b", "is_disabled": 0, "rental_uris": {"android": "https://dc.lft.to/lastmile_qr_scan", "ios": "https://dc.lft.to/lastmile_qr_scan"}, "fusion_lon": 0.0, "lat": 38.9123075, "bike_id": "ae9c2b640c027997ca4947cc28837b5b", "type": "electric_scooter", "is_reserved": 0, "lon": -77.018916}, {"fusion_lat": 0.0, "name": "d3cd10c4f3c656147bbb34ab6b42a632", "is_disabled": 0, "rental_uris": {"android": "https://dc.lft.to/lastmile_qr_scan", "ios": "https://dc.lft.to/lastmile_qr_scan"}, "fusion_lon": 0.0, "lat": 38.899074166666665, "bike_id": "d3cd10c4f3c656147bbb34ab6b42a632", "type": "electric_scooter", "is_reserved": 0, "lon": -76.93352916666667}, {"fusion_lat": 0.0, "name": "c4b25715f8cf84e971cf944c85e87fb4", "is_disabled": 0, "rental_uris": {"android": "https://dc.lft.to/lastmile_qr_scan", "ios": "https://dc.lft.to/lastmile_qr_scan"}, "fusion_lon": 0.0, "lat": 38.93607633333333, "bike_id": "c4b25715f8cf84e971cf944c85e87fb4", "type": "electric_scooter", "is_reserved": 0, "lon": -77.03201483333333}, {"fusion_lat": 0.0, "name": "df4cef0d857b898219cee498eab795b9", "is_disabled": 0, "rental_uris": {"android": "https://dc.lft.to/lastmile_qr_scan", "ios": "https://dc.lft.to/lastmile_qr_scan"}, "fusion_lon": 0.0, "lat": 38.922500166666666, "bike_id": "df4cef0d857b898219cee498eab795b9", "type": "electric_scooter", "is_reserved": 0, "lon": -77.07474583333334}, {"fusion_lat": 0.0, "name": "e5804a532d1bbdce67abf768af35788a", "is_disabled": 0, "rental_uris": {"android": "https://dc.lft.to/lastmile_qr_scan", "ios": "https://dc.lft.to/lastmile_qr_scan"}, "fusion_lon": 0.0, "lat": 38.931917166666665, "bike_id": "e5804a532d1bbdce67abf768af35788a", "type": "electric_bike", "is_reserved": 0, "lon": -77.2292825}, {"fusion_lat": 0.0, "name": "983c09bf590c1a015ab44fe69e5a46b1", "is_disabled": 0, "rental_uris": {"android": "https://dc.lft.to/lastmile_qr_scan", "ios": "https://dc.lft.to/lastmile_qr_scan"}, "fusion_lon": 0.0, "lat": 38.93509683333333, "bike_id": "983c09bf590c1a015ab44fe69e5a46b1", "type": "electric_scooter", "is_reserved": 0, "lon": -77.03348933333334}, {"fusion_lat": 0.0, "name": "6239407440016d6d40022797a376b658", "is_disabled": 0, "rental_uris": {"android": "https://dc.lft.to/lastmile_qr_scan", "ios": "https://dc.lft.to/lastmile_qr_scan"}, "fusion_lon": 0.0, "lat": 38.9206475, "bike_id": "6239407440016d6d40022797a376b658", "type": "electric_scooter", "is_reserved": 0, "lon": -77.042569}, {"fusion_lat": 0.0, "name": "0802ca450c3d6cd1a1246c6a73202a43", "is_disabled": 0, "rental_uris": {"android": "https://dc.lft.to/lastmile_qr_scan", "ios": "https://dc.lft.to/lastmile_qr_scan"}, "fusion_lon": 0.0, "lat": 38.878841, "bike_id": "0802ca450c3d6cd1a1246c6a73202a43", "type": "electric_scooter", "is_reserved": 0, "lon": -77.02315683333333}, {"fusion_lat": 0.0, "name": "0a6766d5f9804e008341908e19cbe4ea", "is_disabled": 0, "rental_uris": {"android": "https://dc.lft.to/lastmile_qr_scan", "ios": "https://dc.lft.to/lastmile_qr_scan"},