{"data": {"bikes": [{"fusion_lat": 0.0, "bike_id": "825ac37ed77d4586cb2c0402caddc58e", "fusion_lon": 0.0, "lon": -77.06770683333333, "lat": 38.903630666666665, "is_reserved": 0, "is_disabled": 0, "rental_uris": {"android": "https://dc.lft.to/lastmile_qr_scan", "ios": "https://dc.lft.to/lastmile_qr_scan"}, "name": "825ac37ed77d4586cb2c0402caddc58e", "type": "electric_scooter"}, {"fusion_lat": 0.0, "bike_id": "4b7130530da7c51f990bd5bbc0d580bf", "fusion_lon": 0.0, "lon": -76.9691235, "lat": 38.846097666666665, "is_reserved": 0, "is_disabled": 0, "rental_uris": {"android": "https://dc.lft.to/lastmile_qr_scan", "ios": "https://dc.lft.to/lastmile_qr_scan"}, "name": "4b7130530da7c51f990bd5bbc0d580bf", "type": "electric_bike"}, {"fusion_lat": 0.0, "bike_id": "48a42d4efdb378475c9c52d939219a32", "fusion_lon": 0.0, "lon": -77.046689, "lat": 38.89664633333334, "is_reserved": 0, "is_disabled": 0, "rental_uris": {"android": "https://dc.lft.to/lastmile_qr_scan", "ios": "https://dc.lft.to/lastmile_qr_scan"}, "name": "48a42d4efdb378475c9c52d939219a32", "type": "electric_scooter"}, {"fusion_lat": 0.0, "bike_id": "dbd4d1d34cb08815ed6489a80960585b", "fusion_lon": 0.0, "lon": -76.96153766666667, "lat": 38.88357216666667, "is_reserved": 0, "is_disabled": 0, "rental_uris": {"android": "https://dc.lft.to/lastmile_qr_scan", "ios": "https://dc.lft.to/lastmile_qr_scan"}, "name": "dbd4d1d34cb08815ed6489a80960585b", "type": "electric_scooter"}, {"fusion_lat": 0.0, "bike_id": "7c9bd44498d40ef8668bbff2ed150930", "fusion_lon": 0.0, "lon": -77.0266555, "lat": 38.9221675, "is_reserved": 0, "is_disabled": 0, "rental_uris": {"android": "https://dc.lft.to/lastmile_qr_scan", "ios": "https://dc.lft.to/lastmile_qr_scan"}, "name": "7c9bd44498d40ef8668bbff2ed150930", "type": "electric_scooter"}, {"fusion_lat": 0.0, "bike_id": "265e079b233ec4f445ff35d805ae709c", "fusion_lon": 0.0, "lon": -77.03644, "lat": 38.91342183333333, "is_reserved": 0, "is_disabled": 0, "rental_uris": {"android": "https://dc.lft.to/lastmile_qr_scan", "ios": "https://dc.lft.to/lastmile_qr_scan"}, "name": "265e079b233ec4f445ff35d805ae709c", "type": "electric_scooter"}, {"fusion_lat": 0.0, "bike_id": "8496330d5cf9fbcc0e4893ac133a7a28", "fusion_lon": 0.0, "lon": -77.04491666666667, "lat": 38.907325166666666, "is_reserved": 0, "is_disabled": 0, "rental_uris": {"android": "https://dc.lft.to/lastmile_qr_scan", "ios": "https://dc.lft.to/lastmile_qr_scan"}, "name": "8496330d5cf9fbcc0e4893ac133a7a28", "type": "electric_scooter"}, {"fusion_lat": 0.0, "bike_id": "704c56d2c7f6b6dcc53b40e8aa342c84", "fusion_lon": 0.0, "lon": -76.9833705, "lat": 38.89540366666667, "is_reserved": 0, "is_disabled": 0, "rental_uris": {"android": "https://dc.lft.to/lastmile_qr_scan", "ios": "https://dc.lft.to/lastmile_qr_scan"}, "name": "704c56d2c7f6b6dcc53b40e8aa342c84", "type": "electric_scooter"}, {"fusion_lat": 0.0, "bike_id": "790449358617c2b4e3b1dfcfdaa04784", "fusion_lon": 0.0, "lon": -77.03340816666666, "lat": 38.899016333333336, "is_reserved": 0, "is_disabled": 0, "rental_uris": {"android": "https://dc.lft.to/lastmile_qr_scan", "ios": "https://dc.lft.to/lastmile_qr_scan"}, "name": "790449358617c2b4e3b1dfcfdaa04784", "type": "electric_scooter"}, {"fusion_lat": 0.0, "bike_id": "8d761014416b7d48ad96767c8516bb1f", "fusion_lon": 0.0, "lon": -77.03266033333334, "lat": 38.93775216666667, "is_reserved": 0, "is_disabled": 0, "rental_uris": {"android": "https://dc.lft.to/lastmile_qr_scan", "ios": "https://dc.lft.to/lastmile_qr_scan"}, "name": "8d761014416b7d48ad96767c8516bb1f", "type": "electric_scooter"}, {"fusion_lat": 0.0, "bike_id": "f03d808224f6674caa36d1775fb3f22e", "fusion_lon": 0.0, "lon": -77.0394455, "lat": 38.898885, "is_reserved": 0, "is_disabled": 0, "rental_uris": {"android": "https://dc.lft.to/lastmile_qr_scan", "ios": "https://dc.lft.to/lastmile_qr_scan"}, "name": "f03d808224f6674caa36d1775fb3f22e", "type": "electric_scooter"}, {"fusion_lat": 0.0, "bike_id": "91955892695e3dfcbed9e8ba4e5dfee4", "fusion_lon": 0.0, "lon": -77.04669983333334, "lat": 38.89950566666667, "is_reserved": 0, "is_disabled": 0, "rental_uris": {"android": "https://dc.lft.to/lastmile_qr_scan", "ios": "https://dc.lft.to/lastmile_qr_scan"}, "name": "91955892695e3dfcbed9e8ba4e5dfee4", "type": "electric_scooter"}, {"fusion_lat": 0.0, "bike_id": "449320f350081e97a60c49ec85dcb778", "fusion_lon": 0.0, "lon": -77.00985416666667, "lat": 38.87289366666667, "is_reserved": 0, "is_disabled": 0, "rental_uris": {"android": "https://dc.lft.to/lastmile_qr_scan", "ios": "https://dc.lft.to/lastmile_qr_scan"}, "name": "449320f350081e97a60c49ec85dcb778", "type": "electric_scooter"}, {"fusion_lat": 0.0, "bike_id": "ae12f08a606e37eb62d24017cc2f1ba5", "fusion_lon": 0.0, "lon": -76.93757983333333, "lat": 38.8902575, "is_reserved": 0, "is_disabled": 0, "rental_uris": {"android": "https://dc.lft.to/lastmile_qr_scan", "ios": "https://dc.lft.to/lastmile_qr_scan"}, "name": "ae12f08a606e37eb62d24017cc2f1ba5", "type": "electric_scooter"}, {"fusion_lat": 0.0, "bike_id": "4a9ac3b05d5652197ac87cca9dc50910", "fusion_lon": 0.0, "lon": -77.05240166666667, "lat": 38.925448333333335, "is_reserved": 0, "is_disabled": 0, "rental_uris": {"android": "https://dc.lft.to/lastmile_qr_scan", "ios": "https://dc.lft.to/lastmile_qr_scan"}, "name": "4a9ac3b05d5652197ac87cca9dc50910", "type": "electric_scooter"}, {"fusion_lat": 0.0, "bike_id": "38eefbc6e296ee3a862122323737768e", "fusion_lon": 0.0, "lon": -77.02901, "lat": 38.91686833333333, "is_reserved": 0, "is_disabled": 0, "rental_uris": {"android": "https://dc.lft.to/lastmile_qr_scan", "ios": "https://dc.lft.to/lastmile_qr_scan"}, "name": "38eefbc6e296ee3a862122323737768e", "type": "electric_scooter"}, {"fusion_lat": 0.0, "bike_id": "60f7d52415c70097d355d35bd7b05c2d", "fusion_lon": 0.0, "lon": -77.04183616666667, "lat": 38.892539666666664, "is_reserved": 0, "is_disabled": 0, "rental_uris": {"android": "https://dc.lft.to/lastmile_qr_scan", "ios": "https://dc.lft.to/lastmile_qr_scan"}, "name": "60f7d52415c70097d355d35bd7b05c2d", "type": "electric_scooter"}, {"fusion_lat": 0.0, "bike_id": "306caa0e7ed0fbc140c244f8118d6556", "fusion_lon": 0.0, "lon": -77.027214, "lat": 38.906644166666666, "is_reserved": 0, "is_disabled": 0, "rental_uris": {"android": "https://dc.lft.to/lastmile_qr_scan", "ios": "https://dc.lft.to/lastmile_qr_scan"}, "name": "306caa0e7ed0fbc140c244f8118d6556", "type": "electric_scooter"}, {"fusion_lat": 0.0, "bike_id": "205d0c1c963613f924c033c354039633", "fusion_lon": 0.0, "lon": -77.02123383333333, "lat": 38.9223365, "is_reserved": 0, "is_disabled": 0, "rental_uris": {"android": "https://dc.lft.to/lastmile_qr_scan", "ios": "https://dc.lft.to/lastmile_qr_scan"}, "name": "205d0c1c963613f924c033c354039633", "type": "electric_scooter"}, {"fusion_lat": 0.0, "bike_id": "b9e39e2fbb4f5c8f10498b84ebbdbe1e", "fusion_lon": 0.0, "lon": -77.06622283333333, "lat": 38.9121255, "is_reserved": 0, "is_disabled": 0, "rental_uris": {"android": "https://dc.lft.to/lastmile_qr_scan", "ios": "https://dc.lft.to/lastmile_qr_scan"}, "name": "b9e39e2fbb4f5c8f10498b84ebbdbe1e", "type": "electric_scooter"}, {"fusion_lat": 0.0, "bike_id": "601517e885e84c56404cb80775083303", "fusion_lon": 0.0, "lon": -77.02838616666666, "lat": 38.9327625, "is_reserved": 0, "is_disabled": 0, "rental_uris": {"android": "https://dc.lft.to/lastmile_qr_scan", "ios": "https://dc.lft.to/lastmile_qr_scan"}, "name": "601517e885e84c56404cb80775083303", "type": "electric_scooter"}, {"fusion_lat": 0.0, "bike_id": "bd6919f6fddb20564e740a9a3310ae0e", "fusion_lon": 0.0, "lon": -77.03113766666667, "lat": 38.915552166666664, "is_reserved": 0, "is_disabled": 0, "rental_uris": {"android": "https://dc.lft.to/lastmile_qr_scan", "ios": "https://dc.lft.to/lastmile_qr_scan"}, "name": "bd6919f6fddb20564e740a9a3310ae0e", "type": "electric_scooter"}, {"fusion_lat": 0.0, "bike_id": "23f02fc02cae5c3f8fece4ef780fa501", "fusion_lon": 0.0, "lon": -76.98784566666667, "lat": 38.86728, "is_reserved": 0, "is_disabled": 0, "rental_uris": {"android": "https://dc.lft.to/lastmile_qr_scan", "ios": "https://dc.lft.to/lastmile_qr_scan"}, "name": "23f02fc02cae5c3f8fece4ef780fa501", "type": "electric_scooter"}, {"fusion_lat": 0.0, "bike_id": "69373a428cfb198c05aed3e5b9ecf940", "fusion_lon": 0.0, "lon": -77.0292415, "lat": 38.9345555, "is_reserved": 0, "is_disabled": 0, "rental_uris": {"android": "https://dc.lft.to/lastmile_qr_scan", "ios": "https://dc.lft.to/lastmile_qr_scan"}, "name": "69373a428cfb198c05aed3e5b9ecf940", "type": "electric_scooter"}, {"fusion_lat": 0.0, "bike_id": "67750b150f02279ca1ff9df615612b0b", "fusion_lon": 0.0, "lon": -76.97674083333334, "lat": 38.952427166666666, "is_reserved": 0, "is_disabled": 0, "rental_uris": {"android": "https://dc.lft.to/lastmile_qr_scan", "ios": "https://dc.lft.to/lastmile_qr_scan"}, "name": "67750b150f02279ca1ff9df615612b0b", "type": "electric_bike"}, {"fusion_lat": 0.0, "bike_id": "6e2fe11df117c2ce75beab398fc73e3c", "fusion_lon": 0.0, "lon": -77.01956283333334, "lat": 38.9231135, "is_reserved": 0, "is_disabled": 0, "rental_uris": {"android": "https://dc.lft.to/lastmile_qr_scan", "ios": "https://dc.lft.to/lastmile_qr_scan"}, "name": "6e2fe11df117c2ce75beab398fc73e3c", "type": "electric_scooter"}, {"fusion_lat": 0.0, "bike_id": "abeed266c9a25ae863b4c7c73ad833a9", "fusion_lon": 0.0, "lon": -77.038418, "lat": 38.911836, "is_reserved": 0, "is_disabled": 0, "rental_uris": {"android": "https://dc.lft.to/lastmile_qr_scan", "ios": "https://dc.lft.to/lastmile_qr_scan"}, "name": "abeed266c9a25ae863b4c7c73ad833a9", "type": "electric_scooter"}, {"fusion_lat": 0.0, "bike_id": "bdd2769cfc6e9b2c3ca1abe11d26622c", "fusion_lon": 0.0, "lon": -77.03823783333333, "lat": 38.90670683333333, "is_reserved": 0, "is_disabled": 0, "rental_uris": {"android": "https://dc.lft.to/lastmile_qr_scan", "ios": "https://dc.lft.to/lastmile_qr_scan"}, "name": "bdd2769cfc6e9b2c3ca1abe11d26622c", "type": "electric_scooter"}, {"fusion_lat": 0.0, "bike_id": "7b9c1fdfb654fda07a6356234bb110fa", "fusion_lon": 0.0, "lon": -77.00068966666667, "lat": 38.90725916666667, "is_reserved": 0, "is_disabled": 0, "rental_uris": {"android": "https://dc.lft.to/lastmile_qr_scan", "ios": "https://dc.lft.to/lastmile_qr_scan"}, "name": "7b9c1fdfb654fda07a6356234bb110fa", "type": "electric_scooter"}, {"fusion_lat": 0.0, "bike_id": "6d76ee2858c1355657d2956e9cea939a", "fusion_lon": 0.0, "lon": -77.044998, "lat": 38.9004555, "is_reserved": 0, "is_disabled": 0, "rental_uris": {"android": "https://dc.lft.to/lastmile_qr_scan", "ios": "https://dc.lft.to/lastmile_qr_scan"}, "name": "6d76ee2858c1355657d2956e9cea939a", "type": "electric_scooter"}, {"fusion_lat": 0.0, "bike_id": "fbdd3b20a99c4ab88a553d339f2bb693", "fusion_lon": 0.0, "lon": -77.04671383333333, "lat": 38.90032816666667, "is_reserved": 0, "is_disabled": 0, "rental_uris": {"android": "https://dc.lft.to/lastmile_qr_scan", "ios": "https://dc.lft.to/lastmile_qr_scan"}, "name": "fbdd3b20a99c4ab88a553d339f2bb693", "type": "electric_scooter"}, {"fusion_lat": 0.0, "bike_id": "31dc13dc809b00ffea5c18c3bec4b5cd", "fusion_lon": 0.0, "lon": -77.03726633333333, "lat": 38.91477283333333, "is_reserved": 0, "is_disabled": 0, "rental_uris": {"android": "https://dc.lft.to/lastmile_qr_scan", "ios": "https://dc.lft.to/lastmile_qr_scan"}, "name": "31dc13dc809b00ffea5c18c3bec4b5cd", "type": "electric_scooter"}, {"fusion_lat": 0.0, "bike_id": "194155cd69ee72e527c33b54097ac4af", "fusion_lon": 0.0, "lon": -77.04951616666666, "lat": 38.90084933333333, "is_reserved": 0, "is_disabled": 0, "rental_uris": {"android": "https://dc.lft.to/lastmile_qr_scan", "ios": "https://dc.lft.to/lastmile_qr_scan"}, "name": "194155cd69ee72e527c33b54097ac4af", "type": "electric_scooter"}, {"fusion_lat": 0.0, "bike_id": "b4a63195f3361e3362e34e38d14a27fb", "fusion_lon": 0.0, "lon": -77.02718933333334, "lat": 38.90670133333333, "is_reserved": 0, "is_disabled": 0, "rental_uris": {"android": "https://dc.lft.to/lastmile_qr_scan", "ios": "https://dc.lft.to/lastmile_qr_scan"}, "name": "b4a63195f3361e3362e34e38d14a27fb", "type": "electric_scooter"}, {"fusion_lat": 0.0, "bike_id": "485aaa97529e93724abdb7352375c0e2", "fusion_lon": 0.0, "lon": -77.02827266666667, "lat": 38.89576533333333, "is_reserved": 0, "is_disabled": 0, "rental_uris": {"android": "https://dc.lft.to/lastmile_qr_scan", "ios": "https://dc.lft.to/lastmile_qr_scan"}, "name": "485aaa97529e93724abdb7352375c0e2", "type": "electric_scooter"}, {"fusion_lat": 0.0, "bike_id": "5de70d8766d23ed03642b4847761c7c7", "fusion_lon": 0.0, "lon": -77.03262633333334, "lat": 38.932634, "is_reserved": 0, "is_disabled": 0, "rental_uris": {"android": "https://dc.lft.to/lastmile_qr_scan", "ios": "https://dc.lft.to/lastmile_qr_scan"}, "name": "5de70d8766d23ed03642b4847761c7c7", "type": "electric_scooter"}, {"fusion_lat": 0.0, "bike_id": "ce37b8b163be25b058438e5158ae4e7e", "fusion_lon": 0.0, "lon": -77.02166383333333, "lat": 38.89467483333333, "is_reserved": 0, "is_disabled": 0, "rental_uris": {"android": "https://dc.lft.to/lastmile_qr_scan", "ios": "https://dc.lft.to/lastmile_qr_scan"}, "name": "ce37b8b163be25b058438e5158ae4e7e", "type": "electric_scooter"}, {"fusion_lat": 0.0, "bike_id": "33acd7af9f454a2fe676c1ad8c5e7ce9", "fusion_lon": 0.0, "lon": -77.02002866666666, "lat": 38.886072166666665, "is_reserved": 0, "is_disabled": 0, "rental_uris": {"android": "https://dc.lft.to/lastmile_qr_scan", "ios": "https://dc.lft.to/lastmile_qr_scan"}, "name": "33acd7af9f454a2fe676c1ad8c5e7ce9", "type": "electric_scooter"}, {"fusion_lat": 0.0, "bike_id": "f82e2dd4114989b8e5c9e77c23a038fa", "fusion_lon": 0.0, "lon": -77.0779295, "lat": 38.9960255, "is_reserved": 0, "is_disabled": 0, "rental_uris": {"android": "https://dc.lft.to/lastmile_qr_scan", "ios": "https://dc.lft.to/lastmile_qr_scan"}, "name": "f82e2dd4114989b8e5c9e77c23a038fa", "type": "electric_bike"}, {"fusion_lat": 0.0, "bike_id": "46aee55cdd81f971d037152fc11cef43", "fusion_lon": 0.0, "lon": -77.042144, "lat": 38.92124966666667, "is_reserved": 0, "is_disabled": 0, "rental_uris": {"android": "https://dc.lft.to/lastmile_qr_scan", "ios": "https://dc.lft.to/lastmile_qr_scan"}, "name": "46aee55cdd81f971d037152fc11cef43", "type": "electric_scooter"}, {"fusion_lat": 0.0, "bike_id": "5fe2e8e56a0bfa699285bad970f63ef0", "fusion_lon": 0.0, "lon": -76.97653833333334, "lat": 38.898726, "is_reserved": 0, "is_disabled": 0, "rental_uris": {"android": "https://dc.lft.to/lastmile_qr_scan", "ios": "https://dc.lft.to/lastmile_qr_scan"}, "name": "5fe2e8e56a0bfa699285bad970f63ef0", "type": "electric_bike"}, {"fusion_lat": 0.0, "bike_id": "9eb3c3ae64bc82ff1a3ea57ad24f230b", "fusion_lon": 0.0, "lon": -77.03590066666666, "lat": 38.9096615, "is_reserved": 0, "is_disabled": 0, "rental_uris": {"android": "https://dc.lft.to/lastmile_qr_scan", "ios": "https://dc.lft.to/lastmile_qr_scan"}, "name": "9eb3c3ae64bc82ff1a3ea57ad24f230b", "type": "electric_scooter"}, {"fusion_lat": 0.0, "bike_id": "db129140625d22972318a72f9ab6ccc5", "fusion_lon": 0.0, "lon": -77.01379, "lat": 38.89824316666667, "is_reserved": 0, "is_disabled": 0, "rental_uris": {"android": "https://dc.lft.to/lastmile_qr_scan", "ios": "https://dc.lft.to/lastmile_qr_scan"}, "name": "db129140625d22972318a72f9ab6ccc5", "type": "electric_scooter"}, {"fusion_lat": 0.0, "bike_id": "30979b30036e6a6f40de06defc3330dd", "fusion_lon": 0.0, "lon": -77.02695116666666, "lat": 38.918646333333335, "is_reserved": 0, "is_disabled": 0, "rental_uris": {"android": "https://dc.lft.to/lastmile_qr_scan", "ios": "https://dc.lft.to/lastmile_qr_scan"}, "name": "30979b30036e6a6f40de06defc3330dd", "type": "electric_scooter"}, {"fusion_lat": 0.0, "bike_id": "afda45eb0e6c6c9462cce20708cf1d94", "fusion_lon": 0.0, "lon": -77.030056, "lat": 39.041941, "is_reserved": 0, "is_disabled": 0, "rental_uris": {"android": "https://dc.lft.to/lastmile_qr_scan", "ios": "https://dc.lft.to/lastmile_qr_scan"}, "name": "afda45eb0e6c6c9462cce20708cf1d94", "type": "electric_bike"}, {"fusion_lat": 0.0, "bike_id": "8a7fd010aa05edfbf6a82b558dfc8e75", "fusion_lon": 0.0, "lon": -77.04354216666667, "lat": 38.90685, "is_reserved": 0, "is_disabled": 0, "rental_uris": {"android": "https://dc.lft.to/lastmile_qr_scan", "ios": "https://dc.lft.to/lastmile_qr_scan"}, "name": "8a7fd010aa05edfbf6a82b558dfc8e75", "type": "electric_scooter"}, {"fusion_lat": 0.0, "bike_id": "0a6da316bdba44f01038d9f6387aaa65", "fusion_lon": 0.0, "lon": -77.0019995, "lat": 38.89099433333333, "is_reserved": 0, "is_disabled": 0, "rental_uris": {"android": "https://dc.lft.to/lastmile_qr_scan", "ios": "https://dc.lft.to/lastmile_qr_scan"}, "name": "0a6da316bdba44f01038d9f6387aaa65", "type": "electric_scooter"}, {"fusion_lat": 0.0, "bike_id": "dadaa01f40f6def9692573f380ab3a47", "fusion_lon": 0.0, "lon": -77.02734833333334, "lat": 38.897119, "is_reserved": 0, "is_disabled": 0, "rental_uris": {"android": "https://dc.lft.to/lastmile_qr_scan", "ios": "https://dc.lft.to/lastmile_qr_scan"}, "name": "dadaa01f40f6def9692573f380ab3a47", "type": "electric_scooter"}, {"fusion_lat": 0.0, "bike_id": "21526237ffde9dedeb1e6b90d1068a09", "fusion_lon": 0.0, "lon": -77.06474483333334, "lat": 38.94590866666667, "is_reserved": 0, "is_disabled": 0, "rental_uris": {"android": "https://dc.lft.to/lastmile_qr_scan", "ios": "https://dc.lft.to/lastmile_qr_scan"}, "name": "21526237ffde9dedeb1e6b90d1068a09", "type": "electric_bike"}, {"fusion_lat": 0.0, "bike_id": "faf6262ba0bd972eb84b648a9091d1a4", "fusion_lon": 0.0, "lon": -77.031834, "lat": 38.887351333333335, "is_reserved": 0, "is_disabled": 0, "rental_uris": {"android": "https://dc.lft.to/lastmile_qr_scan", "ios": "https://dc.lft.to/lastmile_qr_scan"}, "name": "faf6262ba0bd972eb84b648a9091d1a4", "type": "electric_scooter"}, {"fusion_lat": 0.0, "bike_id": "00bf4f0999fe888645c6370771f89a3c", "fusion_lon": 0.0, "lon": -77.0296385, "lat": 38.923059333333335, "is_reserved": 0, "is_disabled": 0, "rental_uris": {"android": "https://dc.lft.to/lastmile_qr_scan", "ios": "https://dc.lft.to/lastmile_qr_scan"}, "name": "00bf4f0999fe888645c6370771f89a3c", "type": "electric_scooter"}, {"fusion_lat": 0.0, "bike_id": "f25e11c4960586d834a5a830de2bca4d", "fusion_lon": 0.0, "lon": -77.02804383333333, "lat": 38.912129, "is_reserved": 0, "is_disabled": 0, "rental_uris": {"android": "https://dc.lft.to/lastmile_qr_scan", "ios": "https://dc.lft.to/lastmile_qr_scan"}, "name": "f25e11c4960586d834a5a830de2bca4d", "type": "electric_scooter"}, {"fusion_lat": 0.0, "bike_id": "9f4c1bade0ea270a0de36d1ecfca0a98", "fusion_lon": 0.0, "lon": -77.02797633333333, "lat": 38.95406166666667, "is_reserved": 0, "is_disabled": 0, "rental_uris": {"android": "https://dc.lft.to/lastmile_qr_scan", "ios": "https://dc.lft.to/lastmile_qr_scan"}, "name": "9f4c1bade0ea270a0de36d1ecfca0a98", "type": "electric_scooter"}, {"fusion_lat": 0.0, "bike_id": "d54f001099af9c0b807123a0178bdc5e", "fusion_lon": 0.0, "lon": -77.02237983333333, "lat": 38.89219333333333, "is_reserved": 0, "is_disabled": 0, "rental_uris": {"android": "https://dc.lft.to/lastmile_qr_scan", "ios": "https://dc.lft.to/lastmile_qr_scan"}, "name": "d54f001099af9c0b807123a0178bdc5e", "type": "electric_scooter"}, {"fusion_lat": 0.0, "bike_id": "36c74a0bfbf86a7e11a37f6528343876", "fusion_lon": 0.0, "lon": -77.03194733333333, "lat": 38.90993816666667, "is_reserved": 0, "is_disabled": 0, "rental_uris": {"android": "https://dc.lft.to/lastmile_qr_scan", "ios": "https://dc.lft.to/lastmile_qr_scan"}, "name": "36c74a0bfbf86a7e11a37f6528343876", "type": "electric_scooter"}, {"fusion_lat": 0.0, "bike_id": "cdc82f568bc8320cf2085b8b36ba0b6f", "fusion_lon": 0.0, "lon": -77.01971466666667, "lat": 38.919270833333336, "is_reserved": 0, "is_disabled": 0, "rental_uris": {"android": "https://dc.lft.to/lastmile_qr_scan", "ios": "https://dc.lft.to/lastmile_qr_scan"}, "name": "cdc82f568bc8320cf2085b8b36ba0b6f", "type": "electric_scooter"}, {"fusion_lat": 0.0, "bike_id": "788fb1bcb011b43b9f79ae951432a0ec", "fusion_lon": 0.0, "lon": -77.02717416666667, "lat": 38.906651833333335, "is_reserved": 0, "is_disabled": 0, "rental_uris": {"android": "https://dc.lft.to/lastmile_qr_scan", "ios": "https://dc.lft.to/lastmile_qr_scan"}, "name": "788fb1bcb011b43b9f79ae951432a0ec", "type": "electric_scooter"}, {"fusion_lat": 0.0, "bike_id": "85076103dd2b69f81ea78d2f8061becf", "fusion_lon": 0.0, "lon": -77.0074855, "lat": 38.9252785, "is_reserved": 0, "is_disabled": 0, "rental_uris": {"android": "https://dc.lft.to/lastmile_qr_scan", "ios": "https://dc.lft.to/lastmile_qr_scan"}, "name": "85076103dd2b69f81ea78d2f8061becf", "type": "electric_scooter"}, {"fusion_lat": 0.0, "bike_id": "d4794a9a1a8f79f4582e83fabd1bffda", "fusion_lon": 0.0, "lon": -77.0415095, "lat": 38.9229395, "is_reserved": 0, "is_disabled": 0, "rental_uris": {"android": "https://dc.lft.to/lastmile_qr_scan", "ios": "https://dc.lft.to/lastmile_qr_scan"}, "name": "d4794a9a1a8f79f4582e83fabd1bffda", "type": "electric_scooter"}, {"fusion_lat": 0.0, "bike_id": "7dcb1d50a99fc90dff8b037bc89b04d0", "fusion_lon": 0.0, "lon": -76.9903665, "lat": 38.90291966666667, "is_reserved": 0, "is_disabled": 0, "rental_uris": {"android": "https://dc.lft.to/lastmile_qr_scan", "ios": "https://dc.lft.to/lastmile_qr_scan"}, "name": "7dcb1d50a99fc90dff8b037bc89b04d0", "type": "electric_scooter"}, {"fusion_lat": 0.0, "bike_id": "e27c8f825987095b7778d908adc4f6df", "fusion_lon": 0.0, "lon": -76.963915, "lat": 38.951682, "is_reserved": 0, "is_disabled": 0, "rental_uris": {"android": "https://dc.lft.to/lastmile_qr_scan", "ios": "https://dc.lft.to/lastmile_qr_scan"}, "name": "e27c8f825987095b7778d908adc4f6df", "type": "electric_bike"}, {"fusion_lat": 0.0, "bike_id": "5b659d4cb01eb012ed0e0fefb8b45ee8", "fusion_lon": 0.0, "lon": -77.22798083333333, "lat": 38.91013233333334, "is_reserved": 0, "is_disabled": 0, "rental_uris": {"android": "https://dc.lft.to/lastmile_qr_scan", "ios": "https://dc.lft.to/lastmile_qr_scan"}, "name": "5b659d4cb01eb012ed0e0fefb8b45ee8", "type": "electric_bike"}, {"fusion_lat": 0.0, "bike_id": "9e1ffccdf6f93068dca2a6ec4ece6d80", "fusion_lon": 0.0, "lon": -77.01797716666667, "lat": 38.903876833333335, "is_reserved": 0, "is_disabled": 0, "rental_uris": {"android": "https://dc.lft.to/lastmile_qr_scan", "ios": "https://dc.lft.to/lastmile_qr_scan"}, "name": "9e1ffccdf6f93068dca2a6ec4ece6d80", "type": "electric_scooter"}, {"fusion_lat": 0.0, "bike_id": "89812748cf055959c7b9d546810bd1b6", "fusion_lon": 0.0, "lon": -77.0302675, "lat": 38.89980833333333, "is_reserved": 0, "is_disabled": 0, "rental_uris": {"android": "https://dc.lft.to/lastmile_qr_scan", "ios": "https://dc.lft.to/lastmile_qr_scan"}, "name": "89812748cf055959c7b9d546810bd1b6", "type": "electric_scooter"}, {"fusion_lat": 0.0, "bike_id": "4ec72a4cd8ef4014c4979be137381ea9", "fusion_lon": 0.0, "lon": -77.02585033333334, "lat": 38.887335666666665, "is_reserved": 0, "is_disabled": 0, "rental_uris": {"android": "https://dc.lft.to/lastmile_qr_scan", "ios": "https://dc.lft.to/lastmile_qr_scan"}, "name": "4ec72a4cd8ef4014c4979be137381ea9", "type": "electric_scooter"}, {"fusion_lat": 0.0, "bike_id": "2a43c731d35486c8db2a3ebd88cab39a", "fusion_lon": 0.0, "lon": -77.0381645, "lat": 38.930917, "is_reserved": 0, "is_disabled": 0, "rental_uris": {"android": "https://dc.lft.to/lastmile_qr_scan", "ios": "https://dc.lft.to/lastmile_qr_scan"}, "name": "2a43c731d35486c8db2a3ebd88cab39a", "type": "electric_scooter"}, {"fusion_lat": 0.0, "bike_id": "0f4f810d635437787561250cfc1e7038", "fusion_lon": 0.0, "lon": -76.963647, "lat": 38.9349645, "is_reserved": 0, "is_disabled": 0, "rental_uris": {"android": "https://dc.lft.to/lastmile_qr_scan", "ios": "https://dc.lft.to/lastmile_qr_scan"}, "name": "0f4f810d635437787561250cfc1e7038", "type": "electric_scooter"}, {"fusion_lat": 0.0, "bike_id": "b62096208c5e80c0362d9de3b6a369c5", "fusion_lon": 0.0, "lon": -76.958947, "lat": 38.8901105, "is_reserved": 0, "is_disabled": 0, "rental_uris": {"android": "https://dc.lft.to/lastmile_qr_scan", "ios": "https://dc.lft.to/lastmile_qr_scan"}, "name": "b62096208c5e80c0362d9de3b6a369c5", "type": "electric_scooter"}, {"fusion_lat": 0.0, "bike_id": "39e809350c42bdbb4485d9a86c60ab55", "fusion_lon": 0.0, "lon": -77.03515433333334, "lat": 38.92137916666667, "is_reserved": 0, "is_disabled": 0, "rental_uris": {"android": "https://dc.lft.to/lastmile_qr_scan", "ios": "https://dc.lft.to/lastmile_qr_scan"}, "name": "39e809350c42bdbb4485d9a86c60ab55", "type": "electric_scooter"}, {"fusion_lat": 0.0, "bike_id": "1b95da8825cda237c47fcbe61cac7007", "fusion_lon": 0.0, "lon": -77.03885283333334, "lat": 38.90634383333333, "is_reserved": 0, "is_disabled": 0, "rental_uris": {"android": "https://dc.lft.to/lastmile_qr_scan", "ios": "https://dc.lft.to/lastmile_qr_scan"}, "name": "1b95da8825cda237c47fcbe61cac7007", "type": "electric_scooter"}, {"fusion_lat": 0.0, "bike_id": "f2436f614b787f17f43cb911c45a5490", "fusion_lon": 0.0, "lon": -77.04865016666666, "lat": 38.909535, "is_reserved": 0, "is_disabled": 0, "rental_uris": {"android": "https://dc.lft.to/lastmile_qr_scan", "ios": "https://dc.lft.to/lastmile_qr_scan"}, "name": "f2436f614b787f17f43cb911c45a5490", "type": "electric_scooter"}, {"fusion_lat": 0.0, "bike_id": "486c68d21bc5ccfe021b45f29f211898", "fusion_lon": 0.0, "lon": -77.0092115, "lat": 38.827850833333336, "is_reserved": 0, "is_disabled": 0, "rental_uris": {"android": "https://dc.lft.to/lastmile_qr_scan", "ios": "https://dc.lft.to/lastmile_qr_scan"}, "name": "486c68d21bc5ccfe021b45f29f211898", "type": "electric_bike"}, {"fusion_lat": 0.0, "bike_id": "654d2fec70ffee03231c8ec56431ba99", "fusion_lon": 0.0, "lon": -77.02114516666667, "lat": 38.93703033333333, "is_reserved": 0, "is_disabled": 0, "rental_uris": {"android": "https://dc.lft.to/lastmile_qr_scan", "ios": "https://dc.lft.to/lastmile_qr_scan"}, "name": "654d2fec70ffee03231c8ec56431ba99", "type": "electric_scooter"}, {"fusion_lat": 0.0, "bike_id": "85884dfeb0cc955b1b1fb559ff080d6e", "fusion_lon": 0.0, "lon": -77.0468855, "lat": 38.892197833333334, "is_reserved": 0, "is_disabled": 0, "rental_uris": {"android": "https://dc.lft.to/lastmile_qr_scan", "ios": "https://dc.lft.to/lastmile_qr_scan"}, "name": "85884dfeb0cc955b1b1fb559ff080d6e", "type": "electric_scooter"}, {"fusion_lat": 0.0, "bike_id": "11bc4b9a2d42593255b2a05ee081d133", "fusion_lon": 0.0, "lon": -77.04689983333333, "lat": 38.89222566666667, "is_reserved": 0, "is_disabled": 0, "rental_uris": {"android": "https://dc.lft.to/lastmile_qr_scan", "ios": "https://dc.lft.to/lastmile_qr_scan"}, "name": "11bc4b9a2d42593255b2a05ee081d133", "type": "electric_scooter"}, {"fusion_lat": 0.0, "bike_id": "ff338fec95ac50779ccfd9007d817bac", "fusion_lon": 0.0, "lon": -77.01482616666667, "lat": 38.914105, "is_reserved": 0, "is_disabled": 0, "rental_uris": {"android": "https://dc.lft.to/lastmile_qr_scan", "ios": "https://dc.lft.to/lastmile_qr_scan"}, "name": "ff338fec95ac50779ccfd9007d817bac", "type": "electric_scooter"}, {"fusion_lat": 0.0, "bike_id": "7ae5a42e533039e533ec874cdbe0e299", "fusion_lon": 0.0, "lon": -77.06103633333333, "lat": 38.905249, "is_reserved": 0, "is_disabled": 0, "rental_uris": {"android": "https://dc.lft.to/lastmile_qr_scan", "ios": "https://dc.lft.to/lastmile_qr_scan"}, "name": "7ae5a42e533039e533ec874cdbe0e299", "type": "electric_scooter"}, {"fusion_lat": 0.0, "bike_id": "0555c6f84273361709a82097bed1323c", "fusion_lon": 0.0, "lon": -77.0432465, "lat": 38.908791666666666, "is_reserved": 0, "is_disabled": 0, "rental_uris": {"android": "https://dc.lft.to/lastmile_qr_scan", "ios": "https://dc.lft.to/lastmile_qr_scan"}, "name": "0555c6f84273361709a82097bed1323c", "type": "electric_scooter"}, {"fusion_lat": 0.0, "bike_id": "a86c56f34074fa517ad2cb1baf1c03fc", "fusion_lon": 0.0, "lon": -76.995103, "lat": 38.8791425, "is_reserved": 0, "is_disabled": 0, "rental_uris": {"android": "https://dc.lft.to/lastmile_qr_scan", "ios": "https://dc.lft.to/lastmile_qr_scan"}, "name": "a86c56f34074fa517ad2cb1baf1c03fc", "type": "electric_scooter"}, {"fusion_lat": 0.0, "bike_id": "516711943c2e7a325a98b924a8f1344e", "fusion_lon": 0.0, "lon": -77.03522816666667, "lat": 38.915961333333335, "is_reserved": 0, "is_disabled": 0, "rental_uris": {"android": "https://dc.lft.to/lastmile_qr_scan", "ios": "https://dc.lft.to/lastmile_qr_scan"}, "name": "516711943c2e7a325a98b924a8f1344e", "type": "electric_scooter"}, {"fusion_lat": 0.0, "bike_id": "246dcec1538e0f588d1d0db35ee315fd", "fusion_lon": 0.0, "lon": -77.0412615, "lat": 38.921394666666664, "is_reserved": 0, "is_disabled": 0, "rental_uris": {"android": "https://dc.lft.to/lastmile_qr_scan", "ios": "https://dc.lft.to/lastmile_qr_scan"}, "name": "246dcec1538e0f588d1d0db35ee315fd", "type": "electric_scooter"}, {"fusion_lat": 0.0, "bike_id": "515392a6c68bf52303ba181881af73c9", "fusion_lon": 0.0, "lon": -77.03250016666667, "lat": 38.919873333333335, "is_reserved": 0, "is_disabled": 0, "rental_uris": {"android": "https://dc.lft.to/lastmile_qr_scan", "ios": "https://dc.lft.to/lastmile_qr_scan"}, "name": "515392a6c68bf52303ba181881af73c9", "type": "electric_scooter"}, {"fusion_lat": 0.0, "bike_id": "dfbca6fe7379932c6df60993f3cf3cdd", "fusion_lon": 0.0, "lon": -77.032587, "lat": 38.94270016666667, "is_reserved": 0, "is_disabled": 0, "rental_uris": {"android": "https://dc.lft.to/lastmile_qr_scan", "ios": "https://dc.lft.to/lastmile_qr_scan"}, "name": "dfbca6fe7379932c6df60993f3cf3cdd", "type": "electric_scooter"}, {"fusion_lat": 0.0, "bike_id": "74d01c68eede728fb712da773dbf3f08", "fusion_lon": 0.0, "lon": -77.03332433333334, "lat": 38.938932666666666, "is_reserved": 0, "is_disabled": 0, "rental_uris": {"android": "https://dc.lft.to/lastmile_qr_scan", "ios": "https://dc.lft.to/lastmile_qr_scan"}, "name": "74d01c68eede728fb712da773dbf3f08", "type": "electric_scooter"}, {"fusion_lat": 0.0, "bike_id": "bf3624f52981ce7cbb5d7e601d7593ae", "fusion_lon": 0.0, "lon": -76.99932416666667, "lat": 38.84310166666667, "is_reserved": 0, "is_disabled": 0, "rental_uris": {"android": "https://dc.lft.to/lastmile_qr_scan", "ios": "https://dc.lft.to/lastmile_qr_scan"}, "name": "bf3624f52981ce7cbb5d7e601d7593ae", "type": "electric_scooter"}, {"fusion_lat": 0.0, "bike_id": "8d0075375a0a954f798008d2a571a661", "fusion_lon": 0.0, "lon": -77.04270216666667, "lat": 38.922316333333335, "is_reserved": 0, "is_disabled": 0, "rental_uris": {"android": "https://dc.lft.to/lastmile_qr_scan", "ios": "https://dc.lft.to/lastmile_qr_scan"}, "name": "8d0075375a0a954f798008d2a571a661", "type": "electric_scooter"}, {"fusion_lat": 0.0, "bike_id": "11785c3485eee00d5fd6e50ea7316b33", "fusion_lon": 0.0, "lon": -77.03378766666667, "lat": 38.901083, "is_reserved": 0, "is_disabled": 0, "rental_uris": {"android": "https://dc.lft.to/lastmile_qr_scan", "ios": "https://dc.lft.to/lastmile_qr_scan"}, "name": "11785c3485eee00d5fd6e50ea7316b33", "type": "electric_scooter"}, {"fusion_lat": 0.0, "bike_id": "9a299a15e893da81e975f50b190b7b90", "fusion_lon": 0.0, "lon": -77.01447483333334, "lat": 38.92974233333333, "is_reserved": 0, "is_disabled": 0, "rental_uris": {"android": "https://dc.lft.to/lastmile_qr_scan", "ios": "https://dc.lft.to/lastmile_qr_scan"}, "name": "9a299a15e893da81e975f50b190b7b90", "type": "electric_scooter"}, {"fusion_lat": 0.0, "bike_id": "617b2378b71306dbe3d77c4b6dc2acc0", "fusion_lon": 0.0, "lon": -76.93357233333333, "lat": 38.887977, "is_reserved": 0, "is_disabled": 0, "rental_uris": {"android": "https://dc.lft.to/lastmile_qr_scan", "ios": "https://dc.lft.to/lastmile_qr_scan"}, "name": "617b2378b71306dbe3d77c4b6dc2acc0", "type": "electric_scooter"}, {"fusion_lat": 0.0, "bike_id": "2f4a23b90917e4a99ad803b769e6ffd5", "fusion_lon": 0.0, "lon": -77.02730233333334, "lat": 38.89779266666667, "is_reserved": 0, "is_disabled": 0, "rental_uris": {"android": "https://dc.lft.to/lastmile_qr_scan", "ios": "https://dc.lft.to/lastmile_qr_scan"}, "name": "2f4a23b90917e4a99ad803b769e6ffd5", "type": "electric_scooter"}, {"fusion_lat": 0.0, "bike_id": "bd542eadb491d7b82282e0bbbae343d3", "fusion_lon": 0.0, "lon": -77.0280395, "lat": 38.91688533333333, "is_reserved": 0, "is_disabled": 0, "rental_uris": {"android": "https://dc.lft.to/lastmile_qr_scan", "ios": "https://dc.lft.to/lastmile_qr_scan"}, "name": "bd542eadb491d7b82282e0bbbae343d3", "type": "electric_scooter"}, {"fusion_lat": 0.0, "bike_id": "f608f12946492e000147fc09e2e03a08", "fusion_lon": 0.0, "lon": -77.0461785, "lat": 38.90257883333334, "is_reserved": 0, "is_disabled": 0, "rental_uris": {"android": "https://dc.lft.to/lastmile_qr_scan", "ios": "https://dc.lft.to/lastmile_qr_scan"}, "name": "f608f12946492e000147fc09e2e03a08", "type": "electric_scooter"}, {"fusion_lat": 0.0, "bike_id": "6608714a5ed11d14c01f4bcce9f22df6", "fusion_lon": 0.0, "lon": -77.01189033333333, "lat": 38.900298166666666, "is_reserved": 0, "is_disabled": 0, "rental_uris": {"android": "https://dc.lft.to/lastmile_qr_scan", "ios": "https://dc.lft.to/lastmile_qr_scan"}, "name": "6608714a5ed11d14c01f4bcce9f22df6", "type": "electric_scooter"}, {"fusion_lat": 0.0, "bike_id": "a26e2a1177fb415a8fb578acb8dce690", "fusion_lon": 0.0, "lon": -77.024471, "lat": 38.90318366666666, "is_reserved": 0, "is_disabled": 0, "rental_uris": {"android": "https://dc.lft.to/lastmile_qr_scan", "ios": "https://dc.lft.to/lastmile_qr_scan"}, "name": "a26e2a1177fb415a8fb578acb8dce690", "type": "electric_scooter"}, {"fusion_lat": 0.0, "bike_id": "4dc620c75bd8b3ed9b88a7cd440b187a", "fusion_lon": 0.0, "lon": -77.0295495, "lat": 38.91671133333333, "is_reserved": 0, "is_disabled": 0, "rental_uris": {"android": "https://dc.lft.to/lastmile_qr_scan", "ios": "https://dc.lft.to/lastmile_qr_scan"}, "name": "4dc620c75bd8b3ed9b88a7cd440b187a", "type": "electric_scooter"}, {"fusion_lat": 0.0, "bike_id": "53aecc16fecc9dda603f1e9b602c4a7d", "fusion_lon": 0.0, "lon": -76.99491116666667, "lat": 38.842155166666664, "is_reserved": 0, "is_disabled": 0, "rental_uris": {"android": "https://dc.lft.to/lastmile_qr_scan", "ios": "https://dc.lft.to/lastmile_qr_scan"}, "name": "53aecc16fecc9dda603f1e9b602c4a7d", "type": "electric_scooter"}, {"fusion_lat": 0.0, "bike_id": "d5b3f66ebfece62df742aa66d79e4bc9", "fusion_lon": 0.0, "lon": -77.0230335, "lat": 38.901490333333335, "is_reserved": 0, "is_disabled": 0, "rental_uris": {"android": "https://dc.lft.to/lastmile_qr_scan", "ios": "https://dc.lft.to/lastmile_qr_scan"}, "name": "d5b3f66ebfece62df742aa66d79e4bc9", "type": "electric_scooter"}, {"fusion_lat": 0.0, "bike_id": "951cb5e17fc25f78b8960a1667c30423", "fusion_lon": 0.0, "lon": -77.0120865, "lat": 38.915578833333335, "is_reserved": 0, "is_disabled": 0, "rental_uris": {"android": "https://dc.lft.to/lastmile_qr_scan", "ios": "https://dc.lft.to/lastmile_qr_scan"}, "name": "951cb5e17fc25f78b8960a1667c30423", "type": "electric_scooter"}, {"fusion_lat": 0.0, "bike_id": "dada7f5607af1524b7997acb17b0c4c4", "fusion_lon": 0.0, "lon": -77.03189566666667, "lat": 38.9011555, "is_reserved": 0, "is_disabled": 0, "rental_uris": {"android": "https://dc.lft.to/lastmile_qr_scan", "ios": "https://dc.lft.to/lastmile_qr_scan"}, "name": "dada7f5607af1524b7997acb17b0c4c4", "type": "electric_scooter"}, {"fusion_lat": 0.0, "bike_id": "9145aee86795149fc34a4b945eb679dd", "fusion_lon": 0.0, "lon": -77.00617883333334, "lat": 38.89471533333333, "is_reserved": 0, "is_disabled": 0, "rental_uris": {"android": "https://dc.lft.to/lastmile_qr_scan", "ios": "https://dc.lft.to/lastmile_qr_scan"}, "name": "9145aee86795149fc34a4b945eb679dd", "type": "electric_scooter"}, {"fusion_lat": 0.0, "bike_id": "a616cfcc37cb39fbb71540e8917fd2a9", "fusion_lon": 0.0, "lon": -77.03213133333334, "lat": 38.92971216666667, "is_reserved": 0, "is_disabled": 0, "rental_uris": {"android": "https://dc.lft.to/lastmile_qr_scan", "ios": "https://dc.lft.to/lastmile_qr_scan"}, "name": "a616cfcc37cb39fbb71540e8917fd2a9", "type": "electric_scooter"}, {"fusion_lat": 0.0, "bike_id": "24cf5dec90c6ad67092734cc5ca43a0b", "fusion_lon": 0.0, "lon": -77.03191583333333, "lat": 38.9183235, "is_reserved": 0, "is_disabled": 0, "rental_uris": {"android": "https://dc.lft.to/lastmile_qr_scan", "ios": "https://dc.lft.to/lastmile_qr_scan"}, "name": "24cf5dec90c6ad67092734cc5ca43a0b", "type": "electric_scooter"}, {"fusion_lat": 0.0, "bike_id": "fe94f1c0c4687cbb22fce24a10a304b7", "fusion_lon": 0.0, "lon": -77.01118916666667, "lat": 38.8947605, "is_reserved": 0, "is_disabled": 0, "rental_uris": {"android": "https://dc.lft.to/lastmile_qr_scan", "ios": "https://dc.lft.to/lastmile_qr_scan"}, "name": "fe94f1c0c4687cbb22fce24a10a304b7", "type": "electric_scooter"}, {"fusion_lat": 0.0, "bike_id": "4696eea5983a4b92866907e5eb782e71", "fusion_lon": 0.0, "lon": -77.03843466666666, "lat": 38.9039285, "is_reserved": 0, "is_disabled": 0, "rental_uris": {"android": "https://dc.lft.to/lastmile_qr_scan", "ios": "https://dc.lft.to/lastmile_qr_scan"}, "name": "4696eea5983a4b92866907e5eb782e71", "type": "electric_scooter"}, {"fusion_lat": 0.0, "bike_id": "f7e9e0cade05828337806f00b8f660d8", "fusion_lon": 0.0, "lon": -76.97828783333334, "lat": 38.84372533333333, "is_reserved": 0, "is_disabled": 0, "rental_uris": {"android": "https://dc.lft.to/lastmile_qr_scan", "ios": "https://dc.lft.to/lastmile_qr_scan"}, "name": "f7e9e0cade05828337806f00b8f660d8", "type": "electric_bike"}, {"fusion_lat": 0.0, "bike_id": "2211a115b6e475c3e2b1ff935b49f821", "fusion_lon": 0.0, "lon": -77.08338383333333, "lat": 38.85437666666667, "is_reserved": 0, "is_disabled": 0, "rental_uris": {"android": "https://dc.lft.to/lastmile_qr_scan", "ios": "https://dc.lft.to/lastmile_qr_scan"}, "name": "2211a115b6e475c3e2b1ff935b49f821", "type": "electric_bike"}, {"fusion_lat": 0.0, "bike_id": "78ffec0c6346e91aadac5129ce1e2d10", "fusion_lon": 0.0, "lon": -77.045526, "lat": 38.89595666666666, "is_reserved": 0, "is_disabled": 0, "rental_uris": {"android": "https://dc.lft.to/lastmile_qr_scan", "ios": "https://dc.lft.to/lastmile_qr_scan"}, "name": "78ffec0c6346e91aadac5129ce1e2d10", "type": "electric_scooter"}, {"fusion_lat": 0.0, "bike_id": "7f4773261422b181598f691ad4745339", "fusion_lon": 0.0, "lon": -77.03586883333334, "lat": 38.992276, "is_reserved": 0, "is_disabled": 0, "rental_uris": {"android": "https://dc.lft.to/lastmile_qr_scan", "ios": "https://dc.lft.to/lastmile_qr_scan"}, "name": "7f4773261422b181598f691ad4745339", "type": "electric_scooter"}, {"fusion_lat": 0.0, "bike_id": "99833f7a122e012ad0a10ca4703006ce", "fusion_lon": 0.0, "lon": -76.98932283333333, "lat": 38.86559666666667, "is_reserved": 0, "is_disabled": 0, "rental_uris": {"android": "https://dc.lft.to/lastmile_qr_scan", "ios": "https://dc.lft.to/lastmile_qr_scan"}, "name": "99833f7a122e012ad0a10ca4703006ce", "type": "electric_scooter"}, {"fusion_lat": 0.0, "bike_id": "75829b2351f8335beabfe6448171b0a0", "fusion_lon": 0.0, "lon": -77.02868166666667, "lat": 38.9328005, "is_reserved": 0, "is_disabled": 0, "rental_uris": {"android": "https://dc.lft.to/lastmile_qr_scan", "ios": "https://dc.lft.to/lastmile_qr_scan"}, "name": "75829b2351f8335beabfe6448171b0a0", "type": "electric_scooter"}, {"fusion_lat": 0.0, "bike_id": "a9c57eef3971f229e05a85d1943633d6", "fusion_lon": 0.0, "lon": -76.93376883333333, "lat": 38.899121, "is_reserved": 0, "is_disabled": 0, "rental_uris": {"android": "https://dc.lft.to/lastmile_qr_scan", "ios": "https://dc.lft.to/lastmile_qr_scan"}, "name": "a9c57eef3971f229e05a85d1943633d6", "type": "electric_scooter"}, {"fusion_lat": 0.0, "bike_id": "687a539a36a98592afe6268547b14eaa", "fusion_lon": 0.0, "lon": -77.02175483333333, "lat": 38.887216, "is_reserved": 0, "is_disabled": 0, "rental_uris": {"android": "https://dc.lft.to/lastmile_qr_scan", "ios": "https://dc.lft.to/lastmile_qr_scan"}, "name": "687a539a36a98592afe6268547b14eaa", "type": "electric_scooter"}, {"fusion_lat": 0.0, "bike_id": "f0dad370d06008f5c69a0c863f1d2de0", "fusion_lon": 0.0, "lon": -77.02534, "lat": 38.905691, "is_reserved": 0, "is_disabled": 0, "rental_uris": {"android": "https://dc.lft.to/lastmile_qr_scan", "ios": "https://dc.lft.to/lastmile_qr_scan"}, "name": "f0dad370d06008f5c69a0c863f1d2de0", "type": "electric_scooter"}, {"fusion_lat": 0.0, "bike_id": "5ad58e4e17675add1f691702eb7d2a4b", "fusion_lon": 0.0, "lon": -77.04154416666667, "lat": 38.90143283333333, "is_reserved": 0, "is_disabled": 0, "rental_uris": {"android": "https://dc.lft.to/lastmile_qr_scan", "ios": "https://dc.lft.to/lastmile_qr_scan"}, "name": "5ad58e4e17675add1f691702eb7d2a4b", "type": "electric_scooter"}, {"fusion_lat": 0.0, "bike_id": "bc07f5ded88821f084d4ad60c6327076", "fusion_lon": 0.0, "lon": -77.09507033333334, "lat": 38.98263933333333, "is_reserved": 0, "is_disabled": 0, "rental_uris": {"android": "https://dc.lft.to/lastmile_qr_scan", "ios": "https://dc.lft.to/lastmile_qr_scan"}, "name": "bc07f5ded88821f084d4ad60c6327076", "type": "electric_bike"}, {"fusion_lat": 0.0, "bike_id": "ee3295560c05679d21fdbc44f4b5f0ce", "fusion_lon": 0.0, "lon": -77.10835766666666, "lat": 38.812033, "is_reserved": 0, "is_disabled": 0, "rental_uris": {"android": "https://dc.lft.to/lastmile_qr_scan", "ios": "https://dc.lft.to/lastmile_qr_scan"}, "name": "ee3295560c05679d21fdbc44f4b5f0ce", "type": "electric_bike"}, {"fusion_lat": 0.0, "bike_id": "eb7dd75fed15ab50c3768f8e8dca0ab3", "fusion_lon": 0.0, "lon": -76.95526783333334, "lat": 38.88467716666667, "is_reserved": 0, "is_disabled": 0, "rental_uris": {"android": "https://dc.lft.to/lastmile_qr_scan", "ios": "https://dc.lft.to/lastmile_qr_scan"}, "name": "eb7dd75fed15ab50c3768f8e8dca0ab3", "type": "electric_scooter"}, {"fusion_lat": 0.0, "bike_id": "1d3dc75011dc9d075db423eed394c08f", "fusion_lon": 0.0, "lon": -76.995421, "lat": 38.831564666666665, "is_reserved": 0, "is_disabled": 0, "rental_uris": {"android": "https://dc.lft.to/lastmile_qr_scan", "ios": "https://dc.lft.to/lastmile_qr_scan"}, "name": "1d3dc75011dc9d075db423eed394c08f", "type": "electric_bike"}, {"fusion_lat": 0.0, "bike_id": "f74684c98c9f62c2155b965c59e5a55d", "fusion_lon": 0.0, "lon": -77.02622266666667, "lat": 38.96223766666667, "is_reserved": 0, "is_disabled": 0, "rental_uris": {"android": "https://dc.lft.to/lastmile_qr_scan", "ios": "https://dc.lft.to/lastmile_qr_scan"}, "name": "f74684c98c9f62c2155b965c59e5a55d", "type": "electric_bike"}, {"fusion_lat": 0.0, "bike_id": "f9cc9afb95121df2bdb9cf3d65018f26", "fusion_lon": 0.0, "lon": -77.03537633333333, "lat": 38.92623733333333, "is_reserved": 0, "is_disabled": 0, "rental_uris": {"android": "https://dc.lft.to/lastmile_qr_scan", "ios": "https://dc.lft.to/lastmile_qr_scan"}, "name": "f9cc9afb95121df2bdb9cf3d65018f26", "type": "electric_scooter"}, {"fusion_lat": 0.0, "bike_id": "9bd5e75993a8117066c2317261b42310", "fusion_lon": 0.0, "lon": -76.9902825, "lat": 38.89172333333333, "is_reserved": 0, "is_disabled": 0, "rental_uris": {"android": "https://dc.lft.to/lastmile_qr_scan", "ios": "https://dc.lft.to/lastmile_qr_scan"}, "name": "9bd5e75993a8117066c2317261b42310", "type": "electric_scooter"}, {"fusion_lat": 0.0, "bike_id": "4b1374695f0daf6483f15133837d92c7", "fusion_lon": 0.0, "lon": -76.94289933333333, "lat": 38.938689, "is_reserved": 0, "is_disabled": 0, "rental_uris": {"android": "https://dc.lft.to/lastmile_qr_scan", "ios": "https://dc.lft.to/lastmile_qr_scan"}, "name": "4b1374695f0daf6483f15133837d92c7", "type": "electric_bike"}, {"fusion_lat": 0.0, "bike_id": "2131a7f52a710a98eead859e2cf14df6", "fusion_lon": 0.0, "lon": -77.10090933333333, "lat": 38.9595325, "is_reserved": 0, "is_disabled": 0, "rental_uris": {"android": "https://dc.lft.to/lastmile_qr_scan", "ios": "https://dc.lft.to/lastmile_qr_scan"}, "name": "2131a7f52a710a98eead859e2cf14df6", "type": "electric_bike"}, {"fusion_lat": 0.0, "bike_id": "f853f09eca1c6c92b36399411bc912a6", "fusion_lon": 0.0, "lon": -76.98266083333333, "lat": 38.90850116666667, "is_reserved": 0, "is_disabled": 0, "rental_uris": {"android": "https://dc.lft.to/lastmile_qr_scan", "ios": "https://dc.lft.to/lastmile_qr_scan"}, "name": "f853f09eca1c6c92b36399411bc912a6", "type": "electric_scooter"}, {"fusion_lat": 0.0, "bike_id": "d63524123ea4f7347684f6c5f8c04cbd", "fusion_lon": 0.0, "lon": -77.0625585, "lat": 38.94415633333333, "is_reserved": 0, "is_disabled": 0, "rental_uris": {"android": "https://dc.lft.to/lastmile_qr_scan", "ios": "https://dc.lft.to/lastmile_qr_scan"}, "name": "d63524123ea4f7347684f6c5f8c04cbd", "type": "electric_scooter"}, {"fusion_lat": 0.0, "bike_id": "1925d4a6a27d33234052f735e63af7cc", "fusion_lon": 0.0, "lon": -77.02198366666667, "lat": 38.9211055, "is_reserved": 0, "is_disabled": 0, "rental_uris": {"android": "https://dc.lft.to/lastmile_qr_scan", "ios": "https://dc.lft.to/lastmile_qr_scan"}, "name": "1925d4a6a27d33234052f735e63af7cc", "type": "electric_scooter"}, {"fusion_lat": 0.0, "bike_id": "4a57e8c653c4bb2e8605cfdbcca01d78", "fusion_lon": 0.0, "lon": -76.9890125, "lat": 38.913425333333336, "is_reserved": 0, "is_disabled": 0, "rental_uris": {"android": "https://dc.lft.to/lastmile_qr_scan", "ios": "https://dc.lft.to/lastmile_qr_scan"}, "name": "4a57e8c653c4bb2e8605cfdbcca01d78", "type": "electric_scooter"}, {"fusion_lat": 0.0, "bike_id": "ec00aefa1e6a8732bb1f02b4a9e1633f", "fusion_lon": 0.0, "lon": -77.03845666666666, "lat": 38.90399133333333, "is_reserved": 0, "is_disabled": 0, "rental_uris": {"android": "https://dc.lft.to/lastmile_qr_scan", "ios": "https://dc.lft.to/lastmile_qr_scan"}, "name": "ec00aefa1e6a8732bb1f02b4a9e1633f", "type": "electric_scooter"}, {"fusion_lat": 0.0, "bike_id": "1e6a46e02043cf935bce2315805446da", "fusion_lon": 0.0, "lon": -77.024034, "lat": 38.90695316666667, "is_reserved": 0, "is_disabled": 0, "rental_uris": {"android": "https://dc.lft.to/lastmile_qr_scan", "ios": "https://dc.lft.to/lastmile_qr_scan"}, "name": "1e6a46e02043cf935bce2315805446da", "type": "electric_scooter"}, {"fusion_lat": 0.0, "bike_id": "e1ecbcbf1b3f873ce130efa5adc6b71a", "fusion_lon": 0.0, "lon": -77.05185816666666, "lat": 38.923807833333335, "is_reserved": 0, "is_disabled": 0, "rental_uris": {"android": "https://dc.lft.to/lastmile_qr_scan", "ios": "https://dc.lft.to/lastmile_qr_scan"}, "name": "e1ecbcbf1b3f873ce130efa5adc6b71a", "type": "electric_scooter"}, {"fusion_lat": 0.0, "bike_id": "ef48051a3401b0dbf4457202d09af600", "fusion_lon": 0.0, "lon": -77.0322525, "lat": 38.91292966666666, "is_reserved": 0, "is_disabled": 0, "rental_uris": {"android": "https://dc.lft.to/lastmile_qr_scan", "ios": "https://dc.lft.to/lastmile_qr_scan"}, "name": "ef48051a3401b0dbf4457202d09af600", "type": "electric_scooter"}, {"fusion_lat": 0.0, "bike_id": "085b0309680201e95ffc91061abaec15", "fusion_lon": 0.0, "lon": -77.005706, "lat": 38.87306683333333, "is_reserved": 0, "is_disabled": 0, "rental_uris": {"android": "https://dc.lft.to/lastmile_qr_scan", "ios": "https://dc.lft.to/lastmile_qr_scan"}, "name": "085b0309680201e95ffc91061abaec15", "type": "electric_scooter"}, {"fusion_lat": 0.0, "bike_id": "daa452e8f3888a4a5b003b418262eeb4", "fusion_lon": 0.0, "lon": -77.032132, "lat": 38.899705833333336, "is_reserved": 0, "is_disabled": 0, "rental_uris": {"android": "https://dc.lft.to/lastmile_qr_scan", "ios": "https://dc.lft.to/lastmile_qr_scan"}, "name": "daa452e8f3888a4a5b003b418262eeb4", "type": "electric_scooter"}, {"fusion_lat": 0.0, "bike_id": "c1ecdedd1ec907cfb1e211b8ae867dea", "fusion_lon": 0.0, "lon": -77.0386425, "lat": 38.90632383333333, "is_reserved": 0, "is_disabled": 0, "rental_uris": {"android": "https://dc.lft.to/lastmile_qr_scan", "ios": "https://dc.lft.to/lastmile_qr_scan"}, "name": "c1ecdedd1ec907cfb1e211b8ae867dea", "type": "electric_scooter"}, {"fusion_lat": 0.0, "bike_id": "be0bd3df299fb5a2542bf09e52ad1de2", "fusion_lon": 0.0, "lon": -77.02095483333333, "lat": 38.9270475, "is_reserved": 0, "is_disabled": 0, "rental_uris": {"android": "https://dc.lft.to/lastmile_qr_scan", "ios": "https://dc.lft.to/lastmile_qr_scan"}, "name": "be0bd3df299fb5a2542bf09e52ad1de2", "type": "electric_scooter"}, {"fusion_lat": 0.0, "bike_id": "dabcc5d5ea0c188b86cc6a1997d2b782", "fusion_lon": 0.0, "lon": -76.98838566666667, "lat": 38.90125466666667, "is_reserved": 0, "is_disabled": 0, "rental_uris": {"android": "https://dc.lft.to/lastmile_qr_scan", "ios": "https://dc.lft.to/lastmile_qr_scan"}, "name": "dabcc5d5ea0c188b86cc6a1997d2b782", "type": "electric_scooter"}, {"fusion_lat": 0.0, "bike_id": "bc3e5ea35277b5471b4d1c9bd960cd99", "fusion_lon": 0.0, "lon": -77.01646016666666, "lat": 38.9289595, "is_reserved": 0, "is_disabled": 0, "rental_uris": {"android": "https://dc.lft.to/lastmile_qr_scan", "ios": "https://dc.lft.to/lastmile_qr_scan"}, "name": "bc3e5ea35277b5471b4d1c9bd960cd99", "type": "electric_scooter"}, {"fusion_lat": 0.0, "bike_id": "3069392e5f9afbb1b4602e2fe9ccd2dc", "fusion_lon": 0.0, "lon": -77.04675633333333, "lat": 38.895566, "is_reserved": 0, "is_disabled": 0, "rental_uris": {"android": "https://dc.lft.to/lastmile_qr_scan", "ios": "https://dc.lft.to/lastmile_qr_scan"}, "name": "3069392e5f9afbb1b4602e2fe9ccd2dc", "type": "electric_scooter"}, {"fusion_lat": 0.0, "bike_id": "edbdbe60a0409b6a41b9975b25babc37", "fusion_lon": 0.0, "lon": -77.03644233333333, "lat": 38.924613666666666, "is_reserved": 0, "is_disabled": 0, "rental_uris": {"android": "https://dc.lft.to/lastmile_qr_scan", "ios": "https://dc.lft.to/lastmile_qr_scan"}, "name": "edbdbe60a0409b6a41b9975b25babc37", "type": "electric_scooter"}, {"fusion_lat": 0.0, "bike_id": "0564718bde23509a3a2f99a74acc3e47", "fusion_lon": 0.0, "lon": -77.09497916666666, "lat": 38.80762283333333, "is_reserved": 0, "is_disabled": 0, "rental_uris": {"android": "https://dc.lft.to/lastmile_qr_scan", "ios": "https://dc.lft.to/lastmile_qr_scan"}, "name": "0564718bde23509a3a2f99a74acc3e47", "type": "electric_bike"}, {"fusion_lat": 0.0, "bike_id": "d7e675e4906cd68eef1fee7a09faa989", "fusion_lon": 0.0, "lon": -77.03246583333333, "lat": 38.90854216666666, "is_reserved": 0, "is_disabled": 0, "rental_uris": {"android": "https://dc.lft.to/lastmile_qr_scan", "ios": "https://dc.lft.to/lastmile_qr_scan"}, "name": "d7e675e4906cd68eef1fee7a09faa989", "type": "electric_scooter"}, {"fusion_lat": 0.0, "bike_id": "7bde7d7f778dd9b3fd0af3555b33fce4", "fusion_lon": 0.0, "lon": -77.04473366666667, "lat": 38.892209, "is_reserved": 0, "is_disabled": 0, "rental_uris": {"android": "https://dc.lft.to/lastmile_qr_scan", "ios": "https://dc.lft.to/lastmile_qr_scan"}, "name": "7bde7d7f778dd9b3fd0af3555b33fce4", "type": "electric_scooter"}, {"fusion_lat": 0.0, "bike_id": "fe36730b890ad1ed95b60b47bf260a3d", "fusion_lon": 0.0, "lon": -77.02213516666667, "lat": 38.905601, "is_reserved": 0, "is_disabled": 0, "rental_uris": {"android": "https://dc.lft.to/lastmile_qr_scan", "ios": "https://dc.lft.to/lastmile_qr_scan"}, "name": "fe36730b890ad1ed95b60b47bf260a3d", "type": "electric_scooter"}, {"fusion_lat": 0.0, "bike_id": "74d0bbfd0487cbf98103534b64bc945e", "fusion_lon": 0.0, "lon": -77.0540525, "lat": 38.927491833333335, "is_reserved": 0, "is_disabled": 0, "rental_uris": {"android": "https://dc.lft.to/lastmile_qr_scan", "ios": "https://dc.lft.to/lastmile_qr_scan"}, "name": "74d0bbfd0487cbf98103534b64bc945e", "type": "electric_scooter"}, {"fusion_lat": 0.0, "bike_id": "e5f5a9a1fef912bf0f9e6adf1a671a3b", "fusion_lon": 0.0, "lon": -77.03219016666667, "lat": 38.89220866666667, "is_reserved": 0, "is_disabled": 0, "rental_uris": {"android": "https://dc.lft.to/lastmile_qr_scan", "ios": "https://dc.lft.to/lastmile_qr_scan"}, "name": "e5f5a9a1fef912bf0f9e6adf1a671a3b", "type": "electric_scooter"}, {"fusion_lat": 0.0, "bike_id": "1dd2dec4eb5c10d71f5402a2536660b6", "fusion_lon": 0.0, "lon": -76.99198733333333, "lat": 38.86284033333333, "is_reserved": 0, "is_disabled": 0, "rental_uris": {"android": "https://dc.lft.to/lastmile_qr_scan", "ios": "https://dc.lft.to/lastmile_qr_scan"}, "name": "1dd2dec4eb5c10d71f5402a2536660b6", "type": "electric_scooter"}, {"fusion_lat": 0.0, "bike_id": "0108251b67c68c631dc7e20836653a87", "fusion_lon": 0.0, "lon": -77.11448316666667, "lat": 38.88223083333333, "is_reserved": 0, "is_disabled": 0, "rental_uris": {"android": "https://dc.lft.to/lastmile_qr_scan", "ios": "https://dc.lft.to/lastmile_qr_scan"}, "name": "0108251b67c68c631dc7e20836653a87", "type": "electric_bike"}, {"fusion_lat": 0.0, "bike_id": "1112a740aa22e9b254a4ff1ff28f5bf4", "fusion_lon": 0.0, "lon": -77.02060133333333, "lat": 38.957545333333336, "is_reserved": 0, "is_disabled": 0, "rental_uris": {"android": "https://dc.lft.to/lastmile_qr_scan", "ios": "https://dc.lft.to/lastmile_qr_scan"}, "name": "1112a740aa22e9b254a4ff1ff28f5bf4", "type": "electric_bike"}, {"fusion_lat": 0.0, "bike_id": "e4887f6e9b64911ae8306b90bb015f73", "fusion_lon": 0.0, "lon": -77.04162433333333, "lat": 38.8958025, "is_reserved": 0, "is_disabled": 0, "rental_uris": {"android": "https://dc.lft.to/lastmile_qr_scan", "ios": "https://dc.lft.to/lastmile_qr_scan"}, "name": "e4887f6e9b64911ae8306b90bb015f73", "type": "electric_bike"}, {"fusion_lat": 0.0, "bike_id": "8f6fe3df24702416b914c0dfdac45d0d", "fusion_lon": 0.0, "lon": -77.0421075, "lat": 38.90678833333333, "is_reserved": 0, "is_disabled": 0, "rental_uris": {"android": "https://dc.lft.to/lastmile_qr_scan", "ios": "https://dc.lft.to/lastmile_qr_scan"}, "name": "8f6fe3df24702416b914c0dfdac45d0d", "type": "electric_scooter"}, {"fusion_lat": 0.0, "bike_id": "165384961b79fa05292946739c436749", "fusion_lon": 0.0, "lon": -77.04509683333333, "lat": 38.90236683333333, "is_reserved": 0, "is_disabled": 0, "rental_uris": {"android": "https://dc.lft.to/lastmile_qr_scan", "ios": "https://dc.lft.to/lastmile_qr_scan"}, "name": "165384961b79fa05292946739c436749", "type": "electric_scooter"}, {"fusion_lat": 0.0, "bike_id": "73abf0ca31051d765cd2ac5906af16ad", "fusion_lon": 0.0, "lon": -76.98713583333333, "lat": 38.867001333333334, "is_reserved": 0, "is_disabled": 0, "rental_uris": {"android": "https://dc.lft.to/lastmile_qr_scan", "ios": "https://dc.lft.to/lastmile_qr_scan"}, "name": "73abf0ca31051d765cd2ac5906af16ad", "type": "electric_scooter"}, {"fusion_lat": 0.0, "bike_id": "7a3685d2968ec50a28da90a8eb1cbab3", "fusion_lon": 0.0, "lon": -77.0259315, "lat": 38.96393283333333, "is_reserved": 0, "is_disabled": 0, "rental_uris": {"android": "https://dc.lft.to/lastmile_qr_scan", "ios": "https://dc.lft.to/lastmile_qr_scan"}, "name": "7a3685d2968ec50a28da90a8eb1cbab3", "type": "electric_scooter"}, {"fusion_lat": 0.0, "bike_id": "33fe8bd088648cad39927aadca186ff1", "fusion_lon": 0.0, "lon": -77.03278316666666, "lat": 38.919950166666666, "is_reserved": 0, "is_disabled": 0, "rental_uris": {"android": "https://dc.lft.to/lastmile_qr_scan", "ios": "https://dc.lft.to/lastmile_qr_scan"}, "name": "33fe8bd088648cad39927aadca186ff1", "type": "electric_scooter"}, {"fusion_lat": 0.0, "bike_id": "0876f87f27ee65b1c5578815448b3809", "fusion_lon": 0.0, "lon": -77.0432495, "lat": 38.902346333333334, "is_reserved": 0, "is_disabled": 0, "rental_uris": {"android": "https://dc.lft.to/lastmile_qr_scan", "ios": "https://dc.lft.to/lastmile_qr_scan"}, "name": "0876f87f27ee65b1c5578815448b3809", "type": "electric_scooter"}, {"fusion_lat": 0.0, "bike_id": "5559b195170e92c0cb0c552cb81ae979", "fusion_lon": 0.0, "lon": -76.99930216666667, "lat": 38.843112, "is_reserved": 0, "is_disabled": 0, "rental_uris": {"android": "https://dc.lft.to/lastmile_qr_scan", "ios": "https://dc.lft.to/lastmile_qr_scan"}, "name": "5559b195170e92c0cb0c552cb81ae979", "type": "electric_scooter"}, {"fusion_lat": 0.0, "bike_id": "55ec5499f2f629955b085a798fda612c", "fusion_lon": 0.0, "lon": -76.9373615, "lat": 38.8902135, "is_reserved": 0, "is_disabled": 0, "rental_uris": {"android": "https://dc.lft.to/lastmile_qr_scan", "ios": "https://dc.lft.to/lastmile_qr_scan"}, "name": "55ec5499f2f629955b085a798fda612c", "type": "electric_scooter"}, {"fusion_lat": 0.0, "bike_id": "4fe453bb45f4a6faed3eaa4bb8d31fd9", "fusion_lon": 0.0, "lon": -77.04495466666667, "lat": 38.903750333333335, "is_reserved": 0, "is_disabled": 0, "rental_uris": {"android": "https://dc.lft.to/lastmile_qr_scan", "ios": "https://dc.lft.to/lastmile_qr_scan"}, "name": "4fe453bb45f4a6faed3eaa4bb8d31fd9", "type": "electric_scooter"}, {"fusion_lat": 0.0, "bike_id": "8e53b7b1bd753eb17bd4b0d9cb25e82c", "fusion_lon": 0.0, "lon": -77.03381183333333, "lat": 38.909837833333334, "is_reserved": 0, "is_disabled": 0, "rental_uris": {"android": "https://dc.lft.to/lastmile_qr_scan", "ios": "https://dc.lft.to/lastmile_qr_scan"}, "name": "8e53b7b1bd753eb17bd4b0d9cb25e82c", "type": "electric_scooter"}, {"fusion_lat": 0.0, "bike_id": "80f7ef131a360cdeaa61bb123f556454", "fusion_lon": 0.0, "lon": -77.01051516666666, "lat": 38.89759183333334, "is_reserved": 0, "is_disabled": 0, "rental_uris": {"android": "https://dc.lft.to/lastmile_qr_scan", "ios": "https://dc.lft.to/lastmile_qr_scan"}, "name": "80f7ef131a360cdeaa61bb123f556454", "type": "electric_scooter"}, {"fusion_lat": 0.0, "bike_id": "518ff177acf83ef6336ff6e61f4c1a27", "fusion_lon": 0.0, "lon": -76.98230183333334, "lat": 38.86892366666667, "is_reserved": 0, "is_disabled": 0, "rental_uris": {"android": "https://dc.lft.to/lastmile_qr_scan", "ios": "https://dc.lft.to/lastmile_qr_scan"}, "name": "518ff177acf83ef6336ff6e61f4c1a27", "type": "electric_scooter"}, {"fusion_lat": 0.0, "bike_id": "fc6dffb3b3e30402f116d625295797f0", "fusion_lon": 0.0, "lon": -76.98531433333333, "lat": 38.8668375, "is_reserved": 0, "is_disabled": 0, "rental_uris": {"android": "https://dc.lft.to/lastmile_qr_scan", "ios": "https://dc.lft.to/lastmile_qr_scan"}, "name": "fc6dffb3b3e30402f116d625295797f0", "type": "electric_scooter"}, {"fusion_lat": 0.0, "bike_id": "ae8cc1c3e0d31cb0fbbdeef98c15edd5", "fusion_lon": 0.0, "lon": -77.03490866666667, "lat": 38.9038415, "is_reserved": 0, "is_disabled": 0, "rental_uris": {"android": "https://dc.lft.to/lastmile_qr_scan", "ios": "https://dc.lft.to/lastmile_qr_scan"}, "name": "ae8cc1c3e0d31cb0fbbdeef98c15edd5", "type": "electric_scooter"}, {"fusion_lat": 0.0, "bike_id": "28b556a5efe4286603ac0d59e0514360", "fusion_lon": 0.0, "lon": -77.02251233333334, "lat": 38.924710833333336, "is_reserved": 0, "is_disabled": 0, "rental_uris": {"android": "https://dc.lft.to/lastmile_qr_scan", "ios": "https://dc.lft.to/lastmile_qr_scan"}, "name": "28b556a5efe4286603ac0d59e0514360", "type": "electric_scooter"}, {"fusion_lat": 0.0, "bike_id": "a740de162beacd80e36b0cd8c7d566da", "fusion_lon": 0.0, "lon": -77.04505433333334, "lat": 38.89223766666667, "is_reserved": 0, "is_disabled": 0, "rental_uris": {"android": "https://dc.lft.to/lastmile_qr_scan", "ios": "https://dc.lft.to/lastmile_qr_scan"}, "name": "a740de162beacd80e36b0cd8c7d566da", "type": "electric_scooter"}, {"fusion_lat": 0.0, "bike_id": "03d2ab42669dc6e50962353d8ada39f5", "fusion_lon": 0.0, "lon": -77.00600366666667, "lat": 38.87186766666667, "is_reserved": 0, "is_disabled": 0, "rental_uris": {"android": "https://dc.lft.to/lastmile_qr_scan", "ios": "https://dc.lft.to/lastmile_qr_scan"}, "name": "03d2ab42669dc6e50962353d8ada39f5", "type": "electric_scooter"}, {"fusion_lat": 0.0, "bike_id": "d25ea45044cc7692bf5ac8fb960e4b8c", "fusion_lon": 0.0, "lon": -77.023596, "lat": 38.89218533333333, "is_reserved": 0, "is_disabled": 0, "rental_uris": {"android": "https://dc.lft.to/lastmile_qr_scan", "ios": "https://dc.lft.to/lastmile_qr_scan"}, "name": "d25ea45044cc7692bf5ac8fb960e4b8c", "type": "electric_scooter"}, {"fusion_lat": 0.0, "bike_id": "26b156a9c885ac7a237261c59e1745bc", "fusion_lon": 0.0, "lon": -76.96532283333333, "lat": 38.876234833333335, "is_reserved": 0, "is_disabled": 0, "rental_uris": {"android": "https://dc.lft.to/lastmile_qr_scan", "ios": "https://dc.lft.to/lastmile_qr_scan"}, "name": "26b156a9c885ac7a237261c59e1745bc", "type": "electric_scooter"}, {"fusion_lat": 0.0, "bike_id": "b12e64cf04293b133b89bd35703dc022", "fusion_lon": 0.0, "lon": -77.0345955, "lat": 38.908756, "is_reserved": 0, "is_disabled": 0, "rental_uris": {"android": "https://dc.lft.to/lastmile_qr_scan", "ios": "https://dc.lft.to/lastmile_qr_scan"}, "name": "b12e64cf04293b133b89bd35703dc022", "type": "electric_scooter"}, {"fusion_lat": 0.0, "bike_id": "81cb1c20240f93fcf375bce9e58d7327", "fusion_lon": 0.0, "lon": -77.06009533333334, "lat": 38.90115216666667, "is_reserved": 0, "is_disabled": 0, "rental_uris": {"android": "https://dc.lft.to/lastmile_qr_scan", "ios": "https://dc.lft.to/lastmile_qr_scan"}, "name": "81cb1c20240f93fcf375bce9e58d7327", "type": "electric_scooter"}, {"fusion_lat": 0.0, "bike_id": "98f1c21d6e6e82e4b63e9a1578e6ef42", "fusion_lon": 0.0, "lon": -76.990624, "lat": 38.863735166666665, "is_reserved": 0, "is_disabled": 0, "rental_uris": {"android": "https://dc.lft.to/lastmile_qr_scan", "ios": "https://dc.lft.to/lastmile_qr_scan"}, "name": "98f1c21d6e6e82e4b63e9a1578e6ef42", "type": "electric_scooter"}, {"fusion_lat": 0.0, "bike_id": "d0de7045c8bcb46545f047432f198a06", "fusion_lon": 0.0, "lon": -77.04496733333333, "lat": 38.91349816666666, "is_reserved": 0, "is_disabled": 0, "rental_uris": {"android": "https://dc.lft.to/lastmile_qr_scan", "ios": "https://dc.lft.to/lastmile_qr_scan"}, "name": "d0de7045c8bcb46545f047432f198a06", "type": "electric_scooter"}, {"fusion_lat": 0.0, "bike_id": "327031131b7c6a4f85d62ee0e657ae45", "fusion_lon": 0.0, "lon": -77.02187816666667, "lat": 38.88718033333333, "is_reserved": 0, "is_disabled": 0, "rental_uris": {"android": "https://dc.lft.to/lastmile_qr_scan", "ios": "https://dc.lft.to/lastmile_qr_scan"}, "name": "327031131b7c6a4f85d62ee0e657ae45", "type": "electric_scooter"}, {"fusion_lat": 0.0, "bike_id": "f9899879ac11c4cd79b7a386991126f5", "fusion_lon": 0.0, "lon": -77.01775033333334, "lat": 38.903647666666664, "is_reserved": 0, "is_disabled": 0, "rental_uris": {"android": "https://dc.lft.to/lastmile_qr_scan", "ios": "https://dc.lft.to/lastmile_qr_scan"}, "name": "f9899879ac11c4cd79b7a386991126f5", "type": "electric_scooter"}, {"fusion_lat": 0.0, "bike_id": "c5a3f0fac9e461a37e2703fb46c529ef", "fusion_lon": 0.0, "lon": -76.989784, "lat": 38.859183, "is_reserved": 0, "is_disabled": 0, "rental_uris": {"android": "https://dc.lft.to/lastmile_qr_scan", "ios": "https://dc.lft.to/lastmile_qr_scan"}, "name": "c5a3f0fac9e461a37e2703fb46c529ef", "type": "electric_scooter"}, {"fusion_lat": 0.0, "bike_id": "fb3443d877077e54221d25b06c854e5f", "fusion_lon": 0.0, "lon": -76.98494316666667, "lat": 38.878305833333336, "is_reserved": 0, "is_disabled": 0, "rental_uris": {"android": "https://dc.lft.to/lastmile_qr_scan", "ios": "https://dc.lft.to/lastmile_qr_scan"}, "name": "fb3443d877077e54221d25b06c854e5f", "type": "electric_scooter"}, {"fusion_lat": 0.0, "bike_id": "3e59ea1ac817644407abfdebfafc359c", "fusion_lon": 0.0, "lon": -77.0176355, "lat": 38.876653833333336, "is_reserved": 0, "is_disabled": 0, "rental_uris": {"android": "https://dc.lft.to/lastmile_qr_scan", "ios": "https://dc.lft.to/lastmile_qr_scan"}, "name": "3e59ea1ac817644407abfdebfafc359c", "type": "electric_scooter"}, {"fusion_lat": 0.0, "bike_id": "fbda4df4f44659827cf849174a6d83e3", "fusion_lon": 0.0, "lon": -77.0513055, "lat": 38.9007235, "is_reserved": 0, "is_disabled": 0, "rental_uris": {"android": "https://dc.lft.to/lastmile_qr_scan", "ios": "https://dc.lft.to/lastmile_qr_scan"}, "name": "fbda4df4f44659827cf849174a6d83e3", "type": "electric_scooter"}, {"fusion_lat": 0.0, "bike_id": "94d2202f7560514eeaff4676fbc29c88", "fusion_lon": 0.0, "lon": -77.02383766666667, "lat": 38.892346, "is_reserved": 0, "is_disabled": 0, "rental_uris": {"android": "https://dc.lft.to/lastmile_qr_scan", "ios": "https://dc.lft.to/lastmile_qr_scan"}, "name": "94d2202f7560514eeaff4676fbc29c88", "type": "electric_scooter"}, {"fusion_lat": 0.0, "bike_id": "ab804b113c9dc72a0b7e30891534eb75", "fusion_lon": 0.0, "lon": -77.0433935, "lat": 38.89223533333333, "is_reserved": 0, "is_disabled": 0, "rental_uris": {"android": "https://dc.lft.to/lastmile_qr_scan", "ios": "https://dc.lft.to/lastmile_qr_scan"}, "name": "ab804b113c9dc72a0b7e30891534eb75", "type": "electric_scooter"}, {"fusion_lat": 0.0, "bike_id": "9ad110164528cd4434626eb9dd1148dd", "fusion_lon": 0.0, "lon": -77.04167383333333, "lat": 38.9014025, "is_reserved": 0, "is_disabled": 0, "rental_uris": {"android": "https://dc.lft.to/lastmile_qr_scan", "ios": "https://dc.lft.to/lastmile_qr_scan"}, "name": "9ad110164528cd4434626eb9dd1148dd", "type": "electric_scooter"}, {"fusion_lat": 0.0, "bike_id": "fb42a9a4a2d729ecd2541f86e24cb942", "fusion_lon": 0.0, "lon": -77.02780733333333, "lat": 38.89600766666667, "is_reserved": 0, "is_disabled": 0, "rental_uris": {"android": "https://dc.lft.to/lastmile_qr_scan", "ios": "https://dc.lft.to/lastmile_qr_scan"}, "name": "fb42a9a4a2d729ecd2541f86e24cb942", "type": "electric_scooter"}, {"fusion_lat": 0.0, "bike_id": "3d9cb02024673f07352c4cb146d9d000", "fusion_lon": 0.0, "lon": -77.0450585, "lat": 38.89222083333333, "is_reserved": 0, "is_disabled": 0, "rental_uris": {"android": "https://dc.lft.to/lastmile_qr_scan", "ios": "https://dc.lft.to/lastmile_qr_scan"}, "name": "3d9cb02024673f07352c4cb146d9d000", "type": "electric_scooter"}, {"fusion_lat": 0.0, "bike_id": "d7ff8bde5bd74d5a7263feeac5cc0efb", "fusion_lon": 0.0, "lon": -77.01892066666667, "lat": 38.930924166666664, "is_reserved": 0, "is_disabled": 0, "rental_uris": {"android": "https://dc.lft.to/lastmile_qr_scan", "ios": "https://dc.lft.to/lastmile_qr_scan"}, "name": "d7ff8bde5bd74d5a7263feeac5cc0efb", "type": "electric_scooter"}, {"fusion_lat": 0.0, "bike_id": "05c6ab01be1a2c58154f71b88b6ab8c5", "fusion_lon": 0.0, "lon": -77.0053175, "lat": 38.9097935, "is_reserved": 0, "is_disabled": 0, "rental_uris": {"android": "https://dc.lft.to/lastmile_qr_scan", "ios": "https://dc.lft.to/lastmile_qr_scan"}, "name": "05c6ab01be1a2c58154f71b88b6ab8c5", "type": "electric_scooter"}, {"fusion_lat": 0.0, "bike_id": "3403398d34c59ad2d84ac15d186d79c8", "fusion_lon": 0.0, "lon": -77.02450566666667, "lat": 38.91414, "is_reserved": 0, "is_disabled": 0, "rental_uris": {"android": "https://dc.lft.to/lastmile_qr_scan", "ios": "https://dc.lft.to/lastmile_qr_scan"}, "name": "3403398d34c59ad2d84ac15d186d79c8", "type": "electric_scooter"}, {"fusion_lat": 0.0, "bike_id": "1a7b1d3b0e727ff32b6650c48941ec24", "fusion_lon": 0.0, "lon": -77.02411016666667, "lat": 38.898009, "is_reserved": 0, "is_disabled": 0, "rental_uris": {"android": "https://dc.lft.to/lastmile_qr_scan", "ios": "https://dc.lft.to/lastmile_qr_scan"}, "name": "1a7b1d3b0e727ff32b6650c48941ec24", "type": "electric_scooter"}, {"fusion_lat": 0.0, "bike_id": "970ea380f1ad33ed3111e83ac919ab99", "fusion_lon": 0.0, "lon": -77.00761483333334, "lat": 38.907000333333336, "is_reserved": 0, "is_disabled": 0, "rental_uris": {"android": "https://dc.lft.to/lastmile_qr_scan", "ios": "https://dc.lft.to/lastmile_qr_scan"}, "name": "970ea380f1ad33ed3111e83ac919ab99", "type": "electric_scooter"}, {"fusion_lat": 0.0, "bike_id": "89a2421841d754e840f3568f7a569baa", "fusion_lon": 0.0, "lon": -76.9488465, "lat": 38.895094, "is_reserved": 0, "is_disabled": 0, "rental_uris": {"android": "https://dc.lft.to/lastmile_qr_scan", "ios": "https://dc.lft.to/lastmile_qr_scan"}, "name": "89a2421841d754e840f3568f7a569baa", "type": "electric_scooter"}, {"fusion_lat": 0.0, "bike_id": "75709f0566462a995d7ee4adc4bc4bbd", "fusion_lon": 0.0, "lon": -76.99061583333334, "lat": 38.86372133333333, "is_reserved": 0, "is_disabled": 0, "rental_uris": {"android": "https://dc.lft.to/lastmile_qr_scan", "ios": "https://dc.lft.to/lastmile_qr_scan"}, "name": "75709f0566462a995d7ee4adc4bc4bbd", "type": "electric_scooter"}, {"fusion_lat": 0.0, "bike_id": "58ca4116ae173c5bea34f14a9131a5f5", "fusion_lon": 0.0, "lon": -77.03448666666667, "lat": 38.91028033333333, "is_reserved": 0, "is_disabled": 0, "rental_uris": {"android": "https://dc.lft.to/lastmile_qr_scan", "ios": "https://dc.lft.to/lastmile_qr_scan"}, "name": "58ca4116ae173c5bea34f14a9131a5f5", "type": "electric_scooter"}, {"fusion_lat": 0.0, "bike_id": "2a56f1e1d8ace3bbcde0278bd56b2ad3", "fusion_lon": 0.0, "lon": -77.00036216666666, "lat": 38.897419666666664, "is_reserved": 0, "is_disabled": 0, "rental_uris": {"android": "https://dc.lft.to/lastmile_qr_scan", "ios": "https://dc.lft.to/lastmile_qr_scan"}, "name": "2a56f1e1d8ace3bbcde0278bd56b2ad3", "type": "electric_scooter"}, {"fusion_lat": 0.0, "bike_id": "d24ab2ca2598d72dd716e0b7020fef5b", "fusion_lon": 0.0, "lon": -77.04272033333334, "lat": 38.90016816666667, "is_reserved": 0, "is_disabled": 0, "rental_uris": {"android": "https://dc.lft.to/lastmile_qr_scan", "ios": "https://dc.lft.to/lastmile_qr_scan"}, "name": "d24ab2ca2598d72dd716e0b7020fef5b", "type": "electric_scooter"}, {"fusion_lat": 0.0, "bike_id": "d019ec000a926105dbdbc737c2d26ef5", "fusion_lon": 0.0, "lon": -77.03389316666667, "lat": 38.90266, "is_reserved": 0, "is_disabled": 0, "rental_uris": {"android": "https://dc.lft.to/lastmile_qr_scan", "ios": "https://dc.lft.to/lastmile_qr_scan"}, "name": "d019ec000a926105dbdbc737c2d26ef5", "type": "electric_scooter"}, {"fusion_lat": 0.0, "bike_id": "38d745bc4b3c37526e0d085cef53b74f", "fusion_lon": 0.0, "lon": -77.03176266666667, "lat": 38.891956, "is_reserved": 0, "is_disabled": 0, "rental_uris": {"android": "https://dc.lft.to/lastmile_qr_scan", "ios": "https://dc.lft.to/lastmile_qr_scan"}, "name": "38d745bc4b3c37526e0d085cef53b74f", "type": "electric_scooter"}, {"fusion_lat": 0.0, "bike_id": "ddb9a13d2e2e501bf82d7898dbc94b05", "fusion_lon": 0.0, "lon": -77.046687, "lat": 38.90433616666667, "is_reserved": 0, "is_disabled": 0, "rental_uris": {"android": "https://dc.lft.to/lastmile_qr_scan", "ios": "https://dc.lft.to/lastmile_qr_scan"}, "name": "ddb9a13d2e2e501bf82d7898dbc94b05", "type": "electric_scooter"}, {"fusion_lat": 0.0, "bike_id": "8bdc86e41b32415fca148501798a2983", "fusion_lon": 0.0, "lon": -77.04710033333333, "lat": 38.9213775, "is_reserved": 0, "is_disabled": 0, "rental_uris": {"android": "https://dc.lft.to/lastmile_qr_scan", "ios": "https://dc.lft.to/lastmile_qr_scan"}, "name": "8bdc86e41b32415fca148501798a2983", "type": "electric_scooter"}, {"fusion_lat": 0.0, "bike_id": "82737847aeaa619b4b1fbe025fe6f78c", "fusion_lon": 0.0, "lon": -77.02273016666666, "lat": 38.924775, "is_reserved": 0, "is_disabled": 0, "rental_uris": {"android": "https://dc.lft.to/lastmile_qr_scan", "ios": "https://dc.lft.to/lastmile_qr_scan"}, "name": "82737847aeaa619b4b1fbe025fe6f78c", "type": "electric_scooter"}, {"fusion_lat": 0.0, "bike_id": "10b878e5501f4d625ab8c207287e2969", "fusion_lon": 0.0, "lon": -77.051495, "lat": 38.923704, "is_reserved": 0, "is_disabled": 0, "rental_uris": {"android": "https://dc.lft.to/lastmile_qr_scan", "ios": "https://dc.lft.to/lastmile_qr_scan"}, "name": "10b878e5501f4d625ab8c207287e2969", "type": "electric_scooter"}, {"fusion_lat": 0.0, "bike_id": "049723fc84deb6b86d26a0af176828c1", "fusion_lon": 0.0, "lon": -77.03318816666666, "lat": 38.90007583333333, "is_reserved": 0, "is_disabled": 0, "rental_uris": {"android": "https://dc.lft.to/lastmile_qr_scan", "ios": "https://dc.lft.to/lastmile_qr_scan"}, "name": "049723fc84deb6b86d26a0af176828c1", "type": "electric_scooter"}, {"fusion_lat": 0.0, "bike_id": "28bdc5adedec56e77d0ede1a9ebed78f", "fusion_lon": 0.0, "lon": -77.05471866666667, "lat": 38.904333, "is_reserved": 0, "is_disabled": 0, "rental_uris": {"android": "https://dc.lft.to/lastmile_qr_scan", "ios": "https://dc.lft.to/lastmile_qr_scan"}, "name": "28bdc5adedec56e77d0ede1a9ebed78f", "type": "electric_scooter"}, {"fusion_lat": 0.0, "bike_id": "1a3abe67e67949cb29916ac4e8c0a2fd", "fusion_lon": 0.0, "lon": -76.972424, "lat": 38.903412833333334, "is_reserved": 0, "is_disabled": 0, "rental_uris": {"android": "https://dc.lft.to/lastmile_qr_scan", "ios": "https://dc.lft.to/lastmile_qr_scan"}, "name": "1a3abe67e67949cb29916ac4e8c0a2fd", "type": "electric_scooter"}, {"fusion_lat": 0.0, "bike_id": "e2a022c360d1edf5ac4d0eae47cd79a7", "fusion_lon": 0.0, "lon": -76.9852685, "lat": 38.866862, "is_reserved": 0, "is_disabled": 0, "rental_uris": {"android": "https://dc.lft.to/lastmile_qr_scan", "ios": "https://dc.lft.to/lastmile_qr_scan"}, "name": "e2a022c360d1edf5ac4d0eae47cd79a7", "type": "electric_scooter"}, {"fusion_lat": 0.0, "bike_id": "b11293e9dd0d1feda3b617d3fcad6b2b", "fusion_lon": 0.0, "lon": -77.03282866666666, "lat": 38.937627666666664, "is_reserved": 0, "is_disabled": 0, "rental_uris": {"android": "https://dc.lft.to/lastmile_qr_scan", "ios": "https://dc.lft.to/lastmile_qr_scan"}, "name": "b11293e9dd0d1feda3b617d3fcad6b2b", "type": "electric_scooter"}, {"fusion_lat": 0.0, "bike_id": "8ca26bb373ed1fea1d09c79ad0b566e8", "fusion_lon": 0.0, "lon": -76.99460183333333, "lat": 38.90366016666667, "is_reserved": 0, "is_disabled": 0, "rental_uris": {"android": "https://dc.lft.to/lastmile_qr_scan", "ios": "https://dc.lft.to/lastmile_qr_scan"}, "name": "8ca26bb373ed1fea1d09c79ad0b566e8", "type": "electric_scooter"}, {"fusion_lat": 0.0, "bike_id": "380922d36a03d5fb17ebdd77e5affce4", "fusion_lon": 0.0, "lon": -77.02801483333333, "lat": 38.914240666666664, "is_reserved": 0, "is_disabled": 0, "rental_uris": {"android": "https://dc.lft.to/lastmile_qr_scan", "ios": "https://dc.lft.to/lastmile_qr_scan"}, "name": "380922d36a03d5fb17ebdd77e5affce4", "type": "electric_scooter"}, {"fusion_lat": 0.0, "bike_id": "59a7872b02898f9417dadb34dbbc09be", "fusion_lon": 0.0, "lon": -77.0199885, "lat": 38.96627066666667, "is_reserved": 0, "is_disabled": 0, "rental_uris": {"android": "https://dc.lft.to/lastmile_qr_scan", "ios": "https://dc.lft.to/lastmile_qr_scan"}, "name": "59a7872b02898f9417dadb34dbbc09be", "type": "electric_scooter"}, {"fusion_lat": 0.0, "bike_id": "76520c6a3deccd8cc121cb194e54dbed", "fusion_lon": 0.0, "lon": -77.07237333333333, "lat": 38.8988625, "is_reserved": 0, "is_disabled": 0, "rental_uris": {"android": "https://dc.lft.to/lastmile_qr_scan", "ios": "https://dc.lft.to/lastmile_qr_scan"}, "name": "76520c6a3deccd8cc121cb194e54dbed", "type": "electric_scooter"}, {"fusion_lat": 0.0, "bike_id": "a8583791b4bf7bfb19e9318322ca7354", "fusion_lon": 0.0, "lon": -77.075939, "lat": 38.91215316666667, "is_reserved": 0, "is_disabled": 0, "rental_uris": {"android": "https://dc.lft.to/lastmile_qr_scan", "ios": "https://dc.lft.to/lastmile_qr_scan"}, "name": "a8583791b4bf7bfb19e9318322ca7354", "type": "electric_scooter"}, {"fusion_lat": 0.0, "bike_id": "02cf41918cd309f453f003b14b7a375f", "fusion_lon": 0.0, "lon": -76.99677, "lat": 38.838325, "is_reserved": 0, "is_disabled": 0, "rental_uris": {"android": "https://dc.lft.to/lastmile_qr_scan", "ios": "https://dc.lft.to/lastmile_qr_scan"}, "name": "02cf41918cd309f453f003b14b7a375f", "type": "electric_bike"}, {"fusion_lat": 0.0, "bike_id": "340b963dccc11b70b83478be73ef99f1", "fusion_lon": 0.0, "lon": -76.99389333333333, "lat": 38.8988975, "is_reserved": 0, "is_disabled": 0, "rental_uris": {"android": "https://dc.lft.to/lastmile_qr_scan", "ios": "https://dc.lft.to/lastmile_qr_scan"}, "name": "340b963dccc11b70b83478be73ef99f1", "type": "electric_scooter"}, {"fusion_lat": 0.0, "bike_id": "c6b17ddd96001fe33e72c28e0fdf8573", "fusion_lon": 0.0, "lon": -77.0394375, "lat": 38.904683, "is_reserved": 0, "is_disabled": 0, "rental_uris": {"android": "https://dc.lft.to/lastmile_qr_scan", "ios": "https://dc.lft.to/lastmile_qr_scan"}, "name": "c6b17ddd96001fe33e72c28e0fdf8573", "type": "electric_scooter"}, {"fusion_lat": 0.0, "bike_id": "2fba4b58f19614e3c1d9f4a2ab0216a1", "fusion_lon": 0.0, "lon": -77.012328, "lat": 38.89295033333333, "is_reserved": 0, "is_disabled": 0, "rental_uris": {"android": "https://dc.lft.to/lastmile_qr_scan", "ios": "https://dc.lft.to/lastmile_qr_scan"}, "name": "2fba4b58f19614e3c1d9f4a2ab0216a1", "type": "electric_scooter"}, {"fusion_lat": 0.0, "bike_id": "9fc388287d5108dc903b21730b675392", "fusion_lon": 0.0, "lon": -77.02768216666666, "lat": 38.89476, "is_reserved": 0, "is_disabled": 0, "rental_uris": {"android": "https://dc.lft.to/lastmile_qr_scan", "ios": "https://dc.lft.to/lastmile_qr_scan"}, "name": "9fc388287d5108dc903b21730b675392", "type": "electric_scooter"}, {"fusion_lat": 0.0, "bike_id": "b4a2a8f7268b2f4c72995413b1aef9fb", "fusion_lon": 0.0, "lon": -77.03431616666667, "lat": 38.966148, "is_reserved": 0, "is_disabled": 0, "rental_uris": {"android": "https://dc.lft.to/lastmile_qr_scan", "ios": "https://dc.lft.to/lastmile_qr_scan"}, "name": "b4a2a8f7268b2f4c72995413b1aef9fb", "type": "electric_bike"}, {"fusion_lat": 0.0, "bike_id": "7671741e11c53db4d47a6ac24a67b4f7", "fusion_lon": 0.0, "lon": -76.948915, "lat": 38.89509533333333, "is_reserved": 0, "is_disabled": 0, "rental_uris": {"android": "https://dc.lft.to/lastmile_qr_scan", "ios": "https://dc.lft.to/lastmile_qr_scan"}, "name": "7671741e11c53db4d47a6ac24a67b4f7", "type": "electric_scooter"}, {"fusion_lat": 0.0, "bike_id": "b479b7a86ac5274571900091a50d7be3", "fusion_lon": 0.0, "lon": -77.022321, "lat": 38.8921725, "is_reserved": 0, "is_disabled": 0, "rental_uris": {"android": "https://dc.lft.to/lastmile_qr_scan", "ios": "https://dc.lft.to/lastmile_qr_scan"}, "name": "b479b7a86ac5274571900091a50d7be3", "type": "electric_scooter"}, {"fusion_lat": 0.0, "bike_id": "e7297b1aa48a795e34bc12299dca9c0c", "fusion_lon": 0.0, "lon": -76.99148083333333, "lat": 38.889721333333334, "is_reserved": 0, "is_disabled": 0, "rental_uris": {"android": "https://dc.lft.to/lastmile_qr_scan", "ios": "https://dc.lft.to/lastmile_qr_scan"}, "name": "e7297b1aa48a795e34bc12299dca9c0c", "type": "electric_scooter"}, {"fusion_lat": 0.0, "bike_id": "cb4d7ab72c3eedfc5bd175b9d7040dc1", "fusion_lon": 0.0, "lon": -77.03107883333334, "lat": 38.887401833333335, "is_reserved": 0, "is_disabled": 0, "rental_uris": {"android": "https://dc.lft.to/lastmile_qr_scan", "ios": "https://dc.lft.to/lastmile_qr_scan"}, "name": "cb4d7ab72c3eedfc5bd175b9d7040dc1", "type": "electric_scooter"}, {"fusion_lat": 0.0, "bike_id": "b5d2eaba475069d8e5f395f6cb065eb7", "fusion_lon": 0.0, "lon": -77.00937233333333, "lat": 38.899057, "is_reserved": 0, "is_disabled": 0, "rental_uris": {"android": "https://dc.lft.to/lastmile_qr_scan", "ios": "https://dc.lft.to/lastmile_qr_scan"}, "name": "b5d2eaba475069d8e5f395f6cb065eb7", "type": "electric_scooter"}, {"fusion_lat": 0.0, "bike_id": "1bd83419554c716cb808b921ab178848", "fusion_lon": 0.0, "lon": -77.0451355, "lat": 38.902447333333335, "is_reserved": 0, "is_disabled": 0, "rental_uris": {"android": "https://dc.lft.to/lastmile_qr_scan", "ios": "https://dc.lft.to/lastmile_qr_scan"}, "name": "1bd83419554c716cb808b921ab178848", "type": "electric_scooter"}, {"fusion_lat": 0.0, "bike_id": "e5efe27efbcbd722af3e70c9513e413e", "fusion_lon": 0.0, "lon": -77.0466155, "lat": 38.897794166666664, "is_reserved": 0, "is_disabled": 0, "rental_uris": {"android": "https://dc.lft.to/lastmile_qr_scan", "ios": "https://dc.lft.to/lastmile_qr_scan"}, "name": "e5efe27efbcbd722af3e70c9513e413e", "type": "electric_scooter"}, {"fusion_lat": 0.0, "bike_id": "5df744fdec711ccbd81a299a4e0aaeb2", "fusion_lon": 0.0, "lon": -77.00452883333334, "lat": 38.876593166666666, "is_reserved": 0, "is_disabled": 0, "rental_uris": {"android": "https://dc.lft.to/lastmile_qr_scan", "ios": "https://dc.lft.to/lastmile_qr_scan"}, "name": "5df744fdec711ccbd81a299a4e0aaeb2", "type": "electric_scooter"}, {"fusion_lat": 0.0, "bike_id": "50925afef8b3cda75507626273a1b717", "fusion_lon": 0.0, "lon": -77.03971983333334, "lat": 38.906108, "is_reserved": 0, "is_disabled": 0, "rental_uris": {"android": "https://dc.lft.to/lastmile_qr_scan", "ios": "https://dc.lft.to/lastmile_qr_scan"}, "name": "50925afef8b3cda75507626273a1b717", "type": "electric_scooter"}, {"fusion_lat": 0.0, "bike_id": "fab8bbe1ce3b02fb99ac4231e44c4640", "fusion_lon": 0.0, "lon": -77.0343395, "lat": 38.90985666666667, "is_reserved": 0, "is_disabled": 0, "rental_uris": {"android": "https://dc.lft.to/lastmile_qr_scan", "ios": "https://dc.lft.to/lastmile_qr_scan"}, "name": "fab8bbe1ce3b02fb99ac4231e44c4640", "type": "electric_scooter"}, {"fusion_lat": 0.0, "bike_id": "1aee1233e20f47ecc642b0953cf071f8", "fusion_lon": 0.0, "lon": -77.046735, "lat": 38.892309166666664, "is_reserved": 0, "is_disabled": 0, "rental_uris": {"android": "https://dc.lft.to/lastmile_qr_scan", "ios": "https://dc.lft.to/lastmile_qr_scan"}, "name": "1aee1233e20f47ecc642b0953cf071f8", "type": "electric_scooter"}, {"fusion_lat": 0.0, "bike_id": "5d73c2f107162255ba29191af6721ec3", "fusion_lon": 0.0, "lon": -77.0539965, "lat": 38.92753916666667, "is_reserved": 0, "is_disabled": 0, "rental_uris": {"android": "https://dc.lft.to/lastmile_qr_scan", "ios": "https://dc.lft.to/lastmile_qr_scan"}, "name": "5d73c2f107162255ba29191af6721ec3", "type": "electric_scooter"}, {"fusion_lat": 0.0, "bike_id": "c9922a0065b3454959dde2e5464d8c56", "fusion_lon": 0.0, "lon": -76.95004466666667, "lat": 38.8938345, "is_reserved": 0, "is_disabled": 0, "rental_uris": {"android": "https://dc.lft.to/lastmile_qr_scan", "ios": "https://dc.lft.to/lastmile_qr_scan"}, "name": "c9922a0065b3454959dde2e5464d8c56", "type": "electric_scooter"}, {"fusion_lat": 0.0, "bike_id": "6283b5669b8147bb63953c94e9c369d8", "fusion_lon": 0.0, "lon": -77.050382, "lat": 38.92361283333334, "is_reserved": 0, "is_disabled": 0, "rental_uris": {"android": "https://dc.lft.to/lastmile_qr_scan", "ios": "https://dc.lft.to/lastmile_qr_scan"}, "name": "6283b5669b8147bb63953c94e9c369d8", "type": "electric_scooter"}, {"fusion_lat": 0.0, "bike_id": "db0940d830b42171b74708020ee449ec", "fusion_lon": 0.0, "lon": -77.03292033333334, "lat": 38.9104325, "is_reserved": 0, "is_disabled": 0, "rental_uris": {"android": "https://dc.lft.to/lastmile_qr_scan", "ios": "https://dc.lft.to/lastmile_qr_scan"}, "name": "db0940d830b42171b74708020ee449ec", "type": "electric_scooter"}, {"fusion_lat": 0.0, "bike_id": "e9697b62b9eb13f519c704831790bcea", "fusion_lon": 0.0, "lon": -77.0500325, "lat": 38.891937666666664, "is_reserved": 0, "is_disabled": 0, "rental_uris": {"android": "https://dc.lft.to/lastmile_qr_scan", "ios": "https://dc.lft.to/lastmile_qr_scan"}, "name": "e9697b62b9eb13f519c704831790bcea", "type": "electric_scooter"}, {"fusion_lat": 0.0, "bike_id": "fdaaa2ccbe0d4c8119e068cc543ba25c", "fusion_lon": 0.0, "lon": -77.01784716666667, "lat": 38.885985833333336, "is_reserved": 0, "is_disabled": 0, "rental_uris": {"android": "https://dc.lft.to/lastmile_qr_scan", "ios": "https://dc.lft.to/lastmile_qr_scan"}, "name": "fdaaa2ccbe0d4c8119e068cc543ba25c", "type": "electric_scooter"}, {"fusion_lat": 0.0, "bike_id": "ef52820c99ab6de44adb06df135afe60", "fusion_lon": 0.0, "lon": -76.98537233333333, "lat": 38.89979783333333, "is_reserved": 0, "is_disabled": 0, "rental_uris": {"android": "https://dc.lft.to/lastmile_qr_scan", "ios": "https://dc.lft.to/lastmile_qr_scan"}, "name": "ef52820c99ab6de44adb06df135afe60", "type": "electric_scooter"}, {"fusion_lat": 0.0, "bike_id": "223de19c14f7be3779c7d454c54904fe", "fusion_lon": 0.0, "lon": -77.04448816666667, "lat": 38.905485166666665, "is_reserved": 0, "is_disabled": 0, "rental_uris": {"android": "https://dc.lft.to/lastmile_qr_scan", "ios": "https://dc.lft.to/lastmile_qr_scan"}, "name": "223de19c14f7be3779c7d454c54904fe", "type": "electric_scooter"}, {"fusion_lat": 0.0, "bike_id": "561cf8558c9f5dc91628584d250de5c6", "fusion_lon": 0.0, "lon": -77.03551683333333, "lat": 38.93378766666667, "is_reserved": 0, "is_disabled": 0, "rental_uris": {"android": "https://dc.lft.to/lastmile_qr_scan", "ios": "https://dc.lft.to/lastmile_qr_scan"}, "name": "561cf8558c9f5dc91628584d250de5c6", "type": "electric_scooter"}, {"fusion_lat": 0.0, "bike_id": "febfebd53ae1bbf76944df34672ab594", "fusion_lon": 0.0, "lon": -77.039427, "lat": 38.89883066666667, "is_reserved": 0, "is_disabled": 0, "rental_uris": {"android": "https://dc.lft.to/lastmile_qr_scan", "ios": "https://dc.lft.to/lastmile_qr_scan"}, "name": "febfebd53ae1bbf76944df34672ab594", "type": "electric_scooter"}, {"fusion_lat": 0.0, "bike_id": "5ce197de91688f93119e87dcfaa7261a", "fusion_lon": 0.0, "lon": -76.97858783333334, "lat": 38.907232666666665, "is_reserved": 0, "is_disabled": 0, "rental_uris": {"android": "https://dc.lft.to/lastmile_qr_scan", "ios": "https://dc.lft.to/lastmile_qr_scan"}, "name": "5ce197de91688f93119e87dcfaa7261a", "type": "electric_scooter"}, {"fusion_lat": 0.0, "bike_id": "7fadf9438a9bea9aadd0eabf6e3001b7", "fusion_lon": 0.0, "lon": -77.020897, "lat": 38.92912616666667, "is_reserved": 0, "is_disabled": 0, "rental_uris": {"android": "https://dc.lft.to/lastmile_qr_scan", "ios": "https://dc.lft.to/lastmile_qr_scan"}, "name": "7fadf9438a9bea9aadd0eabf6e3001b7", "type": "electric_scooter"}, {"fusion_lat": 0.0, "bike_id": "51dd89ec62aaf277c251eb3542bfa8b0", "fusion_lon": 0.0, "lon": -77.024047, "lat": 38.89186683333333, "is_reserved": 0, "is_disabled": 0, "rental_uris": {"android": "https://dc.lft.to/lastmile_qr_scan", "ios": "https://dc.lft.to/lastmile_qr_scan"}, "name": "51dd89ec62aaf277c251eb3542bfa8b0", "type": "electric_scooter"}, {"fusion_lat": 0.0, "bike_id": "d7c75582768c4ed7890d4c17c33be748", "fusion_lon": 0.0, "lon": -77.11573716666666, "lat": 38.99343183333333, "is_reserved": 0, "is_disabled": 0, "rental_uris": {"android": "https://dc.lft.to/lastmile_qr_scan", "ios": "https://dc.lft.to/lastmile_qr_scan"}, "name": "d7c75582768c4ed7890d4c17c33be748", "type": "electric_bike"}, {"fusion_lat": 0.0, "bike_id": "f57b44541703483b3160a831127a7b89", "fusion_lon": 0.0, "lon": -77.027973, "lat": 38.941780666666666, "is_reserved": 0, "is_disabled": 0, "rental_uris": {"android": "https://dc.lft.to/lastmile_qr_scan", "ios": "https://dc.lft.to/lastmile_qr_scan"}, "name": "f57b44541703483b3160a831127a7b89", "type": "electric_scooter"}, {"fusion_lat": 0.0, "bike_id": "70bbe55a9f7bf3d2a6d3627f474a3d7b", "fusion_lon": 0.0, "lon": -77.02557033333333, "lat": 38.9095645, "is_reserved": 0, "is_disabled": 0, "rental_uris": {"android": "https://dc.lft.to/lastmile_qr_scan", "ios": "https://dc.lft.to/lastmile_qr_scan"}, "name": "70bbe55a9f7bf3d2a6d3627f474a3d7b", "type": "electric_scooter"}, {"fusion_lat": 0.0, "bike_id": "51be52e99666a88987cfe7f6f0503ac7", "fusion_lon": 0.0, "lon": -77.03388966666667, "lat": 38.9215665, "is_reserved": 0, "is_disabled": 0, "rental_uris": {"android": "https://dc.lft.to/lastmile_qr_scan", "ios": "https://dc.lft.to/lastmile_qr_scan"}, "name": "51be52e99666a88987cfe7f6f0503ac7", "type": "electric_scooter"}, {"fusion_lat": 0.0, "bike_id": "5847a518883fd63a1a6b19768e6e23b2", "fusion_lon": 0.0, "lon": -76.9773555, "lat": 38.86468166666667, "is_reserved": 0, "is_disabled": 0, "rental_uris": {"android": "https://dc.lft.to/lastmile_qr_scan", "ios": "https://dc.lft.to/lastmile_qr_scan"}, "name": "5847a518883fd63a1a6b19768e6e23b2", "type": "electric_scooter"}, {"fusion_lat": 0.0, "bike_id": "4bc2268871cf15fd12258452e66895b6", "fusion_lon": 0.0, "lon": -76.98526483333333, "lat": 38.86683716666667, "is_reserved": 0, "is_disabled": 0, "rental_uris": {"android": "https://dc.lft.to/lastmile_qr_scan", "ios": "https://dc.lft.to/lastmile_qr_scan"}, "name": "4bc2268871cf15fd12258452e66895b6", "type": "electric_scooter"}, {"fusion_lat": 0.0, "bike_id": "aedac69944f07aaa65c11e92b9199fca", "fusion_lon": 0.0, "lon": -77.00961666666667, "lat": 38.953385, "is_reserved": 0, "is_disabled": 0, "rental_uris": {"android": "https://dc.lft.to/lastmile_qr_scan", "ios": "https://dc.lft.to/lastmile_qr_scan"}, "name": "aedac69944f07aaa65c11e92b9199fca", "type": "electric_bike"}, {"fusion_lat": 0.0, "bike_id": "7ddc67729bd327120f99dffecb0285c5", "fusion_lon": 0.0, "lon": -77.04339466666667, "lat": 38.90691966666667, "is_reserved": 0, "is_disabled": 0, "rental_uris": {"android": "https://dc.lft.to/lastmile_qr_scan", "ios": "https://dc.lft.to/lastmile_qr_scan"}, "name": "7ddc67729bd327120f99dffecb0285c5", "type": "electric_scooter"}, {"fusion_lat": 0.0, "bike_id": "e764d79be43de030b50c5dfbe742c9a2", "fusion_lon": 0.0, "lon": -77.029784, "lat": 38.923126833333335, "is_reserved": 0, "is_disabled": 0, "rental_uris": {"android": "https://dc.lft.to/lastmile_qr_scan", "ios": "https://dc.lft.to/lastmile_qr_scan"}, "name": "e764d79be43de030b50c5dfbe742c9a2", "type": "electric_scooter"}, {"fusion_lat": 0.0, "bike_id": "d209bedf3794a0e9c17b0ebbaf4f4c12", "fusion_lon": 0.0, "lon": -77.03731316666666, "lat": 38.926417666666666, "is_reserved": 0, "is_disabled": 0, "rental_uris": {"android": "https://dc.lft.to/lastmile_qr_scan", "ios": "https://dc.lft.to/lastmile_qr_scan"}, "name": "d209bedf3794a0e9c17b0ebbaf4f4c12", "type": "electric_scooter"}, {"fusion_lat": 0.0, "bike_id": "fcbde88ecfb822d960694002fee04ee0", "fusion_lon": 0.0, "lon": -77.039656, "lat": 38.892209666666666, "is_reserved": 0, "is_disabled": 0, "rental_uris": {"android": "https://dc.lft.to/lastmile_qr_scan", "ios": "https://dc.lft.to/lastmile_qr_scan"}, "name": "fcbde88ecfb822d960694002fee04ee0", "type": "electric_scooter"}, {"fusion_lat": 0.0, "bike_id": "6b02a6156a9b3b3a8036e6b796e94da8", "fusion_lon": 0.0, "lon": -76.9885465, "lat": 38.86728183333334, "is_reserved": 0, "is_disabled": 0, "rental_uris": {"android": "https://dc.lft.to/lastmile_qr_scan", "ios": "https://dc.lft.to/lastmile_qr_scan"}, "name": "6b02a6156a9b3b3a8036e6b796e94da8", "type": "electric_scooter"}, {"fusion_lat": 0.0, "bike_id": "8e2e66e78c527f71fa4930fbb7fe9cee", "fusion_lon": 0.0, "lon": -77.01741183333333, "lat": 38.887431, "is_reserved": 0, "is_disabled": 0, "rental_uris": {"android": "https://dc.lft.to/lastmile_qr_scan", "ios": "https://dc.lft.to/lastmile_qr_scan"}, "name": "8e2e66e78c527f71fa4930fbb7fe9cee", "type": "electric_scooter"}, {"fusion_lat": 0.0, "bike_id": "3359ba110135d75fa49e62ece8bd1fad", "fusion_lon": 0.0, "lon": -77.022047, "lat": 38.879007333333334, "is_reserved": 0, "is_disabled": 0, "rental_uris": {"android": "https://dc.lft.to/lastmile_qr_scan", "ios": "https://dc.lft.to/lastmile_qr_scan"}, "name": "3359ba110135d75fa49e62ece8bd1fad", "type": "electric_scooter"}, {"fusion_lat": 0.0, "bike_id": "05add2c357d8311611de6ab775254350", "fusion_lon": 0.0, "lon": -77.031818, "lat": 38.9174635, "is_reserved": 0, "is_disabled": 0, "rental_uris": {"android": "https://dc.lft.to/lastmile_qr_scan", "ios": "https://dc.lft.to/lastmile_qr_scan"}, "name": "05add2c357d8311611de6ab775254350", "type": "electric_scooter"}, {"fusion_lat": 0.0, "bike_id": "419ab63c1bcbf5c9ec752e3f8a569dd2", "fusion_lon": 0.0, "lon": -77.03301133333333, "lat": 38.89809666666667, "is_reserved": 0, "is_disabled": 0, "rental_uris": {"android": "https://dc.lft.to/lastmile_qr_scan", "ios": "https://dc.lft.to/lastmile_qr_scan"}, "name": "419ab63c1bcbf5c9ec752e3f8a569dd2", "type": "electric_scooter"}, {"fusion_lat": 0.0, "bike_id": "8873c765b106c4799e1f590640cb58f0", "fusion_lon": 0.0, "lon": -77.02712033333333, "lat": 38.897234833333336, "is_reserved": 0, "is_disabled": 0, "rental_uris": {"android": "https://dc.lft.to/lastmile_qr_scan", "ios": "https://dc.lft.to/lastmile_qr_scan"}, "name": "8873c765b106c4799e1f590640cb58f0", "type": "electric_scooter"}, {"fusion_lat": 0.0, "bike_id": "2d52178791bc898a02ad5462ef6fd82d", "fusion_lon": 0.0, "lon": -77.04336833333333, "lat": 38.892232, "is_reserved": 0, "is_disabled": 0, "rental_uris": {"android": "https://dc.lft.to/lastmile_qr_scan", "ios": "https://dc.lft.to/lastmile_qr_scan"}, "name": "2d52178791bc898a02ad5462ef6fd82d", "type": "electric_scooter"}, {"fusion_lat": 0.0, "bike_id": "ca987b25579b73e02ffbb2502492ee82", "fusion_lon": 0.0, "lon": -77.04184583333333, "lat": 38.92302166666666, "is_reserved": 0, "is_disabled": 0, "rental_uris": {"android": "https://dc.lft.to/lastmile_qr_scan", "ios": "https://dc.lft.to/lastmile_qr_scan"}, "name": "ca987b25579b73e02ffbb2502492ee82", "type": "electric_scooter"}, {"fusion_lat": 0.0, "bike_id": "a535e11208a5e3c6c2c1766934c89fe1", "fusion_lon": 0.0, "lon": -77.01982433333333, "lat": 38.8837935, "is_reserved": 0, "is_disabled": 0, "rental_uris": {"android": "https://dc.lft.to/lastmile_qr_scan", "ios": "https://dc.lft.to/lastmile_qr_scan"}, "name": "a535e11208a5e3c6c2c1766934c89fe1", "type": "electric_scooter"}, {"fusion_lat": 0.0, "bike_id": "6dd2ec5a9ebd19de074bc4c60ae99825", "fusion_lon": 0.0, "lon": -77.0500575, "lat": 38.89229666666667, "is_reserved": 0, "is_disabled": 0, "rental_uris": {"android": "https://dc.lft.to/lastmile_qr_scan", "ios": "https://dc.lft.to/lastmile_qr_scan"}, "name": "6dd2ec5a9ebd19de074bc4c60ae99825", "type": "electric_scooter"}, {"fusion_lat": 0.0, "bike_id": "ea61ac693921dac4e81914cf07539bdb", "fusion_lon": 0.0, "lon": -76.99369083333333, "lat": 38.879727, "is_reserved": 0, "is_disabled": 0, "rental_uris": {"android": "https://dc.lft.to/lastmile_qr_scan", "ios": "https://dc.lft.to/lastmile_qr_scan"}, "name": "ea61ac693921dac4e81914cf07539bdb", "type": "electric_scooter"}, {"fusion_lat": 0.0, "bike_id": "455508c423ca1beb7de779ece4120598", "fusion_lon": 0.0, "lon": -77.03744516666667, "lat": 38.918069, "is_reserved": 0, "is_disabled": 0, "rental_uris": {"android": "https://dc.lft.to/lastmile_qr_scan", "ios": "https://dc.lft.to/lastmile_qr_scan"}, "name": "455508c423ca1beb7de779ece4120598", "type": "electric_scooter"}, {"fusion_lat": 0.0, "bike_id": "4eeaa4157720cedbca034a17d0dc2660", "fusion_lon": 0.0, "lon": -77.03803766666667, "lat": 38.906737666666665, "is_reserved": 0, "is_disabled": 0, "rental_uris": {"android": "https://dc.lft.to/lastmile_qr_scan", "ios": "https://dc.lft.to/lastmile_qr_scan"}, "name": "4eeaa4157720cedbca034a17d0dc2660", "type": "electric_scooter"}, {"fusion_lat": 0.0, "bike_id": "639fd270fa3e561704fc4129d983d9c1", "fusion_lon": 0.0, "lon": -76.99002916666667, "lat": 38.865086, "is_reserved": 0, "is_disabled": 0, "rental_uris": {"android": "https://dc.lft.to/lastmile_qr_scan", "ios": "https://dc.lft.to/lastmile_qr_scan"}, "name": "639fd270fa3e561704fc4129d983d9c1", "type": "electric_scooter"}, {"fusion_lat": 0.0, "bike_id": "bd807774314d2a4f0700770a21fe8b3f", "fusion_lon": 0.0, "lon": -76.98572183333333, "lat": 38.8995855, "is_reserved": 0, "is_disabled": 0, "rental_uris": {"android": "https://dc.lft.to/lastmile_qr_scan", "ios": "https://dc.lft.to/lastmile_qr_scan"}, "name": "bd807774314d2a4f0700770a21fe8b3f", "type": "electric_scooter"}, {"fusion_lat": 0.0, "bike_id": "d473468be9818b1e39d879bc21b736d6", "fusion_lon": 0.0, "lon": -77.044811, "lat": 38.91031733333333, "is_reserved": 0, "is_disabled": 0, "rental_uris": {"android": "https://dc.lft.to/lastmile_qr_scan", "ios": "https://dc.lft.to/lastmile_qr_scan"}, "name": "d473468be9818b1e39d879bc21b736d6", "type": "electric_scooter"}, {"fusion_lat": 0.0, "bike_id": "0fe46bad24d25e284598ab4df1429f6c", "fusion_lon": 0.0, "lon": -76.93355183333334, "lat": 38.8991165, "is_reserved": 0, "is_disabled": 0, "rental_uris": {"android": "https://dc.lft.to/lastmile_qr_scan", "ios": "https://dc.lft.to/lastmile_qr_scan"}, "name": "0fe46bad24d25e284598ab4df1429f6c", "type": "electric_scooter"}, {"fusion_lat": 0.0, "bike_id": "2389c19990fcaf53eca5f68591e25ae1", "fusion_lon": 0.0, "lon": -76.99105916666667, "lat": 38.9031815, "is_reserved": 0, "is_disabled": 0, "rental_uris": {"android": "https://dc.lft.to/lastmile_qr_scan", "ios": "https://dc.lft.to/lastmile_qr_scan"}, "name": "2389c19990fcaf53eca5f68591e25ae1", "type": "electric_scooter"}, {"fusion_lat": 0.0, "bike_id": "bb70b9d7681e8628b3d1457eee579f33", "fusion_lon": 0.0, "lon": -77.00446733333334, "lat": 38.87654, "is_reserved": 0, "is_disabled": 0, "rental_uris": {"android": "https://dc.lft.to/lastmile_qr_scan", "ios": "https://dc.lft.to/lastmile_qr_scan"}, "name": "bb70b9d7681e8628b3d1457eee579f33", "type": "electric_scooter"}, {"fusion_lat": 0.0, "bike_id": "0b59e88d6ae0cd284f4dfcc2cf439dea", "fusion_lon": 0.0, "lon": -77.027238, "lat": 38.91676266666666, "is_reserved": 0, "is_disabled": 0, "rental_uris": {"android": "https://dc.lft.to/lastmile_qr_scan", "ios": "https://dc.lft.to/lastmile_qr_scan"}, "name": "0b59e88d6ae0cd284f4dfcc2cf439dea", "type": "electric_scooter"}, {"fusion_lat": 0.0, "bike_id": "31e8587ae86c1551ce8bcc97d84481b7", "fusion_lon": 0.0, "lon": -77.04179133333334, "lat": 38.90525783333333, "is_reserved": 0, "is_disabled": 0, "rental_uris": {"android": "https://dc.lft.to/lastmile_qr_scan", "ios": "https://dc.lft.to/lastmile_qr_scan"}, "name": "31e8587ae86c1551ce8bcc97d84481b7", "type": "electric_scooter"}, {"fusion_lat": 0.0, "bike_id": "832a475e060ae58e5e32c9721dc8b8b1", "fusion_lon": 0.0, "lon": -77.1267855, "lat": 38.81511916666667, "is_reserved": 0, "is_disabled": 0, "rental_uris": {"android": "https://dc.lft.to/lastmile_qr_scan", "ios": "https://dc.lft.to/lastmile_qr_scan"}, "name": "832a475e060ae58e5e32c9721dc8b8b1", "type": "electric_bike"}, {"fusion_lat": 0.0, "bike_id": "fb1c98942f0df2f97fb6f7eef2ee6939", "fusion_lon": 0.0, "lon": -76.9338105, "lat": 38.910298, "is_reserved": 0, "is_disabled": 0, "rental_uris": {"android": "https://dc.lft.to/lastmile_qr_scan", "ios": "https://dc.lft.to/lastmile_qr_scan"}, "name": "fb1c98942f0df2f97fb6f7eef2ee6939", "type": "electric_scooter"}, {"fusion_lat": 0.0, "bike_id": "813a7054f4bf8cf3baf9be399a284a4c", "fusion_lon": 0.0, "lon": -77.01755383333334, "lat": 38.884018, "is_reserved": 0, "is_disabled": 0, "rental_uris": {"android": "https://dc.lft.to/lastmile_qr_scan", "ios": "https://dc.lft.to/lastmile_qr_scan"}, "name": "813a7054f4bf8cf3baf9be399a284a4c", "type": "electric_scooter"}, {"fusion_lat": 0.0, "bike_id": "b93432ebfc7761580a943927028b5152", "fusion_lon": 0.0, "lon": -77.03182383333333, "lat": 38.89230116666667, "is_reserved": 0, "is_disabled": 0, "rental_uris": {"android": "https://dc.lft.to/lastmile_qr_scan", "ios": "https://dc.lft.to/lastmile_qr_scan"}, "name": "b93432ebfc7761580a943927028b5152", "type": "electric_scooter"}, {"fusion_lat": 0.0, "bike_id": "75b9f10c5a78082329b5a042c276036c", "fusion_lon": 0.0, "lon": -77.0268215, "lat": 38.94325533333333, "is_reserved": 0, "is_disabled": 0, "rental_uris": {"android": "https://dc.lft.to/lastmile_qr_scan", "ios": "https://dc.lft.to/lastmile_qr_scan"}, "name": "75b9f10c5a78082329b5a042c276036c", "type": "electric_scooter"}, {"fusion_lat": 0.0, "bike_id": "f8165b1972458f1bb9cf79f340efcd0c", "fusion_lon": 0.0, "lon": -77.02004916666667, "lat": 38.894841166666666, "is_reserved": 0, "is_disabled": 0, "rental_uris": {"android": "https://dc.lft.to/lastmile_qr_scan", "ios": "https://dc.lft.to/lastmile_qr_scan"}, "name": "f8165b1972458f1bb9cf79f340efcd0c", "type": "electric_scooter"}, {"fusion_lat": 0.0, "bike_id": "e679c196db867df290822287cbe0bec9", "fusion_lon": 0.0, "lon": -76.985014, "lat": 38.866719333333336, "is_reserved": 0, "is_disabled": 0, "rental_uris": {"android": "https://dc.lft.to/lastmile_qr_scan", "ios": "https://dc.lft.to/lastmile_qr_scan"}, "name": "e679c196db867df290822287cbe0bec9", "type": "electric_scooter"}, {"fusion_lat": 0.0, "bike_id": "598a1dc87a9ecbfd5669c9f6808dab97", "fusion_lon": 0.0, "lon": -76.99738033333334, "lat": 39.04230666666667, "is_reserved": 0, "is_disabled": 0, "rental_uris": {"android": "https://dc.lft.to/lastmile_qr_scan", "ios": "https://dc.lft.to/lastmile_qr_scan"}, "name": "598a1dc87a9ecbfd5669c9f6808dab97", "type": "electric_bike"}, {"fusion_lat": 0.0, "bike_id": "135985689ee3a1faa7183a0f50fa6d91", "fusion_lon": 0.0, "lon": -77.01962333333333, "lat": 38.923246, "is_reserved": 0, "is_disabled": 0, "rental_uris": {"android": "https://dc.lft.to/lastmile_qr_scan", "ios": "https://dc.lft.to/lastmile_qr_scan"}, "name": "135985689ee3a1faa7183a0f50fa6d91", "type": "electric_scooter"}, {"fusion_lat": 0.0, "bike_id": "644998b8a9b5ae539379c6b388312bfb", "fusion_lon": 0.0, "lon": -77.03439466666667, "lat": 38.907355, "is_reserved": 0, "is_disabled": 0, "rental_uris": {"android": "https://dc.lft.to/lastmile_qr_scan", "ios": "https://dc.lft.to/lastmile_qr_scan"}, "name": "644998b8a9b5ae539379c6b388312bfb", "type": "electric_scooter"}, {"fusion_lat": 0.0, "bike_id": "4efdd3bbc720d927aecbbb19e0135222", "fusion_lon": 0.0, "lon": -77.0298685, "lat": 38.92455733333333, "is_reserved": 0, "is_disabled": 0, "rental_uris": {"android": "https://dc.lft.to/lastmile_qr_scan", "ios": "https://dc.lft.to/lastmile_qr_scan"}, "name": "4efdd3bbc720d927aecbbb19e0135222", "type": "electric_scooter"},