{"data": {"bikes": [{"lat": 38.9386045, "is_disabled": 0, "type": "electric_scooter", "fusion_lon": 0.0, "rental_uris": {"android": "https://dc.lft.to/lastmile_qr_scan", "ios": "https://dc.lft.to/lastmile_qr_scan"}, "fusion_lat": 0.0, "is_reserved": 0, "bike_id": "09a0e703430ab60a74f2d3561fc83193", "name": "09a0e703430ab60a74f2d3561fc83193", "lon": -77.024691}, {"lat": 38.892223666666666, "is_disabled": 0, "type": "electric_scooter", "fusion_lon": 0.0, "rental_uris": {"android": "https://dc.lft.to/lastmile_qr_scan", "ios": "https://dc.lft.to/lastmile_qr_scan"}, "fusion_lat": 0.0, "is_reserved": 0, "bike_id": "0b3701f7ba5e951b2d3c96e70c8c01ab", "name": "0b3701f7ba5e951b2d3c96e70c8c01ab", "lon": -77.02628333333334}, {"lat": 38.8920105, "is_disabled": 0, "type": "electric_scooter", "fusion_lon": 0.0, "rental_uris": {"android": "https://dc.lft.to/lastmile_qr_scan", "ios": "https://dc.lft.to/lastmile_qr_scan"}, "fusion_lat": 0.0, "is_reserved": 0, "bike_id": "f7b39171e01fcc6f548d5cb70cd4022e", "name": "f7b39171e01fcc6f548d5cb70cd4022e", "lon": -77.0277305}, {"lat": 39.014800666666666, "is_disabled": 0, "type": "electric_bike", "fusion_lon": 0.0, "rental_uris": {"android": "https://dc.lft.to/lastmile_qr_scan", "ios": "https://dc.lft.to/lastmile_qr_scan"}, "fusion_lat": 0.0, "is_reserved": 0, "bike_id": "86a704987cd5c055fbf4840fd640aefd", "name": "86a704987cd5c055fbf4840fd640aefd", "lon": -77.054986}, {"lat": 38.9111145, "is_disabled": 0, "type": "electric_scooter", "fusion_lon": 0.0, "rental_uris": {"android": "https://dc.lft.to/lastmile_qr_scan", "ios": "https://dc.lft.to/lastmile_qr_scan"}, "fusion_lat": 0.0, "is_reserved": 0, "bike_id": "acceabb36b93605a96c9e19e2a9297d8", "name": "acceabb36b93605a96c9e19e2a9297d8", "lon": -77.044043}, {"lat": 38.96743516666667, "is_disabled": 0, "type": "electric_bike", "fusion_lon": 0.0, "rental_uris": {"android": "https://dc.lft.to/lastmile_qr_scan", "ios": "https://dc.lft.to/lastmile_qr_scan"}, "fusion_lat": 0.0, "is_reserved": 0, "bike_id": "627a86f1ac80c23c9f865f47660b7f5c", "name": "627a86f1ac80c23c9f865f47660b7f5c", "lon": -76.98195883333334}, {"lat": 38.91359583333333, "is_disabled": 0, "type": "electric_scooter", "fusion_lon": 0.0, "rental_uris": {"android": "https://dc.lft.to/lastmile_qr_scan", "ios": "https://dc.lft.to/lastmile_qr_scan"}, "fusion_lat": 0.0, "is_reserved": 0, "bike_id": "fa232a570105e7c91a2f04acdd05407f", "name": "fa232a570105e7c91a2f04acdd05407f", "lon": -77.0396015}, {"lat": 38.907905666666665, "is_disabled": 0, "type": "electric_scooter", "fusion_lon": 0.0, "rental_uris": {"android": "https://dc.lft.to/lastmile_qr_scan", "ios": "https://dc.lft.to/lastmile_qr_scan"}, "fusion_lat": 0.0, "is_reserved": 0, "bike_id": "6ec52d404f538669dafb6b4a8f3c6b41", "name": "6ec52d404f538669dafb6b4a8f3c6b41", "lon": -77.02279616666667}, {"lat": 38.88996616666667, "is_disabled": 0, "type": "electric_scooter", "fusion_lon": 0.0, "rental_uris": {"android": "https://dc.lft.to/lastmile_qr_scan", "ios": "https://dc.lft.to/lastmile_qr_scan"}, "fusion_lat": 0.0, "is_reserved": 0, "bike_id": "983696845a3851839c1b960da605a7c5", "name": "983696845a3851839c1b960da605a7c5", "lon": -76.99742283333333}, {"lat": 38.934752, "is_disabled": 0, "type": "electric_scooter", "fusion_lon": 0.0, "rental_uris": {"android": "https://dc.lft.to/lastmile_qr_scan", "ios": "https://dc.lft.to/lastmile_qr_scan"}, "fusion_lat": 0.0, "is_reserved": 0, "bike_id": "2fb9f2875a965955ba3677e6e316d792", "name": "2fb9f2875a965955ba3677e6e316d792", "lon": -77.02839833333333}, {"lat": 38.90324233333333, "is_disabled": 0, "type": "electric_scooter", "fusion_lon": 0.0, "rental_uris": {"android": "https://dc.lft.to/lastmile_qr_scan", "ios": "https://dc.lft.to/lastmile_qr_scan"}, "fusion_lat": 0.0, "is_reserved": 0, "bike_id": "6ced182d2e2b968609f2bf03db4feb8d", "name": "6ced182d2e2b968609f2bf03db4feb8d", "lon": -77.02459816666666}, {"lat": 38.917723333333335, "is_disabled": 0, "type": "electric_scooter", "fusion_lon": 0.0, "rental_uris": {"android": "https://dc.lft.to/lastmile_qr_scan", "ios": "https://dc.lft.to/lastmile_qr_scan"}, "fusion_lat": 0.0, "is_reserved": 0, "bike_id": "cd2b8c8b00efcad34f951d08a75f13a6", "name": "cd2b8c8b00efcad34f951d08a75f13a6", "lon": -77.04103633333334}, {"lat": 38.923656, "is_disabled": 0, "type": "electric_scooter", "fusion_lon": 0.0, "rental_uris": {"android": "https://dc.lft.to/lastmile_qr_scan", "ios": "https://dc.lft.to/lastmile_qr_scan"}, "fusion_lat": 0.0, "is_reserved": 0, "bike_id": "cff44de9432b9ab79fba6d4e12cc2070", "name": "cff44de9432b9ab79fba6d4e12cc2070", "lon": -77.05131616666667}, {"lat": 38.908290666666666, "is_disabled": 0, "type": "electric_scooter", "fusion_lon": 0.0, "rental_uris": {"android": "https://dc.lft.to/lastmile_qr_scan", "ios": "https://dc.lft.to/lastmile_qr_scan"}, "fusion_lat": 0.0, "is_reserved": 0, "bike_id": "70aedfea09bc64a22bdd1421cbc7d57d", "name": "70aedfea09bc64a22bdd1421cbc7d57d", "lon": -77.03209666666666}, {"lat": 38.892221166666666, "is_disabled": 0, "type": "electric_scooter", "fusion_lon": 0.0, "rental_uris": {"android": "https://dc.lft.to/lastmile_qr_scan", "ios": "https://dc.lft.to/lastmile_qr_scan"}, "fusion_lat": 0.0, "is_reserved": 0, "bike_id": "40276f867abbe044294d55e87e868297", "name": "40276f867abbe044294d55e87e868297", "lon": -77.043751}, {"lat": 38.90065333333333, "is_disabled": 0, "type": "electric_scooter", "fusion_lon": 0.0, "rental_uris": {"android": "https://dc.lft.to/lastmile_qr_scan", "ios": "https://dc.lft.to/lastmile_qr_scan"}, "fusion_lat": 0.0, "is_reserved": 0, "bike_id": "60b0c52fd4c8e4300a21345a052f53d7", "name": "60b0c52fd4c8e4300a21345a052f53d7", "lon": -77.04925633333333}, {"lat": 38.8993045, "is_disabled": 0, "type": "electric_scooter", "fusion_lon": 0.0, "rental_uris": {"android": "https://dc.lft.to/lastmile_qr_scan", "ios": "https://dc.lft.to/lastmile_qr_scan"}, "fusion_lat": 0.0, "is_reserved": 0, "bike_id": "0b3f6ba1b7dd29e9fd577b94385489c8", "name": "0b3f6ba1b7dd29e9fd577b94385489c8", "lon": -76.98274833333333}, {"lat": 38.80766716666667, "is_disabled": 0, "type": "electric_bike", "fusion_lon": 0.0, "rental_uris": {"android": "https://dc.lft.to/lastmile_qr_scan", "ios": "https://dc.lft.to/lastmile_qr_scan"}, "fusion_lat": 0.0, "is_reserved": 0, "bike_id": "6b69af1bc114fd9f0e55b18d270017a6", "name": "6b69af1bc114fd9f0e55b18d270017a6", "lon": -77.0946865}, {"lat": 38.93229633333333, "is_disabled": 0, "type": "electric_scooter", "fusion_lon": 0.0, "rental_uris": {"android": "https://dc.lft.to/lastmile_qr_scan", "ios": "https://dc.lft.to/lastmile_qr_scan"}, "fusion_lat": 0.0, "is_reserved": 0, "bike_id": "aade288055768e298c2b60b8bda2b263", "name": "aade288055768e298c2b60b8bda2b263", "lon": -77.02842966666667}, {"lat": 38.93558066666667, "is_disabled": 0, "type": "electric_scooter", "fusion_lon": 0.0, "rental_uris": {"android": "https://dc.lft.to/lastmile_qr_scan", "ios": "https://dc.lft.to/lastmile_qr_scan"}, "fusion_lat": 0.0, "is_reserved": 0, "bike_id": "87bad5393c1d058b7d18bff6290c58c6", "name": "87bad5393c1d058b7d18bff6290c58c6", "lon": -77.022275}, {"lat": 38.910761666666666, "is_disabled": 0, "type": "electric_scooter", "fusion_lon": 0.0, "rental_uris": {"android": "https://dc.lft.to/lastmile_qr_scan", "ios": "https://dc.lft.to/lastmile_qr_scan"}, "fusion_lat": 0.0, "is_reserved": 0, "bike_id": "a6a6c7364ba97edeaa264700352a0a8a", "name": "a6a6c7364ba97edeaa264700352a0a8a", "lon": -77.03468533333333}, {"lat": 38.88420516666667, "is_disabled": 0, "type": "electric_scooter", "fusion_lon": 0.0, "rental_uris": {"android": "https://dc.lft.to/lastmile_qr_scan", "ios": "https://dc.lft.to/lastmile_qr_scan"}, "fusion_lat": 0.0, "is_reserved": 0, "bike_id": "79057be3fcfd757913f7f3fa3c8778f0", "name": "79057be3fcfd757913f7f3fa3c8778f0", "lon": -77.02583316666667}, {"lat": 38.86413566666667, "is_disabled": 0, "type": "electric_scooter", "fusion_lon": 0.0, "rental_uris": {"android": "https://dc.lft.to/lastmile_qr_scan", "ios": "https://dc.lft.to/lastmile_qr_scan"}, "fusion_lat": 0.0, "is_reserved": 0, "bike_id": "ea14c83c0be00609d4031f8fee88dea2", "name": "ea14c83c0be00609d4031f8fee88dea2", "lon": -76.97440666666667}, {"lat": 38.92945533333334, "is_disabled": 0, "type": "electric_scooter", "fusion_lon": 0.0, "rental_uris": {"android": "https://dc.lft.to/lastmile_qr_scan", "ios": "https://dc.lft.to/lastmile_qr_scan"}, "fusion_lat": 0.0, "is_reserved": 0, "bike_id": "2b41b7ee0c76ebd91ccae81fbd99083d", "name": "2b41b7ee0c76ebd91ccae81fbd99083d", "lon": -77.01643016666667}, {"lat": 38.892311, "is_disabled": 0, "type": "electric_scooter", "fusion_lon": 0.0, "rental_uris": {"android": "https://dc.lft.to/lastmile_qr_scan", "ios": "https://dc.lft.to/lastmile_qr_scan"}, "fusion_lat": 0.0, "is_reserved": 0, "bike_id": "4252c48c57a362f28bb73b3564cc92a5", "name": "4252c48c57a362f28bb73b3564cc92a5", "lon": -77.01275916666667}, {"lat": 38.92278183333333, "is_disabled": 0, "type": "electric_scooter", "fusion_lon": 0.0, "rental_uris": {"android": "https://dc.lft.to/lastmile_qr_scan", "ios": "https://dc.lft.to/lastmile_qr_scan"}, "fusion_lat": 0.0, "is_reserved": 0, "bike_id": "3238c4bae77cf7fc5011595d0fbee7ca", "name": "3238c4bae77cf7fc5011595d0fbee7ca", "lon": -77.03418516666666}, {"lat": 38.94564183333333, "is_disabled": 0, "type": "electric_bike", "fusion_lon": 0.0, "rental_uris": {"android": "https://dc.lft.to/lastmile_qr_scan", "ios": "https://dc.lft.to/lastmile_qr_scan"}, "fusion_lat": 0.0, "is_reserved": 0, "bike_id": "4e0a8db8f14826a1c563de8b405bb461", "name": "4e0a8db8f14826a1c563de8b405bb461", "lon": -76.96692933333334}, {"lat": 38.84315216666667, "is_disabled": 0, "type": "electric_scooter", "fusion_lon": 0.0, "rental_uris": {"android": "https://dc.lft.to/lastmile_qr_scan", "ios": "https://dc.lft.to/lastmile_qr_scan"}, "fusion_lat": 0.0, "is_reserved": 0, "bike_id": "2bb3d599d7a608532ffa0782f408a1af", "name": "2bb3d599d7a608532ffa0782f408a1af", "lon": -76.9993655}, {"lat": 38.91001133333333, "is_disabled": 0, "type": "electric_scooter", "fusion_lon": 0.0, "rental_uris": {"android": "https://dc.lft.to/lastmile_qr_scan", "ios": "https://dc.lft.to/lastmile_qr_scan"}, "fusion_lat": 0.0, "is_reserved": 0, "bike_id": "5940d49f1c96597090287e2f840049c3", "name": "5940d49f1c96597090287e2f840049c3", "lon": -76.996938}, {"lat": 38.91847883333333, "is_disabled": 0, "type": "electric_scooter", "fusion_lon": 0.0, "rental_uris": {"android": "https://dc.lft.to/lastmile_qr_scan", "ios": "https://dc.lft.to/lastmile_qr_scan"}, "fusion_lat": 0.0, "is_reserved": 0, "bike_id": "cb4ddc062aa8303949b5f5290178cfaa", "name": "cb4ddc062aa8303949b5f5290178cfaa", "lon": -77.0260105}, {"lat": 38.90370083333333, "is_disabled": 0, "type": "electric_scooter", "fusion_lon": 0.0, "rental_uris": {"android": "https://dc.lft.to/lastmile_qr_scan", "ios": "https://dc.lft.to/lastmile_qr_scan"}, "fusion_lat": 0.0, "is_reserved": 0, "bike_id": "c8bc961aa602618c24ec7e7b0fe2b57e", "name": "c8bc961aa602618c24ec7e7b0fe2b57e", "lon": -77.04463683333333}, {"lat": 38.89227733333333, "is_disabled": 0, "type": "electric_scooter", "fusion_lon": 0.0, "rental_uris": {"android": "https://dc.lft.to/lastmile_qr_scan", "ios": "https://dc.lft.to/lastmile_qr_scan"}, "fusion_lat": 0.0, "is_reserved": 0, "bike_id": "befe066998998ef703c4192682ba6898", "name": "befe066998998ef703c4192682ba6898", "lon": -77.04334283333333}, {"lat": 38.9169825, "is_disabled": 0, "type": "electric_scooter", "fusion_lon": 0.0, "rental_uris": {"android": "https://dc.lft.to/lastmile_qr_scan", "ios": "https://dc.lft.to/lastmile_qr_scan"}, "fusion_lat": 0.0, "is_reserved": 0, "bike_id": "35e10f53954f128c5eda72cd2fb63325", "name": "35e10f53954f128c5eda72cd2fb63325", "lon": -77.03344366666667}, {"lat": 38.92662516666667, "is_disabled": 0, "type": "electric_scooter", "fusion_lon": 0.0, "rental_uris": {"android": "https://dc.lft.to/lastmile_qr_scan", "ios": "https://dc.lft.to/lastmile_qr_scan"}, "fusion_lat": 0.0, "is_reserved": 0, "bike_id": "71a48990133beab6a4c3189010912d3c", "name": "71a48990133beab6a4c3189010912d3c", "lon": -77.02328933333334}, {"lat": 38.91269366666667, "is_disabled": 0, "type": "electric_scooter", "fusion_lon": 0.0, "rental_uris": {"android": "https://dc.lft.to/lastmile_qr_scan", "ios": "https://dc.lft.to/lastmile_qr_scan"}, "fusion_lat": 0.0, "is_reserved": 0, "bike_id": "092d54da29e965ba3b8187b3a5e4acc8", "name": "092d54da29e965ba3b8187b3a5e4acc8", "lon": -77.02804333333333}, {"lat": 38.9162355, "is_disabled": 0, "type": "electric_scooter", "fusion_lon": 0.0, "rental_uris": {"android": "https://dc.lft.to/lastmile_qr_scan", "ios": "https://dc.lft.to/lastmile_qr_scan"}, "fusion_lat": 0.0, "is_reserved": 0, "bike_id": "ac465ed380f12dd2bae5b6d3a250a99c", "name": "ac465ed380f12dd2bae5b6d3a250a99c", "lon": -77.04835566666667}, {"lat": 38.8985275, "is_disabled": 0, "type": "electric_scooter", "fusion_lon": 0.0, "rental_uris": {"android": "https://dc.lft.to/lastmile_qr_scan", "ios": "https://dc.lft.to/lastmile_qr_scan"}, "fusion_lat": 0.0, "is_reserved": 0, "bike_id": "8c6dc1e1e4135c2790333581e0cfb408", "name": "8c6dc1e1e4135c2790333581e0cfb408", "lon": -76.93059516666666}, {"lat": 38.89224, "is_disabled": 0, "type": "electric_scooter", "fusion_lon": 0.0, "rental_uris": {"android": "https://dc.lft.to/lastmile_qr_scan", "ios": "https://dc.lft.to/lastmile_qr_scan"}, "fusion_lat": 0.0, "is_reserved": 0, "bike_id": "4eff8a8d210667dcae2f62bcbfe270cd", "name": "4eff8a8d210667dcae2f62bcbfe270cd", "lon": -77.04653866666666}, {"lat": 38.89226516666667, "is_disabled": 0, "type": "electric_scooter", "fusion_lon": 0.0, "rental_uris": {"android": "https://dc.lft.to/lastmile_qr_scan", "ios": "https://dc.lft.to/lastmile_qr_scan"}, "fusion_lat": 0.0, "is_reserved": 0, "bike_id": "071d6d089734aa54cef4b05bf9bdc77e", "name": "071d6d089734aa54cef4b05bf9bdc77e", "lon": -77.0279825}, {"lat": 38.868808666666666, "is_disabled": 0, "type": "electric_scooter", "fusion_lon": 0.0, "rental_uris": {"android": "https://dc.lft.to/lastmile_qr_scan", "ios": "https://dc.lft.to/lastmile_qr_scan"}, "fusion_lat": 0.0, "is_reserved": 0, "bike_id": "be30d83a3b98aa0782d973d0dfd3c7ab", "name": "be30d83a3b98aa0782d973d0dfd3c7ab", "lon": -76.98232583333333}, {"lat": 38.8745235, "is_disabled": 0, "type": "electric_scooter", "fusion_lon": 0.0, "rental_uris": {"android": "https://dc.lft.to/lastmile_qr_scan", "ios": "https://dc.lft.to/lastmile_qr_scan"}, "fusion_lat": 0.0, "is_reserved": 0, "bike_id": "37f05eaa6ed5f427f58e191fea910a32", "name": "37f05eaa6ed5f427f58e191fea910a32", "lon": -77.00887383333334}, {"lat": 38.867037333333336, "is_disabled": 0, "type": "electric_scooter", "fusion_lon": 0.0, "rental_uris": {"android": "https://dc.lft.to/lastmile_qr_scan", "ios": "https://dc.lft.to/lastmile_qr_scan"}, "fusion_lat": 0.0, "is_reserved": 0, "bike_id": "6dc923d2e000359339f533e034359614", "name": "6dc923d2e000359339f533e034359614", "lon": -76.9871395}, {"lat": 38.924043166666664, "is_disabled": 0, "type": "electric_scooter", "fusion_lon": 0.0, "rental_uris": {"android": "https://dc.lft.to/lastmile_qr_scan", "ios": "https://dc.lft.to/lastmile_qr_scan"}, "fusion_lat": 0.0, "is_reserved": 0, "bike_id": "5547010341156ff3e7e258b0a7cba67e", "name": "5547010341156ff3e7e258b0a7cba67e", "lon": -77.03544883333333}, {"lat": 38.86689283333333, "is_disabled": 0, "type": "electric_scooter", "fusion_lon": 0.0, "rental_uris": {"android": "https://dc.lft.to/lastmile_qr_scan", "ios": "https://dc.lft.to/lastmile_qr_scan"}, "fusion_lat": 0.0, "is_reserved": 0, "bike_id": "264ea1e5098e711cf6f9924326a631fc", "name": "264ea1e5098e711cf6f9924326a631fc", "lon": -76.98595716666667}, {"lat": 38.910463166666666, "is_disabled": 0, "type": "electric_scooter", "fusion_lon": 0.0, "rental_uris": {"android": "https://dc.lft.to/lastmile_qr_scan", "ios": "https://dc.lft.to/lastmile_qr_scan"}, "fusion_lat": 0.0, "is_reserved": 0, "bike_id": "5219943dc2877cc939292411d5fed23f", "name": "5219943dc2877cc939292411d5fed23f", "lon": -77.04407483333334}, {"lat": 38.8883655, "is_disabled": 0, "type": "electric_scooter", "fusion_lon": 0.0, "rental_uris": {"android": "https://dc.lft.to/lastmile_qr_scan", "ios": "https://dc.lft.to/lastmile_qr_scan"}, "fusion_lat": 0.0, "is_reserved": 0, "bike_id": "65f58fd40e7650c0d8f7ff83e50ec58e", "name": "65f58fd40e7650c0d8f7ff83e50ec58e", "lon": -76.993644}, {"lat": 38.88608583333333, "is_disabled": 0, "type": "electric_scooter", "fusion_lon": 0.0, "rental_uris": {"android": "https://dc.lft.to/lastmile_qr_scan", "ios": "https://dc.lft.to/lastmile_qr_scan"}, "fusion_lat": 0.0, "is_reserved": 0, "bike_id": "9f7401084fe6e473473970d59cbc72ba", "name": "9f7401084fe6e473473970d59cbc72ba", "lon": -76.994818}, {"lat": 38.89738066666666, "is_disabled": 0, "type": "electric_scooter", "fusion_lon": 0.0, "rental_uris": {"android": "https://dc.lft.to/lastmile_qr_scan", "ios": "https://dc.lft.to/lastmile_qr_scan"}, "fusion_lat": 0.0, "is_reserved": 0, "bike_id": "2810fc5dda040603d1a340baf80089b6", "name": "2810fc5dda040603d1a340baf80089b6", "lon": -77.013157}, {"lat": 38.927499833333336, "is_disabled": 0, "type": "electric_scooter", "fusion_lon": 0.0, "rental_uris": {"android": "https://dc.lft.to/lastmile_qr_scan", "ios": "https://dc.lft.to/lastmile_qr_scan"}, "fusion_lat": 0.0, "is_reserved": 0, "bike_id": "e44764f82aa1709b3bc31d89940fd256", "name": "e44764f82aa1709b3bc31d89940fd256", "lon": -77.02533966666667}, {"lat": 38.9167275, "is_disabled": 0, "type": "electric_scooter", "fusion_lon": 0.0, "rental_uris": {"android": "https://dc.lft.to/lastmile_qr_scan", "ios": "https://dc.lft.to/lastmile_qr_scan"}, "fusion_lat": 0.0, "is_reserved": 0, "bike_id": "6362ba5fb6479dc95a2422a5fb48b054", "name": "6362ba5fb6479dc95a2422a5fb48b054", "lon": -77.02955066666667}, {"lat": 38.92224616666667, "is_disabled": 0, "type": "electric_scooter", "fusion_lon": 0.0, "rental_uris": {"android": "https://dc.lft.to/lastmile_qr_scan", "ios": "https://dc.lft.to/lastmile_qr_scan"}, "fusion_lat": 0.0, "is_reserved": 0, "bike_id": "7cbfaa39ddc5939ec3bdfe3fd0c67c5f", "name": "7cbfaa39ddc5939ec3bdfe3fd0c67c5f", "lon": -77.04247}, {"lat": 38.93054033333333, "is_disabled": 0, "type": "electric_scooter", "fusion_lon": 0.0, "rental_uris": {"android": "https://dc.lft.to/lastmile_qr_scan", "ios": "https://dc.lft.to/lastmile_qr_scan"}, "fusion_lat": 0.0, "is_reserved": 0, "bike_id": "b3e0e61be055126ab7c4e048385bc6b9", "name": "b3e0e61be055126ab7c4e048385bc6b9", "lon": -77.05860416666667}, {"lat": 38.96225483333333, "is_disabled": 0, "type": "electric_bike", "fusion_lon": 0.0, "rental_uris": {"android": "https://dc.lft.to/lastmile_qr_scan", "ios": "https://dc.lft.to/lastmile_qr_scan"}, "fusion_lat": 0.0, "is_reserved": 0, "bike_id": "78931d00c862b651b93aa83d0ddfeaad", "name": "78931d00c862b651b93aa83d0ddfeaad", "lon": -77.02629483333334}, {"lat": 38.86353733333333, "is_disabled": 0, "type": "electric_scooter", "fusion_lon": 0.0, "rental_uris": {"android": "https://dc.lft.to/lastmile_qr_scan", "ios": "https://dc.lft.to/lastmile_qr_scan"}, "fusion_lat": 0.0, "is_reserved": 0, "bike_id": "6be7384df0bfde4379a96c10f606db16", "name": "6be7384df0bfde4379a96c10f606db16", "lon": -76.9906535}, {"lat": 38.91348766666667, "is_disabled": 0, "type": "electric_scooter", "fusion_lon": 0.0, "rental_uris": {"android": "https://dc.lft.to/lastmile_qr_scan", "ios": "https://dc.lft.to/lastmile_qr_scan"}, "fusion_lat": 0.0, "is_reserved": 0, "bike_id": "5d5310adfae268fed58eb86586214eed", "name": "5d5310adfae268fed58eb86586214eed", "lon": -77.04161183333333}, {"lat": 38.92219566666667, "is_disabled": 0, "type": "electric_scooter", "fusion_lon": 0.0, "rental_uris": {"android": "https://dc.lft.to/lastmile_qr_scan", "ios": "https://dc.lft.to/lastmile_qr_scan"}, "fusion_lat": 0.0, "is_reserved": 0, "bike_id": "1ff1033b6e1ed4037e558cec44a6f90d", "name": "1ff1033b6e1ed4037e558cec44a6f90d", "lon": -77.04316466666667}, {"lat": 38.9064295, "is_disabled": 0, "type": "electric_scooter", "fusion_lon": 0.0, "rental_uris": {"android": "https://dc.lft.to/lastmile_qr_scan", "ios": "https://dc.lft.to/lastmile_qr_scan"}, "fusion_lat": 0.0, "is_reserved": 0, "bike_id": "46fab4755ada0ab91adb26a977bd80d5", "name": "46fab4755ada0ab91adb26a977bd80d5", "lon": -77.01139483333333}, {"lat": 38.85518233333333, "is_disabled": 0, "type": "electric_bike", "fusion_lon": 0.0, "rental_uris": {"android": "https://dc.lft.to/lastmile_qr_scan", "ios": "https://dc.lft.to/lastmile_qr_scan"}, "fusion_lat": 0.0, "is_reserved": 0, "bike_id": "569869408fe44b44d7594c16b35c400f", "name": "569869408fe44b44d7594c16b35c400f", "lon": -76.984372}, {"lat": 38.93034466666667, "is_disabled": 0, "type": "electric_scooter", "fusion_lon": 0.0, "rental_uris": {"android": "https://dc.lft.to/lastmile_qr_scan", "ios": "https://dc.lft.to/lastmile_qr_scan"}, "fusion_lat": 0.0, "is_reserved": 0, "bike_id": "2de4fd24f54aa072402c962c218f0c5c", "name": "2de4fd24f54aa072402c962c218f0c5c", "lon": -77.03641666666667}, {"lat": 38.87470716666667, "is_disabled": 0, "type": "electric_scooter", "fusion_lon": 0.0, "rental_uris": {"android": "https://dc.lft.to/lastmile_qr_scan", "ios": "https://dc.lft.to/lastmile_qr_scan"}, "fusion_lat": 0.0, "is_reserved": 0, "bike_id": "95103fe86adaf2890393586e7eb22d1a", "name": "95103fe86adaf2890393586e7eb22d1a", "lon": -77.00518516666666}, {"lat": 38.8934365, "is_disabled": 0, "type": "electric_scooter", "fusion_lon": 0.0, "rental_uris": {"android": "https://dc.lft.to/lastmile_qr_scan", "ios": "https://dc.lft.to/lastmile_qr_scan"}, "fusion_lat": 0.0, "is_reserved": 0, "bike_id": "2397c2616e8ae936eaf1ec9af730bd41", "name": "2397c2616e8ae936eaf1ec9af730bd41", "lon": -77.02166616666666}, {"lat": 38.871875833333334, "is_disabled": 0, "type": "electric_scooter", "fusion_lon": 0.0, "rental_uris": {"android": "https://dc.lft.to/lastmile_qr_scan", "ios": "https://dc.lft.to/lastmile_qr_scan"}, "fusion_lat": 0.0, "is_reserved": 0, "bike_id": "b4ccf2f4a8f8123e82f70166ad80c1db", "name": "b4ccf2f4a8f8123e82f70166ad80c1db", "lon": -77.006013}, {"lat": 38.9095525, "is_disabled": 0, "type": "electric_scooter", "fusion_lon": 0.0, "rental_uris": {"android": "https://dc.lft.to/lastmile_qr_scan", "ios": "https://dc.lft.to/lastmile_qr_scan"}, "fusion_lat": 0.0, "is_reserved": 0, "bike_id": "051d7d5c4353058ded807e225a27034d", "name": "051d7d5c4353058ded807e225a27034d", "lon": -77.02718066666667}, {"lat": 38.921769166666664, "is_disabled": 0, "type": "electric_scooter", "fusion_lon": 0.0, "rental_uris": {"android": "https://dc.lft.to/lastmile_qr_scan", "ios": "https://dc.lft.to/lastmile_qr_scan"}, "fusion_lat": 0.0, "is_reserved": 0, "bike_id": "1a0cc7f0ddbe5db3ebdf9abb9a4964cf", "name": "1a0cc7f0ddbe5db3ebdf9abb9a4964cf", "lon": -77.0422535}, {"lat": 38.9126065, "is_disabled": 0, "type": "electric_scooter", "fusion_lon": 0.0, "rental_uris": {"android": "https://dc.lft.to/lastmile_qr_scan", "ios": "https://dc.lft.to/lastmile_qr_scan"}, "fusion_lat": 0.0, "is_reserved": 0, "bike_id": "f05848d94fa15a9e19bc131809a6ecfe", "name": "f05848d94fa15a9e19bc131809a6ecfe", "lon": -77.04472833333334}, {"lat": 38.937685, "is_disabled": 0, "type": "electric_scooter", "fusion_lon": 0.0, "rental_uris": {"android": "https://dc.lft.to/lastmile_qr_scan", "ios": "https://dc.lft.to/lastmile_qr_scan"}, "fusion_lat": 0.0, "is_reserved": 0, "bike_id": "44d533343ce53f1eaaf83c7a3731926c", "name": "44d533343ce53f1eaaf83c7a3731926c", "lon": -77.02270483333334}, {"lat": 38.9236185, "is_disabled": 0, "type": "electric_scooter", "fusion_lon": 0.0, "rental_uris": {"android": "https://dc.lft.to/lastmile_qr_scan", "ios": "https://dc.lft.to/lastmile_qr_scan"}, "fusion_lat": 0.0, "is_reserved": 0, "bike_id": "c80c62bc858aabe3943691f4fb964edd", "name": "c80c62bc858aabe3943691f4fb964edd", "lon": -77.05044416666667}, {"lat": 38.906141, "is_disabled": 0, "type": "electric_scooter", "fusion_lon": 0.0, "rental_uris": {"android": "https://dc.lft.to/lastmile_qr_scan", "ios": "https://dc.lft.to/lastmile_qr_scan"}, "fusion_lat": 0.0, "is_reserved": 0, "bike_id": "e7dd0ff3b5d4efc5103a98e5839d721e", "name": "e7dd0ff3b5d4efc5103a98e5839d721e", "lon": -77.02128516666667}, {"lat": 38.909566166666664, "is_disabled": 0, "type": "electric_scooter", "fusion_lon": 0.0, "rental_uris": {"android": "https://dc.lft.to/lastmile_qr_scan", "ios": "https://dc.lft.to/lastmile_qr_scan"}, "fusion_lat": 0.0, "is_reserved": 0, "bike_id": "1c4c26888c79ec1b5cbc247b4a640ccd", "name": "1c4c26888c79ec1b5cbc247b4a640ccd", "lon": -77.048587}, {"lat": 38.928031, "is_disabled": 0, "type": "electric_scooter", "fusion_lon": 0.0, "rental_uris": {"android": "https://dc.lft.to/lastmile_qr_scan", "ios": "https://dc.lft.to/lastmile_qr_scan"}, "fusion_lat": 0.0, "is_reserved": 0, "bike_id": "c06241c927497ed92da560e0f069d749", "name": "c06241c927497ed92da560e0f069d749", "lon": -77.04360666666666}, {"lat": 38.9182725, "is_disabled": 0, "type": "electric_scooter", "fusion_lon": 0.0, "rental_uris": {"android": "https://dc.lft.to/lastmile_qr_scan", "ios": "https://dc.lft.to/lastmile_qr_scan"}, "fusion_lat": 0.0, "is_reserved": 0, "bike_id": "c26b0188575d10f257637d42e5827a97", "name": "c26b0188575d10f257637d42e5827a97", "lon": -77.03946983333333}, {"lat": 38.892298333333336, "is_disabled": 0, "type": "electric_scooter", "fusion_lon": 0.0, "rental_uris": {"android": "https://dc.lft.to/lastmile_qr_scan", "ios": "https://dc.lft.to/lastmile_qr_scan"}, "fusion_lat": 0.0, "is_reserved": 0, "bike_id": "99a304fa95d65871a33d715b11d84265", "name": "99a304fa95d65871a33d715b11d84265", "lon": -77.04371333333333}, {"lat": 38.919046333333334, "is_disabled": 0, "type": "electric_scooter", "fusion_lon": 0.0, "rental_uris": {"android": "https://dc.lft.to/lastmile_qr_scan", "ios": "https://dc.lft.to/lastmile_qr_scan"}, "fusion_lat": 0.0, "is_reserved": 0, "bike_id": "7c1a7905a4e464951f1ecd62d6f4dd23", "name": "7c1a7905a4e464951f1ecd62d6f4dd23", "lon": -77.03158316666666}, {"lat": 38.8278895, "is_disabled": 0, "type": "electric_bike", "fusion_lon": 0.0, "rental_uris": {"android": "https://dc.lft.to/lastmile_qr_scan", "ios": "https://dc.lft.to/lastmile_qr_scan"}, "fusion_lat": 0.0, "is_reserved": 0, "bike_id": "74901f634f8a7f95ae1a06d337a201c2", "name": "74901f634f8a7f95ae1a06d337a201c2", "lon": -77.00922066666666}, {"lat": 38.915237166666664, "is_disabled": 0, "type": "electric_scooter", "fusion_lon": 0.0, "rental_uris": {"android": "https://dc.lft.to/lastmile_qr_scan", "ios": "https://dc.lft.to/lastmile_qr_scan"}, "fusion_lat": 0.0, "is_reserved": 0, "bike_id": "cc97c94e286cad2f479bb1de681da7bf", "name": "cc97c94e286cad2f479bb1de681da7bf", "lon": -77.01328933333333}, {"lat": 38.939814166666665, "is_disabled": 0, "type": "electric_scooter", "fusion_lon": 0.0, "rental_uris": {"android": "https://dc.lft.to/lastmile_qr_scan", "ios": "https://dc.lft.to/lastmile_qr_scan"}, "fusion_lat": 0.0, "is_reserved": 0, "bike_id": "f5e84608c014fa87e74d6cf89a8f8f72", "name": "f5e84608c014fa87e74d6cf89a8f8f72", "lon": -77.032654}, {"lat": 38.898757833333335, "is_disabled": 0, "type": "electric_scooter", "fusion_lon": 0.0, "rental_uris": {"android": "https://dc.lft.to/lastmile_qr_scan", "ios": "https://dc.lft.to/lastmile_qr_scan"}, "fusion_lat": 0.0, "is_reserved": 0, "bike_id": "a2482db47a2902e9a9e6e56481461ff7", "name": "a2482db47a2902e9a9e6e56481461ff7", "lon": -77.02184916666667}, {"lat": 38.956254, "is_disabled": 0, "type": "electric_scooter", "fusion_lon": 0.0, "rental_uris": {"android": "https://dc.lft.to/lastmile_qr_scan", "ios": "https://dc.lft.to/lastmile_qr_scan"}, "fusion_lat": 0.0, "is_reserved": 0, "bike_id": "3f704b71b86c3476a4649e31af0af0db", "name": "3f704b71b86c3476a4649e31af0af0db", "lon": -77.03300933333334}, {"lat": 38.918241333333334, "is_disabled": 0, "type": "electric_scooter", "fusion_lon": 0.0, "rental_uris": {"android": "https://dc.lft.to/lastmile_qr_scan", "ios": "https://dc.lft.to/lastmile_qr_scan"}, "fusion_lat": 0.0, "is_reserved": 0, "bike_id": "b3ad7e1bd865e61e42e1f5cb8e84f37a", "name": "b3ad7e1bd865e61e42e1f5cb8e84f37a", "lon": -77.02531933333333}, {"lat": 38.91916233333333, "is_disabled": 0, "type": "electric_scooter", "fusion_lon": 0.0, "rental_uris": {"android": "https://dc.lft.to/lastmile_qr_scan", "ios": "https://dc.lft.to/lastmile_qr_scan"}, "fusion_lat": 0.0, "is_reserved": 0, "bike_id": "5ead11f23b1bf1a01e2c71071854729b", "name": "5ead11f23b1bf1a01e2c71071854729b", "lon": -77.034399}, {"lat": 38.874591, "is_disabled": 0, "type": "electric_scooter", "fusion_lon": 0.0, "rental_uris": {"android": "https://dc.lft.to/lastmile_qr_scan", "ios": "https://dc.lft.to/lastmile_qr_scan"}, "fusion_lat": 0.0, "is_reserved": 0, "bike_id": "d54caf485b85debbe920443ca18a0358", "name": "d54caf485b85debbe920443ca18a0358", "lon": -77.00541716666666}, {"lat": 38.8929775, "is_disabled": 0, "type": "electric_scooter", "fusion_lon": 0.0, "rental_uris": {"android": "https://dc.lft.to/lastmile_qr_scan", "ios": "https://dc.lft.to/lastmile_qr_scan"}, "fusion_lat": 0.0, "is_reserved": 0, "bike_id": "68d7909e2ed826bc51c1bbc51d761c8f", "name": "68d7909e2ed826bc51c1bbc51d761c8f", "lon": -77.01230066666666}, {"lat": 38.9155495, "is_disabled": 0, "type": "electric_scooter", "fusion_lon": 0.0, "rental_uris": {"android": "https://dc.lft.to/lastmile_qr_scan", "ios": "https://dc.lft.to/lastmile_qr_scan"}, "fusion_lat": 0.0, "is_reserved": 0, "bike_id": "3dba8533194f9aa2ea07445aad422ab1", "name": "3dba8533194f9aa2ea07445aad422ab1", "lon": -77.007078}, {"lat": 38.863762333333334, "is_disabled": 0, "type": "electric_scooter", "fusion_lon": 0.0, "rental_uris": {"android": "https://dc.lft.to/lastmile_qr_scan", "ios": "https://dc.lft.to/lastmile_qr_scan"}, "fusion_lat": 0.0, "is_reserved": 0, "bike_id": "2106dfaab44e7dc8d0004279e3b1b142", "name": "2106dfaab44e7dc8d0004279e3b1b142", "lon": -76.99059316666667}, {"lat": 38.89608366666667, "is_disabled": 0, "type": "electric_scooter", "fusion_lon": 0.0, "rental_uris": {"android": "https://dc.lft.to/lastmile_qr_scan", "ios": "https://dc.lft.to/lastmile_qr_scan"}, "fusion_lat": 0.0, "is_reserved": 0, "bike_id": "92d6d100beb01e641881e5dde67fd51a", "name": "92d6d100beb01e641881e5dde67fd51a", "lon": -77.0455675}, {"lat": 38.88709866666667, "is_disabled": 0, "type": "electric_scooter", "fusion_lon": 0.0, "rental_uris": {"android": "https://dc.lft.to/lastmile_qr_scan", "ios": "https://dc.lft.to/lastmile_qr_scan"}, "fusion_lat": 0.0, "is_reserved": 0, "bike_id": "2e2c4189f4b66dc70062aaedc54a5e35", "name": "2e2c4189f4b66dc70062aaedc54a5e35", "lon": -77.01367716666667}, {"lat": 38.866558833333336, "is_disabled": 0, "type": "electric_scooter", "fusion_lon": 0.0, "rental_uris": {"android": "https://dc.lft.to/lastmile_qr_scan", "ios": "https://dc.lft.to/lastmile_qr_scan"}, "fusion_lat": 0.0, "is_reserved": 0, "bike_id": "aa95b0fa1061cdd8463d91b5c4f311c1", "name": "aa95b0fa1061cdd8463d91b5c4f311c1", "lon": -76.9854265}, {"lat": 38.910526833333336, "is_disabled": 0, "type": "electric_scooter", "fusion_lon": 0.0, "rental_uris": {"android": "https://dc.lft.to/lastmile_qr_scan", "ios": "https://dc.lft.to/lastmile_qr_scan"}, "fusion_lat": 0.0, "is_reserved": 0, "bike_id": "9322745cfe5c84312aa34bdedee30a68", "name": "9322745cfe5c84312aa34bdedee30a68", "lon": -77.04378083333333}, {"lat": 38.923413833333335, "is_disabled": 0, "type": "electric_scooter", "fusion_lon": 0.0, "rental_uris": {"android": "https://dc.lft.to/lastmile_qr_scan", "ios": "https://dc.lft.to/lastmile_qr_scan"}, "fusion_lat": 0.0, "is_reserved": 0, "bike_id": "83404dd38e5afd6f391e0db0f0a8bdcd", "name": "83404dd38e5afd6f391e0db0f0a8bdcd", "lon": -77.024311}, {"lat": 38.90132066666666, "is_disabled": 0, "type": "electric_scooter", "fusion_lon": 0.0, "rental_uris": {"android": "https://dc.lft.to/lastmile_qr_scan", "ios": "https://dc.lft.to/lastmile_qr_scan"}, "fusion_lat": 0.0, "is_reserved": 0, "bike_id": "429d7c5a5f12162a309e09cd5f1ed971", "name": "429d7c5a5f12162a309e09cd5f1ed971", "lon": -77.04328533333333}, {"lat": 38.884946666666664, "is_disabled": 0, "type": "electric_scooter", "fusion_lon": 0.0, "rental_uris": {"android": "https://dc.lft.to/lastmile_qr_scan", "ios": "https://dc.lft.to/lastmile_qr_scan"}, "fusion_lat": 0.0, "is_reserved": 0, "bike_id": "aa6a0f695ec6fd1794be3e79d1bd66d3", "name": "aa6a0f695ec6fd1794be3e79d1bd66d3", "lon": -77.00729683333333}, {"lat": 38.944500166666664, "is_disabled": 0, "type": "electric_scooter", "fusion_lon": 0.0, "rental_uris": {"android": "https://dc.lft.to/lastmile_qr_scan", "ios": "https://dc.lft.to/lastmile_qr_scan"}, "fusion_lat": 0.0, "is_reserved": 0, "bike_id": "028b211f4146961f9e3e5a1624ed7df2", "name": "028b211f4146961f9e3e5a1624ed7df2", "lon": -77.06025316666667}, {"lat": 38.95263516666667, "is_disabled": 0, "type": "electric_scooter", "fusion_lon": 0.0, "rental_uris": {"android": "https://dc.lft.to/lastmile_qr_scan", "ios": "https://dc.lft.to/lastmile_qr_scan"}, "fusion_lat": 0.0, "is_reserved": 0, "bike_id": "d9d0a5ffb9b079d5f042aefb1a86eb8a", "name": "d9d0a5ffb9b079d5f042aefb1a86eb8a", "lon": -77.02566133333333}, {"lat": 38.892257, "is_disabled": 0, "type": "electric_scooter", "fusion_lon": 0.0, "rental_uris": {"android": "https://dc.lft.to/lastmile_qr_scan", "ios": "https://dc.lft.to/lastmile_qr_scan"}, "fusion_lat": 0.0, "is_reserved": 0, "bike_id": "5af9e2af224bb012b569711a8f4252fc", "name": "5af9e2af224bb012b569711a8f4252fc", "lon": -77.03215016666667}, {"lat": 38.923835833333335, "is_disabled": 0, "type": "electric_scooter", "fusion_lon": 0.0, "rental_uris": {"android": "https://dc.lft.to/lastmile_qr_scan", "ios": "https://dc.lft.to/lastmile_qr_scan"}, "fusion_lat": 0.0, "is_reserved": 0, "bike_id": "e7c7ba315a07eceb0195eef239a8363d", "name": "e7c7ba315a07eceb0195eef239a8363d", "lon": -77.02746983333333}, {"lat": 38.90884, "is_disabled": 0, "type": "electric_scooter", "fusion_lon": 0.0, "rental_uris": {"android": "https://dc.lft.to/lastmile_qr_scan", "ios": "https://dc.lft.to/lastmile_qr_scan"}, "fusion_lat": 0.0, "is_reserved": 0, "bike_id": "6f82b9e54681a3035cbf62cd05a5cd60", "name": "6f82b9e54681a3035cbf62cd05a5cd60", "lon": -77.0218005}, {"lat": 38.90070866666667, "is_disabled": 0, "type": "electric_scooter", "fusion_lon": 0.0, "rental_uris": {"android": "https://dc.lft.to/lastmile_qr_scan", "ios": "https://dc.lft.to/lastmile_qr_scan"}, "fusion_lat": 0.0, "is_reserved": 0, "bike_id": "17bd2bd57bc9c5c90a98491fc544e997", "name": "17bd2bd57bc9c5c90a98491fc544e997", "lon": -77.04351583333333}, {"lat": 38.8942915, "is_disabled": 0, "type": "electric_scooter", "fusion_lon": 0.0, "rental_uris": {"android": "https://dc.lft.to/lastmile_qr_scan", "ios": "https://dc.lft.to/lastmile_qr_scan"}, "fusion_lat": 0.0, "is_reserved": 0, "bike_id": "4b77f83867302092b15d50c7b966b096", "name": "4b77f83867302092b15d50c7b966b096", "lon": -76.94878433333334}, {"lat": 38.92720666666666, "is_disabled": 0, "type": "electric_bike", "fusion_lon": 0.0, "rental_uris": {"android": "https://dc.lft.to/lastmile_qr_scan", "ios": "https://dc.lft.to/lastmile_qr_scan"}, "fusion_lat": 0.0, "is_reserved": 0, "bike_id": "502459d5dd2c0629416d9add9df3fca2", "name": "502459d5dd2c0629416d9add9df3fca2", "lon": -77.073324}, {"lat": 38.886110333333335, "is_disabled": 0, "type": "electric_scooter", "fusion_lon": 0.0, "rental_uris": {"android": "https://dc.lft.to/lastmile_qr_scan", "ios": "https://dc.lft.to/lastmile_qr_scan"}, "fusion_lat": 0.0, "is_reserved": 0, "bike_id": "94f06225d80032e0d8f52d16fbd5a3b2", "name": "94f06225d80032e0d8f52d16fbd5a3b2", "lon": -76.95588816666667}, {"lat": 38.91566, "is_disabled": 0, "type": "electric_scooter", "fusion_lon": 0.0, "rental_uris": {"android": "https://dc.lft.to/lastmile_qr_scan", "ios": "https://dc.lft.to/lastmile_qr_scan"}, "fusion_lat": 0.0, "is_reserved": 0, "bike_id": "1b4056cf2c5dd9179606066f6af6b4cb", "name": "1b4056cf2c5dd9179606066f6af6b4cb", "lon": -77.03191333333334}, {"lat": 38.916956, "is_disabled": 0, "type": "electric_scooter", "fusion_lon": 0.0, "rental_uris": {"android": "https://dc.lft.to/lastmile_qr_scan", "ios": "https://dc.lft.to/lastmile_qr_scan"}, "fusion_lat": 0.0, "is_reserved": 0, "bike_id": "fb30348b58519606d92248b37f6f78e4", "name": "fb30348b58519606d92248b37f6f78e4", "lon": -77.03764466666667}, {"lat": 38.916969, "is_disabled": 0, "type": "electric_scooter", "fusion_lon": 0.0, "rental_uris": {"android": "https://dc.lft.to/lastmile_qr_scan", "ios": "https://dc.lft.to/lastmile_qr_scan"}, "fusion_lat": 0.0, "is_reserved": 0, "bike_id": "20980eaeefacdb3303755015a2cf0771", "name": "20980eaeefacdb3303755015a2cf0771", "lon": -77.03496816666667}, {"lat": 38.88549316666667, "is_disabled": 0, "type": "electric_scooter", "fusion_lon": 0.0, "rental_uris": {"android": "https://dc.lft.to/lastmile_qr_scan", "ios": "https://dc.lft.to/lastmile_qr_scan"}, "fusion_lat": 0.0, "is_reserved": 0, "bike_id": "fb097821f8582d06cdca2872d3426220", "name": "fb097821f8582d06cdca2872d3426220", "lon": -76.9978285}, {"lat": 38.89367683333333, "is_disabled": 0, "type": "electric_scooter", "fusion_lon": 0.0, "rental_uris": {"android": "https://dc.lft.to/lastmile_qr_scan", "ios": "https://dc.lft.to/lastmile_qr_scan"}, "fusion_lat": 0.0, "is_reserved": 0, "bike_id": "05bac98f64f9510ca52236aff8a19818", "name": "05bac98f64f9510ca52236aff8a19818", "lon": -77.054954}, {"lat": 38.89345016666667, "is_disabled": 0, "type": "electric_scooter", "fusion_lon": 0.0, "rental_uris": {"android": "https://dc.lft.to/lastmile_qr_scan", "ios": "https://dc.lft.to/lastmile_qr_scan"}, "fusion_lat": 0.0, "is_reserved": 0, "bike_id": "f8263b6ca74202d0cb7bf19ea86acba5", "name": "f8263b6ca74202d0cb7bf19ea86acba5", "lon": -77.02165566666666}, {"lat": 38.8922075, "is_disabled": 0, "type": "electric_scooter", "fusion_lon": 0.0, "rental_uris": {"android": "https://dc.lft.to/lastmile_qr_scan", "ios": "https://dc.lft.to/lastmile_qr_scan"}, "fusion_lat": 0.0, "is_reserved": 0, "bike_id": "690c38539d1f7252b677827eb7c2c4da", "name": "690c38539d1f7252b677827eb7c2c4da", "lon": -77.02631733333334}, {"lat": 38.90508616666666, "is_disabled": 0, "type": "electric_scooter", "fusion_lon": 0.0, "rental_uris": {"android": "https://dc.lft.to/lastmile_qr_scan", "ios": "https://dc.lft.to/lastmile_qr_scan"}, "fusion_lat": 0.0, "is_reserved": 0, "bike_id": "d640f209c26a716cc9de32e7fc1f40b4", "name": "d640f209c26a716cc9de32e7fc1f40b4", "lon": -77.06128}, {"lat": 38.921007833333334, "is_disabled": 0, "type": "electric_scooter", "fusion_lon": 0.0, "rental_uris": {"android": "https://dc.lft.to/lastmile_qr_scan", "ios": "https://dc.lft.to/lastmile_qr_scan"}, "fusion_lat": 0.0, "is_reserved": 0, "bike_id": "9ddcf867380f23b819ff281d62e61ec5", "name": "9ddcf867380f23b819ff281d62e61ec5", "lon": -77.04385216666667}, {"lat": 38.917282666666665, "is_disabled": 0, "type": "electric_scooter", "fusion_lon": 0.0, "rental_uris": {"android": "https://dc.lft.to/lastmile_qr_scan", "ios": "https://dc.lft.to/lastmile_qr_scan"}, "fusion_lat": 0.0, "is_reserved": 0, "bike_id": "28bd5052c667dd32698a88c1c5b21366", "name": "28bd5052c667dd32698a88c1c5b21366", "lon": -77.02380783333334}, {"lat": 38.86267383333333, "is_disabled": 0, "type": "electric_bike", "fusion_lon": 0.0, "rental_uris": {"android": "https://dc.lft.to/lastmile_qr_scan", "ios": "https://dc.lft.to/lastmile_qr_scan"}, "fusion_lat": 0.0, "is_reserved": 0, "bike_id": "a5416e13742f26d1d133d8c1aa6c01f1", "name": "a5416e13742f26d1d133d8c1aa6c01f1", "lon": -76.9835385}, {"lat": 38.91986416666667, "is_disabled": 0, "type": "electric_scooter", "fusion_lon": 0.0, "rental_uris": {"android": "https://dc.lft.to/lastmile_qr_scan", "ios": "https://dc.lft.to/lastmile_qr_scan"}, "fusion_lat": 0.0, "is_reserved": 0, "bike_id": "8e3ad737c1006b35565a6f359f02dba3", "name": "8e3ad737c1006b35565a6f359f02dba3", "lon": -77.04180666666667}, {"lat": 38.929038, "is_disabled": 0, "type": "electric_scooter", "fusion_lon": 0.0, "rental_uris": {"android": "https://dc.lft.to/lastmile_qr_scan", "ios": "https://dc.lft.to/lastmile_qr_scan"}, "fusion_lat": 0.0, "is_reserved": 0, "bike_id": "fb8bbba3800309ec1c5b45cde8c2ab4f", "name": "fb8bbba3800309ec1c5b45cde8c2ab4f", "lon": -77.00419733333334}, {"lat": 38.9215255, "is_disabled": 0, "type": "electric_scooter", "fusion_lon": 0.0, "rental_uris": {"android": "https://dc.lft.to/lastmile_qr_scan", "ios": "https://dc.lft.to/lastmile_qr_scan"}, "fusion_lat": 0.0, "is_reserved": 0, "bike_id": "5376e75c6adeb319fc39743e841ec4e4", "name": "5376e75c6adeb319fc39743e841ec4e4", "lon": -77.03880016666666}, {"lat": 38.90268316666667, "is_disabled": 0, "type": "electric_scooter", "fusion_lon": 0.0, "rental_uris": {"android": "https://dc.lft.to/lastmile_qr_scan", "ios": "https://dc.lft.to/lastmile_qr_scan"}, "fusion_lat": 0.0, "is_reserved": 0, "bike_id": "0e6d2c1aa7e713d6d92b4f979ff51fa2", "name": "0e6d2c1aa7e713d6d92b4f979ff51fa2", "lon": -77.00333983333333}, {"lat": 38.89726183333333, "is_disabled": 0, "type": "electric_scooter", "fusion_lon": 0.0, "rental_uris": {"android": "https://dc.lft.to/lastmile_qr_scan", "ios": "https://dc.lft.to/lastmile_qr_scan"}, "fusion_lat": 0.0, "is_reserved": 0, "bike_id": "9838957e15581f9cf0451c656c9eafb3", "name": "9838957e15581f9cf0451c656c9eafb3", "lon": -77.0430465}, {"lat": 38.939918666666664, "is_disabled": 0, "type": "electric_scooter", "fusion_lon": 0.0, "rental_uris": {"android": "https://dc.lft.to/lastmile_qr_scan", "ios": "https://dc.lft.to/lastmile_qr_scan"}, "fusion_lat": 0.0, "is_reserved": 0, "bike_id": "5c917f240a951a5325d6aaed787cc909", "name": "5c917f240a951a5325d6aaed787cc909", "lon": -77.02753016666666}, {"lat": 38.899140833333334, "is_disabled": 0, "type": "electric_scooter", "fusion_lon": 0.0, "rental_uris": {"android": "https://dc.lft.to/lastmile_qr_scan", "ios": "https://dc.lft.to/lastmile_qr_scan"}, "fusion_lat": 0.0, "is_reserved": 0, "bike_id": "a94fa1e5dd1883bcf94df052b198fc7e", "name": "a94fa1e5dd1883bcf94df052b198fc7e", "lon": -76.9336345}, {"lat": 38.92862683333333, "is_disabled": 0, "type": "electric_scooter", "fusion_lon": 0.0, "rental_uris": {"android": "https://dc.lft.to/lastmile_qr_scan", "ios": "https://dc.lft.to/lastmile_qr_scan"}, "fusion_lat": 0.0, "is_reserved": 0, "bike_id": "f939a49652ede2b33fa43a128e7643f3", "name": "f939a49652ede2b33fa43a128e7643f3", "lon": -77.03223066666666}, {"lat": 38.896118333333334, "is_disabled": 0, "type": "electric_scooter", "fusion_lon": 0.0, "rental_uris": {"android": "https://dc.lft.to/lastmile_qr_scan", "ios": "https://dc.lft.to/lastmile_qr_scan"}, "fusion_lat": 0.0, "is_reserved": 0, "bike_id": "ddc951d3ff92df2b096d4fb72bd034c7", "name": "ddc951d3ff92df2b096d4fb72bd034c7", "lon": -77.04468366666667}, {"lat": 38.90481116666667, "is_disabled": 0, "type": "electric_scooter", "fusion_lon": 0.0, "rental_uris": {"android": "https://dc.lft.to/lastmile_qr_scan", "ios": "https://dc.lft.to/lastmile_qr_scan"}, "fusion_lat": 0.0, "is_reserved": 0, "bike_id": "50d97129bde7a4b15f3302d724c8de0c", "name": "50d97129bde7a4b15f3302d724c8de0c", "lon": -77.03555116666666}, {"lat": 38.91405233333333, "is_disabled": 0, "type": "electric_scooter", "fusion_lon": 0.0, "rental_uris": {"android": "https://dc.lft.to/lastmile_qr_scan", "ios": "https://dc.lft.to/lastmile_qr_scan"}, "fusion_lat": 0.0, "is_reserved": 0, "bike_id": "d5800678c0ee15f66aa8e296b464a71f", "name": "d5800678c0ee15f66aa8e296b464a71f", "lon": -77.02021383333333}, {"lat": 38.863236666666666, "is_disabled": 0, "type": "electric_bike", "fusion_lon": 0.0, "rental_uris": {"android": "https://dc.lft.to/lastmile_qr_scan", "ios": "https://dc.lft.to/lastmile_qr_scan"}, "fusion_lat": 0.0, "is_reserved": 0, "bike_id": "c0516045eac0f3d9707b24d3783ea44a", "name": "c0516045eac0f3d9707b24d3783ea44a", "lon": -77.06339283333334}, {"lat": 38.885520166666666, "is_disabled": 0, "type": "electric_bike", "fusion_lon": 0.0, "rental_uris": {"android": "https://dc.lft.to/lastmile_qr_scan", "ios": "https://dc.lft.to/lastmile_qr_scan"}, "fusion_lat": 0.0, "is_reserved": 0, "bike_id": "74dfe6ee2d7b9c813e0507d50b9ad493", "name": "74dfe6ee2d7b9c813e0507d50b9ad493", "lon": -77.1033985}, {"lat": 38.90459366666666, "is_disabled": 0, "type": "electric_scooter", "fusion_lon": 0.0, "rental_uris": {"android": "https://dc.lft.to/lastmile_qr_scan", "ios": "https://dc.lft.to/lastmile_qr_scan"}, "fusion_lat": 0.0, "is_reserved": 0, "bike_id": "d10443809e3e94b4d8fc95de5c65d300", "name": "d10443809e3e94b4d8fc95de5c65d300", "lon": -77.06015133333334}, {"lat": 38.928954, "is_disabled": 0, "type": "electric_scooter", "fusion_lon": 0.0, "rental_uris": {"android": "https://dc.lft.to/lastmile_qr_scan", "ios": "https://dc.lft.to/lastmile_qr_scan"}, "fusion_lat": 0.0, "is_reserved": 0, "bike_id": "ad29286140dbcdd3c7f6cdb2bd7d6ea9", "name": "ad29286140dbcdd3c7f6cdb2bd7d6ea9", "lon": -77.03274066666667}, {"lat": 38.975097833333336, "is_disabled": 0, "type": "electric_scooter", "fusion_lon": 0.0, "rental_uris": {"android": "https://dc.lft.to/lastmile_qr_scan", "ios": "https://dc.lft.to/lastmile_qr_scan"}, "fusion_lat": 0.0, "is_reserved": 0, "bike_id": "1822d7381f727a01ed42e254c6d05213", "name": "1822d7381f727a01ed42e254c6d05213", "lon": -77.01679016666667}, {"lat": 38.866634166666664, "is_disabled": 0, "type": "electric_scooter", "fusion_lon": 0.0, "rental_uris": {"android": "https://dc.lft.to/lastmile_qr_scan", "ios": "https://dc.lft.to/lastmile_qr_scan"}, "fusion_lat": 0.0, "is_reserved": 0, "bike_id": "8004eb20419c8e3b52bc6ed6e90ed4df", "name": "8004eb20419c8e3b52bc6ed6e90ed4df", "lon": -76.985018}, {"lat": 38.898045, "is_disabled": 0, "type": "electric_scooter", "fusion_lon": 0.0, "rental_uris": {"android": "https://dc.lft.to/lastmile_qr_scan", "ios": "https://dc.lft.to/lastmile_qr_scan"}, "fusion_lat": 0.0, "is_reserved": 0, "bike_id": "d28caada775257b2add78d9a707cd51a", "name": "d28caada775257b2add78d9a707cd51a", "lon": -76.99166866666667}, {"lat": 38.89223533333333, "is_disabled": 0, "type": "electric_scooter", "fusion_lon": 0.0, "rental_uris": {"android": "https://dc.lft.to/lastmile_qr_scan", "ios": "https://dc.lft.to/lastmile_qr_scan"}, "fusion_lat": 0.0, "is_reserved": 0, "bike_id": "8dd325ee38e1468b7ed862eff3d4e4f2", "name": "8dd325ee38e1468b7ed862eff3d4e4f2", "lon": -77.03223083333333}, {"lat": 38.91703066666667, "is_disabled": 0, "type": "electric_scooter", "fusion_lon": 0.0, "rental_uris": {"android": "https://dc.lft.to/lastmile_qr_scan", "ios": "https://dc.lft.to/lastmile_qr_scan"}, "fusion_lat": 0.0, "is_reserved": 0, "bike_id": "6f81c29e9cdd3ea89f2699931067f402", "name": "6f81c29e9cdd3ea89f2699931067f402", "lon": -77.0307185}, {"lat": 38.86526416666667, "is_disabled": 0, "type": "electric_bike", "fusion_lon": 0.0, "rental_uris": {"android": "https://dc.lft.to/lastmile_qr_scan", "ios": "https://dc.lft.to/lastmile_qr_scan"}, "fusion_lat": 0.0, "is_reserved": 0, "bike_id": "f72e65dd3bd63f4bbdb169565f66c33e", "name": "f72e65dd3bd63f4bbdb169565f66c33e", "lon": -76.97342633333334}, {"lat": 38.892221666666664, "is_disabled": 0, "type": "electric_scooter", "fusion_lon": 0.0, "rental_uris": {"android": "https://dc.lft.to/lastmile_qr_scan", "ios": "https://dc.lft.to/lastmile_qr_scan"}, "fusion_lat": 0.0, "is_reserved": 0, "bike_id": "4ceaeae813a91a0c973e72c32df94011", "name": "4ceaeae813a91a0c973e72c32df94011", "lon": -77.03163}, {"lat": 38.8973885, "is_disabled": 0, "type": "electric_scooter", "fusion_lon": 0.0, "rental_uris": {"android": "https://dc.lft.to/lastmile_qr_scan", "ios": "https://dc.lft.to/lastmile_qr_scan"}, "fusion_lat": 0.0, "is_reserved": 0, "bike_id": "05b2c7c01f023cfe88ca60fb9cc3d0d3", "name": "05b2c7c01f023cfe88ca60fb9cc3d0d3", "lon": -76.98978}, {"lat": 38.949891, "is_disabled": 0, "type": "electric_scooter", "fusion_lon": 0.0, "rental_uris": {"android": "https://dc.lft.to/lastmile_qr_scan", "ios": "https://dc.lft.to/lastmile_qr_scan"}, "fusion_lat": 0.0, "is_reserved": 0, "bike_id": "6db7446057c2a965b6b589f09374d47d", "name": "6db7446057c2a965b6b589f09374d47d", "lon": -77.02700016666667}, {"lat": 38.906447666666665, "is_disabled": 0, "type": "electric_scooter", "fusion_lon": 0.0, "rental_uris": {"android": "https://dc.lft.to/lastmile_qr_scan", "ios": "https://dc.lft.to/lastmile_qr_scan"}, "fusion_lat": 0.0, "is_reserved": 0, "bike_id": "b289cb6353320bc1c24449d94cee25db", "name": "b289cb6353320bc1c24449d94cee25db", "lon": -77.0101805}, {"lat": 38.9025305, "is_disabled": 0, "type": "electric_scooter", "fusion_lon": 0.0, "rental_uris": {"android": "https://dc.lft.to/lastmile_qr_scan", "ios": "https://dc.lft.to/lastmile_qr_scan"}, "fusion_lat": 0.0, "is_reserved": 0, "bike_id": "aaf20520077385a3152fd5831ec4f106", "name": "aaf20520077385a3152fd5831ec4f106", "lon": -76.974119}, {"lat": 38.92586083333333, "is_disabled": 0, "type": "electric_scooter", "fusion_lon": 0.0, "rental_uris": {"android": "https://dc.lft.to/lastmile_qr_scan", "ios": "https://dc.lft.to/lastmile_qr_scan"}, "fusion_lat": 0.0, "is_reserved": 0, "bike_id": "33b241983a72e7f5ceb50b9b9648a3ad", "name": "33b241983a72e7f5ceb50b9b9648a3ad", "lon": -77.02869516666667}, {"lat": 38.938837, "is_disabled": 0, "type": "electric_scooter", "fusion_lon": 0.0, "rental_uris": {"android": "https://dc.lft.to/lastmile_qr_scan", "ios": "https://dc.lft.to/lastmile_qr_scan"}, "fusion_lat": 0.0, "is_reserved": 0, "bike_id": "4ee21abab316b1a8437b33b97b42e66f", "name": "4ee21abab316b1a8437b33b97b42e66f", "lon": -77.02483316666667}, {"lat": 38.9095765, "is_disabled": 0, "type": "electric_scooter", "fusion_lon": 0.0, "rental_uris": {"android": "https://dc.lft.to/lastmile_qr_scan", "ios": "https://dc.lft.to/lastmile_qr_scan"}, "fusion_lat": 0.0, "is_reserved": 0, "bike_id": "7b593a12bd71339eb1fc76fe8f98689f", "name": "7b593a12bd71339eb1fc76fe8f98689f", "lon": -77.04864833333333}, {"lat": 38.8850635, "is_disabled": 0, "type": "electric_scooter", "fusion_lon": 0.0, "rental_uris": {"android": "https://dc.lft.to/lastmile_qr_scan", "ios": "https://dc.lft.to/lastmile_qr_scan"}, "fusion_lat": 0.0, "is_reserved": 0, "bike_id": "403c30a8e752f94e4025a53f0cdbae61", "name": "403c30a8e752f94e4025a53f0cdbae61", "lon": -77.0056655}, {"lat": 38.87471466666667, "is_disabled": 0, "type": "electric_scooter", "fusion_lon": 0.0, "rental_uris": {"android": "https://dc.lft.to/lastmile_qr_scan", "ios": "https://dc.lft.to/lastmile_qr_scan"}, "fusion_lat": 0.0, "is_reserved": 0, "bike_id": "368a7f2a3685113cb2317e2370045ec5", "name": "368a7f2a3685113cb2317e2370045ec5", "lon": -77.015963}, {"lat": 38.89787233333333, "is_disabled": 0, "type": "electric_scooter", "fusion_lon": 0.0, "rental_uris": {"android": "https://dc.lft.to/lastmile_qr_scan", "ios": "https://dc.lft.to/lastmile_qr_scan"}, "fusion_lat": 0.0, "is_reserved": 0, "bike_id": "4d2676dd76488145b3a7b3e3a3f14e00", "name": "4d2676dd76488145b3a7b3e3a3f14e00", "lon": -77.05483783333334}, {"lat": 38.896181166666665, "is_disabled": 0, "type": "electric_bike", "fusion_lon": 0.0, "rental_uris": {"android": "https://dc.lft.to/lastmile_qr_scan", "ios": "https://dc.lft.to/lastmile_qr_scan"}, "fusion_lat": 0.0, "is_reserved": 0, "bike_id": "22838336119066d2e18651e89d153712", "name": "22838336119066d2e18651e89d153712", "lon": -76.90743633333334}, {"lat": 38.90173733333334, "is_disabled": 0, "type": "electric_scooter", "fusion_lon": 0.0, "rental_uris": {"android": "https://dc.lft.to/lastmile_qr_scan", "ios": "https://dc.lft.to/lastmile_qr_scan"}, "fusion_lat": 0.0, "is_reserved": 0, "bike_id": "a345575ecdaaacc48cb25a4224297192", "name": "a345575ecdaaacc48cb25a4224297192", "lon": -77.0161295}, {"lat": 38.866658666666666, "is_disabled": 0, "type": "electric_scooter", "fusion_lon": 0.0, "rental_uris": {"android": "https://dc.lft.to/lastmile_qr_scan", "ios": "https://dc.lft.to/lastmile_qr_scan"}, "fusion_lat": 0.0, "is_reserved": 0, "bike_id": "231c90603fd3238d878e9d3275368c07", "name": "231c90603fd3238d878e9d3275368c07", "lon": -76.98512733333334}, {"lat": 38.895581, "is_disabled": 0, "type": "electric_scooter", "fusion_lon": 0.0, "rental_uris": {"android": "https://dc.lft.to/lastmile_qr_scan", "ios": "https://dc.lft.to/lastmile_qr_scan"}, "fusion_lat": 0.0, "is_reserved": 0, "bike_id": "bc7965eb4be90aa135008317c58bc8c4", "name": "bc7965eb4be90aa135008317c58bc8c4", "lon": -77.046795}, {"lat": 38.93020033333333, "is_disabled": 0, "type": "electric_scooter", "fusion_lon": 0.0, "rental_uris": {"android": "https://dc.lft.to/lastmile_qr_scan", "ios": "https://dc.lft.to/lastmile_qr_scan"}, "fusion_lat": 0.0, "is_reserved": 0, "bike_id": "ba19023a997d1114cca16ed03bd61df1", "name": "ba19023a997d1114cca16ed03bd61df1", "lon": -77.01527116666666}, {"lat": 38.9098785, "is_disabled": 0, "type": "electric_scooter", "fusion_lon": 0.0, "rental_uris": {"android": "https://dc.lft.to/lastmile_qr_scan", "ios": "https://dc.lft.to/lastmile_qr_scan"}, "fusion_lat": 0.0, "is_reserved": 0, "bike_id": "627b69d01da479e5a6c9575840c68fac", "name": "627b69d01da479e5a6c9575840c68fac", "lon": -77.03283866666666}, {"lat": 38.9186875, "is_disabled": 0, "type": "electric_scooter", "fusion_lon": 0.0, "rental_uris": {"android": "https://dc.lft.to/lastmile_qr_scan", "ios": "https://dc.lft.to/lastmile_qr_scan"}, "fusion_lat": 0.0, "is_reserved": 0, "bike_id": "62dd49f69116a6baec7cbb9855345f8f", "name": "62dd49f69116a6baec7cbb9855345f8f", "lon": -77.04176266666667}, {"lat": 38.892273, "is_disabled": 0, "type": "electric_scooter", "fusion_lon": 0.0, "rental_uris": {"android": "https://dc.lft.to/lastmile_qr_scan", "ios": "https://dc.lft.to/lastmile_qr_scan"}, "fusion_lat": 0.0, "is_reserved": 0, "bike_id": "5a01af818f9bd97d7e4499288caac69e", "name": "5a01af818f9bd97d7e4499288caac69e", "lon": -77.032192}, {"lat": 38.8999825, "is_disabled": 0, "type": "electric_scooter", "fusion_lon": 0.0, "rental_uris": {"android": "https://dc.lft.to/lastmile_qr_scan", "ios": "https://dc.lft.to/lastmile_qr_scan"}, "fusion_lat": 0.0, "is_reserved": 0, "bike_id": "cbe0458964d05654ac4fe203cac2fb8b", "name": "cbe0458964d05654ac4fe203cac2fb8b", "lon": -77.0065665}, {"lat": 38.9170565, "is_disabled": 0, "type": "electric_scooter", "fusion_lon": 0.0, "rental_uris": {"android": "https://dc.lft.to/lastmile_qr_scan", "ios": "https://dc.lft.to/lastmile_qr_scan"}, "fusion_lat": 0.0, "is_reserved": 0, "bike_id": "f6ee5878b4ed4699ccf7d562a3eab27f", "name": "f6ee5878b4ed4699ccf7d562a3eab27f", "lon": -77.03002383333333}, {"lat": 38.863752833333336, "is_disabled": 0, "type": "electric_scooter", "fusion_lon": 0.0, "rental_uris": {"android": "https://dc.lft.to/lastmile_qr_scan", "ios": "https://dc.lft.to/lastmile_qr_scan"}, "fusion_lat": 0.0, "is_reserved": 0, "bike_id": "0bbb5c7bce28462c4fa8e6e0c7e3e249", "name": "0bbb5c7bce28462c4fa8e6e0c7e3e249", "lon": -76.99056716666666}, {"lat": 38.916528, "is_disabled": 0, "type": "electric_scooter", "fusion_lon": 0.0, "rental_uris": {"android": "https://dc.lft.to/lastmile_qr_scan", "ios": "https://dc.lft.to/lastmile_qr_scan"}, "fusion_lat": 0.0, "is_reserved": 0, "bike_id": "0b61d3980e1d5dfe42088c0f7708bca7", "name": "0b61d3980e1d5dfe42088c0f7708bca7", "lon": -77.0371125}, {"lat": 38.88838616666666, "is_disabled": 0, "type": "electric_scooter", "fusion_lon": 0.0, "rental_uris": {"android": "https://dc.lft.to/lastmile_qr_scan", "ios": "https://dc.lft.to/lastmile_qr_scan"}, "fusion_lat": 0.0, "is_reserved": 0, "bike_id": "97355f0ffcfe859e9f50373151bc861f", "name": "97355f0ffcfe859e9f50373151bc861f", "lon": -76.91762766666666}, {"lat": 38.87999933333333, "is_disabled": 0, "type": "electric_scooter", "fusion_lon": 0.0, "rental_uris": {"android": "https://dc.lft.to/lastmile_qr_scan", "ios": "https://dc.lft.to/lastmile_qr_scan"}, "fusion_lat": 0.0, "is_reserved": 0, "bike_id": "4bf7266ce19511ea50a891174f91c486", "name": "4bf7266ce19511ea50a891174f91c486", "lon": -77.00543366666666}, {"lat": 38.92865583333333, "is_disabled": 0, "type": "electric_scooter", "fusion_lon": 0.0, "rental_uris": {"android": "https://dc.lft.to/lastmile_qr_scan", "ios": "https://dc.lft.to/lastmile_qr_scan"}, "fusion_lat": 0.0, "is_reserved": 0, "bike_id": "499979f4886b0a8ab1624d55dc715fbe", "name": "499979f4886b0a8ab1624d55dc715fbe", "lon": -77.03444316666666}, {"lat": 38.92258733333333, "is_disabled": 0, "type": "electric_scooter", "fusion_lon": 0.0, "rental_uris": {"android": "https://dc.lft.to/lastmile_qr_scan", "ios": "https://dc.lft.to/lastmile_qr_scan"}, "fusion_lat": 0.0, "is_reserved": 0, "bike_id": "928d6bd040117de174c0bc2f8a2f62dc", "name": "928d6bd040117de174c0bc2f8a2f62dc", "lon": -77.07033383333334}, {"lat": 39.05500416666667, "is_disabled": 0, "type": "electric_bike", "fusion_lon": 0.0, "rental_uris": {"android": "https://dc.lft.to/lastmile_qr_scan", "ios": "https://dc.lft.to/lastmile_qr_scan"}, "fusion_lat": 0.0, "is_reserved": 0, "bike_id": "c7f86c39baf3d62e1bb903da161e281c", "name": "c7f86c39baf3d62e1bb903da161e281c", "lon": -77.04648916666666}, {"lat": 38.95297733333334, "is_disabled": 0, "type": "electric_scooter", "fusion_lon": 0.0, "rental_uris": {"android": "https://dc.lft.to/lastmile_qr_scan", "ios": "https://dc.lft.to/lastmile_qr_scan"}, "fusion_lat": 0.0, "is_reserved": 0, "bike_id": "4701425040ec1ec93d5687c2ecf9bec7", "name": "4701425040ec1ec93d5687c2ecf9bec7", "lon": -77.00300266666666}, {"lat": 38.929693666666665, "is_disabled": 0, "type": "electric_bike", "fusion_lon": 0.0, "rental_uris": {"android": "https://dc.lft.to/lastmile_qr_scan", "ios": "https://dc.lft.to/lastmile_qr_scan"}, "fusion_lat": 0.0, "is_reserved": 0, "bike_id": "f7ba9dff52977ef9d2f7ed6ef974f039", "name": "f7ba9dff52977ef9d2f7ed6ef974f039", "lon": -77.18562783333333}, {"lat": 38.89627466666666, "is_disabled": 0, "type": "electric_scooter", "fusion_lon": 0.0, "rental_uris": {"android": "https://dc.lft.to/lastmile_qr_scan", "ios": "https://dc.lft.to/lastmile_qr_scan"}, "fusion_lat": 0.0, "is_reserved": 0, "bike_id": "400fdb92b839f99855ea2a1984784d81", "name": "400fdb92b839f99855ea2a1984784d81", "lon": -77.03956733333334}, {"lat": 38.9533315, "is_disabled": 0, "type": "electric_bike", "fusion_lon": 0.0, "rental_uris": {"android": "https://dc.lft.to/lastmile_qr_scan", "ios": "https://dc.lft.to/lastmile_qr_scan"}, "fusion_lat": 0.0, "is_reserved": 0, "bike_id": "d30657075018815ba95734332c1e91db", "name": "d30657075018815ba95734332c1e91db", "lon": -76.98242933333333}, {"lat": 38.954411666666665, "is_disabled": 0, "type": "electric_bike", "fusion_lon": 0.0, "rental_uris": {"android": "https://dc.lft.to/lastmile_qr_scan", "ios": "https://dc.lft.to/lastmile_qr_scan"}, "fusion_lat": 0.0, "is_reserved": 0, "bike_id": "eb98ba0250ead9e518f33bd7e5df1caa", "name": "eb98ba0250ead9e518f33bd7e5df1caa", "lon": -76.98915216666667}, {"lat": 38.896874, "is_disabled": 0, "type": "electric_scooter", "fusion_lon": 0.0, "rental_uris": {"android": "https://dc.lft.to/lastmile_qr_scan", "ios": "https://dc.lft.to/lastmile_qr_scan"}, "fusion_lat": 0.0, "is_reserved": 0, "bike_id": "4b5699283fe1b4982b775092ca25f759", "name": "4b5699283fe1b4982b775092ca25f759", "lon": -77.02975666666667}, {"lat": 38.931732833333335, "is_disabled": 0, "type": "electric_bike", "fusion_lon": 0.0, "rental_uris": {"android": "https://dc.lft.to/lastmile_qr_scan", "ios": "https://dc.lft.to/lastmile_qr_scan"}, "fusion_lat": 0.0, "is_reserved": 0, "bike_id": "e6acd1c67b7c9d94b95f1e57ef274910", "name": "e6acd1c67b7c9d94b95f1e57ef274910", "lon": -76.88399683333333}, {"lat": 38.93587333333333, "is_disabled": 0, "type": "electric_scooter", "fusion_lon": 0.0, "rental_uris": {"android": "https://dc.lft.to/lastmile_qr_scan", "ios": "https://dc.lft.to/lastmile_qr_scan"}, "fusion_lat": 0.0, "is_reserved": 0, "bike_id": "92a65089df30c1f8a303cd81c24c0013", "name": "92a65089df30c1f8a303cd81c24c0013", "lon": -77.08116516666666}, {"lat": 38.916436166666664, "is_disabled": 0, "type": "electric_bike", "fusion_lon": 0.0, "rental_uris": {"android": "https://dc.lft.to/lastmile_qr_scan", "ios": "https://dc.lft.to/lastmile_qr_scan"}, "fusion_lat": 0.0, "is_reserved": 0, "bike_id": "7431afebaec4837294c343dc579f0674", "name": "7431afebaec4837294c343dc579f0674", "lon": -76.9730405}, {"lat": 38.8849015, "is_disabled": 0, "type": "electric_scooter", "fusion_lon": 0.0, "rental_uris": {"android": "https://dc.lft.to/lastmile_qr_scan", "ios": "https://dc.lft.to/lastmile_qr_scan"}, "fusion_lat": 0.0, "is_reserved": 0, "bike_id": "0b6338c321ee7f4dfdce3583104e0f10", "name": "0b6338c321ee7f4dfdce3583104e0f10", "lon": -76.9262015}, {"lat": 38.90566583333333, "is_disabled": 0, "type": "electric_scooter", "fusion_lon": 0.0, "rental_uris": {"android": "https://dc.lft.to/lastmile_qr_scan", "ios": "https://dc.lft.to/lastmile_qr_scan"}, "fusion_lat": 0.0, "is_reserved": 0, "bike_id": "ec760ebcae95dd7ec54e3d38b1586d85", "name": "ec760ebcae95dd7ec54e3d38b1586d85", "lon": -77.006204}, {"lat": 38.9210915, "is_disabled": 0, "type": "electric_scooter", "fusion_lon": 0.0, "rental_uris": {"android": "https://dc.lft.to/lastmile_qr_scan", "ios": "https://dc.lft.to/lastmile_qr_scan"}, "fusion_lat": 0.0, "is_reserved": 0, "bike_id": "4ad1930b765a738d3f03057d1c849e11", "name": "4ad1930b765a738d3f03057d1c849e11", "lon": -77.02210466666666}, {"lat": 38.94419233333333, "is_disabled": 0, "type": "electric_scooter", "fusion_lon": 0.0, "rental_uris": {"android": "https://dc.lft.to/lastmile_qr_scan", "ios": "https://dc.lft.to/lastmile_qr_scan"}, "fusion_lat": 0.0, "is_reserved": 0, "bike_id": "25de2760bc796b5d2af8757401bea35e", "name": "25de2760bc796b5d2af8757401bea35e", "lon": -77.026036}, {"lat": 38.931742, "is_disabled": 0, "type": "electric_scooter", "fusion_lon": 0.0, "rental_uris": {"android": "https://dc.lft.to/lastmile_qr_scan", "ios": "https://dc.lft.to/lastmile_qr_scan"}, "fusion_lat": 0.0, "is_reserved": 0, "bike_id": "dfc0b0214a7948bbd932535c0c995321", "name": "dfc0b0214a7948bbd932535c0c995321", "lon": -77.071055}, {"lat": 38.922680166666666, "is_disabled": 0, "type": "electric_scooter", "fusion_lon": 0.0, "rental_uris": {"android": "https://dc.lft.to/lastmile_qr_scan", "ios": "https://dc.lft.to/lastmile_qr_scan"}, "fusion_lat": 0.0, "is_reserved": 0, "bike_id": "c92a2aa7bd042c41e7072c3e9a4f7e27", "name": "c92a2aa7bd042c41e7072c3e9a4f7e27", "lon": -77.01908616666667}, {"lat": 38.90090983333333, "is_disabled": 0, "type": "electric_scooter", "fusion_lon": 0.0, "rental_uris": {"android": "https://dc.lft.to/lastmile_qr_scan", "ios": "https://dc.lft.to/lastmile_qr_scan"}, "fusion_lat": 0.0, "is_reserved": 0, "bike_id": "6af8139160863e73a3456e7866ff3376", "name": "6af8139160863e73a3456e7866ff3376", "lon": -76.93020483333333}, {"lat": 38.8720855, "is_disabled": 0, "type": "electric_scooter", "fusion_lon": 0.0, "rental_uris": {"android": "https://dc.lft.to/lastmile_qr_scan", "ios": "https://dc.lft.to/lastmile_qr_scan"}, "fusion_lat": 0.0, "is_reserved": 0, "bike_id": "4d9cc6d9d94889a908309d3fdecb2828", "name": "4d9cc6d9d94889a908309d3fdecb2828", "lon": -76.9783635}, {"lat": 38.9506505, "is_disabled": 0, "type": "electric_scooter", "fusion_lon": 0.0, "rental_uris": {"android": "https://dc.lft.to/lastmile_qr_scan", "ios": "https://dc.lft.to/lastmile_qr_scan"}, "fusion_lat": 0.0, "is_reserved": 0, "bike_id": "a0cecb72bcba8cc4d3679e4be71bbc3f", "name": "a0cecb72bcba8cc4d3679e4be71bbc3f", "lon": -77.08011616666667}, {"lat": 38.855411333333336, "is_disabled": 0, "type": "electric_scooter", "fusion_lon": 0.0, "rental_uris": {"android": "https://dc.lft.to/lastmile_qr_scan", "ios": "https://dc.lft.to/lastmile_qr_scan"}, "fusion_lat": 0.0, "is_reserved": 0, "bike_id": "bb0e67477377979d6dfc75b834450b49", "name": "bb0e67477377979d6dfc75b834450b49", "lon": -76.9841635}, {"lat": 38.9023965, "is_disabled": 0, "type": "electric_scooter", "fusion_lon": 0.0, "rental_uris": {"android": "https://dc.lft.to/lastmile_qr_scan", "ios": "https://dc.lft.to/lastmile_qr_scan"}, "fusion_lat": 0.0, "is_reserved": 0, "bike_id": "df9b6ac7a23753fdd10b0764fb525be9", "name": "df9b6ac7a23753fdd10b0764fb525be9", "lon": -77.017372}, {"lat": 38.89278633333333, "is_disabled": 0, "type": "electric_scooter", "fusion_lon": 0.0, "rental_uris": {"android": "https://dc.lft.to/lastmile_qr_scan", "ios": "https://dc.lft.to/lastmile_qr_scan"}, "fusion_lat": 0.0, "is_reserved": 0, "bike_id": "caa01242aeb04124f1acce1a67d468a0", "name": "caa01242aeb04124f1acce1a67d468a0", "lon": -77.04877766666667}, {"lat": 38.92168266666667, "is_disabled": 0, "type": "electric_scooter", "fusion_lon": 0.0, "rental_uris": {"android": "https://dc.lft.to/lastmile_qr_scan", "ios": "https://dc.lft.to/lastmile_qr_scan"}, "fusion_lat": 0.0, "is_reserved": 0, "bike_id": "f39d07c823331bc82e61da57af98c1c6", "name": "f39d07c823331bc82e61da57af98c1c6", "lon": -77.042378}, {"lat": 38.86699, "is_disabled": 0, "type": "electric_scooter", "fusion_lon": 0.0, "rental_uris": {"android": "https://dc.lft.to/lastmile_qr_scan", "ios": "https://dc.lft.to/lastmile_qr_scan"}, "fusion_lat": 0.0, "is_reserved": 0, "bike_id": "0112a6aa551d2dcfc4df3d81d519857e", "name": "0112a6aa551d2dcfc4df3d81d519857e", "lon": -76.985914}, {"lat": 38.95200116666667, "is_disabled": 0, "type": "electric_scooter", "fusion_lon": 0.0, "rental_uris": {"android": "https://dc.lft.to/lastmile_qr_scan", "ios": "https://dc.lft.to/lastmile_qr_scan"}, "fusion_lat": 0.0, "is_reserved": 0, "bike_id": "b7386bcab1baa555be805f7592eb3260", "name": "b7386bcab1baa555be805f7592eb3260", "lon": -77.027319}, {"lat": 38.88837433333333, "is_disabled": 0, "type": "electric_scooter", "fusion_lon": 0.0, "rental_uris": {"android": "https://dc.lft.to/lastmile_qr_scan", "ios": "https://dc.lft.to/lastmile_qr_scan"}, "fusion_lat": 0.0, "is_reserved": 0, "bike_id": "4e3da1a6011240d4e126c5b57a1798c3", "name": "4e3da1a6011240d4e126c5b57a1798c3", "lon": -77.04849483333334}, {"lat": 38.89607083333333, "is_disabled": 0, "type": "electric_scooter", "fusion_lon": 0.0, "rental_uris": {"android": "https://dc.lft.to/lastmile_qr_scan", "ios": "https://dc.lft.to/lastmile_qr_scan"}, "fusion_lat": 0.0, "is_reserved": 0, "bike_id": "2360565d13034df93de7b1a4ee7a8ce8", "name": "2360565d13034df93de7b1a4ee7a8ce8", "lon": -77.00928483333334}, {"lat": 38.853300833333336, "is_disabled": 0, "type": "electric_bike", "fusion_lon": 0.0, "rental_uris": {"android": "https://dc.lft.to/lastmile_qr_scan", "ios": "https://dc.lft.to/lastmile_qr_scan"}, "fusion_lat": 0.0, "is_reserved": 0, "bike_id": "ae2358d7dbd95c55c258664c2a9ec3f6", "name": "ae2358d7dbd95c55c258664c2a9ec3f6", "lon": -76.98024283333334}, {"lat": 38.8862085, "is_disabled": 0, "type": "electric_scooter", "fusion_lon": 0.0, "rental_uris": {"android": "https://dc.lft.to/lastmile_qr_scan", "ios": "https://dc.lft.to/lastmile_qr_scan"}, "fusion_lat": 0.0, "is_reserved": 0, "bike_id": "619035a1c1394a986293dfcbe6e2626b", "name": "619035a1c1394a986293dfcbe6e2626b", "lon": -76.95582266666666}, {"lat": 38.872922833333334, "is_disabled": 0, "type": "electric_scooter", "fusion_lon": 0.0, "rental_uris": {"android": "https://dc.lft.to/lastmile_qr_scan", "ios": "https://dc.lft.to/lastmile_qr_scan"}, "fusion_lat": 0.0, "is_reserved": 0, "bike_id": "a8c3c3aac933c5b81a33405e905fce27", "name": "a8c3c3aac933c5b81a33405e905fce27", "lon": -76.97728983333333}, {"lat": 38.887324666666665, "is_disabled": 0, "type": "electric_scooter", "fusion_lon": 0.0, "rental_uris": {"android": "https://dc.lft.to/lastmile_qr_scan", "ios": "https://dc.lft.to/lastmile_qr_scan"}, "fusion_lat": 0.0, "is_reserved": 0, "bike_id": "8d18321aae45793936419c3adc00eb52", "name": "8d18321aae45793936419c3adc00eb52", "lon": -77.0282995}, {"lat": 38.90155716666666, "is_disabled": 0, "type": "electric_scooter", "fusion_lon": 0.0, "rental_uris": {"android": "https://dc.lft.to/lastmile_qr_scan", "ios": "https://dc.lft.to/lastmile_qr_scan"}, "fusion_lat": 0.0, "is_reserved": 0, "bike_id": "cc36faec15f09e5a4add8c0b998fbf8f", "name": "cc36faec15f09e5a4add8c0b998fbf8f", "lon": -77.01627833333333}, {"lat": 38.89229733333333, "is_disabled": 0, "type": "electric_scooter", "fusion_lon": 0.0, "rental_uris": {"android": "https://dc.lft.to/lastmile_qr_scan", "ios": "https://dc.lft.to/lastmile_qr_scan"}, "fusion_lat": 0.0, "is_reserved": 0, "bike_id": "b010b92500cbf5355146ba3fa50b3c73", "name": "b010b92500cbf5355146ba3fa50b3c73", "lon": -77.0280325}, {"lat": 38.917438833333335, "is_disabled": 0, "type": "electric_scooter", "fusion_lon": 0.0, "rental_uris": {"android": "https://dc.lft.to/lastmile_qr_scan", "ios": "https://dc.lft.to/lastmile_qr_scan"}, "fusion_lat": 0.0, "is_reserved": 0, "bike_id": "6ed4185510bf3abb2d7e313f56450769", "name": "6ed4185510bf3abb2d7e313f56450769", "lon": -77.031968}, {"lat": 38.807533666666664, "is_disabled": 0, "type": "electric_bike", "fusion_lon": 0.0, "rental_uris": {"android": "https://dc.lft.to/lastmile_qr_scan", "ios": "https://dc.lft.to/lastmile_qr_scan"}, "fusion_lat": 0.0, "is_reserved": 0, "bike_id": "469eec2ecb7004959a9ade9258dd2bb8", "name": "469eec2ecb7004959a9ade9258dd2bb8", "lon": -77.0945245}, {"lat": 38.8774845, "is_disabled": 0, "type": "electric_scooter", "fusion_lon": 0.0, "rental_uris": {"android": "https://dc.lft.to/lastmile_qr_scan", "ios": "https://dc.lft.to/lastmile_qr_scan"}, "fusion_lat": 0.0, "is_reserved": 0, "bike_id": "89627e159e284e0c124ee77d7b2d36b0", "name": "89627e159e284e0c124ee77d7b2d36b0", "lon": -77.007235}, {"lat": 38.873727, "is_disabled": 0, "type": "electric_scooter", "fusion_lon": 0.0, "rental_uris": {"android": "https://dc.lft.to/lastmile_qr_scan", "ios": "https://dc.lft.to/lastmile_qr_scan"}, "fusion_lat": 0.0, "is_reserved": 0, "bike_id": "b8b4078efd6fb4280c569b74c266d2da", "name": "b8b4078efd6fb4280c569b74c266d2da", "lon": -77.00121633333333}, {"lat": 38.907993, "is_disabled": 0, "type": "electric_scooter", "fusion_lon": 0.0, "rental_uris": {"android": "https://dc.lft.to/lastmile_qr_scan", "ios": "https://dc.lft.to/lastmile_qr_scan"}, "fusion_lat": 0.0, "is_reserved": 0, "bike_id": "b4c454832a88965580f964a631bb3290", "name": "b4c454832a88965580f964a631bb3290", "lon": -77.04175066666667}, {"lat": 38.861917166666665, "is_disabled": 0, "type": "electric_bike", "fusion_lon": 0.0, "rental_uris": {"android": "https://dc.lft.to/lastmile_qr_scan", "ios": "https://dc.lft.to/lastmile_qr_scan"}, "fusion_lat": 0.0, "is_reserved": 0, "bike_id": "352904fed67c144b0726530592271531", "name": "352904fed67c144b0726530592271531", "lon": -76.94801266666667}, {"lat": 38.90253666666667, "is_disabled": 0, "type": "electric_scooter", "fusion_lon": 0.0, "rental_uris": {"android": "https://dc.lft.to/lastmile_qr_scan", "ios": "https://dc.lft.to/lastmile_qr_scan"}, "fusion_lat": 0.0, "is_reserved": 0, "bike_id": "e6e6d085e200a08956cf9a0be0f07f7d", "name": "e6e6d085e200a08956cf9a0be0f07f7d", "lon": -77.0397815}, {"lat": 38.90141, "is_disabled": 0, "type": "electric_scooter", "fusion_lon": 0.0, "rental_uris": {"android": "https://dc.lft.to/lastmile_qr_scan", "ios": "https://dc.lft.to/lastmile_qr_scan"}, "fusion_lat": 0.0, "is_reserved": 0, "bike_id": "21bea0b6aa093b6e3a018a759bb1bf3b", "name": "21bea0b6aa093b6e3a018a759bb1bf3b", "lon": -77.03285633333333}, {"lat": 38.90017533333334, "is_disabled": 0, "type": "electric_scooter", "fusion_lon": 0.0, "rental_uris": {"android": "https://dc.lft.to/lastmile_qr_scan", "ios": "https://dc.lft.to/lastmile_qr_scan"}, "fusion_lat": 0.0, "is_reserved": 0, "bike_id": "d2bac878ef9b896aaf87fb885171b8fc", "name": "d2bac878ef9b896aaf87fb885171b8fc", "lon": -76.993059}, {"lat": 38.87845383333333, "is_disabled": 0, "type": "electric_scooter", "fusion_lon": 0.0, "rental_uris": {"android": "https://dc.lft.to/lastmile_qr_scan", "ios": "https://dc.lft.to/lastmile_qr_scan"}, "fusion_lat": 0.0, "is_reserved": 0, "bike_id": "13340f6c309745711877c96a0e8717f6", "name": "13340f6c309745711877c96a0e8717f6", "lon": -76.9313895}, {"lat": 38.93488516666667, "is_disabled": 0, "type": "electric_scooter", "fusion_lon": 0.0, "rental_uris": {"android": "https://dc.lft.to/lastmile_qr_scan", "ios": "https://dc.lft.to/lastmile_qr_scan"}, "fusion_lat": 0.0, "is_reserved": 0, "bike_id": "9f5eaf40d540114205be8ae626938288", "name": "9f5eaf40d540114205be8ae626938288", "lon": -77.07345816666667}, {"lat": 38.91709216666667, "is_disabled": 0, "type": "electric_scooter", "fusion_lon": 0.0, "rental_uris": {"android": "https://dc.lft.to/lastmile_qr_scan", "ios": "https://dc.lft.to/lastmile_qr_scan"}, "fusion_lat": 0.0, "is_reserved": 0, "bike_id": "8cd8f23e06b93e5ec8db6c78437f75b4", "name": "8cd8f23e06b93e5ec8db6c78437f75b4", "lon": -77.041235}, {"lat": 38.900856, "is_disabled": 0, "type": "electric_scooter", "fusion_lon": 0.0, "rental_uris": {"android": "https://dc.lft.to/lastmile_qr_scan", "ios": "https://dc.lft.to/lastmile_qr_scan"}, "fusion_lat": 0.0, "is_reserved": 0, "bike_id": "f959d42656b7c363f190af465400071c", "name": "f959d42656b7c363f190af465400071c", "lon": -76.93867916666666}, {"lat": 38.928251333333336, "is_disabled": 0, "type": "electric_scooter", "fusion_lon": 0.0, "rental_uris": {"android": "https://dc.lft.to/lastmile_qr_scan", "ios": "https://dc.lft.to/lastmile_qr_scan"}, "fusion_lat": 0.0, "is_reserved": 0, "bike_id": "99bf66b634b51630a5781b309741edc2", "name": "99bf66b634b51630a5781b309741edc2", "lon": -77.03370083333333}, {"lat": 38.910164333333334, "is_disabled": 0, "type": "electric_scooter", "fusion_lon": 0.0, "rental_uris": {"android": "https://dc.lft.to/lastmile_qr_scan", "ios": "https://dc.lft.to/lastmile_qr_scan"}, "fusion_lat": 0.0, "is_reserved": 0, "bike_id": "1b531158647537f65640a73a86d7cb59", "name": "1b531158647537f65640a73a86d7cb59", "lon": -77.03466616666667}, {"lat": 38.92192683333333, "is_disabled": 0, "type": "electric_scooter", "fusion_lon": 0.0, "rental_uris": {"android": "https://dc.lft.to/lastmile_qr_scan", "ios": "https://dc.lft.to/lastmile_qr_scan"}, "fusion_lat": 0.0, "is_reserved": 0, "bike_id": "1227c2e363749f512abcb2684f3a2ba4", "name": "1227c2e363749f512abcb2684f3a2ba4", "lon": -76.98874383333333}, {"lat": 38.91112566666666, "is_disabled": 0, "type": "electric_scooter", "fusion_lon": 0.0, "rental_uris": {"android": "https://dc.lft.to/lastmile_qr_scan", "ios": "https://dc.lft.to/lastmile_qr_scan"}, "fusion_lat": 0.0, "is_reserved": 0, "bike_id": "20d94b6e1a2fc0bddabe2d19ad2163fd", "name": "20d94b6e1a2fc0bddabe2d19ad2163fd", "lon": -77.045098}, {"lat": 38.90666683333333, "is_disabled": 0, "type": "electric_scooter", "fusion_lon": 0.0, "rental_uris": {"android": "https://dc.lft.to/lastmile_qr_scan", "ios": "https://dc.lft.to/lastmile_qr_scan"}, "fusion_lat": 0.0, "is_reserved": 0, "bike_id": "442ef1721585210fb3cbf257d65ac96a", "name": "442ef1721585210fb3cbf257d65ac96a", "lon": -77.07013716666667}, {"lat": 38.904628333333335, "is_disabled": 0, "type": "electric_scooter", "fusion_lon": 0.0, "rental_uris": {"android": "https://dc.lft.to/lastmile_qr_scan", "ios": "https://dc.lft.to/lastmile_qr_scan"}, "fusion_lat": 0.0, "is_reserved": 0, "bike_id": "c6e005839346a9b215e64bb8c968df20", "name": "c6e005839346a9b215e64bb8c968df20", "lon": -77.0436215}, {"lat": 38.92221833333333, "is_disabled": 0, "type": "electric_scooter", "fusion_lon": 0.0, "rental_uris": {"android": "https://dc.lft.to/lastmile_qr_scan", "ios": "https://dc.lft.to/lastmile_qr_scan"}, "fusion_lat": 0.0, "is_reserved": 0, "bike_id": "7758d748e277b835df228b11304585fb", "name": "7758d748e277b835df228b11304585fb", "lon": -77.04336783333333}, {"lat": 38.89694216666667, "is_disabled": 0, "type": "electric_scooter", "fusion_lon": 0.0, "rental_uris": {"android": "https://dc.lft.to/lastmile_qr_scan", "ios": "https://dc.lft.to/lastmile_qr_scan"}, "fusion_lat": 0.0, "is_reserved": 0, "bike_id": "28701abbfc2e2eea5e0b80101f2f32f9", "name": "28701abbfc2e2eea5e0b80101f2f32f9", "lon": -77.03074166666667}, {"lat": 38.88624433333333, "is_disabled": 0, "type": "electric_scooter", "fusion_lon": 0.0, "rental_uris": {"android": "https://dc.lft.to/lastmile_qr_scan", "ios": "https://dc.lft.to/lastmile_qr_scan"}, "fusion_lat": 0.0, "is_reserved": 0, "bike_id": "10c32f9b5fb808b761f6ab0a9efe79f0", "name": "10c32f9b5fb808b761f6ab0a9efe79f0", "lon": -77.01973833333334}, {"lat": 38.93609433333334, "is_disabled": 0, "type": "electric_scooter", "fusion_lon": 0.0, "rental_uris": {"android": "https://dc.lft.to/lastmile_qr_scan", "ios": "https://dc.lft.to/lastmile_qr_scan"}, "fusion_lat": 0.0, "is_reserved": 0, "bike_id": "ea1b775fb527b5d02ee4cf85c2682c00", "name": "ea1b775fb527b5d02ee4cf85c2682c00", "lon": -77.05894033333334}, {"lat": 38.9196365, "is_disabled": 0, "type": "electric_scooter", "fusion_lon": 0.0, "rental_uris": {"android": "https://dc.lft.to/lastmile_qr_scan", "ios": "https://dc.lft.to/lastmile_qr_scan"}, "fusion_lat": 0.0, "is_reserved": 0, "bike_id": "63e2a8b1ea9301d9423b580dc70c31e2", "name": "63e2a8b1ea9301d9423b580dc70c31e2", "lon": -77.0240985}, {"lat": 38.9576365, "is_disabled": 0, "type": "electric_bike", "fusion_lon": 0.0, "rental_uris": {"android": "https://dc.lft.to/lastmile_qr_scan", "ios": "https://dc.lft.to/lastmile_qr_scan"}, "fusion_lat": 0.0, "is_reserved": 0, "bike_id": "295d97d75d1d208bd56e6d08cadeb427", "name": "295d97d75d1d208bd56e6d08cadeb427", "lon": -77.00709266666667}, {"lat": 38.89879533333333, "is_disabled": 0, "type": "electric_scooter", "fusion_lon": 0.0, "rental_uris": {"android": "https://dc.lft.to/lastmile_qr_scan", "ios": "https://dc.lft.to/lastmile_qr_scan"}, "fusion_lat": 0.0, "is_reserved": 0, "bike_id": "3ded71eefff9db872dd8a4444b71f494", "name": "3ded71eefff9db872dd8a4444b71f494", "lon": -76.93196016666667}, {"lat": 38.9044505, "is_disabled": 0, "type": "electric_scooter", "fusion_lon": 0.0, "rental_uris": {"android": "https://dc.lft.to/lastmile_qr_scan", "ios": "https://dc.lft.to/lastmile_qr_scan"}, "fusion_lat": 0.0, "is_reserved": 0, "bike_id": "2c0b145acab13607ea7e4cbbe916155a", "name": "2c0b145acab13607ea7e4cbbe916155a", "lon": -77.050202}, {"lat": 38.9113245, "is_disabled": 0, "type": "electric_scooter", "fusion_lon": 0.0, "rental_uris": {"android": "https://dc.lft.to/lastmile_qr_scan", "ios": "https://dc.lft.to/lastmile_qr_scan"}, "fusion_lat": 0.0, "is_reserved": 0, "bike_id": "f4985660b8c0106a144ab5081f7c2577", "name": "f4985660b8c0106a144ab5081f7c2577", "lon": -77.04406966666667}, {"lat": 38.91549066666666, "is_disabled": 0, "type": "electric_scooter", "fusion_lon": 0.0, "rental_uris": {"android": "https://dc.lft.to/lastmile_qr_scan", "ios": "https://dc.lft.to/lastmile_qr_scan"}, "fusion_lat": 0.0, "is_reserved": 0, "bike_id": "7f13ff7f033b3104c5b5613db032cd1d", "name": "7f13ff7f033b3104c5b5613db032cd1d", "lon": -77.01196933333334}, {"lat": 38.86505666666667, "is_disabled": 0, "type": "electric_scooter", "fusion_lon": 0.0, "rental_uris": {"android": "https://dc.lft.to/lastmile_qr_scan", "ios": "https://dc.lft.to/lastmile_qr_scan"}, "fusion_lat": 0.0, "is_reserved": 0, "bike_id": "f4aa88f69a6a707777ed22ed7374410a", "name": "f4aa88f69a6a707777ed22ed7374410a", "lon": -76.99003533333334}, {"lat": 38.949883, "is_disabled": 0, "type": "electric_scooter", "fusion_lon": 0.0, "rental_uris": {"android": "https://dc.lft.to/lastmile_qr_scan", "ios": "https://dc.lft.to/lastmile_qr_scan"}, "fusion_lat": 0.0, "is_reserved": 0, "bike_id": "59ecff0899f586884c028a9b55800128", "name": "59ecff0899f586884c028a9b55800128", "lon": -77.027065}, {"lat": 38.892356, "is_disabled": 0, "type": "electric_scooter", "fusion_lon": 0.0, "rental_uris": {"android": "https://dc.lft.to/lastmile_qr_scan", "ios": "https://dc.lft.to/lastmile_qr_scan"}, "fusion_lat": 0.0, "is_reserved": 0, "bike_id": "abfe73e47a630a0d422335fe32ee38b3", "name": "abfe73e47a630a0d422335fe32ee38b3", "lon": -77.04874233333334}, {"lat": 38.89511483333333, "is_disabled": 0, "type": "electric_scooter", "fusion_lon": 0.0, "rental_uris": {"android": "https://dc.lft.to/lastmile_qr_scan", "ios": "https://dc.lft.to/lastmile_qr_scan"}, "fusion_lat": 0.0, "is_reserved": 0, "bike_id": "7267a35c9067370cf82913ee51508369", "name": "7267a35c9067370cf82913ee51508369", "lon": -76.94882033333333}, {"lat": 38.915673, "is_disabled": 0, "type": "electric_scooter", "fusion_lon": 0.0, "rental_uris": {"android": "https://dc.lft.to/lastmile_qr_scan", "ios": "https://dc.lft.to/lastmile_qr_scan"}, "fusion_lat": 0.0, "is_reserved": 0, "bike_id": "31a2e94eabef05f0e9bbe7e2b1a6e7f1", "name": "31a2e94eabef05f0e9bbe7e2b1a6e7f1", "lon": -77.02387683333333}, {"lat": 38.90645116666666, "is_disabled": 0, "type": "electric_scooter", "fusion_lon": 0.0, "rental_uris": {"android": "https://dc.lft.to/lastmile_qr_scan", "ios": "https://dc.lft.to/lastmile_qr_scan"}, "fusion_lat": 0.0, "is_reserved": 0, "bike_id": "b34fee5c03355563fea75a52c677e679", "name": "b34fee5c03355563fea75a52c677e679", "lon": -77.00576}, {"lat": 38.91867933333333, "is_disabled": 0, "type": "electric_scooter", "fusion_lon": 0.0, "rental_uris": {"android": "https://dc.lft.to/lastmile_qr_scan", "ios": "https://dc.lft.to/lastmile_qr_scan"}, "fusion_lat": 0.0, "is_reserved": 0, "bike_id": "493571f7da89538ad60d17344d121814", "name": "493571f7da89538ad60d17344d121814", "lon": -77.0417245}, {"lat": 38.91790066666667, "is_disabled": 0, "type": "electric_scooter", "fusion_lon": 0.0, "rental_uris": {"android": "https://dc.lft.to/lastmile_qr_scan", "ios": "https://dc.lft.to/lastmile_qr_scan"}, "fusion_lat": 0.0, "is_reserved": 0, "bike_id": "1849d8a6af162f7235ac529738424d6d", "name": "1849d8a6af162f7235ac529738424d6d", "lon": -77.03208083333334}, {"lat": 38.8291815, "is_disabled": 0, "type": "electric_bike", "fusion_lon": 0.0, "rental_uris": {"android": "https://dc.lft.to/lastmile_qr_scan", "ios": "https://dc.lft.to/lastmile_qr_scan"}, "fusion_lat": 0.0, "is_reserved": 0, "bike_id": "bf47af964cb0196cc0687f9af4afc658", "name": "bf47af964cb0196cc0687f9af4afc658", "lon": -76.99793116666666}, {"lat": 38.89369533333333, "is_disabled": 0, "type": "electric_scooter", "fusion_lon": 0.0, "rental_uris": {"android": "https://dc.lft.to/lastmile_qr_scan", "ios": "https://dc.lft.to/lastmile_qr_scan"}, "fusion_lat": 0.0, "is_reserved": 0, "bike_id": "dda9c4245d32094f91b9bc0fb4de2ec6", "name": "dda9c4245d32094f91b9bc0fb4de2ec6", "lon": -76.9499805}, {"lat": 38.966293666666665, "is_disabled": 0, "type": "electric_scooter", "fusion_lon": 0.0, "rental_uris": {"android": "https://dc.lft.to/lastmile_qr_scan", "ios": "https://dc.lft.to/lastmile_qr_scan"}, "fusion_lat": 0.0, "is_reserved": 0, "bike_id": "192b2ff803655d55b4de7b77a9f8e1a6", "name": "192b2ff803655d55b4de7b77a9f8e1a6", "lon": -77.0199605}, {"lat": 38.867469166666666, "is_disabled": 0, "type": "electric_bike", "fusion_lon": 0.0, "rental_uris": {"android": "https://dc.lft.to/lastmile_qr_scan", "ios": "https://dc.lft.to/lastmile_qr_scan"}, "fusion_lat": 0.0, "is_reserved": 0, "bike_id": "1851ab20818cf98f4d5387cb465ec76c", "name": "1851ab20818cf98f4d5387cb465ec76c", "lon": -77.11708933333334}, {"lat": 38.90377083333333, "is_disabled": 0, "type": "electric_scooter", "fusion_lon": 0.0, "rental_uris": {"android": "https://dc.lft.to/lastmile_qr_scan", "ios": "https://dc.lft.to/lastmile_qr_scan"}, "fusion_lat": 0.0, "is_reserved": 0, "bike_id": "568599f280f8d171e297d087f4601789", "name": "568599f280f8d171e297d087f4601789", "lon": -77.04017616666667}, {"lat": 38.940426333333335, "is_disabled": 0, "type": "electric_bike", "fusion_lon": 0.0, "rental_uris": {"android": "https://dc.lft.to/lastmile_qr_scan", "ios": "https://dc.lft.to/lastmile_qr_scan"}, "fusion_lat": 0.0, "is_reserved": 0, "bike_id": "e717db42c0c71cb00b9ef99ac85275d6", "name": "e717db42c0c71cb00b9ef99ac85275d6", "lon": -77.05161916666667}, {"lat": 38.921052, "is_disabled": 0, "type": "electric_scooter", "fusion_lon": 0.0, "rental_uris": {"android": "https://dc.lft.to/lastmile_qr_scan", "ios": "https://dc.lft.to/lastmile_qr_scan"}, "fusion_lat": 0.0, "is_reserved": 0, "bike_id": "4307aea962493a2d3222ff778bfb55e0", "name": "4307aea962493a2d3222ff778bfb55e0", "lon": -77.071898}, {"lat": 38.8966875, "is_disabled": 0, "type": "electric_scooter", "fusion_lon": 0.0, "rental_uris": {"android": "https://dc.lft.to/lastmile_qr_scan", "ios": "https://dc.lft.to/lastmile_qr_scan"}, "fusion_lat": 0.0, "is_reserved": 0, "bike_id": "fbc1e0326c26ca927f62dbe7b27923d4", "name": "fbc1e0326c26ca927f62dbe7b27923d4", "lon": -77.0274295}, {"lat": 38.918121666666664, "is_disabled": 0, "type": "electric_scooter", "fusion_lon": 0.0, "rental_uris": {"android": "https://dc.lft.to/lastmile_qr_scan", "ios": "https://dc.lft.to/lastmile_qr_scan"}, "fusion_lat": 0.0, "is_reserved": 0, "bike_id": "b3e6623ac4db711bf3211b69586ce63f", "name": "b3e6623ac4db711bf3211b69586ce63f", "lon": -77.03436283333333}, {"lat": 38.8883835, "is_disabled": 0, "type": "electric_scooter", "fusion_lon": 0.0, "rental_uris": {"android": "https://dc.lft.to/lastmile_qr_scan", "ios": "https://dc.lft.to/lastmile_qr_scan"}, "fusion_lat": 0.0, "is_reserved": 0, "bike_id": "00d26caf437653a190a5ba0182f7e389", "name": "00d26caf437653a190a5ba0182f7e389", "lon": -77.0491245}, {"lat": 38.9192055, "is_disabled": 0, "type": "electric_scooter", "fusion_lon": 0.0, "rental_uris": {"android": "https://dc.lft.to/lastmile_qr_scan", "ios": "https://dc.lft.to/lastmile_qr_scan"}, "fusion_lat": 0.0, "is_reserved": 0, "bike_id": "55662fb414a73581b32fa63674c4d114", "name": "55662fb414a73581b32fa63674c4d114", "lon": -77.03182683333333}, {"lat": 38.93881916666667, "is_disabled": 0, "type": "electric_scooter", "fusion_lon": 0.0, "rental_uris": {"android": "https://dc.lft.to/lastmile_qr_scan", "ios": "https://dc.lft.to/lastmile_qr_scan"}, "fusion_lat": 0.0, "is_reserved": 0, "bike_id": "a7a785e819d891b1c3cc77d16b5fb2d8", "name": "a7a785e819d891b1c3cc77d16b5fb2d8", "lon": -77.024824}, {"lat": 38.925338333333336, "is_disabled": 0, "type": "electric_scooter", "fusion_lon": 0.0, "rental_uris": {"android": "https://dc.lft.to/lastmile_qr_scan", "ios": "https://dc.lft.to/lastmile_qr_scan"}, "fusion_lat": 0.0, "is_reserved": 0, "bike_id": "dc526ec66f99453d2a69f660481ad446", "name": "dc526ec66f99453d2a69f660481ad446", "lon": -77.0513845}, {"lat": 38.9020385, "is_disabled": 0, "type": "electric_scooter", "fusion_lon": 0.0, "rental_uris": {"android": "https://dc.lft.to/lastmile_qr_scan", "ios": "https://dc.lft.to/lastmile_qr_scan"}, "fusion_lat": 0.0, "is_reserved": 0, "bike_id": "c055cb66104dda4890d793fa6f8823c9", "name": "c055cb66104dda4890d793fa6f8823c9", "lon": -76.978549}, {"lat": 38.8900515, "is_disabled": 0, "type": "electric_scooter", "fusion_lon": 0.0, "rental_uris": {"android": "https://dc.lft.to/lastmile_qr_scan", "ios": "https://dc.lft.to/lastmile_qr_scan"}, "fusion_lat": 0.0, "is_reserved": 0, "bike_id": "2ef3918eba273d61911f524de0641452", "name": "2ef3918eba273d61911f524de0641452", "lon": -76.9589365}, {"lat": 38.9001815, "is_disabled": 0, "type": "electric_scooter", "fusion_lon": 0.0, "rental_uris": {"android": "https://dc.lft.to/lastmile_qr_scan", "ios": "https://dc.lft.to/lastmile_qr_scan"}, "fusion_lat": 0.0, "is_reserved": 0, "bike_id": "0fdec9f0c5ec6ba032a72cef32537b13", "name": "0fdec9f0c5ec6ba032a72cef32537b13", "lon": -77.04499933333334}, {"lat": 38.92069016666667, "is_disabled": 0, "type": "electric_scooter", "fusion_lon": 0.0, "rental_uris": {"android": "https://dc.lft.to/lastmile_qr_scan", "ios": "https://dc.lft.to/lastmile_qr_scan"}, "fusion_lat": 0.0, "is_reserved": 0, "bike_id": "c4fc51ccc83a181373468c49f434ed40", "name": "c4fc51ccc83a181373468c49f434ed40", "lon": -77.00489283333333}, {"lat": 38.93091733333333, "is_disabled": 0, "type": "electric_scooter", "fusion_lon": 0.0, "rental_uris": {"android": "https://dc.lft.to/lastmile_qr_scan", "ios": "https://dc.lft.to/lastmile_qr_scan"}, "fusion_lat": 0.0, "is_reserved": 0, "bike_id": "19d9a2655f7df81e0b93586e9677efbb", "name": "19d9a2655f7df81e0b93586e9677efbb", "lon": -77.00415216666667}, {"lat": 38.85557583333333, "is_disabled": 0, "type": "electric_bike", "fusion_lon": 0.0, "rental_uris": {"android": "https://dc.lft.to/lastmile_qr_scan", "ios": "https://dc.lft.to/lastmile_qr_scan"}, "fusion_lat": 0.0, "is_reserved": 0, "bike_id": "75e2262cc5ab5b472c0168e6717dd5b0", "name": "75e2262cc5ab5b472c0168e6717dd5b0", "lon": -77.107209}, {"lat": 38.913243333333334, "is_disabled": 0, "type": "electric_scooter", "fusion_lon": 0.0, "rental_uris": {"android": "https://dc.lft.to/lastmile_qr_scan", "ios": "https://dc.lft.to/lastmile_qr_scan"}, "fusion_lat": 0.0, "is_reserved": 0, "bike_id": "b70a210d09791a121a335360e3a6a5c5", "name": "b70a210d09791a121a335360e3a6a5c5", "lon": -77.04538683333334}, {"lat": 38.95233183333333, "is_disabled": 0, "type": "electric_scooter", "fusion_lon": 0.0, "rental_uris": {"android": "https://dc.lft.to/lastmile_qr_scan", "ios": "https://dc.lft.to/lastmile_qr_scan"}, "fusion_lat": 0.0, "is_reserved": 0, "bike_id": "08c0b6d9a10703393ad932e478993aaf", "name": "08c0b6d9a10703393ad932e478993aaf", "lon": -77.01426666666667}, {"lat": 38.90534133333333, "is_disabled": 0, "type": "electric_scooter", "fusion_lon": 0.0, "rental_uris": {"android": "https://dc.lft.to/lastmile_qr_scan", "ios": "https://dc.lft.to/lastmile_qr_scan"}, "fusion_lat": 0.0, "is_reserved": 0, "bike_id": "caccd0f679e7bcebe5f2333661130b84", "name": "caccd0f679e7bcebe5f2333661130b84", "lon": -77.03376283333333}, {"lat": 38.917021166666665, "is_disabled": 0, "type": "electric_scooter", "fusion_lon": 0.0, "rental_uris": {"android": "https://dc.lft.to/lastmile_qr_scan", "ios": "https://dc.lft.to/lastmile_qr_scan"}, "fusion_lat": 0.0, "is_reserved": 0, "bike_id": "febceecb2c068c44dca576679d93931d", "name": "febceecb2c068c44dca576679d93931d", "lon": -77.02505766666667}, {"lat": 38.92499866666667, "is_disabled": 0, "type": "electric_scooter", "fusion_lon": 0.0, "rental_uris": {"android": "https://dc.lft.to/lastmile_qr_scan", "ios": "https://dc.lft.to/lastmile_qr_scan"}, "fusion_lat": 0.0, "is_reserved": 0, "bike_id": "a384c86cf2606bb3cb9030c3cf488a24", "name": "a384c86cf2606bb3cb9030c3cf488a24", "lon": -77.052515}, {"lat": 38.923660166666664, "is_disabled": 0, "type": "electric_scooter", "fusion_lon": 0.0, "rental_uris": {"android": "https://dc.lft.to/lastmile_qr_scan", "ios": "https://dc.lft.to/lastmile_qr_scan"}, "fusion_lat": 0.0, "is_reserved": 0, "bike_id": "d8150b4866b16fa721830afa217f1f4e", "name": "d8150b4866b16fa721830afa217f1f4e", "lon": -77.05131183333333}, {"lat": 38.92147816666667, "is_disabled": 0, "type": "electric_scooter", "fusion_lon": 0.0, "rental_uris": {"android": "https://dc.lft.to/lastmile_qr_scan", "ios": "https://dc.lft.to/lastmile_qr_scan"}, "fusion_lat": 0.0, "is_reserved": 0, "bike_id": "0573fc00aa690e5defa495729d102e13", "name": "0573fc00aa690e5defa495729d102e13", "lon": -77.03382166666667}, {"lat": 38.91765733333333, "is_disabled": 0, "type": "electric_scooter", "fusion_lon": 0.0, "rental_uris": {"android": "https://dc.lft.to/lastmile_qr_scan", "ios": "https://dc.lft.to/lastmile_qr_scan"}, "fusion_lat": 0.0, "is_reserved": 0, "bike_id": "c6c510b98bcec9ac619e84165404ec1d", "name": "c6c510b98bcec9ac619e84165404ec1d", "lon": -77.04163316666667}, {"lat": 38.89874666666667, "is_disabled": 0, "type": "electric_scooter", "fusion_lon": 0.0, "rental_uris": {"android": "https://dc.lft.to/lastmile_qr_scan", "ios": "https://dc.lft.to/lastmile_qr_scan"}, "fusion_lat": 0.0, "is_reserved": 0, "bike_id": "ce587758320af19862f9ce73938566e9", "name": "ce587758320af19862f9ce73938566e9", "lon": -77.03234633333334}, {"lat": 38.897225, "is_disabled": 0, "type": "electric_scooter", "fusion_lon": 0.0, "rental_uris": {"android": "https://dc.lft.to/lastmile_qr_scan", "ios": "https://dc.lft.to/lastmile_qr_scan"}, "fusion_lat": 0.0, "is_reserved": 0, "bike_id": "4112747320302e525e9e8a9bd555ea8e", "name": "4112747320302e525e9e8a9bd555ea8e", "lon": -76.983589}, {"lat": 38.90525233333334, "is_disabled": 0, "type": "electric_scooter", "fusion_lon": 0.0, "rental_uris": {"android": "https://dc.lft.to/lastmile_qr_scan", "ios": "https://dc.lft.to/lastmile_qr_scan"}, "fusion_lat": 0.0, "is_reserved": 0, "bike_id": "af2b9fa5b1ccdaa4c09495ce8df0ff08", "name": "af2b9fa5b1ccdaa4c09495ce8df0ff08", "lon": -77.051566}, {"lat": 38.89389, "is_disabled": 0, "type": "electric_scooter", "fusion_lon": 0.0, "rental_uris": {"android": "https://dc.lft.to/lastmile_qr_scan", "ios": "https://dc.lft.to/lastmile_qr_scan"}, "fusion_lat": 0.0, "is_reserved": 0, "bike_id": "bf35535f1e7343d43b14f87c548ed5ef", "name": "bf35535f1e7343d43b14f87c548ed5ef", "lon": -77.02250166666667}, {"lat": 38.899462166666666, "is_disabled": 0, "type": "electric_scooter", "fusion_lon": 0.0, "rental_uris": {"android": "https://dc.lft.to/lastmile_qr_scan", "ios": "https://dc.lft.to/lastmile_qr_scan"}, "fusion_lat": 0.0, "is_reserved": 0, "bike_id": "1ffb6f5f84d5b6f80f4b2b31285efab3", "name": "1ffb6f5f84d5b6f80f4b2b31285efab3", "lon": -77.04717333333333}, {"lat": 38.9205725, "is_disabled": 0, "type": "electric_scooter", "fusion_lon": 0.0, "rental_uris": {"android": "https://dc.lft.to/lastmile_qr_scan", "ios": "https://dc.lft.to/lastmile_qr_scan"}, "fusion_lat": 0.0, "is_reserved": 0, "bike_id": "bd8787f1854490102e0d663ea96378dd", "name": "bd8787f1854490102e0d663ea96378dd", "lon": -77.0346335}, {"lat": 38.887325, "is_disabled": 0, "type": "electric_scooter", "fusion_lon": 0.0, "rental_uris": {"android": "https://dc.lft.to/lastmile_qr_scan", "ios": "https://dc.lft.to/lastmile_qr_scan"}, "fusion_lat": 0.0, "is_reserved": 0, "bike_id": "c2a9c36217cbf3116e04e3c7579c8484", "name": "c2a9c36217cbf3116e04e3c7579c8484", "lon": -77.02833816666667}, {"lat": 38.923558166666666, "is_disabled": 0, "type": "electric_scooter", "fusion_lon": 0.0, "rental_uris": {"android": "https://dc.lft.to/lastmile_qr_scan", "ios": "https://dc.lft.to/lastmile_qr_scan"}, "fusion_lat": 0.0, "is_reserved": 0, "bike_id": "3331d48552bfa7d769581dceb8750098", "name": "3331d48552bfa7d769581dceb8750098", "lon": -77.05274866666667}, {"lat": 38.9019495, "is_disabled": 0, "type": "electric_scooter", "fusion_lon": 0.0, "rental_uris": {"android": "https://dc.lft.to/lastmile_qr_scan", "ios": "https://dc.lft.to/lastmile_qr_scan"}, "fusion_lat": 0.0, "is_reserved": 0, "bike_id": "0ef34916dbeccba18b278d33fe0fa4cc", "name": "0ef34916dbeccba18b278d33fe0fa4cc", "lon": -77.04689683333334}, {"lat": 38.9460105, "is_disabled": 0, "type": "electric_bike", "fusion_lon": 0.0, "rental_uris": {"android": "https://dc.lft.to/lastmile_qr_scan", "ios": "https://dc.lft.to/lastmile_qr_scan"}, "fusion_lat": 0.0, "is_reserved": 0, "bike_id": "e67a923de35934dc5c6ab63f9f357970", "name": "e67a923de35934dc5c6ab63f9f357970", "lon": -77.00713716666667}, {"lat": 38.906965166666666, "is_disabled": 0, "type": "electric_bike", "fusion_lon": 0.0, "rental_uris": {"android": "https://dc.lft.to/lastmile_qr_scan", "ios": "https://dc.lft.to/lastmile_qr_scan"}, "fusion_lat": 0.0, "is_reserved": 0, "bike_id": "f20bcacb55ebf80de9cd88eaf75a7489", "name": "f20bcacb55ebf80de9cd88eaf75a7489", "lon": -76.95254066666666}, {"lat": 38.89602716666667, "is_disabled": 0, "type": "electric_scooter", "fusion_lon": 0.0, "rental_uris": {"android": "https://dc.lft.to/lastmile_qr_scan", "ios": "https://dc.lft.to/lastmile_qr_scan"}, "fusion_lat": 0.0, "is_reserved": 0, "bike_id": "c715a28c13cf471686df5d14ffccdde2", "name": "c715a28c13cf471686df5d14ffccdde2", "lon": -77.0257715}, {"lat": 38.858060333333334, "is_disabled": 0, "type": "electric_scooter", "fusion_lon": 0.0, "rental_uris": {"android": "https://dc.lft.to/lastmile_qr_scan", "ios": "https://dc.lft.to/lastmile_qr_scan"}, "fusion_lat": 0.0, "is_reserved": 0, "bike_id": "55376826ee81436f5af7f8b0253b124a", "name": "55376826ee81436f5af7f8b0253b124a", "lon": -76.9914715}, {"lat": 38.9237235, "is_disabled": 0, "type": "electric_scooter", "fusion_lon": 0.0, "rental_uris": {"android": "https://dc.lft.to/lastmile_qr_scan", "ios": "https://dc.lft.to/lastmile_qr_scan"}, "fusion_lat": 0.0, "is_reserved": 0, "bike_id": "2425e4c35e0c788c38c0aa10a4e06f4a", "name": "2425e4c35e0c788c38c0aa10a4e06f4a", "lon": -77.05067}, {"lat": 38.908893, "is_disabled": 0, "type": "electric_scooter", "fusion_lon": 0.0, "rental_uris": {"android": "https://dc.lft.to/lastmile_qr_scan", "ios": "https://dc.lft.to/lastmile_qr_scan"}, "fusion_lat": 0.0, "is_reserved": 0, "bike_id": "046538e7add909e97bdd8e11fcb8e232", "name": "046538e7add909e97bdd8e11fcb8e232", "lon": -77.04334}, {"lat": 38.910780833333334, "is_disabled": 0, "type": "electric_scooter", "fusion_lon": 0.0, "rental_uris": {"android": "https://dc.lft.to/lastmile_qr_scan", "ios": "https://dc.lft.to/lastmile_qr_scan"}, "fusion_lat": 0.0, "is_reserved": 0, "bike_id": "52e40ffbc23222df3beb7c818a232cf2", "name": "52e40ffbc23222df3beb7c818a232cf2", "lon": -77.02204516666667}, {"lat": 38.9360965, "is_disabled": 0, "type": "electric_scooter", "fusion_lon": 0.0, "rental_uris": {"android": "https://dc.lft.to/lastmile_qr_scan", "ios": "https://dc.lft.to/lastmile_qr_scan"}, "fusion_lat": 0.0, "is_reserved": 0, "bike_id": "c776ab4cdca3a32f0da56e3ef0a602c3", "name": "c776ab4cdca3a32f0da56e3ef0a602c3", "lon": -77.05894416666666}, {"lat": 38.916616, "is_disabled": 0, "type": "electric_scooter", "fusion_lon": 0.0, "rental_uris": {"android": "https://dc.lft.to/lastmile_qr_scan", "ios": "https://dc.lft.to/lastmile_qr_scan"}, "fusion_lat": 0.0, "is_reserved": 0, "bike_id": "676c26ed5eb184dae9825176f6ff2a1f", "name": "676c26ed5eb184dae9825176f6ff2a1f", "lon": -77.041869}, {"lat": 38.879857, "is_disabled": 0, "type": "electric_bike", "fusion_lon": 0.0, "rental_uris": {"android": "https://dc.lft.to/lastmile_qr_scan", "ios": "https://dc.lft.to/lastmile_qr_scan"}, "fusion_lat": 0.0, "is_reserved": 0, "bike_id": "67d192398459036a2e9de276de44283c", "name": "67d192398459036a2e9de276de44283c", "lon": -76.98470416666666}, {"lat": 38.928569333333336, "is_disabled": 0, "type": "electric_scooter", "fusion_lon": 0.0, "rental_uris": {"android": "https://dc.lft.to/lastmile_qr_scan", "ios": "https://dc.lft.to/lastmile_qr_scan"}, "fusion_lat": 0.0, "is_reserved": 0, "bike_id": "33f80a3178285775c263085d8a8cf30a", "name": "33f80a3178285775c263085d8a8cf30a", "lon": -77.0141855}, {"lat": 38.900111, "is_disabled": 0, "type": "electric_scooter", "fusion_lon": 0.0, "rental_uris": {"android": "https://dc.lft.to/lastmile_qr_scan", "ios": "https://dc.lft.to/lastmile_qr_scan"}, "fusion_lat": 0.0, "is_reserved": 0, "bike_id": "53df4fe9fb4cfb660d98ceb0ea24efc2", "name": "53df4fe9fb4cfb660d98ceb0ea24efc2", "lon": -77.04035433333334}, {"lat": 38.879147333333336, "is_disabled": 0, "type": "electric_bike", "fusion_lon": 0.0, "rental_uris": {"android": "https://dc.lft.to/lastmile_qr_scan", "ios": "https://dc.lft.to/lastmile_qr_scan"}, "fusion_lat": 0.0, "is_reserved": 0, "bike_id": "0db3fe03295adb6c10e6e4ef2ba072a9", "name": "0db3fe03295adb6c10e6e4ef2ba072a9", "lon": -77.00768933333333}, {"lat": 38.918373, "is_disabled": 0, "type": "electric_scooter", "fusion_lon": 0.0, "rental_uris": {"android": "https://dc.lft.to/lastmile_qr_scan", "ios": "https://dc.lft.to/lastmile_qr_scan"}, "fusion_lat": 0.0, "is_reserved": 0, "bike_id": "9dbb2eb0d7dee0e64dcbe8a054c22636", "name": "9dbb2eb0d7dee0e64dcbe8a054c22636", "lon": -77.03935316666667}, {"lat": 38.92317, "is_disabled": 0, "type": "electric_scooter", "fusion_lon": 0.0, "rental_uris": {"android": "https://dc.lft.to/lastmile_qr_scan", "ios": "https://dc.lft.to/lastmile_qr_scan"}, "fusion_lat": 0.0, "is_reserved": 0, "bike_id": "f472ffd8baa41ae68fec010eae529dce", "name": "f472ffd8baa41ae68fec010eae529dce", "lon": -77.03804883333333}, {"lat": 38.920606166666666, "is_disabled": 0, "type": "electric_scooter", "fusion_lon": 0.0, "rental_uris": {"android": "https://dc.lft.to/lastmile_qr_scan", "ios": "https://dc.lft.to/lastmile_qr_scan"}, "fusion_lat": 0.0, "is_reserved": 0, "bike_id": "6aac5316828894ac4d0a592f920b6570", "name": "6aac5316828894ac4d0a592f920b6570", "lon": -77.03229116666667}, {"lat": 38.91478133333333, "is_disabled": 0, "type": "electric_scooter", "fusion_lon": 0.0, "rental_uris": {"android": "https://dc.lft.to/lastmile_qr_scan", "ios": "https://dc.lft.to/lastmile_qr_scan"}, "fusion_lat": 0.0, "is_reserved": 0, "bike_id": "6840253cf55c43dbdd1aaa8907d0e68c", "name": "6840253cf55c43dbdd1aaa8907d0e68c", "lon": -77.0258195}, {"lat": 38.93978216666667, "is_disabled": 0, "type": "electric_scooter", "fusion_lon": 0.0, "rental_uris": {"android": "https://dc.lft.to/lastmile_qr_scan", "ios": "https://dc.lft.to/lastmile_qr_scan"},