{"data": {"bikes": [{"lon": -77.03853366666667, "rental_uris": {"android": "https://dc.lft.to/lastmile_qr_scan", "ios": "https://dc.lft.to/lastmile_qr_scan"}, "fusion_lon": 0.0, "is_reserved": 0, "is_disabled": 0, "fusion_lat": 0.0, "type": "electric_scooter", "name": "c352824162a6eda615462f7695506a08", "lat": 38.902559833333335, "bike_id": "c352824162a6eda615462f7695506a08"}, {"lon": -77.06982766666667, "rental_uris": {"android": "https://dc.lft.to/lastmile_qr_scan", "ios": "https://dc.lft.to/lastmile_qr_scan"}, "fusion_lon": 0.0, "is_reserved": 0, "is_disabled": 0, "fusion_lat": 0.0, "type": "electric_scooter", "name": "947af418de50c1d1f028fab07e592d5b", "lat": 38.95519, "bike_id": "947af418de50c1d1f028fab07e592d5b"}, {"lon": -77.0237285, "rental_uris": {"android": "https://dc.lft.to/lastmile_qr_scan", "ios": "https://dc.lft.to/lastmile_qr_scan"}, "fusion_lon": 0.0, "is_reserved": 0, "is_disabled": 0, "fusion_lat": 0.0, "type": "electric_scooter", "name": "db3f23654cd3aea31ff52865b5da735f", "lat": 38.90192116666667, "bike_id": "db3f23654cd3aea31ff52865b5da735f"}, {"lon": -77.019681, "rental_uris": {"android": "https://dc.lft.to/lastmile_qr_scan", "ios": "https://dc.lft.to/lastmile_qr_scan"}, "fusion_lon": 0.0, "is_reserved": 0, "is_disabled": 0, "fusion_lat": 0.0, "type": "electric_scooter", "name": "7db0f799cc84771e8e7b8215cbc839c4", "lat": 38.91902283333334, "bike_id": "7db0f799cc84771e8e7b8215cbc839c4"}, {"lon": -76.98731066666667, "rental_uris": {"android": "https://dc.lft.to/lastmile_qr_scan", "ios": "https://dc.lft.to/lastmile_qr_scan"}, "fusion_lon": 0.0, "is_reserved": 0, "is_disabled": 0, "fusion_lat": 0.0, "type": "electric_scooter", "name": "fe1a6d0cf9aafc076dee0b44668122f7", "lat": 38.90357233333334, "bike_id": "fe1a6d0cf9aafc076dee0b44668122f7"}, {"lon": -77.021538, "rental_uris": {"android": "https://dc.lft.to/lastmile_qr_scan", "ios": "https://dc.lft.to/lastmile_qr_scan"}, "fusion_lon": 0.0, "is_reserved": 0, "is_disabled": 0, "fusion_lat": 0.0, "type": "electric_scooter", "name": "21742d7c66a127391f6a3ddf1fe580ff", "lat": 38.924563666666664, "bike_id": "21742d7c66a127391f6a3ddf1fe580ff"}, {"lon": -77.03663616666667, "rental_uris": {"android": "https://dc.lft.to/lastmile_qr_scan", "ios": "https://dc.lft.to/lastmile_qr_scan"}, "fusion_lon": 0.0, "is_reserved": 0, "is_disabled": 0, "fusion_lat": 0.0, "type": "electric_scooter", "name": "d12eb0dbc723a1d12ec8d3d77b0b87b7", "lat": 38.93203316666666, "bike_id": "d12eb0dbc723a1d12ec8d3d77b0b87b7"}, {"lon": -77.01164983333334, "rental_uris": {"android": "https://dc.lft.to/lastmile_qr_scan", "ios": "https://dc.lft.to/lastmile_qr_scan"}, "fusion_lon": 0.0, "is_reserved": 0, "is_disabled": 0, "fusion_lat": 0.0, "type": "electric_scooter", "name": "d56ddebdb581d40dff2bbbff68598459", "lat": 38.91914, "bike_id": "d56ddebdb581d40dff2bbbff68598459"}, {"lon": -77.03203716666667, "rental_uris": {"android": "https://dc.lft.to/lastmile_qr_scan", "ios": "https://dc.lft.to/lastmile_qr_scan"}, "fusion_lon": 0.0, "is_reserved": 0, "is_disabled": 0, "fusion_lat": 0.0, "type": "electric_scooter", "name": "e13bd8d88b6567f008c4fa9f780ceca7", "lat": 38.922782, "bike_id": "e13bd8d88b6567f008c4fa9f780ceca7"}, {"lon": -77.01240616666666, "rental_uris": {"android": "https://dc.lft.to/lastmile_qr_scan", "ios": "https://dc.lft.to/lastmile_qr_scan"}, "fusion_lon": 0.0, "is_reserved": 0, "is_disabled": 0, "fusion_lat": 0.0, "type": "electric_scooter", "name": "0f55eec29f047df57fda0455c0218d44", "lat": 38.898437666666666, "bike_id": "0f55eec29f047df57fda0455c0218d44"}, {"lon": -77.02373533333333, "rental_uris": {"android": "https://dc.lft.to/lastmile_qr_scan", "ios": "https://dc.lft.to/lastmile_qr_scan"}, "fusion_lon": 0.0, "is_reserved": 0, "is_disabled": 0, "fusion_lat": 0.0, "type": "electric_scooter", "name": "53d35bb09ed3e2d2fdcfb5e2e32cd3a0", "lat": 38.892143833333336, "bike_id": "53d35bb09ed3e2d2fdcfb5e2e32cd3a0"}, {"lon": -77.05014283333334, "rental_uris": {"android": "https://dc.lft.to/lastmile_qr_scan", "ios": "https://dc.lft.to/lastmile_qr_scan"}, "fusion_lon": 0.0, "is_reserved": 0, "is_disabled": 0, "fusion_lat": 0.0, "type": "electric_scooter", "name": "7d8181e765da6aac4c5e4f79efdeedaa", "lat": 38.90609516666667, "bike_id": "7d8181e765da6aac4c5e4f79efdeedaa"}, {"lon": -77.00724, "rental_uris": {"android": "https://dc.lft.to/lastmile_qr_scan", "ios": "https://dc.lft.to/lastmile_qr_scan"}, "fusion_lon": 0.0, "is_reserved": 0, "is_disabled": 0, "fusion_lat": 0.0, "type": "electric_scooter", "name": "b7be334797e00527e9bb7b8e6f0df39a", "lat": 38.90550783333333, "bike_id": "b7be334797e00527e9bb7b8e6f0df39a"}, {"lon": -77.02783266666667, "rental_uris": {"android": "https://dc.lft.to/lastmile_qr_scan", "ios": "https://dc.lft.to/lastmile_qr_scan"}, "fusion_lon": 0.0, "is_reserved": 0, "is_disabled": 0, "fusion_lat": 0.0, "type": "electric_scooter", "name": "4694c3f0b602fe19f23f9ac2f638dc39", "lat": 38.973488, "bike_id": "4694c3f0b602fe19f23f9ac2f638dc39"}, {"lon": -77.03830366666666, "rental_uris": {"android": "https://dc.lft.to/lastmile_qr_scan", "ios": "https://dc.lft.to/lastmile_qr_scan"}, "fusion_lon": 0.0, "is_reserved": 0, "is_disabled": 0, "fusion_lat": 0.0, "type": "electric_scooter", "name": "93c12b03441f9835ec6171286fe0f6eb", "lat": 38.945032, "bike_id": "93c12b03441f9835ec6171286fe0f6eb"}, {"lon": -77.04678083333333, "rental_uris": {"android": "https://dc.lft.to/lastmile_qr_scan", "ios": "https://dc.lft.to/lastmile_qr_scan"}, "fusion_lon": 0.0, "is_reserved": 0, "is_disabled": 0, "fusion_lat": 0.0, "type": "electric_scooter", "name": "110759dd395c1f5d2ae9bce3d413bef9", "lat": 38.89506466666667, "bike_id": "110759dd395c1f5d2ae9bce3d413bef9"}, {"lon": -77.03824083333333, "rental_uris": {"android": "https://dc.lft.to/lastmile_qr_scan", "ios": "https://dc.lft.to/lastmile_qr_scan"}, "fusion_lon": 0.0, "is_reserved": 0, "is_disabled": 0, "fusion_lat": 0.0, "type": "electric_scooter", "name": "9c299227614b3abcbf7651f42ce8ad34", "lat": 38.906738, "bike_id": "9c299227614b3abcbf7651f42ce8ad34"}, {"lon": -77.03172816666667, "rental_uris": {"android": "https://dc.lft.to/lastmile_qr_scan", "ios": "https://dc.lft.to/lastmile_qr_scan"}, "fusion_lon": 0.0, "is_reserved": 0, "is_disabled": 0, "fusion_lat": 0.0, "type": "electric_scooter", "name": "a2dabbd5b4bc866aed3f9904b6f9eae0", "lat": 38.89212766666667, "bike_id": "a2dabbd5b4bc866aed3f9904b6f9eae0"}, {"lon": -76.97522416666666, "rental_uris": {"android": "https://dc.lft.to/lastmile_qr_scan", "ios": "https://dc.lft.to/lastmile_qr_scan"}, "fusion_lon": 0.0, "is_reserved": 0, "is_disabled": 0, "fusion_lat": 0.0, "type": "electric_bike", "name": "fafab685e9f0dfd6aa9a5438359f3044", "lat": 38.8400245, "bike_id": "fafab685e9f0dfd6aa9a5438359f3044"}, {"lon": -77.02259366666667, "rental_uris": {"android": "https://dc.lft.to/lastmile_qr_scan", "ios": "https://dc.lft.to/lastmile_qr_scan"}, "fusion_lon": 0.0, "is_reserved": 0, "is_disabled": 0, "fusion_lat": 0.0, "type": "electric_scooter", "name": "97648862e5629d21d0f1173ab3ba5b51", "lat": 38.92894583333333, "bike_id": "97648862e5629d21d0f1173ab3ba5b51"}, {"lon": -77.03657766666667, "rental_uris": {"android": "https://dc.lft.to/lastmile_qr_scan", "ios": "https://dc.lft.to/lastmile_qr_scan"}, "fusion_lon": 0.0, "is_reserved": 0, "is_disabled": 0, "fusion_lat": 0.0, "type": "electric_scooter", "name": "4bdbad4465b6039bdb9ce9006712f7f6", "lat": 38.91300616666667, "bike_id": "4bdbad4465b6039bdb9ce9006712f7f6"}, {"lon": -77.0313885, "rental_uris": {"android": "https://dc.lft.to/lastmile_qr_scan", "ios": "https://dc.lft.to/lastmile_qr_scan"}, "fusion_lon": 0.0, "is_reserved": 0, "is_disabled": 0, "fusion_lat": 0.0, "type": "electric_scooter", "name": "98f493528b2ba51f85ff4fba836194ee", "lat": 38.90269966666666, "bike_id": "98f493528b2ba51f85ff4fba836194ee"}, {"lon": -77.02697966666666, "rental_uris": {"android": "https://dc.lft.to/lastmile_qr_scan", "ios": "https://dc.lft.to/lastmile_qr_scan"}, "fusion_lon": 0.0, "is_reserved": 0, "is_disabled": 0, "fusion_lat": 0.0, "type": "electric_scooter", "name": "5c9ec385936298e96204edb8bebdacf9", "lat": 38.92400083333333, "bike_id": "5c9ec385936298e96204edb8bebdacf9"}, {"lon": -77.021824, "rental_uris": {"android": "https://dc.lft.to/lastmile_qr_scan", "ios": "https://dc.lft.to/lastmile_qr_scan"}, "fusion_lon": 0.0, "is_reserved": 0, "is_disabled": 0, "fusion_lat": 0.0, "type": "electric_bike", "name": "12f6d1ec8afa80c212ace4c14bac8b88", "lat": 39.00477933333333, "bike_id": "12f6d1ec8afa80c212ace4c14bac8b88"}, {"lon": -77.04027283333333, "rental_uris": {"android": "https://dc.lft.to/lastmile_qr_scan", "ios": "https://dc.lft.to/lastmile_qr_scan"}, "fusion_lon": 0.0, "is_reserved": 0, "is_disabled": 0, "fusion_lat": 0.0, "type": "electric_scooter", "name": "47c6320dadeb5fbef99f98c03ee06eac", "lat": 38.9015135, "bike_id": "47c6320dadeb5fbef99f98c03ee06eac"}, {"lon": -76.96505933333333, "rental_uris": {"android": "https://dc.lft.to/lastmile_qr_scan", "ios": "https://dc.lft.to/lastmile_qr_scan"}, "fusion_lon": 0.0, "is_reserved": 0, "is_disabled": 0, "fusion_lat": 0.0, "type": "electric_scooter", "name": "a3d96557bb90237926f41f555e38eb39", "lat": 38.876446, "bike_id": "a3d96557bb90237926f41f555e38eb39"}, {"lon": -77.05123916666666, "rental_uris": {"android": "https://dc.lft.to/lastmile_qr_scan", "ios": "https://dc.lft.to/lastmile_qr_scan"}, "fusion_lon": 0.0, "is_reserved": 0, "is_disabled": 0, "fusion_lat": 0.0, "type": "electric_scooter", "name": "6a7945ea7b82bd7f6748e703a0183d0a", "lat": 38.906253166666666, "bike_id": "6a7945ea7b82bd7f6748e703a0183d0a"}, {"lon": -76.93479716666667, "rental_uris": {"android": "https://dc.lft.to/lastmile_qr_scan", "ios": "https://dc.lft.to/lastmile_qr_scan"}, "fusion_lon": 0.0, "is_reserved": 0, "is_disabled": 0, "fusion_lat": 0.0, "type": "electric_bike", "name": "92fffb1a43bda9b71fc12e5b3889f459", "lat": 38.890956833333334, "bike_id": "92fffb1a43bda9b71fc12e5b3889f459"}, {"lon": -77.01963866666667, "rental_uris": {"android": "https://dc.lft.to/lastmile_qr_scan", "ios": "https://dc.lft.to/lastmile_qr_scan"}, "fusion_lon": 0.0, "is_reserved": 0, "is_disabled": 0, "fusion_lat": 0.0, "type": "electric_scooter", "name": "604da39b2a53ccae938b5b1174708dbf", "lat": 38.956518333333335, "bike_id": "604da39b2a53ccae938b5b1174708dbf"}, {"lon": -77.02988, "rental_uris": {"android": "https://dc.lft.to/lastmile_qr_scan", "ios": "https://dc.lft.to/lastmile_qr_scan"}, "fusion_lon": 0.0, "is_reserved": 0, "is_disabled": 0, "fusion_lat": 0.0, "type": "electric_scooter", "name": "d6c441c505e31d6d3f2be2bc2619166f", "lat": 38.9073365, "bike_id": "d6c441c505e31d6d3f2be2bc2619166f"}, {"lon": -77.03297716666667, "rental_uris": {"android": "https://dc.lft.to/lastmile_qr_scan", "ios": "https://dc.lft.to/lastmile_qr_scan"}, "fusion_lon": 0.0, "is_reserved": 0, "is_disabled": 0, "fusion_lat": 0.0, "type": "electric_scooter", "name": "ee98221aaef25ac2651d08985dc85ea1", "lat": 38.92879966666667, "bike_id": "ee98221aaef25ac2651d08985dc85ea1"}, {"lon": -77.0213155, "rental_uris": {"android": "https://dc.lft.to/lastmile_qr_scan", "ios": "https://dc.lft.to/lastmile_qr_scan"}, "fusion_lon": 0.0, "is_reserved": 0, "is_disabled": 0, "fusion_lat": 0.0, "type": "electric_scooter", "name": "a51e1cdcef3b3c04a83abec002d24cde", "lat": 38.9376095, "bike_id": "a51e1cdcef3b3c04a83abec002d24cde"}, {"lon": -77.02382733333333, "rental_uris": {"android": "https://dc.lft.to/lastmile_qr_scan", "ios": "https://dc.lft.to/lastmile_qr_scan"}, "fusion_lon": 0.0, "is_reserved": 0, "is_disabled": 0, "fusion_lat": 0.0, "type": "electric_scooter", "name": "936ca2c8146d04abdcbf7a08f6618784", "lat": 38.8873025, "bike_id": "936ca2c8146d04abdcbf7a08f6618784"}, {"lon": -77.02779766666667, "rental_uris": {"android": "https://dc.lft.to/lastmile_qr_scan", "ios": "https://dc.lft.to/lastmile_qr_scan"}, "fusion_lon": 0.0, "is_reserved": 0, "is_disabled": 0, "fusion_lat": 0.0, "type": "electric_scooter", "name": "b8bc1f90a2fc6882f4cb5d907cf2413f", "lat": 38.892158333333334, "bike_id": "b8bc1f90a2fc6882f4cb5d907cf2413f"}, {"lon": -77.00929483333333, "rental_uris": {"android": "https://dc.lft.to/lastmile_qr_scan", "ios": "https://dc.lft.to/lastmile_qr_scan"}, "fusion_lon": 0.0, "is_reserved": 0, "is_disabled": 0, "fusion_lat": 0.0, "type": "electric_scooter", "name": "74b354248e148182a312d0d12b384265", "lat": 38.8960815, "bike_id": "74b354248e148182a312d0d12b384265"}, {"lon": -77.0236375, "rental_uris": {"android": "https://dc.lft.to/lastmile_qr_scan", "ios": "https://dc.lft.to/lastmile_qr_scan"}, "fusion_lon": 0.0, "is_reserved": 0, "is_disabled": 0, "fusion_lat": 0.0, "type": "electric_scooter", "name": "0f032b27fd531c174b8c5a5dd45d7f9c", "lat": 38.92058933333333, "bike_id": "0f032b27fd531c174b8c5a5dd45d7f9c"}, {"lon": -77.03545116666666, "rental_uris": {"android": "https://dc.lft.to/lastmile_qr_scan", "ios": "https://dc.lft.to/lastmile_qr_scan"}, "fusion_lon": 0.0, "is_reserved": 0, "is_disabled": 0, "fusion_lat": 0.0, "type": "electric_scooter", "name": "d1831e349e25c66aef6426a605c16d00", "lat": 38.925755833333334, "bike_id": "d1831e349e25c66aef6426a605c16d00"}, {"lon": -77.04386783333334, "rental_uris": {"android": "https://dc.lft.to/lastmile_qr_scan", "ios": "https://dc.lft.to/lastmile_qr_scan"}, "fusion_lon": 0.0, "is_reserved": 0, "is_disabled": 0, "fusion_lat": 0.0, "type": "electric_scooter", "name": "7e5038cd2e543585f37a3eeb7b739c86", "lat": 38.903783, "bike_id": "7e5038cd2e543585f37a3eeb7b739c86"}, {"lon": -77.032069, "rental_uris": {"android": "https://dc.lft.to/lastmile_qr_scan", "ios": "https://dc.lft.to/lastmile_qr_scan"}, "fusion_lon": 0.0, "is_reserved": 0, "is_disabled": 0, "fusion_lat": 0.0, "type": "electric_scooter", "name": "1dca3ba021fc6fe2e426427641be891c", "lat": 38.911229166666665, "bike_id": "1dca3ba021fc6fe2e426427641be891c"}, {"lon": -77.04162416666667, "rental_uris": {"android": "https://dc.lft.to/lastmile_qr_scan", "ios": "https://dc.lft.to/lastmile_qr_scan"}, "fusion_lon": 0.0, "is_reserved": 0, "is_disabled": 0, "fusion_lat": 0.0, "type": "electric_scooter", "name": "e1b38ed52d0159d30250182569a76891", "lat": 38.90494833333333, "bike_id": "e1b38ed52d0159d30250182569a76891"}, {"lon": -77.02174266666667, "rental_uris": {"android": "https://dc.lft.to/lastmile_qr_scan", "ios": "https://dc.lft.to/lastmile_qr_scan"}, "fusion_lon": 0.0, "is_reserved": 0, "is_disabled": 0, "fusion_lat": 0.0, "type": "electric_scooter", "name": "7b5375bb5afd181affade46b215955a4", "lat": 38.898647833333335, "bike_id": "7b5375bb5afd181affade46b215955a4"}, {"lon": -77.04634733333333, "rental_uris": {"android": "https://dc.lft.to/lastmile_qr_scan", "ios": "https://dc.lft.to/lastmile_qr_scan"}, "fusion_lon": 0.0, "is_reserved": 0, "is_disabled": 0, "fusion_lat": 0.0, "type": "electric_scooter", "name": "6142ddfeadb83c6e7717b9875de3aa0d", "lat": 38.9036165, "bike_id": "6142ddfeadb83c6e7717b9875de3aa0d"}, {"lon": -77.018255, "rental_uris": {"android": "https://dc.lft.to/lastmile_qr_scan", "ios": "https://dc.lft.to/lastmile_qr_scan"}, "fusion_lon": 0.0, "is_reserved": 0, "is_disabled": 0, "fusion_lat": 0.0, "type": "electric_scooter", "name": "9017cb9fef176202eadad7adea591583", "lat": 38.92259716666667, "bike_id": "9017cb9fef176202eadad7adea591583"}, {"lon": -77.04646716666667, "rental_uris": {"android": "https://dc.lft.to/lastmile_qr_scan", "ios": "https://dc.lft.to/lastmile_qr_scan"}, "fusion_lon": 0.0, "is_reserved": 0, "is_disabled": 0, "fusion_lat": 0.0, "type": "electric_scooter", "name": "2c24093440efc7e637dd98e1c501eb8e", "lat": 38.910233166666664, "bike_id": "2c24093440efc7e637dd98e1c501eb8e"}, {"lon": -77.047061, "rental_uris": {"android": "https://dc.lft.to/lastmile_qr_scan", "ios": "https://dc.lft.to/lastmile_qr_scan"}, "fusion_lon": 0.0, "is_reserved": 0, "is_disabled": 0, "fusion_lat": 0.0, "type": "electric_bike", "name": "22b2ce976bd6de5097d409446606b81c", "lat": 38.99773283333333, "bike_id": "22b2ce976bd6de5097d409446606b81c"}, {"lon": -77.002893, "rental_uris": {"android": "https://dc.lft.to/lastmile_qr_scan", "ios": "https://dc.lft.to/lastmile_qr_scan"}, "fusion_lon": 0.0, "is_reserved": 0, "is_disabled": 0, "fusion_lat": 0.0, "type": "electric_scooter", "name": "3e760e1804bae6df75e6f07330b051b4", "lat": 38.8922695, "bike_id": "3e760e1804bae6df75e6f07330b051b4"}, {"lon": -77.045272, "rental_uris": {"android": "https://dc.lft.to/lastmile_qr_scan", "ios": "https://dc.lft.to/lastmile_qr_scan"}, "fusion_lon": 0.0, "is_reserved": 0, "is_disabled": 0, "fusion_lat": 0.0, "type": "electric_scooter", "name": "ceeb3fa86315dea77c6ff22a225c0bed", "lat": 38.90112383333334, "bike_id": "ceeb3fa86315dea77c6ff22a225c0bed"}, {"lon": -76.97329616666667, "rental_uris": {"android": "https://dc.lft.to/lastmile_qr_scan", "ios": "https://dc.lft.to/lastmile_qr_scan"}, "fusion_lon": 0.0, "is_reserved": 0, "is_disabled": 0, "fusion_lat": 0.0, "type": "electric_scooter", "name": "c67c7b1859855d932974c4fa93c5570f", "lat": 38.90411, "bike_id": "c67c7b1859855d932974c4fa93c5570f"}, {"lon": -77.029476, "rental_uris": {"android": "https://dc.lft.to/lastmile_qr_scan", "ios": "https://dc.lft.to/lastmile_qr_scan"}, "fusion_lon": 0.0, "is_reserved": 0, "is_disabled": 0, "fusion_lat": 0.0, "type": "electric_scooter", "name": "8d5a76c1b21c4d6ce5389d0026ecc5ff", "lat": 38.88392266666666, "bike_id": "8d5a76c1b21c4d6ce5389d0026ecc5ff"}, {"lon": -77.04082266666667, "rental_uris": {"android": "https://dc.lft.to/lastmile_qr_scan", "ios": "https://dc.lft.to/lastmile_qr_scan"}, "fusion_lon": 0.0, "is_reserved": 0, "is_disabled": 0, "fusion_lat": 0.0, "type": "electric_scooter", "name": "7533192923f0154aaba3db557a97ab3d", "lat": 38.9327905, "bike_id": "7533192923f0154aaba3db557a97ab3d"}, {"lon": -76.9845165, "rental_uris": {"android": "https://dc.lft.to/lastmile_qr_scan", "ios": "https://dc.lft.to/lastmile_qr_scan"}, "fusion_lon": 0.0, "is_reserved": 0, "is_disabled": 0, "fusion_lat": 0.0, "type": "electric_scooter", "name": "8f0358fac20b2d8d3ff35c12488ee268", "lat": 38.91425516666666, "bike_id": "8f0358fac20b2d8d3ff35c12488ee268"}, {"lon": -77.0298315, "rental_uris": {"android": "https://dc.lft.to/lastmile_qr_scan", "ios": "https://dc.lft.to/lastmile_qr_scan"}, "fusion_lon": 0.0, "is_reserved": 0, "is_disabled": 0, "fusion_lat": 0.0, "type": "electric_scooter", "name": "f561203f5eb0cce851ca05435eb1134e", "lat": 38.94978033333334, "bike_id": "f561203f5eb0cce851ca05435eb1134e"}, {"lon": -77.0293925, "rental_uris": {"android": "https://dc.lft.to/lastmile_qr_scan", "ios": "https://dc.lft.to/lastmile_qr_scan"}, "fusion_lon": 0.0, "is_reserved": 0, "is_disabled": 0, "fusion_lat": 0.0, "type": "electric_scooter", "name": "3bd0f942c8d3617b2c945bcdc6f5ef79", "lat": 38.9428095, "bike_id": "3bd0f942c8d3617b2c945bcdc6f5ef79"}, {"lon": -77.03180933333333, "rental_uris": {"android": "https://dc.lft.to/lastmile_qr_scan", "ios": "https://dc.lft.to/lastmile_qr_scan"}, "fusion_lon": 0.0, "is_reserved": 0, "is_disabled": 0, "fusion_lat": 0.0, "type": "electric_scooter", "name": "341b96488851e9b92617e8ce27d9a9f6", "lat": 38.8873375, "bike_id": "341b96488851e9b92617e8ce27d9a9f6"}, {"lon": -77.0399085, "rental_uris": {"android": "https://dc.lft.to/lastmile_qr_scan", "ios": "https://dc.lft.to/lastmile_qr_scan"}, "fusion_lon": 0.0, "is_reserved": 0, "is_disabled": 0, "fusion_lat": 0.0, "type": "electric_scooter", "name": "23228d5e1076a0d14e14cf8bf6f76523", "lat": 38.93428333333333, "bike_id": "23228d5e1076a0d14e14cf8bf6f76523"}, {"lon": -77.06528566666667, "rental_uris": {"android": "https://dc.lft.to/lastmile_qr_scan", "ios": "https://dc.lft.to/lastmile_qr_scan"}, "fusion_lon": 0.0, "is_reserved": 0, "is_disabled": 0, "fusion_lat": 0.0, "type": "electric_scooter", "name": "8a1ca527c9c9489c798af1ae16826faa", "lat": 38.92413066666667, "bike_id": "8a1ca527c9c9489c798af1ae16826faa"}, {"lon": -77.01948333333333, "rental_uris": {"android": "https://dc.lft.to/lastmile_qr_scan", "ios": "https://dc.lft.to/lastmile_qr_scan"}, "fusion_lon": 0.0, "is_reserved": 0, "is_disabled": 0, "fusion_lat": 0.0, "type": "electric_scooter", "name": "3959d94b608b1e1c2dc1288f5a02b48a", "lat": 38.92424883333333, "bike_id": "3959d94b608b1e1c2dc1288f5a02b48a"}, {"lon": -77.01220366666666, "rental_uris": {"android": "https://dc.lft.to/lastmile_qr_scan", "ios": "https://dc.lft.to/lastmile_qr_scan"}, "fusion_lon": 0.0, "is_reserved": 0, "is_disabled": 0, "fusion_lat": 0.0, "type": "electric_scooter", "name": "5b02b8f2acf1b15e9e1ed9059b75672b", "lat": 38.92026283333333, "bike_id": "5b02b8f2acf1b15e9e1ed9059b75672b"}, {"lon": -76.989535, "rental_uris": {"android": "https://dc.lft.to/lastmile_qr_scan", "ios": "https://dc.lft.to/lastmile_qr_scan"}, "fusion_lon": 0.0, "is_reserved": 0, "is_disabled": 0, "fusion_lat": 0.0, "type": "electric_bike", "name": "6c8330d5d20fda2c61a1cff51d81eb6f", "lat": 38.8673345, "bike_id": "6c8330d5d20fda2c61a1cff51d81eb6f"}, {"lon": -77.0223615, "rental_uris": {"android": "https://dc.lft.to/lastmile_qr_scan", "ios": "https://dc.lft.to/lastmile_qr_scan"}, "fusion_lon": 0.0, "is_reserved": 0, "is_disabled": 0, "fusion_lat": 0.0, "type": "electric_bike", "name": "d4cfc842a538d4e5f581a2532ca65e60", "lat": 38.96448016666667, "bike_id": "d4cfc842a538d4e5f581a2532ca65e60"}, {"lon": -77.04492316666666, "rental_uris": {"android": "https://dc.lft.to/lastmile_qr_scan", "ios": "https://dc.lft.to/lastmile_qr_scan"}, "fusion_lon": 0.0, "is_reserved": 0, "is_disabled": 0, "fusion_lat": 0.0, "type": "electric_scooter", "name": "f698f99cde22ac5362ade5e04bdacb9c", "lat": 38.919205166666664, "bike_id": "f698f99cde22ac5362ade5e04bdacb9c"}, {"lon": -77.00733433333333, "rental_uris": {"android": "https://dc.lft.to/lastmile_qr_scan", "ios": "https://dc.lft.to/lastmile_qr_scan"}, "fusion_lon": 0.0, "is_reserved": 0, "is_disabled": 0, "fusion_lat": 0.0, "type": "electric_scooter", "name": "88468f8ed20411f7b72de7c6553bea42", "lat": 38.878492333333334, "bike_id": "88468f8ed20411f7b72de7c6553bea42"}, {"lon": -77.00065733333334, "rental_uris": {"android": "https://dc.lft.to/lastmile_qr_scan", "ios": "https://dc.lft.to/lastmile_qr_scan"}, "fusion_lon": 0.0, "is_reserved": 0, "is_disabled": 0, "fusion_lat": 0.0, "type": "electric_scooter", "name": "ec4519655629b960900f376fb80110be", "lat": 38.87681383333333, "bike_id": "ec4519655629b960900f376fb80110be"}, {"lon": -77.0241755, "rental_uris": {"android": "https://dc.lft.to/lastmile_qr_scan", "ios": "https://dc.lft.to/lastmile_qr_scan"}, "fusion_lon": 0.0, "is_reserved": 0, "is_disabled": 0, "fusion_lat": 0.0, "type": "electric_scooter", "name": "889c75d58c1b5dfdefcfb29d080437f1", "lat": 38.89731866666666, "bike_id": "889c75d58c1b5dfdefcfb29d080437f1"}, {"lon": -77.03212583333334, "rental_uris": {"android": "https://dc.lft.to/lastmile_qr_scan", "ios": "https://dc.lft.to/lastmile_qr_scan"}, "fusion_lon": 0.0, "is_reserved": 0, "is_disabled": 0, "fusion_lat": 0.0, "type": "electric_scooter", "name": "352fa3bb00af68719a7f32700caa1087", "lat": 38.90823116666667, "bike_id": "352fa3bb00af68719a7f32700caa1087"}, {"lon": -77.0317515, "rental_uris": {"android": "https://dc.lft.to/lastmile_qr_scan", "ios": "https://dc.lft.to/lastmile_qr_scan"}, "fusion_lon": 0.0, "is_reserved": 0, "is_disabled": 0, "fusion_lat": 0.0, "type": "electric_scooter", "name": "1fb975d8e717cbb0c942f205dc418d02", "lat": 38.901164666666666, "bike_id": "1fb975d8e717cbb0c942f205dc418d02"}, {"lon": -77.04645916666666, "rental_uris": {"android": "https://dc.lft.to/lastmile_qr_scan", "ios": "https://dc.lft.to/lastmile_qr_scan"}, "fusion_lon": 0.0, "is_reserved": 0, "is_disabled": 0, "fusion_lat": 0.0, "type": "electric_scooter", "name": "90bfdd7dea8725e05d1c5f741abdca38", "lat": 38.892228, "bike_id": "90bfdd7dea8725e05d1c5f741abdca38"}, {"lon": -77.04613916666666, "rental_uris": {"android": "https://dc.lft.to/lastmile_qr_scan", "ios": "https://dc.lft.to/lastmile_qr_scan"}, "fusion_lon": 0.0, "is_reserved": 0, "is_disabled": 0, "fusion_lat": 0.0, "type": "electric_scooter", "name": "f8d5aa0fb696edde69deaac12c03c96a", "lat": 38.902323, "bike_id": "f8d5aa0fb696edde69deaac12c03c96a"}, {"lon": -77.04958466666666, "rental_uris": {"android": "https://dc.lft.to/lastmile_qr_scan", "ios": "https://dc.lft.to/lastmile_qr_scan"}, "fusion_lon": 0.0, "is_reserved": 0, "is_disabled": 0, "fusion_lat": 0.0, "type": "electric_scooter", "name": "7e7c77b2be272752676ca87a00cd16e1", "lat": 38.90085766666667, "bike_id": "7e7c77b2be272752676ca87a00cd16e1"}, {"lon": -77.01205733333333, "rental_uris": {"android": "https://dc.lft.to/lastmile_qr_scan", "ios": "https://dc.lft.to/lastmile_qr_scan"}, "fusion_lon": 0.0, "is_reserved": 0, "is_disabled": 0, "fusion_lat": 0.0, "type": "electric_scooter", "name": "ee2f687213a45b6a0395f6e639b6c5c9", "lat": 38.916795666666665, "bike_id": "ee2f687213a45b6a0395f6e639b6c5c9"}, {"lon": -77.03282466666667, "rental_uris": {"android": "https://dc.lft.to/lastmile_qr_scan", "ios": "https://dc.lft.to/lastmile_qr_scan"}, "fusion_lon": 0.0, "is_reserved": 0, "is_disabled": 0, "fusion_lat": 0.0, "type": "electric_scooter", "name": "663a3de4ba5fdc2597ca3be858e81eb1", "lat": 38.937572, "bike_id": "663a3de4ba5fdc2597ca3be858e81eb1"}, {"lon": -77.0435445, "rental_uris": {"android": "https://dc.lft.to/lastmile_qr_scan", "ios": "https://dc.lft.to/lastmile_qr_scan"}, "fusion_lon": 0.0, "is_reserved": 0, "is_disabled": 0, "fusion_lat": 0.0, "type": "electric_scooter", "name": "9388fcfeefa051c29df1bda6ca00e075", "lat": 38.902386, "bike_id": "9388fcfeefa051c29df1bda6ca00e075"}, {"lon": -77.07039533333334, "rental_uris": {"android": "https://dc.lft.to/lastmile_qr_scan", "ios": "https://dc.lft.to/lastmile_qr_scan"}, "fusion_lon": 0.0, "is_reserved": 0, "is_disabled": 0, "fusion_lat": 0.0, "type": "electric_scooter", "name": "cfb67921c5e0822c8df3997551fd1192", "lat": 38.907688666666665, "bike_id": "cfb67921c5e0822c8df3997551fd1192"}, {"lon": -76.96705916666667, "rental_uris": {"android": "https://dc.lft.to/lastmile_qr_scan", "ios": "https://dc.lft.to/lastmile_qr_scan"}, "fusion_lon": 0.0, "is_reserved": 0, "is_disabled": 0, "fusion_lat": 0.0, "type": "electric_scooter", "name": "ded91c57ab6e8b8de923ff204d92a4e5", "lat": 38.8601295, "bike_id": "ded91c57ab6e8b8de923ff204d92a4e5"}, {"lon": -77.04869566666666, "rental_uris": {"android": "https://dc.lft.to/lastmile_qr_scan", "ios": "https://dc.lft.to/lastmile_qr_scan"}, "fusion_lon": 0.0, "is_reserved": 0, "is_disabled": 0, "fusion_lat": 0.0, "type": "electric_scooter", "name": "db458437a348c548a1d1a858250133f5", "lat": 38.89220433333333, "bike_id": "db458437a348c548a1d1a858250133f5"}, {"lon": -77.027118, "rental_uris": {"android": "https://dc.lft.to/lastmile_qr_scan", "ios": "https://dc.lft.to/lastmile_qr_scan"}, "fusion_lon": 0.0, "is_reserved": 0, "is_disabled": 0, "fusion_lat": 0.0, "type": "electric_scooter", "name": "ecc2464c3bfe84739d31441032d4b99f", "lat": 38.897548, "bike_id": "ecc2464c3bfe84739d31441032d4b99f"}, {"lon": -77.0453985, "rental_uris": {"android": "https://dc.lft.to/lastmile_qr_scan", "ios": "https://dc.lft.to/lastmile_qr_scan"}, "fusion_lon": 0.0, "is_reserved": 0, "is_disabled": 0, "fusion_lat": 0.0, "type": "electric_scooter", "name": "6f92693468f9c309eb1094255b3acce6", "lat": 38.91112316666667, "bike_id": "6f92693468f9c309eb1094255b3acce6"}, {"lon": -77.03769116666666, "rental_uris": {"android": "https://dc.lft.to/lastmile_qr_scan", "ios": "https://dc.lft.to/lastmile_qr_scan"}, "fusion_lon": 0.0, "is_reserved": 0, "is_disabled": 0, "fusion_lat": 0.0, "type": "electric_scooter", "name": "4f80339215b0a903551d1441338cfa94", "lat": 38.916825333333335, "bike_id": "4f80339215b0a903551d1441338cfa94"}, {"lon": -77.03244433333333, "rental_uris": {"android": "https://dc.lft.to/lastmile_qr_scan", "ios": "https://dc.lft.to/lastmile_qr_scan"}, "fusion_lon": 0.0, "is_reserved": 0, "is_disabled": 0, "fusion_lat": 0.0, "type": "electric_scooter", "name": "6cabdf2550f30aa289de2c9619ee410b", "lat": 38.91985783333333, "bike_id": "6cabdf2550f30aa289de2c9619ee410b"}, {"lon": -77.00926716666666, "rental_uris": {"android": "https://dc.lft.to/lastmile_qr_scan", "ios": "https://dc.lft.to/lastmile_qr_scan"}, "fusion_lon": 0.0, "is_reserved": 0, "is_disabled": 0, "fusion_lat": 0.0, "type": "electric_scooter", "name": "f4063b1a22bd11843bfd9a40c1c6f75b", "lat": 38.896002, "bike_id": "f4063b1a22bd11843bfd9a40c1c6f75b"}, {"lon": -77.04837716666667, "rental_uris": {"android": "https://dc.lft.to/lastmile_qr_scan", "ios": "https://dc.lft.to/lastmile_qr_scan"}, "fusion_lon": 0.0, "is_reserved": 0, "is_disabled": 0, "fusion_lat": 0.0, "type": "electric_scooter", "name": "f6edd4593eaab9e6d480f7cb94e8295c", "lat": 38.910995, "bike_id": "f6edd4593eaab9e6d480f7cb94e8295c"}, {"lon": -76.99838666666666, "rental_uris": {"android": "https://dc.lft.to/lastmile_qr_scan", "ios": "https://dc.lft.to/lastmile_qr_scan"}, "fusion_lon": 0.0, "is_reserved": 0, "is_disabled": 0, "fusion_lat": 0.0, "type": "electric_scooter", "name": "c613666e8f1f3160e469523d6e5f4441", "lat": 38.839533833333334, "bike_id": "c613666e8f1f3160e469523d6e5f4441"}, {"lon": -77.02715633333334, "rental_uris": {"android": "https://dc.lft.to/lastmile_qr_scan", "ios": "https://dc.lft.to/lastmile_qr_scan"}, "fusion_lon": 0.0, "is_reserved": 0, "is_disabled": 0, "fusion_lat": 0.0, "type": "electric_scooter", "name": "1aa4967852772901c4181b2a07e26d1c", "lat": 38.89830516666667, "bike_id": "1aa4967852772901c4181b2a07e26d1c"}, {"lon": -77.04547416666666, "rental_uris": {"android": "https://dc.lft.to/lastmile_qr_scan", "ios": "https://dc.lft.to/lastmile_qr_scan"}, "fusion_lon": 0.0, "is_reserved": 0, "is_disabled": 0, "fusion_lat": 0.0, "type": "electric_scooter", "name": "2a07d61fabcffab0b95ff426d77b40a0", "lat": 38.911085666666665, "bike_id": "2a07d61fabcffab0b95ff426d77b40a0"}, {"lon": -77.02967516666666, "rental_uris": {"android": "https://dc.lft.to/lastmile_qr_scan", "ios": "https://dc.lft.to/lastmile_qr_scan"}, "fusion_lon": 0.0, "is_reserved": 0, "is_disabled": 0, "fusion_lat": 0.0, "type": "electric_scooter", "name": "1e3ce6f08b50da80f5ef0de960eaee08", "lat": 38.90152366666667, "bike_id": "1e3ce6f08b50da80f5ef0de960eaee08"}, {"lon": -76.97330883333333, "rental_uris": {"android": "https://dc.lft.to/lastmile_qr_scan", "ios": "https://dc.lft.to/lastmile_qr_scan"}, "fusion_lon": 0.0, "is_reserved": 0, "is_disabled": 0, "fusion_lat": 0.0, "type": "electric_scooter", "name": "1ecc8e9cb1e234fb1635d3ab9d9a5ecf", "lat": 38.90411133333333, "bike_id": "1ecc8e9cb1e234fb1635d3ab9d9a5ecf"}, {"lon": -77.0055935, "rental_uris": {"android": "https://dc.lft.to/lastmile_qr_scan", "ios": "https://dc.lft.to/lastmile_qr_scan"}, "fusion_lon": 0.0, "is_reserved": 0, "is_disabled": 0, "fusion_lat": 0.0, "type": "electric_scooter", "name": "07cd8a676715619bae1b6167bbaa9443", "lat": 38.87557616666667, "bike_id": "07cd8a676715619bae1b6167bbaa9443"}, {"lon": -77.044933, "rental_uris": {"android": "https://dc.lft.to/lastmile_qr_scan", "ios": "https://dc.lft.to/lastmile_qr_scan"}, "fusion_lon": 0.0, "is_reserved": 0, "is_disabled": 0, "fusion_lat": 0.0, "type": "electric_scooter", "name": "2a1edda748679dfab7fbe53f437607d0", "lat": 38.899981833333335, "bike_id": "2a1edda748679dfab7fbe53f437607d0"}, {"lon": -77.04467283333334, "rental_uris": {"android": "https://dc.lft.to/lastmile_qr_scan", "ios": "https://dc.lft.to/lastmile_qr_scan"}, "fusion_lon": 0.0, "is_reserved": 0, "is_disabled": 0, "fusion_lat": 0.0, "type": "electric_scooter", "name": "8ae13c2fff4ffbacfc22d77250ba01b2", "lat": 38.89223466666667, "bike_id": "8ae13c2fff4ffbacfc22d77250ba01b2"}, {"lon": -76.97804166666667, "rental_uris": {"android": "https://dc.lft.to/lastmile_qr_scan", "ios": "https://dc.lft.to/lastmile_qr_scan"}, "fusion_lon": 0.0, "is_reserved": 0, "is_disabled": 0, "fusion_lat": 0.0, "type": "electric_scooter", "name": "c9ea53fcfe3e67d50e98a15459793e7d", "lat": 38.903075666666666, "bike_id": "c9ea53fcfe3e67d50e98a15459793e7d"}, {"lon": -77.049123, "rental_uris": {"android": "https://dc.lft.to/lastmile_qr_scan", "ios": "https://dc.lft.to/lastmile_qr_scan"}, "fusion_lon": 0.0, "is_reserved": 0, "is_disabled": 0, "fusion_lat": 0.0, "type": "electric_scooter", "name": "7195868fecdf611845b0e044e35d9f4d", "lat": 38.8982805, "bike_id": "7195868fecdf611845b0e044e35d9f4d"}, {"lon": -77.00328633333334, "rental_uris": {"android": "https://dc.lft.to/lastmile_qr_scan", "ios": "https://dc.lft.to/lastmile_qr_scan"}, "fusion_lon": 0.0, "is_reserved": 0, "is_disabled": 0, "fusion_lat": 0.0, "type": "electric_scooter", "name": "f6d0ce1e307f5a7c811d17c75cf4158a", "lat": 38.902645, "bike_id": "f6d0ce1e307f5a7c811d17c75cf4158a"}, {"lon": -77.000664, "rental_uris": {"android": "https://dc.lft.to/lastmile_qr_scan", "ios": "https://dc.lft.to/lastmile_qr_scan"}, "fusion_lon": 0.0, "is_reserved": 0, "is_disabled": 0, "fusion_lat": 0.0, "type": "electric_scooter", "name": "f015501744b73f039d8904c577610b96", "lat": 38.873828, "bike_id": "f015501744b73f039d8904c577610b96"}, {"lon": -77.04124983333334, "rental_uris": {"android": "https://dc.lft.to/lastmile_qr_scan", "ios": "https://dc.lft.to/lastmile_qr_scan"}, "fusion_lon": 0.0, "is_reserved": 0, "is_disabled": 0, "fusion_lat": 0.0, "type": "electric_scooter", "name": "3fa36f5795974a054fa794f3334e07f7", "lat": 38.902339166666664, "bike_id": "3fa36f5795974a054fa794f3334e07f7"}, {"lon": -77.02161233333334, "rental_uris": {"android": "https://dc.lft.to/lastmile_qr_scan", "ios": "https://dc.lft.to/lastmile_qr_scan"}, "fusion_lon": 0.0, "is_reserved": 0, "is_disabled": 0, "fusion_lat": 0.0, "type": "electric_scooter", "name": "9253e92f3273f6e60160e214f454cad8", "lat": 38.926095833333335, "bike_id": "9253e92f3273f6e60160e214f454cad8"}, {"lon": -77.02118716666666, "rental_uris": {"android": "https://dc.lft.to/lastmile_qr_scan", "ios": "https://dc.lft.to/lastmile_qr_scan"}, "fusion_lon": 0.0, "is_reserved": 0, "is_disabled": 0, "fusion_lat": 0.0, "type": "electric_scooter", "name": "d899dcddc0ddd161b713ed2e97829ec0", "lat": 38.9155795, "bike_id": "d899dcddc0ddd161b713ed2e97829ec0"}, {"lon": -77.03442916666667, "rental_uris": {"android": "https://dc.lft.to/lastmile_qr_scan", "ios": "https://dc.lft.to/lastmile_qr_scan"}, "fusion_lon": 0.0, "is_reserved": 0, "is_disabled": 0, "fusion_lat": 0.0, "type": "electric_scooter", "name": "f5fd604dc009c0cfa36a6da6afe8de1a", "lat": 38.903748666666665, "bike_id": "f5fd604dc009c0cfa36a6da6afe8de1a"}, {"lon": -77.00292616666667, "rental_uris": {"android": "https://dc.lft.to/lastmile_qr_scan", "ios": "https://dc.lft.to/lastmile_qr_scan"}, "fusion_lon": 0.0, "is_reserved": 0, "is_disabled": 0, "fusion_lat": 0.0, "type": "electric_scooter", "name": "fd7bfaee8b8f18e1495c967fa81a3185", "lat": 38.89202983333333, "bike_id": "fd7bfaee8b8f18e1495c967fa81a3185"}, {"lon": -77.04350716666667, "rental_uris": {"android": "https://dc.lft.to/lastmile_qr_scan", "ios": "https://dc.lft.to/lastmile_qr_scan"}, "fusion_lon": 0.0, "is_reserved": 0, "is_disabled": 0, "fusion_lat": 0.0, "type": "electric_scooter", "name": "0c5c2680b59af562078d3836cf285af8", "lat": 38.902641333333335, "bike_id": "0c5c2680b59af562078d3836cf285af8"}, {"lon": -77.01128433333334, "rental_uris": {"android": "https://dc.lft.to/lastmile_qr_scan", "ios": "https://dc.lft.to/lastmile_qr_scan"}, "fusion_lon": 0.0, "is_reserved": 0, "is_disabled": 0, "fusion_lat": 0.0, "type": "electric_scooter", "name": "f910b26120b5eb5926a78953022455de", "lat": 38.895275833333336, "bike_id": "f910b26120b5eb5926a78953022455de"}, {"lon": -77.0211575, "rental_uris": {"android": "https://dc.lft.to/lastmile_qr_scan", "ios": "https://dc.lft.to/lastmile_qr_scan"}, "fusion_lon": 0.0, "is_reserved": 0, "is_disabled": 0, "fusion_lat": 0.0, "type": "electric_scooter", "name": "1828342eb6342a8dd935f75d3d8ad7ef", "lat": 38.94077333333333, "bike_id": "1828342eb6342a8dd935f75d3d8ad7ef"}, {"lon": -77.03347416666666, "rental_uris": {"android": "https://dc.lft.to/lastmile_qr_scan", "ios": "https://dc.lft.to/lastmile_qr_scan"}, "fusion_lon": 0.0, "is_reserved": 0, "is_disabled": 0, "fusion_lat": 0.0, "type": "electric_scooter", "name": "d6bd9a3c0b82aed2b66ee5dc5884c679", "lat": 38.88766, "bike_id": "d6bd9a3c0b82aed2b66ee5dc5884c679"}, {"lon": -77.03283216666667, "rental_uris": {"android": "https://dc.lft.to/lastmile_qr_scan", "ios": "https://dc.lft.to/lastmile_qr_scan"}, "fusion_lon": 0.0, "is_reserved": 0, "is_disabled": 0, "fusion_lat": 0.0, "type": "electric_scooter", "name": "affaec7828c43badf25dee95b477c337", "lat": 38.93881233333333, "bike_id": "affaec7828c43badf25dee95b477c337"}, {"lon": -77.04842683333334, "rental_uris": {"android": "https://dc.lft.to/lastmile_qr_scan", "ios": "https://dc.lft.to/lastmile_qr_scan"}, "fusion_lon": 0.0, "is_reserved": 0, "is_disabled": 0, "fusion_lat": 0.0, "type": "electric_scooter", "name": "13ad4336b6d2336a682aaa0512bad3d8", "lat": 38.900200166666664, "bike_id": "13ad4336b6d2336a682aaa0512bad3d8"}, {"lon": -77.02167616666667, "rental_uris": {"android": "https://dc.lft.to/lastmile_qr_scan", "ios": "https://dc.lft.to/lastmile_qr_scan"}, "fusion_lon": 0.0, "is_reserved": 0, "is_disabled": 0, "fusion_lat": 0.0, "type": "electric_scooter", "name": "32efea85313578988a94464750dc0d5b", "lat": 38.89565266666666, "bike_id": "32efea85313578988a94464750dc0d5b"}, {"lon": -77.02846233333334, "rental_uris": {"android": "https://dc.lft.to/lastmile_qr_scan", "ios": "https://dc.lft.to/lastmile_qr_scan"}, "fusion_lon": 0.0, "is_reserved": 0, "is_disabled": 0, "fusion_lat": 0.0, "type": "electric_scooter", "name": "fbad0f93ad590761c128d5877cf97964", "lat": 38.9324995, "bike_id": "fbad0f93ad590761c128d5877cf97964"}, {"lon": -77.067775, "rental_uris": {"android": "https://dc.lft.to/lastmile_qr_scan", "ios": "https://dc.lft.to/lastmile_qr_scan"}, "fusion_lon": 0.0, "is_reserved": 0, "is_disabled": 0, "fusion_lat": 0.0, "type": "electric_scooter", "name": "32d17a4cd3ad8482a8e94d5ca0d00954", "lat": 38.908754, "bike_id": "32d17a4cd3ad8482a8e94d5ca0d00954"}, {"lon": -77.01431183333334, "rental_uris": {"android": "https://dc.lft.to/lastmile_qr_scan", "ios": "https://dc.lft.to/lastmile_qr_scan"}, "fusion_lon": 0.0, "is_reserved": 0, "is_disabled": 0, "fusion_lat": 0.0, "type": "electric_scooter", "name": "1c420e537aba72f776e167044b5085ed", "lat": 38.92025266666667, "bike_id": "1c420e537aba72f776e167044b5085ed"}, {"lon": -77.04343383333334, "rental_uris": {"android": "https://dc.lft.to/lastmile_qr_scan", "ios": "https://dc.lft.to/lastmile_qr_scan"}, "fusion_lon": 0.0, "is_reserved": 0, "is_disabled": 0, "fusion_lat": 0.0, "type": "electric_scooter", "name": "4a928321f85c324df97caa0bee88adc6", "lat": 38.9101575, "bike_id": "4a928321f85c324df97caa0bee88adc6"}, {"lon": -77.05152716666667, "rental_uris": {"android": "https://dc.lft.to/lastmile_qr_scan", "ios": "https://dc.lft.to/lastmile_qr_scan"}, "fusion_lon": 0.0, "is_reserved": 0, "is_disabled": 0, "fusion_lat": 0.0, "type": "electric_scooter", "name": "b4935bbd4e73886fec622c12bd597103", "lat": 38.90393066666667, "bike_id": "b4935bbd4e73886fec622c12bd597103"}, {"lon": -77.02257783333333, "rental_uris": {"android": "https://dc.lft.to/lastmile_qr_scan", "ios": "https://dc.lft.to/lastmile_qr_scan"}, "fusion_lon": 0.0, "is_reserved": 0, "is_disabled": 0, "fusion_lat": 0.0, "type": "electric_scooter", "name": "996383e2e5057b4cb686e8b78cf4bac3", "lat": 38.9241215, "bike_id": "996383e2e5057b4cb686e8b78cf4bac3"}, {"lon": -77.114076, "rental_uris": {"android": "https://dc.lft.to/lastmile_qr_scan", "ios": "https://dc.lft.to/lastmile_qr_scan"}, "fusion_lon": 0.0, "is_reserved": 0, "is_disabled": 0, "fusion_lat": 0.0, "type": "electric_bike", "name": "cb7a6cf9021eab5a0d42bd1784c7f887", "lat": 38.8732755, "bike_id": "cb7a6cf9021eab5a0d42bd1784c7f887"}, {"lon": -77.0396415, "rental_uris": {"android": "https://dc.lft.to/lastmile_qr_scan", "ios": "https://dc.lft.to/lastmile_qr_scan"}, "fusion_lon": 0.0, "is_reserved": 0, "is_disabled": 0, "fusion_lat": 0.0, "type": "electric_scooter", "name": "8cef64275c86d6ae414c6ac823f3824a", "lat": 38.90138866666667, "bike_id": "8cef64275c86d6ae414c6ac823f3824a"}, {"lon": -76.98059683333334, "rental_uris": {"android": "https://dc.lft.to/lastmile_qr_scan", "ios": "https://dc.lft.to/lastmile_qr_scan"}, "fusion_lon": 0.0, "is_reserved": 0, "is_disabled": 0, "fusion_lat": 0.0, "type": "electric_scooter", "name": "bd162901565415c7792cc8ac76dc0eb1", "lat": 38.88494816666667, "bike_id": "bd162901565415c7792cc8ac76dc0eb1"}, {"lon": -77.0330355, "rental_uris": {"android": "https://dc.lft.to/lastmile_qr_scan", "ios": "https://dc.lft.to/lastmile_qr_scan"}, "fusion_lon": 0.0, "is_reserved": 0, "is_disabled": 0, "fusion_lat": 0.0, "type": "electric_scooter", "name": "3f3d3be522c1124dd892301004fe7fba", "lat": 38.898757333333336, "bike_id": "3f3d3be522c1124dd892301004fe7fba"}, {"lon": -77.029441, "rental_uris": {"android": "https://dc.lft.to/lastmile_qr_scan", "ios": "https://dc.lft.to/lastmile_qr_scan"}, "fusion_lon": 0.0, "is_reserved": 0, "is_disabled": 0, "fusion_lat": 0.0, "type": "electric_scooter", "name": "4bee1547e8bf2ee1d567e8b45fd3e7e6", "lat": 38.94274216666667, "bike_id": "4bee1547e8bf2ee1d567e8b45fd3e7e6"}, {"lon": -76.93384633333334, "rental_uris": {"android": "https://dc.lft.to/lastmile_qr_scan", "ios": "https://dc.lft.to/lastmile_qr_scan"}, "fusion_lon": 0.0, "is_reserved": 0, "is_disabled": 0, "fusion_lat": 0.0, "type": "electric_scooter", "name": "93f2c4d570b53057aadd56425b0b4465", "lat": 38.899115333333334, "bike_id": "93f2c4d570b53057aadd56425b0b4465"}, {"lon": -77.0304915, "rental_uris": {"android": "https://dc.lft.to/lastmile_qr_scan", "ios": "https://dc.lft.to/lastmile_qr_scan"}, "fusion_lon": 0.0, "is_reserved": 0, "is_disabled": 0, "fusion_lat": 0.0, "type": "electric_scooter", "name": "afdbddacbf4465d7a1345e6f1b8a68b4", "lat": 38.8976015, "bike_id": "afdbddacbf4465d7a1345e6f1b8a68b4"}, {"lon": -77.032365, "rental_uris": {"android": "https://dc.lft.to/lastmile_qr_scan", "ios": "https://dc.lft.to/lastmile_qr_scan"}, "fusion_lon": 0.0, "is_reserved": 0, "is_disabled": 0, "fusion_lat": 0.0, "type": "electric_scooter", "name": "18f6736b5fe72fb6e66b091a82ff0519", "lat": 38.9615345, "bike_id": "18f6736b5fe72fb6e66b091a82ff0519"}, {"lon": -76.9905675, "rental_uris": {"android": "https://dc.lft.to/lastmile_qr_scan", "ios": "https://dc.lft.to/lastmile_qr_scan"}, "fusion_lon": 0.0, "is_reserved": 0, "is_disabled": 0, "fusion_lat": 0.0, "type": "electric_bike", "name": "a0ed1de6d7722321585f00819e3c5c6f", "lat": 38.936915666666664, "bike_id": "a0ed1de6d7722321585f00819e3c5c6f"}, {"lon": -77.06913383333334, "rental_uris": {"android": "https://dc.lft.to/lastmile_qr_scan", "ios": "https://dc.lft.to/lastmile_qr_scan"}, "fusion_lon": 0.0, "is_reserved": 0, "is_disabled": 0, "fusion_lat": 0.0, "type": "electric_bike", "name": "4ce4537f0cf40ab3b76404b4d06cb796", "lat": 38.806756166666666, "bike_id": "4ce4537f0cf40ab3b76404b4d06cb796"}, {"lon": -77.0405515, "rental_uris": {"android": "https://dc.lft.to/lastmile_qr_scan", "ios": "https://dc.lft.to/lastmile_qr_scan"}, "fusion_lon": 0.0, "is_reserved": 0, "is_disabled": 0, "fusion_lat": 0.0, "type": "electric_scooter", "name": "c7a8848f51fd692dadd41aacf07e34d2", "lat": 38.9085895, "bike_id": "c7a8848f51fd692dadd41aacf07e34d2"}, {"lon": -77.01032933333333, "rental_uris": {"android": "https://dc.lft.to/lastmile_qr_scan", "ios": "https://dc.lft.to/lastmile_qr_scan"}, "fusion_lon": 0.0, "is_reserved": 0, "is_disabled": 0, "fusion_lat": 0.0, "type": "electric_scooter", "name": "2df0d81430759f42cc818b8fcdda5450", "lat": 38.9202725, "bike_id": "2df0d81430759f42cc818b8fcdda5450"}, {"lon": -77.03797116666667, "rental_uris": {"android": "https://dc.lft.to/lastmile_qr_scan", "ios": "https://dc.lft.to/lastmile_qr_scan"}, "fusion_lon": 0.0, "is_reserved": 0, "is_disabled": 0, "fusion_lat": 0.0, "type": "electric_scooter", "name": "d5cdb8cbcb057f322aa63c5e2a636821", "lat": 38.918028666666665, "bike_id": "d5cdb8cbcb057f322aa63c5e2a636821"}, {"lon": -77.02237566666666, "rental_uris": {"android": "https://dc.lft.to/lastmile_qr_scan", "ios": "https://dc.lft.to/lastmile_qr_scan"}, "fusion_lon": 0.0, "is_reserved": 0, "is_disabled": 0, "fusion_lat": 0.0, "type": "electric_scooter", "name": "43e0869129a9034fee7eb4e7090b0951", "lat": 38.9245965, "bike_id": "43e0869129a9034fee7eb4e7090b0951"}, {"lon": -77.01220566666667, "rental_uris": {"android": "https://dc.lft.to/lastmile_qr_scan", "ios": "https://dc.lft.to/lastmile_qr_scan"}, "fusion_lon": 0.0, "is_reserved": 0, "is_disabled": 0, "fusion_lat": 0.0, "type": "electric_scooter", "name": "1f07537db18bccfb103eb9933ce3a0b3", "lat": 38.897771166666665, "bike_id": "1f07537db18bccfb103eb9933ce3a0b3"}, {"lon": -77.02835716666667, "rental_uris": {"android": "https://dc.lft.to/lastmile_qr_scan", "ios": "https://dc.lft.to/lastmile_qr_scan"}, "fusion_lon": 0.0, "is_reserved": 0, "is_disabled": 0, "fusion_lat": 0.0, "type": "electric_scooter", "name": "a30881abe6bbbeba4199f86f06d95106", "lat": 38.887692333333334, "bike_id": "a30881abe6bbbeba4199f86f06d95106"}, {"lon": -77.07525833333334, "rental_uris": {"android": "https://dc.lft.to/lastmile_qr_scan", "ios": "https://dc.lft.to/lastmile_qr_scan"}, "fusion_lon": 0.0, "is_reserved": 0, "is_disabled": 0, "fusion_lat": 0.0, "type": "electric_bike", "name": "8bb12f9dcaa0413224e2ade28af02288", "lat": 38.84282066666667, "bike_id": "8bb12f9dcaa0413224e2ade28af02288"}, {"lon": -77.00374783333334, "rental_uris": {"android": "https://dc.lft.to/lastmile_qr_scan", "ios": "https://dc.lft.to/lastmile_qr_scan"}, "fusion_lon": 0.0, "is_reserved": 0, "is_disabled": 0, "fusion_lat": 0.0, "type": "electric_scooter", "name": "8cc48d5341a08cbb9da713fafe59609f", "lat": 38.90731483333333, "bike_id": "8cc48d5341a08cbb9da713fafe59609f"}, {"lon": -77.02964566666667, "rental_uris": {"android": "https://dc.lft.to/lastmile_qr_scan", "ios": "https://dc.lft.to/lastmile_qr_scan"}, "fusion_lon": 0.0, "is_reserved": 0, "is_disabled": 0, "fusion_lat": 0.0, "type": "electric_scooter", "name": "8076bbf1aa4239e1759d148cb42d2655", "lat": 38.912944, "bike_id": "8076bbf1aa4239e1759d148cb42d2655"}, {"lon": -77.03512083333334, "rental_uris": {"android": "https://dc.lft.to/lastmile_qr_scan", "ios": "https://dc.lft.to/lastmile_qr_scan"}, "fusion_lon": 0.0, "is_reserved": 0, "is_disabled": 0, "fusion_lat": 0.0, "type": "electric_scooter", "name": "764dfca2da8928e8450c838ffe273202", "lat": 38.92339966666667, "bike_id": "764dfca2da8928e8450c838ffe273202"}, {"lon": -77.0434375, "rental_uris": {"android": "https://dc.lft.to/lastmile_qr_scan", "ios": "https://dc.lft.to/lastmile_qr_scan"}, "fusion_lon": 0.0, "is_reserved": 0, "is_disabled": 0, "fusion_lat": 0.0, "type": "electric_scooter", "name": "0642ef2176cdf733e08e7e47d5968c02", "lat": 38.8973145, "bike_id": "0642ef2176cdf733e08e7e47d5968c02"}, {"lon": -77.02170916666667, "rental_uris": {"android": "https://dc.lft.to/lastmile_qr_scan", "ios": "https://dc.lft.to/lastmile_qr_scan"}, "fusion_lon": 0.0, "is_reserved": 0, "is_disabled": 0, "fusion_lat": 0.0, "type": "electric_scooter", "name": "b52f27e1245b8ed9b35b2f43e84de25c", "lat": 38.926298333333335, "bike_id": "b52f27e1245b8ed9b35b2f43e84de25c"}, {"lon": -77.02812716666666, "rental_uris": {"android": "https://dc.lft.to/lastmile_qr_scan", "ios": "https://dc.lft.to/lastmile_qr_scan"}, "fusion_lon": 0.0, "is_reserved": 0, "is_disabled": 0, "fusion_lat": 0.0, "type": "electric_scooter", "name": "36a3e856f6f2ad93a21b520aab4b3dee", "lat": 38.886525, "bike_id": "36a3e856f6f2ad93a21b520aab4b3dee"}, {"lon": -77.03183933333334, "rental_uris": {"android": "https://dc.lft.to/lastmile_qr_scan", "ios": "https://dc.lft.to/lastmile_qr_scan"}, "fusion_lon": 0.0, "is_reserved": 0, "is_disabled": 0, "fusion_lat": 0.0, "type": "electric_scooter", "name": "b3c9662b91b34d7a16dade4279ad8912", "lat": 38.887345833333335, "bike_id": "b3c9662b91b34d7a16dade4279ad8912"}, {"lon": -77.04464866666666, "rental_uris": {"android": "https://dc.lft.to/lastmile_qr_scan", "ios": "https://dc.lft.to/lastmile_qr_scan"}, "fusion_lon": 0.0, "is_reserved": 0, "is_disabled": 0, "fusion_lat": 0.0, "type": "electric_scooter", "name": "f7458fdbbf68e66d8964bfc6c9940592", "lat": 38.892201666666665, "bike_id": "f7458fdbbf68e66d8964bfc6c9940592"}, {"lon": -77.021611, "rental_uris": {"android": "https://dc.lft.to/lastmile_qr_scan", "ios": "https://dc.lft.to/lastmile_qr_scan"}, "fusion_lon": 0.0, "is_reserved": 0, "is_disabled": 0, "fusion_lat": 0.0, "type": "electric_scooter", "name": "1f5b5d77ce129f2db4f0521493d2e816", "lat": 38.92482116666667, "bike_id": "1f5b5d77ce129f2db4f0521493d2e816"}, {"lon": -77.03632533333334, "rental_uris": {"android": "https://dc.lft.to/lastmile_qr_scan", "ios": "https://dc.lft.to/lastmile_qr_scan"}, "fusion_lon": 0.0, "is_reserved": 0, "is_disabled": 0, "fusion_lat": 0.0, "type": "electric_scooter", "name": "fba010963924903b25d12a36a85efc2c", "lat": 38.903751, "bike_id": "fba010963924903b25d12a36a85efc2c"}, {"lon": -77.12984283333333, "rental_uris": {"android": "https://dc.lft.to/lastmile_qr_scan", "ios": "https://dc.lft.to/lastmile_qr_scan"}, "fusion_lon": 0.0, "is_reserved": 0, "is_disabled": 0, "fusion_lat": 0.0, "type": "electric_bike", "name": "c9b80aa41087b173031a5701ae908fa5", "lat": 38.8076035, "bike_id": "c9b80aa41087b173031a5701ae908fa5"}, {"lon": -77.02610033333333, "rental_uris": {"android": "https://dc.lft.to/lastmile_qr_scan", "ios": "https://dc.lft.to/lastmile_qr_scan"}, "fusion_lon": 0.0, "is_reserved": 0, "is_disabled": 0, "fusion_lat": 0.0, "type": "electric_scooter", "name": "ead7222475d5d2ca49e2988bf3163568", "lat": 38.896998333333336, "bike_id": "ead7222475d5d2ca49e2988bf3163568"}, {"lon": -77.04546116666667, "rental_uris": {"android": "https://dc.lft.to/lastmile_qr_scan", "ios": "https://dc.lft.to/lastmile_qr_scan"}, "fusion_lon": 0.0, "is_reserved": 0, "is_disabled": 0, "fusion_lat": 0.0, "type": "electric_scooter", "name": "313854a71d8793b37f786eb1340e9d14", "lat": 38.911098833333334, "bike_id": "313854a71d8793b37f786eb1340e9d14"}, {"lon": -77.03819133333333, "rental_uris": {"android": "https://dc.lft.to/lastmile_qr_scan", "ios": "https://dc.lft.to/lastmile_qr_scan"}, "fusion_lon": 0.0, "is_reserved": 0, "is_disabled": 0, "fusion_lat": 0.0, "type": "electric_scooter", "name": "2985d40d4ccc5fa3a98ab52acde7f65b", "lat": 38.92710866666667, "bike_id": "2985d40d4ccc5fa3a98ab52acde7f65b"}, {"lon": -77.03435833333333, "rental_uris": {"android": "https://dc.lft.to/lastmile_qr_scan", "ios": "https://dc.lft.to/lastmile_qr_scan"}, "fusion_lon": 0.0, "is_reserved": 0, "is_disabled": 0, "fusion_lat": 0.0, "type": "electric_scooter", "name": "a62ff906a2a37a4911ab0f6e1e2a703f", "lat": 38.904145166666666, "bike_id": "a62ff906a2a37a4911ab0f6e1e2a703f"}, {"lon": -77.05168766666667, "rental_uris": {"android": "https://dc.lft.to/lastmile_qr_scan", "ios": "https://dc.lft.to/lastmile_qr_scan"}, "fusion_lon": 0.0, "is_reserved": 0, "is_disabled": 0, "fusion_lat": 0.0, "type": "electric_scooter", "name": "018a8a122f3ee4eb69e95ce6d78d9b12", "lat": 38.92399966666667, "bike_id": "018a8a122f3ee4eb69e95ce6d78d9b12"}, {"lon": -77.036536, "rental_uris": {"android": "https://dc.lft.to/lastmile_qr_scan", "ios": "https://dc.lft.to/lastmile_qr_scan"}, "fusion_lon": 0.0, "is_reserved": 0, "is_disabled": 0, "fusion_lat": 0.0, "type": "electric_scooter", "name": "31d850cc3a1debdfc062829b50beb596", "lat": 38.90799533333333, "bike_id": "31d850cc3a1debdfc062829b50beb596"}, {"lon": -77.0937515, "rental_uris": {"android": "https://dc.lft.to/lastmile_qr_scan", "ios": "https://dc.lft.to/lastmile_qr_scan"}, "fusion_lon": 0.0, "is_reserved": 0, "is_disabled": 0, "fusion_lat": 0.0, "type": "electric_bike", "name": "0a6ae4718f255a52aaf6cf37053445a1", "lat": 38.860328333333335, "bike_id": "0a6ae4718f255a52aaf6cf37053445a1"}, {"lon": -76.937434, "rental_uris": {"android": "https://dc.lft.to/lastmile_qr_scan", "ios": "https://dc.lft.to/lastmile_qr_scan"}, "fusion_lon": 0.0, "is_reserved": 0, "is_disabled": 0, "fusion_lat": 0.0, "type": "electric_scooter", "name": "cb543604ddababe7cb077c19ab43b494", "lat": 38.89007183333333, "bike_id": "cb543604ddababe7cb077c19ab43b494"}, {"lon": -77.0354615, "rental_uris": {"android": "https://dc.lft.to/lastmile_qr_scan", "ios": "https://dc.lft.to/lastmile_qr_scan"}, "fusion_lon": 0.0, "is_reserved": 0, "is_disabled": 0, "fusion_lat": 0.0, "type": "electric_scooter", "name": "17f827a5ba10c47d91fd9bdc153c867f", "lat": 38.907965, "bike_id": "17f827a5ba10c47d91fd9bdc153c867f"}, {"lon": -76.94252883333333, "rental_uris": {"android": "https://dc.lft.to/lastmile_qr_scan", "ios": "https://dc.lft.to/lastmile_qr_scan"}, "fusion_lon": 0.0, "is_reserved": 0, "is_disabled": 0, "fusion_lat": 0.0, "type": "electric_scooter", "name": "3b625fc284fdaf8a814f7d6b843ff47e", "lat": 38.898435166666665, "bike_id": "3b625fc284fdaf8a814f7d6b843ff47e"}, {"lon": -77.02408833333334, "rental_uris": {"android": "https://dc.lft.to/lastmile_qr_scan", "ios": "https://dc.lft.to/lastmile_qr_scan"}, "fusion_lon": 0.0, "is_reserved": 0, "is_disabled": 0, "fusion_lat": 0.0, "type": "electric_scooter", "name": "0b8e5e28ac513eecdf97380c9efc2462", "lat": 38.90415733333333, "bike_id": "0b8e5e28ac513eecdf97380c9efc2462"}, {"lon": -77.0221465, "rental_uris": {"android": "https://dc.lft.to/lastmile_qr_scan", "ios": "https://dc.lft.to/lastmile_qr_scan"}, "fusion_lon": 0.0, "is_reserved": 0, "is_disabled": 0, "fusion_lat": 0.0, "type": "electric_scooter", "name": "aa6c718b3d349dcd7186a80745db9bf1", "lat": 38.92471283333333, "bike_id": "aa6c718b3d349dcd7186a80745db9bf1"}, {"lon": -76.99259733333334, "rental_uris": {"android": "https://dc.lft.to/lastmile_qr_scan", "ios": "https://dc.lft.to/lastmile_qr_scan"}, "fusion_lon": 0.0, "is_reserved": 0, "is_disabled": 0, "fusion_lat": 0.0, "type": "electric_scooter", "name": "cb00bb78922e63f0efd18cfd5e8b5f20", "lat": 38.881765333333334, "bike_id": "cb00bb78922e63f0efd18cfd5e8b5f20"}, {"lon": -77.00380616666666, "rental_uris": {"android": "https://dc.lft.to/lastmile_qr_scan", "ios": "https://dc.lft.to/lastmile_qr_scan"}, "fusion_lon": 0.0, "is_reserved": 0, "is_disabled": 0, "fusion_lat": 0.0, "type": "electric_scooter", "name": "75f5bf49e854c1d2b8086b8090edc9cc", "lat": 38.907512, "bike_id": "75f5bf49e854c1d2b8086b8090edc9cc"}, {"lon": -77.04328016666666, "rental_uris": {"android": "https://dc.lft.to/lastmile_qr_scan", "ios": "https://dc.lft.to/lastmile_qr_scan"}, "fusion_lon": 0.0, "is_reserved": 0, "is_disabled": 0, "fusion_lat": 0.0, "type": "electric_scooter", "name": "aac32cddc31923ffa7ae6f71ab800b83", "lat": 38.910372833333334, "bike_id": "aac32cddc31923ffa7ae6f71ab800b83"}, {"lon": -77.04195433333334, "rental_uris": {"android": "https://dc.lft.to/lastmile_qr_scan", "ios": "https://dc.lft.to/lastmile_qr_scan"}, "fusion_lon": 0.0, "is_reserved": 0, "is_disabled": 0, "fusion_lat": 0.0, "type": "electric_scooter", "name": "27fd5d68d0e8fddba8bec18301596ab1", "lat": 38.89219633333333, "bike_id": "27fd5d68d0e8fddba8bec18301596ab1"}, {"lon": -77.04704633333333, "rental_uris": {"android": "https://dc.lft.to/lastmile_qr_scan", "ios": "https://dc.lft.to/lastmile_qr_scan"}, "fusion_lon": 0.0, "is_reserved": 0, "is_disabled": 0, "fusion_lat": 0.0, "type": "electric_scooter", "name": "497756470128b47adc33f8a557f9ffdd", "lat": 38.921272333333334, "bike_id": "497756470128b47adc33f8a557f9ffdd"}, {"lon": -77.04191183333333, "rental_uris": {"android": "https://dc.lft.to/lastmile_qr_scan", "ios": "https://dc.lft.to/lastmile_qr_scan"}, "fusion_lon": 0.0, "is_reserved": 0, "is_disabled": 0, "fusion_lat": 0.0, "type": "electric_scooter", "name": "348d152c7e23bf00f970b137741e9bd0", "lat": 38.922087833333336, "bike_id": "348d152c7e23bf00f970b137741e9bd0"}, {"lon": -77.0716605, "rental_uris": {"android": "https://dc.lft.to/lastmile_qr_scan", "ios": "https://dc.lft.to/lastmile_qr_scan"}, "fusion_lon": 0.0, "is_reserved": 0, "is_disabled": 0, "fusion_lat": 0.0, "type": "electric_bike", "name": "69ae14730bc25452f8d4719b87d53431", "lat": 38.907776166666665, "bike_id": "69ae14730bc25452f8d4719b87d53431"}, {"lon": -77.0212025, "rental_uris": {"android": "https://dc.lft.to/lastmile_qr_scan", "ios": "https://dc.lft.to/lastmile_qr_scan"}, "fusion_lon": 0.0, "is_reserved": 0, "is_disabled": 0, "fusion_lat": 0.0, "type": "electric_scooter", "name": "2de0dcddda36672fb2c5618b60d521f5", "lat": 38.92674683333333, "bike_id": "2de0dcddda36672fb2c5618b60d521f5"}, {"lon": -77.0343965, "rental_uris": {"android": "https://dc.lft.to/lastmile_qr_scan", "ios": "https://dc.lft.to/lastmile_qr_scan"}, "fusion_lon": 0.0, "is_reserved": 0, "is_disabled": 0, "fusion_lat": 0.0, "type": "electric_scooter", "name": "cb012ea7db230483e7ba76dd1efcf398", "lat": 38.91803783333334, "bike_id": "cb012ea7db230483e7ba76dd1efcf398"}, {"lon": -77.0190165, "rental_uris": {"android": "https://dc.lft.to/lastmile_qr_scan", "ios": "https://dc.lft.to/lastmile_qr_scan"}, "fusion_lon": 0.0, "is_reserved": 0, "is_disabled": 0, "fusion_lat": 0.0, "type": "electric_scooter", "name": "f578124544dad0ad51b65d0038bc0869", "lat": 38.919118, "bike_id": "f578124544dad0ad51b65d0038bc0869"}, {"lon": -77.032748, "rental_uris": {"android": "https://dc.lft.to/lastmile_qr_scan", "ios": "https://dc.lft.to/lastmile_qr_scan"}, "fusion_lon": 0.0, "is_reserved": 0, "is_disabled": 0, "fusion_lat": 0.0, "type": "electric_scooter", "name": "652809a0a9caa1f7d7543f6d3fd7a812", "lat": 38.93752333333333, "bike_id": "652809a0a9caa1f7d7543f6d3fd7a812"}, {"lon": -76.976657, "rental_uris": {"android": "https://dc.lft.to/lastmile_qr_scan", "ios": "https://dc.lft.to/lastmile_qr_scan"}, "fusion_lon": 0.0, "is_reserved": 0, "is_disabled": 0, "fusion_lat": 0.0, "type": "electric_scooter", "name": "13d99dcc6bde97b30e962bbd9d732ee7", "lat": 38.840523166666664, "bike_id": "13d99dcc6bde97b30e962bbd9d732ee7"}, {"lon": -77.02544433333334, "rental_uris": {"android": "https://dc.lft.to/lastmile_qr_scan", "ios": "https://dc.lft.to/lastmile_qr_scan"}, "fusion_lon": 0.0, "is_reserved": 0, "is_disabled": 0, "fusion_lat": 0.0, "type": "electric_scooter", "name": "39cf80cd547af85831f94f0b5703350c", "lat": 38.920879666666664, "bike_id": "39cf80cd547af85831f94f0b5703350c"}, {"lon": -77.00855433333334, "rental_uris": {"android": "https://dc.lft.to/lastmile_qr_scan", "ios": "https://dc.lft.to/lastmile_qr_scan"}, "fusion_lon": 0.0, "is_reserved": 0, "is_disabled": 0, "fusion_lat": 0.0, "type": "electric_scooter", "name": "9b1e6d463854d5acaf52880fc651a8d5", "lat": 38.90645416666667, "bike_id": "9b1e6d463854d5acaf52880fc651a8d5"}, {"lon": -77.06284566666666, "rental_uris": {"android": "https://dc.lft.to/lastmile_qr_scan", "ios": "https://dc.lft.to/lastmile_qr_scan"}, "fusion_lon": 0.0, "is_reserved": 0, "is_disabled": 0, "fusion_lat": 0.0, "type": "electric_scooter", "name": "459c3229c98b67d4fb4d7eb0332d1e9b", "lat": 38.912425166666665, "bike_id": "459c3229c98b67d4fb4d7eb0332d1e9b"}, {"lon": -77.01821233333334, "rental_uris": {"android": "https://dc.lft.to/lastmile_qr_scan", "ios": "https://dc.lft.to/lastmile_qr_scan"}, "fusion_lon": 0.0, "is_reserved": 0, "is_disabled": 0, "fusion_lat": 0.0, "type": "electric_scooter", "name": "602a1f15b050636a87ff47a9920df1ae", "lat": 38.922390666666665, "bike_id": "602a1f15b050636a87ff47a9920df1ae"}, {"lon": -77.0003215, "rental_uris": {"android": "https://dc.lft.to/lastmile_qr_scan", "ios": "https://dc.lft.to/lastmile_qr_scan"}, "fusion_lon": 0.0, "is_reserved": 0, "is_disabled": 0, "fusion_lat": 0.0, "type": "electric_scooter", "name": "7ba93cb2ae6272470ee93398c64af44d", "lat": 38.874786, "bike_id": "7ba93cb2ae6272470ee93398c64af44d"}, {"lon": -77.072369, "rental_uris": {"android": "https://dc.lft.to/lastmile_qr_scan", "ios": "https://dc.lft.to/lastmile_qr_scan"}, "fusion_lon": 0.0, "is_reserved": 0, "is_disabled": 0, "fusion_lat": 0.0, "type": "electric_scooter", "name": "7f9d8df38af1f2350717bf1cc643ae5e", "lat": 38.907789666666666, "bike_id": "7f9d8df38af1f2350717bf1cc643ae5e"}, {"lon": -77.04508016666666, "rental_uris": {"android": "https://dc.lft.to/lastmile_qr_scan", "ios": "https://dc.lft.to/lastmile_qr_scan"}, "fusion_lon": 0.0, "is_reserved": 0, "is_disabled": 0, "fusion_lat": 0.0, "type": "electric_scooter", "name": "f03f3edd4488640cf6ec66e648fcff76", "lat": 38.9034845, "bike_id": "f03f3edd4488640cf6ec66e648fcff76"}, {"lon": -77.04680966666666, "rental_uris": {"android": "https://dc.lft.to/lastmile_qr_scan", "ios": "https://dc.lft.to/lastmile_qr_scan"}, "fusion_lon": 0.0, "is_reserved": 0, "is_disabled": 0, "fusion_lat": 0.0, "type": "electric_scooter", "name": "634a9d7fc81526ff721fef5ee52804b9", "lat": 38.9047715, "bike_id": "634a9d7fc81526ff721fef5ee52804b9"}, {"lon": -77.03580766666667, "rental_uris": {"android": "https://dc.lft.to/lastmile_qr_scan", "ios": "https://dc.lft.to/lastmile_qr_scan"}, "fusion_lon": 0.0, "is_reserved": 0, "is_disabled": 0, "fusion_lat": 0.0, "type": "electric_scooter", "name": "2e3a8d6903c9e62f26ad2074356af8a3", "lat": 38.9023755, "bike_id": "2e3a8d6903c9e62f26ad2074356af8a3"}, {"lon": -77.03545416666667, "rental_uris": {"android": "https://dc.lft.to/lastmile_qr_scan", "ios": "https://dc.lft.to/lastmile_qr_scan"}, "fusion_lon": 0.0, "is_reserved": 0, "is_disabled": 0, "fusion_lat": 0.0, "type": "electric_scooter", "name": "8d990fbcec2d9f7229c416f2dd892c4c", "lat": 38.93297533333333, "bike_id": "8d990fbcec2d9f7229c416f2dd892c4c"}, {"lon": -77.06466716666667, "rental_uris": {"android": "https://dc.lft.to/lastmile_qr_scan", "ios": "https://dc.lft.to/lastmile_qr_scan"}, "fusion_lon": 0.0, "is_reserved": 0, "is_disabled": 0, "fusion_lat": 0.0, "type": "electric_scooter", "name": "79d2e22896bbb3475cf6a431e403d9f4", "lat": 38.905006166666666, "bike_id": "79d2e22896bbb3475cf6a431e403d9f4"}, {"lon": -77.04449166666667, "rental_uris": {"android": "https://dc.lft.to/lastmile_qr_scan", "ios": "https://dc.lft.to/lastmile_qr_scan"}, "fusion_lon": 0.0, "is_reserved": 0, "is_disabled": 0, "fusion_lat": 0.0, "type": "electric_scooter", "name": "8b9575e1fdbb921e850340b875c28170", "lat": 38.905868166666664, "bike_id": "8b9575e1fdbb921e850340b875c28170"}, {"lon": -76.93871716666666, "rental_uris": {"android": "https://dc.lft.to/lastmile_qr_scan", "ios": "https://dc.lft.to/lastmile_qr_scan"}, "fusion_lon": 0.0, "is_reserved": 0, "is_disabled": 0, "fusion_lat": 0.0, "type": "electric_bike", "name": "5bb98392b70113f65ea411f2ff30fd0b", "lat": 38.95618866666667, "bike_id": "5bb98392b70113f65ea411f2ff30fd0b"}, {"lon": -77.03219066666666, "rental_uris": {"android": "https://dc.lft.to/lastmile_qr_scan", "ios": "https://dc.lft.to/lastmile_qr_scan"}, "fusion_lon": 0.0, "is_reserved": 0, "is_disabled": 0, "fusion_lat": 0.0, "type": "electric_scooter", "name": "8b17bac18e2cc55e8d85955b4138d7dc", "lat": 38.92863083333334, "bike_id": "8b17bac18e2cc55e8d85955b4138d7dc"}, {"lon": -77.02458666666666, "rental_uris": {"android": "https://dc.lft.to/lastmile_qr_scan", "ios": "https://dc.lft.to/lastmile_qr_scan"}, "fusion_lon": 0.0, "is_reserved": 0, "is_disabled": 0, "fusion_lat": 0.0, "type": "electric_scooter", "name": "2f89663f40fbe9e2ec05ae14b664820b", "lat": 38.8999165, "bike_id": "2f89663f40fbe9e2ec05ae14b664820b"}, {"lon": -77.04784266666667, "rental_uris": {"android": "https://dc.lft.to/lastmile_qr_scan", "ios": "https://dc.lft.to/lastmile_qr_scan"}, "fusion_lon": 0.0, "is_reserved": 0, "is_disabled": 0, "fusion_lat": 0.0, "type": "electric_scooter", "name": "6c49994518c19daa78e0e194b5cc11bb", "lat": 38.897844666666664, "bike_id": "6c49994518c19daa78e0e194b5cc11bb"}, {"lon": -77.00355083333334, "rental_uris": {"android": "https://dc.lft.to/lastmile_qr_scan", "ios": "https://dc.lft.to/lastmile_qr_scan"}, "fusion_lon": 0.0, "is_reserved": 0, "is_disabled": 0, "fusion_lat": 0.0, "type": "electric_scooter", "name": "f08c98fb9c1b2aaef39ee2ce107db252", "lat": 38.896709333333334, "bike_id": "f08c98fb9c1b2aaef39ee2ce107db252"}, {"lon": -77.03347766666667, "rental_uris": {"android": "https://dc.lft.to/lastmile_qr_scan", "ios": "https://dc.lft.to/lastmile_qr_scan"}, "fusion_lon": 0.0, "is_reserved": 0, "is_disabled": 0, "fusion_lat": 0.0, "type": "electric_scooter", "name": "c2e7763006fae3fac2670bb65df9f2b5", "lat": 38.89233683333333, "bike_id": "c2e7763006fae3fac2670bb65df9f2b5"}, {"lon": -77.06419883333334, "rental_uris": {"android": "https://dc.lft.to/lastmile_qr_scan", "ios": "https://dc.lft.to/lastmile_qr_scan"}, "fusion_lon": 0.0, "is_reserved": 0, "is_disabled": 0, "fusion_lat": 0.0, "type": "electric_scooter", "name": "4a5528a1c2f572e0797f084cc5ce0059", "lat": 38.91394483333333, "bike_id": "4a5528a1c2f572e0797f084cc5ce0059"}, {"lon": -77.01207333333333, "rental_uris": {"android": "https://dc.lft.to/lastmile_qr_scan", "ios": "https://dc.lft.to/lastmile_qr_scan"}, "fusion_lon": 0.0, "is_reserved": 0, "is_disabled": 0, "fusion_lat": 0.0, "type": "electric_bike", "name": "55f2b402fc7addb3d40ad81bb4ec66a9", "lat": 38.92120383333334, "bike_id": "55f2b402fc7addb3d40ad81bb4ec66a9"}, {"lon": -77.05003483333333, "rental_uris": {"android": "https://dc.lft.to/lastmile_qr_scan", "ios": "https://dc.lft.to/lastmile_qr_scan"}, "fusion_lon": 0.0, "is_reserved": 0, "is_disabled": 0, "fusion_lat": 0.0, "type": "electric_scooter", "name": "420efacbb62ef88f0d4d8eb1d897344a", "lat": 38.892286166666665, "bike_id": "420efacbb62ef88f0d4d8eb1d897344a"}, {"lon": -77.01870483333333, "rental_uris": {"android": "https://dc.lft.to/lastmile_qr_scan", "ios": "https://dc.lft.to/lastmile_qr_scan"}, "fusion_lon": 0.0, "is_reserved": 0, "is_disabled": 0, "fusion_lat": 0.0, "type": "electric_scooter", "name": "6ad7a08d3ecaede524fec551c3f54dee", "lat": 38.908581166666664, "bike_id": "6ad7a08d3ecaede524fec551c3f54dee"}, {"lon": -76.96257616666666, "rental_uris": {"android": "https://dc.lft.to/lastmile_qr_scan", "ios": "https://dc.lft.to/lastmile_qr_scan"}, "fusion_lon": 0.0, "is_reserved": 0, "is_disabled": 0, "fusion_lat": 0.0, "type": "electric_bike", "name": "2cb9966e66649f369687361e15ec5b3a", "lat": 38.96785366666667, "bike_id": "2cb9966e66649f369687361e15ec5b3a"}, {"lon": -77.06983116666666, "rental_uris": {"android": "https://dc.lft.to/lastmile_qr_scan", "ios": "https://dc.lft.to/lastmile_qr_scan"}, "fusion_lon": 0.0, "is_reserved": 0, "is_disabled": 0, "fusion_lat": 0.0, "type": "electric_bike", "name": "f06b32f381a453a967505109e58aa2e9", "lat": 38.955191166666665, "bike_id": "f06b32f381a453a967505109e58aa2e9"}, {"lon": -77.0431625, "rental_uris": {"android": "https://dc.lft.to/lastmile_qr_scan", "ios": "https://dc.lft.to/lastmile_qr_scan"}, "fusion_lon": 0.0, "is_reserved": 0, "is_disabled": 0, "fusion_lat": 0.0, "type": "electric_scooter", "name": "167381febd272c1d67a78648ea4b469c", "lat": 38.90556516666667, "bike_id": "167381febd272c1d67a78648ea4b469c"}, {"lon": -77.04473666666667, "rental_uris": {"android": "https://dc.lft.to/lastmile_qr_scan", "ios": "https://dc.lft.to/lastmile_qr_scan"}, "fusion_lon": 0.0, "is_reserved": 0, "is_disabled": 0, "fusion_lat": 0.0, "type": "electric_scooter", "name": "646999a984e9807d817506c75e8a82c5", "lat": 38.9108575, "bike_id": "646999a984e9807d817506c75e8a82c5"}, {"lon": -77.02093166666667, "rental_uris": {"android": "https://dc.lft.to/lastmile_qr_scan", "ios": "https://dc.lft.to/lastmile_qr_scan"}, "fusion_lon": 0.0, "is_reserved": 0, "is_disabled": 0, "fusion_lat": 0.0, "type": "electric_scooter", "name": "7e32f2b8773d610e52f5ef4ac286e6a4", "lat": 38.92145166666667, "bike_id": "7e32f2b8773d610e52f5ef4ac286e6a4"}, {"lon": -77.01636783333333, "rental_uris": {"android": "https://dc.lft.to/lastmile_qr_scan", "ios": "https://dc.lft.to/lastmile_qr_scan"}, "fusion_lon": 0.0, "is_reserved": 0, "is_disabled": 0, "fusion_lat": 0.0, "type": "electric_bike", "name": "7fe3861b38633fdae3630677aae73b6c", "lat": 38.78449766666667, "bike_id": "7fe3861b38633fdae3630677aae73b6c"}, {"lon": -76.93188466666666, "rental_uris": {"android": "https://dc.lft.to/lastmile_qr_scan", "ios": "https://dc.lft.to/lastmile_qr_scan"}, "fusion_lon": 0.0, "is_reserved": 0, "is_disabled": 0, "fusion_lat": 0.0, "type": "electric_bike", "name": "f97ebca067c71097dacc60fdfe7ad9c5", "lat": 38.898486, "bike_id": "f97ebca067c71097dacc60fdfe7ad9c5"}, {"lon": -77.04331133333334, "rental_uris": {"android": "https://dc.lft.to/lastmile_qr_scan", "ios": "https://dc.lft.to/lastmile_qr_scan"}, "fusion_lon": 0.0, "is_reserved": 0, "is_disabled": 0, "fusion_lat": 0.0, "type": "electric_scooter", "name": "ecebe33a51fa3ad051af6e04348598ba", "lat": 38.903225166666665, "bike_id": "ecebe33a51fa3ad051af6e04348598ba"}, {"lon": -76.98620166666667, "rental_uris": {"android": "https://dc.lft.to/lastmile_qr_scan", "ios": "https://dc.lft.to/lastmile_qr_scan"}, "fusion_lon": 0.0, "is_reserved": 0, "is_disabled": 0, "fusion_lat": 0.0, "type": "electric_scooter", "name": "586162293a16c658ffab3fb276c9d907", "lat": 38.90991283333334, "bike_id": "586162293a16c658ffab3fb276c9d907"}, {"lon": -77.00337783333333, "rental_uris": {"android": "https://dc.lft.to/lastmile_qr_scan", "ios": "https://dc.lft.to/lastmile_qr_scan"}, "fusion_lon": 0.0, "is_reserved": 0, "is_disabled": 0, "fusion_lat": 0.0, "type": "electric_scooter", "name": "aa3f12259c7c7d79252eb6cc93857d67", "lat": 38.891808, "bike_id": "aa3f12259c7c7d79252eb6cc93857d67"}, {"lon": -77.05931666666666, "rental_uris": {"android": "https://dc.lft.to/lastmile_qr_scan", "ios": "https://dc.lft.to/lastmile_qr_scan"}, "fusion_lon": 0.0, "is_reserved": 0, "is_disabled": 0, "fusion_lat": 0.0, "type": "electric_scooter", "name": "4047ba932647d9f173d68e0ce6e0d29a", "lat": 38.943011166666665, "bike_id": "4047ba932647d9f173d68e0ce6e0d29a"}, {"lon": -76.9699915, "rental_uris": {"android": "https://dc.lft.to/lastmile_qr_scan", "ios": "https://dc.lft.to/lastmile_qr_scan"}, "fusion_lon": 0.0, "is_reserved": 0, "is_disabled": 0, "fusion_lat": 0.0, "type": "electric_scooter", "name": "309968eda179883ca51539ba0df0eac7", "lat": 38.86025516666667, "bike_id": "309968eda179883ca51539ba0df0eac7"}, {"lon": -77.05882016666666, "rental_uris": {"android": "https://dc.lft.to/lastmile_qr_scan", "ios": "https://dc.lft.to/lastmile_qr_scan"}, "fusion_lon": 0.0, "is_reserved": 0, "is_disabled": 0, "fusion_lat": 0.0, "type": "electric_scooter", "name": "d92cfe181f402a456f08460a1aafa71b", "lat": 38.918272333333334, "bike_id": "d92cfe181f402a456f08460a1aafa71b"}, {"lon": -77.03698633333333, "rental_uris": {"android": "https://dc.lft.to/lastmile_qr_scan", "ios": "https://dc.lft.to/lastmile_qr_scan"}, "fusion_lon": 0.0, "is_reserved": 0, "is_disabled": 0, "fusion_lat": 0.0, "type": "electric_scooter", "name": "348d6f0a46990692e072b328883a6253", "lat": 38.926422, "bike_id": "348d6f0a46990692e072b328883a6253"}, {"lon": -77.03437283333334, "rental_uris": {"android": "https://dc.lft.to/lastmile_qr_scan", "ios": "https://dc.lft.to/lastmile_qr_scan"}, "fusion_lon": 0.0, "is_reserved": 0, "is_disabled": 0, "fusion_lat": 0.0, "type": "electric_scooter", "name": "bff094d6adb990953a14f62dc085ea56", "lat": 38.90254316666667, "bike_id": "bff094d6adb990953a14f62dc085ea56"}, {"lon": -77.03544166666667, "rental_uris": {"android": "https://dc.lft.to/lastmile_qr_scan", "ios": "https://dc.lft.to/lastmile_qr_scan"}, "fusion_lon": 0.0, "is_reserved": 0, "is_disabled": 0, "fusion_lat": 0.0, "type": "electric_scooter", "name": "b757368db441426021144850f2756e61", "lat": 38.90724933333333, "bike_id": "b757368db441426021144850f2756e61"}, {"lon": -76.980695, "rental_uris": {"android": "https://dc.lft.to/lastmile_qr_scan", "ios": "https://dc.lft.to/lastmile_qr_scan"}, "fusion_lon": 0.0, "is_reserved": 0, "is_disabled": 0, "fusion_lat": 0.0, "type": "electric_scooter", "name": "bc8d8f72c607c051ea0d83e558855884", "lat": 38.88014233333333, "bike_id": "bc8d8f72c607c051ea0d83e558855884"}, {"lon": -77.03244683333334, "rental_uris": {"android": "https://dc.lft.to/lastmile_qr_scan", "ios": "https://dc.lft.to/lastmile_qr_scan"}, "fusion_lon": 0.0, "is_reserved": 0, "is_disabled": 0, "fusion_lat": 0.0, "type": "electric_scooter", "name": "001d0deb26d2ae3781fe2420e987f5e7", "lat": 38.92754633333333, "bike_id": "001d0deb26d2ae3781fe2420e987f5e7"}, {"lon": -77.03122116666667, "rental_uris": {"android": "https://dc.lft.to/lastmile_qr_scan", "ios": "https://dc.lft.to/lastmile_qr_scan"}, "fusion_lon": 0.0, "is_reserved": 0, "is_disabled": 0, "fusion_lat": 0.0, "type": "electric_scooter", "name": "e07e1d42b18d1afa5630d431e70beaa5", "lat": 38.92029983333333, "bike_id": "e07e1d42b18d1afa5630d431e70beaa5"}, {"lon": -77.020654, "rental_uris": {"android": "https://dc.lft.to/lastmile_qr_scan", "ios": "https://dc.lft.to/lastmile_qr_scan"}, "fusion_lon": 0.0, "is_reserved": 0, "is_disabled": 0, "fusion_lat": 0.0, "type": "electric_scooter", "name": "5abd6c49362e1472e8d45328595e8ecb", "lat": 38.9210775, "bike_id": "5abd6c49362e1472e8d45328595e8ecb"}, {"lon": -77.003342, "rental_uris": {"android": "https://dc.lft.to/lastmile_qr_scan", "ios": "https://dc.lft.to/lastmile_qr_scan"}, "fusion_lon": 0.0, "is_reserved": 0, "is_disabled": 0, "fusion_lat": 0.0, "type": "electric_scooter", "name": "ab4aa6665ee3e20c2e982a2f89dc40ae", "lat": 38.897229333333335, "bike_id": "ab4aa6665ee3e20c2e982a2f89dc40ae"}, {"lon": -77.050606, "rental_uris": {"android": "https://dc.lft.to/lastmile_qr_scan", "ios": "https://dc.lft.to/lastmile_qr_scan"}, "fusion_lon": 0.0, "is_reserved": 0, "is_disabled": 0, "fusion_lat": 0.0, "type": "electric_scooter", "name": "64eea469ded847729d1ea16c8fc4bf58", "lat": 38.900855166666666, "bike_id": "64eea469ded847729d1ea16c8fc4bf58"}, {"lon": -77.234094, "rental_uris": {"android": "https://dc.lft.to/lastmile_qr_scan", "ios": "https://dc.lft.to/lastmile_qr_scan"}, "fusion_lon": 0.0, "is_reserved": 0, "is_disabled": 0, "fusion_lat": 0.0, "type": "electric_bike", "name": "ef860444fc5caa5b367ac95dd8acc71a", "lat": 38.875783, "bike_id": "ef860444fc5caa5b367ac95dd8acc71a"}, {"lon": -77.00310066666667, "rental_uris": {"android": "https://dc.lft.to/lastmile_qr_scan", "ios": "https://dc.lft.to/lastmile_qr_scan"}, "fusion_lon": 0.0, "is_reserved": 0, "is_disabled": 0, "fusion_lat": 0.0, "type": "electric_scooter", "name": "c98097e7147034166b578254211f7170", "lat": 38.923528833333336, "bike_id": "c98097e7147034166b578254211f7170"}, {"lon": -77.04623416666666, "rental_uris": {"android": "https://dc.lft.to/lastmile_qr_scan", "ios": "https://dc.lft.to/lastmile_qr_scan"}, "fusion_lon": 0.0, "is_reserved": 0, "is_disabled": 0, "fusion_lat": 0.0, "type": "electric_scooter", "name": "6a01c06fa09927d7104a1f98607b00e6", "lat": 38.9023275, "bike_id": "6a01c06fa09927d7104a1f98607b00e6"}, {"lon": -76.99669, "rental_uris": {"android": "https://dc.lft.to/lastmile_qr_scan", "ios": "https://dc.lft.to/lastmile_qr_scan"}, "fusion_lon": 0.0, "is_reserved": 0, "is_disabled": 0, "fusion_lat": 0.0, "type": "electric_scooter", "name": "a4680322e354d788dffee8e0065a5419", "lat": 38.856553166666664, "bike_id": "a4680322e354d788dffee8e0065a5419"}, {"lon": -77.02598766666667, "rental_uris": {"android": "https://dc.lft.to/lastmile_qr_scan", "ios": "https://dc.lft.to/lastmile_qr_scan"}, "fusion_lon": 0.0, "is_reserved": 0, "is_disabled": 0, "fusion_lat": 0.0, "type": "electric_scooter", "name": "4f7c0a348e6237c819d7b60c7f161430", "lat": 38.917166333333334, "bike_id": "4f7c0a348e6237c819d7b60c7f161430"}, {"lon": -77.0552085, "rental_uris": {"android": "https://dc.lft.to/lastmile_qr_scan", "ios": "https://dc.lft.to/lastmile_qr_scan"}, "fusion_lon": 0.0, "is_reserved": 0, "is_disabled": 0, "fusion_lat": 0.0, "type": "electric_scooter", "name": "fe75bd35cf041dc7878b3300819d4543", "lat": 38.89737983333333, "bike_id": "fe75bd35cf041dc7878b3300819d4543"}, {"lon": -77.02176183333333, "rental_uris": {"android": "https://dc.lft.to/lastmile_qr_scan", "ios": "https://dc.lft.to/lastmile_qr_scan"}, "fusion_lon": 0.0, "is_reserved": 0, "is_disabled": 0, "fusion_lat": 0.0, "type": "electric_scooter", "name": "2249e7ad4dc635fcb0dcbabeb585a795", "lat": 38.8874, "bike_id": "2249e7ad4dc635fcb0dcbabeb585a795"}, {"lon": -77.0417235, "rental_uris": {"android": "https://dc.lft.to/lastmile_qr_scan", "ios": "https://dc.lft.to/lastmile_qr_scan"}, "fusion_lon": 0.0, "is_reserved": 0, "is_disabled": 0, "fusion_lat": 0.0, "type": "electric_scooter", "name": "78aec0fdf4d9ca097201a37b5dec1b5f", "lat": 38.8994175, "bike_id": "78aec0fdf4d9ca097201a37b5dec1b5f"}, {"lon": -77.00306733333333, "rental_uris": {"android": "https://dc.lft.to/lastmile_qr_scan", "ios": "https://dc.lft.to/lastmile_qr_scan"}, "fusion_lon": 0.0, "is_reserved": 0, "is_disabled": 0, "fusion_lat": 0.0, "type": "electric_scooter", "name": "16c5bf2d53bb1e367604dfeb9a82efd7", "lat": 38.908783, "bike_id": "16c5bf2d53bb1e367604dfeb9a82efd7"}, {"lon": -77.07362883333333, "rental_uris": {"android": "https://dc.lft.to/lastmile_qr_scan", "ios": "https://dc.lft.to/lastmile_qr_scan"}, "fusion_lon": 0.0, "is_reserved": 0, "is_disabled": 0, "fusion_lat": 0.0, "type": "electric_scooter", "name": "062d8081b32e11ab690075131574a07e", "lat": 38.961414166666664, "bike_id": "062d8081b32e11ab690075131574a07e"}, {"lon": -77.03288383333333, "rental_uris": {"android": "https://dc.lft.to/lastmile_qr_scan", "ios": "https://dc.lft.to/lastmile_qr_scan"}, "fusion_lon": 0.0, "is_reserved": 0, "is_disabled": 0, "fusion_lat": 0.0, "type": "electric_scooter", "name": "5b1c69474c675ce93bf056e976349513", "lat": 38.932585333333336, "bike_id": "5b1c69474c675ce93bf056e976349513"}, {"lon": -77.04833683333334, "rental_uris": {"android": "https://dc.lft.to/lastmile_qr_scan", "ios": "https://dc.lft.to/lastmile_qr_scan"}, "fusion_lon": 0.0, "is_reserved": 0, "is_disabled": 0, "fusion_lat": 0.0, "type": "electric_scooter", "name": "2d386d4a769d7bcc0d2c5319053d0d78", "lat": 38.90517466666667, "bike_id": "2d386d4a769d7bcc0d2c5319053d0d78"}, {"lon": -77.04863216666666, "rental_uris": {"android": "https://dc.lft.to/lastmile_qr_scan", "ios": "https://dc.lft.to/lastmile_qr_scan"}, "fusion_lon": 0.0, "is_reserved": 0, "is_disabled": 0, "fusion_lat": 0.0, "type": "electric_scooter", "name": "55baaa32143bfd34ee7edc1e9788e212", "lat": 38.915189, "bike_id": "55baaa32143bfd34ee7edc1e9788e212"}, {"lon": -77.09057633333333, "rental_uris": {"android": "https://dc.lft.to/lastmile_qr_scan", "ios": "https://dc.lft.to/lastmile_qr_scan"}, "fusion_lon": 0.0, "is_reserved": 0, "is_disabled": 0, "fusion_lat": 0.0, "type": "electric_scooter", "name": "12bc3b6dacd50916b876cfaa4383ac8c", "lat": 38.93440966666667, "bike_id": "12bc3b6dacd50916b876cfaa4383ac8c"}, {"lon": -77.23675216666666, "rental_uris": {"android": "https://dc.lft.to/lastmile_qr_scan", "ios": "https://dc.lft.to/lastmile_qr_scan"}, "fusion_lon": 0.0, "is_reserved": 0, "is_disabled": 0, "fusion_lat": 0.0, "type": "electric_bike", "name": "0934ba6b1488526108324aea5967d12e", "lat": 38.92113066666667, "bike_id": "0934ba6b1488526108324aea5967d12e"}, {"lon": -77.00334066666667, "rental_uris": {"android": "https://dc.lft.to/lastmile_qr_scan", "ios": "https://dc.lft.to/lastmile_qr_scan"}, "fusion_lon": 0.0, "is_reserved": 0, "is_disabled": 0, "fusion_lat": 0.0, "type": "electric_scooter", "name": "87ee82ea7aab8234e766b38b74396886", "lat": 38.8764185, "bike_id": "87ee82ea7aab8234e766b38b74396886"}, {"lon": -77.05315033333333, "rental_uris": {"android": "https://dc.lft.to/lastmile_qr_scan", "ios": "https://dc.lft.to/lastmile_qr_scan"}, "fusion_lon": 0.0, "is_reserved": 0, "is_disabled": 0, "fusion_lat": 0.0, "type": "electric_scooter", "name": "028717b6a8fa7a41cd9ee5d586a65f5e", "lat": 38.9026495, "bike_id": "028717b6a8fa7a41cd9ee5d586a65f5e"}, {"lon": -77.02490333333333, "rental_uris": {"android": "https://dc.lft.to/lastmile_qr_scan", "ios": "https://dc.lft.to/lastmile_qr_scan"}, "fusion_lon": 0.0, "is_reserved": 0, "is_disabled": 0, "fusion_lat": 0.0, "type": "electric_scooter", "name": "0bb8361cbafd1a323766292c1a2a5625", "lat": 38.93096516666667, "bike_id": "0bb8361cbafd1a323766292c1a2a5625"}, {"lon": -77.03806166666666, "rental_uris": {"android": "https://dc.lft.to/lastmile_qr_scan", "ios": "https://dc.lft.to/lastmile_qr_scan"}, "fusion_lon": 0.0, "is_reserved": 0, "is_disabled": 0, "fusion_lat": 0.0, "type": "electric_scooter", "name": "7d4526488a295ecdd71473adc05343bd", "lat": 38.915509166666666, "bike_id": "7d4526488a295ecdd71473adc05343bd"}, {"lon": -76.98725583333334, "rental_uris": {"android": "https://dc.lft.to/lastmile_qr_scan", "ios": "https://dc.lft.to/lastmile_qr_scan"}, "fusion_lon": 0.0, "is_reserved": 0, "is_disabled": 0, "fusion_lat": 0.0, "type": "electric_bike", "name": "603155ffdc3274228217be124b861a01", "lat": 38.8632945, "bike_id": "603155ffdc3274228217be124b861a01"}, {"lon": -77.02138983333333, "rental_uris": {"android": "https://dc.lft.to/lastmile_qr_scan", "ios": "https://dc.lft.to/lastmile_qr_scan"}, "fusion_lon": 0.0, "is_reserved": 0, "is_disabled": 0, "fusion_lat": 0.0, "type": "electric_scooter", "name": "2485a05600230ba365ad570e4c43601a", "lat": 38.924399333333334, "bike_id": "2485a05600230ba365ad570e4c43601a"}, {"lon": -77.04896433333333, "rental_uris": {"android": "https://dc.lft.to/lastmile_qr_scan", "ios": "https://dc.lft.to/lastmile_qr_scan"}, "fusion_lon": 0.0, "is_reserved": 0, "is_disabled": 0, "fusion_lat": 0.0, "type": "electric_scooter", "name": "fa1518aeeaa9c7a1d467ddabcb5507dc", "lat": 38.89224683333333, "bike_id": "fa1518aeeaa9c7a1d467ddabcb5507dc"}, {"lon": -77.023585, "rental_uris": {"android": "https://dc.lft.to/lastmile_qr_scan", "ios": "https://dc.lft.to/lastmile_qr_scan"}, "fusion_lon": 0.0, "is_reserved": 0, "is_disabled": 0, "fusion_lat": 0.0, "type": "electric_scooter", "name": "04b70ecd018597c8ac870be28e6aa7d1", "lat": 38.879352, "bike_id": "04b70ecd018597c8ac870be28e6aa7d1"}, {"lon": -77.028243, "rental_uris": {"android": "https://dc.lft.to/lastmile_qr_scan", "ios": "https://dc.lft.to/lastmile_qr_scan"}, "fusion_lon": 0.0, "is_reserved": 0, "is_disabled": 0, "fusion_lat": 0.0, "type": "electric_scooter", "name": "de2a97c6c14515784c6a2cc21215018b", "lat": 38.922395, "bike_id": "de2a97c6c14515784c6a2cc21215018b"}, {"lon": -77.0366205, "rental_uris": {"android": "https://dc.lft.to/lastmile_qr_scan", "ios": "https://dc.lft.to/lastmile_qr_scan"}, "fusion_lon": 0.0, "is_reserved": 0, "is_disabled": 0, "fusion_lat": 0.0, "type": "electric_scooter", "name": "ffc9b50e02a9bf239256ce20b25070a3", "lat": 38.91126716666667, "bike_id": "ffc9b50e02a9bf239256ce20b25070a3"}, {"lon": -77.07268633333334, "rental_uris": {"android": "https://dc.lft.to/lastmile_qr_scan", "ios": "https://dc.lft.to/lastmile_qr_scan"}, "fusion_lon": 0.0, "is_reserved": 0, "is_disabled": 0, "fusion_lat": 0.0, "type": "electric_scooter", "name": "ee0d29de09830ef6e596eec322786776", "lat": 38.9091345, "bike_id": "ee0d29de09830ef6e596eec322786776"}, {"lon": -77.03387883333333, "rental_uris": {"android": "https://dc.lft.to/lastmile_qr_scan", "ios": "https://dc.lft.to/lastmile_qr_scan"}, "fusion_lon": 0.0, "is_reserved": 0, "is_disabled": 0, "fusion_lat": 0.0, "type": "electric_scooter", "name": "1450874539114c86710c3e055a7c15ba", "lat": 38.938515, "bike_id": "1450874539114c86710c3e055a7c15ba"}, {"lon": -77.04152683333334, "rental_uris": {"android": "https://dc.lft.to/lastmile_qr_scan", "ios": "https://dc.lft.to/lastmile_qr_scan"}, "fusion_lon": 0.0, "is_reserved": 0, "is_disabled": 0, "fusion_lat": 0.0, "type": "electric_scooter", "name": "784c8eacf3f6278a0eb9d85f283650df", "lat": 38.907222833333336, "bike_id": "784c8eacf3f6278a0eb9d85f283650df"}, {"lon": -76.96977333333334, "rental_uris": {"android": "https://dc.lft.to/lastmile_qr_scan", "ios": "https://dc.lft.to/lastmile_qr_scan"}, "fusion_lon": 0.0, "is_reserved": 0, "is_disabled": 0, "fusion_lat": 0.0, "type": "electric_scooter", "name": "c6befc67bdf575150bac82e5eda3c3c8", "lat": 38.873783833333334, "bike_id": "c6befc67bdf575150bac82e5eda3c3c8"}, {"lon": -77.08066866666667, "rental_uris": {"android": "https://dc.lft.to/lastmile_qr_scan", "ios": "https://dc.lft.to/lastmile_qr_scan"}, "fusion_lon": 0.0, "is_reserved": 0, "is_disabled": 0, "fusion_lat": 0.0, "type": "electric_scooter", "name": "5cad7590db2218f5accd3935ac275ff8", "lat": 38.95601933333333, "bike_id": "5cad7590db2218f5accd3935ac275ff8"}, {"lon": -77.02792733333334, "rental_uris": {"android": "https://dc.lft.to/lastmile_qr_scan", "ios": "https://dc.lft.to/lastmile_qr_scan"}, "fusion_lon": 0.0, "is_reserved": 0, "is_disabled": 0, "fusion_lat": 0.0, "type": "electric_scooter", "name": "2d2244f962ccb124cd4608ffe797c66d", "lat": 38.95401316666667, "bike_id": "2d2244f962ccb124cd4608ffe797c66d"}, {"lon": -77.03177116666667, "rental_uris": {"android": "https://dc.lft.to/lastmile_qr_scan", "ios": "https://dc.lft.to/lastmile_qr_scan"}, "fusion_lon": 0.0, "is_reserved": 0, "is_disabled": 0, "fusion_lat": 0.0, "type": "electric_bike", "name": "3531e5a8ded1320a00fb673681116fc6", "lat": 38.916484833333335, "bike_id": "3531e5a8ded1320a00fb673681116fc6"}, {"lon": -76.95751766666666, "rental_uris": {"android": "https://dc.lft.to/lastmile_qr_scan", "ios": "https://dc.lft.to/lastmile_qr_scan"}, "fusion_lon": 0.0, "is_reserved": 0, "is_disabled": 0, "fusion_lat": 0.0, "type": "electric_scooter", "name": "5b4fc2ab0cb6854ea7de89fbf18605b2", "lat": 38.884249833333335, "bike_id": "5b4fc2ab0cb6854ea7de89fbf18605b2"}, {"lon": -77.04329116666666, "rental_uris": {"android": "https://dc.lft.to/lastmile_qr_scan", "ios": "https://dc.lft.to/lastmile_qr_scan"}, "fusion_lon": 0.0, "is_reserved": 0, "is_disabled": 0, "fusion_lat": 0.0, "type": "electric_scooter", "name": "888374597e77913bc80ccf38468af5ad", "lat": 38.91041416666667, "bike_id": "888374597e77913bc80ccf38468af5ad"}, {"lon": -77.001455, "rental_uris": {"android": "https://dc.lft.to/lastmile_qr_scan", "ios": "https://dc.lft.to/lastmile_qr_scan"}, "fusion_lon": 0.0, "is_reserved": 0, "is_disabled": 0, "fusion_lat": 0.0, "type": "electric_scooter", "name": "1223d59c1c2b663204c81275d864b844", "lat": 38.910750666666665, "bike_id": "1223d59c1c2b663204c81275d864b844"}, {"lon": -77.05070616666667, "rental_uris": {"android": "https://dc.lft.to/lastmile_qr_scan", "ios": "https://dc.lft.to/lastmile_qr_scan"}, "fusion_lon": 0.0, "is_reserved": 0, "is_disabled": 0, "fusion_lat": 0.0, "type": "electric_scooter", "name": "d87f1f83ee5f93b45ee0418fd44f9557", "lat": 38.91632333333333, "bike_id": "d87f1f83ee5f93b45ee0418fd44f9557"}, {"lon": -77.021507, "rental_uris": {"android": "https://dc.lft.to/lastmile_qr_scan", "ios": "https://dc.lft.to/lastmile_qr_scan"}, "fusion_lon": 0.0, "is_reserved": 0, "is_disabled": 0, "fusion_lat": 0.0, "type": "electric_scooter", "name": "79d41f7942cf2a4e0171e344fc27e055", "lat": 38.89694133333333, "bike_id": "79d41f7942cf2a4e0171e344fc27e055"}, {"lon": -77.01375066666667, "rental_uris": {"android": "https://dc.lft.to/lastmile_qr_scan", "ios": "https://dc.lft.to/lastmile_qr_scan"}, "fusion_lon": 0.0, "is_reserved": 0, "is_disabled": 0, "fusion_lat": 0.0, "type": "electric_scooter", "name": "a012a3673546cc43a5b33a63a3f90609", "lat": 38.9287335, "bike_id": "a012a3673546cc43a5b33a63a3f90609"}, {"lon": -76.97728883333333, "rental_uris": {"android": "https://dc.lft.to/lastmile_qr_scan", "ios": "https://dc.lft.to/lastmile_qr_scan"}, "fusion_lon": 0.0, "is_reserved": 0, "is_disabled": 0, "fusion_lat": 0.0, "type": "electric_bike", "name": "116ac74cbb421411d0bb805e4d5f5eb3", "lat": 38.865115333333335, "bike_id": "116ac74cbb421411d0bb805e4d5f5eb3"}, {"lon": -77.04481916666667, "rental_uris": {"android": "https://dc.lft.to/lastmile_qr_scan", "ios": "https://dc.lft.to/lastmile_qr_scan"}, "fusion_lon": 0.0, "is_reserved": 0, "is_disabled": 0, "fusion_lat": 0.0, "type": "electric_scooter", "name": "b0d04bb4db462e58eb021b9ca466b873", "lat": 38.8990235, "bike_id": "b0d04bb4db462e58eb021b9ca466b873"}, {"lon": -77.04109733333334, "rental_uris": {"android": "https://dc.lft.to/lastmile_qr_scan", "ios": "https://dc.lft.to/lastmile_qr_scan"}, "fusion_lon": 0.0, "is_reserved": 0, "is_disabled": 0, "fusion_lat": 0.0, "type": "electric_scooter", "name": "bf3018f5611c49d0b90f0aa7042ab3cf", "lat": 38.901414333333335, "bike_id": "bf3018f5611c49d0b90f0aa7042ab3cf"}, {"lon": -77.02727316666666, "rental_uris": {"android": "https://dc.lft.to/lastmile_qr_scan", "ios": "https://dc.lft.to/lastmile_qr_scan"}, "fusion_lon": 0.0, "is_reserved": 0, "is_disabled": 0, "fusion_lat": 0.0, "type": "electric_scooter", "name": "3dc97de6b5fc355365909fd5d4d604a2", "lat": 38.94088283333333, "bike_id": "3dc97de6b5fc355365909fd5d4d604a2"}, {"lon": -77.0486755, "rental_uris": {"android": "https://dc.lft.to/lastmile_qr_scan", "ios": "https://dc.lft.to/lastmile_qr_scan"}, "fusion_lon": 0.0, "is_reserved": 0, "is_disabled": 0, "fusion_lat": 0.0, "type": "electric_scooter", "name": "a8d627e60a62d042a1cf0f575d49a97d", "lat": 38.892191, "bike_id": "a8d627e60a62d042a1cf0f575d49a97d"}, {"lon": -77.01891, "rental_uris": {"android": "https://dc.lft.to/lastmile_qr_scan", "ios": "https://dc.lft.to/lastmile_qr_scan"}, "fusion_lon": 0.0, "is_reserved": 0, "is_disabled": 0, "fusion_lat": 0.0, "type": "electric_scooter", "name": "593b6cd75b30c3afa169852043fdb9cc", "lat": 38.9226895, "bike_id": "593b6cd75b30c3afa169852043fdb9cc"}, {"lon": -77.02380283333333, "rental_uris": {"android": "https://dc.lft.to/lastmile_qr_scan", "ios": "https://dc.lft.to/lastmile_qr_scan"}, "fusion_lon": 0.0, "is_reserved": 0, "is_disabled": 0, "fusion_lat": 0.0, "type": "electric_scooter", "name": "ea987632b1e468530d1faa1657759c20", "lat": 38.891952833333335, "bike_id": "ea987632b1e468530d1faa1657759c20"}, {"lon": -76.98434683333333, "rental_uris": {"android": "https://dc.lft.to/lastmile_qr_scan", "ios": "https://dc.lft.to/lastmile_qr_scan"}, "fusion_lon": 0.0, "is_reserved": 0, "is_disabled": 0, "fusion_lat": 0.0, "type": "electric_scooter", "name": "3cac12f124e0fef5096db6569f078ae4", "lat": 38.93274666666667, "bike_id": "3cac12f124e0fef5096db6569f078ae4"}, {"lon": -77.0527035, "rental_uris": {"android": "https://dc.lft.to/lastmile_qr_scan", "ios": "https://dc.lft.to/lastmile_qr_scan"}, "fusion_lon": 0.0, "is_reserved": 0, "is_disabled": 0, "fusion_lat": 0.0, "type": "electric_scooter", "name": "f2ec46e1f6402939816f49cb41c8b2c2", "lat": 38.92757983333333, "bike_id": "f2ec46e1f6402939816f49cb41c8b2c2"}, {"lon": -77.019957, "rental_uris": {"android": "https://dc.lft.to/lastmile_qr_scan", "ios": "https://dc.lft.to/lastmile_qr_scan"}, "fusion_lon": 0.0, "is_reserved": 0, "is_disabled": 0, "fusion_lat": 0.0, "type": "electric_scooter", "name": "069fa069cfd7c602d3b5e1f39053a793", "lat": 38.914904166666666, "bike_id": "069fa069cfd7c602d3b5e1f39053a793"}, {"lon": -77.01016066666666, "rental_uris": {"android": "https://dc.lft.to/lastmile_qr_scan", "ios": "https://dc.lft.to/lastmile_qr_scan"}, "fusion_lon": 0.0, "is_reserved": 0, "is_disabled": 0, "fusion_lat": 0.0, "type": "electric_scooter", "name": "b4ba8f20459fcb0087435d55e0f4f52f", "lat": 38.91403666666667, "bike_id": "b4ba8f20459fcb0087435d55e0f4f52f"}, {"lon": -77.021562, "rental_uris": {"android": "https://dc.lft.to/lastmile_qr_scan", "ios": "https://dc.lft.to/lastmile_qr_scan"}, "fusion_lon": 0.0, "is_reserved": 0, "is_disabled": 0, "fusion_lat": 0.0, "type": "electric_scooter", "name": "f35278e857a793e099fa9ee54a53ccea", "lat": 38.926025333333335, "bike_id": "f35278e857a793e099fa9ee54a53ccea"}, {"lon": -76.931737, "rental_uris": {"android": "https://dc.lft.to/lastmile_qr_scan", "ios": "https://dc.lft.to/lastmile_qr_scan"}, "fusion_lon": 0.0, "is_reserved": 0, "is_disabled": 0, "fusion_lat": 0.0, "type": "electric_scooter", "name": "58e13f5f114a93e09787b0d25d7bbb41", "lat": 38.89883183333333, "bike_id": "58e13f5f114a93e09787b0d25d7bbb41"}, {"lon": -77.032059, "rental_uris": {"android": "https://dc.lft.to/lastmile_qr_scan", "ios": "https://dc.lft.to/lastmile_qr_scan"}, "fusion_lon": 0.0, "is_reserved": 0, "is_disabled": 0, "fusion_lat": 0.0, "type": "electric_scooter", "name": "a400f7551285d10aea526c9c5a650406", "lat": 38.916258, "bike_id": "a400f7551285d10aea526c9c5a650406"}, {"lon": -77.0435775, "rental_uris": {"android": "https://dc.lft.to/lastmile_qr_scan", "ios": "https://dc.lft.to/lastmile_qr_scan"}, "fusion_lon": 0.0, "is_reserved": 0, "is_disabled": 0, "fusion_lat": 0.0, "type": "electric_scooter", "name": "c583620d20c37ca6fe664873032b2dcc", "lat": 38.903584333333335, "bike_id": "c583620d20c37ca6fe664873032b2dcc"}, {"lon": -77.02804833333333, "rental_uris": {"android": "https://dc.lft.to/lastmile_qr_scan", "ios": "https://dc.lft.to/lastmile_qr_scan"}, "fusion_lon": 0.0, "is_reserved": 0, "is_disabled": 0, "fusion_lat": 0.0, "type": "electric_scooter", "name": "156dfdfe5cc4a08cf7ea41f5b7671e79", "lat": 38.944480666666664, "bike_id": "156dfdfe5cc4a08cf7ea41f5b7671e79"}, {"lon": -77.0424535, "rental_uris": {"android": "https://dc.lft.to/lastmile_qr_scan", "ios": "https://dc.lft.to/lastmile_qr_scan"}, "fusion_lon": 0.0, "is_reserved": 0, "is_disabled": 0, "fusion_lat": 0.0, "type": "electric_scooter", "name": "ea7842a91de5a894a5a0f46abc0c6f2b", "lat": 38.9218885, "bike_id": "ea7842a91de5a894a5a0f46abc0c6f2b"}, {"lon": -77.04999683333334, "rental_uris": {"android": "https://dc.lft.to/lastmile_qr_scan", "ios": "https://dc.lft.to/lastmile_qr_scan"}, "fusion_lon": 0.0, "is_reserved": 0, "is_disabled": 0, "fusion_lat": 0.0, "type": "electric_scooter", "name": "e8ad4e761e0623f8dfba88a42e0e3b08", "lat": 38.89226266666667, "bike_id": "e8ad4e761e0623f8dfba88a42e0e3b08"}, {"lon": -77.02942366666667, "rental_uris": {"android": "https://dc.lft.to/lastmile_qr_scan", "ios": "https://dc.lft.to/lastmile_qr_scan"}, "fusion_lon": 0.0, "is_reserved": 0, "is_disabled": 0, "fusion_lat": 0.0, "type": "electric_scooter", "name": "994f4267f9a257d1259d536483500097", "lat": 38.91691133333333, "bike_id": "994f4267f9a257d1259d536483500097"}, {"lon": -77.01214116666667, "rental_uris": {"android": "https://dc.lft.to/lastmile_qr_scan", "ios": "https://dc.lft.to/lastmile_qr_scan"}, "fusion_lon": 0.0, "is_reserved": 0, "is_disabled": 0, "fusion_lat": 0.0, "type": "electric_scooter", "name": "862e62c5352fb247e6d701a8a51a8fa0", "lat": 38.8977855, "bike_id": "862e62c5352fb247e6d701a8a51a8fa0"}, {"lon": -77.03431266666666, "rental_uris": {"android": "https://dc.lft.to/lastmile_qr_scan", "ios": "https://dc.lft.to/lastmile_qr_scan"}, "fusion_lon": 0.0, "is_reserved": 0, "is_disabled": 0, "fusion_lat": 0.0, "type": "electric_bike", "name": "0cd1fac4c4525c44c4d5d31c14613bca", "lat": 38.966144166666666, "bike_id": "0cd1fac4c4525c44c4d5d31c14613bca"}, {"lon": -76.96149166666666, "rental_uris": {"android": "https://dc.lft.to/lastmile_qr_scan", "ios": "https://dc.lft.to/lastmile_qr_scan"}, "fusion_lon": 0.0, "is_reserved": 0, "is_disabled": 0, "fusion_lat": 0.0, "type": "electric_bike", "name": "f5d3cb01c978b1f64a3d5b054da128f3", "lat": 38.85620566666667, "bike_id": "f5d3cb01c978b1f64a3d5b054da128f3"}, {"lon": -76.994349, "rental_uris": {"android": "https://dc.lft.to/lastmile_qr_scan", "ios": "https://dc.lft.to/lastmile_qr_scan"}, "fusion_lon": 0.0, "is_reserved": 0, "is_disabled": 0, "fusion_lat": 0.0, "type": "electric_scooter", "name": "3b24ecab3c44c244dec27d48c38f7126", "lat": 38.941769, "bike_id": "3b24ecab3c44c244dec27d48c38f7126"}, {"lon": -77.02308583333334, "rental_uris": {"android": "https://dc.lft.to/lastmile_qr_scan", "ios": "https://dc.lft.to/lastmile_qr_scan"}, "fusion_lon": 0.0, "is_reserved": 0, "is_disabled": 0, "fusion_lat": 0.0, "type": "electric_scooter", "name": "21acbccfecc8f714bd473b3d9aaad240", "lat": 38.927703, "bike_id": "21acbccfecc8f714bd473b3d9aaad240"}, {"lon": -77.0487055, "rental_uris": {"android": "https://dc.lft.to/lastmile_qr_scan", "ios": "https://dc.lft.to/lastmile_qr_scan"}, "fusion_lon": 0.0, "is_reserved": 0, "is_disabled": 0, "fusion_lat": 0.0, "type": "electric_scooter", "name": "b94952138f8cd4cac0ca15260d3db492", "lat": 38.8922425, "bike_id": "b94952138f8cd4cac0ca15260d3db492"}, {"lon": -77.01953266666666, "rental_uris": {"android": "https://dc.lft.to/lastmile_qr_scan", "ios": "https://dc.lft.to/lastmile_qr_scan"}, "fusion_lon": 0.0, "is_reserved": 0, "is_disabled": 0, "fusion_lat": 0.0, "type": "electric_scooter", "name": "4f5cce212c4c721e58dc800040377e8a", "lat": 38.89308, "bike_id": "4f5cce212c4c721e58dc800040377e8a"}, {"lon": -77.03175783333333, "rental_uris": {"android": "https://dc.lft.to/lastmile_qr_scan", "ios": "https://dc.lft.to/lastmile_qr_scan"}, "fusion_lon": 0.0, "is_reserved": 0, "is_disabled": 0, "fusion_lat": 0.0, "type": "electric_scooter", "name": "35cc1b647fadb3533b7cca6841fdfef5", "lat": 38.935992166666665, "bike_id": "35cc1b647fadb3533b7cca6841fdfef5"}, {"lon": -77.00710583333333, "rental_uris": {"android": "https://dc.lft.to/lastmile_qr_scan", "ios": "https://dc.lft.to/lastmile_qr_scan"}, "fusion_lon": 0.0, "is_reserved": 0, "is_disabled": 0, "fusion_lat": 0.0, "type": "electric_scooter", "name": "1a16a7ab4ff96d653825af45682d06fa", "lat": 38.88486, "bike_id": "1a16a7ab4ff96d653825af45682d06fa"}, {"lon": -77.03102233333334, "rental_uris": {"android": "https://dc.lft.to/lastmile_qr_scan", "ios": "https://dc.lft.to/lastmile_qr_scan"}, "fusion_lon": 0.0, "is_reserved": 0, "is_disabled": 0, "fusion_lat": 0.0, "type": "electric_scooter", "name": "03fb70617ec8ebb7b5f61a367fb3282f", "lat": 38.92385683333333, "bike_id": "03fb70617ec8ebb7b5f61a367fb3282f"}, {"lon": -77.05073533333334, "rental_uris": {"android": "https://dc.lft.to/lastmile_qr_scan", "ios": "https://dc.lft.to/lastmile_qr_scan"}, "fusion_lon": 0.0, "is_reserved": 0, "is_disabled": 0, "fusion_lat": 0.0, "type": "electric_scooter", "name": "9bcb6c67649098fe0f2dfa4b998a307c", "lat": 38.89978083333333, "bike_id": "9bcb6c67649098fe0f2dfa4b998a307c"}, {"lon": -77.03476866666666, "rental_uris": {"android": "https://dc.lft.to/lastmile_qr_scan", "ios": "https://dc.lft.to/lastmile_qr_scan"}, "fusion_lon": 0.0, "is_reserved": 0, "is_disabled": 0, "fusion_lat": 0.0, "type": "electric_scooter", "name": "c75f0378f9ea8c9fb4f5e42ccef567c1", "lat": 38.884850666666665, "bike_id": "c75f0378f9ea8c9fb4f5e42ccef567c1"}, {"lon": -77.01226633333333, "rental_uris": {"android": "https://dc.lft.to/lastmile_qr_scan", "ios": "https://dc.lft.to/lastmile_qr_scan"}, "fusion_lon": 0.0, "is_reserved": 0, "is_disabled": 0, "fusion_lat": 0.0, "type": "electric_scooter", "name": "a22c311deccd1e6677b845af5251dfaf", "lat": 38.89817566666667, "bike_id": "a22c311deccd1e6677b845af5251dfaf"}, {"lon": -77.04329633333333, "rental_uris": {"android": "https://dc.lft.to/lastmile_qr_scan", "ios": "https://dc.lft.to/lastmile_qr_scan"}, "fusion_lon": 0.0, "is_reserved": 0, "is_disabled": 0, "fusion_lat": 0.0, "type": "electric_scooter", "name": "f7955fbc31cbfcc51252c197899fdd1e", "lat": 38.89218533333333, "bike_id": "f7955fbc31cbfcc51252c197899fdd1e"}, {"lon": -77.0272605, "rental_uris": {"android": "https://dc.lft.to/lastmile_qr_scan", "ios": "https://dc.lft.to/lastmile_qr_scan"}, "fusion_lon": 0.0, "is_reserved": 0, "is_disabled": 0, "fusion_lat": 0.0, "type": "electric_scooter", "name": "32c2a15e96437e8835f8cd4324bb0251", "lat": 38.89617416666667, "bike_id": "32c2a15e96437e8835f8cd4324bb0251"}, {"lon": -77.018218, "rental_uris": {"android": "https://dc.lft.to/lastmile_qr_scan", "ios": "https://dc.lft.to/lastmile_qr_scan"}, "fusion_lon": 0.0, "is_reserved": 0, "is_disabled": 0, "fusion_lat": 0.0, "type": "electric_scooter", "name": "6ac4b90928fd0c14c110e5bc36f6c48a", "lat": 38.921523666666666, "bike_id": "6ac4b90928fd0c14c110e5bc36f6c48a"}, {"lon": -77.04407616666667, "rental_uris": {"android": "https://dc.lft.to/lastmile_qr_scan", "ios": "https://dc.lft.to/lastmile_qr_scan"}, "fusion_lon": 0.0, "is_reserved": 0, "is_disabled": 0, "fusion_lat": 0.0, "type": "electric_scooter", "name": "27b618fbacf85fc46c777165308ea618", "lat": 38.910845, "bike_id": "27b618fbacf85fc46c777165308ea618"}, {"lon": -77.0503655, "rental_uris": {"android": "https://dc.lft.to/lastmile_qr_scan", "ios": "https://dc.lft.to/lastmile_qr_scan"}, "fusion_lon": 0.0, "is_reserved": 0, "is_disabled": 0, "fusion_lat": 0.0, "type": "electric_scooter", "name": "a69f4bbaea430105b8098575494792ef", "lat": 38.92516416666667, "bike_id": "a69f4bbaea430105b8098575494792ef"},