{"data": {"bikes": [{"lon": -77.04491233333333, "fusion_lon": 0.0, "bike_id": "26284313ccab71f6e003f1dfc3690a95", "type": "electric_scooter", "name": "26284313ccab71f6e003f1dfc3690a95", "rental_uris": {"android": "https://dc.lft.to/lastmile_qr_scan", "ios": "https://dc.lft.to/lastmile_qr_scan"}, "is_disabled": 0, "fusion_lat": 0.0, "lat": 38.897502, "is_reserved": 0}, {"lon": -77.014059, "fusion_lon": 0.0, "bike_id": "9f7828fd73018aa2aa8a50c8d5ed1007", "type": "electric_scooter", "name": "9f7828fd73018aa2aa8a50c8d5ed1007", "rental_uris": {"android": "https://dc.lft.to/lastmile_qr_scan", "ios": "https://dc.lft.to/lastmile_qr_scan"}, "is_disabled": 0, "fusion_lat": 0.0, "lat": 38.942298666666666, "is_reserved": 0}, {"lon": -77.01984216666666, "fusion_lon": 0.0, "bike_id": "6c18f72a01c4cbd4058a6390681d1702", "type": "electric_scooter", "name": "6c18f72a01c4cbd4058a6390681d1702", "rental_uris": {"android": "https://dc.lft.to/lastmile_qr_scan", "ios": "https://dc.lft.to/lastmile_qr_scan"}, "is_disabled": 0, "fusion_lat": 0.0, "lat": 38.88721833333334, "is_reserved": 0}, {"lon": -77.010815, "fusion_lon": 0.0, "bike_id": "5c68998f91d7d090c7a1caefa89ebd60", "type": "electric_scooter", "name": "5c68998f91d7d090c7a1caefa89ebd60", "rental_uris": {"android": "https://dc.lft.to/lastmile_qr_scan", "ios": "https://dc.lft.to/lastmile_qr_scan"}, "is_disabled": 0, "fusion_lat": 0.0, "lat": 38.90958533333333, "is_reserved": 0}, {"lon": -77.02628333333334, "fusion_lon": 0.0, "bike_id": "a3da26e4ed25a59f71a8b614e14dc806", "type": "electric_scooter", "name": "a3da26e4ed25a59f71a8b614e14dc806", "rental_uris": {"android": "https://dc.lft.to/lastmile_qr_scan", "ios": "https://dc.lft.to/lastmile_qr_scan"}, "is_disabled": 0, "fusion_lat": 0.0, "lat": 38.894379, "is_reserved": 0}, {"lon": -77.03592133333333, "fusion_lon": 0.0, "bike_id": "6021a1b1653373fbacd0920583f29692", "type": "electric_scooter", "name": "6021a1b1653373fbacd0920583f29692", "rental_uris": {"android": "https://dc.lft.to/lastmile_qr_scan", "ios": "https://dc.lft.to/lastmile_qr_scan"}, "is_disabled": 0, "fusion_lat": 0.0, "lat": 38.90372383333333, "is_reserved": 0}, {"lon": -77.01531166666666, "fusion_lon": 0.0, "bike_id": "549156b381ea25c031bddf8078170fb5", "type": "electric_bike", "name": "549156b381ea25c031bddf8078170fb5", "rental_uris": {"android": "https://dc.lft.to/lastmile_qr_scan", "ios": "https://dc.lft.to/lastmile_qr_scan"}, "is_disabled": 0, "fusion_lat": 0.0, "lat": 38.95121366666667, "is_reserved": 0}, {"lon": -76.93025516666667, "fusion_lon": 0.0, "bike_id": "971e744be1d40e30b5cacd16468aef9a", "type": "electric_scooter", "name": "971e744be1d40e30b5cacd16468aef9a", "rental_uris": {"android": "https://dc.lft.to/lastmile_qr_scan", "ios": "https://dc.lft.to/lastmile_qr_scan"}, "is_disabled": 0, "fusion_lat": 0.0, "lat": 38.90166333333333, "is_reserved": 0}, {"lon": -76.97373383333333, "fusion_lon": 0.0, "bike_id": "38445866ab5f8b49b8732314c37ef58c", "type": "electric_bike", "name": "38445866ab5f8b49b8732314c37ef58c", "rental_uris": {"android": "https://dc.lft.to/lastmile_qr_scan", "ios": "https://dc.lft.to/lastmile_qr_scan"}, "is_disabled": 0, "fusion_lat": 0.0, "lat": 38.963173, "is_reserved": 0}, {"lon": -77.00147183333333, "fusion_lon": 0.0, "bike_id": "03aba484a49d94ae657886b176ec0f9d", "type": "electric_scooter", "name": "03aba484a49d94ae657886b176ec0f9d", "rental_uris": {"android": "https://dc.lft.to/lastmile_qr_scan", "ios": "https://dc.lft.to/lastmile_qr_scan"}, "is_disabled": 0, "fusion_lat": 0.0, "lat": 38.8731255, "is_reserved": 0}, {"lon": -77.0409365, "fusion_lon": 0.0, "bike_id": "845ac187b28f157731644fb3a034bd93", "type": "electric_scooter", "name": "845ac187b28f157731644fb3a034bd93", "rental_uris": {"android": "https://dc.lft.to/lastmile_qr_scan", "ios": "https://dc.lft.to/lastmile_qr_scan"}, "is_disabled": 0, "fusion_lat": 0.0, "lat": 38.907204166666666, "is_reserved": 0}, {"lon": -77.08308266666667, "fusion_lon": 0.0, "bike_id": "23d9a3d3f6ec8547197aa9758ab274c7", "type": "electric_scooter", "name": "23d9a3d3f6ec8547197aa9758ab274c7", "rental_uris": {"android": "https://dc.lft.to/lastmile_qr_scan", "ios": "https://dc.lft.to/lastmile_qr_scan"}, "is_disabled": 0, "fusion_lat": 0.0, "lat": 38.92847666666667, "is_reserved": 0}, {"lon": -77.03224266666666, "fusion_lon": 0.0, "bike_id": "f45fb03e11d121d214d21fd44a5ac118", "type": "electric_scooter", "name": "f45fb03e11d121d214d21fd44a5ac118", "rental_uris": {"android": "https://dc.lft.to/lastmile_qr_scan", "ios": "https://dc.lft.to/lastmile_qr_scan"}, "is_disabled": 0, "fusion_lat": 0.0, "lat": 38.92589233333333, "is_reserved": 0}, {"lon": -77.01693866666666, "fusion_lon": 0.0, "bike_id": "18feaa5a0a083fee94a890cc93534fad", "type": "electric_scooter", "name": "18feaa5a0a083fee94a890cc93534fad", "rental_uris": {"android": "https://dc.lft.to/lastmile_qr_scan", "ios": "https://dc.lft.to/lastmile_qr_scan"}, "is_disabled": 0, "fusion_lat": 0.0, "lat": 38.97496816666666, "is_reserved": 0}, {"lon": -77.03454166666667, "fusion_lon": 0.0, "bike_id": "e8e8372b620439947ed813b9da6b0a14", "type": "electric_scooter", "name": "e8e8372b620439947ed813b9da6b0a14", "rental_uris": {"android": "https://dc.lft.to/lastmile_qr_scan", "ios": "https://dc.lft.to/lastmile_qr_scan"}, "is_disabled": 0, "fusion_lat": 0.0, "lat": 38.90439816666667, "is_reserved": 0}, {"lon": -76.97255183333333, "fusion_lon": 0.0, "bike_id": "b5b257fa034edb8d56bf9ed04647bdb6", "type": "electric_bike", "name": "b5b257fa034edb8d56bf9ed04647bdb6", "rental_uris": {"android": "https://dc.lft.to/lastmile_qr_scan", "ios": "https://dc.lft.to/lastmile_qr_scan"}, "is_disabled": 0, "fusion_lat": 0.0, "lat": 38.957448666666664, "is_reserved": 0}, {"lon": -76.94793, "fusion_lon": 0.0, "bike_id": "c997f4e941d9da05c86c28db9ee52ca5", "type": "electric_scooter", "name": "c997f4e941d9da05c86c28db9ee52ca5", "rental_uris": {"android": "https://dc.lft.to/lastmile_qr_scan", "ios": "https://dc.lft.to/lastmile_qr_scan"}, "is_disabled": 0, "fusion_lat": 0.0, "lat": 38.8963305, "is_reserved": 0}, {"lon": -76.9825625, "fusion_lon": 0.0, "bike_id": "4bb1bb8da685ff861042424f20cc0b10", "type": "electric_bike", "name": "4bb1bb8da685ff861042424f20cc0b10", "rental_uris": {"android": "https://dc.lft.to/lastmile_qr_scan", "ios": "https://dc.lft.to/lastmile_qr_scan"}, "is_disabled": 0, "fusion_lat": 0.0, "lat": 38.953322666666665, "is_reserved": 0}, {"lon": -77.03535616666667, "fusion_lon": 0.0, "bike_id": "02916f71709dd6f1922edab760baed5b", "type": "electric_scooter", "name": "02916f71709dd6f1922edab760baed5b", "rental_uris": {"android": "https://dc.lft.to/lastmile_qr_scan", "ios": "https://dc.lft.to/lastmile_qr_scan"}, "is_disabled": 0, "fusion_lat": 0.0, "lat": 38.924026833333336, "is_reserved": 0}, {"lon": -77.04534266666667, "fusion_lon": 0.0, "bike_id": "5656efb6596adebf6099b0af6783cd89", "type": "electric_scooter", "name": "5656efb6596adebf6099b0af6783cd89", "rental_uris": {"android": "https://dc.lft.to/lastmile_qr_scan", "ios": "https://dc.lft.to/lastmile_qr_scan"}, "is_disabled": 0, "fusion_lat": 0.0, "lat": 38.93458416666667, "is_reserved": 0}, {"lon": -77.03513983333333, "fusion_lon": 0.0, "bike_id": "6f00172652a0dd5890868f597a6e52d4", "type": "electric_scooter", "name": "6f00172652a0dd5890868f597a6e52d4", "rental_uris": {"android": "https://dc.lft.to/lastmile_qr_scan", "ios": "https://dc.lft.to/lastmile_qr_scan"}, "is_disabled": 0, "fusion_lat": 0.0, "lat": 38.92333133333333, "is_reserved": 0}, {"lon": -76.97233066666666, "fusion_lon": 0.0, "bike_id": "6445fe1a4a2a569b6438ff51cf8e6ca9", "type": "electric_bike", "name": "6445fe1a4a2a569b6438ff51cf8e6ca9", "rental_uris": {"android": "https://dc.lft.to/lastmile_qr_scan", "ios": "https://dc.lft.to/lastmile_qr_scan"}, "is_disabled": 0, "fusion_lat": 0.0, "lat": 38.90035016666667, "is_reserved": 0}, {"lon": -77.01438466666667, "fusion_lon": 0.0, "bike_id": "bc05b90d419a779eb53cd992822c1831", "type": "electric_scooter", "name": "bc05b90d419a779eb53cd992822c1831", "rental_uris": {"android": "https://dc.lft.to/lastmile_qr_scan", "ios": "https://dc.lft.to/lastmile_qr_scan"}, "is_disabled": 0, "fusion_lat": 0.0, "lat": 38.913133333333334, "is_reserved": 0}, {"lon": -77.0420255, "fusion_lon": 0.0, "bike_id": "38ef96a776d51d7c9ef5e5c54d9a6cdc", "type": "electric_scooter", "name": "38ef96a776d51d7c9ef5e5c54d9a6cdc", "rental_uris": {"android": "https://dc.lft.to/lastmile_qr_scan", "ios": "https://dc.lft.to/lastmile_qr_scan"}, "is_disabled": 0, "fusion_lat": 0.0, "lat": 38.90397216666667, "is_reserved": 0}, {"lon": -77.05642183333333, "fusion_lon": 0.0, "bike_id": "c31375b96b1cf7bac20726629745ac56", "type": "electric_scooter", "name": "c31375b96b1cf7bac20726629745ac56", "rental_uris": {"android": "https://dc.lft.to/lastmile_qr_scan", "ios": "https://dc.lft.to/lastmile_qr_scan"}, "is_disabled": 0, "fusion_lat": 0.0, "lat": 38.92313466666667, "is_reserved": 0}, {"lon": -77.027853, "fusion_lon": 0.0, "bike_id": "13ad5bcb419d94d3d9063a4eea76b4a7", "type": "electric_scooter", "name": "13ad5bcb419d94d3d9063a4eea76b4a7", "rental_uris": {"android": "https://dc.lft.to/lastmile_qr_scan", "ios": "https://dc.lft.to/lastmile_qr_scan"}, "is_disabled": 0, "fusion_lat": 0.0, "lat": 38.89589516666667, "is_reserved": 0}, {"lon": -77.03849883333334, "fusion_lon": 0.0, "bike_id": "4f0513f27ea30251569559fd03b61e69", "type": "electric_scooter", "name": "4f0513f27ea30251569559fd03b61e69", "rental_uris": {"android": "https://dc.lft.to/lastmile_qr_scan", "ios": "https://dc.lft.to/lastmile_qr_scan"}, "is_disabled": 0, "fusion_lat": 0.0, "lat": 38.91075283333333, "is_reserved": 0}, {"lon": -77.020942, "fusion_lon": 0.0, "bike_id": "55a3361b09a8f3473b1956b7bfb5a035", "type": "electric_scooter", "name": "55a3361b09a8f3473b1956b7bfb5a035", "rental_uris": {"android": "https://dc.lft.to/lastmile_qr_scan", "ios": "https://dc.lft.to/lastmile_qr_scan"}, "is_disabled": 0, "fusion_lat": 0.0, "lat": 38.9271995, "is_reserved": 0}, {"lon": -77.04495266666666, "fusion_lon": 0.0, "bike_id": "97e4819eb07e16fefbd63c84132746f0", "type": "electric_scooter", "name": "97e4819eb07e16fefbd63c84132746f0", "rental_uris": {"android": "https://dc.lft.to/lastmile_qr_scan", "ios": "https://dc.lft.to/lastmile_qr_scan"}, "is_disabled": 0, "fusion_lat": 0.0, "lat": 38.909440000000004, "is_reserved": 0}, {"lon": -77.0383855, "fusion_lon": 0.0, "bike_id": "ce3bef9da511ce7dd4b806a4386ee4f6", "type": "electric_scooter", "name": "ce3bef9da511ce7dd4b806a4386ee4f6", "rental_uris": {"android": "https://dc.lft.to/lastmile_qr_scan", "ios": "https://dc.lft.to/lastmile_qr_scan"}, "is_disabled": 0, "fusion_lat": 0.0, "lat": 38.911474, "is_reserved": 0}, {"lon": -77.0064615, "fusion_lon": 0.0, "bike_id": "97c594b1f0e852881de27175fdd94bb1", "type": "electric_scooter", "name": "97c594b1f0e852881de27175fdd94bb1", "rental_uris": {"android": "https://dc.lft.to/lastmile_qr_scan", "ios": "https://dc.lft.to/lastmile_qr_scan"}, "is_disabled": 0, "fusion_lat": 0.0, "lat": 38.9119115, "is_reserved": 0}, {"lon": -77.04103283333333, "fusion_lon": 0.0, "bike_id": "3cf3aea5b43956fd8952c63982ae65cb", "type": "electric_scooter", "name": "3cf3aea5b43956fd8952c63982ae65cb", "rental_uris": {"android": "https://dc.lft.to/lastmile_qr_scan", "ios": "https://dc.lft.to/lastmile_qr_scan"}, "is_disabled": 0, "fusion_lat": 0.0, "lat": 38.90399266666667, "is_reserved": 0}, {"lon": -77.039852, "fusion_lon": 0.0, "bike_id": "f9b78b4a5544af8490c39ddf18cbd299", "type": "electric_scooter", "name": "f9b78b4a5544af8490c39ddf18cbd299", "rental_uris": {"android": "https://dc.lft.to/lastmile_qr_scan", "ios": "https://dc.lft.to/lastmile_qr_scan"}, "is_disabled": 0, "fusion_lat": 0.0, "lat": 38.923117, "is_reserved": 0}, {"lon": -77.046783, "fusion_lon": 0.0, "bike_id": "db6ca9b34ff773671abed49c8bb69d28", "type": "electric_scooter", "name": "db6ca9b34ff773671abed49c8bb69d28", "rental_uris": {"android": "https://dc.lft.to/lastmile_qr_scan", "ios": "https://dc.lft.to/lastmile_qr_scan"}, "is_disabled": 0, "fusion_lat": 0.0, "lat": 38.895504, "is_reserved": 0}, {"lon": -77.0383205, "fusion_lon": 0.0, "bike_id": "b1ac80a1d8eb8de7474fc247173801c9", "type": "electric_scooter", "name": "b1ac80a1d8eb8de7474fc247173801c9", "rental_uris": {"android": "https://dc.lft.to/lastmile_qr_scan", "ios": "https://dc.lft.to/lastmile_qr_scan"}, "is_disabled": 0, "fusion_lat": 0.0, "lat": 38.911187166666664, "is_reserved": 0}, {"lon": -77.017542, "fusion_lon": 0.0, "bike_id": "785b84eb4dac768d6c2b84720c4373ee", "type": "electric_scooter", "name": "785b84eb4dac768d6c2b84720c4373ee", "rental_uris": {"android": "https://dc.lft.to/lastmile_qr_scan", "ios": "https://dc.lft.to/lastmile_qr_scan"}, "is_disabled": 0, "fusion_lat": 0.0, "lat": 38.90260216666667, "is_reserved": 0}, {"lon": -76.96900566666666, "fusion_lon": 0.0, "bike_id": "84a320a442c55026bfcef35ec2c334c4", "type": "electric_bike", "name": "84a320a442c55026bfcef35ec2c334c4", "rental_uris": {"android": "https://dc.lft.to/lastmile_qr_scan", "ios": "https://dc.lft.to/lastmile_qr_scan"}, "is_disabled": 0, "fusion_lat": 0.0, "lat": 38.95997233333333, "is_reserved": 0}, {"lon": -76.99993533333334, "fusion_lon": 0.0, "bike_id": "a75cbaa2de5fead1e08d2126e8401b6d", "type": "electric_bike", "name": "a75cbaa2de5fead1e08d2126e8401b6d", "rental_uris": {"android": "https://dc.lft.to/lastmile_qr_scan", "ios": "https://dc.lft.to/lastmile_qr_scan"}, "is_disabled": 0, "fusion_lat": 0.0, "lat": 38.964013666666666, "is_reserved": 0}, {"lon": -77.04691233333334, "fusion_lon": 0.0, "bike_id": "d619d610bfccb9463466988906800c23", "type": "electric_scooter", "name": "d619d610bfccb9463466988906800c23", "rental_uris": {"android": "https://dc.lft.to/lastmile_qr_scan", "ios": "https://dc.lft.to/lastmile_qr_scan"}, "is_disabled": 0, "fusion_lat": 0.0, "lat": 38.92172883333333, "is_reserved": 0}, {"lon": -77.03308666666666, "fusion_lon": 0.0, "bike_id": "dcad51cb8d06d7182e85510e6363b2e1", "type": "electric_scooter", "name": "dcad51cb8d06d7182e85510e6363b2e1", "rental_uris": {"android": "https://dc.lft.to/lastmile_qr_scan", "ios": "https://dc.lft.to/lastmile_qr_scan"}, "is_disabled": 0, "fusion_lat": 0.0, "lat": 38.9073515, "is_reserved": 0}, {"lon": -77.03316466666666, "fusion_lon": 0.0, "bike_id": "c8d601fea8a62f9b0f64cc420bef2305", "type": "electric_scooter", "name": "c8d601fea8a62f9b0f64cc420bef2305", "rental_uris": {"android": "https://dc.lft.to/lastmile_qr_scan", "ios": "https://dc.lft.to/lastmile_qr_scan"}, "is_disabled": 0, "fusion_lat": 0.0, "lat": 38.91105566666667, "is_reserved": 0}, {"lon": -77.04153766666667, "fusion_lon": 0.0, "bike_id": "183dedf2bc897020f8e2c9ade482b6c9", "type": "electric_scooter", "name": "183dedf2bc897020f8e2c9ade482b6c9", "rental_uris": {"android": "https://dc.lft.to/lastmile_qr_scan", "ios": "https://dc.lft.to/lastmile_qr_scan"}, "is_disabled": 0, "fusion_lat": 0.0, "lat": 38.93416166666667, "is_reserved": 0}, {"lon": -77.012074, "fusion_lon": 0.0, "bike_id": "01cc0c86bc972332b1f479559a576fe3", "type": "electric_scooter", "name": "01cc0c86bc972332b1f479559a576fe3", "rental_uris": {"android": "https://dc.lft.to/lastmile_qr_scan", "ios": "https://dc.lft.to/lastmile_qr_scan"}, "is_disabled": 0, "fusion_lat": 0.0, "lat": 38.8747375, "is_reserved": 0}, {"lon": -77.0633415, "fusion_lon": 0.0, "bike_id": "4250ad8c31c66d26eede185aa22f11d7", "type": "electric_scooter", "name": "4250ad8c31c66d26eede185aa22f11d7", "rental_uris": {"android": "https://dc.lft.to/lastmile_qr_scan", "ios": "https://dc.lft.to/lastmile_qr_scan"}, "is_disabled": 0, "fusion_lat": 0.0, "lat": 38.92106866666666, "is_reserved": 0}, {"lon": -77.009164, "fusion_lon": 0.0, "bike_id": "37384acf8987acc324bb664b00a3e496", "type": "electric_scooter", "name": "37384acf8987acc324bb664b00a3e496", "rental_uris": {"android": "https://dc.lft.to/lastmile_qr_scan", "ios": "https://dc.lft.to/lastmile_qr_scan"}, "is_disabled": 0, "fusion_lat": 0.0, "lat": 38.9227525, "is_reserved": 0}, {"lon": -77.04265783333334, "fusion_lon": 0.0, "bike_id": "d7e6700989e3be40a2476df30cf2cd14", "type": "electric_scooter", "name": "d7e6700989e3be40a2476df30cf2cd14", "rental_uris": {"android": "https://dc.lft.to/lastmile_qr_scan", "ios": "https://dc.lft.to/lastmile_qr_scan"}, "is_disabled": 0, "fusion_lat": 0.0, "lat": 38.92555083333333, "is_reserved": 0}, {"lon": -77.04706533333334, "fusion_lon": 0.0, "bike_id": "f99a0a03b444b20d869f460cff10e195", "type": "electric_scooter", "name": "f99a0a03b444b20d869f460cff10e195", "rental_uris": {"android": "https://dc.lft.to/lastmile_qr_scan", "ios": "https://dc.lft.to/lastmile_qr_scan"}, "is_disabled": 0, "fusion_lat": 0.0, "lat": 38.921791999999996, "is_reserved": 0}, {"lon": -77.0335835, "fusion_lon": 0.0, "bike_id": "bfdd6f8d5103f773e363a9d4c2c0dfdb", "type": "electric_scooter", "name": "bfdd6f8d5103f773e363a9d4c2c0dfdb", "rental_uris": {"android": "https://dc.lft.to/lastmile_qr_scan", "ios": "https://dc.lft.to/lastmile_qr_scan"}, "is_disabled": 0, "fusion_lat": 0.0, "lat": 38.938483833333336, "is_reserved": 0}, {"lon": -77.02274683333333, "fusion_lon": 0.0, "bike_id": "86d196cd02d9ef44db0e7f4fe4e4852f", "type": "electric_scooter", "name": "86d196cd02d9ef44db0e7f4fe4e4852f", "rental_uris": {"android": "https://dc.lft.to/lastmile_qr_scan", "ios": "https://dc.lft.to/lastmile_qr_scan"}, "is_disabled": 0, "fusion_lat": 0.0, "lat": 38.92726716666667, "is_reserved": 0}, {"lon": -77.0240605, "fusion_lon": 0.0, "bike_id": "7064f491598fec3a5244d52e7fed53e0", "type": "electric_scooter", "name": "7064f491598fec3a5244d52e7fed53e0", "rental_uris": {"android": "https://dc.lft.to/lastmile_qr_scan", "ios": "https://dc.lft.to/lastmile_qr_scan"}, "is_disabled": 0, "fusion_lat": 0.0, "lat": 38.905758666666664, "is_reserved": 0}, {"lon": -77.02369933333334, "fusion_lon": 0.0, "bike_id": "cf61d9c66c2e61e1719d8a2fed639980", "type": "electric_scooter", "name": "cf61d9c66c2e61e1719d8a2fed639980", "rental_uris": {"android": "https://dc.lft.to/lastmile_qr_scan", "ios": "https://dc.lft.to/lastmile_qr_scan"}, "is_disabled": 0, "fusion_lat": 0.0, "lat": 38.90227766666667, "is_reserved": 0}, {"lon": -76.9653085, "fusion_lon": 0.0, "bike_id": "848db4ca5e65a691b3bd7b6da942e6ba", "type": "electric_scooter", "name": "848db4ca5e65a691b3bd7b6da942e6ba", "rental_uris": {"android": "https://dc.lft.to/lastmile_qr_scan", "ios": "https://dc.lft.to/lastmile_qr_scan"}, "is_disabled": 0, "fusion_lat": 0.0, "lat": 38.87626483333333, "is_reserved": 0}, {"lon": -77.0220125, "fusion_lon": 0.0, "bike_id": "1b74ffa749d03eab8ab3e79b2fe4eb61", "type": "electric_scooter", "name": "1b74ffa749d03eab8ab3e79b2fe4eb61", "rental_uris": {"android": "https://dc.lft.to/lastmile_qr_scan", "ios": "https://dc.lft.to/lastmile_qr_scan"}, "is_disabled": 0, "fusion_lat": 0.0, "lat": 38.895312, "is_reserved": 0}, {"lon": -77.02464883333333, "fusion_lon": 0.0, "bike_id": "0bc293373c19b717c6124b2d5753ca6e", "type": "electric_scooter", "name": "0bc293373c19b717c6124b2d5753ca6e", "rental_uris": {"android": "https://dc.lft.to/lastmile_qr_scan", "ios": "https://dc.lft.to/lastmile_qr_scan"}, "is_disabled": 0, "fusion_lat": 0.0, "lat": 38.938529, "is_reserved": 0}, {"lon": -77.03366266666667, "fusion_lon": 0.0, "bike_id": "de884e33feb454476dd036036e9c29d7", "type": "electric_scooter", "name": "de884e33feb454476dd036036e9c29d7", "rental_uris": {"android": "https://dc.lft.to/lastmile_qr_scan", "ios": "https://dc.lft.to/lastmile_qr_scan"}, "is_disabled": 0, "fusion_lat": 0.0, "lat": 38.8869505, "is_reserved": 0}, {"lon": -77.0425105, "fusion_lon": 0.0, "bike_id": "d15a2f65536ece5af87801e0d20ddc33", "type": "electric_scooter", "name": "d15a2f65536ece5af87801e0d20ddc33", "rental_uris": {"android": "https://dc.lft.to/lastmile_qr_scan", "ios": "https://dc.lft.to/lastmile_qr_scan"}, "is_disabled": 0, "fusion_lat": 0.0, "lat": 38.90720483333333, "is_reserved": 0}, {"lon": -77.042303, "fusion_lon": 0.0, "bike_id": "c26fcee76cd2324847f471c7d6105607", "type": "electric_scooter", "name": "c26fcee76cd2324847f471c7d6105607", "rental_uris": {"android": "https://dc.lft.to/lastmile_qr_scan", "ios": "https://dc.lft.to/lastmile_qr_scan"}, "is_disabled": 0, "fusion_lat": 0.0, "lat": 38.911077166666665, "is_reserved": 0}, {"lon": -77.04019833333334, "fusion_lon": 0.0, "bike_id": "f53b84ff13ed86d41ef18ed12eb35a14", "type": "electric_scooter", "name": "f53b84ff13ed86d41ef18ed12eb35a14", "rental_uris": {"android": "https://dc.lft.to/lastmile_qr_scan", "ios": "https://dc.lft.to/lastmile_qr_scan"}, "is_disabled": 0, "fusion_lat": 0.0, "lat": 38.90374583333333, "is_reserved": 0}, {"lon": -76.98743666666667, "fusion_lon": 0.0, "bike_id": "80b8dc13cebf1de4ac05f3980e422b0c", "type": "electric_scooter", "name": "80b8dc13cebf1de4ac05f3980e422b0c", "rental_uris": {"android": "https://dc.lft.to/lastmile_qr_scan", "ios": "https://dc.lft.to/lastmile_qr_scan"}, "is_disabled": 0, "fusion_lat": 0.0, "lat": 38.90023266666667, "is_reserved": 0}, {"lon": -77.02389316666667, "fusion_lon": 0.0, "bike_id": "15448411c0f5da210909a8ba49229f16", "type": "electric_scooter", "name": "15448411c0f5da210909a8ba49229f16", "rental_uris": {"android": "https://dc.lft.to/lastmile_qr_scan", "ios": "https://dc.lft.to/lastmile_qr_scan"}, "is_disabled": 0, "fusion_lat": 0.0, "lat": 38.9128835, "is_reserved": 0}, {"lon": -77.01589166666666, "fusion_lon": 0.0, "bike_id": "5173dd43a5aa6d02367453bf54755555", "type": "electric_scooter", "name": "5173dd43a5aa6d02367453bf54755555", "rental_uris": {"android": "https://dc.lft.to/lastmile_qr_scan", "ios": "https://dc.lft.to/lastmile_qr_scan"}, "is_disabled": 0, "fusion_lat": 0.0, "lat": 38.915760166666665, "is_reserved": 0}, {"lon": -77.04744016666666, "fusion_lon": 0.0, "bike_id": "4a7e2e03c60386b8e74d0dea510bba08", "type": "electric_scooter", "name": "4a7e2e03c60386b8e74d0dea510bba08", "rental_uris": {"android": "https://dc.lft.to/lastmile_qr_scan", "ios": "https://dc.lft.to/lastmile_qr_scan"}, "is_disabled": 0, "fusion_lat": 0.0, "lat": 38.9017325, "is_reserved": 0}, {"lon": -77.0491415, "fusion_lon": 0.0, "bike_id": "eae193d4ffc140ab2dc9f37689301fb7", "type": "electric_scooter", "name": "eae193d4ffc140ab2dc9f37689301fb7", "rental_uris": {"android": "https://dc.lft.to/lastmile_qr_scan", "ios": "https://dc.lft.to/lastmile_qr_scan"}, "is_disabled": 0, "fusion_lat": 0.0, "lat": 38.91599216666667, "is_reserved": 0}, {"lon": -76.93210116666667, "fusion_lon": 0.0, "bike_id": "df9cc3aa4c8326c3469bba56ed89a49b", "type": "electric_scooter", "name": "df9cc3aa4c8326c3469bba56ed89a49b", "rental_uris": {"android": "https://dc.lft.to/lastmile_qr_scan", "ios": "https://dc.lft.to/lastmile_qr_scan"}, "is_disabled": 0, "fusion_lat": 0.0, "lat": 38.8966335, "is_reserved": 0}, {"lon": -76.99621466666666, "fusion_lon": 0.0, "bike_id": "a00ac49e18f525d4000249367f86efa4", "type": "electric_scooter", "name": "a00ac49e18f525d4000249367f86efa4", "rental_uris": {"android": "https://dc.lft.to/lastmile_qr_scan", "ios": "https://dc.lft.to/lastmile_qr_scan"}, "is_disabled": 0, "fusion_lat": 0.0, "lat": 38.900616666666664, "is_reserved": 0}, {"lon": -77.0207425, "fusion_lon": 0.0, "bike_id": "881bdb70edfac902dd516b61aa6e16ed", "type": "electric_bike", "name": "881bdb70edfac902dd516b61aa6e16ed", "rental_uris": {"android": "https://dc.lft.to/lastmile_qr_scan", "ios": "https://dc.lft.to/lastmile_qr_scan"}, "is_disabled": 0, "fusion_lat": 0.0, "lat": 38.93645266666667, "is_reserved": 0}, {"lon": -77.036596, "fusion_lon": 0.0, "bike_id": "6c444dffd0e2ce3d7d0fe483343da551", "type": "electric_scooter", "name": "6c444dffd0e2ce3d7d0fe483343da551", "rental_uris": {"android": "https://dc.lft.to/lastmile_qr_scan", "ios": "https://dc.lft.to/lastmile_qr_scan"}, "is_disabled": 0, "fusion_lat": 0.0, "lat": 38.923862166666666, "is_reserved": 0}, {"lon": -76.9903705, "fusion_lon": 0.0, "bike_id": "37148fe22e62aad165976a8491785e1a", "type": "electric_scooter", "name": "37148fe22e62aad165976a8491785e1a", "rental_uris": {"android": "https://dc.lft.to/lastmile_qr_scan", "ios": "https://dc.lft.to/lastmile_qr_scan"}, "is_disabled": 0, "fusion_lat": 0.0, "lat": 38.888801666666666, "is_reserved": 0}, {"lon": -77.01948816666666, "fusion_lon": 0.0, "bike_id": "7a4f22088695ff24a644c994649e1b38", "type": "electric_scooter", "name": "7a4f22088695ff24a644c994649e1b38", "rental_uris": {"android": "https://dc.lft.to/lastmile_qr_scan", "ios": "https://dc.lft.to/lastmile_qr_scan"}, "is_disabled": 0, "fusion_lat": 0.0, "lat": 38.924218833333335, "is_reserved": 0}, {"lon": -77.04014216666667, "fusion_lon": 0.0, "bike_id": "0180ebdedffa3d4251a623b2425e4ece", "type": "electric_scooter", "name": "0180ebdedffa3d4251a623b2425e4ece", "rental_uris": {"android": "https://dc.lft.to/lastmile_qr_scan", "ios": "https://dc.lft.to/lastmile_qr_scan"}, "is_disabled": 0, "fusion_lat": 0.0, "lat": 38.903544, "is_reserved": 0}, {"lon": -77.04143916666666, "fusion_lon": 0.0, "bike_id": "6e10a944dad20d2dc2e8a47c8b2d1ffb", "type": "electric_scooter", "name": "6e10a944dad20d2dc2e8a47c8b2d1ffb", "rental_uris": {"android": "https://dc.lft.to/lastmile_qr_scan", "ios": "https://dc.lft.to/lastmile_qr_scan"}, "is_disabled": 0, "fusion_lat": 0.0, "lat": 38.91681283333333, "is_reserved": 0}, {"lon": -77.0461405, "fusion_lon": 0.0, "bike_id": "1e6f4f0127740f731786b7f7f243d416", "type": "electric_scooter", "name": "1e6f4f0127740f731786b7f7f243d416", "rental_uris": {"android": "https://dc.lft.to/lastmile_qr_scan", "ios": "https://dc.lft.to/lastmile_qr_scan"}, "is_disabled": 0, "fusion_lat": 0.0, "lat": 38.915138166666665, "is_reserved": 0}, {"lon": -77.02188266666667, "fusion_lon": 0.0, "bike_id": "fb7d97899e18c51845c3394861dce309", "type": "electric_scooter", "name": "fb7d97899e18c51845c3394861dce309", "rental_uris": {"android": "https://dc.lft.to/lastmile_qr_scan", "ios": "https://dc.lft.to/lastmile_qr_scan"}, "is_disabled": 0, "fusion_lat": 0.0, "lat": 38.89623983333333, "is_reserved": 0}, {"lon": -77.024109, "fusion_lon": 0.0, "bike_id": "7831044a7fc8d8b80b1708fce6ecc27e", "type": "electric_scooter", "name": "7831044a7fc8d8b80b1708fce6ecc27e", "rental_uris": {"android": "https://dc.lft.to/lastmile_qr_scan", "ios": "https://dc.lft.to/lastmile_qr_scan"}, "is_disabled": 0, "fusion_lat": 0.0, "lat": 38.916733666666666, "is_reserved": 0}, {"lon": -77.035717, "fusion_lon": 0.0, "bike_id": "7b0ce36b5f7f6de3f0cf0bf9b121ab5f", "type": "electric_scooter", "name": "7b0ce36b5f7f6de3f0cf0bf9b121ab5f", "rental_uris": {"android": "https://dc.lft.to/lastmile_qr_scan", "ios": "https://dc.lft.to/lastmile_qr_scan"}, "is_disabled": 0, "fusion_lat": 0.0, "lat": 38.92520016666667, "is_reserved": 0}, {"lon": -77.0999355, "fusion_lon": 0.0, "bike_id": "8f494a680182142497d715be57625ffd", "type": "electric_bike", "name": "8f494a680182142497d715be57625ffd", "rental_uris": {"android": "https://dc.lft.to/lastmile_qr_scan", "ios": "https://dc.lft.to/lastmile_qr_scan"}, "is_disabled": 0, "fusion_lat": 0.0, "lat": 38.85890116666667, "is_reserved": 0}, {"lon": -77.0317405, "fusion_lon": 0.0, "bike_id": "577b6f9f44d59648e18e184aa1ede118", "type": "electric_scooter", "name": "577b6f9f44d59648e18e184aa1ede118", "rental_uris": {"android": "https://dc.lft.to/lastmile_qr_scan", "ios": "https://dc.lft.to/lastmile_qr_scan"}, "is_disabled": 0, "fusion_lat": 0.0, "lat": 38.9141935, "is_reserved": 0}, {"lon": -77.02610116666666, "fusion_lon": 0.0, "bike_id": "2e64ab0573e8cb9d1c93b84c556dc1ec", "type": "electric_scooter", "name": "2e64ab0573e8cb9d1c93b84c556dc1ec", "rental_uris": {"android": "https://dc.lft.to/lastmile_qr_scan", "ios": "https://dc.lft.to/lastmile_qr_scan"}, "is_disabled": 0, "fusion_lat": 0.0, "lat": 38.95181216666667, "is_reserved": 0}, {"lon": -76.92043783333334, "fusion_lon": 0.0, "bike_id": "0343a19918f112a84f7c9a083197c838", "type": "electric_bike", "name": "0343a19918f112a84f7c9a083197c838", "rental_uris": {"android": "https://dc.lft.to/lastmile_qr_scan", "ios": "https://dc.lft.to/lastmile_qr_scan"}, "is_disabled": 0, "fusion_lat": 0.0, "lat": 38.897382, "is_reserved": 0}, {"lon": -77.02772216666666, "fusion_lon": 0.0, "bike_id": "772ddcd6cb1214b686b05b134d42fb66", "type": "electric_scooter", "name": "772ddcd6cb1214b686b05b134d42fb66", "rental_uris": {"android": "https://dc.lft.to/lastmile_qr_scan", "ios": "https://dc.lft.to/lastmile_qr_scan"}, "is_disabled": 0, "fusion_lat": 0.0, "lat": 38.896379333333336, "is_reserved": 0}, {"lon": -77.0324095, "fusion_lon": 0.0, "bike_id": "5431e067750445a2754ccc50b168486b", "type": "electric_scooter", "name": "5431e067750445a2754ccc50b168486b", "rental_uris": {"android": "https://dc.lft.to/lastmile_qr_scan", "ios": "https://dc.lft.to/lastmile_qr_scan"}, "is_disabled": 0, "fusion_lat": 0.0, "lat": 38.92742616666666, "is_reserved": 0}, {"lon": -77.036755, "fusion_lon": 0.0, "bike_id": "51a882238a150b9e1da1ae2ef43f7d04", "type": "electric_scooter", "name": "51a882238a150b9e1da1ae2ef43f7d04", "rental_uris": {"android": "https://dc.lft.to/lastmile_qr_scan", "ios": "https://dc.lft.to/lastmile_qr_scan"}, "is_disabled": 0, "fusion_lat": 0.0, "lat": 38.92263283333333, "is_reserved": 0}, {"lon": -77.03473933333333, "fusion_lon": 0.0, "bike_id": "eadd13b8effea307123182d97b10d11a", "type": "electric_scooter", "name": "eadd13b8effea307123182d97b10d11a", "rental_uris": {"android": "https://dc.lft.to/lastmile_qr_scan", "ios": "https://dc.lft.to/lastmile_qr_scan"}, "is_disabled": 0, "fusion_lat": 0.0, "lat": 38.917083166666664, "is_reserved": 0}, {"lon": -77.04983833333333, "fusion_lon": 0.0, "bike_id": "b62fba2a359d9c808ba289f6bf477582", "type": "electric_scooter", "name": "b62fba2a359d9c808ba289f6bf477582", "rental_uris": {"android": "https://dc.lft.to/lastmile_qr_scan", "ios": "https://dc.lft.to/lastmile_qr_scan"}, "is_disabled": 0, "fusion_lat": 0.0, "lat": 38.901230166666664, "is_reserved": 0}, {"lon": -77.03291166666666, "fusion_lon": 0.0, "bike_id": "513246f3d463685bd38848687e31c029", "type": "electric_scooter", "name": "513246f3d463685bd38848687e31c029", "rental_uris": {"android": "https://dc.lft.to/lastmile_qr_scan", "ios": "https://dc.lft.to/lastmile_qr_scan"}, "is_disabled": 0, "fusion_lat": 0.0, "lat": 38.91978616666667, "is_reserved": 0}, {"lon": -77.02953116666667, "fusion_lon": 0.0, "bike_id": "e2a366f7c5373849f4eecc28fe4e0ba7", "type": "electric_scooter", "name": "e2a366f7c5373849f4eecc28fe4e0ba7", "rental_uris": {"android": "https://dc.lft.to/lastmile_qr_scan", "ios": "https://dc.lft.to/lastmile_qr_scan"}, "is_disabled": 0, "fusion_lat": 0.0, "lat": 38.90736783333333, "is_reserved": 0}, {"lon": -76.9318685, "fusion_lon": 0.0, "bike_id": "209305e43a7d30bdc5782d3514cc8537", "type": "electric_scooter", "name": "209305e43a7d30bdc5782d3514cc8537", "rental_uris": {"android": "https://dc.lft.to/lastmile_qr_scan", "ios": "https://dc.lft.to/lastmile_qr_scan"}, "is_disabled": 0, "fusion_lat": 0.0, "lat": 38.8987845, "is_reserved": 0}, {"lon": -77.00569166666666, "fusion_lon": 0.0, "bike_id": "6e03236a8a3ef04a24eb7806a5134aff", "type": "electric_scooter", "name": "6e03236a8a3ef04a24eb7806a5134aff", "rental_uris": {"android": "https://dc.lft.to/lastmile_qr_scan", "ios": "https://dc.lft.to/lastmile_qr_scan"}, "is_disabled": 0, "fusion_lat": 0.0, "lat": 38.87467816666667, "is_reserved": 0}, {"lon": -77.012286, "fusion_lon": 0.0, "bike_id": "3b626568945766312049b3a67ae5a88d", "type": "electric_scooter", "name": "3b626568945766312049b3a67ae5a88d", "rental_uris": {"android": "https://dc.lft.to/lastmile_qr_scan", "ios": "https://dc.lft.to/lastmile_qr_scan"}, "is_disabled": 0, "fusion_lat": 0.0, "lat": 38.914379333333336, "is_reserved": 0}, {"lon": -77.02450783333333, "fusion_lon": 0.0, "bike_id": "11d16568478049e1822647cb9b453e4e", "type": "electric_scooter", "name": "11d16568478049e1822647cb9b453e4e", "rental_uris": {"android": "https://dc.lft.to/lastmile_qr_scan", "ios": "https://dc.lft.to/lastmile_qr_scan"}, "is_disabled": 0, "fusion_lat": 0.0, "lat": 38.94949883333334, "is_reserved": 0}, {"lon": -77.03409483333333, "fusion_lon": 0.0, "bike_id": "10f64ba6e1335e4992dafc01bf5c3c71", "type": "electric_scooter", "name": "10f64ba6e1335e4992dafc01bf5c3c71", "rental_uris": {"android": "https://dc.lft.to/lastmile_qr_scan", "ios": "https://dc.lft.to/lastmile_qr_scan"}, "is_disabled": 0, "fusion_lat": 0.0, "lat": 38.91263433333334, "is_reserved": 0}, {"lon": -77.02307433333333, "fusion_lon": 0.0, "bike_id": "bcbe6dd1dc2ce152386ba7d9e6ae84a8", "type": "electric_scooter", "name": "bcbe6dd1dc2ce152386ba7d9e6ae84a8", "rental_uris": {"android": "https://dc.lft.to/lastmile_qr_scan", "ios": "https://dc.lft.to/lastmile_qr_scan"}, "is_disabled": 0, "fusion_lat": 0.0, "lat": 38.90860083333333, "is_reserved": 0}, {"lon": -77.01380333333333, "fusion_lon": 0.0, "bike_id": "5e6e84addf28e6cd2ce251c8cb7b4adc", "type": "electric_scooter", "name": "5e6e84addf28e6cd2ce251c8cb7b4adc", "rental_uris": {"android": "https://dc.lft.to/lastmile_qr_scan", "ios": "https://dc.lft.to/lastmile_qr_scan"}, "is_disabled": 0, "fusion_lat": 0.0, "lat": 38.95627966666667, "is_reserved": 0}, {"lon": -77.04195, "fusion_lon": 0.0, "bike_id": "5cae68c85aa2424afb6b7caaad856ff8", "type": "electric_scooter", "name": "5cae68c85aa2424afb6b7caaad856ff8", "rental_uris": {"android": "https://dc.lft.to/lastmile_qr_scan", "ios": "https://dc.lft.to/lastmile_qr_scan"}, "is_disabled": 0, "fusion_lat": 0.0, "lat": 38.92100083333333, "is_reserved": 0}, {"lon": -77.03050766666667, "fusion_lon": 0.0, "bike_id": "2bfe4acbb08a737389f94162920f73c5", "type": "electric_scooter", "name": "2bfe4acbb08a737389f94162920f73c5", "rental_uris": {"android": "https://dc.lft.to/lastmile_qr_scan", "ios": "https://dc.lft.to/lastmile_qr_scan"}, "is_disabled": 0, "fusion_lat": 0.0, "lat": 38.9171665, "is_reserved": 0}, {"lon": -77.03524666666667, "fusion_lon": 0.0, "bike_id": "922e5e8b3165416ea15cf4f800bdb481", "type": "electric_scooter", "name": "922e5e8b3165416ea15cf4f800bdb481", "rental_uris": {"android": "https://dc.lft.to/lastmile_qr_scan", "ios": "https://dc.lft.to/lastmile_qr_scan"}, "is_disabled": 0, "fusion_lat": 0.0, "lat": 38.92169766666667, "is_reserved": 0}, {"lon": -76.98703366666666, "fusion_lon": 0.0, "bike_id": "411845d7cfe4d36d928405d451bd74ab", "type": "electric_scooter", "name": "411845d7cfe4d36d928405d451bd74ab", "rental_uris": {"android": "https://dc.lft.to/lastmile_qr_scan", "ios": "https://dc.lft.to/lastmile_qr_scan"}, "is_disabled": 0, "fusion_lat": 0.0, "lat": 38.86722066666667, "is_reserved": 0}, {"lon": -77.00322716666666, "fusion_lon": 0.0, "bike_id": "ff880d637cef0e882a526bc58f18aa5c", "type": "electric_scooter", "name": "ff880d637cef0e882a526bc58f18aa5c", "rental_uris": {"android": "https://dc.lft.to/lastmile_qr_scan", "ios": "https://dc.lft.to/lastmile_qr_scan"}, "is_disabled": 0, "fusion_lat": 0.0, "lat": 38.87720316666667, "is_reserved": 0}, {"lon": -77.0439155, "fusion_lon": 0.0, "bike_id": "5b965b26be83843f13869f48cff4f608", "type": "electric_scooter", "name": "5b965b26be83843f13869f48cff4f608", "rental_uris": {"android": "https://dc.lft.to/lastmile_qr_scan", "ios": "https://dc.lft.to/lastmile_qr_scan"}, "is_disabled": 0, "fusion_lat": 0.0, "lat": 38.90217666666667, "is_reserved": 0}, {"lon": -77.035108, "fusion_lon": 0.0, "bike_id": "a6742e5730f1c6bd25d6c9b3444a3a00", "type": "electric_scooter", "name": "a6742e5730f1c6bd25d6c9b3444a3a00", "rental_uris": {"android": "https://dc.lft.to/lastmile_qr_scan", "ios": "https://dc.lft.to/lastmile_qr_scan"}, "is_disabled": 0, "fusion_lat": 0.0, "lat": 38.92331016666667, "is_reserved": 0}, {"lon": -77.03869266666666, "fusion_lon": 0.0, "bike_id": "fdd94deb93bf238f096329bcc8ae720f", "type": "electric_scooter", "name": "fdd94deb93bf238f096329bcc8ae720f", "rental_uris": {"android": "https://dc.lft.to/lastmile_qr_scan", "ios": "https://dc.lft.to/lastmile_qr_scan"}, "is_disabled": 0, "fusion_lat": 0.0, "lat": 38.90498916666667, "is_reserved": 0}, {"lon": -77.042656, "fusion_lon": 0.0, "bike_id": "487e1608bd41f268485feeeabbac7d50", "type": "electric_scooter", "name": "487e1608bd41f268485feeeabbac7d50", "rental_uris": {"android": "https://dc.lft.to/lastmile_qr_scan", "ios": "https://dc.lft.to/lastmile_qr_scan"}, "is_disabled": 0, "fusion_lat": 0.0, "lat": 38.9085845, "is_reserved": 0}, {"lon": -77.032182, "fusion_lon": 0.0, "bike_id": "a219bbca85ce9db66ea8ead06afc4344", "type": "electric_scooter", "name": "a219bbca85ce9db66ea8ead06afc4344", "rental_uris": {"android": "https://dc.lft.to/lastmile_qr_scan", "ios": "https://dc.lft.to/lastmile_qr_scan"}, "is_disabled": 0, "fusion_lat": 0.0, "lat": 38.918495166666666, "is_reserved": 0}, {"lon": -76.98190466666667, "fusion_lon": 0.0, "bike_id": "6304e7d23e52a39cec61f2fa7cc4dabe", "type": "electric_scooter", "name": "6304e7d23e52a39cec61f2fa7cc4dabe", "rental_uris": {"android": "https://dc.lft.to/lastmile_qr_scan", "ios": "https://dc.lft.to/lastmile_qr_scan"}, "is_disabled": 0, "fusion_lat": 0.0, "lat": 38.8619935, "is_reserved": 0}, {"lon": -77.0220515, "fusion_lon": 0.0, "bike_id": "7c3823559e0ad67480077f262d6616d7", "type": "electric_scooter", "name": "7c3823559e0ad67480077f262d6616d7", "rental_uris": {"android": "https://dc.lft.to/lastmile_qr_scan", "ios": "https://dc.lft.to/lastmile_qr_scan"}, "is_disabled": 0, "fusion_lat": 0.0, "lat": 38.915448166666664, "is_reserved": 0}, {"lon": -77.0346715, "fusion_lon": 0.0, "bike_id": "49d93bc6b360cd0aa1275a1e03e000c8", "type": "electric_scooter", "name": "49d93bc6b360cd0aa1275a1e03e000c8", "rental_uris": {"android": "https://dc.lft.to/lastmile_qr_scan", "ios": "https://dc.lft.to/lastmile_qr_scan"}, "is_disabled": 0, "fusion_lat": 0.0, "lat": 38.91706083333333, "is_reserved": 0}, {"lon": -77.04996, "fusion_lon": 0.0, "bike_id": "16e3f714a96acdd4d6123068b7430535", "type": "electric_scooter", "name": "16e3f714a96acdd4d6123068b7430535", "rental_uris": {"android": "https://dc.lft.to/lastmile_qr_scan", "ios": "https://dc.lft.to/lastmile_qr_scan"}, "is_disabled": 0, "fusion_lat": 0.0, "lat": 38.8922855, "is_reserved": 0}, {"lon": -76.98683883333334, "fusion_lon": 0.0, "bike_id": "0532e58e4a0b1de80169731dcadef150", "type": "electric_scooter", "name": "0532e58e4a0b1de80169731dcadef150", "rental_uris": {"android": "https://dc.lft.to/lastmile_qr_scan", "ios": "https://dc.lft.to/lastmile_qr_scan"}, "is_disabled": 0, "fusion_lat": 0.0, "lat": 38.912904, "is_reserved": 0}, {"lon": -77.028207, "fusion_lon": 0.0, "bike_id": "401a0ff83ce411ebde8754b3e86a2397", "type": "electric_scooter", "name": "401a0ff83ce411ebde8754b3e86a2397", "rental_uris": {"android": "https://dc.lft.to/lastmile_qr_scan", "ios": "https://dc.lft.to/lastmile_qr_scan"}, "is_disabled": 0, "fusion_lat": 0.0, "lat": 38.93065, "is_reserved": 0}, {"lon": -77.042344, "fusion_lon": 0.0, "bike_id": "b4ca23ee2a242bb5519d3d9437d412f1", "type": "electric_scooter", "name": "b4ca23ee2a242bb5519d3d9437d412f1", "rental_uris": {"android": "https://dc.lft.to/lastmile_qr_scan", "ios": "https://dc.lft.to/lastmile_qr_scan"}, "is_disabled": 0, "fusion_lat": 0.0, "lat": 38.9084785, "is_reserved": 0}, {"lon": -77.0253185, "fusion_lon": 0.0, "bike_id": "921f03e6a1dd002178dc3a8391da2060", "type": "electric_scooter", "name": "921f03e6a1dd002178dc3a8391da2060", "rental_uris": {"android": "https://dc.lft.to/lastmile_qr_scan", "ios": "https://dc.lft.to/lastmile_qr_scan"}, "is_disabled": 0, "fusion_lat": 0.0, "lat": 38.94553283333333, "is_reserved": 0}, {"lon": -77.03696783333334, "fusion_lon": 0.0, "bike_id": "0ca0dc23e33c6274af804307e1b89988", "type": "electric_scooter", "name": "0ca0dc23e33c6274af804307e1b89988", "rental_uris": {"android": "https://dc.lft.to/lastmile_qr_scan", "ios": "https://dc.lft.to/lastmile_qr_scan"}, "is_disabled": 0, "fusion_lat": 0.0, "lat": 38.93648833333334, "is_reserved": 0}, {"lon": -77.049108, "fusion_lon": 0.0, "bike_id": "755d86d16d4bfb0f6d8cd3f816f5e6a4", "type": "electric_scooter", "name": "755d86d16d4bfb0f6d8cd3f816f5e6a4", "rental_uris": {"android": "https://dc.lft.to/lastmile_qr_scan", "ios": "https://dc.lft.to/lastmile_qr_scan"}, "is_disabled": 0, "fusion_lat": 0.0, "lat": 38.91602066666667, "is_reserved": 0}, {"lon": -77.0379505, "fusion_lon": 0.0, "bike_id": "292d4d7192f6ff6d8db18e2e5c826ec7", "type": "electric_scooter", "name": "292d4d7192f6ff6d8db18e2e5c826ec7", "rental_uris": {"android": "https://dc.lft.to/lastmile_qr_scan", "ios": "https://dc.lft.to/lastmile_qr_scan"}, "is_disabled": 0, "fusion_lat": 0.0, "lat": 38.9218715, "is_reserved": 0}, {"lon": -77.01790116666666, "fusion_lon": 0.0, "bike_id": "fde0db7c242b4d730cd084e4337df77a", "type": "electric_scooter", "name": "fde0db7c242b4d730cd084e4337df77a", "rental_uris": {"android": "https://dc.lft.to/lastmile_qr_scan", "ios": "https://dc.lft.to/lastmile_qr_scan"}, "is_disabled": 0, "fusion_lat": 0.0, "lat": 38.90404266666667, "is_reserved": 0}, {"lon": -77.06007066666666, "fusion_lon": 0.0, "bike_id": "032fca067369b9aac7c8e85cf977dc93", "type": "electric_scooter", "name": "032fca067369b9aac7c8e85cf977dc93", "rental_uris": {"android": "https://dc.lft.to/lastmile_qr_scan", "ios": "https://dc.lft.to/lastmile_qr_scan"}, "is_disabled": 0, "fusion_lat": 0.0, "lat": 38.9363905, "is_reserved": 0}, {"lon": -76.97953, "fusion_lon": 0.0, "bike_id": "b4bb2fb3776d95be5d8b20e383721636", "type": "electric_scooter", "name": "b4bb2fb3776d95be5d8b20e383721636", "rental_uris": {"android": "https://dc.lft.to/lastmile_qr_scan", "ios": "https://dc.lft.to/lastmile_qr_scan"}, "is_disabled": 0, "fusion_lat": 0.0, "lat": 38.905022833333334, "is_reserved": 0}, {"lon": -77.02166966666667, "fusion_lon": 0.0, "bike_id": "14842e0788a1c89f5e8987541428a312", "type": "electric_scooter", "name": "14842e0788a1c89f5e8987541428a312", "rental_uris": {"android": "https://dc.lft.to/lastmile_qr_scan", "ios": "https://dc.lft.to/lastmile_qr_scan"}, "is_disabled": 0, "fusion_lat": 0.0, "lat": 38.926139666666664, "is_reserved": 0}, {"lon": -77.0068325, "fusion_lon": 0.0, "bike_id": "33e39a118a9dd45cf76bc7c5c93fbd23", "type": "electric_scooter", "name": "33e39a118a9dd45cf76bc7c5c93fbd23", "rental_uris": {"android": "https://dc.lft.to/lastmile_qr_scan", "ios": "https://dc.lft.to/lastmile_qr_scan"}, "is_disabled": 0, "fusion_lat": 0.0, "lat": 38.871726833333334, "is_reserved": 0}, {"lon": -77.11080766666667, "fusion_lon": 0.0, "bike_id": "b3ff51c9863027c86447369d7bf3b68a", "type": "electric_bike", "name": "b3ff51c9863027c86447369d7bf3b68a", "rental_uris": {"android": "https://dc.lft.to/lastmile_qr_scan", "ios": "https://dc.lft.to/lastmile_qr_scan"}, "is_disabled": 0, "fusion_lat": 0.0, "lat": 39.01227333333333, "is_reserved": 0}, {"lon": -77.00575633333334, "fusion_lon": 0.0, "bike_id": "67c06c9de4db7e254143218b98730b2b", "type": "electric_scooter", "name": "67c06c9de4db7e254143218b98730b2b", "rental_uris": {"android": "https://dc.lft.to/lastmile_qr_scan", "ios": "https://dc.lft.to/lastmile_qr_scan"}, "is_disabled": 0, "fusion_lat": 0.0, "lat": 38.87685333333334, "is_reserved": 0}, {"lon": -77.0480835, "fusion_lon": 0.0, "bike_id": "def642214d6421c26fca4179eda64c85", "type": "electric_scooter", "name": "def642214d6421c26fca4179eda64c85", "rental_uris": {"android": "https://dc.lft.to/lastmile_qr_scan", "ios": "https://dc.lft.to/lastmile_qr_scan"}, "is_disabled": 0, "fusion_lat": 0.0, "lat": 38.920365333333336, "is_reserved": 0}, {"lon": -77.034559, "fusion_lon": 0.0, "bike_id": "f3ec2ca69895bd638ca72ddd93ed1225", "type": "electric_scooter", "name": "f3ec2ca69895bd638ca72ddd93ed1225", "rental_uris": {"android": "https://dc.lft.to/lastmile_qr_scan", "ios": "https://dc.lft.to/lastmile_qr_scan"}, "is_disabled": 0, "fusion_lat": 0.0, "lat": 38.9057155, "is_reserved": 0}, {"lon": -77.05455033333334, "fusion_lon": 0.0, "bike_id": "e31595e5e38f8ba230bfa2b92ff53a31", "type": "electric_scooter", "name": "e31595e5e38f8ba230bfa2b92ff53a31", "rental_uris": {"android": "https://dc.lft.to/lastmile_qr_scan", "ios": "https://dc.lft.to/lastmile_qr_scan"}, "is_disabled": 0, "fusion_lat": 0.0, "lat": 38.90237616666667, "is_reserved": 0}, {"lon": -77.02464466666666, "fusion_lon": 0.0, "bike_id": "716a43390fe2a5cb55126319a6b546d6", "type": "electric_scooter", "name": "716a43390fe2a5cb55126319a6b546d6", "rental_uris": {"android": "https://dc.lft.to/lastmile_qr_scan", "ios": "https://dc.lft.to/lastmile_qr_scan"}, "is_disabled": 0, "fusion_lat": 0.0, "lat": 38.938491, "is_reserved": 0}, {"lon": -77.07312933333333, "fusion_lon": 0.0, "bike_id": "5890acbc82663a2e2812f09b854df854", "type": "electric_scooter", "name": "5890acbc82663a2e2812f09b854df854", "rental_uris": {"android": "https://dc.lft.to/lastmile_qr_scan", "ios": "https://dc.lft.to/lastmile_qr_scan"}, "is_disabled": 0, "fusion_lat": 0.0, "lat": 38.92671083333333, "is_reserved": 0}, {"lon": -77.022767, "fusion_lon": 0.0, "bike_id": "67752d28f56670a8697f17001b0291ce", "type": "electric_scooter", "name": "67752d28f56670a8697f17001b0291ce", "rental_uris": {"android": "https://dc.lft.to/lastmile_qr_scan", "ios": "https://dc.lft.to/lastmile_qr_scan"}, "is_disabled": 0, "fusion_lat": 0.0, "lat": 38.91418316666667, "is_reserved": 0}, {"lon": -77.02630783333333, "fusion_lon": 0.0, "bike_id": "68c4db521982c0312c76d673bcd3fd6d", "type": "electric_scooter", "name": "68c4db521982c0312c76d673bcd3fd6d", "rental_uris": {"android": "https://dc.lft.to/lastmile_qr_scan", "ios": "https://dc.lft.to/lastmile_qr_scan"}, "is_disabled": 0, "fusion_lat": 0.0, "lat": 38.887698, "is_reserved": 0}, {"lon": -77.01512783333334, "fusion_lon": 0.0, "bike_id": "221d3c9b1220cd0a5b3b97e5621d2946", "type": "electric_scooter", "name": "221d3c9b1220cd0a5b3b97e5621d2946", "rental_uris": {"android": "https://dc.lft.to/lastmile_qr_scan", "ios": "https://dc.lft.to/lastmile_qr_scan"}, "is_disabled": 0, "fusion_lat": 0.0, "lat": 38.902363666666666, "is_reserved": 0}, {"lon": -76.9832175, "fusion_lon": 0.0, "bike_id": "bceb728633bc7584bbb9fbbfe87f1111", "type": "electric_scooter", "name": "bceb728633bc7584bbb9fbbfe87f1111", "rental_uris": {"android": "https://dc.lft.to/lastmile_qr_scan", "ios": "https://dc.lft.to/lastmile_qr_scan"}, "is_disabled": 0, "fusion_lat": 0.0, "lat": 38.904403333333335, "is_reserved": 0}, {"lon": -77.00345316666667, "fusion_lon": 0.0, "bike_id": "2c1fe5af13807045d33e04fb9e9652d1", "type": "electric_scooter", "name": "2c1fe5af13807045d33e04fb9e9652d1", "rental_uris": {"android": "https://dc.lft.to/lastmile_qr_scan", "ios": "https://dc.lft.to/lastmile_qr_scan"}, "is_disabled": 0, "fusion_lat": 0.0, "lat": 38.8946105, "is_reserved": 0}, {"lon": -77.005814, "fusion_lon": 0.0, "bike_id": "af929f1609c7d39d120f99dc1ef9a67c", "type": "electric_scooter", "name": "af929f1609c7d39d120f99dc1ef9a67c", "rental_uris": {"android": "https://dc.lft.to/lastmile_qr_scan", "ios": "https://dc.lft.to/lastmile_qr_scan"}, "is_disabled": 0, "fusion_lat": 0.0, "lat": 38.9056205, "is_reserved": 0}, {"lon": -77.05134966666667, "fusion_lon": 0.0, "bike_id": "bd6382c0ade4b73926df23614e63299c", "type": "electric_scooter", "name": "bd6382c0ade4b73926df23614e63299c", "rental_uris": {"android": "https://dc.lft.to/lastmile_qr_scan", "ios": "https://dc.lft.to/lastmile_qr_scan"}, "is_disabled": 0, "fusion_lat": 0.0, "lat": 38.925203333333336, "is_reserved": 0}, {"lon": -77.05355633333333, "fusion_lon": 0.0, "bike_id": "d86d9b8f47ff0cd0c46ea1df37f530b1", "type": "electric_scooter", "name": "d86d9b8f47ff0cd0c46ea1df37f530b1", "rental_uris": {"android": "https://dc.lft.to/lastmile_qr_scan", "ios": "https://dc.lft.to/lastmile_qr_scan"}, "is_disabled": 0, "fusion_lat": 0.0, "lat": 38.9271665, "is_reserved": 0}, {"lon": -77.06686516666667, "fusion_lon": 0.0, "bike_id": "9becb08793a0ea5d3c5f3b9719551be3", "type": "electric_scooter", "name": "9becb08793a0ea5d3c5f3b9719551be3", "rental_uris": {"android": "https://dc.lft.to/lastmile_qr_scan", "ios": "https://dc.lft.to/lastmile_qr_scan"}, "is_disabled": 0, "fusion_lat": 0.0, "lat": 38.950092166666664, "is_reserved": 0}, {"lon": -77.02314083333333, "fusion_lon": 0.0, "bike_id": "b9a37d671853b9c093cb8e527d45d4c6", "type": "electric_scooter", "name": "b9a37d671853b9c093cb8e527d45d4c6", "rental_uris": {"android": "https://dc.lft.to/lastmile_qr_scan", "ios": "https://dc.lft.to/lastmile_qr_scan"}, "is_disabled": 0, "fusion_lat": 0.0, "lat": 38.92751, "is_reserved": 0}, {"lon": -77.01145116666666, "fusion_lon": 0.0, "bike_id": "c7d1a72f6895d6764e4cafc5fb3c461d", "type": "electric_scooter", "name": "c7d1a72f6895d6764e4cafc5fb3c461d", "rental_uris": {"android": "https://dc.lft.to/lastmile_qr_scan", "ios": "https://dc.lft.to/lastmile_qr_scan"}, "is_disabled": 0, "fusion_lat": 0.0, "lat": 38.8998775, "is_reserved": 0}, {"lon": -77.01325733333333, "fusion_lon": 0.0, "bike_id": "caa7af411cfcc04f510bd698dc2a5673", "type": "electric_scooter", "name": "caa7af411cfcc04f510bd698dc2a5673", "rental_uris": {"android": "https://dc.lft.to/lastmile_qr_scan", "ios": "https://dc.lft.to/lastmile_qr_scan"}, "is_disabled": 0, "fusion_lat": 0.0, "lat": 38.906059666666664, "is_reserved": 0}, {"lon": -77.03857183333334, "fusion_lon": 0.0, "bike_id": "85ec07c836ba23a57f9531680edb8ac7", "type": "electric_scooter", "name": "85ec07c836ba23a57f9531680edb8ac7", "rental_uris": {"android": "https://dc.lft.to/lastmile_qr_scan", "ios": "https://dc.lft.to/lastmile_qr_scan"}, "is_disabled": 0, "fusion_lat": 0.0, "lat": 38.916192833333334, "is_reserved": 0}, {"lon": -77.0453955, "fusion_lon": 0.0, "bike_id": "002d4e4758c8792e008a1927feda3f9d", "type": "electric_scooter", "name": "002d4e4758c8792e008a1927feda3f9d", "rental_uris": {"android": "https://dc.lft.to/lastmile_qr_scan", "ios": "https://dc.lft.to/lastmile_qr_scan"}, "is_disabled": 0, "fusion_lat": 0.0, "lat": 38.931580833333335, "is_reserved": 0}, {"lon": -77.07072566666666, "fusion_lon": 0.0, "bike_id": "6672257e8ed6d6ce0d6c4e3c47896604", "type": "electric_scooter", "name": "6672257e8ed6d6ce0d6c4e3c47896604", "rental_uris": {"android": "https://dc.lft.to/lastmile_qr_scan", "ios": "https://dc.lft.to/lastmile_qr_scan"}, "is_disabled": 0, "fusion_lat": 0.0, "lat": 38.896548333333335, "is_reserved": 0}, {"lon": -77.024718, "fusion_lon": 0.0, "bike_id": "ba6f2e703785607fda0a3a44bdec4f07", "type": "electric_scooter", "name": "ba6f2e703785607fda0a3a44bdec4f07", "rental_uris": {"android": "https://dc.lft.to/lastmile_qr_scan", "ios": "https://dc.lft.to/lastmile_qr_scan"}, "is_disabled": 0, "fusion_lat": 0.0, "lat": 38.931053666666664, "is_reserved": 0}, {"lon": -76.98716283333333, "fusion_lon": 0.0, "bike_id": "e35b27421fb8ef83c02990e9a32c1672", "type": "electric_scooter", "name": "e35b27421fb8ef83c02990e9a32c1672", "rental_uris": {"android": "https://dc.lft.to/lastmile_qr_scan", "ios": "https://dc.lft.to/lastmile_qr_scan"}, "is_disabled": 0, "fusion_lat": 0.0, "lat": 38.86626183333333, "is_reserved": 0}, {"lon": -77.02172916666666, "fusion_lon": 0.0, "bike_id": "5dd48a53b457aa8a61161fb0f2deb876", "type": "electric_scooter", "name": "5dd48a53b457aa8a61161fb0f2deb876", "rental_uris": {"android": "https://dc.lft.to/lastmile_qr_scan", "ios": "https://dc.lft.to/lastmile_qr_scan"}, "is_disabled": 0, "fusion_lat": 0.0, "lat": 38.94291283333333, "is_reserved": 0}, {"lon": -77.025351, "fusion_lon": 0.0, "bike_id": "fb3c77976d8af9c5845198c6046b8cae", "type": "electric_bike", "name": "fb3c77976d8af9c5845198c6046b8cae", "rental_uris": {"android": "https://dc.lft.to/lastmile_qr_scan", "ios": "https://dc.lft.to/lastmile_qr_scan"}, "is_disabled": 0, "fusion_lat": 0.0, "lat": 38.99700883333333, "is_reserved": 0}, {"lon": -76.95594333333334, "fusion_lon": 0.0, "bike_id": "bec98fb25b794231b789c46210b25dbd", "type": "electric_scooter", "name": "bec98fb25b794231b789c46210b25dbd", "rental_uris": {"android": "https://dc.lft.to/lastmile_qr_scan", "ios": "https://dc.lft.to/lastmile_qr_scan"}, "is_disabled": 0, "fusion_lat": 0.0, "lat": 38.887701666666665, "is_reserved": 0}, {"lon": -77.00580016666666, "fusion_lon": 0.0, "bike_id": "320ea89451eb5ef491de7c0de86939f1", "type": "electric_scooter", "name": "320ea89451eb5ef491de7c0de86939f1", "rental_uris": {"android": "https://dc.lft.to/lastmile_qr_scan", "ios": "https://dc.lft.to/lastmile_qr_scan"}, "is_disabled": 0, "fusion_lat": 0.0, "lat": 38.87575016666667, "is_reserved": 0}, {"lon": -77.072835, "fusion_lon": 0.0, "bike_id": "858185f1fa07fb51f1be4d2c8a60f08c", "type": "electric_scooter", "name": "858185f1fa07fb51f1be4d2c8a60f08c", "rental_uris": {"android": "https://dc.lft.to/lastmile_qr_scan", "ios": "https://dc.lft.to/lastmile_qr_scan"}, "is_disabled": 0, "fusion_lat": 0.0, "lat": 38.93473, "is_reserved": 0}, {"lon": -77.038925, "fusion_lon": 0.0, "bike_id": "3d35a9390ae39e788a1fa430af5cc02a", "type": "electric_scooter", "name": "3d35a9390ae39e788a1fa430af5cc02a", "rental_uris": {"android": "https://dc.lft.to/lastmile_qr_scan", "ios": "https://dc.lft.to/lastmile_qr_scan"}, "is_disabled": 0, "fusion_lat": 0.0, "lat": 38.921378833333335, "is_reserved": 0}, {"lon": -77.03175233333333, "fusion_lon": 0.0, "bike_id": "d19d619e16b80c34f2ed47892c161d6e", "type": "electric_scooter", "name": "d19d619e16b80c34f2ed47892c161d6e", "rental_uris": {"android": "https://dc.lft.to/lastmile_qr_scan", "ios": "https://dc.lft.to/lastmile_qr_scan"}, "is_disabled": 0, "fusion_lat": 0.0, "lat": 38.92101616666667, "is_reserved": 0}, {"lon": -77.0274535, "fusion_lon": 0.0, "bike_id": "995762329e27b80f066d28dd99c628f1", "type": "electric_scooter", "name": "995762329e27b80f066d28dd99c628f1", "rental_uris": {"android": "https://dc.lft.to/lastmile_qr_scan", "ios": "https://dc.lft.to/lastmile_qr_scan"}, "is_disabled": 0, "fusion_lat": 0.0, "lat": 38.8970285, "is_reserved": 0}, {"lon": -77.07886383333333, "fusion_lon": 0.0, "bike_id": "efa45d5ff6747beb72d2aae56ee5023d", "type": "electric_bike", "name": "efa45d5ff6747beb72d2aae56ee5023d", "rental_uris": {"android": "https://dc.lft.to/lastmile_qr_scan", "ios": "https://dc.lft.to/lastmile_qr_scan"}, "is_disabled": 0, "fusion_lat": 0.0, "lat": 38.84253233333333, "is_reserved": 0}, {"lon": -77.05007083333334, "fusion_lon": 0.0, "bike_id": "7595aa99b31b145f9a3d3960f7582aea", "type": "electric_scooter", "name": "7595aa99b31b145f9a3d3960f7582aea", "rental_uris": {"android": "https://dc.lft.to/lastmile_qr_scan", "ios": "https://dc.lft.to/lastmile_qr_scan"}, "is_disabled": 0, "fusion_lat": 0.0, "lat": 38.897556, "is_reserved": 0}, {"lon": -76.9626035, "fusion_lon": 0.0, "bike_id": "3593ef257a95dd39a06080d812e0c178", "type": "electric_bike", "name": "3593ef257a95dd39a06080d812e0c178", "rental_uris": {"android": "https://dc.lft.to/lastmile_qr_scan", "ios": "https://dc.lft.to/lastmile_qr_scan"}, "is_disabled": 0, "fusion_lat": 0.0, "lat": 38.88247883333333, "is_reserved": 0}, {"lon": -76.97762416666667, "fusion_lon": 0.0, "bike_id": "83c04549c962e7b7c4e3a56931b035d6", "type": "electric_scooter", "name": "83c04549c962e7b7c4e3a56931b035d6", "rental_uris": {"android": "https://dc.lft.to/lastmile_qr_scan", "ios": "https://dc.lft.to/lastmile_qr_scan"}, "is_disabled": 0, "fusion_lat": 0.0, "lat": 38.928581, "is_reserved": 0}, {"lon": -77.0121455, "fusion_lon": 0.0, "bike_id": "45299dbc65531d91f90726728211f39a", "type": "electric_scooter", "name": "45299dbc65531d91f90726728211f39a", "rental_uris": {"android": "https://dc.lft.to/lastmile_qr_scan", "ios": "https://dc.lft.to/lastmile_qr_scan"}, "is_disabled": 0, "fusion_lat": 0.0, "lat": 38.921190833333334, "is_reserved": 0}, {"lon": -77.04265, "fusion_lon": 0.0, "bike_id": "7f283f5c9ed461965577e46fcad70930", "type": "electric_scooter", "name": "7f283f5c9ed461965577e46fcad70930", "rental_uris": {"android": "https://dc.lft.to/lastmile_qr_scan", "ios": "https://dc.lft.to/lastmile_qr_scan"}, "is_disabled": 0, "fusion_lat": 0.0, "lat": 38.9073625, "is_reserved": 0}, {"lon": -77.035626, "fusion_lon": 0.0, "bike_id": "d9758bc84538914553cf87ac966d7263", "type": "electric_scooter", "name": "d9758bc84538914553cf87ac966d7263", "rental_uris": {"android": "https://dc.lft.to/lastmile_qr_scan", "ios": "https://dc.lft.to/lastmile_qr_scan"}, "is_disabled": 0, "fusion_lat": 0.0, "lat": 38.92692683333333, "is_reserved": 0}, {"lon": -76.98378733333334, "fusion_lon": 0.0, "bike_id": "7cb60a9940589b8d2056c32316f5c3eb", "type": "electric_scooter", "name": "7cb60a9940589b8d2056c32316f5c3eb", "rental_uris": {"android": "https://dc.lft.to/lastmile_qr_scan", "ios": "https://dc.lft.to/lastmile_qr_scan"}, "is_disabled": 0, "fusion_lat": 0.0, "lat": 38.906482, "is_reserved": 0}, {"lon": -77.03178816666667, "fusion_lon": 0.0, "bike_id": "310fb18c7c8c09ba9d128f2d85223e96", "type": "electric_scooter", "name": "310fb18c7c8c09ba9d128f2d85223e96", "rental_uris": {"android": "https://dc.lft.to/lastmile_qr_scan", "ios": "https://dc.lft.to/lastmile_qr_scan"}, "is_disabled": 0, "fusion_lat": 0.0, "lat": 38.91760283333333, "is_reserved": 0}, {"lon": -76.98657383333334, "fusion_lon": 0.0, "bike_id": "ec79fd9775e445df3e40a4e98a967ab4", "type": "electric_scooter", "name": "ec79fd9775e445df3e40a4e98a967ab4", "rental_uris": {"android": "https://dc.lft.to/lastmile_qr_scan", "ios": "https://dc.lft.to/lastmile_qr_scan"}, "is_disabled": 0, "fusion_lat": 0.0, "lat": 38.85806216666667, "is_reserved": 0}, {"lon": -77.0350865, "fusion_lon": 0.0, "bike_id": "1b8130fd9651af7cc7b2631f83ce4d4a", "type": "electric_scooter", "name": "1b8130fd9651af7cc7b2631f83ce4d4a", "rental_uris": {"android": "https://dc.lft.to/lastmile_qr_scan", "ios": "https://dc.lft.to/lastmile_qr_scan"}, "is_disabled": 0, "fusion_lat": 0.0, "lat": 38.9170915, "is_reserved": 0}, {"lon": -77.01819733333333, "fusion_lon": 0.0, "bike_id": "d199161f74378482ffdf01fb5118ff6f", "type": "electric_scooter", "name": "d199161f74378482ffdf01fb5118ff6f", "rental_uris": {"android": "https://dc.lft.to/lastmile_qr_scan", "ios": "https://dc.lft.to/lastmile_qr_scan"}, "is_disabled": 0, "fusion_lat": 0.0, "lat": 38.90225683333333, "is_reserved": 0}, {"lon": -77.02900816666667, "fusion_lon": 0.0, "bike_id": "782b06eaa4c36a8a8ff405b9b9ec8719", "type": "electric_scooter", "name": "782b06eaa4c36a8a8ff405b9b9ec8719", "rental_uris": {"android": "https://dc.lft.to/lastmile_qr_scan", "ios": "https://dc.lft.to/lastmile_qr_scan"}, "is_disabled": 0, "fusion_lat": 0.0, "lat": 38.917062, "is_reserved": 0}, {"lon": -77.037374, "fusion_lon": 0.0, "bike_id": "e9ae4a353b84fad8c28f73a03b242ee5", "type": "electric_scooter", "name": "e9ae4a353b84fad8c28f73a03b242ee5", "rental_uris": {"android": "https://dc.lft.to/lastmile_qr_scan", "ios": "https://dc.lft.to/lastmile_qr_scan"}, "is_disabled": 0, "fusion_lat": 0.0, "lat": 38.916181, "is_reserved": 0}, {"lon": -77.011533, "fusion_lon": 0.0, "bike_id": "5fff6efe20ceb3a7219661f72c5f339d", "type": "electric_scooter", "name": "5fff6efe20ceb3a7219661f72c5f339d", "rental_uris": {"android": "https://dc.lft.to/lastmile_qr_scan", "ios": "https://dc.lft.to/lastmile_qr_scan"}, "is_disabled": 0, "fusion_lat": 0.0, "lat": 38.911063166666665, "is_reserved": 0}, {"lon": -77.03529216666666, "fusion_lon": 0.0, "bike_id": "34979891ac40bd9f27752111c1d66b7e", "type": "electric_scooter", "name": "34979891ac40bd9f27752111c1d66b7e", "rental_uris": {"android": "https://dc.lft.to/lastmile_qr_scan", "ios": "https://dc.lft.to/lastmile_qr_scan"}, "is_disabled": 0, "fusion_lat": 0.0, "lat": 38.925409, "is_reserved": 0}, {"lon": -77.0011085, "fusion_lon": 0.0, "bike_id": "18402243e8c3f1d9b70db49c5042898e", "type": "electric_scooter", "name": "18402243e8c3f1d9b70db49c5042898e", "rental_uris": {"android": "https://dc.lft.to/lastmile_qr_scan", "ios": "https://dc.lft.to/lastmile_qr_scan"}, "is_disabled": 0, "fusion_lat": 0.0, "lat": 38.873738333333336, "is_reserved": 0}, {"lon": -77.01948383333334, "fusion_lon": 0.0, "bike_id": "676b846a039744d6d6a4e5a23b56323a", "type": "electric_scooter", "name": "676b846a039744d6d6a4e5a23b56323a", "rental_uris": {"android": "https://dc.lft.to/lastmile_qr_scan", "ios": "https://dc.lft.to/lastmile_qr_scan"}, "is_disabled": 0, "fusion_lat": 0.0, "lat": 38.924195, "is_reserved": 0}, {"lon": -77.03180383333333, "fusion_lon": 0.0, "bike_id": "3e60954eabe096fabcef31b4a4f5d4e4", "type": "electric_scooter", "name": "3e60954eabe096fabcef31b4a4f5d4e4", "rental_uris": {"android": "https://dc.lft.to/lastmile_qr_scan", "ios": "https://dc.lft.to/lastmile_qr_scan"}, "is_disabled": 0, "fusion_lat": 0.0, "lat": 38.89618816666667, "is_reserved": 0}, {"lon": -76.963769, "fusion_lon": 0.0, "bike_id": "254bf706c375920d4798b81563eacf53", "type": "electric_bike", "name": "254bf706c375920d4798b81563eacf53", "rental_uris": {"android": "https://dc.lft.to/lastmile_qr_scan", "ios": "https://dc.lft.to/lastmile_qr_scan"}, "is_disabled": 0, "fusion_lat": 0.0, "lat": 38.94896266666667, "is_reserved": 0}, {"lon": -77.027011, "fusion_lon": 0.0, "bike_id": "b9c2dd32723af50ff9a8c28dac8d893b", "type": "electric_scooter", "name": "b9c2dd32723af50ff9a8c28dac8d893b", "rental_uris": {"android": "https://dc.lft.to/lastmile_qr_scan", "ios": "https://dc.lft.to/lastmile_qr_scan"}, "is_disabled": 0, "fusion_lat": 0.0, "lat": 38.9067105, "is_reserved": 0}, {"lon": -77.042201, "fusion_lon": 0.0, "bike_id": "9c592ea3767395e97e8a351e810e7463", "type": "electric_scooter", "name": "9c592ea3767395e97e8a351e810e7463", "rental_uris": {"android": "https://dc.lft.to/lastmile_qr_scan", "ios": "https://dc.lft.to/lastmile_qr_scan"}, "is_disabled": 0, "fusion_lat": 0.0, "lat": 38.923105166666666, "is_reserved": 0}, {"lon": -77.02829483333333, "fusion_lon": 0.0, "bike_id": "7e6d2f50c81dd42440e0130eb7559bf3", "type": "electric_scooter", "name": "7e6d2f50c81dd42440e0130eb7559bf3", "rental_uris": {"android": "https://dc.lft.to/lastmile_qr_scan", "ios": "https://dc.lft.to/lastmile_qr_scan"}, "is_disabled": 0, "fusion_lat": 0.0, "lat": 38.922285333333335, "is_reserved": 0}, {"lon": -77.03449316666666, "fusion_lon": 0.0, "bike_id": "7db858f85f634af478e0a64db4ce95e6", "type": "electric_scooter", "name": "7db858f85f634af478e0a64db4ce95e6", "rental_uris": {"android": "https://dc.lft.to/lastmile_qr_scan", "ios": "https://dc.lft.to/lastmile_qr_scan"}, "is_disabled": 0, "fusion_lat": 0.0, "lat": 38.917964833333336, "is_reserved": 0}, {"lon": -76.95421116666667, "fusion_lon": 0.0, "bike_id": "f4f35cbd87e6fdef4f3f87fbf5ba9172", "type": "electric_scooter", "name": "f4f35cbd87e6fdef4f3f87fbf5ba9172", "rental_uris": {"android": "https://dc.lft.to/lastmile_qr_scan", "ios": "https://dc.lft.to/lastmile_qr_scan"}, "is_disabled": 0, "fusion_lat": 0.0, "lat": 38.88997166666667, "is_reserved": 0}, {"lon": -77.022801, "fusion_lon": 0.0, "bike_id": "a669feb73c979119bfbd0aea7d324ad7", "type": "electric_scooter", "name": "a669feb73c979119bfbd0aea7d324ad7", "rental_uris": {"android": "https://dc.lft.to/lastmile_qr_scan", "ios": "https://dc.lft.to/lastmile_qr_scan"}, "is_disabled": 0, "fusion_lat": 0.0, "lat": 38.91562033333334, "is_reserved": 0}, {"lon": -77.02972233333334, "fusion_lon": 0.0, "bike_id": "64cb5fb6a16274a912ce4367524ad084", "type": "electric_scooter", "name": "64cb5fb6a16274a912ce4367524ad084", "rental_uris": {"android": "https://dc.lft.to/lastmile_qr_scan", "ios": "https://dc.lft.to/lastmile_qr_scan"}, "is_disabled": 0, "fusion_lat": 0.0, "lat": 38.905170166666664, "is_reserved": 0}, {"lon": -77.04494633333333, "fusion_lon": 0.0, "bike_id": "caad70eef5ff505a1a0c6f4f0eadc424", "type": "electric_scooter", "name": "caad70eef5ff505a1a0c6f4f0eadc424", "rental_uris": {"android": "https://dc.lft.to/lastmile_qr_scan", "ios": "https://dc.lft.to/lastmile_qr_scan"}, "is_disabled": 0, "fusion_lat": 0.0, "lat": 38.9087965, "is_reserved": 0}, {"lon": -77.02360416666667, "fusion_lon": 0.0, "bike_id": "12f630a597d3df78eeb704daf196431c", "type": "electric_scooter", "name": "12f630a597d3df78eeb704daf196431c", "rental_uris": {"android": "https://dc.lft.to/lastmile_qr_scan", "ios": "https://dc.lft.to/lastmile_qr_scan"}, "is_disabled": 0, "fusion_lat": 0.0, "lat": 38.930490666666664, "is_reserved": 0}, {"lon": -77.023336, "fusion_lon": 0.0, "bike_id": "12be98ceba68fea7310e923772866542", "type": "electric_scooter", "name": "12be98ceba68fea7310e923772866542", "rental_uris": {"android": "https://dc.lft.to/lastmile_qr_scan", "ios": "https://dc.lft.to/lastmile_qr_scan"}, "is_disabled": 0, "fusion_lat": 0.0, "lat": 38.92230833333333, "is_reserved": 0}, {"lon": -77.03174116666666, "fusion_lon": 0.0, "bike_id": "81175f57979e7f067f0d170bc7ea5dc8", "type": "electric_scooter", "name": "81175f57979e7f067f0d170bc7ea5dc8", "rental_uris": {"android": "https://dc.lft.to/lastmile_qr_scan", "ios": "https://dc.lft.to/lastmile_qr_scan"}, "is_disabled": 0, "fusion_lat": 0.0, "lat": 38.92030716666667, "is_reserved": 0}, {"lon": -77.03302116666667, "fusion_lon": 0.0, "bike_id": "5cb948d630af602342ed5a542f817fc4", "type": "electric_scooter", "name": "5cb948d630af602342ed5a542f817fc4", "rental_uris": {"android": "https://dc.lft.to/lastmile_qr_scan", "ios": "https://dc.lft.to/lastmile_qr_scan"}, "is_disabled": 0, "fusion_lat": 0.0, "lat": 38.924467166666666, "is_reserved": 0}, {"lon": -77.03799966666666, "fusion_lon": 0.0, "bike_id": "3b1bfab03845bac8e90b4ce1c2afc7ee", "type": "electric_bike", "name": "3b1bfab03845bac8e90b4ce1c2afc7ee", "rental_uris": {"android": "https://dc.lft.to/lastmile_qr_scan", "ios": "https://dc.lft.to/lastmile_qr_scan"}, "is_disabled": 0, "fusion_lat": 0.0, "lat": 38.996793333333336, "is_reserved": 0}, {"lon": -77.01393766666666, "fusion_lon": 0.0, "bike_id": "7d5eb50013c60bd9fce2ce6df367d00c", "type": "electric_scooter", "name": "7d5eb50013c60bd9fce2ce6df367d00c", "rental_uris": {"android": "https://dc.lft.to/lastmile_qr_scan", "ios": "https://dc.lft.to/lastmile_qr_scan"}, "is_disabled": 0, "fusion_lat": 0.0, "lat": 38.9422995, "is_reserved": 0}, {"lon": -77.0482855, "fusion_lon": 0.0, "bike_id": "6d825dcec791dc6a078ad5cd4112852c", "type": "electric_scooter", "name": "6d825dcec791dc6a078ad5cd4112852c", "rental_uris": {"android": "https://dc.lft.to/lastmile_qr_scan", "ios": "https://dc.lft.to/lastmile_qr_scan"}, "is_disabled": 0, "fusion_lat": 0.0, "lat": 38.91839566666667, "is_reserved": 0}, {"lon": -77.04334933333334, "fusion_lon": 0.0, "bike_id": "709183b81485eb510cc6a0d19b9469eb", "type": "electric_scooter", "name": "709183b81485eb510cc6a0d19b9469eb", "rental_uris": {"android": "https://dc.lft.to/lastmile_qr_scan", "ios": "https://dc.lft.to/lastmile_qr_scan"}, "is_disabled": 0, "fusion_lat": 0.0, "lat": 38.908248, "is_reserved": 0}, {"lon": -77.0443925, "fusion_lon": 0.0, "bike_id": "d6156b5db03caa8e6accf3749029353c", "type": "electric_scooter", "name": "d6156b5db03caa8e6accf3749029353c", "rental_uris": {"android": "https://dc.lft.to/lastmile_qr_scan", "ios": "https://dc.lft.to/lastmile_qr_scan"}, "is_disabled": 0, "fusion_lat": 0.0, "lat": 38.89597033333333, "is_reserved": 0}, {"lon": -77.00438816666667, "fusion_lon": 0.0, "bike_id": "35df70912738d731b2e81ce5451c19f9", "type": "electric_scooter", "name": "35df70912738d731b2e81ce5451c19f9", "rental_uris": {"android": "https://dc.lft.to/lastmile_qr_scan", "ios": "https://dc.lft.to/lastmile_qr_scan"}, "is_disabled": 0, "fusion_lat": 0.0, "lat": 38.876668, "is_reserved": 0}, {"lon": -77.05002733333333, "fusion_lon": 0.0, "bike_id": "286c425e8f67efcde420f452692abbd2", "type": "electric_scooter", "name": "286c425e8f67efcde420f452692abbd2", "rental_uris": {"android": "https://dc.lft.to/lastmile_qr_scan", "ios": "https://dc.lft.to/lastmile_qr_scan"}, "is_disabled": 0, "fusion_lat": 0.0, "lat": 38.8978275, "is_reserved": 0}, {"lon": -77.02815683333333, "fusion_lon": 0.0, "bike_id": "82f229c8b26654986d4b29400694e0ad", "type": "electric_scooter", "name": "82f229c8b26654986d4b29400694e0ad", "rental_uris": {"android": "https://dc.lft.to/lastmile_qr_scan", "ios": "https://dc.lft.to/lastmile_qr_scan"}, "is_disabled": 0, "fusion_lat": 0.0, "lat": 38.89917233333333, "is_reserved": 0}, {"lon": -77.02291816666667, "fusion_lon": 0.0, "bike_id": "36bc7dd07a319fac9c2a847de902caa3", "type": "electric_scooter", "name": "36bc7dd07a319fac9c2a847de902caa3", "rental_uris": {"android": "https://dc.lft.to/lastmile_qr_scan", "ios": "https://dc.lft.to/lastmile_qr_scan"}, "is_disabled": 0, "fusion_lat": 0.0, "lat": 38.917879666666664, "is_reserved": 0}, {"lon": -77.03228066666667, "fusion_lon": 0.0, "bike_id": "9c75a7b356ff91291ef143851c1fddf5", "type": "electric_scooter", "name": "9c75a7b356ff91291ef143851c1fddf5", "rental_uris": {"android": "https://dc.lft.to/lastmile_qr_scan", "ios": "https://dc.lft.to/lastmile_qr_scan"}, "is_disabled": 0, "fusion_lat": 0.0, "lat": 38.9239695, "is_reserved": 0}, {"lon": -77.057396, "fusion_lon": 0.0, "bike_id": "102386499880ca45c4d5e8d523693a18", "type": "electric_scooter", "name": "102386499880ca45c4d5e8d523693a18", "rental_uris": {"android": "https://dc.lft.to/lastmile_qr_scan", "ios": "https://dc.lft.to/lastmile_qr_scan"}, "is_disabled": 0, "fusion_lat": 0.0, "lat": 38.9338955, "is_reserved": 0}, {"lon": -77.04812816666667, "fusion_lon": 0.0, "bike_id": "242cd07862da283babb64acc88809c71", "type": "electric_scooter", "name": "242cd07862da283babb64acc88809c71", "rental_uris": {"android": "https://dc.lft.to/lastmile_qr_scan", "ios": "https://dc.lft.to/lastmile_qr_scan"}, "is_disabled": 0, "fusion_lat": 0.0, "lat": 38.89618816666667, "is_reserved": 0}, {"lon": -77.024802, "fusion_lon": 0.0, "bike_id": "c9f387ba0d0dc20ee0a07b5e28366ca0", "type": "electric_scooter", "name": "c9f387ba0d0dc20ee0a07b5e28366ca0", "rental_uris": {"android": "https://dc.lft.to/lastmile_qr_scan", "ios": "https://dc.lft.to/lastmile_qr_scan"}, "is_disabled": 0, "fusion_lat": 0.0, "lat": 38.9309785, "is_reserved": 0}, {"lon": -76.98561466666666, "fusion_lon": 0.0, "bike_id": "1352a29bc64588a184f69c34001802bd", "type": "electric_scooter", "name": "1352a29bc64588a184f69c34001802bd", "rental_uris": {"android": "https://dc.lft.to/lastmile_qr_scan", "ios": "https://dc.lft.to/lastmile_qr_scan"}, "is_disabled": 0, "fusion_lat": 0.0, "lat": 38.883524333333334, "is_reserved": 0}, {"lon": -76.9838125, "fusion_lon": 0.0, "bike_id": "c0890e690ced8c5902d970aab11b8678", "type": "electric_scooter", "name": "c0890e690ced8c5902d970aab11b8678", "rental_uris": {"android": "https://dc.lft.to/lastmile_qr_scan", "ios": "https://dc.lft.to/lastmile_qr_scan"}, "is_disabled": 0, "fusion_lat": 0.0, "lat": 38.91494516666667, "is_reserved": 0}, {"lon": -77.055113, "fusion_lon": 0.0, "bike_id": "923bf9390f94b8be2f6fb15a20a69ad1", "type": "electric_scooter", "name": "923bf9390f94b8be2f6fb15a20a69ad1", "rental_uris": {"android": "https://dc.lft.to/lastmile_qr_scan", "ios": "https://dc.lft.to/lastmile_qr_scan"}, "is_disabled": 0, "fusion_lat": 0.0, "lat": 38.92947766666666, "is_reserved": 0}, {"lon": -77.041435, "fusion_lon": 0.0, "bike_id": "ac33e182aaeedcfaed8b492a426768ab", "type": "electric_scooter", "name": "ac33e182aaeedcfaed8b492a426768ab", "rental_uris": {"android": "https://dc.lft.to/lastmile_qr_scan", "ios": "https://dc.lft.to/lastmile_qr_scan"}, "is_disabled": 0, "fusion_lat": 0.0, "lat": 38.919602, "is_reserved": 0}, {"lon": -77.01736416666667, "fusion_lon": 0.0, "bike_id": "d9b8caacd087e39c0867194f9bea3b3e", "type": "electric_scooter", "name": "d9b8caacd087e39c0867194f9bea3b3e", "rental_uris": {"android": "https://dc.lft.to/lastmile_qr_scan", "ios": "https://dc.lft.to/lastmile_qr_scan"}, "is_disabled": 0, "fusion_lat": 0.0, "lat": 38.91608016666667, "is_reserved": 0}, {"lon": -77.00080333333334, "fusion_lon": 0.0, "bike_id": "84f89040ea6ac48f4316dfc62ac7d8a0", "type": "electric_scooter", "name": "84f89040ea6ac48f4316dfc62ac7d8a0", "rental_uris": {"android": "https://dc.lft.to/lastmile_qr_scan", "ios": "https://dc.lft.to/lastmile_qr_scan"}, "is_disabled": 0, "fusion_lat": 0.0, "lat": 38.873551, "is_reserved": 0}, {"lon": -77.0058905, "fusion_lon": 0.0, "bike_id": "5ecf4319730fb01332ca4411cce91faa", "type": "electric_scooter", "name": "5ecf4319730fb01332ca4411cce91faa", "rental_uris": {"android": "https://dc.lft.to/lastmile_qr_scan", "ios": "https://dc.lft.to/lastmile_qr_scan"}, "is_disabled": 0, "fusion_lat": 0.0, "lat": 38.8756015, "is_reserved": 0}, {"lon": -77.024112, "fusion_lon": 0.0, "bike_id": "52b1483c574917e20147b4dbb53055af", "type": "electric_scooter", "name": "52b1483c574917e20147b4dbb53055af", "rental_uris": {"android": "https://dc.lft.to/lastmile_qr_scan", "ios": "https://dc.lft.to/lastmile_qr_scan"}, "is_disabled": 0, "fusion_lat": 0.0, "lat": 38.905756333333336, "is_reserved": 0}, {"lon": -77.044161, "fusion_lon": 0.0, "bike_id": "a00e32f26b1908b5d9883312680255ee", "type": "electric_scooter", "name": "a00e32f26b1908b5d9883312680255ee", "rental_uris": {"android": "https://dc.lft.to/lastmile_qr_scan", "ios": "https://dc.lft.to/lastmile_qr_scan"}, "is_disabled": 0, "fusion_lat": 0.0, "lat": 38.9104045, "is_reserved": 0}, {"lon": -77.01666483333334, "fusion_lon": 0.0, "bike_id": "6a5e4ac81a3884b84cc7b4be7a696da4", "type": "electric_scooter", "name": "6a5e4ac81a3884b84cc7b4be7a696da4", "rental_uris": {"android": "https://dc.lft.to/lastmile_qr_scan", "ios": "https://dc.lft.to/lastmile_qr_scan"}, "is_disabled": 0, "fusion_lat": 0.0, "lat": 38.88113516666667, "is_reserved": 0}, {"lon": -77.0363365, "fusion_lon": 0.0, "bike_id": "fc8406a15ce56be007af06c2ce47f507", "type": "electric_scooter", "name": "fc8406a15ce56be007af06c2ce47f507", "rental_uris": {"android": "https://dc.lft.to/lastmile_qr_scan", "ios": "https://dc.lft.to/lastmile_qr_scan"}, "is_disabled": 0, "fusion_lat": 0.0, "lat": 38.9274125, "is_reserved": 0}, {"lon": -77.03048966666667, "fusion_lon": 0.0, "bike_id": "0118cdb07523326382db2f97c15d6a74", "type": "electric_scooter", "name": "0118cdb07523326382db2f97c15d6a74", "rental_uris": {"android": "https://dc.lft.to/lastmile_qr_scan", "ios": "https://dc.lft.to/lastmile_qr_scan"}, "is_disabled": 0, "fusion_lat": 0.0, "lat": 38.91641766666667, "is_reserved": 0}, {"lon": -77.03406116666666, "fusion_lon": 0.0, "bike_id": "4e5377eb72b89596c575063dc9ce5720", "type": "electric_scooter", "name": "4e5377eb72b89596c575063dc9ce5720", "rental_uris": {"android": "https://dc.lft.to/lastmile_qr_scan", "ios": "https://dc.lft.to/lastmile_qr_scan"}, "is_disabled": 0, "fusion_lat": 0.0, "lat": 38.92206133333333, "is_reserved": 0}, {"lon": -77.02195133333333, "fusion_lon": 0.0, "bike_id": "bdaed43efa8175b2bdb8cff044af0b13", "type": "electric_scooter", "name": "bdaed43efa8175b2bdb8cff044af0b13", "rental_uris": {"android": "https://dc.lft.to/lastmile_qr_scan", "ios": "https://dc.lft.to/lastmile_qr_scan"}, "is_disabled": 0, "fusion_lat": 0.0, "lat": 38.91122816666667, "is_reserved": 0}, {"lon": -77.031924, "fusion_lon": 0.0, "bike_id": "c50d481b224c75ca904d2353d4954bf6", "type": "electric_scooter", "name": "c50d481b224c75ca904d2353d4954bf6", "rental_uris": {"android": "https://dc.lft.to/lastmile_qr_scan", "ios": "https://dc.lft.to/lastmile_qr_scan"}, "is_disabled": 0, "fusion_lat": 0.0, "lat": 38.89246216666667, "is_reserved": 0}, {"lon": -76.948554, "fusion_lon": 0.0, "bike_id": "27a20ac8496f85438df2465226b237a6", "type": "electric_scooter", "name": "27a20ac8496f85438df2465226b237a6", "rental_uris": {"android": "https://dc.lft.to/lastmile_qr_scan", "ios": "https://dc.lft.to/lastmile_qr_scan"}, "is_disabled": 0, "fusion_lat": 0.0, "lat": 38.88297266666667, "is_reserved": 0}, {"lon": -77.0423015, "fusion_lon": 0.0, "bike_id": "9ad5b41f37bf51dd277103dbaec2fcf2", "type": "electric_scooter", "name": "9ad5b41f37bf51dd277103dbaec2fcf2", "rental_uris": {"android": "https://dc.lft.to/lastmile_qr_scan", "ios": "https://dc.lft.to/lastmile_qr_scan"}, "is_disabled": 0, "fusion_lat": 0.0, "lat": 38.91109083333333, "is_reserved": 0}, {"lon": -77.03424816666667, "fusion_lon": 0.0, "bike_id": "346708c703bbbb8b0836244418914ce9", "type": "electric_scooter", "name": "346708c703bbbb8b0836244418914ce9", "rental_uris": {"android": "https://dc.lft.to/lastmile_qr_scan", "ios": "https://dc.lft.to/lastmile_qr_scan"}, "is_disabled": 0, "fusion_lat": 0.0, "lat": 38.90958716666667, "is_reserved": 0}, {"lon": -77.04165533333334, "fusion_lon": 0.0, "bike_id": "a6678e2ac33678fc19058698bbe8919d", "type": "electric_scooter", "name": "a6678e2ac33678fc19058698bbe8919d", "rental_uris": {"android": "https://dc.lft.to/lastmile_qr_scan", "ios": "https://dc.lft.to/lastmile_qr_scan"}, "is_disabled": 0, "fusion_lat": 0.0, "lat": 38.892345166666665, "is_reserved": 0}, {"lon": -77.06420433333334, "fusion_lon": 0.0, "bike_id": "b3f7b06590fc568093538baa66be30c8", "type": "electric_scooter", "name": "b3f7b06590fc568093538baa66be30c8", "rental_uris": {"android": "https://dc.lft.to/lastmile_qr_scan", "ios": "https://dc.lft.to/lastmile_qr_scan"}, "is_disabled": 0, "fusion_lat": 0.0, "lat": 38.913464833333336, "is_reserved": 0}, {"lon": -77.034484, "fusion_lon": 0.0, "bike_id": "833f96e2c1b09e534d4ec9b31624cc72", "type": "electric_scooter", "name": "833f96e2c1b09e534d4ec9b31624cc72", "rental_uris": {"android": "https://dc.lft.to/lastmile_qr_scan", "ios": "https://dc.lft.to/lastmile_qr_scan"}, "is_disabled": 0, "fusion_lat": 0.0, "lat": 38.90840383333333, "is_reserved": 0}, {"lon": -76.94894033333334, "fusion_lon": 0.0, "bike_id": "c519456c49e1571e4a46a4f43f31f076", "type": "electric_scooter", "name": "c519456c49e1571e4a46a4f43f31f076", "rental_uris": {"android": "https://dc.lft.to/lastmile_qr_scan", "ios": "https://dc.lft.to/lastmile_qr_scan"}, "is_disabled": 0, "fusion_lat": 0.0, "lat": 38.89533933333333, "is_reserved": 0}, {"lon": -77.0525985, "fusion_lon": 0.0, "bike_id": "a85774c9c625c86cd18adfc5fc3d90dc", "type": "electric_scooter", "name": "a85774c9c625c86cd18adfc5fc3d90dc", "rental_uris": {"android": "https://dc.lft.to/lastmile_qr_scan", "ios": "https://dc.lft.to/lastmile_qr_scan"}, "is_disabled": 0, "fusion_lat": 0.0, "lat": 38.92785083333333, "is_reserved": 0}, {"lon": -76.91594783333333, "fusion_lon": 0.0, "bike_id": "7844b49c9043adfc7f897f1c87a18ea3", "type": "electric_bike", "name": "7844b49c9043adfc7f897f1c87a18ea3", "rental_uris": {"android": "https://dc.lft.to/lastmile_qr_scan", "ios": "https://dc.lft.to/lastmile_qr_scan"}, "is_disabled": 0, "fusion_lat": 0.0, "lat": 38.87984083333333, "is_reserved": 0}, {"lon": -76.94892583333333, "fusion_lon": 0.0, "bike_id": "351f64bf46ffe9114c2cdc56052a9600", "type": "electric_scooter", "name": "351f64bf46ffe9114c2cdc56052a9600", "rental_uris": {"android": "https://dc.lft.to/lastmile_qr_scan", "ios": "https://dc.lft.to/lastmile_qr_scan"}, "is_disabled": 0, "fusion_lat": 0.0, "lat": 38.895354, "is_reserved": 0}, {"lon": -77.02788633333333, "fusion_lon": 0.0, "bike_id": "ecc88f369ee1662f90940ae5e403b5f9", "type": "electric_scooter", "name": "ecc88f369ee1662f90940ae5e403b5f9", "rental_uris": {"android": "https://dc.lft.to/lastmile_qr_scan", "ios": "https://dc.lft.to/lastmile_qr_scan"}, "is_disabled": 0, "fusion_lat": 0.0, "lat": 38.917022833333334, "is_reserved": 0}, {"lon": -77.036154, "fusion_lon": 0.0, "bike_id": "6639a91d51b3391324bde38efd05741f", "type": "electric_scooter", "name": "6639a91d51b3391324bde38efd05741f", "rental_uris": {"android": "https://dc.lft.to/lastmile_qr_scan", "ios": "https://dc.lft.to/lastmile_qr_scan"}, "is_disabled": 0, "fusion_lat": 0.0, "lat": 38.9172975, "is_reserved": 0}, {"lon": -77.03646866666666, "fusion_lon": 0.0, "bike_id": "bec04c5724425e60c8c4b2e3858914b0", "type": "electric_scooter", "name": "bec04c5724425e60c8c4b2e3858914b0", "rental_uris": {"android": "https://dc.lft.to/lastmile_qr_scan", "ios": "https://dc.lft.to/lastmile_qr_scan"}, "is_disabled": 0, "fusion_lat": 0.0, "lat": 38.92447516666667, "is_reserved": 0}, {"lon": -76.97783166666666, "fusion_lon": 0.0, "bike_id": "e6c8f711095b391b12f5f16e30b5ef86", "type": "electric_scooter", "name": "e6c8f711095b391b12f5f16e30b5ef86", "rental_uris": {"android": "https://dc.lft.to/lastmile_qr_scan", "ios": "https://dc.lft.to/lastmile_qr_scan"}, "is_disabled": 0, "fusion_lat": 0.0, "lat": 38.90571116666667, "is_reserved": 0}, {"lon": -77.00068366666666, "fusion_lon": 0.0, "bike_id": "32f9bd1a05018b16a88ecf9479a760b8", "type": "electric_scooter", "name": "32f9bd1a05018b16a88ecf9479a760b8", "rental_uris": {"android": "https://dc.lft.to/lastmile_qr_scan", "ios": "https://dc.lft.to/lastmile_qr_scan"}, "is_disabled": 0, "fusion_lat": 0.0, "lat": 38.876846666666665, "is_reserved": 0}, {"lon": -77.02282866666667, "fusion_lon": 0.0, "bike_id": "eb0fc5310bb5faf75a6365748c5810cb", "type": "electric_scooter", "name": "eb0fc5310bb5faf75a6365748c5810cb", "rental_uris": {"android": "https://dc.lft.to/lastmile_qr_scan", "ios": "https://dc.lft.to/lastmile_qr_scan"}, "is_disabled": 0, "fusion_lat": 0.0, "lat": 38.927404333333335, "is_reserved": 0}, {"lon": -77.03383633333333, "fusion_lon": 0.0, "bike_id": "048428199ed4c1033217dd64a6d47957", "type": "electric_scooter", "name": "048428199ed4c1033217dd64a6d47957", "rental_uris": {"android": "https://dc.lft.to/lastmile_qr_scan", "ios": "https://dc.lft.to/lastmile_qr_scan"}, "is_disabled": 0, "fusion_lat": 0.0, "lat": 38.921552166666665, "is_reserved": 0}, {"lon": -76.956657, "fusion_lon": 0.0, "bike_id": "96301a6a9e043a3d26547f76a7252ddb", "type": "electric_bike", "name": "96301a6a9e043a3d26547f76a7252ddb", "rental_uris": {"android": "https://dc.lft.to/lastmile_qr_scan", "ios": "https://dc.lft.to/lastmile_qr_scan"}, "is_disabled": 0, "fusion_lat": 0.0, "lat": 38.884703, "is_reserved": 0}, {"lon": -77.0300705, "fusion_lon": 0.0, "bike_id": "10b654d58ab4a559628f94c21f2a2db7", "type": "electric_scooter", "name": "10b654d58ab4a559628f94c21f2a2db7", "rental_uris": {"android": "https://dc.lft.to/lastmile_qr_scan", "ios": "https://dc.lft.to/lastmile_qr_scan"}, "is_disabled": 0, "fusion_lat": 0.0, "lat": 38.8970805, "is_reserved": 0}, {"lon": -77.03470783333333, "fusion_lon": 0.0, "bike_id": "1d0a206c73b9b87a53316acb2c00dee1", "type": "electric_scooter", "name": "1d0a206c73b9b87a53316acb2c00dee1", "rental_uris": {"android": "https://dc.lft.to/lastmile_qr_scan", "ios": "https://dc.lft.to/lastmile_qr_scan"}, "is_disabled": 0, "fusion_lat": 0.0, "lat": 38.908416833333334, "is_reserved": 0}, {"lon": -77.04339666666667, "fusion_lon": 0.0, "bike_id": "61cd843e153981f4f470734985aedba7", "type": "electric_scooter", "name": "61cd843e153981f4f470734985aedba7", "rental_uris": {"android": "https://dc.lft.to/lastmile_qr_scan", "ios": "https://dc.lft.to/lastmile_qr_scan"}, "is_disabled": 0, "fusion_lat": 0.0, "lat": 38.90505983333333, "is_reserved": 0}, {"lon": -77.022928, "fusion_lon": 0.0, "bike_id": "af2dfad94796d706af6ad6e28d09f9a3", "type": "electric_scooter", "name": "af2dfad94796d706af6ad6e28d09f9a3", "rental_uris": {"android": "https://dc.lft.to/lastmile_qr_scan", "ios": "https://dc.lft.to/lastmile_qr_scan"}, "is_disabled": 0, "fusion_lat": 0.0, "lat": 38.918438, "is_reserved": 0}, {"lon": -77.038333, "fusion_lon": 0.0, "bike_id": "fcbb97e55726bf67b920e943137c5721", "type": "electric_scooter", "name": "fcbb97e55726bf67b920e943137c5721", "rental_uris": {"android": "https://dc.lft.to/lastmile_qr_scan", "ios": "https://dc.lft.to/lastmile_qr_scan"}, "is_disabled": 0, "fusion_lat": 0.0, "lat": 38.911069499999996, "is_reserved": 0}, {"lon": -77.043213, "fusion_lon": 0.0, "bike_id": "34557134b80dccebd5072701a23e6199", "type": "electric_bike", "name": "34557134b80dccebd5072701a23e6199", "rental_uris": {"android": "https://dc.lft.to/lastmile_qr_scan", "ios": "https://dc.lft.to/lastmile_qr_scan"}, "is_disabled": 0, "fusion_lat": 0.0, "lat": 39.0343155, "is_reserved": 0}, {"lon": -77.0296335, "fusion_lon": 0.0, "bike_id": "92100b498f4a3f152584e341b888ed79", "type": "electric_scooter", "name": "92100b498f4a3f152584e341b888ed79", "rental_uris": {"android": "https://dc.lft.to/lastmile_qr_scan", "ios": "https://dc.lft.to/lastmile_qr_scan"}, "is_disabled": 0, "fusion_lat": 0.0, "lat": 38.922648333333335, "is_reserved": 0}, {"lon": -77.02181233333333, "fusion_lon": 0.0, "bike_id": "36361f038f428af4d5dd6265470f459d", "type": "electric_scooter", "name": "36361f038f428af4d5dd6265470f459d", "rental_uris": {"android": "https://dc.lft.to/lastmile_qr_scan", "ios": "https://dc.lft.to/lastmile_qr_scan"}, "is_disabled": 0, "fusion_lat": 0.0, "lat": 38.90980966666667, "is_reserved": 0}, {"lon": -77.04267266666666, "fusion_lon": 0.0, "bike_id": "d8de45027377ddc2ea2c08d1a6e164dd", "type": "electric_scooter", "name": "d8de45027377ddc2ea2c08d1a6e164dd", "rental_uris": {"android": "https://dc.lft.to/lastmile_qr_scan", "ios": "https://dc.lft.to/lastmile_qr_scan"}, "is_disabled": 0, "fusion_lat": 0.0, "lat": 38.90571166666667, "is_reserved": 0}, {"lon": -77.03450483333333, "fusion_lon": 0.0, "bike_id": "334299821d0966d74ad126220d8c70b5", "type": "electric_scooter", "name": "334299821d0966d74ad126220d8c70b5", "rental_uris": {"android": "https://dc.lft.to/lastmile_qr_scan", "ios": "https://dc.lft.to/lastmile_qr_scan"}, "is_disabled": 0, "fusion_lat": 0.0, "lat": 38.9174035, "is_reserved": 0}, {"lon": -77.06355833333333, "fusion_lon": 0.0, "bike_id": "4d56ab8a85a4e7daea0d5e144fc943b2", "type": "electric_scooter", "name": "4d56ab8a85a4e7daea0d5e144fc943b2", "rental_uris": {"android": "https://dc.lft.to/lastmile_qr_scan", "ios": "https://dc.lft.to/lastmile_qr_scan"}, "is_disabled": 0, "fusion_lat": 0.0, "lat": 38.944368, "is_reserved": 0}, {"lon": -76.974187, "fusion_lon": 0.0, "bike_id": "6d77d200f96f86fbdc3cfdbb641c699d", "type": "electric_bike", "name": "6d77d200f96f86fbdc3cfdbb641c699d", "rental_uris": {"android": "https://dc.lft.to/lastmile_qr_scan", "ios": "https://dc.lft.to/lastmile_qr_scan"}, "is_disabled": 0, "fusion_lat": 0.0, "lat": 38.932355666666666, "is_reserved": 0}, {"lon": -77.025874, "fusion_lon": 0.0, "bike_id": "34ec5216e679d3a9118e3524ad00c33e", "type": "electric_scooter", "name": "34ec5216e679d3a9118e3524ad00c33e", "rental_uris": {"android": "https://dc.lft.to/lastmile_qr_scan", "ios": "https://dc.lft.to/lastmile_qr_scan"}, "is_disabled": 0, "fusion_lat": 0.0, "lat": 38.91411466666667, "is_reserved": 0}, {"lon": -77.03279083333334, "fusion_lon": 0.0, "bike_id": "f340899fb1209ae4fb6e26d372d1f554", "type": "electric_scooter", "name": "f340899fb1209ae4fb6e26d372d1f554", "rental_uris": {"android": "https://dc.lft.to/lastmile_qr_scan", "ios": "https://dc.lft.to/lastmile_qr_scan"}, "is_disabled": 0, "fusion_lat": 0.0, "lat": 38.90144333333333, "is_reserved": 0}, {"lon": -77.023018, "fusion_lon": 0.0, "bike_id": "05ed86697cfe1b3147dbf295bb321d8e", "type": "electric_scooter", "name": "05ed86697cfe1b3147dbf295bb321d8e", "rental_uris": {"android": "https://dc.lft.to/lastmile_qr_scan", "ios": "https://dc.lft.to/lastmile_qr_scan"}, "is_disabled": 0, "fusion_lat": 0.0, "lat": 38.90894466666666, "is_reserved": 0}, {"lon": -76.90735833333333, "fusion_lon": 0.0, "bike_id": "b25eeed483ffa066421f1213af00fc1f", "type": "electric_bike", "name": "b25eeed483ffa066421f1213af00fc1f", "rental_uris": {"android": "https://dc.lft.to/lastmile_qr_scan", "ios": "https://dc.lft.to/lastmile_qr_scan"}, "is_disabled": 0, "fusion_lat": 0.0, "lat": 38.89612316666667, "is_reserved": 0}, {"lon": -77.0197005, "fusion_lon": 0.0, "bike_id": "59e36998d57a3ca707695dc22953f33a", "type": "electric_scooter", "name": "59e36998d57a3ca707695dc22953f33a", "rental_uris": {"android": "https://dc.lft.to/lastmile_qr_scan", "ios": "https://dc.lft.to/lastmile_qr_scan"}, "is_disabled": 0, "fusion_lat": 0.0, "lat": 38.935739166666664, "is_reserved": 0}, {"lon": -77.229743, "fusion_lon": 0.0, "bike_id": "25fcd63040c4ca9ba88f53977a2420af", "type": "electric_bike", "name": "25fcd63040c4ca9ba88f53977a2420af", "rental_uris": {"android": "https://dc.lft.to/lastmile_qr_scan", "ios": "https://dc.lft.to/lastmile_qr_scan"}, "is_disabled": 0, "fusion_lat": 0.0, "lat": 38.872006, "is_reserved": 0}, {"lon": -77.03175366666666, "fusion_lon": 0.0, "bike_id": "b70497524caa3878402cff9b1a8afed1", "type": "electric_scooter", "name": "b70497524caa3878402cff9b1a8afed1", "rental_uris": {"android": "https://dc.lft.to/lastmile_qr_scan", "ios": "https://dc.lft.to/lastmile_qr_scan"}, "is_disabled": 0, "fusion_lat": 0.0, "lat": 38.915574666666664, "is_reserved": 0}, {"lon": -77.041437, "fusion_lon": 0.0, "bike_id": "0bcfe0cd464f55752603f243dbe86bf8", "type": "electric_scooter", "name": "0bcfe0cd464f55752603f243dbe86bf8", "rental_uris": {"android": "https://dc.lft.to/lastmile_qr_scan", "ios": "https://dc.lft.to/lastmile_qr_scan"}, "is_disabled": 0, "fusion_lat": 0.0, "lat": 38.9137875, "is_reserved": 0}, {"lon": -77.02466083333333, "fusion_lon": 0.0, "bike_id": "67fbc0634d67472dc8301629e69e9863", "type": "electric_scooter", "name": "67fbc0634d67472dc8301629e69e9863", "rental_uris": {"android": "https://dc.lft.to/lastmile_qr_scan", "ios": "https://dc.lft.to/lastmile_qr_scan"}, "is_disabled": 0, "fusion_lat": 0.0, "lat": 38.938485666666665, "is_reserved": 0}, {"lon": -77.05263833333333, "fusion_lon": 0.0, "bike_id": "db9092455ace61aaced30ef17b04e73b", "type": "electric_scooter", "name": "db9092455ace61aaced30ef17b04e73b", "rental_uris": {"android": "https://dc.lft.to/lastmile_qr_scan", "ios": "https://dc.lft.to/lastmile_qr_scan"}, "is_disabled": 0, "fusion_lat": 0.0, "lat": 38.92784566666667, "is_reserved": 0}, {"lon": -77.034405, "fusion_lon": 0.0, "bike_id": "e602b4dee9c045d7373ad663e7c4c609", "type": "electric_scooter", "name": "e602b4dee9c045d7373ad663e7c4c609", "rental_uris": {"android": "https://dc.lft.to/lastmile_qr_scan", "ios": "https://dc.lft.to/lastmile_qr_scan"}, "is_disabled": 0, "fusion_lat": 0.0, "lat": 38.90320966666667, "is_reserved": 0}, {"lon": -77.00305766666666, "fusion_lon": 0.0, "bike_id": "c743df4bf120f52ded463c3ce6a9b3d0", "type": "electric_bike", "name": "c743df4bf120f52ded463c3ce6a9b3d0", "rental_uris": {"android": "https://dc.lft.to/lastmile_qr_scan", "ios": "https://dc.lft.to/lastmile_qr_scan"}, "is_disabled": 0, "fusion_lat": 0.0, "lat": 38.833657, "is_reserved": 0}, {"lon": -77.18745233333334, "fusion_lon": 0.0, "bike_id": "bbfa495e15d2614e59f8bd82ad9f40c7", "type": "electric_bike", "name": "bbfa495e15d2614e59f8bd82ad9f40c7", "rental_uris": {"android": "https://dc.lft.to/lastmile_qr_scan", "ios": "https://dc.lft.to/lastmile_qr_scan"}, "is_disabled": 0, "fusion_lat": 0.0, "lat": 38.89353216666667, "is_reserved": 0}, {"lon": -77.05163733333333, "fusion_lon": 0.0, "bike_id": "3484ea0a99b8a049f5342d2264606027", "type": "electric_scooter", "name": "3484ea0a99b8a049f5342d2264606027", "rental_uris": {"android": "https://dc.lft.to/lastmile_qr_scan", "ios": "https://dc.lft.to/lastmile_qr_scan"}, "is_disabled": 0, "fusion_lat": 0.0, "lat": 38.90110983333334, "is_reserved": 0}, {"lon": -77.03962266666667, "fusion_lon": 0.0, "bike_id": "7f66d2b6bedb907f102c488201f1242a", "type": "electric_scooter", "name": "7f66d2b6bedb907f102c488201f1242a", "rental_uris": {"android": "https://dc.lft.to/lastmile_qr_scan", "ios": "https://dc.lft.to/lastmile_qr_scan"}, "is_disabled": 0, "fusion_lat": 0.0, "lat": 38.89625, "is_reserved": 0}, {"lon": -77.03626966666667, "fusion_lon": 0.0, "bike_id": "89302a5821ea4035b356e69f84acf949", "type": "electric_scooter", "name": "89302a5821ea4035b356e69f84acf949", "rental_uris": {"android": "https://dc.lft.to/lastmile_qr_scan", "ios": "https://dc.lft.to/lastmile_qr_scan"}, "is_disabled": 0, "fusion_lat": 0.0, "lat": 38.91730533333333, "is_reserved": 0}, {"lon": -77.02369066666667, "fusion_lon": 0.0, "bike_id": "b7af1ec4ae5511b4c4a3ac252242e9b5", "type": "electric_scooter", "name": "b7af1ec4ae5511b4c4a3ac252242e9b5", "rental_uris": {"android": "https://dc.lft.to/lastmile_qr_scan", "ios": "https://dc.lft.to/lastmile_qr_scan"}, "is_disabled": 0, "fusion_lat": 0.0, "lat": 38.925028, "is_reserved": 0}, {"lon": -76.99812533333333, "fusion_lon": 0.0, "bike_id": "44856c1ca51d16e8e341747240b5be99", "type": "electric_scooter", "name": "44856c1ca51d16e8e341747240b5be99", "rental_uris": {"android": "https://dc.lft.to/lastmile_qr_scan", "ios": "https://dc.lft.to/lastmile_qr_scan"}, "is_disabled": 0, "fusion_lat": 0.0, "lat": 38.899966666666664, "is_reserved": 0}, {"lon": -77.00298433333333, "fusion_lon": 0.0, "bike_id": "14267c1b3b3b582d4421a55b44e4a00e", "type": "electric_scooter", "name": "14267c1b3b3b582d4421a55b44e4a00e", "rental_uris": {"android": "https://dc.lft.to/lastmile_qr_scan", "ios": "https://dc.lft.to/lastmile_qr_scan"}, "is_disabled": 0, "fusion_lat": 0.0, "lat": 38.89492283333333, "is_reserved": 0}, {"lon": -77.0272685, "fusion_lon": 0.0, "bike_id": "08075c2be08c27bd29bdb04325df7f55", "type": "electric_scooter", "name": "08075c2be08c27bd29bdb04325df7f55", "rental_uris": {"android": "https://dc.lft.to/lastmile_qr_scan", "ios": "https://dc.lft.to/lastmile_qr_scan"}, "is_disabled": 0, "fusion_lat": 0.0, "lat": 38.924698166666666, "is_reserved": 0}, {"lon": -77.03226233333334, "fusion_lon": 0.0, "bike_id": "5ffde3e6a63e07c6ba2f273b3e880cd9", "type": "electric_scooter", "name": "5ffde3e6a63e07c6ba2f273b3e880cd9", "rental_uris": {"android": "https://dc.lft.to/lastmile_qr_scan", "ios": "https://dc.lft.to/lastmile_qr_scan"}, "is_disabled": 0, "fusion_lat": 0.0, "lat": 38.925935, "is_reserved": 0}, {"lon": -77.0121055, "fusion_lon": 0.0, "bike_id": "da3e8a9bb3dbf8023b98399955800561", "type": "electric_scooter", "name": "da3e8a9bb3dbf8023b98399955800561", "rental_uris": {"android": "https://dc.lft.to/lastmile_qr_scan", "ios": "https://dc.lft.to/lastmile_qr_scan"}, "is_disabled": 0, "fusion_lat": 0.0, "lat": 38.89977183333333, "is_reserved": 0}, {"lon": -77.00328316666666, "fusion_lon": 0.0, "bike_id": "5d40e4517d9d4b5f7c4ecabf046663dc", "type": "electric_scooter", "name": "5d40e4517d9d4b5f7c4ecabf046663dc", "rental_uris": {"android": "https://dc.lft.to/lastmile_qr_scan", "ios": "https://dc.lft.to/lastmile_qr_scan"}, "is_disabled": 0, "fusion_lat": 0.0, "lat": 38.87727866666667, "is_reserved": 0}, {"lon": -77.02393016666667, "fusion_lon": 0.0, "bike_id": "7a1b9a24d40117c1bbd38eb5ee0c4d42", "type": "electric_scooter", "name": "7a1b9a24d40117c1bbd38eb5ee0c4d42", "rental_uris": {"android": "https://dc.lft.to/lastmile_qr_scan", "ios": "https://dc.lft.to/lastmile_qr_scan"}, "is_disabled": 0, "fusion_lat": 0.0, "lat": 38.896898, "is_reserved": 0}, {"lon": -77.0352095, "fusion_lon": 0.0, "bike_id": "07012949ef1bedbb1521e5b34b1cb8c0", "type": "electric_scooter", "name": "07012949ef1bedbb1521e5b34b1cb8c0", "rental_uris": {"android": "https://dc.lft.to/lastmile_qr_scan", "ios": "https://dc.lft.to/lastmile_qr_scan"}, "is_disabled": 0, "fusion_lat": 0.0, "lat": 38.93598216666667, "is_reserved": 0}, {"lon": -76.990023, "fusion_lon": 0.0, "bike_id": "a3f9be3dffc764619bcc5505df2b4de1", "type": "electric_scooter", "name": "a3f9be3dffc764619bcc5505df2b4de1", "rental_uris": {"android": "https://dc.lft.to/lastmile_qr_scan", "ios": "https://dc.lft.to/lastmile_qr_scan"}, "is_disabled": 0, "fusion_lat": 0.0, "lat": 38.865046166666666, "is_reserved": 0}, {"lon": -77.00202783333333, "fusion_lon": 0.0, "bike_id": "197a55f61e09a5887fdf61a70633dfad", "type": "electric_scooter", "name": "197a55f61e09a5887fdf61a70633dfad", "rental_uris": {"android": "https://dc.lft.to/lastmile_qr_scan", "ios": "https://dc.lft.to/lastmile_qr_scan"}, "is_disabled": 0, "fusion_lat": 0.0, "lat": 38.902463166666664, "is_reserved": 0}, {"lon": -76.98379316666667, "fusion_lon": 0.0, "bike_id": "cf3c9b92d1e6cddc7c65052afe1f5b98", "type": "electric_bike", "name": "cf3c9b92d1e6cddc7c65052afe1f5b98", "rental_uris": {"android": "https://dc.lft.to/lastmile_qr_scan", "ios": "https://dc.lft.to/lastmile_qr_scan"}, "is_disabled": 0, "fusion_lat": 0.0, "lat": 38.914767, "is_reserved": 0}, {"lon": -77.06047233333334, "fusion_lon": 0.0, "bike_id": "933ccc847e1ba04d9e4d828e4530360a", "type": "electric_scooter", "name": "933ccc847e1ba04d9e4d828e4530360a", "rental_uris": {"android": "https://dc.lft.to/lastmile_qr_scan", "ios": "https://dc.lft.to/lastmile_qr_scan"}, "is_disabled": 0, "fusion_lat": 0.0, "lat": 38.93912316666667, "is_reserved": 0}, {"lon": -77.045294, "fusion_lon": 0.0, "bike_id": "85f973434738cbc73ee1e835fd5f2118", "type": "electric_scooter", "name": "85f973434738cbc73ee1e835fd5f2118", "rental_uris": {"android": "https://dc.lft.to/lastmile_qr_scan", "ios": "https://dc.lft.to/lastmile_qr_scan"}, "is_disabled": 0, "fusion_lat": 0.0, "lat": 38.9038245, "is_reserved": 0}, {"lon": -76.95286583333333, "fusion_lon": 0.0, "bike_id": "0eb8f336d72da3a39f99dc42eab408bd", "type": "electric_bike", "name": "0eb8f336d72da3a39f99dc42eab408bd", "rental_uris": {"android": "https://dc.lft.to/lastmile_qr_scan", "ios": "https://dc.lft.to/lastmile_qr_scan"}, "is_disabled": 0, "fusion_lat": 0.0, "lat": 38.862405333333335, "is_reserved": 0}, {"lon": -77.003477, "fusion_lon": 0.0, "bike_id": "6cc461da34e8b12265398419ff168fc4", "type": "electric_scooter", "name": "6cc461da34e8b12265398419ff168fc4", "rental_uris": {"android": "https://dc.lft.to/lastmile_qr_scan", "ios": "https://dc.lft.to/lastmile_qr_scan"}, "is_disabled": 0, "fusion_lat": 0.0, "lat": 38.884398833333336, "is_reserved": 0}, {"lon": -77.03322816666666, "fusion_lon": 0.0, "bike_id": "8dffeb29b9788f48bb9ee6b02901ad6c", "type": "electric_scooter", "name": "8dffeb29b9788f48bb9ee6b02901ad6c", "rental_uris": {"android": "https://dc.lft.to/lastmile_qr_scan", "ios": "https://dc.lft.to/lastmile_qr_scan"}, "is_disabled": 0, "fusion_lat": 0.0, "lat": 38.91318483333333, "is_reserved": 0}, {"lon": -77.02704733333333, "fusion_lon": 0.0, "bike_id": "0b1f86650f53d92a983d570d0a3b9fb1", "type": "electric_scooter", "name": "0b1f86650f53d92a983d570d0a3b9fb1", "rental_uris": {"android": "https://dc.lft.to/lastmile_qr_scan", "ios": "https://dc.lft.to/lastmile_qr_scan"}, "is_disabled": 0, "fusion_lat": 0.0, "lat": 38.906694, "is_reserved": 0}, {"lon": -77.04161883333333, "fusion_lon": 0.0, "bike_id": "518f309bb25d5ca7408cf372dd052fea", "type": "electric_scooter", "name": "518f309bb25d5ca7408cf372dd052fea", "rental_uris": {"android": "https://dc.lft.to/lastmile_qr_scan", "ios": "https://dc.lft.to/lastmile_qr_scan"}, "is_disabled": 0, "fusion_lat": 0.0, "lat": 38.91865933333333, "is_reserved": 0}, {"lon": -76.976989, "fusion_lon": 0.0, "bike_id": "573caa9d649f5272abd22d39f4f11c04", "type": "electric_bike", "name": "573caa9d649f5272abd22d39f4f11c04", "rental_uris": {"android": "https://dc.lft.to/lastmile_qr_scan", "ios": "https://dc.lft.to/lastmile_qr_scan"}, "is_disabled": 0, "fusion_lat": 0.0, "lat": 38.901581666666665, "is_reserved": 0}, {"lon": -77.00905633333333, "fusion_lon": 0.0, "bike_id": "cb9a2ecb9d43674a29ce6c882979cde5", "type": "electric_scooter", "name": "cb9a2ecb9d43674a29ce6c882979cde5", "rental_uris": {"android": "https://dc.lft.to/lastmile_qr_scan", "ios": "https://dc.lft.to/lastmile_qr_scan"}, "is_disabled": 0, "fusion_lat": 0.0, "lat": 38.968311166666666, "is_reserved": 0}, {"lon": -77.027963, "fusion_lon": 0.0, "bike_id": "b34ac7d851b89374123426e4cb4d3eae", "type": "electric_scooter", "name": "b34ac7d851b89374123426e4cb4d3eae", "rental_uris": {"android": "https://dc.lft.to/lastmile_qr_scan", "ios": "https://dc.lft.to/lastmile_qr_scan"}, "is_disabled": 0, "fusion_lat": 0.0, "lat": 38.960501666666666, "is_reserved": 0}, {"lon": -77.03599266666667, "fusion_lon": 0.0, "bike_id": "94641f9632c0b4ba7b316c2b92e7f607", "type": "electric_scooter", "name": "94641f9632c0b4ba7b316c2b92e7f607", "rental_uris": {"android": "https://dc.lft.to/lastmile_qr_scan", "ios": "https://dc.lft.to/lastmile_qr_scan"}, "is_disabled": 0, "fusion_lat": 0.0, "lat": 38.90372033333333, "is_reserved": 0}, {"lon": -77.03407733333333, "fusion_lon": 0.0, "bike_id": "57cde9328f773e5cce372e3a335eadce", "type": "electric_scooter", "name": "57cde9328f773e5cce372e3a335eadce", "rental_uris": {"android": "https://dc.lft.to/lastmile_qr_scan", "ios": "https://dc.lft.to/lastmile_qr_scan"}, "is_disabled": 0, "fusion_lat": 0.0, "lat": 38.924401333333336, "is_reserved": 0}, {"lon": -77.03139883333333, "fusion_lon": 0.0, "bike_id": "b9d1ad2f2d3f30472063a2e35f885357", "type": "electric_scooter", "name": "b9d1ad2f2d3f30472063a2e35f885357", "rental_uris": {"android": "https://dc.lft.to/lastmile_qr_scan", "ios": "https://dc.lft.to/lastmile_qr_scan"}, "is_disabled": 0, "fusion_lat": 0.0, "lat": 38.8971255, "is_reserved": 0},