{"data": {"bikes": [{"rental_uris": {"ios": "https://dc.lft.to/lastmile_qr_scan", "android": "https://dc.lft.to/lastmile_qr_scan"}, "lat": 38.915776666666666, "lon": -77.01958833333333, "fusion_lat": 0.0, "name": "f4955459e1993fe3f5c4b7e28f0384ca", "is_disabled": 0, "is_reserved": 0, "bike_id": "f4955459e1993fe3f5c4b7e28f0384ca", "fusion_lon": 0.0, "type": "electric_scooter"}, {"rental_uris": {"ios": "https://dc.lft.to/lastmile_qr_scan", "android": "https://dc.lft.to/lastmile_qr_scan"}, "lat": 38.91981766666667, "lon": -77.0248825, "fusion_lat": 0.0, "name": "0f8d718399aaec61264aecd1b25228d0", "is_disabled": 0, "is_reserved": 0, "bike_id": "0f8d718399aaec61264aecd1b25228d0", "fusion_lon": 0.0, "type": "electric_scooter"}, {"rental_uris": {"ios": "https://dc.lft.to/lastmile_qr_scan", "android": "https://dc.lft.to/lastmile_qr_scan"}, "lat": 38.91945783333333, "lon": -77.01383666666666, "fusion_lat": 0.0, "name": "9e8b668a4b754bc521796b19b8faab39", "is_disabled": 0, "is_reserved": 0, "bike_id": "9e8b668a4b754bc521796b19b8faab39", "fusion_lon": 0.0, "type": "electric_scooter"}, {"rental_uris": {"ios": "https://dc.lft.to/lastmile_qr_scan", "android": "https://dc.lft.to/lastmile_qr_scan"}, "lat": 38.9391925, "lon": -77.06050283333333, "fusion_lat": 0.0, "name": "6bac2f2391e581c251bda447fbf3baa7", "is_disabled": 0, "is_reserved": 0, "bike_id": "6bac2f2391e581c251bda447fbf3baa7", "fusion_lon": 0.0, "type": "electric_scooter"}, {"rental_uris": {"ios": "https://dc.lft.to/lastmile_qr_scan", "android": "https://dc.lft.to/lastmile_qr_scan"}, "lat": 38.9159295, "lon": -77.02303816666667, "fusion_lat": 0.0, "name": "2b5cd54f0a0a12208116783edfcd83d4", "is_disabled": 0, "is_reserved": 0, "bike_id": "2b5cd54f0a0a12208116783edfcd83d4", "fusion_lon": 0.0, "type": "electric_scooter"}, {"rental_uris": {"ios": "https://dc.lft.to/lastmile_qr_scan", "android": "https://dc.lft.to/lastmile_qr_scan"}, "lat": 38.914166, "lon": -77.02612416666666, "fusion_lat": 0.0, "name": "acbdebb96b4c38a4822e23ae3275a0b3", "is_disabled": 0, "is_reserved": 0, "bike_id": "acbdebb96b4c38a4822e23ae3275a0b3", "fusion_lon": 0.0, "type": "electric_scooter"}, {"rental_uris": {"ios": "https://dc.lft.to/lastmile_qr_scan", "android": "https://dc.lft.to/lastmile_qr_scan"}, "lat": 38.914477166666664, "lon": -77.04152433333333, "fusion_lat": 0.0, "name": "b47fe01662af943e9e1457decee0ec8e", "is_disabled": 0, "is_reserved": 0, "bike_id": "b47fe01662af943e9e1457decee0ec8e", "fusion_lon": 0.0, "type": "electric_scooter"}, {"rental_uris": {"ios": "https://dc.lft.to/lastmile_qr_scan", "android": "https://dc.lft.to/lastmile_qr_scan"}, "lat": 38.875621833333334, "lon": -76.95867066666666, "fusion_lat": 0.0, "name": "c11dfcaf208aebcb343489b94535cfc6", "is_disabled": 0, "is_reserved": 0, "bike_id": "c11dfcaf208aebcb343489b94535cfc6", "fusion_lon": 0.0, "type": "electric_scooter"}, {"rental_uris": {"ios": "https://dc.lft.to/lastmile_qr_scan", "android": "https://dc.lft.to/lastmile_qr_scan"}, "lat": 38.89849133333333, "lon": -77.0175465, "fusion_lat": 0.0, "name": "62f9289bc822d5f6c77cdcae560350af", "is_disabled": 0, "is_reserved": 0, "bike_id": "62f9289bc822d5f6c77cdcae560350af", "fusion_lon": 0.0, "type": "electric_scooter"}, {"rental_uris": {"ios": "https://dc.lft.to/lastmile_qr_scan", "android": "https://dc.lft.to/lastmile_qr_scan"}, "lat": 38.897210666666666, "lon": -76.98357033333333, "fusion_lat": 0.0, "name": "f180b4922743345160f1843154319794", "is_disabled": 0, "is_reserved": 0, "bike_id": "f180b4922743345160f1843154319794", "fusion_lon": 0.0, "type": "electric_scooter"}, {"rental_uris": {"ios": "https://dc.lft.to/lastmile_qr_scan", "android": "https://dc.lft.to/lastmile_qr_scan"}, "lat": 38.950961166666666, "lon": -77.0809005, "fusion_lat": 0.0, "name": "0d9ef235c0e7d49c274332bb8b933c2a", "is_disabled": 0, "is_reserved": 0, "bike_id": "0d9ef235c0e7d49c274332bb8b933c2a", "fusion_lon": 0.0, "type": "electric_bike"}, {"rental_uris": {"ios": "https://dc.lft.to/lastmile_qr_scan", "android": "https://dc.lft.to/lastmile_qr_scan"}, "lat": 38.898393666666664, "lon": -77.048322, "fusion_lat": 0.0, "name": "36868e599615dfd914dd30088433930b", "is_disabled": 0, "is_reserved": 0, "bike_id": "36868e599615dfd914dd30088433930b", "fusion_lon": 0.0, "type": "electric_scooter"}, {"rental_uris": {"ios": "https://dc.lft.to/lastmile_qr_scan", "android": "https://dc.lft.to/lastmile_qr_scan"}, "lat": 38.91492816666667, "lon": -77.02577416666666, "fusion_lat": 0.0, "name": "f8c168c0f4317854fc0377472bf08537", "is_disabled": 0, "is_reserved": 0, "bike_id": "f8c168c0f4317854fc0377472bf08537", "fusion_lon": 0.0, "type": "electric_scooter"}, {"rental_uris": {"ios": "https://dc.lft.to/lastmile_qr_scan", "android": "https://dc.lft.to/lastmile_qr_scan"}, "lat": 39.037037166666664, "lon": -77.02857783333333, "fusion_lat": 0.0, "name": "e54515e3849dac4b0dafdf48d9bf50f4", "is_disabled": 0, "is_reserved": 0, "bike_id": "e54515e3849dac4b0dafdf48d9bf50f4", "fusion_lon": 0.0, "type": "electric_bike"}, {"rental_uris": {"ios": "https://dc.lft.to/lastmile_qr_scan", "android": "https://dc.lft.to/lastmile_qr_scan"}, "lat": 38.9377425, "lon": -77.0191235, "fusion_lat": 0.0, "name": "894e623ea93b0d988da2342efbc640b9", "is_disabled": 0, "is_reserved": 0, "bike_id": "894e623ea93b0d988da2342efbc640b9", "fusion_lon": 0.0, "type": "electric_bike"}, {"rental_uris": {"ios": "https://dc.lft.to/lastmile_qr_scan", "android": "https://dc.lft.to/lastmile_qr_scan"}, "lat": 38.915339, "lon": -77.01839916666667, "fusion_lat": 0.0, "name": "63bcc593dc7571739c77f75f69360d5c", "is_disabled": 0, "is_reserved": 0, "bike_id": "63bcc593dc7571739c77f75f69360d5c", "fusion_lon": 0.0, "type": "electric_scooter"}, {"rental_uris": {"ios": "https://dc.lft.to/lastmile_qr_scan", "android": "https://dc.lft.to/lastmile_qr_scan"}, "lat": 38.8717615, "lon": -77.00625783333334, "fusion_lat": 0.0, "name": "4762a53c90cce018d956510e27853078", "is_disabled": 0, "is_reserved": 0, "bike_id": "4762a53c90cce018d956510e27853078", "fusion_lon": 0.0, "type": "electric_scooter"}, {"rental_uris": {"ios": "https://dc.lft.to/lastmile_qr_scan", "android": "https://dc.lft.to/lastmile_qr_scan"}, "lat": 38.88261683333333, "lon": -77.1016425, "fusion_lat": 0.0, "name": "a50e35c3ac1ac7cd2c8846d087fac8b3", "is_disabled": 0, "is_reserved": 0, "bike_id": "a50e35c3ac1ac7cd2c8846d087fac8b3", "fusion_lon": 0.0, "type": "electric_bike"}, {"rental_uris": {"ios": "https://dc.lft.to/lastmile_qr_scan", "android": "https://dc.lft.to/lastmile_qr_scan"}, "lat": 38.90264533333333, "lon": -77.03831416666667, "fusion_lat": 0.0, "name": "2506df379296b84db6575a6af2ab22ee", "is_disabled": 0, "is_reserved": 0, "bike_id": "2506df379296b84db6575a6af2ab22ee", "fusion_lon": 0.0, "type": "electric_scooter"}, {"rental_uris": {"ios": "https://dc.lft.to/lastmile_qr_scan", "android": "https://dc.lft.to/lastmile_qr_scan"}, "lat": 38.928861833333336, "lon": -77.033079, "fusion_lat": 0.0, "name": "fbf71d048dae584c3678b0683442cef3", "is_disabled": 0, "is_reserved": 0, "bike_id": "fbf71d048dae584c3678b0683442cef3", "fusion_lon": 0.0, "type": "electric_scooter"}, {"rental_uris": {"ios": "https://dc.lft.to/lastmile_qr_scan", "android": "https://dc.lft.to/lastmile_qr_scan"}, "lat": 38.91762883333333, "lon": -77.0149785, "fusion_lat": 0.0, "name": "2aa72c0e81308c43cd2f0c8bb0b598d6", "is_disabled": 0, "is_reserved": 0, "bike_id": "2aa72c0e81308c43cd2f0c8bb0b598d6", "fusion_lon": 0.0, "type": "electric_scooter"}, {"rental_uris": {"ios": "https://dc.lft.to/lastmile_qr_scan", "android": "https://dc.lft.to/lastmile_qr_scan"}, "lat": 38.899216833333334, "lon": -77.04493266666667, "fusion_lat": 0.0, "name": "aa84fe7a8ffd58b130cfbaf67bb7eea3", "is_disabled": 0, "is_reserved": 0, "bike_id": "aa84fe7a8ffd58b130cfbaf67bb7eea3", "fusion_lon": 0.0, "type": "electric_scooter"}, {"rental_uris": {"ios": "https://dc.lft.to/lastmile_qr_scan", "android": "https://dc.lft.to/lastmile_qr_scan"}, "lat": 38.8802395, "lon": -77.00547933333333, "fusion_lat": 0.0, "name": "8c14ea7c24e3de9abf1b2c73c0f3f3f5", "is_disabled": 0, "is_reserved": 0, "bike_id": "8c14ea7c24e3de9abf1b2c73c0f3f3f5", "fusion_lon": 0.0, "type": "electric_scooter"}, {"rental_uris": {"ios": "https://dc.lft.to/lastmile_qr_scan", "android": "https://dc.lft.to/lastmile_qr_scan"}, "lat": 38.91703316666667, "lon": -77.0321125, "fusion_lat": 0.0, "name": "24c489f31dc1e1746dc51659a3743eb4", "is_disabled": 0, "is_reserved": 0, "bike_id": "24c489f31dc1e1746dc51659a3743eb4", "fusion_lon": 0.0, "type": "electric_scooter"}, {"rental_uris": {"ios": "https://dc.lft.to/lastmile_qr_scan", "android": "https://dc.lft.to/lastmile_qr_scan"}, "lat": 38.90127416666667, "lon": -77.03001566666667, "fusion_lat": 0.0, "name": "131be0a973e99e1fb1caccd1256f9e06", "is_disabled": 0, "is_reserved": 0, "bike_id": "131be0a973e99e1fb1caccd1256f9e06", "fusion_lon": 0.0, "type": "electric_scooter"}, {"rental_uris": {"ios": "https://dc.lft.to/lastmile_qr_scan", "android": "https://dc.lft.to/lastmile_qr_scan"}, "lat": 38.892414333333335, "lon": -77.03348583333333, "fusion_lat": 0.0, "name": "94a9c4946f88ad0108db6953f89fb732", "is_disabled": 0, "is_reserved": 0, "bike_id": "94a9c4946f88ad0108db6953f89fb732", "fusion_lon": 0.0, "type": "electric_scooter"}, {"rental_uris": {"ios": "https://dc.lft.to/lastmile_qr_scan", "android": "https://dc.lft.to/lastmile_qr_scan"}, "lat": 38.90971116666667, "lon": -77.02188516666666, "fusion_lat": 0.0, "name": "a45f59d19de1ddcd3f65ba08ded3c75c", "is_disabled": 0, "is_reserved": 0, "bike_id": "a45f59d19de1ddcd3f65ba08ded3c75c", "fusion_lon": 0.0, "type": "electric_scooter"}, {"rental_uris": {"ios": "https://dc.lft.to/lastmile_qr_scan", "android": "https://dc.lft.to/lastmile_qr_scan"}, "lat": 38.88410233333333, "lon": -76.948291, "fusion_lat": 0.0, "name": "7995c9756ba6852339bd75fd054ef639", "is_disabled": 0, "is_reserved": 0, "bike_id": "7995c9756ba6852339bd75fd054ef639", "fusion_lon": 0.0, "type": "electric_scooter"}, {"rental_uris": {"ios": "https://dc.lft.to/lastmile_qr_scan", "android": "https://dc.lft.to/lastmile_qr_scan"}, "lat": 38.93398833333333, "lon": -77.057427, "fusion_lat": 0.0, "name": "07aeb89d1cb9a36794f53d7bc3619542", "is_disabled": 0, "is_reserved": 0, "bike_id": "07aeb89d1cb9a36794f53d7bc3619542", "fusion_lon": 0.0, "type": "electric_scooter"}, {"rental_uris": {"ios": "https://dc.lft.to/lastmile_qr_scan", "android": "https://dc.lft.to/lastmile_qr_scan"}, "lat": 38.90566883333334, "lon": -77.041761, "fusion_lat": 0.0, "name": "e46681079dd2965033e055309810fde4", "is_disabled": 0, "is_reserved": 0, "bike_id": "e46681079dd2965033e055309810fde4", "fusion_lon": 0.0, "type": "electric_scooter"}, {"rental_uris": {"ios": "https://dc.lft.to/lastmile_qr_scan", "android": "https://dc.lft.to/lastmile_qr_scan"}, "lat": 38.916666166666666, "lon": -77.02321216666667, "fusion_lat": 0.0, "name": "9a8b9cf663141ea234ae7c4054dc6207", "is_disabled": 0, "is_reserved": 0, "bike_id": "9a8b9cf663141ea234ae7c4054dc6207", "fusion_lon": 0.0, "type": "electric_scooter"}, {"rental_uris": {"ios": "https://dc.lft.to/lastmile_qr_scan", "android": "https://dc.lft.to/lastmile_qr_scan"}, "lat": 38.896256666666666, "lon": -77.0262295, "fusion_lat": 0.0, "name": "fe62e87a35884cddacae6030dad0dd1f", "is_disabled": 0, "is_reserved": 0, "bike_id": "fe62e87a35884cddacae6030dad0dd1f", "fusion_lon": 0.0, "type": "electric_scooter"}, {"rental_uris": {"ios": "https://dc.lft.to/lastmile_qr_scan", "android": "https://dc.lft.to/lastmile_qr_scan"}, "lat": 38.92093066666666, "lon": -77.02338833333333, "fusion_lat": 0.0, "name": "7b9f980f14d359a79775ce413bd6ea11", "is_disabled": 0, "is_reserved": 0, "bike_id": "7b9f980f14d359a79775ce413bd6ea11", "fusion_lon": 0.0, "type": "electric_scooter"}, {"rental_uris": {"ios": "https://dc.lft.to/lastmile_qr_scan", "android": "https://dc.lft.to/lastmile_qr_scan"}, "lat": 38.89753616666667, "lon": -77.029941, "fusion_lat": 0.0, "name": "3438791b268db86ea9c2f4833f42012f", "is_disabled": 0, "is_reserved": 0, "bike_id": "3438791b268db86ea9c2f4833f42012f", "fusion_lon": 0.0, "type": "electric_scooter"}, {"rental_uris": {"ios": "https://dc.lft.to/lastmile_qr_scan", "android": "https://dc.lft.to/lastmile_qr_scan"}, "lat": 38.83095016666667, "lon": -77.04292916666667, "fusion_lat": 0.0, "name": "750bc2ff76174b132d5f037b31d1c2a8", "is_disabled": 0, "is_reserved": 0, "bike_id": "750bc2ff76174b132d5f037b31d1c2a8", "fusion_lon": 0.0, "type": "electric_bike"}, {"rental_uris": {"ios": "https://dc.lft.to/lastmile_qr_scan", "android": "https://dc.lft.to/lastmile_qr_scan"}, "lat": 38.92308833333333, "lon": -77.01943183333333, "fusion_lat": 0.0, "name": "03c352cdf78153c7c683c7ba80a112b4", "is_disabled": 0, "is_reserved": 0, "bike_id": "03c352cdf78153c7c683c7ba80a112b4", "fusion_lon": 0.0, "type": "electric_scooter"}, {"rental_uris": {"ios": "https://dc.lft.to/lastmile_qr_scan", "android": "https://dc.lft.to/lastmile_qr_scan"}, "lat": 38.920544166666666, "lon": -77.02427033333333, "fusion_lat": 0.0, "name": "16d22933da92d805248d7a0411431904", "is_disabled": 0, "is_reserved": 0, "bike_id": "16d22933da92d805248d7a0411431904", "fusion_lon": 0.0, "type": "electric_scooter"}, {"rental_uris": {"ios": "https://dc.lft.to/lastmile_qr_scan", "android": "https://dc.lft.to/lastmile_qr_scan"}, "lat": 38.878641, "lon": -77.01765733333333, "fusion_lat": 0.0, "name": "c3ddd3ab6a6a80134497fbffba3f15a7", "is_disabled": 0, "is_reserved": 0, "bike_id": "c3ddd3ab6a6a80134497fbffba3f15a7", "fusion_lon": 0.0, "type": "electric_scooter"}, {"rental_uris": {"ios": "https://dc.lft.to/lastmile_qr_scan", "android": "https://dc.lft.to/lastmile_qr_scan"}, "lat": 38.892506, "lon": -77.04874316666667, "fusion_lat": 0.0, "name": "d26a0feb919de8155ab8e6dc24c6cbf1", "is_disabled": 0, "is_reserved": 0, "bike_id": "d26a0feb919de8155ab8e6dc24c6cbf1", "fusion_lon": 0.0, "type": "electric_scooter"}, {"rental_uris": {"ios": "https://dc.lft.to/lastmile_qr_scan", "android": "https://dc.lft.to/lastmile_qr_scan"}, "lat": 38.93355416666667, "lon": -77.08572733333334, "fusion_lat": 0.0, "name": "ddb09d9b5e3eccb7bdfb4adc5d8bfd54", "is_disabled": 0, "is_reserved": 0, "bike_id": "ddb09d9b5e3eccb7bdfb4adc5d8bfd54", "fusion_lon": 0.0, "type": "electric_scooter"}, {"rental_uris": {"ios": "https://dc.lft.to/lastmile_qr_scan", "android": "https://dc.lft.to/lastmile_qr_scan"}, "lat": 38.86509316666667, "lon": -76.99018683333334, "fusion_lat": 0.0, "name": "60dca6ae1f7d8fed98ff41e09f171c9b", "is_disabled": 0, "is_reserved": 0, "bike_id": "60dca6ae1f7d8fed98ff41e09f171c9b", "fusion_lon": 0.0, "type": "electric_scooter"}, {"rental_uris": {"ios": "https://dc.lft.to/lastmile_qr_scan", "android": "https://dc.lft.to/lastmile_qr_scan"}, "lat": 38.92339833333333, "lon": -77.019058, "fusion_lat": 0.0, "name": "06c70ff09c7cfc4c3a4995a801976317", "is_disabled": 0, "is_reserved": 0, "bike_id": "06c70ff09c7cfc4c3a4995a801976317", "fusion_lon": 0.0, "type": "electric_scooter"}, {"rental_uris": {"ios": "https://dc.lft.to/lastmile_qr_scan", "android": "https://dc.lft.to/lastmile_qr_scan"}, "lat": 38.917718666666666, "lon": -77.02952133333334, "fusion_lat": 0.0, "name": "4eb9fe242dd608b3ab175d1fd2741ea6", "is_disabled": 0, "is_reserved": 0, "bike_id": "4eb9fe242dd608b3ab175d1fd2741ea6", "fusion_lon": 0.0, "type": "electric_scooter"}, {"rental_uris": {"ios": "https://dc.lft.to/lastmile_qr_scan", "android": "https://dc.lft.to/lastmile_qr_scan"}, "lat": 38.901389, "lon": -77.0589585, "fusion_lat": 0.0, "name": "3ce59dd8b8d951aa794d34e021a20962", "is_disabled": 0, "is_reserved": 0, "bike_id": "3ce59dd8b8d951aa794d34e021a20962", "fusion_lon": 0.0, "type": "electric_scooter"}, {"rental_uris": {"ios": "https://dc.lft.to/lastmile_qr_scan", "android": "https://dc.lft.to/lastmile_qr_scan"}, "lat": 38.892402833333335, "lon": -76.95331283333333, "fusion_lat": 0.0, "name": "7063eabb48397cd91e868f1ac921eeea", "is_disabled": 0, "is_reserved": 0, "bike_id": "7063eabb48397cd91e868f1ac921eeea", "fusion_lon": 0.0, "type": "electric_scooter"}, {"rental_uris": {"ios": "https://dc.lft.to/lastmile_qr_scan", "android": "https://dc.lft.to/lastmile_qr_scan"}, "lat": 38.900885333333335, "lon": -76.9833985, "fusion_lat": 0.0, "name": "3e98a2bc0d9bd63e4e93e021536915e1", "is_disabled": 0, "is_reserved": 0, "bike_id": "3e98a2bc0d9bd63e4e93e021536915e1", "fusion_lon": 0.0, "type": "electric_scooter"}, {"rental_uris": {"ios": "https://dc.lft.to/lastmile_qr_scan", "android": "https://dc.lft.to/lastmile_qr_scan"}, "lat": 38.80910183333334, "lon": -77.0865365, "fusion_lat": 0.0, "name": "16fdc43d87033caaba638e8dab6c708d", "is_disabled": 0, "is_reserved": 0, "bike_id": "16fdc43d87033caaba638e8dab6c708d", "fusion_lon": 0.0, "type": "electric_bike"}, {"rental_uris": {"ios": "https://dc.lft.to/lastmile_qr_scan", "android": "https://dc.lft.to/lastmile_qr_scan"}, "lat": 38.9052905, "lon": -77.06522016666666, "fusion_lat": 0.0, "name": "a095a94d7700b69d93ca8d6b60ac265e", "is_disabled": 0, "is_reserved": 0, "bike_id": "a095a94d7700b69d93ca8d6b60ac265e", "fusion_lon": 0.0, "type": "electric_scooter"}, {"rental_uris": {"ios": "https://dc.lft.to/lastmile_qr_scan", "android": "https://dc.lft.to/lastmile_qr_scan"}, "lat": 38.90255116666667, "lon": -77.03966183333333, "fusion_lat": 0.0, "name": "e6176f4041ab5d4330f9c6be86baba7c", "is_disabled": 0, "is_reserved": 0, "bike_id": "e6176f4041ab5d4330f9c6be86baba7c", "fusion_lon": 0.0, "type": "electric_scooter"}, {"rental_uris": {"ios": "https://dc.lft.to/lastmile_qr_scan", "android": "https://dc.lft.to/lastmile_qr_scan"}, "lat": 38.899313166666666, "lon": -77.04000433333333, "fusion_lat": 0.0, "name": "e3bdb1474b33304e39797f16cf9084eb", "is_disabled": 0, "is_reserved": 0, "bike_id": "e3bdb1474b33304e39797f16cf9084eb", "fusion_lon": 0.0, "type": "electric_scooter"}, {"rental_uris": {"ios": "https://dc.lft.to/lastmile_qr_scan", "android": "https://dc.lft.to/lastmile_qr_scan"}, "lat": 38.90754233333333, "lon": -77.031918, "fusion_lat": 0.0, "name": "59442932db586e8efd9967531b5a448e", "is_disabled": 0, "is_reserved": 0, "bike_id": "59442932db586e8efd9967531b5a448e", "fusion_lon": 0.0, "type": "electric_scooter"}, {"rental_uris": {"ios": "https://dc.lft.to/lastmile_qr_scan", "android": "https://dc.lft.to/lastmile_qr_scan"}, "lat": 38.87506366666667, "lon": -77.01227883333334, "fusion_lat": 0.0, "name": "7befc2a53109c38d4bd1f3c9b2301ac6", "is_disabled": 0, "is_reserved": 0, "bike_id": "7befc2a53109c38d4bd1f3c9b2301ac6", "fusion_lon": 0.0, "type": "electric_scooter"}, {"rental_uris": {"ios": "https://dc.lft.to/lastmile_qr_scan", "android": "https://dc.lft.to/lastmile_qr_scan"}, "lat": 38.9153925, "lon": -77.01222283333334, "fusion_lat": 0.0, "name": "5deafdae6028b4413e7de34948f9ac91", "is_disabled": 0, "is_reserved": 0, "bike_id": "5deafdae6028b4413e7de34948f9ac91", "fusion_lon": 0.0, "type": "electric_scooter"}, {"rental_uris": {"ios": "https://dc.lft.to/lastmile_qr_scan", "android": "https://dc.lft.to/lastmile_qr_scan"}, "lat": 38.8971845, "lon": -77.0079715, "fusion_lat": 0.0, "name": "a9dc6d7fb61492c16841bf7646f61a4d", "is_disabled": 0, "is_reserved": 0, "bike_id": "a9dc6d7fb61492c16841bf7646f61a4d", "fusion_lon": 0.0, "type": "electric_scooter"}, {"rental_uris": {"ios": "https://dc.lft.to/lastmile_qr_scan", "android": "https://dc.lft.to/lastmile_qr_scan"}, "lat": 38.93705, "lon": -77.05605383333334, "fusion_lat": 0.0, "name": "8b61bc3e85e1706ed94c17e9a5204c87", "is_disabled": 0, "is_reserved": 0, "bike_id": "8b61bc3e85e1706ed94c17e9a5204c87", "fusion_lon": 0.0, "type": "electric_bike"}, {"rental_uris": {"ios": "https://dc.lft.to/lastmile_qr_scan", "android": "https://dc.lft.to/lastmile_qr_scan"}, "lat": 38.887131333333336, "lon": -77.0177655, "fusion_lat": 0.0, "name": "e494d057b7b362ad8c025b0307d8ad89", "is_disabled": 0, "is_reserved": 0, "bike_id": "e494d057b7b362ad8c025b0307d8ad89", "fusion_lon": 0.0, "type": "electric_scooter"}, {"rental_uris": {"ios": "https://dc.lft.to/lastmile_qr_scan", "android": "https://dc.lft.to/lastmile_qr_scan"}, "lat": 38.898996833333335, "lon": -77.0220625, "fusion_lat": 0.0, "name": "8836e44e24bc8869d9105c938bd022fd", "is_disabled": 0, "is_reserved": 0, "bike_id": "8836e44e24bc8869d9105c938bd022fd", "fusion_lon": 0.0, "type": "electric_scooter"}, {"rental_uris": {"ios": "https://dc.lft.to/lastmile_qr_scan", "android": "https://dc.lft.to/lastmile_qr_scan"}, "lat": 38.91795416666667, "lon": -77.04361366666667, "fusion_lat": 0.0, "name": "2e69cde312d30aeeef8a4152c4881706", "is_disabled": 0, "is_reserved": 0, "bike_id": "2e69cde312d30aeeef8a4152c4881706", "fusion_lon": 0.0, "type": "electric_scooter"}, {"rental_uris": {"ios": "https://dc.lft.to/lastmile_qr_scan", "android": "https://dc.lft.to/lastmile_qr_scan"}, "lat": 38.903472, "lon": -77.018749, "fusion_lat": 0.0, "name": "00cda80b5e930f67149c3b00b0e09227", "is_disabled": 0, "is_reserved": 0, "bike_id": "00cda80b5e930f67149c3b00b0e09227", "fusion_lon": 0.0, "type": "electric_scooter"}, {"rental_uris": {"ios": "https://dc.lft.to/lastmile_qr_scan", "android": "https://dc.lft.to/lastmile_qr_scan"}, "lat": 38.92043983333333, "lon": -77.03412883333333, "fusion_lat": 0.0, "name": "612e6064095c88d203f14eeba110a994", "is_disabled": 0, "is_reserved": 0, "bike_id": "612e6064095c88d203f14eeba110a994", "fusion_lon": 0.0, "type": "electric_scooter"}, {"rental_uris": {"ios": "https://dc.lft.to/lastmile_qr_scan", "android": "https://dc.lft.to/lastmile_qr_scan"}, "lat": 38.954822, "lon": -77.07705533333333, "fusion_lat": 0.0, "name": "e82d576a10b08a01a4ad137fa275727e", "is_disabled": 0, "is_reserved": 0, "bike_id": "e82d576a10b08a01a4ad137fa275727e", "fusion_lon": 0.0, "type": "electric_bike"}, {"rental_uris": {"ios": "https://dc.lft.to/lastmile_qr_scan", "android": "https://dc.lft.to/lastmile_qr_scan"}, "lat": 38.9049995, "lon": -77.06884333333333, "fusion_lat": 0.0, "name": "42880d4943a6d9631f1d4f3b9246d53d", "is_disabled": 0, "is_reserved": 0, "bike_id": "42880d4943a6d9631f1d4f3b9246d53d", "fusion_lon": 0.0, "type": "electric_scooter"}, {"rental_uris": {"ios": "https://dc.lft.to/lastmile_qr_scan", "android": "https://dc.lft.to/lastmile_qr_scan"}, "lat": 38.831579, "lon": -76.995452, "fusion_lat": 0.0, "name": "34e7b59a5e1fcb0e13ec0d753f20265b", "is_disabled": 0, "is_reserved": 0, "bike_id": "34e7b59a5e1fcb0e13ec0d753f20265b", "fusion_lon": 0.0, "type": "electric_bike"}, {"rental_uris": {"ios": "https://dc.lft.to/lastmile_qr_scan", "android": "https://dc.lft.to/lastmile_qr_scan"}, "lat": 38.901002166666665, "lon": -76.98337966666666, "fusion_lat": 0.0, "name": "895931b22b4ed5b67875243575b0a609", "is_disabled": 0, "is_reserved": 0, "bike_id": "895931b22b4ed5b67875243575b0a609", "fusion_lon": 0.0, "type": "electric_scooter"}, {"rental_uris": {"ios": "https://dc.lft.to/lastmile_qr_scan", "android": "https://dc.lft.to/lastmile_qr_scan"}, "lat": 38.933094833333335, "lon": -77.0725685, "fusion_lat": 0.0, "name": "c9b68859a2b705ad2e89d2ae20bcb9bd", "is_disabled": 0, "is_reserved": 0, "bike_id": "c9b68859a2b705ad2e89d2ae20bcb9bd", "fusion_lon": 0.0, "type": "electric_scooter"}, {"rental_uris": {"ios": "https://dc.lft.to/lastmile_qr_scan", "android": "https://dc.lft.to/lastmile_qr_scan"}, "lat": 38.89853516666667, "lon": -77.02793533333333, "fusion_lat": 0.0, "name": "58293b338bb13f1a851d7f281be05cbe", "is_disabled": 0, "is_reserved": 0, "bike_id": "58293b338bb13f1a851d7f281be05cbe", "fusion_lon": 0.0, "type": "electric_scooter"}, {"rental_uris": {"ios": "https://dc.lft.to/lastmile_qr_scan", "android": "https://dc.lft.to/lastmile_qr_scan"}, "lat": 38.892232, "lon": -77.00342833333333, "fusion_lat": 0.0, "name": "5d7b356a6c92460e74378e0c0327500b", "is_disabled": 0, "is_reserved": 0, "bike_id": "5d7b356a6c92460e74378e0c0327500b", "fusion_lon": 0.0, "type": "electric_scooter"}, {"rental_uris": {"ios": "https://dc.lft.to/lastmile_qr_scan", "android": "https://dc.lft.to/lastmile_qr_scan"}, "lat": 38.8730845, "lon": -77.00145733333333, "fusion_lat": 0.0, "name": "85c52af1ad4796a0f78fa068dc4edb27", "is_disabled": 0, "is_reserved": 0, "bike_id": "85c52af1ad4796a0f78fa068dc4edb27", "fusion_lon": 0.0, "type": "electric_scooter"}, {"rental_uris": {"ios": "https://dc.lft.to/lastmile_qr_scan", "android": "https://dc.lft.to/lastmile_qr_scan"}, "lat": 38.96666666666667, "lon": -76.97450816666667, "fusion_lat": 0.0, "name": "75c582b42463dc782e5170e2bee1cd61", "is_disabled": 0, "is_reserved": 0, "bike_id": "75c582b42463dc782e5170e2bee1cd61", "fusion_lon": 0.0, "type": "electric_bike"}, {"rental_uris": {"ios": "https://dc.lft.to/lastmile_qr_scan", "android": "https://dc.lft.to/lastmile_qr_scan"}, "lat": 38.9631525, "lon": -76.97371016666666, "fusion_lat": 0.0, "name": "ee7b4ef0a2a4203c964e78018900047c", "is_disabled": 0, "is_reserved": 0, "bike_id": "ee7b4ef0a2a4203c964e78018900047c", "fusion_lon": 0.0, "type": "electric_bike"}, {"rental_uris": {"ios": "https://dc.lft.to/lastmile_qr_scan", "android": "https://dc.lft.to/lastmile_qr_scan"}, "lat": 38.94481433333333, "lon": -77.09424583333333, "fusion_lat": 0.0, "name": "2164844b7df9717cc9f7322f08bbe9b5", "is_disabled": 0, "is_reserved": 0, "bike_id": "2164844b7df9717cc9f7322f08bbe9b5", "fusion_lon": 0.0, "type": "electric_scooter"}, {"rental_uris": {"ios": "https://dc.lft.to/lastmile_qr_scan", "android": "https://dc.lft.to/lastmile_qr_scan"}, "lat": 38.9552725, "lon": -77.0230905, "fusion_lat": 0.0, "name": "7896b704ce58aeb4d542fee5fa478c37", "is_disabled": 0, "is_reserved": 0, "bike_id": "7896b704ce58aeb4d542fee5fa478c37", "fusion_lon": 0.0, "type": "electric_scooter"}, {"rental_uris": {"ios": "https://dc.lft.to/lastmile_qr_scan", "android": "https://dc.lft.to/lastmile_qr_scan"}, "lat": 38.899293, "lon": -76.93156283333333, "fusion_lat": 0.0, "name": "28ef78ad480fe928dc7609094dc9899f", "is_disabled": 0, "is_reserved": 0, "bike_id": "28ef78ad480fe928dc7609094dc9899f", "fusion_lon": 0.0, "type": "electric_scooter"}, {"rental_uris": {"ios": "https://dc.lft.to/lastmile_qr_scan", "android": "https://dc.lft.to/lastmile_qr_scan"}, "lat": 38.87889883333333, "lon": -77.02250083333334, "fusion_lat": 0.0, "name": "21e8a152b6ae501bea4a278a58a02b26", "is_disabled": 0, "is_reserved": 0, "bike_id": "21e8a152b6ae501bea4a278a58a02b26", "fusion_lon": 0.0, "type": "electric_scooter"}, {"rental_uris": {"ios": "https://dc.lft.to/lastmile_qr_scan", "android": "https://dc.lft.to/lastmile_qr_scan"}, "lat": 38.91707, "lon": -77.0347095, "fusion_lat": 0.0, "name": "1faedab3ef7bcd9a4daaff296f4e033d", "is_disabled": 0, "is_reserved": 0, "bike_id": "1faedab3ef7bcd9a4daaff296f4e033d", "fusion_lon": 0.0, "type": "electric_scooter"}, {"rental_uris": {"ios": "https://dc.lft.to/lastmile_qr_scan", "android": "https://dc.lft.to/lastmile_qr_scan"}, "lat": 38.923295, "lon": -77.03670283333334, "fusion_lat": 0.0, "name": "d3422167d84078ee5c4427f40af99aef", "is_disabled": 0, "is_reserved": 0, "bike_id": "d3422167d84078ee5c4427f40af99aef", "fusion_lon": 0.0, "type": "electric_scooter"}, {"rental_uris": {"ios": "https://dc.lft.to/lastmile_qr_scan", "android": "https://dc.lft.to/lastmile_qr_scan"}, "lat": 38.90529033333333, "lon": -77.07029733333333, "fusion_lat": 0.0, "name": "89e39d4d699fa53b1adc6f97457eef6a", "is_disabled": 0, "is_reserved": 0, "bike_id": "89e39d4d699fa53b1adc6f97457eef6a", "fusion_lon": 0.0, "type": "electric_scooter"}, {"rental_uris": {"ios": "https://dc.lft.to/lastmile_qr_scan", "android": "https://dc.lft.to/lastmile_qr_scan"}, "lat": 38.91632083333333, "lon": -77.032206, "fusion_lat": 0.0, "name": "321cfdadd813778c21b38860efdcd86e", "is_disabled": 0, "is_reserved": 0, "bike_id": "321cfdadd813778c21b38860efdcd86e", "fusion_lon": 0.0, "type": "electric_scooter"}, {"rental_uris": {"ios": "https://dc.lft.to/lastmile_qr_scan", "android": "https://dc.lft.to/lastmile_qr_scan"}, "lat": 38.90428166666667, "lon": -77.034393, "fusion_lat": 0.0, "name": "65df2f5feb7b9a6e1d2b996036d7bb9f", "is_disabled": 0, "is_reserved": 0, "bike_id": "65df2f5feb7b9a6e1d2b996036d7bb9f", "fusion_lon": 0.0, "type": "electric_scooter"}, {"rental_uris": {"ios": "https://dc.lft.to/lastmile_qr_scan", "android": "https://dc.lft.to/lastmile_qr_scan"}, "lat": 38.921852333333334, "lon": -77.03927333333333, "fusion_lat": 0.0, "name": "27105777f90fd90feeec1969352be35f", "is_disabled": 0, "is_reserved": 0, "bike_id": "27105777f90fd90feeec1969352be35f", "fusion_lon": 0.0, "type": "electric_scooter"}, {"rental_uris": {"ios": "https://dc.lft.to/lastmile_qr_scan", "android": "https://dc.lft.to/lastmile_qr_scan"}, "lat": 38.90376033333333, "lon": -77.0349375, "fusion_lat": 0.0, "name": "9a3f73fd7cb2363c5ac9d482caaeb902", "is_disabled": 0, "is_reserved": 0, "bike_id": "9a3f73fd7cb2363c5ac9d482caaeb902", "fusion_lon": 0.0, "type": "electric_scooter"}, {"rental_uris": {"ios": "https://dc.lft.to/lastmile_qr_scan", "android": "https://dc.lft.to/lastmile_qr_scan"}, "lat": 38.876878166666664, "lon": -77.00819233333333, "fusion_lat": 0.0, "name": "8524f5023e97da9f4bf2360faa18f480", "is_disabled": 0, "is_reserved": 0, "bike_id": "8524f5023e97da9f4bf2360faa18f480", "fusion_lon": 0.0, "type": "electric_scooter"}, {"rental_uris": {"ios": "https://dc.lft.to/lastmile_qr_scan", "android": "https://dc.lft.to/lastmile_qr_scan"}, "lat": 38.868288166666666, "lon": -77.01147583333334, "fusion_lat": 0.0, "name": "6806413d47ddebc808184e2ffe79b8ff", "is_disabled": 0, "is_reserved": 0, "bike_id": "6806413d47ddebc808184e2ffe79b8ff", "fusion_lon": 0.0, "type": "electric_scooter"}, {"rental_uris": {"ios": "https://dc.lft.to/lastmile_qr_scan", "android": "https://dc.lft.to/lastmile_qr_scan"}, "lat": 38.893640166666664, "lon": -77.02847766666666, "fusion_lat": 0.0, "name": "ab55cde770b94baf6df85dc4474e05f4", "is_disabled": 0, "is_reserved": 0, "bike_id": "ab55cde770b94baf6df85dc4474e05f4", "fusion_lon": 0.0, "type": "electric_scooter"}, {"rental_uris": {"ios": "https://dc.lft.to/lastmile_qr_scan", "android": "https://dc.lft.to/lastmile_qr_scan"}, "lat": 38.909413666666666, "lon": -77.044122, "fusion_lat": 0.0, "name": "1af3dded030916873811ccf447653c30", "is_disabled": 0, "is_reserved": 0, "bike_id": "1af3dded030916873811ccf447653c30", "fusion_lon": 0.0, "type": "electric_scooter"}, {"rental_uris": {"ios": "https://dc.lft.to/lastmile_qr_scan", "android": "https://dc.lft.to/lastmile_qr_scan"}, "lat": 39.054948333333336, "lon": -77.1179025, "fusion_lat": 0.0, "name": "e7dc2c5fdc2ea36f480e944aad279910", "is_disabled": 0, "is_reserved": 0, "bike_id": "e7dc2c5fdc2ea36f480e944aad279910", "fusion_lon": 0.0, "type": "electric_bike"}, {"rental_uris": {"ios": "https://dc.lft.to/lastmile_qr_scan", "android": "https://dc.lft.to/lastmile_qr_scan"}, "lat": 38.91123316666667, "lon": -77.02177, "fusion_lat": 0.0, "name": "72671938693f4eb65fb3848391954cc2", "is_disabled": 0, "is_reserved": 0, "bike_id": "72671938693f4eb65fb3848391954cc2", "fusion_lon": 0.0, "type": "electric_scooter"}, {"rental_uris": {"ios": "https://dc.lft.to/lastmile_qr_scan", "android": "https://dc.lft.to/lastmile_qr_scan"}, "lat": 39.037445166666664, "lon": -77.05478016666666, "fusion_lat": 0.0, "name": "39a06e0c8f7bd9110ac98e34e5b451d7", "is_disabled": 0, "is_reserved": 0, "bike_id": "39a06e0c8f7bd9110ac98e34e5b451d7", "fusion_lon": 0.0, "type": "electric_bike"}, {"rental_uris": {"ios": "https://dc.lft.to/lastmile_qr_scan", "android": "https://dc.lft.to/lastmile_qr_scan"}, "lat": 38.8980295, "lon": -77.00337166666667, "fusion_lat": 0.0, "name": "4ae5a65c2f12234bd713787a2f189dd6", "is_disabled": 0, "is_reserved": 0, "bike_id": "4ae5a65c2f12234bd713787a2f189dd6", "fusion_lon": 0.0, "type": "electric_scooter"}, {"rental_uris": {"ios": "https://dc.lft.to/lastmile_qr_scan", "android": "https://dc.lft.to/lastmile_qr_scan"}, "lat": 38.908843166666664, "lon": -77.00403416666667, "fusion_lat": 0.0, "name": "f71e7ed89e2e0293ea7be726b0efddcf", "is_disabled": 0, "is_reserved": 0, "bike_id": "f71e7ed89e2e0293ea7be726b0efddcf", "fusion_lon": 0.0, "type": "electric_scooter"}, {"rental_uris": {"ios": "https://dc.lft.to/lastmile_qr_scan", "android": "https://dc.lft.to/lastmile_qr_scan"}, "lat": 38.906332166666665, "lon": -77.04872033333334, "fusion_lat": 0.0, "name": "4cfa51a0bac9e88ae6c66e75f05b33e5", "is_disabled": 0, "is_reserved": 0, "bike_id": "4cfa51a0bac9e88ae6c66e75f05b33e5", "fusion_lon": 0.0, "type": "electric_scooter"}, {"rental_uris": {"ios": "https://dc.lft.to/lastmile_qr_scan", "android": "https://dc.lft.to/lastmile_qr_scan"}, "lat": 38.91468583333333, "lon": -77.045869, "fusion_lat": 0.0, "name": "55ad1c2c5d6d54124660890533bb5bb8", "is_disabled": 0, "is_reserved": 0, "bike_id": "55ad1c2c5d6d54124660890533bb5bb8", "fusion_lon": 0.0, "type": "electric_scooter"}, {"rental_uris": {"ios": "https://dc.lft.to/lastmile_qr_scan", "android": "https://dc.lft.to/lastmile_qr_scan"}, "lat": 38.905332, "lon": -77.02216983333334, "fusion_lat": 0.0, "name": "d8bd05ac4b626767a5b02054b7b3d902", "is_disabled": 0, "is_reserved": 0, "bike_id": "d8bd05ac4b626767a5b02054b7b3d902", "fusion_lon": 0.0, "type": "electric_scooter"}, {"rental_uris": {"ios": "https://dc.lft.to/lastmile_qr_scan", "android": "https://dc.lft.to/lastmile_qr_scan"}, "lat": 38.89321416666667, "lon": -76.9397325, "fusion_lat": 0.0, "name": "5ba33b520a8fd45896db85983d37191a", "is_disabled": 0, "is_reserved": 0, "bike_id": "5ba33b520a8fd45896db85983d37191a", "fusion_lon": 0.0, "type": "electric_scooter"}, {"rental_uris": {"ios": "https://dc.lft.to/lastmile_qr_scan", "android": "https://dc.lft.to/lastmile_qr_scan"}, "lat": 38.915567833333334, "lon": -77.03572866666667, "fusion_lat": 0.0, "name": "d33cdb709effbc51b9023e5bc62c21e6", "is_disabled": 0, "is_reserved": 0, "bike_id": "d33cdb709effbc51b9023e5bc62c21e6", "fusion_lon": 0.0, "type": "electric_scooter"}, {"rental_uris": {"ios": "https://dc.lft.to/lastmile_qr_scan", "android": "https://dc.lft.to/lastmile_qr_scan"}, "lat": 38.90283616666667, "lon": -77.033383, "fusion_lat": 0.0, "name": "41448ec9f15ea7d6851b333e51ed2d47", "is_disabled": 0, "is_reserved": 0, "bike_id": "41448ec9f15ea7d6851b333e51ed2d47", "fusion_lon": 0.0, "type": "electric_scooter"}, {"rental_uris": {"ios": "https://dc.lft.to/lastmile_qr_scan", "android": "https://dc.lft.to/lastmile_qr_scan"}, "lat": 38.936532166666666, "lon": -77.03346816666667, "fusion_lat": 0.0, "name": "974fcdc29debe8406c9059b7bad82e40", "is_disabled": 0, "is_reserved": 0, "bike_id": "974fcdc29debe8406c9059b7bad82e40", "fusion_lon": 0.0, "type": "electric_scooter"}, {"rental_uris": {"ios": "https://dc.lft.to/lastmile_qr_scan", "android": "https://dc.lft.to/lastmile_qr_scan"}, "lat": 38.92614833333333, "lon": -77.04186066666666, "fusion_lat": 0.0, "name": "66b3e99205e9d3c4dab7b862d70d0ed4", "is_disabled": 0, "is_reserved": 0, "bike_id": "66b3e99205e9d3c4dab7b862d70d0ed4", "fusion_lon": 0.0, "type": "electric_scooter"}, {"rental_uris": {"ios": "https://dc.lft.to/lastmile_qr_scan", "android": "https://dc.lft.to/lastmile_qr_scan"}, "lat": 38.8991715, "lon": -76.93369933333334, "fusion_lat": 0.0, "name": "652b4d29d0c3d4469c921e71743ca17f", "is_disabled": 0, "is_reserved": 0, "bike_id": "652b4d29d0c3d4469c921e71743ca17f", "fusion_lon": 0.0, "type": "electric_scooter"}, {"rental_uris": {"ios": "https://dc.lft.to/lastmile_qr_scan", "android": "https://dc.lft.to/lastmile_qr_scan"}, "lat": 38.90648616666667, "lon": -77.0485855, "fusion_lat": 0.0, "name": "0821b8182d9be8f9f88e324e03b81477", "is_disabled": 0, "is_reserved": 0, "bike_id": "0821b8182d9be8f9f88e324e03b81477", "fusion_lon": 0.0, "type": "electric_scooter"}, {"rental_uris": {"ios": "https://dc.lft.to/lastmile_qr_scan", "android": "https://dc.lft.to/lastmile_qr_scan"}, "lat": 38.89221166666667, "lon": -77.04370433333334, "fusion_lat": 0.0, "name": "c962af71a819880a0d0e9ae2628aaad2", "is_disabled": 0, "is_reserved": 0, "bike_id": "c962af71a819880a0d0e9ae2628aaad2", "fusion_lon": 0.0, "type": "electric_scooter"}, {"rental_uris": {"ios": "https://dc.lft.to/lastmile_qr_scan", "android": "https://dc.lft.to/lastmile_qr_scan"}, "lat": 38.8787625, "lon": -77.0223075, "fusion_lat": 0.0, "name": "e12ce470bebd330bb39f18207ce4fa48", "is_disabled": 0, "is_reserved": 0, "bike_id": "e12ce470bebd330bb39f18207ce4fa48", "fusion_lon": 0.0, "type": "electric_scooter"}, {"rental_uris": {"ios": "https://dc.lft.to/lastmile_qr_scan", "android": "https://dc.lft.to/lastmile_qr_scan"}, "lat": 38.897428833333336, "lon": -77.02748066666666, "fusion_lat": 0.0, "name": "ac10e77ca5d70e30c824196cb4f721cd", "is_disabled": 0, "is_reserved": 0, "bike_id": "ac10e77ca5d70e30c824196cb4f721cd", "fusion_lon": 0.0, "type": "electric_scooter"}, {"rental_uris": {"ios": "https://dc.lft.to/lastmile_qr_scan", "android": "https://dc.lft.to/lastmile_qr_scan"}, "lat": 38.909740666666664, "lon": -77.02193983333333, "fusion_lat": 0.0, "name": "5642c2a36d996fc0191331b2609db6e4", "is_disabled": 0, "is_reserved": 0, "bike_id": "5642c2a36d996fc0191331b2609db6e4", "fusion_lon": 0.0, "type": "electric_scooter"}, {"rental_uris": {"ios": "https://dc.lft.to/lastmile_qr_scan", "android": "https://dc.lft.to/lastmile_qr_scan"}, "lat": 38.95086916666666, "lon": -76.997929, "fusion_lat": 0.0, "name": "951629e21d673b0bccd1c04d4e457238", "is_disabled": 0, "is_reserved": 0, "bike_id": "951629e21d673b0bccd1c04d4e457238", "fusion_lon": 0.0, "type": "electric_bike"}, {"rental_uris": {"ios": "https://dc.lft.to/lastmile_qr_scan", "android": "https://dc.lft.to/lastmile_qr_scan"}, "lat": 38.895079333333335, "lon": -77.0033825, "fusion_lat": 0.0, "name": "5dee64a86139c71e3c6f96c159be9a47", "is_disabled": 0, "is_reserved": 0, "bike_id": "5dee64a86139c71e3c6f96c159be9a47", "fusion_lon": 0.0, "type": "electric_scooter"}, {"rental_uris": {"ios": "https://dc.lft.to/lastmile_qr_scan", "android": "https://dc.lft.to/lastmile_qr_scan"}, "lat": 38.925131666666665, "lon": -77.00882283333333, "fusion_lat": 0.0, "name": "c79c44c1eed9c991ddec9493d57c3164", "is_disabled": 0, "is_reserved": 0, "bike_id": "c79c44c1eed9c991ddec9493d57c3164", "fusion_lon": 0.0, "type": "electric_scooter"}, {"rental_uris": {"ios": "https://dc.lft.to/lastmile_qr_scan", "android": "https://dc.lft.to/lastmile_qr_scan"}, "lat": 38.93030066666667, "lon": -77.03290133333333, "fusion_lat": 0.0, "name": "3e50c50566d9c54c6eb36a82e2dd6622", "is_disabled": 0, "is_reserved": 0, "bike_id": "3e50c50566d9c54c6eb36a82e2dd6622", "fusion_lon": 0.0, "type": "electric_scooter"}, {"rental_uris": {"ios": "https://dc.lft.to/lastmile_qr_scan", "android": "https://dc.lft.to/lastmile_qr_scan"}, "lat": 38.8001275, "lon": -77.05485316666666, "fusion_lat": 0.0, "name": "2dca484ea29dcb85e5862e173d2fd07e", "is_disabled": 0, "is_reserved": 0, "bike_id": "2dca484ea29dcb85e5862e173d2fd07e", "fusion_lon": 0.0, "type": "electric_bike"}, {"rental_uris": {"ios": "https://dc.lft.to/lastmile_qr_scan", "android": "https://dc.lft.to/lastmile_qr_scan"}, "lat": 38.899943, "lon": -77.02443233333334, "fusion_lat": 0.0, "name": "c1d248c65d84d2d180746ed5ddc19e6f", "is_disabled": 0, "is_reserved": 0, "bike_id": "c1d248c65d84d2d180746ed5ddc19e6f", "fusion_lon": 0.0, "type": "electric_scooter"}, {"rental_uris": {"ios": "https://dc.lft.to/lastmile_qr_scan", "android": "https://dc.lft.to/lastmile_qr_scan"}, "lat": 38.930672, "lon": -77.03195033333333, "fusion_lat": 0.0, "name": "cec2f26ab0acad36b47b180d974fd16b", "is_disabled": 0, "is_reserved": 0, "bike_id": "cec2f26ab0acad36b47b180d974fd16b", "fusion_lon": 0.0, "type": "electric_scooter"}, {"rental_uris": {"ios": "https://dc.lft.to/lastmile_qr_scan", "android": "https://dc.lft.to/lastmile_qr_scan"}, "lat": 38.89823533333333, "lon": -77.051343, "fusion_lat": 0.0, "name": "0fefd3365da1c993df78d9186172f253", "is_disabled": 0, "is_reserved": 0, "bike_id": "0fefd3365da1c993df78d9186172f253", "fusion_lon": 0.0, "type": "electric_scooter"}, {"rental_uris": {"ios": "https://dc.lft.to/lastmile_qr_scan", "android": "https://dc.lft.to/lastmile_qr_scan"}, "lat": 38.905182333333336, "lon": -77.04888633333333, "fusion_lat": 0.0, "name": "5afd030ba49c91dce4626d1ea33d382c", "is_disabled": 0, "is_reserved": 0, "bike_id": "5afd030ba49c91dce4626d1ea33d382c", "fusion_lon": 0.0, "type": "electric_scooter"}, {"rental_uris": {"ios": "https://dc.lft.to/lastmile_qr_scan", "android": "https://dc.lft.to/lastmile_qr_scan"}, "lat": 38.9194985, "lon": -77.02431466666667, "fusion_lat": 0.0, "name": "45206db9e8fff7b377750c329aeb36d1", "is_disabled": 0, "is_reserved": 0, "bike_id": "45206db9e8fff7b377750c329aeb36d1", "fusion_lon": 0.0, "type": "electric_scooter"}, {"rental_uris": {"ios": "https://dc.lft.to/lastmile_qr_scan", "android": "https://dc.lft.to/lastmile_qr_scan"}, "lat": 38.911235, "lon": -77.032403, "fusion_lat": 0.0, "name": "e878a91683a5aef463e3f7873ee529da", "is_disabled": 0, "is_reserved": 0, "bike_id": "e878a91683a5aef463e3f7873ee529da", "fusion_lon": 0.0, "type": "electric_scooter"}, {"rental_uris": {"ios": "https://dc.lft.to/lastmile_qr_scan", "android": "https://dc.lft.to/lastmile_qr_scan"}, "lat": 38.884301666666666, "lon": -76.95756533333333, "fusion_lat": 0.0, "name": "4772f6f762aa64784420fab0fcfd30d4", "is_disabled": 0, "is_reserved": 0, "bike_id": "4772f6f762aa64784420fab0fcfd30d4", "fusion_lon": 0.0, "type": "electric_scooter"}, {"rental_uris": {"ios": "https://dc.lft.to/lastmile_qr_scan", "android": "https://dc.lft.to/lastmile_qr_scan"}, "lat": 38.8393665, "lon": -77.07898783333333, "fusion_lat": 0.0, "name": "271da53af2d2222a186e941950942883", "is_disabled": 0, "is_reserved": 0, "bike_id": "271da53af2d2222a186e941950942883", "fusion_lon": 0.0, "type": "electric_bike"}, {"rental_uris": {"ios": "https://dc.lft.to/lastmile_qr_scan", "android": "https://dc.lft.to/lastmile_qr_scan"}, "lat": 38.91190483333333, "lon": -77.0396535, "fusion_lat": 0.0, "name": "c90393e8ec775ff2bacf4aeb9d6fca59", "is_disabled": 0, "is_reserved": 0, "bike_id": "c90393e8ec775ff2bacf4aeb9d6fca59", "fusion_lon": 0.0, "type": "electric_scooter"}, {"rental_uris": {"ios": "https://dc.lft.to/lastmile_qr_scan", "android": "https://dc.lft.to/lastmile_qr_scan"}, "lat": 38.917052166666664, "lon": -77.03227916666667, "fusion_lat": 0.0, "name": "6325f30bd18716a3cebede54c06aeb39", "is_disabled": 0, "is_reserved": 0, "bike_id": "6325f30bd18716a3cebede54c06aeb39", "fusion_lon": 0.0, "type": "electric_scooter"}, {"rental_uris": {"ios": "https://dc.lft.to/lastmile_qr_scan", "android": "https://dc.lft.to/lastmile_qr_scan"}, "lat": 38.933811, "lon": -77.03220333333333, "fusion_lat": 0.0, "name": "4ffcd66dd904cbe88079d36ca3a84c46", "is_disabled": 0, "is_reserved": 0, "bike_id": "4ffcd66dd904cbe88079d36ca3a84c46", "fusion_lon": 0.0, "type": "electric_scooter"}, {"rental_uris": {"ios": "https://dc.lft.to/lastmile_qr_scan", "android": "https://dc.lft.to/lastmile_qr_scan"}, "lat": 38.80447516666667, "lon": -77.053922, "fusion_lat": 0.0, "name": "1680a1f63a416e87baa3abd6e783aae1", "is_disabled": 0, "is_reserved": 0, "bike_id": "1680a1f63a416e87baa3abd6e783aae1", "fusion_lon": 0.0, "type": "electric_bike"}, {"rental_uris": {"ios": "https://dc.lft.to/lastmile_qr_scan", "android": "https://dc.lft.to/lastmile_qr_scan"}, "lat": 38.894777166666664, "lon": -76.94859616666666, "fusion_lat": 0.0, "name": "ad375ef268a990e02e76f4e87f1d0092", "is_disabled": 0, "is_reserved": 0, "bike_id": "ad375ef268a990e02e76f4e87f1d0092", "fusion_lon": 0.0, "type": "electric_scooter"}, {"rental_uris": {"ios": "https://dc.lft.to/lastmile_qr_scan", "android": "https://dc.lft.to/lastmile_qr_scan"}, "lat": 38.92057116666667, "lon": -77.02308333333333, "fusion_lat": 0.0, "name": "db9b4fef635ffc8af0504d56d5aac9b3", "is_disabled": 0, "is_reserved": 0, "bike_id": "db9b4fef635ffc8af0504d56d5aac9b3", "fusion_lon": 0.0, "type": "electric_scooter"}, {"rental_uris": {"ios": "https://dc.lft.to/lastmile_qr_scan", "android": "https://dc.lft.to/lastmile_qr_scan"}, "lat": 38.94020783333333, "lon": -76.97610316666666, "fusion_lat": 0.0, "name": "86784b19a2333ea2de73fdc535daa1bf", "is_disabled": 0, "is_reserved": 0, "bike_id": "86784b19a2333ea2de73fdc535daa1bf", "fusion_lon": 0.0, "type": "electric_scooter"}, {"rental_uris": {"ios": "https://dc.lft.to/lastmile_qr_scan", "android": "https://dc.lft.to/lastmile_qr_scan"}, "lat": 38.934756166666666, "lon": -77.0727005, "fusion_lat": 0.0, "name": "6d603133b1e77fcd842060629e8a808c", "is_disabled": 0, "is_reserved": 0, "bike_id": "6d603133b1e77fcd842060629e8a808c", "fusion_lon": 0.0, "type": "electric_scooter"}, {"rental_uris": {"ios": "https://dc.lft.to/lastmile_qr_scan", "android": "https://dc.lft.to/lastmile_qr_scan"}, "lat": 38.877035, "lon": -77.00543383333333, "fusion_lat": 0.0, "name": "e65b529b16545e8f2b064ec2b9098172", "is_disabled": 0, "is_reserved": 0, "bike_id": "e65b529b16545e8f2b064ec2b9098172", "fusion_lon": 0.0, "type": "electric_scooter"}, {"rental_uris": {"ios": "https://dc.lft.to/lastmile_qr_scan", "android": "https://dc.lft.to/lastmile_qr_scan"}, "lat": 38.90031466666667, "lon": -76.99858416666666, "fusion_lat": 0.0, "name": "b4ecfd8435fa80b4e0e0423e00c00145", "is_disabled": 0, "is_reserved": 0, "bike_id": "b4ecfd8435fa80b4e0e0423e00c00145", "fusion_lon": 0.0, "type": "electric_scooter"}, {"rental_uris": {"ios": "https://dc.lft.to/lastmile_qr_scan", "android": "https://dc.lft.to/lastmile_qr_scan"}, "lat": 38.8941015, "lon": -77.01084133333333, "fusion_lat": 0.0, "name": "16963071cffb6881a4b8bf5a124d86ef", "is_disabled": 0, "is_reserved": 0, "bike_id": "16963071cffb6881a4b8bf5a124d86ef", "fusion_lon": 0.0, "type": "electric_scooter"}, {"rental_uris": {"ios": "https://dc.lft.to/lastmile_qr_scan", "android": "https://dc.lft.to/lastmile_qr_scan"}, "lat": 38.90552683333333, "lon": -77.00711, "fusion_lat": 0.0, "name": "6c9a24140c0dfdbc1509d448c0e2f1ab", "is_disabled": 0, "is_reserved": 0, "bike_id": "6c9a24140c0dfdbc1509d448c0e2f1ab", "fusion_lon": 0.0, "type": "electric_scooter"}, {"rental_uris": {"ios": "https://dc.lft.to/lastmile_qr_scan", "android": "https://dc.lft.to/lastmile_qr_scan"}, "lat": 38.89237683333333, "lon": -77.03351, "fusion_lat": 0.0, "name": "2ed7eb565d118c710d43f399e468c554", "is_disabled": 0, "is_reserved": 0, "bike_id": "2ed7eb565d118c710d43f399e468c554", "fusion_lon": 0.0, "type": "electric_scooter"}, {"rental_uris": {"ios": "https://dc.lft.to/lastmile_qr_scan", "android": "https://dc.lft.to/lastmile_qr_scan"}, "lat": 38.89747833333333, "lon": -77.02760866666667, "fusion_lat": 0.0, "name": "602d3d4356d7b399cf52cca680ad1183", "is_disabled": 0, "is_reserved": 0, "bike_id": "602d3d4356d7b399cf52cca680ad1183", "fusion_lon": 0.0, "type": "electric_scooter"}, {"rental_uris": {"ios": "https://dc.lft.to/lastmile_qr_scan", "android": "https://dc.lft.to/lastmile_qr_scan"}, "lat": 38.9064815, "lon": -77.04880433333334, "fusion_lat": 0.0, "name": "152d8a3c60e43ca1bfbf21cb08dcf1ac", "is_disabled": 0, "is_reserved": 0, "bike_id": "152d8a3c60e43ca1bfbf21cb08dcf1ac", "fusion_lon": 0.0, "type": "electric_scooter"}, {"rental_uris": {"ios": "https://dc.lft.to/lastmile_qr_scan", "android": "https://dc.lft.to/lastmile_qr_scan"}, "lat": 38.918451, "lon": -77.04833483333333, "fusion_lat": 0.0, "name": "60aab0d3a32101e481cdb5dca4c4735a", "is_disabled": 0, "is_reserved": 0, "bike_id": "60aab0d3a32101e481cdb5dca4c4735a", "fusion_lon": 0.0, "type": "electric_scooter"}, {"rental_uris": {"ios": "https://dc.lft.to/lastmile_qr_scan", "android": "https://dc.lft.to/lastmile_qr_scan"}, "lat": 38.927594666666664, "lon": -77.02389, "fusion_lat": 0.0, "name": "3a5451126e27748053ead51e261bad11", "is_disabled": 0, "is_reserved": 0, "bike_id": "3a5451126e27748053ead51e261bad11", "fusion_lon": 0.0, "type": "electric_scooter"}, {"rental_uris": {"ios": "https://dc.lft.to/lastmile_qr_scan", "android": "https://dc.lft.to/lastmile_qr_scan"}, "lat": 38.915339, "lon": -76.98351216666667, "fusion_lat": 0.0, "name": "1d0a15d3a647286a621f748a998e3ce9", "is_disabled": 0, "is_reserved": 0, "bike_id": "1d0a15d3a647286a621f748a998e3ce9", "fusion_lon": 0.0, "type": "electric_scooter"}, {"rental_uris": {"ios": "https://dc.lft.to/lastmile_qr_scan", "android": "https://dc.lft.to/lastmile_qr_scan"}, "lat": 38.901920833333335, "lon": -76.97883583333333, "fusion_lat": 0.0, "name": "27a51d2cb22667287d2dfd840fe22fe5", "is_disabled": 0, "is_reserved": 0, "bike_id": "27a51d2cb22667287d2dfd840fe22fe5", "fusion_lon": 0.0, "type": "electric_scooter"}, {"rental_uris": {"ios": "https://dc.lft.to/lastmile_qr_scan", "android": "https://dc.lft.to/lastmile_qr_scan"}, "lat": 38.919144333333335, "lon": -77.01349666666667, "fusion_lat": 0.0, "name": "dd2490560922cc008c6bbf82a8a52f61", "is_disabled": 0, "is_reserved": 0, "bike_id": "dd2490560922cc008c6bbf82a8a52f61", "fusion_lon": 0.0, "type": "electric_scooter"}, {"rental_uris": {"ios": "https://dc.lft.to/lastmile_qr_scan", "android": "https://dc.lft.to/lastmile_qr_scan"}, "lat": 38.91639466666667, "lon": -77.02583266666667, "fusion_lat": 0.0, "name": "9d47907b1771439cb168933542a8a46a", "is_disabled": 0, "is_reserved": 0, "bike_id": "9d47907b1771439cb168933542a8a46a", "fusion_lon": 0.0, "type": "electric_scooter"}, {"rental_uris": {"ios": "https://dc.lft.to/lastmile_qr_scan", "android": "https://dc.lft.to/lastmile_qr_scan"}, "lat": 38.922654333333334, "lon": -77.01851483333333, "fusion_lat": 0.0, "name": "bb7e532dc8f1d63b2014a162a606eb38", "is_disabled": 0, "is_reserved": 0, "bike_id": "bb7e532dc8f1d63b2014a162a606eb38", "fusion_lon": 0.0, "type": "electric_scooter"}, {"rental_uris": {"ios": "https://dc.lft.to/lastmile_qr_scan", "android": "https://dc.lft.to/lastmile_qr_scan"}, "lat": 38.897397166666664, "lon": -77.02570066666667, "fusion_lat": 0.0, "name": "035a5b3093875faff41127e15e499656", "is_disabled": 0, "is_reserved": 0, "bike_id": "035a5b3093875faff41127e15e499656", "fusion_lon": 0.0, "type": "electric_scooter"}, {"rental_uris": {"ios": "https://dc.lft.to/lastmile_qr_scan", "android": "https://dc.lft.to/lastmile_qr_scan"}, "lat": 38.89222183333333, "lon": -77.03160683333333, "fusion_lat": 0.0, "name": "c9857cd9e825cf5582664b4955be8e03", "is_disabled": 0, "is_reserved": 0, "bike_id": "c9857cd9e825cf5582664b4955be8e03", "fusion_lon": 0.0, "type": "electric_scooter"}, {"rental_uris": {"ios": "https://dc.lft.to/lastmile_qr_scan", "android": "https://dc.lft.to/lastmile_qr_scan"}, "lat": 38.9067315, "lon": -77.0003195, "fusion_lat": 0.0, "name": "4998f9888cceb26e03701963db0de6c9", "is_disabled": 0, "is_reserved": 0, "bike_id": "4998f9888cceb26e03701963db0de6c9", "fusion_lon": 0.0, "type": "electric_scooter"}, {"rental_uris": {"ios": "https://dc.lft.to/lastmile_qr_scan", "android": "https://dc.lft.to/lastmile_qr_scan"}, "lat": 38.93424433333333, "lon": -77.02840733333333, "fusion_lat": 0.0, "name": "9e6f1f33647606d77b2ee09665d606ee", "is_disabled": 0, "is_reserved": 0, "bike_id": "9e6f1f33647606d77b2ee09665d606ee", "fusion_lon": 0.0, "type": "electric_scooter"}, {"rental_uris": {"ios": "https://dc.lft.to/lastmile_qr_scan", "android": "https://dc.lft.to/lastmile_qr_scan"}, "lat": 38.903730833333334, "lon": -77.036575, "fusion_lat": 0.0, "name": "c8d51d3a7b56c683db19734db59928b3", "is_disabled": 0, "is_reserved": 0, "bike_id": "c8d51d3a7b56c683db19734db59928b3", "fusion_lon": 0.0, "type": "electric_scooter"}, {"rental_uris": {"ios": "https://dc.lft.to/lastmile_qr_scan", "android": "https://dc.lft.to/lastmile_qr_scan"}, "lat": 38.918739, "lon": -76.99950733333333, "fusion_lat": 0.0, "name": "87d2f7c1c41564880da32e7b8f1ca238", "is_disabled": 0, "is_reserved": 0, "bike_id": "87d2f7c1c41564880da32e7b8f1ca238", "fusion_lon": 0.0, "type": "electric_scooter"}, {"rental_uris": {"ios": "https://dc.lft.to/lastmile_qr_scan", "android": "https://dc.lft.to/lastmile_qr_scan"}, "lat": 38.928877666666665, "lon": -77.034131, "fusion_lat": 0.0, "name": "90e947e717d4586b206c056482a071c6", "is_disabled": 0, "is_reserved": 0, "bike_id": "90e947e717d4586b206c056482a071c6", "fusion_lon": 0.0, "type": "electric_scooter"}, {"rental_uris": {"ios": "https://dc.lft.to/lastmile_qr_scan", "android": "https://dc.lft.to/lastmile_qr_scan"}, "lat": 38.92522016666667, "lon": -77.04120666666667, "fusion_lat": 0.0, "name": "68568d59ad62e4da93f39ed7c5e8741a", "is_disabled": 0, "is_reserved": 0, "bike_id": "68568d59ad62e4da93f39ed7c5e8741a", "fusion_lon": 0.0, "type": "electric_scooter"}, {"rental_uris": {"ios": "https://dc.lft.to/lastmile_qr_scan", "android": "https://dc.lft.to/lastmile_qr_scan"}, "lat": 38.907114666666665, "lon": -77.02387766666666, "fusion_lat": 0.0, "name": "2f5414fd5086821c9ee4b2a5ce45f76f", "is_disabled": 0, "is_reserved": 0, "bike_id": "2f5414fd5086821c9ee4b2a5ce45f76f", "fusion_lon": 0.0, "type": "electric_scooter"}, {"rental_uris": {"ios": "https://dc.lft.to/lastmile_qr_scan", "android": "https://dc.lft.to/lastmile_qr_scan"}, "lat": 38.902538666666665, "lon": -77.03474533333333, "fusion_lat": 0.0, "name": "f307f43c884edfaba74edc1e61debb22", "is_disabled": 0, "is_reserved": 0, "bike_id": "f307f43c884edfaba74edc1e61debb22", "fusion_lon": 0.0, "type": "electric_scooter"}, {"rental_uris": {"ios": "https://dc.lft.to/lastmile_qr_scan", "android": "https://dc.lft.to/lastmile_qr_scan"}, "lat": 38.866843833333334, "lon": -76.98577616666667, "fusion_lat": 0.0, "name": "d2e98295de0d2bf43563ef810ee2ee72", "is_disabled": 0, "is_reserved": 0, "bike_id": "d2e98295de0d2bf43563ef810ee2ee72", "fusion_lon": 0.0, "type": "electric_scooter"}, {"rental_uris": {"ios": "https://dc.lft.to/lastmile_qr_scan", "android": "https://dc.lft.to/lastmile_qr_scan"}, "lat": 38.866484, "lon": -76.98820066666667, "fusion_lat": 0.0, "name": "f170bfc43e49b30fd33799555f707c11", "is_disabled": 0, "is_reserved": 0, "bike_id": "f170bfc43e49b30fd33799555f707c11", "fusion_lon": 0.0, "type": "electric_scooter"}, {"rental_uris": {"ios": "https://dc.lft.to/lastmile_qr_scan", "android": "https://dc.lft.to/lastmile_qr_scan"}, "lat": 38.9846255, "lon": -76.97057416666667, "fusion_lat": 0.0, "name": "128beb008dbca40a8f7ee5e3650bbcb7", "is_disabled": 0, "is_reserved": 0, "bike_id": "128beb008dbca40a8f7ee5e3650bbcb7", "fusion_lon": 0.0, "type": "electric_bike"}, {"rental_uris": {"ios": "https://dc.lft.to/lastmile_qr_scan", "android": "https://dc.lft.to/lastmile_qr_scan"}, "lat": 38.95250083333333, "lon": -77.0196355, "fusion_lat": 0.0, "name": "e1ea5763fd9fa5b8744603bd649e1877", "is_disabled": 0, "is_reserved": 0, "bike_id": "e1ea5763fd9fa5b8744603bd649e1877", "fusion_lon": 0.0, "type": "electric_scooter"}, {"rental_uris": {"ios": "https://dc.lft.to/lastmile_qr_scan", "android": "https://dc.lft.to/lastmile_qr_scan"}, "lat": 38.8928375, "lon": -77.01974533333333, "fusion_lat": 0.0, "name": "7adaad4ffed9851ac58251ba5ea54615", "is_disabled": 0, "is_reserved": 0, "bike_id": "7adaad4ffed9851ac58251ba5ea54615", "fusion_lon": 0.0, "type": "electric_scooter"}, {"rental_uris": {"ios": "https://dc.lft.to/lastmile_qr_scan", "android": "https://dc.lft.to/lastmile_qr_scan"}, "lat": 38.91915233333334, "lon": -77.0362525, "fusion_lat": 0.0, "name": "29b00241050f24e89d56724c5409fb51", "is_disabled": 0, "is_reserved": 0, "bike_id": "29b00241050f24e89d56724c5409fb51", "fusion_lon": 0.0, "type": "electric_scooter"}, {"rental_uris": {"ios": "https://dc.lft.to/lastmile_qr_scan", "android": "https://dc.lft.to/lastmile_qr_scan"}, "lat": 38.92456266666667, "lon": -77.0201875, "fusion_lat": 0.0, "name": "858e026ef64b9961c3d601209d0faf1c", "is_disabled": 0, "is_reserved": 0, "bike_id": "858e026ef64b9961c3d601209d0faf1c", "fusion_lon": 0.0, "type": "electric_scooter"}, {"rental_uris": {"ios": "https://dc.lft.to/lastmile_qr_scan", "android": "https://dc.lft.to/lastmile_qr_scan"}, "lat": 38.9024395, "lon": -77.038087, "fusion_lat": 0.0, "name": "be86ca72be24b1e20df4132306573e31", "is_disabled": 0, "is_reserved": 0, "bike_id": "be86ca72be24b1e20df4132306573e31", "fusion_lon": 0.0, "type": "electric_scooter"}, {"rental_uris": {"ios": "https://dc.lft.to/lastmile_qr_scan", "android": "https://dc.lft.to/lastmile_qr_scan"}, "lat": 38.923100166666664, "lon": -77.02962783333334, "fusion_lat": 0.0, "name": "5c904ce189b6fef227658e3f5264e2c9", "is_disabled": 0, "is_reserved": 0, "bike_id": "5c904ce189b6fef227658e3f5264e2c9", "fusion_lon": 0.0, "type": "electric_scooter"}, {"rental_uris": {"ios": "https://dc.lft.to/lastmile_qr_scan", "android": "https://dc.lft.to/lastmile_qr_scan"}, "lat": 38.9015905, "lon": -77.02946916666667, "fusion_lat": 0.0, "name": "a3447e0381cd6c0829fc65908f9a13cd", "is_disabled": 0, "is_reserved": 0, "bike_id": "a3447e0381cd6c0829fc65908f9a13cd", "fusion_lon": 0.0, "type": "electric_scooter"}, {"rental_uris": {"ios": "https://dc.lft.to/lastmile_qr_scan", "android": "https://dc.lft.to/lastmile_qr_scan"}, "lat": 38.9055805, "lon": -77.06525983333333, "fusion_lat": 0.0, "name": "bd74491b539831e1bd2e2c8b07c7d4e6", "is_disabled": 0, "is_reserved": 0, "bike_id": "bd74491b539831e1bd2e2c8b07c7d4e6", "fusion_lon": 0.0, "type": "electric_scooter"}, {"rental_uris": {"ios": "https://dc.lft.to/lastmile_qr_scan", "android": "https://dc.lft.to/lastmile_qr_scan"}, "lat": 38.916745, "lon": -77.029707, "fusion_lat": 0.0, "name": "9663251d4e8826f41a65ecfc98ac575d", "is_disabled": 0, "is_reserved": 0, "bike_id": "9663251d4e8826f41a65ecfc98ac575d", "fusion_lon": 0.0, "type": "electric_scooter"}, {"rental_uris": {"ios": "https://dc.lft.to/lastmile_qr_scan", "android": "https://dc.lft.to/lastmile_qr_scan"}, "lat": 38.9191335, "lon": -77.01959283333333, "fusion_lat": 0.0, "name": "4a605717e3e5d20c2c8d275be9f53e5b", "is_disabled": 0, "is_reserved": 0, "bike_id": "4a605717e3e5d20c2c8d275be9f53e5b", "fusion_lon": 0.0, "type": "electric_scooter"}, {"rental_uris": {"ios": "https://dc.lft.to/lastmile_qr_scan", "android": "https://dc.lft.to/lastmile_qr_scan"}, "lat": 38.91467, "lon": -76.9811385, "fusion_lat": 0.0, "name": "432991e1d7cdc55dcfbf034a445d802e", "is_disabled": 0, "is_reserved": 0, "bike_id": "432991e1d7cdc55dcfbf034a445d802e", "fusion_lon": 0.0, "type": "electric_scooter"}, {"rental_uris": {"ios": "https://dc.lft.to/lastmile_qr_scan", "android": "https://dc.lft.to/lastmile_qr_scan"}, "lat": 38.912679833333335, "lon": -77.02213516666667, "fusion_lat": 0.0, "name": "cec46bafd3ed404bf5b20b229706fc87", "is_disabled": 0, "is_reserved": 0, "bike_id": "cec46bafd3ed404bf5b20b229706fc87", "fusion_lon": 0.0, "type": "electric_scooter"}, {"rental_uris": {"ios": "https://dc.lft.to/lastmile_qr_scan", "android": "https://dc.lft.to/lastmile_qr_scan"}, "lat": 38.93534233333333, "lon": -77.0234785, "fusion_lat": 0.0, "name": "508b515b425738bd8669b4b3fb1a25d5", "is_disabled": 0, "is_reserved": 0, "bike_id": "508b515b425738bd8669b4b3fb1a25d5", "fusion_lon": 0.0, "type": "electric_scooter"}, {"rental_uris": {"ios": "https://dc.lft.to/lastmile_qr_scan", "android": "https://dc.lft.to/lastmile_qr_scan"}, "lat": 38.92043233333333, "lon": -77.01684716666666, "fusion_lat": 0.0, "name": "f2afa84527759094470c0d5f66e8cbe5", "is_disabled": 0, "is_reserved": 0, "bike_id": "f2afa84527759094470c0d5f66e8cbe5", "fusion_lon": 0.0, "type": "electric_scooter"}, {"rental_uris": {"ios": "https://dc.lft.to/lastmile_qr_scan", "android": "https://dc.lft.to/lastmile_qr_scan"}, "lat": 38.9010845, "lon": -77.05128433333333, "fusion_lat": 0.0, "name": "53c053ce3c6fa5563a653b3fef82d5dd", "is_disabled": 0, "is_reserved": 0, "bike_id": "53c053ce3c6fa5563a653b3fef82d5dd", "fusion_lon": 0.0, "type": "electric_scooter"}, {"rental_uris": {"ios": "https://dc.lft.to/lastmile_qr_scan", "android": "https://dc.lft.to/lastmile_qr_scan"}, "lat": 38.90016333333333, "lon": -76.98701083333333, "fusion_lat": 0.0, "name": "7d7f7a40aa5ba59e1fd84f9084b06ea8", "is_disabled": 0, "is_reserved": 0, "bike_id": "7d7f7a40aa5ba59e1fd84f9084b06ea8", "fusion_lon": 0.0, "type": "electric_scooter"}, {"rental_uris": {"ios": "https://dc.lft.to/lastmile_qr_scan", "android": "https://dc.lft.to/lastmile_qr_scan"}, "lat": 38.918381333333336, "lon": -77.03938883333333, "fusion_lat": 0.0, "name": "8811546aef642d16e016e6256355f286", "is_disabled": 0, "is_reserved": 0, "bike_id": "8811546aef642d16e016e6256355f286", "fusion_lon": 0.0, "type": "electric_scooter"}, {"rental_uris": {"ios": "https://dc.lft.to/lastmile_qr_scan", "android": "https://dc.lft.to/lastmile_qr_scan"}, "lat": 38.876893333333335, "lon": -77.01753483333333, "fusion_lat": 0.0, "name": "731e04d1b564383fe80883f0598b095f", "is_disabled": 0, "is_reserved": 0, "bike_id": "731e04d1b564383fe80883f0598b095f", "fusion_lon": 0.0, "type": "electric_scooter"}, {"rental_uris": {"ios": "https://dc.lft.to/lastmile_qr_scan", "android": "https://dc.lft.to/lastmile_qr_scan"}, "lat": 38.893589166666665, "lon": -76.949331, "fusion_lat": 0.0, "name": "e7cc3ae246acb7d97c23195ff734a299", "is_disabled": 0, "is_reserved": 0, "bike_id": "e7cc3ae246acb7d97c23195ff734a299", "fusion_lon": 0.0, "type": "electric_scooter"}, {"rental_uris": {"ios": "https://dc.lft.to/lastmile_qr_scan", "android": "https://dc.lft.to/lastmile_qr_scan"}, "lat": 38.82162966666667, "lon": -76.99507583333333, "fusion_lat": 0.0, "name": "c6399c9c91cd80f4a8664f278ce727cd", "is_disabled": 0, "is_reserved": 0, "bike_id": "c6399c9c91cd80f4a8664f278ce727cd", "fusion_lon": 0.0, "type": "electric_bike"}, {"rental_uris": {"ios": "https://dc.lft.to/lastmile_qr_scan", "android": "https://dc.lft.to/lastmile_qr_scan"}, "lat": 38.8463485, "lon": -76.99134633333334, "fusion_lat": 0.0, "name": "991ea0891350b6e5190895315cabe1e4", "is_disabled": 0, "is_reserved": 0, "bike_id": "991ea0891350b6e5190895315cabe1e4", "fusion_lon": 0.0, "type": "electric_scooter"}, {"rental_uris": {"ios": "https://dc.lft.to/lastmile_qr_scan", "android": "https://dc.lft.to/lastmile_qr_scan"}, "lat": 38.90269766666667, "lon": -77.0217215, "fusion_lat": 0.0, "name": "b697748747713d37bb67b85ea768a9c0", "is_disabled": 0, "is_reserved": 0, "bike_id": "b697748747713d37bb67b85ea768a9c0", "fusion_lon": 0.0, "type": "electric_scooter"}, {"rental_uris": {"ios": "https://dc.lft.to/lastmile_qr_scan", "android": "https://dc.lft.to/lastmile_qr_scan"}, "lat": 38.91699366666667, "lon": -77.034717, "fusion_lat": 0.0, "name": "1aec26b5db8995870d1534d91014a2ce", "is_disabled": 0, "is_reserved": 0, "bike_id": "1aec26b5db8995870d1534d91014a2ce", "fusion_lon": 0.0, "type": "electric_scooter"}, {"rental_uris": {"ios": "https://dc.lft.to/lastmile_qr_scan", "android": "https://dc.lft.to/lastmile_qr_scan"}, "lat": 38.906343, "lon": -77.02191283333333, "fusion_lat": 0.0, "name": "6d82d5ab685bc9c42e72d40c86dbbab6", "is_disabled": 0, "is_reserved": 0, "bike_id": "6d82d5ab685bc9c42e72d40c86dbbab6", "fusion_lon": 0.0, "type": "electric_scooter"}, {"rental_uris": {"ios": "https://dc.lft.to/lastmile_qr_scan", "android": "https://dc.lft.to/lastmile_qr_scan"}, "lat": 38.84594966666667, "lon": -77.108632, "fusion_lat": 0.0, "name": "502a963073d6ec04beafe51eb3a4ec63", "is_disabled": 0, "is_reserved": 0, "bike_id": "502a963073d6ec04beafe51eb3a4ec63", "fusion_lon": 0.0, "type": "electric_bike"}, {"rental_uris": {"ios": "https://dc.lft.to/lastmile_qr_scan", "android": "https://dc.lft.to/lastmile_qr_scan"}, "lat": 38.91418916666667, "lon": -77.02122, "fusion_lat": 0.0, "name": "2ec46a583614ad73fc6780dd2dc4ea99", "is_disabled": 0, "is_reserved": 0, "bike_id": "2ec46a583614ad73fc6780dd2dc4ea99", "fusion_lon": 0.0, "type": "electric_scooter"}, {"rental_uris": {"ios": "https://dc.lft.to/lastmile_qr_scan", "android": "https://dc.lft.to/lastmile_qr_scan"}, "lat": 38.906994833333336, "lon": -77.0238745, "fusion_lat": 0.0, "name": "d30fc8cfdde2a4ceca38d5bdb4e48195", "is_disabled": 0, "is_reserved": 0, "bike_id": "d30fc8cfdde2a4ceca38d5bdb4e48195", "fusion_lon": 0.0, "type": "electric_scooter"}, {"rental_uris": {"ios": "https://dc.lft.to/lastmile_qr_scan", "android": "https://dc.lft.to/lastmile_qr_scan"}, "lat": 38.87650033333333, "lon": -77.0043595, "fusion_lat": 0.0, "name": "63d7d6fcd975bb8ecd77d615443c1cf6", "is_disabled": 0, "is_reserved": 0, "bike_id": "63d7d6fcd975bb8ecd77d615443c1cf6", "fusion_lon": 0.0, "type": "electric_scooter"}, {"rental_uris": {"ios": "https://dc.lft.to/lastmile_qr_scan", "android": "https://dc.lft.to/lastmile_qr_scan"}, "lat": 38.9266695, "lon": -77.015088, "fusion_lat": 0.0, "name": "03b9ed565b9f533dd40ed77dba679966", "is_disabled": 0, "is_reserved": 0, "bike_id": "03b9ed565b9f533dd40ed77dba679966", "fusion_lon": 0.0, "type": "electric_scooter"}, {"rental_uris": {"ios": "https://dc.lft.to/lastmile_qr_scan", "android": "https://dc.lft.to/lastmile_qr_scan"}, "lat": 38.94998916666667, "lon": -77.01828, "fusion_lat": 0.0, "name": "cae37ac5c76ad348ee4481abb4dc7d38", "is_disabled": 0, "is_reserved": 0, "bike_id": "cae37ac5c76ad348ee4481abb4dc7d38", "fusion_lon": 0.0, "type": "electric_scooter"}, {"rental_uris": {"ios": "https://dc.lft.to/lastmile_qr_scan", "android": "https://dc.lft.to/lastmile_qr_scan"}, "lat": 38.87626216666666, "lon": -76.96530433333334, "fusion_lat": 0.0, "name": "14a5b30ad06471c655878a1caebd02eb", "is_disabled": 0, "is_reserved": 0, "bike_id": "14a5b30ad06471c655878a1caebd02eb", "fusion_lon": 0.0, "type": "electric_scooter"}, {"rental_uris": {"ios": "https://dc.lft.to/lastmile_qr_scan", "android": "https://dc.lft.to/lastmile_qr_scan"}, "lat": 38.88182916666667, "lon": -77.02089483333333, "fusion_lat": 0.0, "name": "c075e2c33942201c7d208aa8e935a8dd", "is_disabled": 0, "is_reserved": 0, "bike_id": "c075e2c33942201c7d208aa8e935a8dd", "fusion_lon": 0.0, "type": "electric_scooter"}, {"rental_uris": {"ios": "https://dc.lft.to/lastmile_qr_scan", "android": "https://dc.lft.to/lastmile_qr_scan"}, "lat": 38.900744833333334, "lon": -77.01316333333334, "fusion_lat": 0.0, "name": "fcf1432b1b5eb84150462e509b4fde32", "is_disabled": 0, "is_reserved": 0, "bike_id": "fcf1432b1b5eb84150462e509b4fde32", "fusion_lon": 0.0, "type": "electric_scooter"}, {"rental_uris": {"ios": "https://dc.lft.to/lastmile_qr_scan", "android": "https://dc.lft.to/lastmile_qr_scan"}, "lat": 38.923179833333336, "lon": -77.04441516666667, "fusion_lat": 0.0, "name": "7a7a9773c19d135ac56bf6766428238f", "is_disabled": 0, "is_reserved": 0, "bike_id": "7a7a9773c19d135ac56bf6766428238f", "fusion_lon": 0.0, "type": "electric_scooter"}, {"rental_uris": {"ios": "https://dc.lft.to/lastmile_qr_scan", "android": "https://dc.lft.to/lastmile_qr_scan"}, "lat": 38.88342166666666, "lon": -76.9948365, "fusion_lat": 0.0, "name": "85f29c30e77a9779d66ee16f2ed400f1", "is_disabled": 0, "is_reserved": 0, "bike_id": "85f29c30e77a9779d66ee16f2ed400f1", "fusion_lon": 0.0, "type": "electric_scooter"}, {"rental_uris": {"ios": "https://dc.lft.to/lastmile_qr_scan", "android": "https://dc.lft.to/lastmile_qr_scan"}, "lat": 38.886655166666664, "lon": -77.162318, "fusion_lat": 0.0, "name": "00ca0651a4d342091a5f2e91541c4bee", "is_disabled": 0, "is_reserved": 0, "bike_id": "00ca0651a4d342091a5f2e91541c4bee", "fusion_lon": 0.0, "type": "electric_bike"}, {"rental_uris": {"ios": "https://dc.lft.to/lastmile_qr_scan", "android": "https://dc.lft.to/lastmile_qr_scan"}, "lat": 38.931932, "lon": -77.02396116666667, "fusion_lat": 0.0, "name": "0b859cd97eb6b05d2ffce7a3dba69636", "is_disabled": 0, "is_reserved": 0, "bike_id": "0b859cd97eb6b05d2ffce7a3dba69636", "fusion_lon": 0.0, "type": "electric_scooter"}, {"rental_uris": {"ios": "https://dc.lft.to/lastmile_qr_scan", "android": "https://dc.lft.to/lastmile_qr_scan"}, "lat": 38.900628, "lon": -76.927424, "fusion_lat": 0.0, "name": "9b9e4c9bb9e7f353fb5bd8a89d6edd66", "is_disabled": 0, "is_reserved": 0, "bike_id": "9b9e4c9bb9e7f353fb5bd8a89d6edd66", "fusion_lon": 0.0, "type": "electric_scooter"}, {"rental_uris": {"ios": "https://dc.lft.to/lastmile_qr_scan", "android": "https://dc.lft.to/lastmile_qr_scan"}, "lat": 38.89974, "lon": -77.03165566666667, "fusion_lat": 0.0, "name": "5d30736f09da657ac486ba563d7e9993", "is_disabled": 0, "is_reserved": 0, "bike_id": "5d30736f09da657ac486ba563d7e9993", "fusion_lon": 0.0, "type": "electric_scooter"}, {"rental_uris": {"ios": "https://dc.lft.to/lastmile_qr_scan", "android": "https://dc.lft.to/lastmile_qr_scan"}, "lat": 38.91731566666667, "lon": -77.03200416666667, "fusion_lat": 0.0, "name": "35115fa49e0e475761f52fc417163fac", "is_disabled": 0, "is_reserved": 0, "bike_id": "35115fa49e0e475761f52fc417163fac", "fusion_lon": 0.0, "type": "electric_scooter"}, {"rental_uris": {"ios": "https://dc.lft.to/lastmile_qr_scan", "android": "https://dc.lft.to/lastmile_qr_scan"}, "lat": 38.91704383333333, "lon": -77.0347185, "fusion_lat": 0.0, "name": "99d01a32cc3451b005b2a5f149ccd49c", "is_disabled": 0, "is_reserved": 0, "bike_id": "99d01a32cc3451b005b2a5f149ccd49c", "fusion_lon": 0.0, "type": "electric_scooter"}, {"rental_uris": {"ios": "https://dc.lft.to/lastmile_qr_scan", "android": "https://dc.lft.to/lastmile_qr_scan"}, "lat": 38.921942, "lon": -77.03407683333333, "fusion_lat": 0.0, "name": "993dbf3f1d1f833b9ebb9eac1d9e09bb", "is_disabled": 0, "is_reserved": 0, "bike_id": "993dbf3f1d1f833b9ebb9eac1d9e09bb", "fusion_lon": 0.0, "type": "electric_scooter"}, {"rental_uris": {"ios": "https://dc.lft.to/lastmile_qr_scan", "android": "https://dc.lft.to/lastmile_qr_scan"}, "lat": 38.9162765, "lon": -77.03043566666666, "fusion_lat": 0.0, "name": "21f0e7be60a1166ebfa799b8ce0e4e5f", "is_disabled": 0, "is_reserved": 0, "bike_id": "21f0e7be60a1166ebfa799b8ce0e4e5f", "fusion_lon": 0.0, "type": "electric_scooter"}, {"rental_uris": {"ios": "https://dc.lft.to/lastmile_qr_scan", "android": "https://dc.lft.to/lastmile_qr_scan"}, "lat": 38.9102785, "lon": -77.027628, "fusion_lat": 0.0, "name": "1ad932bbdb1cb4a8f453098bb2433f66", "is_disabled": 0, "is_reserved": 0, "bike_id": "1ad932bbdb1cb4a8f453098bb2433f66", "fusion_lon": 0.0, "type": "electric_scooter"}, {"rental_uris": {"ios": "https://dc.lft.to/lastmile_qr_scan", "android": "https://dc.lft.to/lastmile_qr_scan"}, "lat": 38.8738565, "lon": -77.00069416666666, "fusion_lat": 0.0, "name": "e12ffe0d9e7774f816a689d2ec39db5f", "is_disabled": 0, "is_reserved": 0, "bike_id": "e12ffe0d9e7774f816a689d2ec39db5f", "fusion_lon": 0.0, "type": "electric_scooter"}, {"rental_uris": {"ios": "https://dc.lft.to/lastmile_qr_scan", "android": "https://dc.lft.to/lastmile_qr_scan"}, "lat": 38.9064285, "lon": -77.016359, "fusion_lat": 0.0, "name": "de3796e8e1e90a322a646fc85030643e", "is_disabled": 0, "is_reserved": 0, "bike_id": "de3796e8e1e90a322a646fc85030643e", "fusion_lon": 0.0, "type": "electric_scooter"}, {"rental_uris": {"ios": "https://dc.lft.to/lastmile_qr_scan", "android": "https://dc.lft.to/lastmile_qr_scan"}, "lat": 38.909657833333334, "lon": -77.04504433333334, "fusion_lat": 0.0, "name": "ce386317a43f6cbb25411c831b227c94", "is_disabled": 0, "is_reserved": 0, "bike_id": "ce386317a43f6cbb25411c831b227c94", "fusion_lon": 0.0, "type": "electric_scooter"}, {"rental_uris": {"ios": "https://dc.lft.to/lastmile_qr_scan", "android": "https://dc.lft.to/lastmile_qr_scan"}, "lat": 38.892384166666666, "lon": -77.03348033333333, "fusion_lat": 0.0, "name": "0f5f6c59a68c641b82bc4b18e5bce4d6", "is_disabled": 0, "is_reserved": 0, "bike_id": "0f5f6c59a68c641b82bc4b18e5bce4d6", "fusion_lon": 0.0, "type": "electric_scooter"}, {"rental_uris": {"ios": "https://dc.lft.to/lastmile_qr_scan", "android": "https://dc.lft.to/lastmile_qr_scan"}, "lat": 38.92538033333334, "lon": -77.02135983333334, "fusion_lat": 0.0, "name": "ceaa54a7dad87e3ea4f2345d63f0cc28", "is_disabled": 0, "is_reserved": 0, "bike_id": "ceaa54a7dad87e3ea4f2345d63f0cc28", "fusion_lon": 0.0, "type": "electric_scooter"}, {"rental_uris": {"ios": "https://dc.lft.to/lastmile_qr_scan", "android": "https://dc.lft.to/lastmile_qr_scan"}, "lat": 38.922231833333335, "lon": -77.03895683333333, "fusion_lat": 0.0, "name": "3900d050db2e6399824ebf1687810df9", "is_disabled": 0, "is_reserved": 0, "bike_id": "3900d050db2e6399824ebf1687810df9", "fusion_lon": 0.0, "type": "electric_scooter"}, {"rental_uris": {"ios": "https://dc.lft.to/lastmile_qr_scan", "android": "https://dc.lft.to/lastmile_qr_scan"}, "lat": 38.9001175, "lon": -77.01190483333333, "fusion_lat": 0.0, "name": "5e8ef8ec899841644c55f6e7be1fc753", "is_disabled": 0, "is_reserved": 0, "bike_id": "5e8ef8ec899841644c55f6e7be1fc753", "fusion_lon": 0.0, "type": "electric_scooter"}, {"rental_uris": {"ios": "https://dc.lft.to/lastmile_qr_scan", "android": "https://dc.lft.to/lastmile_qr_scan"}, "lat": 38.906854, "lon": -77.02396433333334, "fusion_lat": 0.0, "name": "db7e953fa87d8b9cfb2d779f31fab123", "is_disabled": 0, "is_reserved": 0, "bike_id": "db7e953fa87d8b9cfb2d779f31fab123", "fusion_lon": 0.0, "type": "electric_scooter"}, {"rental_uris": {"ios": "https://dc.lft.to/lastmile_qr_scan", "android": "https://dc.lft.to/lastmile_qr_scan"}, "lat": 38.932285, "lon": -77.03865316666666, "fusion_lat": 0.0, "name": "ba7a43136d68c343a15709735ada2b7a", "is_disabled": 0, "is_reserved": 0, "bike_id": "ba7a43136d68c343a15709735ada2b7a", "fusion_lon": 0.0, "type": "electric_scooter"}, {"rental_uris": {"ios": "https://dc.lft.to/lastmile_qr_scan", "android": "https://dc.lft.to/lastmile_qr_scan"}, "lat": 38.866831166666664, "lon": -76.985712, "fusion_lat": 0.0, "name": "130fd3fc3a5f9d8aef1b9b00c3cf7253", "is_disabled": 0, "is_reserved": 0, "bike_id": "130fd3fc3a5f9d8aef1b9b00c3cf7253", "fusion_lon": 0.0, "type": "electric_scooter"}, {"rental_uris": {"ios": "https://dc.lft.to/lastmile_qr_scan", "android": "https://dc.lft.to/lastmile_qr_scan"}, "lat": 38.9226705, "lon": -77.036758, "fusion_lat": 0.0, "name": "093f1e9dde992614d09e0bbd7424d870", "is_disabled": 0, "is_reserved": 0, "bike_id": "093f1e9dde992614d09e0bbd7424d870", "fusion_lon": 0.0, "type": "electric_scooter"}, {"rental_uris": {"ios": "https://dc.lft.to/lastmile_qr_scan", "android": "https://dc.lft.to/lastmile_qr_scan"}, "lat": 38.90017016666667, "lon": -77.02719683333333, "fusion_lat": 0.0, "name": "46960193a8617b5ecadb4af2e2b027f1", "is_disabled": 0, "is_reserved": 0, "bike_id": "46960193a8617b5ecadb4af2e2b027f1", "fusion_lon": 0.0, "type": "electric_scooter"}, {"rental_uris": {"ios": "https://dc.lft.to/lastmile_qr_scan", "android": "https://dc.lft.to/lastmile_qr_scan"}, "lat": 38.8668735, "lon": -76.9857795, "fusion_lat": 0.0, "name": "9106cbbf16bacdeec25c049867108704", "is_disabled": 0, "is_reserved": 0, "bike_id": "9106cbbf16bacdeec25c049867108704", "fusion_lon": 0.0, "type": "electric_scooter"}, {"rental_uris": {"ios": "https://dc.lft.to/lastmile_qr_scan", "android": "https://dc.lft.to/lastmile_qr_scan"}, "lat": 38.93352733333333, "lon": -77.0620995, "fusion_lat": 0.0, "name": "5d62e14a313689384f283adda7dbe898", "is_disabled": 0, "is_reserved": 0, "bike_id": "5d62e14a313689384f283adda7dbe898", "fusion_lon": 0.0, "type": "electric_scooter"}, {"rental_uris": {"ios": "https://dc.lft.to/lastmile_qr_scan", "android": "https://dc.lft.to/lastmile_qr_scan"}, "lat": 38.91704216666667, "lon": -77.04089433333333, "fusion_lat": 0.0, "name": "d8c03b5ed4c027db4211232ed24888e6", "is_disabled": 0, "is_reserved": 0, "bike_id": "d8c03b5ed4c027db4211232ed24888e6", "fusion_lon": 0.0, "type": "electric_scooter"}, {"rental_uris": {"ios": "https://dc.lft.to/lastmile_qr_scan", "android": "https://dc.lft.to/lastmile_qr_scan"}, "lat": 38.871765333333336, "lon": -77.00682483333334, "fusion_lat": 0.0, "name": "93249372c157ae7fc38fe7cb197dd913", "is_disabled": 0, "is_reserved": 0, "bike_id": "93249372c157ae7fc38fe7cb197dd913", "fusion_lon": 0.0, "type": "electric_scooter"}, {"rental_uris": {"ios": "https://dc.lft.to/lastmile_qr_scan", "android": "https://dc.lft.to/lastmile_qr_scan"}, "lat": 38.908199333333336, "lon": -76.997104, "fusion_lat": 0.0, "name": "bc39f237d16f2732b9293d1133ac1d00", "is_disabled": 0, "is_reserved": 0, "bike_id": "bc39f237d16f2732b9293d1133ac1d00", "fusion_lon": 0.0, "type": "electric_scooter"}, {"rental_uris": {"ios": "https://dc.lft.to/lastmile_qr_scan", "android": "https://dc.lft.to/lastmile_qr_scan"}, "lat": 38.9112455, "lon": -77.021776, "fusion_lat": 0.0, "name": "c1773a16ad210d6b71afdb48004bc490", "is_disabled": 0, "is_reserved": 0, "bike_id": "c1773a16ad210d6b71afdb48004bc490", "fusion_lon": 0.0, "type": "electric_scooter"}, {"rental_uris": {"ios": "https://dc.lft.to/lastmile_qr_scan", "android": "https://dc.lft.to/lastmile_qr_scan"}, "lat": 38.904644, "lon": -77.01937766666667, "fusion_lat": 0.0, "name": "a6f2c55cdb7f8b3cf0c0e13a5e63a189", "is_disabled": 0, "is_reserved": 0, "bike_id": "a6f2c55cdb7f8b3cf0c0e13a5e63a189", "fusion_lon": 0.0, "type": "electric_scooter"}, {"rental_uris": {"ios": "https://dc.lft.to/lastmile_qr_scan", "android": "https://dc.lft.to/lastmile_qr_scan"}, "lat": 38.92871983333333, "lon": -76.9902635, "fusion_lat": 0.0, "name": "22495bd16f6597deb6e53ab8a568d443", "is_disabled": 0, "is_reserved": 0, "bike_id": "22495bd16f6597deb6e53ab8a568d443", "fusion_lon": 0.0, "type": "electric_scooter"}, {"rental_uris": {"ios": "https://dc.lft.to/lastmile_qr_scan", "android": "https://dc.lft.to/lastmile_qr_scan"}, "lat": 38.917002333333336, "lon": -77.037746, "fusion_lat": 0.0, "name": "49b49aff021c6aa743542ab9428ce5a2", "is_disabled": 0, "is_reserved": 0, "bike_id": "49b49aff021c6aa743542ab9428ce5a2", "fusion_lon": 0.0, "type": "electric_scooter"}, {"rental_uris": {"ios": "https://dc.lft.to/lastmile_qr_scan", "android": "https://dc.lft.to/lastmile_qr_scan"}, "lat": 38.917035166666665, "lon": -77.024119, "fusion_lat": 0.0, "name": "d2944ca2dfd21cf85eedc451d8f405ec", "is_disabled": 0, "is_reserved": 0, "bike_id": "d2944ca2dfd21cf85eedc451d8f405ec", "fusion_lon": 0.0, "type": "electric_scooter"}, {"rental_uris": {"ios": "https://dc.lft.to/lastmile_qr_scan", "android": "https://dc.lft.to/lastmile_qr_scan"}, "lat": 38.91703866666667, "lon": -77.02413283333334, "fusion_lat": 0.0, "name": "af2b3e197ef5c99008be33321e2c2f7f", "is_disabled": 0, "is_reserved": 0, "bike_id": "af2b3e197ef5c99008be33321e2c2f7f", "fusion_lon": 0.0, "type": "electric_scooter"}, {"rental_uris": {"ios": "https://dc.lft.to/lastmile_qr_scan", "android": "https://dc.lft.to/lastmile_qr_scan"}, "lat": 38.88711166666667, "lon": -77.017744, "fusion_lat": 0.0, "name": "74c285bfaa5ac6f12dfc0929dc135342", "is_disabled": 0, "is_reserved": 0, "bike_id": "74c285bfaa5ac6f12dfc0929dc135342", "fusion_lon": 0.0, "type": "electric_scooter"}, {"rental_uris": {"ios": "https://dc.lft.to/lastmile_qr_scan", "android": "https://dc.lft.to/lastmile_qr_scan"}, "lat": 38.905889, "lon": -77.02196366666666, "fusion_lat": 0.0, "name": "ad37c7c84271bdabed9038d74b195241", "is_disabled": 0, "is_reserved": 0, "bike_id": "ad37c7c84271bdabed9038d74b195241", "fusion_lon": 0.0, "type": "electric_scooter"}, {"rental_uris": {"ios": "https://dc.lft.to/lastmile_qr_scan", "android": "https://dc.lft.to/lastmile_qr_scan"}, "lat": 39.013687, "lon": -76.92133333333334, "fusion_lat": 0.0, "name": "b30ff9be4c3a4732d6761ae90d42aeb6", "is_disabled": 0, "is_reserved": 0, "bike_id": "b30ff9be4c3a4732d6761ae90d42aeb6", "fusion_lon": 0.0, "type": "electric_bike"}, {"rental_uris": {"ios": "https://dc.lft.to/lastmile_qr_scan", "android": "https://dc.lft.to/lastmile_qr_scan"}, "lat": 38.9181745, "lon": -77.04155266666666, "fusion_lat": 0.0, "name": "4aa9f8ed97d14403eb4cb024cd34fc55", "is_disabled": 0, "is_reserved": 0, "bike_id": "4aa9f8ed97d14403eb4cb024cd34fc55", "fusion_lon": 0.0, "type": "electric_scooter"}, {"rental_uris": {"ios": "https://dc.lft.to/lastmile_qr_scan", "android": "https://dc.lft.to/lastmile_qr_scan"}, "lat": 38.91770066666667, "lon": -77.0295275, "fusion_lat": 0.0, "name": "e7e104c228de4200c16aabbbcef94b27", "is_disabled": 0, "is_reserved": 0, "bike_id": "e7e104c228de4200c16aabbbcef94b27", "fusion_lon": 0.0, "type": "electric_scooter"}, {"rental_uris": {"ios": "https://dc.lft.to/lastmile_qr_scan", "android": "https://dc.lft.to/lastmile_qr_scan"}, "lat": 38.91418866666667, "lon": -77.0198845, "fusion_lat": 0.0, "name": "c2c93321025b512ea93a739b7a264f0d", "is_disabled": 0, "is_reserved": 0, "bike_id": "c2c93321025b512ea93a739b7a264f0d", "fusion_lon": 0.0, "type": "electric_scooter"}, {"rental_uris": {"ios": "https://dc.lft.to/lastmile_qr_scan", "android": "https://dc.lft.to/lastmile_qr_scan"}, "lat": 38.94087783333333, "lon": -77.02718316666666, "fusion_lat": 0.0, "name": "d32c10d27141b517a27b3eefa3725d4c", "is_disabled": 0, "is_reserved": 0, "bike_id": "d32c10d27141b517a27b3eefa3725d4c", "fusion_lon": 0.0, "type": "electric_scooter"}, {"rental_uris": {"ios": "https://dc.lft.to/lastmile_qr_scan", "android": "https://dc.lft.to/lastmile_qr_scan"}, "lat": 38.9052605, "lon": -77.04751316666666, "fusion_lat": 0.0, "name": "1ff1904f664bd77f0b39320de4b9d28e", "is_disabled": 0, "is_reserved": 0, "bike_id": "1ff1904f664bd77f0b39320de4b9d28e", "fusion_lon": 0.0, "type": "electric_scooter"}, {"rental_uris": {"ios": "https://dc.lft.to/lastmile_qr_scan", "android": "https://dc.lft.to/lastmile_qr_scan"}, "lat": 38.90659516666667, "lon": -77.00581533333333, "fusion_lat": 0.0, "name": "90bc6a77edc850b49beb32ddbf6d4fef", "is_disabled": 0, "is_reserved": 0, "bike_id": "90bc6a77edc850b49beb32ddbf6d4fef", "fusion_lon": 0.0, "type": "electric_scooter"}, {"rental_uris": {"ios": "https://dc.lft.to/lastmile_qr_scan", "android": "https://dc.lft.to/lastmile_qr_scan"}, "lat": 38.924281666666666, "lon": -77.01964916666667, "fusion_lat": 0.0, "name": "b43c981194512928a842722c621d971d", "is_disabled": 0, "is_reserved": 0, "bike_id": "b43c981194512928a842722c621d971d", "fusion_lon": 0.0, "type": "electric_scooter"}, {"rental_uris": {"ios": "https://dc.lft.to/lastmile_qr_scan", "android": "https://dc.lft.to/lastmile_qr_scan"}, "lat": 38.885418666666666, "lon": -77.00585566666666, "fusion_lat": 0.0, "name": "5eae0fc441110fecd3703d5aed70b870", "is_disabled": 0, "is_reserved": 0, "bike_id": "5eae0fc441110fecd3703d5aed70b870", "fusion_lon": 0.0, "type": "electric_scooter"}, {"rental_uris": {"ios": "https://dc.lft.to/lastmile_qr_scan", "android": "https://dc.lft.to/lastmile_qr_scan"}, "lat": 38.90307816666667, "lon": -77.0487285, "fusion_lat": 0.0, "name": "ae6ff588cbca92b1f4f916a06cae24fc", "is_disabled": 0, "is_reserved": 0, "bike_id": "ae6ff588cbca92b1f4f916a06cae24fc", "fusion_lon": 0.0, "type": "electric_scooter"}, {"rental_uris": {"ios": "https://dc.lft.to/lastmile_qr_scan", "android": "https://dc.lft.to/lastmile_qr_scan"}, "lat": 38.902477166666664, "lon": -77.03191133333333, "fusion_lat": 0.0, "name": "74351fa91fadece51d6da6f56d440dcf", "is_disabled": 0, "is_reserved": 0, "bike_id": "74351fa91fadece51d6da6f56d440dcf", "fusion_lon": 0.0, "type": "electric_scooter"}, {"rental_uris": {"ios": "https://dc.lft.to/lastmile_qr_scan", "android": "https://dc.lft.to/lastmile_qr_scan"}, "lat": 38.904094666666666, "lon": -76.9733275, "fusion_lat": 0.0, "name": "65183fc23910c7cc60139b58a29230ab", "is_disabled": 0, "is_reserved": 0, "bike_id": "65183fc23910c7cc60139b58a29230ab", "fusion_lon": 0.0, "type": "electric_scooter"}, {"rental_uris": {"ios": "https://dc.lft.to/lastmile_qr_scan", "android": "https://dc.lft.to/lastmile_qr_scan"}, "lat": 38.9103525, "lon": -76.985559, "fusion_lat": 0.0, "name": "3feb4b6ba0c68e3e7dd6c2ea76fe585b", "is_disabled": 0, "is_reserved": 0, "bike_id": "3feb4b6ba0c68e3e7dd6c2ea76fe585b", "fusion_lon": 0.0, "type": "electric_scooter"}, {"rental_uris": {"ios": "https://dc.lft.to/lastmile_qr_scan", "android": "https://dc.lft.to/lastmile_qr_scan"}, "lat": 38.90524083333333, "lon": -77.04892583333333, "fusion_lat": 0.0, "name": "d7950317faaa191e4933420b157d9230", "is_disabled": 0, "is_reserved": 0, "bike_id": "d7950317faaa191e4933420b157d9230", "fusion_lon": 0.0, "type": "electric_scooter"}, {"rental_uris": {"ios": "https://dc.lft.to/lastmile_qr_scan", "android": "https://dc.lft.to/lastmile_qr_scan"}, "lat": 38.901926, "lon": -77.0129785, "fusion_lat": 0.0, "name": "b1af6d5ade783dacd9e8084552c0a911", "is_disabled": 0, "is_reserved": 0, "bike_id": "b1af6d5ade783dacd9e8084552c0a911", "fusion_lon": 0.0, "type": "electric_scooter"}, {"rental_uris": {"ios": "https://dc.lft.to/lastmile_qr_scan", "android": "https://dc.lft.to/lastmile_qr_scan"}, "lat": 38.89974466666666, "lon": -77.02251633333333, "fusion_lat": 0.0, "name": "adf14b2dac15d272c97e327bc9e4a594", "is_disabled": 0, "is_reserved": 0, "bike_id": "adf14b2dac15d272c97e327bc9e4a594", "fusion_lon": 0.0, "type": "electric_scooter"}, {"rental_uris": {"ios": "https://dc.lft.to/lastmile_qr_scan", "android": "https://dc.lft.to/lastmile_qr_scan"}, "lat": 38.91416316666667, "lon": -77.02209816666667, "fusion_lat": 0.0, "name": "b461f7d36d84030c0e0a3a6a29d23b16", "is_disabled": 0, "is_reserved": 0, "bike_id": "b461f7d36d84030c0e0a3a6a29d23b16", "fusion_lon": 0.0, "type": "electric_scooter"}, {"rental_uris": {"ios": "https://dc.lft.to/lastmile_qr_scan", "android": "https://dc.lft.to/lastmile_qr_scan"}, "lat": 38.866506666666666, "lon": -76.9886255, "fusion_lat": 0.0, "name": "db3ee697689849e91a95c321f4b3cc15", "is_disabled": 0, "is_reserved": 0, "bike_id": "db3ee697689849e91a95c321f4b3cc15", "fusion_lon": 0.0, "type": "electric_scooter"}, {"rental_uris": {"ios": "https://dc.lft.to/lastmile_qr_scan", "android": "https://dc.lft.to/lastmile_qr_scan"}, "lat": 38.910494, "lon": -77.043746, "fusion_lat": 0.0, "name": "55370ffe8427c3cade46bdb568824c92", "is_disabled": 0, "is_reserved": 0, "bike_id": "55370ffe8427c3cade46bdb568824c92", "fusion_lon": 0.0, "type": "electric_scooter"}, {"rental_uris": {"ios": "https://dc.lft.to/lastmile_qr_scan", "android": "https://dc.lft.to/lastmile_qr_scan"}, "lat": 38.915021833333334, "lon": -77.017747, "fusion_lat": 0.0, "name": "700ee5660ee9cf71d29b945f49be982f", "is_disabled": 0, "is_reserved": 0, "bike_id": "700ee5660ee9cf71d29b945f49be982f", "fusion_lon": 0.0, "type": "electric_scooter"}, {"rental_uris": {"ios": "https://dc.lft.to/lastmile_qr_scan", "android": "https://dc.lft.to/lastmile_qr_scan"}, "lat": 38.9054495, "lon": -77.02835333333333, "fusion_lat": 0.0, "name": "9015b95a69e821285aa4f38234c7c78c", "is_disabled": 0, "is_reserved": 0, "bike_id": "9015b95a69e821285aa4f38234c7c78c", "fusion_lon": 0.0, "type": "electric_scooter"}, {"rental_uris": {"ios": "https://dc.lft.to/lastmile_qr_scan", "android": "https://dc.lft.to/lastmile_qr_scan"}, "lat": 38.94732716666667, "lon": -76.9958365, "fusion_lat": 0.0, "name": "b80480f4f2eff660fccc4fe5d57215d0", "is_disabled": 0, "is_reserved": 0, "bike_id": "b80480f4f2eff660fccc4fe5d57215d0", "fusion_lon": 0.0, "type": "electric_bike"}, {"rental_uris": {"ios": "https://dc.lft.to/lastmile_qr_scan", "android": "https://dc.lft.to/lastmile_qr_scan"}, "lat": 38.90057616666667, "lon": -77.04887616666667, "fusion_lat": 0.0, "name": "ffaae9811bc3283181b508523cbc7a28", "is_disabled": 0, "is_reserved": 0, "bike_id": "ffaae9811bc3283181b508523cbc7a28", "fusion_lon": 0.0, "type": "electric_scooter"}, {"rental_uris": {"ios": "https://dc.lft.to/lastmile_qr_scan", "android": "https://dc.lft.to/lastmile_qr_scan"}, "lat": 38.9142135, "lon": -77.02408066666666, "fusion_lat": 0.0, "name": "d00ad81848ec93d42ff4bc354a15657c", "is_disabled": 0, "is_reserved": 0, "bike_id": "d00ad81848ec93d42ff4bc354a15657c", "fusion_lon": 0.0, "type": "electric_scooter"}, {"rental_uris": {"ios": "https://dc.lft.to/lastmile_qr_scan", "android": "https://dc.lft.to/lastmile_qr_scan"}, "lat": 38.90209216666667, "lon": -76.97411, "fusion_lat": 0.0, "name": "d69f914f1af1b56d912a0fb4c52413c1", "is_disabled": 0, "is_reserved": 0, "bike_id": "d69f914f1af1b56d912a0fb4c52413c1", "fusion_lon": 0.0, "type": "electric_bike"}, {"rental_uris": {"ios": "https://dc.lft.to/lastmile_qr_scan", "android": "https://dc.lft.to/lastmile_qr_scan"}, "lat": 38.924465166666664, "lon": -77.22551166666666, "fusion_lat": 0.0, "name": "a8b6f0c1e263163f3793ba9cd70a51ae", "is_disabled": 0, "is_reserved": 0, "bike_id": "a8b6f0c1e263163f3793ba9cd70a51ae", "fusion_lon": 0.0, "type": "electric_bike"}, {"rental_uris": {"ios": "https://dc.lft.to/lastmile_qr_scan", "android": "https://dc.lft.to/lastmile_qr_scan"}, "lat": 38.9067815, "lon": -77.02384566666667, "fusion_lat": 0.0, "name": "8fc94e9bbd09cf54e689c2e63c1de83c", "is_disabled": 0, "is_reserved": 0, "bike_id": "8fc94e9bbd09cf54e689c2e63c1de83c", "fusion_lon": 0.0, "type": "electric_scooter"}, {"rental_uris": {"ios": "https://dc.lft.to/lastmile_qr_scan", "android": "https://dc.lft.to/lastmile_qr_scan"}, "lat": 38.90195033333333, "lon": -77.01298916666667, "fusion_lat": 0.0, "name": "21c114863f2ecc1aaaa6adbc3fe53733", "is_disabled": 0, "is_reserved": 0, "bike_id": "21c114863f2ecc1aaaa6adbc3fe53733", "fusion_lon": 0.0, "type": "electric_scooter"}, {"rental_uris": {"ios": "https://dc.lft.to/lastmile_qr_scan", "android": "https://dc.lft.to/lastmile_qr_scan"}, "lat": 38.903713333333336, "lon": -77.0294215, "fusion_lat": 0.0, "name": "f806d4208a882925506778885f4d2c09", "is_disabled": 0, "is_reserved": 0, "bike_id": "f806d4208a882925506778885f4d2c09", "fusion_lon": 0.0, "type": "electric_scooter"}, {"rental_uris": {"ios": "https://dc.lft.to/lastmile_qr_scan", "android": "https://dc.lft.to/lastmile_qr_scan"}, "lat": 38.927311333333336, "lon": -77.00561716666667, "fusion_lat": 0.0, "name": "91612ae505f999bcf45e2d3901a2b262", "is_disabled": 0, "is_reserved": 0, "bike_id": "91612ae505f999bcf45e2d3901a2b262", "fusion_lon": 0.0, "type": "electric_scooter"}, {"rental_uris": {"ios": "https://dc.lft.to/lastmile_qr_scan", "android": "https://dc.lft.to/lastmile_qr_scan"}, "lat": 38.90514066666667, "lon": -77.04167383333333, "fusion_lat": 0.0, "name": "307ff4e0fab93c8954c403d947b7a43a", "is_disabled": 0, "is_reserved": 0, "bike_id": "307ff4e0fab93c8954c403d947b7a43a", "fusion_lon": 0.0, "type": "electric_scooter"}, {"rental_uris": {"ios": "https://dc.lft.to/lastmile_qr_scan", "android": "https://dc.lft.to/lastmile_qr_scan"}, "lat": 38.91681416666667, "lon": -77.02955, "fusion_lat": 0.0, "name": "51e7743cb4d3768a369ff1a77b090def", "is_disabled": 0, "is_reserved": 0, "bike_id": "51e7743cb4d3768a369ff1a77b090def", "fusion_lon": 0.0, "type": "electric_scooter"}, {"rental_uris": {"ios": "https://dc.lft.to/lastmile_qr_scan", "android": "https://dc.lft.to/lastmile_qr_scan"}, "lat": 38.8973055, "lon": -77.02168716666667, "fusion_lat": 0.0, "name": "49dcfdb532c00cefa9d313e305357420", "is_disabled": 0, "is_reserved": 0, "bike_id": "49dcfdb532c00cefa9d313e305357420", "fusion_lon": 0.0, "type": "electric_scooter"}, {"rental_uris": {"ios": "https://dc.lft.to/lastmile_qr_scan", "android": "https://dc.lft.to/lastmile_qr_scan"}, "lat": 38.9147455, "lon": -77.04349833333333, "fusion_lat": 0.0, "name": "bab893fc666ca22f6994bb5ff71a3b46", "is_disabled": 0, "is_reserved": 0, "bike_id": "bab893fc666ca22f6994bb5ff71a3b46", "fusion_lon": 0.0, "type": "electric_scooter"}, {"rental_uris": {"ios": "https://dc.lft.to/lastmile_qr_scan", "android": "https://dc.lft.to/lastmile_qr_scan"}, "lat": 38.936718, "lon": -76.95207216666667, "fusion_lat": 0.0, "name": "a1ad69c405239825d3bafb25db774d7b", "is_disabled": 0, "is_reserved": 0, "bike_id": "a1ad69c405239825d3bafb25db774d7b", "fusion_lon": 0.0, "type": "electric_bike"}, {"rental_uris": {"ios": "https://dc.lft.to/lastmile_qr_scan", "android": "https://dc.lft.to/lastmile_qr_scan"}, "lat": 38.94201566666667, "lon": -77.02435733333333, "fusion_lat": 0.0, "name": "da3d99aebb97f3e14d0ec3bb25c2c2e9", "is_disabled": 0, "is_reserved": 0, "bike_id": "da3d99aebb97f3e14d0ec3bb25c2c2e9", "fusion_lon": 0.0, "type": "electric_scooter"}, {"rental_uris": {"ios": "https://dc.lft.to/lastmile_qr_scan", "android": "https://dc.lft.to/lastmile_qr_scan"}, "lat": 38.9264325, "lon": -76.98423583333333, "fusion_lat": 0.0, "name": "c3f41c7a872288a1bf51fc2b710e36dc", "is_disabled": 0, "is_reserved": 0, "bike_id": "c3f41c7a872288a1bf51fc2b710e36dc", "fusion_lon": 0.0, "type": "electric_bike"}, {"rental_uris": {"ios": "https://dc.lft.to/lastmile_qr_scan", "android": "https://dc.lft.to/lastmile_qr_scan"}, "lat": 38.89507616666667, "lon": -77.00338683333334, "fusion_lat": 0.0, "name": "670d24374ac8149675d213233ed0083c", "is_disabled": 0, "is_reserved": 0, "bike_id": "670d24374ac8149675d213233ed0083c", "fusion_lon": 0.0, "type": "electric_scooter"}, {"rental_uris": {"ios": "https://dc.lft.to/lastmile_qr_scan", "android": "https://dc.lft.to/lastmile_qr_scan"}, "lat": 38.91294883333333, "lon": -77.02164383333333, "fusion_lat": 0.0, "name": "a2f2a22c1d9695117f373c6ddf79a4df", "is_disabled": 0, "is_reserved": 0, "bike_id": "a2f2a22c1d9695117f373c6ddf79a4df", "fusion_lon": 0.0, "type": "electric_scooter"}, {"rental_uris": {"ios": "https://dc.lft.to/lastmile_qr_scan", "android": "https://dc.lft.to/lastmile_qr_scan"}, "lat": 38.936090166666666, "lon": -77.05892083333333, "fusion_lat": 0.0, "name": "fa19ec0bfce2b38728aa8c034de80f44", "is_disabled": 0, "is_reserved": 0, "bike_id": "fa19ec0bfce2b38728aa8c034de80f44", "fusion_lon": 0.0, "type": "electric_scooter"}, {"rental_uris": {"ios": "https://dc.lft.to/lastmile_qr_scan", "android": "https://dc.lft.to/lastmile_qr_scan"}, "lat": 38.90383533333333, "lon": -77.03657666666666, "fusion_lat": 0.0, "name": "114ef13dbea4b78c54857de531c376b7", "is_disabled": 0, "is_reserved": 0, "bike_id": "114ef13dbea4b78c54857de531c376b7", "fusion_lon": 0.0, "type": "electric_scooter"}, {"rental_uris": {"ios": "https://dc.lft.to/lastmile_qr_scan", "android": "https://dc.lft.to/lastmile_qr_scan"}, "lat": 38.86670433333333, "lon": -76.985365, "fusion_lat": 0.0, "name": "6c4f4a959ab69b5256c23c8833f789bf", "is_disabled": 0, "is_reserved": 0, "bike_id": "6c4f4a959ab69b5256c23c8833f789bf", "fusion_lon": 0.0, "type": "electric_scooter"}, {"rental_uris": {"ios": "https://dc.lft.to/lastmile_qr_scan", "android": "https://dc.lft.to/lastmile_qr_scan"}, "lat": 38.90535233333333, "lon": -77.04347233333333, "fusion_lat": 0.0, "name": "8eb7ad147b59ba7541d67e5fad74db43", "is_disabled": 0, "is_reserved": 0, "bike_id": "8eb7ad147b59ba7541d67e5fad74db43", "fusion_lon": 0.0, "type": "electric_scooter"}, {"rental_uris": {"ios": "https://dc.lft.to/lastmile_qr_scan", "android": "https://dc.lft.to/lastmile_qr_scan"}, "lat": 38.901639, "lon": -76.93075216666666, "fusion_lat": 0.0, "name": "5e274d1036970990fcaa331eb785a2f5", "is_disabled": 0, "is_reserved": 0, "bike_id": "5e274d1036970990fcaa331eb785a2f5", "fusion_lon": 0.0, "type": "electric_scooter"}, {"rental_uris": {"ios": "https://dc.lft.to/lastmile_qr_scan", "android": "https://dc.lft.to/lastmile_qr_scan"}, "lat": 38.914716, "lon": -77.04586916666666, "fusion_lat": 0.0, "name": "5154ad523fc44ae40be6fa8336a97853", "is_disabled": 0, "is_reserved": 0, "bike_id": "5154ad523fc44ae40be6fa8336a97853", "fusion_lon": 0.0, "type": "electric_scooter"}, {"rental_uris": {"ios": "https://dc.lft.to/lastmile_qr_scan", "android": "https://dc.lft.to/lastmile_qr_scan"}, "lat": 38.918038333333335, "lon": -77.02705116666667, "fusion_lat": 0.0, "name": "1efa89fe8cfd8ba753fc62543dace3dd", "is_disabled": 0, "is_reserved": 0, "bike_id": "1efa89fe8cfd8ba753fc62543dace3dd", "fusion_lon": 0.0, "type": "electric_scooter"}, {"rental_uris": {"ios": "https://dc.lft.to/lastmile_qr_scan", "android": "https://dc.lft.to/lastmile_qr_scan"}, "lat": 38.965004, "lon": -77.00201, "fusion_lat": 0.0, "name": "7ab1d12413e7afe62b49b07e1b6db588", "is_disabled": 0, "is_reserved": 0, "bike_id": "7ab1d12413e7afe62b49b07e1b6db588", "fusion_lon": 0.0, "type": "electric_scooter"}, {"rental_uris": {"ios": "https://dc.lft.to/lastmile_qr_scan", "android": "https://dc.lft.to/lastmile_qr_scan"}, "lat": 38.89944666666667, "lon": -77.04492616666667, "fusion_lat": 0.0, "name": "d0e1bbd5367e51cf2f8c7b5759d86058", "is_disabled": 0, "is_reserved": 0, "bike_id": "d0e1bbd5367e51cf2f8c7b5759d86058", "fusion_lon": 0.0, "type": "electric_scooter"}, {"rental_uris": {"ios": "https://dc.lft.to/lastmile_qr_scan", "android": "https://dc.lft.to/lastmile_qr_scan"}, "lat": 38.92165133333334, "lon": -77.03256866666666, "fusion_lat": 0.0, "name": "61b21083c065604dca7d1f3e5ff2708c", "is_disabled": 0, "is_reserved": 0, "bike_id": "61b21083c065604dca7d1f3e5ff2708c", "fusion_lon": 0.0, "type": "electric_scooter"}, {"rental_uris": {"ios": "https://dc.lft.to/lastmile_qr_scan", "android": "https://dc.lft.to/lastmile_qr_scan"}, "lat": 38.901619833333335, "lon": -77.05909533333333, "fusion_lat": 0.0, "name": "e830e6cc6bd0b564a84f51c3b0741c98", "is_disabled": 0, "is_reserved": 0, "bike_id": "e830e6cc6bd0b564a84f51c3b0741c98", "fusion_lon": 0.0, "type": "electric_scooter"}, {"rental_uris": {"ios": "https://dc.lft.to/lastmile_qr_scan", "android": "https://dc.lft.to/lastmile_qr_scan"}, "lat": 38.91756633333333, "lon": -77.04763083333333, "fusion_lat": 0.0, "name": "1acd61fa4cdc4897b308795884dfcb70", "is_disabled": 0, "is_reserved": 0, "bike_id": "1acd61fa4cdc4897b308795884dfcb70", "fusion_lon": 0.0, "type": "electric_scooter"}, {"rental_uris": {"ios": "https://dc.lft.to/lastmile_qr_scan", "android": "https://dc.lft.to/lastmile_qr_scan"}, "lat": 38.91057283333333, "lon": -77.02192716666667, "fusion_lat": 0.0, "name": "792967629785c2ab02f74c9670c847d4", "is_disabled": 0, "is_reserved": 0, "bike_id": "792967629785c2ab02f74c9670c847d4", "fusion_lon": 0.0, "type": "electric_scooter"}, {"rental_uris": {"ios": "https://dc.lft.to/lastmile_qr_scan", "android": "https://dc.lft.to/lastmile_qr_scan"}, "lat": 38.883847, "lon": -77.01567216666666, "fusion_lat": 0.0, "name": "92e6195571590e3ba72439b16ee8669f", "is_disabled": 0, "is_reserved": 0, "bike_id": "92e6195571590e3ba72439b16ee8669f", "fusion_lon": 0.0, "type": "electric_scooter"}, {"rental_uris": {"ios": "https://dc.lft.to/lastmile_qr_scan", "android": "https://dc.lft.to/lastmile_qr_scan"}, "lat": 38.9234405, "lon": -77.04122383333333, "fusion_lat": 0.0, "name": "a2e9f8c4691440fef1370226f6a04db7", "is_disabled": 0, "is_reserved": 0, "bike_id": "a2e9f8c4691440fef1370226f6a04db7", "fusion_lon": 0.0, "type": "electric_scooter"}, {"rental_uris": {"ios": "https://dc.lft.to/lastmile_qr_scan", "android": "https://dc.lft.to/lastmile_qr_scan"}, "lat": 38.907327333333335, "lon": -77.02373066666667, "fusion_lat": 0.0, "name": "564624005d7dcca198f453e11e80c045", "is_disabled": 0, "is_reserved": 0, "bike_id": "564624005d7dcca198f453e11e80c045", "fusion_lon": 0.0, "type": "electric_scooter"}, {"rental_uris": {"ios": "https://dc.lft.to/lastmile_qr_scan", "android": "https://dc.lft.to/lastmile_qr_scan"}, "lat": 38.8443255, "lon": -76.9987415, "fusion_lat": 0.0, "name": "5a1cd399bc7e3472411d7c415454d342", "is_disabled": 0, "is_reserved": 0, "bike_id": "5a1cd399bc7e3472411d7c415454d342", "fusion_lon": 0.0, "type": "electric_scooter"}, {"rental_uris": {"ios": "https://dc.lft.to/lastmile_qr_scan", "android": "https://dc.lft.to/lastmile_qr_scan"}, "lat": 38.9025105, "lon": -77.01856383333333, "fusion_lat": 0.0, "name": "bd7aed0dda802dfaf0ca14f01db017f0", "is_disabled": 0, "is_reserved": 0, "bike_id": "bd7aed0dda802dfaf0ca14f01db017f0", "fusion_lon": 0.0, "type": "electric_scooter"}, {"rental_uris": {"ios": "https://dc.lft.to/lastmile_qr_scan", "android": "https://dc.lft.to/lastmile_qr_scan"}, "lat": 38.902361666666664, "lon": -77.002, "fusion_lat": 0.0, "name": "702607598c5f32e9f8d12834f40b84af", "is_disabled": 0, "is_reserved": 0, "bike_id": "702607598c5f32e9f8d12834f40b84af", "fusion_lon": 0.0, "type": "electric_scooter"}, {"rental_uris": {"ios": "https://dc.lft.to/lastmile_qr_scan", "android": "https://dc.lft.to/lastmile_qr_scan"}, "lat": 38.926733, "lon": -77.02275433333334, "fusion_lat": 0.0, "name": "84d909abecc5f9bff90e12aa45fe95a4", "is_disabled": 0, "is_reserved": 0, "bike_id": "84d909abecc5f9bff90e12aa45fe95a4", "fusion_lon": 0.0, "type": "electric_scooter"}, {"rental_uris": {"ios": "https://dc.lft.to/lastmile_qr_scan", "android": "https://dc.lft.to/lastmile_qr_scan"}, "lat": 38.916852666666664, "lon": -77.0295425, "fusion_lat": 0.0, "name": "7fd52de53ed611635cbe93eb327dd7eb", "is_disabled": 0, "is_reserved": 0, "bike_id": "7fd52de53ed611635cbe93eb327dd7eb", "fusion_lon": 0.0, "type": "electric_scooter"}, {"rental_uris": {"ios": "https://dc.lft.to/lastmile_qr_scan", "android": "https://dc.lft.to/lastmile_qr_scan"}, "lat": 38.8724625, "lon": -76.9772285, "fusion_lat": 0.0, "name": "1aa3b68052ee3cd268c31ff5104ab1da", "is_disabled": 0, "is_reserved": 0, "bike_id": "1aa3b68052ee3cd268c31ff5104ab1da", "fusion_lon": 0.0, "type": "electric_scooter"}, {"rental_uris": {"ios": "https://dc.lft.to/lastmile_qr_scan", "android": "https://dc.lft.to/lastmile_qr_scan"},