{"data": {"bikes": [{"fusion_lat": 0.0, "name": "45ca9bc70a42b3d1868bd2c5624d997e", "is_disabled": 0, "rental_uris": {"android": "https://dc.lft.to/lastmile_qr_scan", "ios": "https://dc.lft.to/lastmile_qr_scan"}, "fusion_lon": 0.0, "lat": 38.912583833333336, "bike_id": "45ca9bc70a42b3d1868bd2c5624d997e", "type": "electric_scooter", "is_reserved": 0, "lon": -77.03863283333334}, {"fusion_lat": 0.0, "name": "596872d03ad273674c76968188801c87", "is_disabled": 0, "rental_uris": {"android": "https://dc.lft.to/lastmile_qr_scan", "ios": "https://dc.lft.to/lastmile_qr_scan"}, "fusion_lon": 0.0, "lat": 38.9236575, "bike_id": "596872d03ad273674c76968188801c87", "type": "electric_scooter", "is_reserved": 0, "lon": -77.05190333333333}, {"fusion_lat": 0.0, "name": "c36a37f423cf3b1cbf911127b3b0289c", "is_disabled": 0, "rental_uris": {"android": "https://dc.lft.to/lastmile_qr_scan", "ios": "https://dc.lft.to/lastmile_qr_scan"}, "fusion_lon": 0.0, "lat": 38.924746999999996, "bike_id": "c36a37f423cf3b1cbf911127b3b0289c", "type": "electric_scooter", "is_reserved": 0, "lon": -77.0309095}, {"fusion_lat": 0.0, "name": "d9dd855dcf6046626fe5eef26348bf57", "is_disabled": 0, "rental_uris": {"android": "https://dc.lft.to/lastmile_qr_scan", "ios": "https://dc.lft.to/lastmile_qr_scan"}, "fusion_lon": 0.0, "lat": 38.914985, "bike_id": "d9dd855dcf6046626fe5eef26348bf57", "type": "electric_scooter", "is_reserved": 0, "lon": -77.01219383333333}, {"fusion_lat": 0.0, "name": "d3d5f5c94342ca297bfebb4bde39a37b", "is_disabled": 0, "rental_uris": {"android": "https://dc.lft.to/lastmile_qr_scan", "ios": "https://dc.lft.to/lastmile_qr_scan"}, "fusion_lon": 0.0, "lat": 38.90731683333333, "bike_id": "d3d5f5c94342ca297bfebb4bde39a37b", "type": "electric_scooter", "is_reserved": 0, "lon": -77.0109605}, {"fusion_lat": 0.0, "name": "58f20de490f92806ebbb77a95c80a08e", "is_disabled": 0, "rental_uris": {"android": "https://dc.lft.to/lastmile_qr_scan", "ios": "https://dc.lft.to/lastmile_qr_scan"}, "fusion_lon": 0.0, "lat": 38.92045783333333, "bike_id": "58f20de490f92806ebbb77a95c80a08e", "type": "electric_scooter", "is_reserved": 0, "lon": -77.02445816666666}, {"fusion_lat": 0.0, "name": "192428be7e95a44d038ee4e73bbe4c74", "is_disabled": 0, "rental_uris": {"android": "https://dc.lft.to/lastmile_qr_scan", "ios": "https://dc.lft.to/lastmile_qr_scan"}, "fusion_lon": 0.0, "lat": 38.961195333333336, "bike_id": "192428be7e95a44d038ee4e73bbe4c74", "type": "electric_scooter", "is_reserved": 0, "lon": -77.027977}, {"fusion_lat": 0.0, "name": "715eb5e7f5a89138b1ac8aa8a0c7f6aa", "is_disabled": 0, "rental_uris": {"android": "https://dc.lft.to/lastmile_qr_scan", "ios": "https://dc.lft.to/lastmile_qr_scan"}, "fusion_lon": 0.0, "lat": 38.932247833333335, "bike_id": "715eb5e7f5a89138b1ac8aa8a0c7f6aa", "type": "electric_scooter", "is_reserved": 0, "lon": -76.99490316666666}, {"fusion_lat": 0.0, "name": "1455949131d35b9c624d77fb72a275e8", "is_disabled": 0, "rental_uris": {"android": "https://dc.lft.to/lastmile_qr_scan", "ios": "https://dc.lft.to/lastmile_qr_scan"}, "fusion_lon": 0.0, "lat": 38.93441816666667, "bike_id": "1455949131d35b9c624d77fb72a275e8", "type": "electric_scooter", "is_reserved": 0, "lon": -77.05773733333334}, {"fusion_lat": 0.0, "name": "ca918b5435abf25c54b930962eed0fcf", "is_disabled": 0, "rental_uris": {"android": "https://dc.lft.to/lastmile_qr_scan", "ios": "https://dc.lft.to/lastmile_qr_scan"}, "fusion_lon": 0.0, "lat": 38.90264916666667, "bike_id": "ca918b5435abf25c54b930962eed0fcf", "type": "electric_scooter", "is_reserved": 0, "lon": -77.0176275}, {"fusion_lat": 0.0, "name": "daef14bb6838576dd2f3929909366578", "is_disabled": 0, "rental_uris": {"android": "https://dc.lft.to/lastmile_qr_scan", "ios": "https://dc.lft.to/lastmile_qr_scan"}, "fusion_lon": 0.0, "lat": 38.924583166666665, "bike_id": "daef14bb6838576dd2f3929909366578", "type": "electric_scooter", "is_reserved": 0, "lon": -76.9710615}, {"fusion_lat": 0.0, "name": "b34923b263ddf5c530ca09ea40df0b86", "is_disabled": 0, "rental_uris": {"android": "https://dc.lft.to/lastmile_qr_scan", "ios": "https://dc.lft.to/lastmile_qr_scan"}, "fusion_lon": 0.0, "lat": 38.90701116666666, "bike_id": "b34923b263ddf5c530ca09ea40df0b86", "type": "electric_scooter", "is_reserved": 0, "lon": -76.98853983333333}, {"fusion_lat": 0.0, "name": "0457c721fe58cf0f4555065105e914c6", "is_disabled": 0, "rental_uris": {"android": "https://dc.lft.to/lastmile_qr_scan", "ios": "https://dc.lft.to/lastmile_qr_scan"}, "fusion_lon": 0.0, "lat": 38.92720416666667, "bike_id": "0457c721fe58cf0f4555065105e914c6", "type": "electric_scooter", "is_reserved": 0, "lon": -77.0209175}, {"fusion_lat": 0.0, "name": "81bededb16baa8b3ea7e1d8b4e944795", "is_disabled": 0, "rental_uris": {"android": "https://dc.lft.to/lastmile_qr_scan", "ios": "https://dc.lft.to/lastmile_qr_scan"}, "fusion_lon": 0.0, "lat": 38.887428, "bike_id": "81bededb16baa8b3ea7e1d8b4e944795", "type": "electric_scooter", "is_reserved": 0, "lon": -77.02130483333333}, {"fusion_lat": 0.0, "name": "c767ac8da4285be55855ee57e5fc4ac4", "is_disabled": 0, "rental_uris": {"android": "https://dc.lft.to/lastmile_qr_scan", "ios": "https://dc.lft.to/lastmile_qr_scan"}, "fusion_lon": 0.0, "lat": 38.9168885, "bike_id": "c767ac8da4285be55855ee57e5fc4ac4", "type": "electric_scooter", "is_reserved": 0, "lon": -77.02896566666666}, {"fusion_lat": 0.0, "name": "4b9a4eee2474d8f0395ee182a1a06767", "is_disabled": 0, "rental_uris": {"android": "https://dc.lft.to/lastmile_qr_scan", "ios": "https://dc.lft.to/lastmile_qr_scan"}, "fusion_lon": 0.0, "lat": 38.905168, "bike_id": "4b9a4eee2474d8f0395ee182a1a06767", "type": "electric_scooter", "is_reserved": 0, "lon": -77.0298285}, {"fusion_lat": 0.0, "name": "37b3041d817887672713aba43e5bc651", "is_disabled": 0, "rental_uris": {"android": "https://dc.lft.to/lastmile_qr_scan", "ios": "https://dc.lft.to/lastmile_qr_scan"}, "fusion_lon": 0.0, "lat": 38.916782, "bike_id": "37b3041d817887672713aba43e5bc651", "type": "electric_scooter", "is_reserved": 0, "lon": -77.02717016666666}, {"fusion_lat": 0.0, "name": "e1de08b44e36078000b3f5d9bd8b7d13", "is_disabled": 0, "rental_uris": {"android": "https://dc.lft.to/lastmile_qr_scan", "ios": "https://dc.lft.to/lastmile_qr_scan"}, "fusion_lon": 0.0, "lat": 38.90775133333333, "bike_id": "e1de08b44e36078000b3f5d9bd8b7d13", "type": "electric_scooter", "is_reserved": 0, "lon": -77.035612}, {"fusion_lat": 0.0, "name": "f7903febcbdb2fb1fb546c1347a478c2", "is_disabled": 0, "rental_uris": {"android": "https://dc.lft.to/lastmile_qr_scan", "ios": "https://dc.lft.to/lastmile_qr_scan"}, "fusion_lon": 0.0, "lat": 38.89963316666667, "bike_id": "f7903febcbdb2fb1fb546c1347a478c2", "type": "electric_scooter", "is_reserved": 0, "lon": -77.05109683333333}, {"fusion_lat": 0.0, "name": "c5d6d34a1717819a5274c4570a3e591d", "is_disabled": 0, "rental_uris": {"android": "https://dc.lft.to/lastmile_qr_scan", "ios": "https://dc.lft.to/lastmile_qr_scan"}, "fusion_lon": 0.0, "lat": 38.90601616666667, "bike_id": "c5d6d34a1717819a5274c4570a3e591d", "type": "electric_scooter", "is_reserved": 0, "lon": -77.06291866666666}, {"fusion_lat": 0.0, "name": "9fc6ff292039828d9dee7b2ddab012a2", "is_disabled": 0, "rental_uris": {"android": "https://dc.lft.to/lastmile_qr_scan", "ios": "https://dc.lft.to/lastmile_qr_scan"}, "fusion_lon": 0.0, "lat": 38.84427383333333, "bike_id": "9fc6ff292039828d9dee7b2ddab012a2", "type": "electric_scooter", "is_reserved": 0, "lon": -76.99780316666667}, {"fusion_lat": 0.0, "name": "d38d1e2058dd4a09de5bbbb154781344", "is_disabled": 0, "rental_uris": {"android": "https://dc.lft.to/lastmile_qr_scan", "ios": "https://dc.lft.to/lastmile_qr_scan"}, "fusion_lon": 0.0, "lat": 38.8838025, "bike_id": "d38d1e2058dd4a09de5bbbb154781344", "type": "electric_scooter", "is_reserved": 0, "lon": -77.00523216666667}, {"fusion_lat": 0.0, "name": "891bf159e7ed9995fe51f086b032d1ae", "is_disabled": 0, "rental_uris": {"android": "https://dc.lft.to/lastmile_qr_scan", "ios": "https://dc.lft.to/lastmile_qr_scan"}, "fusion_lon": 0.0, "lat": 38.85199383333333, "bike_id": "891bf159e7ed9995fe51f086b032d1ae", "type": "electric_bike", "is_reserved": 0, "lon": -76.9629125}, {"fusion_lat": 0.0, "name": "40baa3a4daf542e0bc7dbeedd8f3af65", "is_disabled": 0, "rental_uris": {"android": "https://dc.lft.to/lastmile_qr_scan", "ios": "https://dc.lft.to/lastmile_qr_scan"}, "fusion_lon": 0.0, "lat": 38.886798, "bike_id": "40baa3a4daf542e0bc7dbeedd8f3af65", "type": "electric_scooter", "is_reserved": 0, "lon": -77.001994}, {"fusion_lat": 0.0, "name": "bd0938dda65703dbb3929fda6eb6b74f", "is_disabled": 0, "rental_uris": {"android": "https://dc.lft.to/lastmile_qr_scan", "ios": "https://dc.lft.to/lastmile_qr_scan"}, "fusion_lon": 0.0, "lat": 38.924834833333335, "bike_id": "bd0938dda65703dbb3929fda6eb6b74f", "type": "electric_scooter", "is_reserved": 0, "lon": -77.05215466666667}, {"fusion_lat": 0.0, "name": "240bdca2a9c5a5f3c654c4891e2a45c2", "is_disabled": 0, "rental_uris": {"android": "https://dc.lft.to/lastmile_qr_scan", "ios": "https://dc.lft.to/lastmile_qr_scan"}, "fusion_lon": 0.0, "lat": 38.84773366666667, "bike_id": "240bdca2a9c5a5f3c654c4891e2a45c2", "type": "electric_bike", "is_reserved": 0, "lon": -76.966295}, {"fusion_lat": 0.0, "name": "b251953cf7352728a4c99b92e48c572b", "is_disabled": 0, "rental_uris": {"android": "https://dc.lft.to/lastmile_qr_scan", "ios": "https://dc.lft.to/lastmile_qr_scan"}, "fusion_lon": 0.0, "lat": 38.924439666666665, "bike_id": "b251953cf7352728a4c99b92e48c572b", "type": "electric_scooter", "is_reserved": 0, "lon": -77.01870333333333}, {"fusion_lat": 0.0, "name": "80c5863969f7444dd4f8d6b1f07bf36e", "is_disabled": 0, "rental_uris": {"android": "https://dc.lft.to/lastmile_qr_scan", "ios": "https://dc.lft.to/lastmile_qr_scan"}, "fusion_lon": 0.0, "lat": 38.90779666666667, "bike_id": "80c5863969f7444dd4f8d6b1f07bf36e", "type": "electric_scooter", "is_reserved": 0, "lon": -77.072591}, {"fusion_lat": 0.0, "name": "3902dd910cff42b9b945409b9d032833", "is_disabled": 0, "rental_uris": {"android": "https://dc.lft.to/lastmile_qr_scan", "ios": "https://dc.lft.to/lastmile_qr_scan"}, "fusion_lon": 0.0, "lat": 38.913312, "bike_id": "3902dd910cff42b9b945409b9d032833", "type": "electric_scooter", "is_reserved": 0, "lon": -77.03187983333333}, {"fusion_lat": 0.0, "name": "ff0dfdeb56e1dee335ca3ca97f0a05a9", "is_disabled": 0, "rental_uris": {"android": "https://dc.lft.to/lastmile_qr_scan", "ios": "https://dc.lft.to/lastmile_qr_scan"}, "fusion_lon": 0.0, "lat": 38.8926835, "bike_id": "ff0dfdeb56e1dee335ca3ca97f0a05a9", "type": "electric_scooter", "is_reserved": 0, "lon": -77.04658266666667}, {"fusion_lat": 0.0, "name": "c7769b85ba1773d791fe1b3cc88e36b8", "is_disabled": 0, "rental_uris": {"android": "https://dc.lft.to/lastmile_qr_scan", "ios": "https://dc.lft.to/lastmile_qr_scan"}, "fusion_lon": 0.0, "lat": 38.90025116666666, "bike_id": "c7769b85ba1773d791fe1b3cc88e36b8", "type": "electric_scooter", "is_reserved": 0, "lon": -76.9740595}, {"fusion_lat": 0.0, "name": "c664b2e1bf29104e7caa07c108a36f4a", "is_disabled": 0, "rental_uris": {"android": "https://dc.lft.to/lastmile_qr_scan", "ios": "https://dc.lft.to/lastmile_qr_scan"}, "fusion_lon": 0.0, "lat": 38.923269166666664, "bike_id": "c664b2e1bf29104e7caa07c108a36f4a", "type": "electric_scooter", "is_reserved": 0, "lon": -77.046205}, {"fusion_lat": 0.0, "name": "e00773f627603a0b8392669f7098450b", "is_disabled": 0, "rental_uris": {"android": "https://dc.lft.to/lastmile_qr_scan", "ios": "https://dc.lft.to/lastmile_qr_scan"}, "fusion_lon": 0.0, "lat": 38.915961, "bike_id": "e00773f627603a0b8392669f7098450b", "type": "electric_scooter", "is_reserved": 0, "lon": -77.02321416666666}, {"fusion_lat": 0.0, "name": "f37c5767957e20406757b0594bb9b40c", "is_disabled": 0, "rental_uris": {"android": "https://dc.lft.to/lastmile_qr_scan", "ios": "https://dc.lft.to/lastmile_qr_scan"}, "fusion_lon": 0.0, "lat": 38.92350183333333, "bike_id": "f37c5767957e20406757b0594bb9b40c", "type": "electric_scooter", "is_reserved": 0, "lon": -77.0562765}, {"fusion_lat": 0.0, "name": "8b15a1d780d2c9238a14ad2ea02eecc9", "is_disabled": 0, "rental_uris": {"android": "https://dc.lft.to/lastmile_qr_scan", "ios": "https://dc.lft.to/lastmile_qr_scan"}, "fusion_lon": 0.0, "lat": 38.9002725, "bike_id": "8b15a1d780d2c9238a14ad2ea02eecc9", "type": "electric_scooter", "is_reserved": 0, "lon": -76.99873366666667}, {"fusion_lat": 0.0, "name": "fe2c634d414a656b822c18f6a996b0a3", "is_disabled": 0, "rental_uris": {"android": "https://dc.lft.to/lastmile_qr_scan", "ios": "https://dc.lft.to/lastmile_qr_scan"}, "fusion_lon": 0.0, "lat": 38.91412166666667, "bike_id": "fe2c634d414a656b822c18f6a996b0a3", "type": "electric_scooter", "is_reserved": 0, "lon": -77.024284}, {"fusion_lat": 0.0, "name": "b52079d37bd7f53cb93784b34aff4748", "is_disabled": 0, "rental_uris": {"android": "https://dc.lft.to/lastmile_qr_scan", "ios": "https://dc.lft.to/lastmile_qr_scan"}, "fusion_lon": 0.0, "lat": 38.91351933333333, "bike_id": "b52079d37bd7f53cb93784b34aff4748", "type": "electric_scooter", "is_reserved": 0, "lon": -77.02056383333333}, {"fusion_lat": 0.0, "name": "e51bde997bd2721b12336cdfe14f2cd3", "is_disabled": 0, "rental_uris": {"android": "https://dc.lft.to/lastmile_qr_scan", "ios": "https://dc.lft.to/lastmile_qr_scan"}, "fusion_lon": 0.0, "lat": 38.9094745, "bike_id": "e51bde997bd2721b12336cdfe14f2cd3", "type": "electric_scooter", "is_reserved": 0, "lon": -76.98773116666666}, {"fusion_lat": 0.0, "name": "1f9719378bde84dd43742d1f06246886", "is_disabled": 0, "rental_uris": {"android": "https://dc.lft.to/lastmile_qr_scan", "ios": "https://dc.lft.to/lastmile_qr_scan"}, "fusion_lon": 0.0, "lat": 38.9645075, "bike_id": "1f9719378bde84dd43742d1f06246886", "type": "electric_bike", "is_reserved": 0, "lon": -77.02234866666667}, {"fusion_lat": 0.0, "name": "dcf070fd9c806f8b2b304626e7b51829", "is_disabled": 0, "rental_uris": {"android": "https://dc.lft.to/lastmile_qr_scan", "ios": "https://dc.lft.to/lastmile_qr_scan"}, "fusion_lon": 0.0, "lat": 38.902952166666665, "bike_id": "dcf070fd9c806f8b2b304626e7b51829", "type": "electric_scooter", "is_reserved": 0, "lon": -77.04875983333334}, {"fusion_lat": 0.0, "name": "12765c1cb7807073a0ca0c26cb19edfe", "is_disabled": 0, "rental_uris": {"android": "https://dc.lft.to/lastmile_qr_scan", "ios": "https://dc.lft.to/lastmile_qr_scan"}, "fusion_lon": 0.0, "lat": 38.87924066666667, "bike_id": "12765c1cb7807073a0ca0c26cb19edfe", "type": "electric_scooter", "is_reserved": 0, "lon": -77.02151133333334}, {"fusion_lat": 0.0, "name": "c9d2eb6af9e29d6a363aa3e4c8c77044", "is_disabled": 0, "rental_uris": {"android": "https://dc.lft.to/lastmile_qr_scan", "ios": "https://dc.lft.to/lastmile_qr_scan"}, "fusion_lon": 0.0, "lat": 38.907055666666665, "bike_id": "c9d2eb6af9e29d6a363aa3e4c8c77044", "type": "electric_scooter", "is_reserved": 0, "lon": -76.99961616666667}, {"fusion_lat": 0.0, "name": "9f429984a0387ac278444b97685ee6fe", "is_disabled": 0, "rental_uris": {"android": "https://dc.lft.to/lastmile_qr_scan", "ios": "https://dc.lft.to/lastmile_qr_scan"}, "fusion_lon": 0.0, "lat": 38.9223045, "bike_id": "9f429984a0387ac278444b97685ee6fe", "type": "electric_bike", "is_reserved": 0, "lon": -77.02340733333334}, {"fusion_lat": 0.0, "name": "43939c8d4e059361eca0eeaefa6bc811", "is_disabled": 0, "rental_uris": {"android": "https://dc.lft.to/lastmile_qr_scan", "ios": "https://dc.lft.to/lastmile_qr_scan"}, "fusion_lon": 0.0, "lat": 38.8708505, "bike_id": "43939c8d4e059361eca0eeaefa6bc811", "type": "electric_scooter", "is_reserved": 0, "lon": -77.01383066666666}, {"fusion_lat": 0.0, "name": "821efcd86026fcbe9fd4a779c45c7c60", "is_disabled": 0, "rental_uris": {"android": "https://dc.lft.to/lastmile_qr_scan", "ios": "https://dc.lft.to/lastmile_qr_scan"}, "fusion_lon": 0.0, "lat": 38.92074383333333, "bike_id": "821efcd86026fcbe9fd4a779c45c7c60", "type": "electric_bike", "is_reserved": 0, "lon": -76.989466}, {"fusion_lat": 0.0, "name": "f0adfe9c15df901fc71196a502668c89", "is_disabled": 0, "rental_uris": {"android": "https://dc.lft.to/lastmile_qr_scan", "ios": "https://dc.lft.to/lastmile_qr_scan"}, "fusion_lon": 0.0, "lat": 38.915475, "bike_id": "f0adfe9c15df901fc71196a502668c89", "type": "electric_scooter", "is_reserved": 0, "lon": -77.03857233333333}, {"fusion_lat": 0.0, "name": "f96c17bff3c0fbeeb4605b5d128e3f9f", "is_disabled": 0, "rental_uris": {"android": "https://dc.lft.to/lastmile_qr_scan", "ios": "https://dc.lft.to/lastmile_qr_scan"}, "fusion_lon": 0.0, "lat": 38.8874565, "bike_id": "f96c17bff3c0fbeeb4605b5d128e3f9f", "type": "electric_scooter", "is_reserved": 0, "lon": -77.01785783333334}, {"fusion_lat": 0.0, "name": "9aea292e59159eac3c8f471d5d84a31e", "is_disabled": 0, "rental_uris": {"android": "https://dc.lft.to/lastmile_qr_scan", "ios": "https://dc.lft.to/lastmile_qr_scan"}, "fusion_lon": 0.0, "lat": 38.903485833333335, "bike_id": "9aea292e59159eac3c8f471d5d84a31e", "type": "electric_scooter", "is_reserved": 0, "lon": -77.01614383333333}, {"fusion_lat": 0.0, "name": "10599bf83609c09a3fb5df3923100d77", "is_disabled": 0, "rental_uris": {"android": "https://dc.lft.to/lastmile_qr_scan", "ios": "https://dc.lft.to/lastmile_qr_scan"}, "fusion_lon": 0.0, "lat": 38.937572333333335, "bike_id": "10599bf83609c09a3fb5df3923100d77", "type": "electric_scooter", "is_reserved": 0, "lon": -77.02374666666667}, {"fusion_lat": 0.0, "name": "719ac8626a0b14ea08fc9f6522fb5005", "is_disabled": 0, "rental_uris": {"android": "https://dc.lft.to/lastmile_qr_scan", "ios": "https://dc.lft.to/lastmile_qr_scan"}, "fusion_lon": 0.0, "lat": 38.90271933333333, "bike_id": "719ac8626a0b14ea08fc9f6522fb5005", "type": "electric_scooter", "is_reserved": 0, "lon": -77.0061145}, {"fusion_lat": 0.0, "name": "780a3abb22e74cb305aa26c733a8d107", "is_disabled": 0, "rental_uris": {"android": "https://dc.lft.to/lastmile_qr_scan", "ios": "https://dc.lft.to/lastmile_qr_scan"}, "fusion_lon": 0.0, "lat": 38.920805, "bike_id": "780a3abb22e74cb305aa26c733a8d107", "type": "electric_scooter", "is_reserved": 0, "lon": -77.02547633333333}, {"fusion_lat": 0.0, "name": "621eb2f4bdfe84935b8d2f7221ce4ffd", "is_disabled": 0, "rental_uris": {"android": "https://dc.lft.to/lastmile_qr_scan", "ios": "https://dc.lft.to/lastmile_qr_scan"}, "fusion_lon": 0.0, "lat": 38.90245316666667, "bike_id": "621eb2f4bdfe84935b8d2f7221ce4ffd", "type": "electric_scooter", "is_reserved": 0, "lon": -77.04150266666667}, {"fusion_lat": 0.0, "name": "f1caf531089298d3fc411474e9854674", "is_disabled": 0, "rental_uris": {"android": "https://dc.lft.to/lastmile_qr_scan", "ios": "https://dc.lft.to/lastmile_qr_scan"}, "fusion_lon": 0.0, "lat": 38.90758733333333, "bike_id": "f1caf531089298d3fc411474e9854674", "type": "electric_scooter", "is_reserved": 0, "lon": -77.03213966666667}, {"fusion_lat": 0.0, "name": "ace7ee60fe881ddf62d7e03f8c421c37", "is_disabled": 0, "rental_uris": {"android": "https://dc.lft.to/lastmile_qr_scan", "ios": "https://dc.lft.to/lastmile_qr_scan"}, "fusion_lon": 0.0, "lat": 38.89825316666666, "bike_id": "ace7ee60fe881ddf62d7e03f8c421c37", "type": "electric_scooter", "is_reserved": 0, "lon": -76.98781566666666}, {"fusion_lat": 0.0, "name": "36c80f4e657890e07ff99d6bc83a1f6c", "is_disabled": 0, "rental_uris": {"android": "https://dc.lft.to/lastmile_qr_scan", "ios": "https://dc.lft.to/lastmile_qr_scan"}, "fusion_lon": 0.0, "lat": 38.926803666666665, "bike_id": "36c80f4e657890e07ff99d6bc83a1f6c", "type": "electric_scooter", "is_reserved": 0, "lon": -77.02994816666667}, {"fusion_lat": 0.0, "name": "1a7d1ad9017f18185a5bb65d821b83bc", "is_disabled": 0, "rental_uris": {"android": "https://dc.lft.to/lastmile_qr_scan", "ios": "https://dc.lft.to/lastmile_qr_scan"}, "fusion_lon": 0.0, "lat": 38.92001233333333, "bike_id": "1a7d1ad9017f18185a5bb65d821b83bc", "type": "electric_scooter", "is_reserved": 0, "lon": -77.03278816666666}, {"fusion_lat": 0.0, "name": "92042ecc0488e0ea644bf8e7d59838a2", "is_disabled": 0, "rental_uris": {"android": "https://dc.lft.to/lastmile_qr_scan", "ios": "https://dc.lft.to/lastmile_qr_scan"}, "fusion_lon": 0.0, "lat": 38.9002675, "bike_id": "92042ecc0488e0ea644bf8e7d59838a2", "type": "electric_scooter", "is_reserved": 0, "lon": -77.01189316666667}, {"fusion_lat": 0.0, "name": "08a4ab3b25fcac6d8d3136902aa38fb4", "is_disabled": 0, "rental_uris": {"android": "https://dc.lft.to/lastmile_qr_scan", "ios": "https://dc.lft.to/lastmile_qr_scan"}, "fusion_lon": 0.0, "lat": 38.93398666666667, "bike_id": "08a4ab3b25fcac6d8d3136902aa38fb4", "type": "electric_bike", "is_reserved": 0, "lon": -77.035391}, {"fusion_lat": 0.0, "name": "9d925802b7c8f270c1e60b4cc5b4338d", "is_disabled": 0, "rental_uris": {"android": "https://dc.lft.to/lastmile_qr_scan", "ios": "https://dc.lft.to/lastmile_qr_scan"}, "fusion_lon": 0.0, "lat": 38.91563433333334, "bike_id": "9d925802b7c8f270c1e60b4cc5b4338d", "type": "electric_scooter", "is_reserved": 0, "lon": -77.010559}, {"fusion_lat": 0.0, "name": "198c49a5a575007c596eea99cca48701", "is_disabled": 0, "rental_uris": {"android": "https://dc.lft.to/lastmile_qr_scan", "ios": "https://dc.lft.to/lastmile_qr_scan"}, "fusion_lon": 0.0, "lat": 38.90972566666667, "bike_id": "198c49a5a575007c596eea99cca48701", "type": "electric_scooter", "is_reserved": 0, "lon": -77.02682633333333}, {"fusion_lat": 0.0, "name": "9fa58bd33c946b3a9ebc19bebf2e0c06", "is_disabled": 0, "rental_uris": {"android": "https://dc.lft.to/lastmile_qr_scan", "ios": "https://dc.lft.to/lastmile_qr_scan"}, "fusion_lon": 0.0, "lat": 38.88542433333333, "bike_id": "9fa58bd33c946b3a9ebc19bebf2e0c06", "type": "electric_scooter", "is_reserved": 0, "lon": -76.97891616666666}, {"fusion_lat": 0.0, "name": "f05d80978159eddc44c64e0889281482", "is_disabled": 0, "rental_uris": {"android": "https://dc.lft.to/lastmile_qr_scan", "ios": "https://dc.lft.to/lastmile_qr_scan"}, "fusion_lon": 0.0, "lat": 38.88731716666667, "bike_id": "f05d80978159eddc44c64e0889281482", "type": "electric_scooter", "is_reserved": 0, "lon": -77.00320483333333}, {"fusion_lat": 0.0, "name": "eaac811c8cda7e29a8197c4463d5249c", "is_disabled": 0, "rental_uris": {"android": "https://dc.lft.to/lastmile_qr_scan", "ios": "https://dc.lft.to/lastmile_qr_scan"}, "fusion_lon": 0.0, "lat": 38.93779583333333, "bike_id": "eaac811c8cda7e29a8197c4463d5249c", "type": "electric_scooter", "is_reserved": 0, "lon": -77.03264766666666}, {"fusion_lat": 0.0, "name": "2447a15fce15a6cb495433eb9a8d54ec", "is_disabled": 0, "rental_uris": {"android": "https://dc.lft.to/lastmile_qr_scan", "ios": "https://dc.lft.to/lastmile_qr_scan"}, "fusion_lon": 0.0, "lat": 38.93820316666667, "bike_id": "2447a15fce15a6cb495433eb9a8d54ec", "type": "electric_scooter", "is_reserved": 0, "lon": -77.03282983333334}, {"fusion_lat": 0.0, "name": "5561a0e71371a88404743d1d60d7d14f", "is_disabled": 0, "rental_uris": {"android": "https://dc.lft.to/lastmile_qr_scan", "ios": "https://dc.lft.to/lastmile_qr_scan"}, "fusion_lon": 0.0, "lat": 38.8984405, "bike_id": "5561a0e71371a88404743d1d60d7d14f", "type": "electric_scooter", "is_reserved": 0, "lon": -77.02984983333333}, {"fusion_lat": 0.0, "name": "f88c8ab2f545abbcb494a3c70edd0cb9", "is_disabled": 0, "rental_uris": {"android": "https://dc.lft.to/lastmile_qr_scan", "ios": "https://dc.lft.to/lastmile_qr_scan"}, "fusion_lon": 0.0, "lat": 38.9119385, "bike_id": "f88c8ab2f545abbcb494a3c70edd0cb9", "type": "electric_scooter", "is_reserved": 0, "lon": -77.03760083333333}, {"fusion_lat": 0.0, "name": "7cf7262020dadcf91f03a0c3b0851524", "is_disabled": 0, "rental_uris": {"android": "https://dc.lft.to/lastmile_qr_scan", "ios": "https://dc.lft.to/lastmile_qr_scan"}, "fusion_lon": 0.0, "lat": 38.89211933333333, "bike_id": "7cf7262020dadcf91f03a0c3b0851524", "type": "electric_scooter", "is_reserved": 0, "lon": -76.99573}, {"fusion_lat": 0.0, "name": "6fb1908e5a0bd2177936fa3ae8560e7c", "is_disabled": 0, "rental_uris": {"android": "https://dc.lft.to/lastmile_qr_scan", "ios": "https://dc.lft.to/lastmile_qr_scan"}, "fusion_lon": 0.0, "lat": 38.919155833333335, "bike_id": "6fb1908e5a0bd2177936fa3ae8560e7c", "type": "electric_scooter", "is_reserved": 0, "lon": -77.02419}, {"fusion_lat": 0.0, "name": "04782dfc1ca04e8e98c8a56c8a3ba4c9", "is_disabled": 0, "rental_uris": {"android": "https://dc.lft.to/lastmile_qr_scan", "ios": "https://dc.lft.to/lastmile_qr_scan"}, "fusion_lon": 0.0, "lat": 38.931112166666665, "bike_id": "04782dfc1ca04e8e98c8a56c8a3ba4c9", "type": "electric_scooter", "is_reserved": 0, "lon": -77.02374133333333}, {"fusion_lat": 0.0, "name": "a8327f63bfc8868add00ad8d8b29b0e4", "is_disabled": 0, "rental_uris": {"android": "https://dc.lft.to/lastmile_qr_scan", "ios": "https://dc.lft.to/lastmile_qr_scan"}, "fusion_lon": 0.0, "lat": 38.9181585, "bike_id": "a8327f63bfc8868add00ad8d8b29b0e4", "type": "electric_scooter", "is_reserved": 0, "lon": -77.04005916666667}, {"fusion_lat": 0.0, "name": "3f0e0b1669521d57111ebb6f680b9f0d", "is_disabled": 0, "rental_uris": {"android": "https://dc.lft.to/lastmile_qr_scan", "ios": "https://dc.lft.to/lastmile_qr_scan"}, "fusion_lon": 0.0, "lat": 38.9111595, "bike_id": "3f0e0b1669521d57111ebb6f680b9f0d", "type": "electric_scooter", "is_reserved": 0, "lon": -77.01155733333333}, {"fusion_lat": 0.0, "name": "e0a8f90dcc277c40889d9b4d866d5925", "is_disabled": 0, "rental_uris": {"android": "https://dc.lft.to/lastmile_qr_scan", "ios": "https://dc.lft.to/lastmile_qr_scan"}, "fusion_lon": 0.0, "lat": 38.95603166666667, "bike_id": "e0a8f90dcc277c40889d9b4d866d5925", "type": "electric_scooter", "is_reserved": 0, "lon": -77.0335365}, {"fusion_lat": 0.0, "name": "99cc68c0d8ab70a22c6fbe5d63711806", "is_disabled": 0, "rental_uris": {"android": "https://dc.lft.to/lastmile_qr_scan", "ios": "https://dc.lft.to/lastmile_qr_scan"}, "fusion_lon": 0.0, "lat": 38.912678166666666, "bike_id": "99cc68c0d8ab70a22c6fbe5d63711806", "type": "electric_scooter", "is_reserved": 0, "lon": -77.02825}, {"fusion_lat": 0.0, "name": "f0bbc80a0783f583ce69c8fe6fc73815", "is_disabled": 0, "rental_uris": {"android": "https://dc.lft.to/lastmile_qr_scan", "ios": "https://dc.lft.to/lastmile_qr_scan"}, "fusion_lon": 0.0, "lat": 38.905731333333335, "bike_id": "f0bbc80a0783f583ce69c8fe6fc73815", "type": "electric_scooter", "is_reserved": 0, "lon": -77.044459}, {"fusion_lat": 0.0, "name": "8002d67d1cf6e80fda4f45e67f290e67", "is_disabled": 0, "rental_uris": {"android": "https://dc.lft.to/lastmile_qr_scan", "ios": "https://dc.lft.to/lastmile_qr_scan"}, "fusion_lon": 0.0, "lat": 38.915811, "bike_id": "8002d67d1cf6e80fda4f45e67f290e67", "type": "electric_scooter", "is_reserved": 0, "lon": -77.0465315}, {"fusion_lat": 0.0, "name": "5a0afdb07a1bc470721555655da2e841", "is_disabled": 0, "rental_uris": {"android": "https://dc.lft.to/lastmile_qr_scan", "ios": "https://dc.lft.to/lastmile_qr_scan"}, "fusion_lon": 0.0, "lat": 38.898541333333334, "bike_id": "5a0afdb07a1bc470721555655da2e841", "type": "electric_scooter", "is_reserved": 0, "lon": -77.02220616666666}, {"fusion_lat": 0.0, "name": "650a84716aecafe20398035d7748e092", "is_disabled": 0, "rental_uris": {"android": "https://dc.lft.to/lastmile_qr_scan", "ios": "https://dc.lft.to/lastmile_qr_scan"}, "fusion_lon": 0.0, "lat": 38.92384716666667, "bike_id": "650a84716aecafe20398035d7748e092", "type": "electric_scooter", "is_reserved": 0, "lon": -77.02743216666667}, {"fusion_lat": 0.0, "name": "4fc3d8cd5043e407397947a48d10b9f6", "is_disabled": 0, "rental_uris": {"android": "https://dc.lft.to/lastmile_qr_scan", "ios": "https://dc.lft.to/lastmile_qr_scan"}, "fusion_lon": 0.0, "lat": 38.87887, "bike_id": "4fc3d8cd5043e407397947a48d10b9f6", "type": "electric_scooter", "is_reserved": 0, "lon": -76.96546366666666}, {"fusion_lat": 0.0, "name": "cdf6ed971e534e947a6a695f8eafc2e0", "is_disabled": 0, "rental_uris": {"android": "https://dc.lft.to/lastmile_qr_scan", "ios": "https://dc.lft.to/lastmile_qr_scan"}, "fusion_lon": 0.0, "lat": 38.9040335, "bike_id": "cdf6ed971e534e947a6a695f8eafc2e0", "type": "electric_scooter", "is_reserved": 0, "lon": -77.03647883333333}, {"fusion_lat": 0.0, "name": "0fd2423ef9bd48dffea7260633b4370e", "is_disabled": 0, "rental_uris": {"android": "https://dc.lft.to/lastmile_qr_scan", "ios": "https://dc.lft.to/lastmile_qr_scan"}, "fusion_lon": 0.0, "lat": 38.89838316666667, "bike_id": "0fd2423ef9bd48dffea7260633b4370e", "type": "electric_scooter", "is_reserved": 0, "lon": -77.02698333333333}, {"fusion_lat": 0.0, "name": "e999dfe12caba0e563f5c3111c4bbb9b", "is_disabled": 0, "rental_uris": {"android": "https://dc.lft.to/lastmile_qr_scan", "ios": "https://dc.lft.to/lastmile_qr_scan"}, "fusion_lon": 0.0, "lat": 38.9248745, "bike_id": "e999dfe12caba0e563f5c3111c4bbb9b", "type": "electric_scooter", "is_reserved": 0, "lon": -77.02709566666667}, {"fusion_lat": 0.0, "name": "43e62001d352136cf62622ce057ca1d7", "is_disabled": 0, "rental_uris": {"android": "https://dc.lft.to/lastmile_qr_scan", "ios": "https://dc.lft.to/lastmile_qr_scan"}, "fusion_lon": 0.0, "lat": 38.91255, "bike_id": "43e62001d352136cf62622ce057ca1d7", "type": "electric_scooter", "is_reserved": 0, "lon": -77.00673116666667}, {"fusion_lat": 0.0, "name": "1287b1208f086107f8162a94a8974777", "is_disabled": 0, "rental_uris": {"android": "https://dc.lft.to/lastmile_qr_scan", "ios": "https://dc.lft.to/lastmile_qr_scan"}, "fusion_lon": 0.0, "lat": 38.93088566666667, "bike_id": "1287b1208f086107f8162a94a8974777", "type": "electric_scooter", "is_reserved": 0, "lon": -77.034422}, {"fusion_lat": 0.0, "name": "627f29ee1e8da1d5714717c941cf8a27", "is_disabled": 0, "rental_uris": {"android": "https://dc.lft.to/lastmile_qr_scan", "ios": "https://dc.lft.to/lastmile_qr_scan"}, "fusion_lon": 0.0, "lat": 38.898385833333336, "bike_id": "627f29ee1e8da1d5714717c941cf8a27", "type": "electric_scooter", "is_reserved": 0, "lon": -77.02231983333333}, {"fusion_lat": 0.0, "name": "60256fd11eb86d5babdc0d0011f9288e", "is_disabled": 0, "rental_uris": {"android": "https://dc.lft.to/lastmile_qr_scan", "ios": "https://dc.lft.to/lastmile_qr_scan"}, "fusion_lon": 0.0, "lat": 38.89223883333333, "bike_id": "60256fd11eb86d5babdc0d0011f9288e", "type": "electric_scooter", "is_reserved": 0, "lon": -77.0450575}, {"fusion_lat": 0.0, "name": "e091294a886024c16f2c2ba19df3dc14", "is_disabled": 0, "rental_uris": {"android": "https://dc.lft.to/lastmile_qr_scan", "ios": "https://dc.lft.to/lastmile_qr_scan"}, "fusion_lon": 0.0, "lat": 38.896203, "bike_id": "e091294a886024c16f2c2ba19df3dc14", "type": "electric_scooter", "is_reserved": 0, "lon": -76.94774283333334}, {"fusion_lat": 0.0, "name": "02f28a1af52906fa7c0bb2d2044cefa2", "is_disabled": 0, "rental_uris": {"android": "https://dc.lft.to/lastmile_qr_scan", "ios": "https://dc.lft.to/lastmile_qr_scan"}, "fusion_lon": 0.0, "lat": 38.8755355, "bike_id": "02f28a1af52906fa7c0bb2d2044cefa2", "type": "electric_scooter", "is_reserved": 0, "lon": -77.00600933333334}, {"fusion_lat": 0.0, "name": "1a6d5fbc3587197463d6ae8712360ea3", "is_disabled": 0, "rental_uris": {"android": "https://dc.lft.to/lastmile_qr_scan", "ios": "https://dc.lft.to/lastmile_qr_scan"}, "fusion_lon": 0.0, "lat": 38.9324455, "bike_id": "1a6d5fbc3587197463d6ae8712360ea3", "type": "electric_scooter", "is_reserved": 0, "lon": -77.034091}, {"fusion_lat": 0.0, "name": "67e5c67610cc866bdf0bfe39f8978d99", "is_disabled": 0, "rental_uris": {"android": "https://dc.lft.to/lastmile_qr_scan", "ios": "https://dc.lft.to/lastmile_qr_scan"}, "fusion_lon": 0.0, "lat": 38.898787, "bike_id": "67e5c67610cc866bdf0bfe39f8978d99", "type": "electric_scooter", "is_reserved": 0, "lon": -77.00929766666667}, {"fusion_lat": 0.0, "name": "2d4d401dc8b6313d27515a28e9c2dcac", "is_disabled": 0, "rental_uris": {"android": "https://dc.lft.to/lastmile_qr_scan", "ios": "https://dc.lft.to/lastmile_qr_scan"}, "fusion_lon": 0.0, "lat": 38.905144, "bike_id": "2d4d401dc8b6313d27515a28e9c2dcac", "type": "electric_scooter", "is_reserved": 0, "lon": -77.06380783333333}, {"fusion_lat": 0.0, "name": "0c0960110fce5e3c7139719a9303020d", "is_disabled": 0, "rental_uris": {"android": "https://dc.lft.to/lastmile_qr_scan", "ios": "https://dc.lft.to/lastmile_qr_scan"}, "fusion_lon": 0.0, "lat": 38.925331, "bike_id": "0c0960110fce5e3c7139719a9303020d", "type": "electric_bike", "is_reserved": 0, "lon": -77.05092416666666}, {"fusion_lat": 0.0, "name": "f9644edf20b4f0da502d5875b0e2e8a1", "is_disabled": 0, "rental_uris": {"android": "https://dc.lft.to/lastmile_qr_scan", "ios": "https://dc.lft.to/lastmile_qr_scan"}, "fusion_lon": 0.0, "lat": 38.87157233333333, "bike_id": "f9644edf20b4f0da502d5875b0e2e8a1", "type": "electric_bike", "is_reserved": 0, "lon": -77.13146566666667}, {"fusion_lat": 0.0, "name": "7743cc45f2092e1c423789fb10012294", "is_disabled": 0, "rental_uris": {"android": "https://dc.lft.to/lastmile_qr_scan", "ios": "https://dc.lft.to/lastmile_qr_scan"}, "fusion_lon": 0.0, "lat": 38.90683, "bike_id": "7743cc45f2092e1c423789fb10012294", "type": "electric_scooter", "is_reserved": 0, "lon": -77.02699066666666}, {"fusion_lat": 0.0, "name": "def70470aa7daf03b28f1bd75241f449", "is_disabled": 0, "rental_uris": {"android": "https://dc.lft.to/lastmile_qr_scan", "ios": "https://dc.lft.to/lastmile_qr_scan"}, "fusion_lon": 0.0, "lat": 38.922539, "bike_id": "def70470aa7daf03b28f1bd75241f449", "type": "electric_scooter", "is_reserved": 0, "lon": -77.0281065}, {"fusion_lat": 0.0, "name": "d7cb0707ea82cf1f9ffa414edd7a932d", "is_disabled": 0, "rental_uris": {"android": "https://dc.lft.to/lastmile_qr_scan", "ios": "https://dc.lft.to/lastmile_qr_scan"}, "fusion_lon": 0.0, "lat": 38.84756516666667, "bike_id": "d7cb0707ea82cf1f9ffa414edd7a932d", "type": "electric_scooter", "is_reserved": 0, "lon": -76.995002}, {"fusion_lat": 0.0, "name": "036f32c4786a9a47bab6ef1a9905ea78", "is_disabled": 0, "rental_uris": {"android": "https://dc.lft.to/lastmile_qr_scan", "ios": "https://dc.lft.to/lastmile_qr_scan"}, "fusion_lon": 0.0, "lat": 38.9017565, "bike_id": "036f32c4786a9a47bab6ef1a9905ea78", "type": "electric_scooter", "is_reserved": 0, "lon": -76.99257533333333}, {"fusion_lat": 0.0, "name": "341c143ce4c4d596e6cfb411d1bc0e9d", "is_disabled": 0, "rental_uris": {"android": "https://dc.lft.to/lastmile_qr_scan", "ios": "https://dc.lft.to/lastmile_qr_scan"}, "fusion_lon": 0.0, "lat": 38.91978066666667, "bike_id": "341c143ce4c4d596e6cfb411d1bc0e9d", "type": "electric_scooter", "is_reserved": 0, "lon": -77.0259235}, {"fusion_lat": 0.0, "name": "7478814030201c2959e28688a27fe9e8", "is_disabled": 0, "rental_uris": {"android": "https://dc.lft.to/lastmile_qr_scan", "ios": "https://dc.lft.to/lastmile_qr_scan"}, "fusion_lon": 0.0, "lat": 38.907155, "bike_id": "7478814030201c2959e28688a27fe9e8", "type": "electric_scooter", "is_reserved": 0, "lon": -77.0271875}, {"fusion_lat": 0.0, "name": "1aa2a87715220048542c117bb35eb29c", "is_disabled": 0, "rental_uris": {"android": "https://dc.lft.to/lastmile_qr_scan", "ios": "https://dc.lft.to/lastmile_qr_scan"}, "fusion_lon": 0.0, "lat": 38.90500016666667, "bike_id": "1aa2a87715220048542c117bb35eb29c", "type": "electric_scooter", "is_reserved": 0, "lon": -77.03002816666667}, {"fusion_lat": 0.0, "name": "c9930d88efe7cc6801212e25c0f6d9f3", "is_disabled": 0, "rental_uris": {"android": "https://dc.lft.to/lastmile_qr_scan", "ios": "https://dc.lft.to/lastmile_qr_scan"}, "fusion_lon": 0.0, "lat": 38.883471166666666, "bike_id": "c9930d88efe7cc6801212e25c0f6d9f3", "type": "electric_scooter", "is_reserved": 0, "lon": -77.03169733333333}, {"fusion_lat": 0.0, "name": "f7327c7002ab0ac3439aa6ac7f7b5c59", "is_disabled": 0, "rental_uris": {"android": "https://dc.lft.to/lastmile_qr_scan", "ios": "https://dc.lft.to/lastmile_qr_scan"}, "fusion_lon": 0.0, "lat": 38.9006085, "bike_id": "f7327c7002ab0ac3439aa6ac7f7b5c59", "type": "electric_scooter", "is_reserved": 0, "lon": -77.05665733333333}, {"fusion_lat": 0.0, "name": "83ad79dfa2b36228ae7054e150eba6e6", "is_disabled": 0, "rental_uris": {"android": "https://dc.lft.to/lastmile_qr_scan", "ios": "https://dc.lft.to/lastmile_qr_scan"}, "fusion_lon": 0.0, "lat": 38.92311333333333, "bike_id": "83ad79dfa2b36228ae7054e150eba6e6", "type": "electric_scooter", "is_reserved": 0, "lon": -77.03978766666667}, {"fusion_lat": 0.0, "name": "8f247ad558d5acf5571a985fb0f14603", "is_disabled": 0, "rental_uris": {"android": "https://dc.lft.to/lastmile_qr_scan", "ios": "https://dc.lft.to/lastmile_qr_scan"}, "fusion_lon": 0.0, "lat": 38.908523833333334, "bike_id": "8f247ad558d5acf5571a985fb0f14603", "type": "electric_scooter", "is_reserved": 0, "lon": -77.04883966666667}, {"fusion_lat": 0.0, "name": "3d80bc054a5e215557c2659c6c7a9f06", "is_disabled": 0, "rental_uris": {"android": "https://dc.lft.to/lastmile_qr_scan", "ios": "https://dc.lft.to/lastmile_qr_scan"}, "fusion_lon": 0.0, "lat": 38.936019333333334, "bike_id": "3d80bc054a5e215557c2659c6c7a9f06", "type": "electric_scooter", "is_reserved": 0, "lon": -77.03638816666667}, {"fusion_lat": 0.0, "name": "4486b29778d372ae270d42628772e497", "is_disabled": 0, "rental_uris": {"android": "https://dc.lft.to/lastmile_qr_scan", "ios": "https://dc.lft.to/lastmile_qr_scan"}, "fusion_lon": 0.0, "lat": 38.905766, "bike_id": "4486b29778d372ae270d42628772e497", "type": "electric_scooter", "is_reserved": 0, "lon": -77.04668566666666}, {"fusion_lat": 0.0, "name": "21172d69e5bda3846f4f3d514835efce", "is_disabled": 0, "rental_uris": {"android": "https://dc.lft.to/lastmile_qr_scan", "ios": "https://dc.lft.to/lastmile_qr_scan"}, "fusion_lon": 0.0, "lat": 38.9128175, "bike_id": "21172d69e5bda3846f4f3d514835efce", "type": "electric_scooter", "is_reserved": 0, "lon": -77.03853716666667}, {"fusion_lat": 0.0, "name": "3b6467533d861280aff8f2ca0c9ec49e", "is_disabled": 0, "rental_uris": {"android": "https://dc.lft.to/lastmile_qr_scan", "ios": "https://dc.lft.to/lastmile_qr_scan"}, "fusion_lon": 0.0, "lat": 38.916978666666665, "bike_id": "3b6467533d861280aff8f2ca0c9ec49e", "type": "electric_scooter", "is_reserved": 0, "lon": -77.03043966666667}, {"fusion_lat": 0.0, "name": "ae8731fb9b3f397b7261e558152131cc", "is_disabled": 0, "rental_uris": {"android": "https://dc.lft.to/lastmile_qr_scan", "ios": "https://dc.lft.to/lastmile_qr_scan"}, "fusion_lon": 0.0, "lat": 38.92543, "bike_id": "ae8731fb9b3f397b7261e558152131cc", "type": "electric_scooter", "is_reserved": 0, "lon": -77.034898}, {"fusion_lat": 0.0, "name": "1032d6b4cc41c3c0d4fd58cdcc29a6a8", "is_disabled": 0, "rental_uris": {"android": "https://dc.lft.to/lastmile_qr_scan", "ios": "https://dc.lft.to/lastmile_qr_scan"}, "fusion_lon": 0.0, "lat": 38.91330833333333, "bike_id": "1032d6b4cc41c3c0d4fd58cdcc29a6a8", "type": "electric_scooter", "is_reserved": 0, "lon": -77.01981583333334}, {"fusion_lat": 0.0, "name": "cb4451b87af87e78a586394174950d03", "is_disabled": 0, "rental_uris": {"android": "https://dc.lft.to/lastmile_qr_scan", "ios": "https://dc.lft.to/lastmile_qr_scan"}, "fusion_lon": 0.0, "lat": 38.9300655, "bike_id": "cb4451b87af87e78a586394174950d03", "type": "electric_scooter", "is_reserved": 0, "lon": -77.05545883333333}, {"fusion_lat": 0.0, "name": "f1a388e030bf67c2ee72300dd1036e0b", "is_disabled": 0, "rental_uris": {"android": "https://dc.lft.to/lastmile_qr_scan", "ios": "https://dc.lft.to/lastmile_qr_scan"}, "fusion_lon": 0.0, "lat": 38.929112833333335, "bike_id": "f1a388e030bf67c2ee72300dd1036e0b", "type": "electric_scooter", "is_reserved": 0, "lon": -77.03286616666666}, {"fusion_lat": 0.0, "name": "32506f884e852ade4e51b8d6eee421c4", "is_disabled": 0, "rental_uris": {"android": "https://dc.lft.to/lastmile_qr_scan", "ios": "https://dc.lft.to/lastmile_qr_scan"}, "fusion_lon": 0.0, "lat": 38.919205833333336, "bike_id": "32506f884e852ade4e51b8d6eee421c4", "type": "electric_scooter", "is_reserved": 0, "lon": -77.032188}, {"fusion_lat": 0.0, "name": "d779e3e30c1186da34c972e41a203e5a", "is_disabled": 0, "rental_uris": {"android": "https://dc.lft.to/lastmile_qr_scan", "ios": "https://dc.lft.to/lastmile_qr_scan"}, "fusion_lon": 0.0, "lat": 38.915922, "bike_id": "d779e3e30c1186da34c972e41a203e5a", "type": "electric_scooter", "is_reserved": 0, "lon": -77.03231116666667}, {"fusion_lat": 0.0, "name": "3fa636deb91e848e7026684080dd0540", "is_disabled": 0, "rental_uris": {"android": "https://dc.lft.to/lastmile_qr_scan", "ios": "https://dc.lft.to/lastmile_qr_scan"}, "fusion_lon": 0.0, "lat": 38.900471, "bike_id": "3fa636deb91e848e7026684080dd0540", "type": "electric_scooter", "is_reserved": 0, "lon": -77.00056366666666}, {"fusion_lat": 0.0, "name": "2a2e29f1ac9af5e40799adb9f32d798e", "is_disabled": 0, "rental_uris": {"android": "https://dc.lft.to/lastmile_qr_scan", "ios": "https://dc.lft.to/lastmile_qr_scan"}, "fusion_lon": 0.0, "lat": 38.908853, "bike_id": "2a2e29f1ac9af5e40799adb9f32d798e", "type": "electric_scooter", "is_reserved": 0, "lon": -77.03218966666667}, {"fusion_lat": 0.0, "name": "bdbb253dde5b6577c7cf320e07db7b4c", "is_disabled": 0, "rental_uris": {"android": "https://dc.lft.to/lastmile_qr_scan", "ios": "https://dc.lft.to/lastmile_qr_scan"}, "fusion_lon": 0.0, "lat": 38.895832666666664, "bike_id": "bdbb253dde5b6577c7cf320e07db7b4c", "type": "electric_scooter", "is_reserved": 0, "lon": -76.98320366666667}, {"fusion_lat": 0.0, "name": "7bf2b0ec6c82946af16ff54194bfbef3", "is_disabled": 0, "rental_uris": {"android": "https://dc.lft.to/lastmile_qr_scan", "ios": "https://dc.lft.to/lastmile_qr_scan"}, "fusion_lon": 0.0, "lat": 38.89606033333333, "bike_id": "7bf2b0ec6c82946af16ff54194bfbef3", "type": "electric_scooter", "is_reserved": 0, "lon": -77.0093095}, {"fusion_lat": 0.0, "name": "1a1e363c3d390433d35674d61caef385", "is_disabled": 0, "rental_uris": {"android": "https://dc.lft.to/lastmile_qr_scan", "ios": "https://dc.lft.to/lastmile_qr_scan"}, "fusion_lon": 0.0, "lat": 38.921449, "bike_id": "1a1e363c3d390433d35674d61caef385", "type": "electric_scooter", "is_reserved": 0, "lon": -77.04013983333333}, {"fusion_lat": 0.0, "name": "f9f836fb0a932573e03faaec7670e706", "is_disabled": 0, "rental_uris": {"android": "https://dc.lft.to/lastmile_qr_scan", "ios": "https://dc.lft.to/lastmile_qr_scan"}, "fusion_lon": 0.0, "lat": 38.88397533333333, "bike_id": "f9f836fb0a932573e03faaec7670e706", "type": "electric_scooter", "is_reserved": 0, "lon": -77.01974216666666}, {"fusion_lat": 0.0, "name": "6213eab9a23b8119a242739f5f277b42", "is_disabled": 0, "rental_uris": {"android": "https://dc.lft.to/lastmile_qr_scan", "ios": "https://dc.lft.to/lastmile_qr_scan"}, "fusion_lon": 0.0, "lat": 38.8921845, "bike_id": "6213eab9a23b8119a242739f5f277b42", "type": "electric_scooter", "is_reserved": 0, "lon": -77.02635833333333}, {"fusion_lat": 0.0, "name": "b5896bad0705fb469d8334d2ffed0f09", "is_disabled": 0, "rental_uris": {"android": "https://dc.lft.to/lastmile_qr_scan", "ios": "https://dc.lft.to/lastmile_qr_scan"}, "fusion_lon": 0.0, "lat": 38.941780666666666, "bike_id": "b5896bad0705fb469d8334d2ffed0f09", "type": "electric_scooter", "is_reserved": 0, "lon": -77.03655966666666}, {"fusion_lat": 0.0, "name": "91e78e50341ed88b3a622b9074673a08", "is_disabled": 0, "rental_uris": {"android": "https://dc.lft.to/lastmile_qr_scan", "ios": "https://dc.lft.to/lastmile_qr_scan"}, "fusion_lon": 0.0, "lat": 38.903964, "bike_id": "91e78e50341ed88b3a622b9074673a08", "type": "electric_scooter", "is_reserved": 0, "lon": -76.99009283333334}, {"fusion_lat": 0.0, "name": "0f8084b05d0a0412b6c694c881135c48", "is_disabled": 0, "rental_uris": {"android": "https://dc.lft.to/lastmile_qr_scan", "ios": "https://dc.lft.to/lastmile_qr_scan"}, "fusion_lon": 0.0, "lat": 38.85801883333333, "bike_id": "0f8084b05d0a0412b6c694c881135c48", "type": "electric_bike", "is_reserved": 0, "lon": -76.98714466666667}, {"fusion_lat": 0.0, "name": "22d56f9f16c572ac59f535adf9aa505e", "is_disabled": 0, "rental_uris": {"android": "https://dc.lft.to/lastmile_qr_scan", "ios": "https://dc.lft.to/lastmile_qr_scan"}, "fusion_lon": 0.0, "lat": 38.901008, "bike_id": "22d56f9f16c572ac59f535adf9aa505e", "type": "electric_scooter", "is_reserved": 0, "lon": -77.01977116666667}, {"fusion_lat": 0.0, "name": "0723033aafbe504d26836765b722a80d", "is_disabled": 0, "rental_uris": {"android": "https://dc.lft.to/lastmile_qr_scan", "ios": "https://dc.lft.to/lastmile_qr_scan"}, "fusion_lon": 0.0, "lat": 38.918126, "bike_id": "0723033aafbe504d26836765b722a80d", "type": "electric_scooter", "is_reserved": 0, "lon": -77.04012066666667}, {"fusion_lat": 0.0, "name": "bc5d99d7f7042f2c582c1f6470bcbe4d", "is_disabled": 0, "rental_uris": {"android": "https://dc.lft.to/lastmile_qr_scan", "ios": "https://dc.lft.to/lastmile_qr_scan"}, "fusion_lon": 0.0, "lat": 38.92183216666667, "bike_id": "bc5d99d7f7042f2c582c1f6470bcbe4d", "type": "electric_scooter", "is_reserved": 0, "lon": -76.9968375}, {"fusion_lat": 0.0, "name": "e50d7ebb36d6f397def6709fd5446b29", "is_disabled": 0, "rental_uris": {"android": "https://dc.lft.to/lastmile_qr_scan", "ios": "https://dc.lft.to/lastmile_qr_scan"}, "fusion_lon": 0.0, "lat": 38.862493, "bike_id": "e50d7ebb36d6f397def6709fd5446b29", "type": "electric_bike", "is_reserved": 0, "lon": -76.98333866666667}, {"fusion_lat": 0.0, "name": "cac8a97fafc271a4053fe5eb2d985621", "is_disabled": 0, "rental_uris": {"android": "https://dc.lft.to/lastmile_qr_scan", "ios": "https://dc.lft.to/lastmile_qr_scan"}, "fusion_lon": 0.0, "lat": 38.923959833333335, "bike_id": "cac8a97fafc271a4053fe5eb2d985621", "type": "electric_scooter", "is_reserved": 0, "lon": -77.03650383333333}, {"fusion_lat": 0.0, "name": "121a8a3ce603b33fca3cbe4b7538d9f6", "is_disabled": 0, "rental_uris": {"android": "https://dc.lft.to/lastmile_qr_scan", "ios": "https://dc.lft.to/lastmile_qr_scan"}, "fusion_lon": 0.0, "lat": 38.92065683333333, "bike_id": "121a8a3ce603b33fca3cbe4b7538d9f6", "type": "electric_scooter", "is_reserved": 0, "lon": -77.0323625}, {"fusion_lat": 0.0, "name": "da4c8d1e4c1e9466a6b993c770f07b2c", "is_disabled": 0, "rental_uris": {"android": "https://dc.lft.to/lastmile_qr_scan", "ios": "https://dc.lft.to/lastmile_qr_scan"}, "fusion_lon": 0.0, "lat": 38.8954355, "bike_id": "da4c8d1e4c1e9466a6b993c770f07b2c", "type": "electric_scooter", "is_reserved": 0, "lon": -76.98339133333333}, {"fusion_lat": 0.0, "name": "232a690516bddd91d64eb255b9e2055c", "is_disabled": 0, "rental_uris": {"android": "https://dc.lft.to/lastmile_qr_scan", "ios": "https://dc.lft.to/lastmile_qr_scan"}, "fusion_lon": 0.0, "lat": 38.887450666666666, "bike_id": "232a690516bddd91d64eb255b9e2055c", "type": "electric_scooter", "is_reserved": 0, "lon": -77.0213815}, {"fusion_lat": 0.0, "name": "c49d862df32630cce85210c114812adb", "is_disabled": 0, "rental_uris": {"android": "https://dc.lft.to/lastmile_qr_scan", "ios": "https://dc.lft.to/lastmile_qr_scan"}, "fusion_lon": 0.0, "lat": 38.902882, "bike_id": "c49d862df32630cce85210c114812adb", "type": "electric_scooter", "is_reserved": 0, "lon": -77.03648866666667}, {"fusion_lat": 0.0, "name": "7f530c9ddab497a6bee9c9158aac3c76", "is_disabled": 0, "rental_uris": {"android": "https://dc.lft.to/lastmile_qr_scan", "ios": "https://dc.lft.to/lastmile_qr_scan"}, "fusion_lon": 0.0, "lat": 38.900280333333335, "bike_id": "7f530c9ddab497a6bee9c9158aac3c76", "type": "electric_scooter", "is_reserved": 0, "lon": -76.9987315}, {"fusion_lat": 0.0, "name": "2f367d35c6f949c4ce245fa609729ac8", "is_disabled": 0, "rental_uris": {"android": "https://dc.lft.to/lastmile_qr_scan", "ios": "https://dc.lft.to/lastmile_qr_scan"}, "fusion_lon": 0.0, "lat": 38.90722516666666, "bike_id": "2f367d35c6f949c4ce245fa609729ac8", "type": "electric_scooter", "is_reserved": 0, "lon": -77.04559766666667}, {"fusion_lat": 0.0, "name": "de21b121ed2967e7dca120040d58c729", "is_disabled": 0, "rental_uris": {"android": "https://dc.lft.to/lastmile_qr_scan", "ios": "https://dc.lft.to/lastmile_qr_scan"}, "fusion_lon": 0.0, "lat": 38.917721666666665, "bike_id": "de21b121ed2967e7dca120040d58c729", "type": "electric_scooter", "is_reserved": 0, "lon": -77.0357985}, {"fusion_lat": 0.0, "name": "85886171259cbf7073ad2bcc1a1197d6", "is_disabled": 0, "rental_uris": {"android": "https://dc.lft.to/lastmile_qr_scan", "ios": "https://dc.lft.to/lastmile_qr_scan"}, "fusion_lon": 0.0, "lat": 38.89950983333333, "bike_id": "85886171259cbf7073ad2bcc1a1197d6", "type": "electric_scooter", "is_reserved": 0, "lon": -77.05704666666666}, {"fusion_lat": 0.0, "name": "1d09b1065a1ee96da274c18161b084b4", "is_disabled": 0, "rental_uris": {"android": "https://dc.lft.to/lastmile_qr_scan", "ios": "https://dc.lft.to/lastmile_qr_scan"}, "fusion_lon": 0.0, "lat": 38.91541, "bike_id": "1d09b1065a1ee96da274c18161b084b4", "type": "electric_scooter", "is_reserved": 0, "lon": -77.032074}, {"fusion_lat": 0.0, "name": "7a11ae9c87df90ba83951332e8908e26", "is_disabled": 0, "rental_uris": {"android": "https://dc.lft.to/lastmile_qr_scan", "ios": "https://dc.lft.to/lastmile_qr_scan"}, "fusion_lon": 0.0, "lat": 38.92288283333333, "bike_id": "7a11ae9c87df90ba83951332e8908e26", "type": "electric_scooter", "is_reserved": 0, "lon": -77.036597}, {"fusion_lat": 0.0, "name": "063f171138d26680388b533d7ce7cbcc", "is_disabled": 0, "rental_uris": {"android": "https://dc.lft.to/lastmile_qr_scan", "ios": "https://dc.lft.to/lastmile_qr_scan"}, "fusion_lon": 0.0, "lat": 38.914014, "bike_id": "063f171138d26680388b533d7ce7cbcc", "type": "electric_scooter", "is_reserved": 0, "lon": -77.07553883333334}, {"fusion_lat": 0.0, "name": "6f18b85136f56dc3555adc100f79dd19", "is_disabled": 0, "rental_uris": {"android": "https://dc.lft.to/lastmile_qr_scan", "ios": "https://dc.lft.to/lastmile_qr_scan"}, "fusion_lon": 0.0, "lat": 38.91259, "bike_id": "6f18b85136f56dc3555adc100f79dd19", "type": "electric_scooter", "is_reserved": 0, "lon": -77.0386585}, {"fusion_lat": 0.0, "name": "f3337f79e6e1001bb1e5cd48d48dc0d6", "is_disabled": 0, "rental_uris": {"android": "https://dc.lft.to/lastmile_qr_scan", "ios": "https://dc.lft.to/lastmile_qr_scan"}, "fusion_lon": 0.0, "lat": 38.92065266666667, "bike_id": "f3337f79e6e1001bb1e5cd48d48dc0d6", "type": "electric_scooter", "is_reserved": 0, "lon": -77.0437535}, {"fusion_lat": 0.0, "name": "a9057c7cbdf207292b788f983220d16d", "is_disabled": 0, "rental_uris": {"android": "https://dc.lft.to/lastmile_qr_scan", "ios": "https://dc.lft.to/lastmile_qr_scan"}, "fusion_lon": 0.0, "lat": 38.918445166666665, "bike_id": "a9057c7cbdf207292b788f983220d16d", "type": "electric_scooter", "is_reserved": 0, "lon": -77.03525433333333}, {"fusion_lat": 0.0, "name": "d6ad890817036888d783afe5bb0f14a8", "is_disabled": 0, "rental_uris": {"android": "https://dc.lft.to/lastmile_qr_scan", "ios": "https://dc.lft.to/lastmile_qr_scan"}, "fusion_lon": 0.0, "lat": 38.9266725, "bike_id": "d6ad890817036888d783afe5bb0f14a8", "type": "electric_scooter", "is_reserved": 0, "lon": -77.03026083333333}, {"fusion_lat": 0.0, "name": "db1daa3f29a9578994f3f74900aa014d", "is_disabled": 0, "rental_uris": {"android": "https://dc.lft.to/lastmile_qr_scan", "ios": "https://dc.lft.to/lastmile_qr_scan"}, "fusion_lon": 0.0, "lat": 38.860056, "bike_id": "db1daa3f29a9578994f3f74900aa014d", "type": "electric_scooter", "is_reserved": 0, "lon": -76.9852135}, {"fusion_lat": 0.0, "name": "29eef59faa0a9a7b20bb39de03834da5", "is_disabled": 0, "rental_uris": {"android": "https://dc.lft.to/lastmile_qr_scan", "ios": "https://dc.lft.to/lastmile_qr_scan"}, "fusion_lon": 0.0, "lat": 38.92541033333333, "bike_id": "29eef59faa0a9a7b20bb39de03834da5", "type": "electric_scooter", "is_reserved": 0, "lon": -77.052399}, {"fusion_lat": 0.0, "name": "2e37daa08c8ac26d1aa984522d5e283f", "is_disabled": 0, "rental_uris": {"android": "https://dc.lft.to/lastmile_qr_scan", "ios": "https://dc.lft.to/lastmile_qr_scan"}, "fusion_lon": 0.0, "lat": 38.92073383333334, "bike_id": "2e37daa08c8ac26d1aa984522d5e283f", "type": "electric_scooter", "is_reserved": 0, "lon": -77.02411583333334}, {"fusion_lat": 0.0, "name": "b80ecc482a926c9148f95f53bac0a00f", "is_disabled": 0, "rental_uris": {"android": "https://dc.lft.to/lastmile_qr_scan", "ios": "https://dc.lft.to/lastmile_qr_scan"}, "fusion_lon": 0.0, "lat": 38.91704133333333, "bike_id": "b80ecc482a926c9148f95f53bac0a00f", "type": "electric_scooter", "is_reserved": 0, "lon": -77.0427765}, {"fusion_lat": 0.0, "name": "14281b00d05d34e0488c5a030c1e6e80", "is_disabled": 0, "rental_uris": {"android": "https://dc.lft.to/lastmile_qr_scan", "ios": "https://dc.lft.to/lastmile_qr_scan"}, "fusion_lon": 0.0, "lat": 38.904649, "bike_id": "14281b00d05d34e0488c5a030c1e6e80", "type": "electric_scooter", "is_reserved": 0, "lon": -77.0281335}, {"fusion_lat": 0.0, "name": "9d7ecb2f12c849f98d2300dc779879a0", "is_disabled": 0, "rental_uris": {"android": "https://dc.lft.to/lastmile_qr_scan", "ios": "https://dc.lft.to/lastmile_qr_scan"}, "fusion_lon": 0.0, "lat": 38.95929066666667, "bike_id": "9d7ecb2f12c849f98d2300dc779879a0", "type": "electric_bike", "is_reserved": 0, "lon": -76.92839766666667}, {"fusion_lat": 0.0, "name": "77f816568fd9b56a5c2e54339e0321a6", "is_disabled": 0, "rental_uris": {"android": "https://dc.lft.to/lastmile_qr_scan", "ios": "https://dc.lft.to/lastmile_qr_scan"}, "fusion_lon": 0.0, "lat": 38.895720833333336, "bike_id": "77f816568fd9b56a5c2e54339e0321a6", "type": "electric_scooter", "is_reserved": 0, "lon": -76.98324566666666}, {"fusion_lat": 0.0, "name": "38bb81a80733a02e03fb15c67e2a6dc6", "is_disabled": 0, "rental_uris": {"android": "https://dc.lft.to/lastmile_qr_scan", "ios": "https://dc.lft.to/lastmile_qr_scan"}, "fusion_lon": 0.0, "lat": 38.88770916666667, "bike_id": "38bb81a80733a02e03fb15c67e2a6dc6", "type": "electric_scooter", "is_reserved": 0, "lon": -76.991597}, {"fusion_lat": 0.0, "name": "df0f4259b528386e18d020637f0af368", "is_disabled": 0, "rental_uris": {"android": "https://dc.lft.to/lastmile_qr_scan", "ios": "https://dc.lft.to/lastmile_qr_scan"}, "fusion_lon": 0.0, "lat": 38.934128666666666, "bike_id": "df0f4259b528386e18d020637f0af368", "type": "electric_scooter", "is_reserved": 0, "lon": -77.02208833333333}, {"fusion_lat": 0.0, "name": "441eed6259cca4f101607f7ddf17d5bd", "is_disabled": 0, "rental_uris": {"android": "https://dc.lft.to/lastmile_qr_scan", "ios": "https://dc.lft.to/lastmile_qr_scan"}, "fusion_lon": 0.0, "lat": 38.9025225, "bike_id": "441eed6259cca4f101607f7ddf17d5bd", "type": "electric_scooter", "is_reserved": 0, "lon": -77.03255483333334}, {"fusion_lat": 0.0, "name": "98f2dab98d8865c3bccf35ccbca98cee", "is_disabled": 0, "rental_uris": {"android": "https://dc.lft.to/lastmile_qr_scan", "ios": "https://dc.lft.to/lastmile_qr_scan"}, "fusion_lon": 0.0, "lat": 38.9056325, "bike_id": "98f2dab98d8865c3bccf35ccbca98cee", "type": "electric_scooter", "is_reserved": 0, "lon": -77.04665816666666}, {"fusion_lat": 0.0, "name": "536fdfe1a3a87710561e47bb44ac0491", "is_disabled": 0, "rental_uris": {"android": "https://dc.lft.to/lastmile_qr_scan", "ios": "https://dc.lft.to/lastmile_qr_scan"}, "fusion_lon": 0.0, "lat": 38.922894666666664, "bike_id": "536fdfe1a3a87710561e47bb44ac0491", "type": "electric_scooter", "is_reserved": 0, "lon": -77.0296495}, {"fusion_lat": 0.0, "name": "8afd7d01bc2d1b8c8cc421b35e261b5b", "is_disabled": 0, "rental_uris": {"android": "https://dc.lft.to/lastmile_qr_scan", "ios": "https://dc.lft.to/lastmile_qr_scan"}, "fusion_lon": 0.0, "lat": 38.90123216666667, "bike_id": "8afd7d01bc2d1b8c8cc421b35e261b5b", "type": "electric_scooter", "is_reserved": 0, "lon": -77.03376233333333}, {"fusion_lat": 0.0, "name": "2505b4eccd86d3f26491d5d3c6e4d28a", "is_disabled": 0, "rental_uris": {"android": "https://dc.lft.to/lastmile_qr_scan", "ios": "https://dc.lft.to/lastmile_qr_scan"}, "fusion_lon": 0.0, "lat": 38.908933166666664, "bike_id": "2505b4eccd86d3f26491d5d3c6e4d28a", "type": "electric_scooter", "is_reserved": 0, "lon": -77.04399916666667}, {"fusion_lat": 0.0, "name": "7eb7695c099f6736325f5b21cd99035d", "is_disabled": 0, "rental_uris": {"android": "https://dc.lft.to/lastmile_qr_scan", "ios": "https://dc.lft.to/lastmile_qr_scan"}, "fusion_lon": 0.0, "lat": 38.9001365, "bike_id": "7eb7695c099f6736325f5b21cd99035d", "type": "electric_scooter", "is_reserved": 0, "lon": -76.9932025}, {"fusion_lat": 0.0, "name": "aa1885a970e60a791d8439fd54903aa3", "is_disabled": 0, "rental_uris": {"android": "https://dc.lft.to/lastmile_qr_scan", "ios": "https://dc.lft.to/lastmile_qr_scan"}, "fusion_lon": 0.0, "lat": 38.954212166666665, "bike_id": "aa1885a970e60a791d8439fd54903aa3", "type": "electric_scooter", "is_reserved": 0, "lon": -77.027613}, {"fusion_lat": 0.0, "name": "e470308e0b085f3379a831c82b51da3b", "is_disabled": 0, "rental_uris": {"android": "https://dc.lft.to/lastmile_qr_scan", "ios": "https://dc.lft.to/lastmile_qr_scan"}, "fusion_lon": 0.0, "lat": 38.89769116666667, "bike_id": "e470308e0b085f3379a831c82b51da3b", "type": "electric_scooter", "is_reserved": 0, "lon": -77.02735066666666}, {"fusion_lat": 0.0, "name": "4808f25d804d6ab6b1e3b0cd7baf496a", "is_disabled": 0, "rental_uris": {"android": "https://dc.lft.to/lastmile_qr_scan", "ios": "https://dc.lft.to/lastmile_qr_scan"}, "fusion_lon": 0.0, "lat": 38.91632283333333, "bike_id": "4808f25d804d6ab6b1e3b0cd7baf496a", "type": "electric_scooter", "is_reserved": 0, "lon": -77.05070583333334}, {"fusion_lat": 0.0, "name": "aff971f88e3db0110978da4fa37e1052", "is_disabled": 0, "rental_uris": {"android": "https://dc.lft.to/lastmile_qr_scan", "ios": "https://dc.lft.to/lastmile_qr_scan"}, "fusion_lon": 0.0, "lat": 38.898447833333336, "bike_id": "aff971f88e3db0110978da4fa37e1052", "type": "electric_scooter", "is_reserved": 0, "lon": -76.942584}, {"fusion_lat": 0.0, "name": "59f5f2e36dc227442b50e62730c008b9", "is_disabled": 0, "rental_uris": {"android": "https://dc.lft.to/lastmile_qr_scan", "ios": "https://dc.lft.to/lastmile_qr_scan"}, "fusion_lon": 0.0, "lat": 38.8935995, "bike_id": "59f5f2e36dc227442b50e62730c008b9", "type": "electric_scooter", "is_reserved": 0, "lon": -76.9865555}, {"fusion_lat": 0.0, "name": "80994d065ce804005ffa7a16652fd022", "is_disabled": 0, "rental_uris": {"android": "https://dc.lft.to/lastmile_qr_scan", "ios": "https://dc.lft.to/lastmile_qr_scan"}, "fusion_lon": 0.0, "lat": 38.931861166666664, "bike_id": "80994d065ce804005ffa7a16652fd022", "type": "electric_scooter", "is_reserved": 0, "lon": -77.033046}, {"fusion_lat": 0.0, "name": "49a733226e38dc1f3f748de9331bdabd", "is_disabled": 0, "rental_uris": {"android": "https://dc.lft.to/lastmile_qr_scan", "ios": "https://dc.lft.to/lastmile_qr_scan"}, "fusion_lon": 0.0, "lat": 38.9184965, "bike_id": "49a733226e38dc1f3f748de9331bdabd", "type": "electric_scooter", "is_reserved": 0, "lon": -77.02304716666667}, {"fusion_lat": 0.0, "name": "53161e25ce5e1ecde94211e128337faf", "is_disabled": 0, "rental_uris": {"android": "https://dc.lft.to/lastmile_qr_scan", "ios": "https://dc.lft.to/lastmile_qr_scan"}, "fusion_lon": 0.0, "lat": 38.897173333333335, "bike_id": "53161e25ce5e1ecde94211e128337faf", "type": "electric_scooter", "is_reserved": 0, "lon": -77.00796783333334}, {"fusion_lat": 0.0, "name": "49a5dba4903db256cd995417c7a9772c", "is_disabled": 0, "rental_uris": {"android": "https://dc.lft.to/lastmile_qr_scan", "ios": "https://dc.lft.to/lastmile_qr_scan"}, "fusion_lon": 0.0, "lat": 38.92258133333333, "bike_id": "49a5dba4903db256cd995417c7a9772c", "type": "electric_bike", "is_reserved": 0, "lon": -76.98651666666666}, {"fusion_lat": 0.0, "name": "6ae45acc0ea4343094917f78f62247d5", "is_disabled": 0, "rental_uris": {"android": "https://dc.lft.to/lastmile_qr_scan", "ios": "https://dc.lft.to/lastmile_qr_scan"}, "fusion_lon": 0.0, "lat": 38.899989166666664, "bike_id": "6ae45acc0ea4343094917f78f62247d5", "type": "electric_scooter", "is_reserved": 0, "lon": -76.998461}, {"fusion_lat": 0.0, "name": "573889c2007f10b089782385025fadca", "is_disabled": 0, "rental_uris": {"android": "https://dc.lft.to/lastmile_qr_scan", "ios": "https://dc.lft.to/lastmile_qr_scan"}, "fusion_lon": 0.0, "lat": 38.892197, "bike_id": "573889c2007f10b089782385025fadca", "type": "electric_scooter", "is_reserved": 0, "lon": -77.023137}, {"fusion_lat": 0.0, "name": "cfebd2112a475d22b42518a7aaa40f61", "is_disabled": 0, "rental_uris": {"android": "https://dc.lft.to/lastmile_qr_scan", "ios": "https://dc.lft.to/lastmile_qr_scan"}, "fusion_lon": 0.0, "lat": 38.91562, "bike_id": "cfebd2112a475d22b42518a7aaa40f61", "type": "electric_scooter", "is_reserved": 0, "lon": -77.031676}, {"fusion_lat": 0.0, "name": "36d557efa6ad6577e5d94a7714d42ab0", "is_disabled": 0, "rental_uris": {"android": "https://dc.lft.to/lastmile_qr_scan", "ios": "https://dc.lft.to/lastmile_qr_scan"}, "fusion_lon": 0.0, "lat": 38.901603333333334, "bike_id": "36d557efa6ad6577e5d94a7714d42ab0", "type": "electric_scooter", "is_reserved": 0, "lon": -77.0260225}, {"fusion_lat": 0.0, "name": "49146e0cf9aede47e58aeb37f7f5f3cc", "is_disabled": 0, "rental_uris": {"android": "https://dc.lft.to/lastmile_qr_scan", "ios": "https://dc.lft.to/lastmile_qr_scan"}, "fusion_lon": 0.0, "lat": 38.919820333333334, "bike_id": "49146e0cf9aede47e58aeb37f7f5f3cc", "type": "electric_scooter", "is_reserved": 0, "lon": -77.02592883333334}, {"fusion_lat": 0.0, "name": "b707c966ba814b6f50bb7d16366c0be0", "is_disabled": 0, "rental_uris": {"android": "https://dc.lft.to/lastmile_qr_scan", "ios": "https://dc.lft.to/lastmile_qr_scan"}, "fusion_lon": 0.0, "lat": 38.89505916666667, "bike_id": "b707c966ba814b6f50bb7d16366c0be0", "type": "electric_scooter", "is_reserved": 0, "lon": -77.0396135}, {"fusion_lat": 0.0, "name": "ede67a5cdbd019f7b5eb2deade2c2f33", "is_disabled": 0, "rental_uris": {"android": "https://dc.lft.to/lastmile_qr_scan", "ios": "https://dc.lft.to/lastmile_qr_scan"}, "fusion_lon": 0.0, "lat": 38.898957333333335, "bike_id": "ede67a5cdbd019f7b5eb2deade2c2f33", "type": "electric_scooter", "is_reserved": 0, "lon": -76.99387266666666}, {"fusion_lat": 0.0, "name": "97fbc983fa539f071ffccd8ebedb75ea", "is_disabled": 0, "rental_uris": {"android": "https://dc.lft.to/lastmile_qr_scan", "ios": "https://dc.lft.to/lastmile_qr_scan"}, "fusion_lon": 0.0, "lat": 38.87187516666667, "bike_id": "97fbc983fa539f071ffccd8ebedb75ea", "type": "electric_scooter", "is_reserved": 0, "lon": -77.00575316666666}, {"fusion_lat": 0.0, "name": "2a09bc24df0a07dbb363316d5ccdd562", "is_disabled": 0, "rental_uris": {"android": "https://dc.lft.to/lastmile_qr_scan", "ios": "https://dc.lft.to/lastmile_qr_scan"}, "fusion_lon": 0.0, "lat": 38.89524683333333, "bike_id": "2a09bc24df0a07dbb363316d5ccdd562", "type": "electric_scooter", "is_reserved": 0, "lon": -76.93412766666667}, {"fusion_lat": 0.0, "name": "6b8dea6755e38889a4d104419bea0166", "is_disabled": 0, "rental_uris": {"android": "https://dc.lft.to/lastmile_qr_scan", "ios": "https://dc.lft.to/lastmile_qr_scan"}, "fusion_lon": 0.0, "lat": 38.91671933333333, "bike_id": "6b8dea6755e38889a4d104419bea0166", "type": "electric_scooter", "is_reserved": 0, "lon": -77.01579683333334}, {"fusion_lat": 0.0, "name": "572cfc81f442933a0777f25ca87a589b", "is_disabled": 0, "rental_uris": {"android": "https://dc.lft.to/lastmile_qr_scan", "ios": "https://dc.lft.to/lastmile_qr_scan"}, "fusion_lon": 0.0, "lat": 38.91128766666667, "bike_id": "572cfc81f442933a0777f25ca87a589b", "type": "electric_scooter", "is_reserved": 0, "lon": -76.99757483333333}, {"fusion_lat": 0.0, "name": "b4dd144ce466868e4d15937d081925be", "is_disabled": 0, "rental_uris": {"android": "https://dc.lft.to/lastmile_qr_scan", "ios": "https://dc.lft.to/lastmile_qr_scan"}, "fusion_lon": 0.0, "lat": 38.905151000000004, "bike_id": "b4dd144ce466868e4d15937d081925be", "type": "electric_scooter", "is_reserved": 0, "lon": -77.06471083333334}, {"fusion_lat": 0.0, "name": "68991a1e67635490923f0a03f5c085e4", "is_disabled": 0, "rental_uris": {"android": "https://dc.lft.to/lastmile_qr_scan", "ios": "https://dc.lft.to/lastmile_qr_scan"}, "fusion_lon": 0.0, "lat": 38.93950066666667, "bike_id": "68991a1e67635490923f0a03f5c085e4", "type": "electric_scooter", "is_reserved": 0, "lon": -77.021812}, {"fusion_lat": 0.0, "name": "e9493268e02c740399ccfd534df59be1", "is_disabled": 0, "rental_uris": {"android": "https://dc.lft.to/lastmile_qr_scan", "ios": "https://dc.lft.to/lastmile_qr_scan"}, "fusion_lon": 0.0, "lat": 38.9009005, "bike_id": "e9493268e02c740399ccfd534df59be1", "type": "electric_scooter", "is_reserved": 0, "lon": -76.98342683333334}, {"fusion_lat": 0.0, "name": "4f9485f2eb5f128e11c1ff3cfd55a2e1", "is_disabled": 0, "rental_uris": {"android": "https://dc.lft.to/lastmile_qr_scan", "ios": "https://dc.lft.to/lastmile_qr_scan"}, "fusion_lon": 0.0, "lat": 38.95631083333333, "bike_id": "4f9485f2eb5f128e11c1ff3cfd55a2e1", "type": "electric_bike", "is_reserved": 0, "lon": -76.93903466666667}, {"fusion_lat": 0.0, "name": "7667d9794a379650d11f25b3236923b6", "is_disabled": 0, "rental_uris": {"android": "https://dc.lft.to/lastmile_qr_scan", "ios": "https://dc.lft.to/lastmile_qr_scan"}, "fusion_lon": 0.0, "lat": 38.8984885, "bike_id": "7667d9794a379650d11f25b3236923b6", "type": "electric_scooter", "is_reserved": 0, "lon": -77.025776}, {"fusion_lat": 0.0, "name": "9422ad8d1fe16a5f0214a673b624d237", "is_disabled": 0, "rental_uris": {"android": "https://dc.lft.to/lastmile_qr_scan", "ios": "https://dc.lft.to/lastmile_qr_scan"}, "fusion_lon": 0.0, "lat": 38.91123283333334, "bike_id": "9422ad8d1fe16a5f0214a673b624d237", "type": "electric_scooter", "is_reserved": 0, "lon": -76.99754983333334}, {"fusion_lat": 0.0, "name": "e3f48a60e7b64508af11f8009d6c5c66", "is_disabled": 0, "rental_uris": {"android": "https://dc.lft.to/lastmile_qr_scan", "ios": "https://dc.lft.to/lastmile_qr_scan"}, "fusion_lon": 0.0, "lat": 38.931291333333334, "bike_id": "e3f48a60e7b64508af11f8009d6c5c66", "type": "electric_scooter", "is_reserved": 0, "lon": -77.03855683333333}, {"fusion_lat": 0.0, "name": "2fd97b826a1c263faefd09ba54aa4abd", "is_disabled": 0, "rental_uris": {"android": "https://dc.lft.to/lastmile_qr_scan", "ios": "https://dc.lft.to/lastmile_qr_scan"}, "fusion_lon": 0.0, "lat": 38.91479616666667, "bike_id": "2fd97b826a1c263faefd09ba54aa4abd", "type": "electric_scooter", "is_reserved": 0, "lon": -77.046063}, {"fusion_lat": 0.0, "name": "5a194f0aa00eda87ab04981401788ecb", "is_disabled": 0, "rental_uris": {"android": "https://dc.lft.to/lastmile_qr_scan", "ios": "https://dc.lft.to/lastmile_qr_scan"}, "fusion_lon": 0.0, "lat": 38.902455833333335, "bike_id": "5a194f0aa00eda87ab04981401788ecb", "type": "electric_scooter", "is_reserved": 0, "lon": -77.019762}, {"fusion_lat": 0.0, "name": "ce66666afaad6f31011555fdcd642169", "is_disabled": 0, "rental_uris": {"android": "https://dc.lft.to/lastmile_qr_scan", "ios": "https://dc.lft.to/lastmile_qr_scan"}, "fusion_lon": 0.0, "lat": 38.89580183333333, "bike_id": "ce66666afaad6f31011555fdcd642169", "type": "electric_scooter", "is_reserved": 0, "lon": -76.98323483333333}, {"fusion_lat": 0.0, "name": "161014866d924a558b1e903c7fbdf21a", "is_disabled": 0, "rental_uris": {"android": "https://dc.lft.to/lastmile_qr_scan", "ios": "https://dc.lft.to/lastmile_qr_scan"}, "fusion_lon": 0.0, "lat": 38.90223483333333, "bike_id": "161014866d924a558b1e903c7fbdf21a", "type": "electric_scooter", "is_reserved": 0, "lon": -77.022216}, {"fusion_lat": 0.0, "name": "5d7b10d0e92bd90c0a633771c6a6f392", "is_disabled": 0, "rental_uris": {"android": "https://dc.lft.to/lastmile_qr_scan", "ios": "https://dc.lft.to/lastmile_qr_scan"}, "fusion_lon": 0.0, "lat": 38.9233575, "bike_id": "5d7b10d0e92bd90c0a633771c6a6f392", "type": "electric_scooter", "is_reserved": 0, "lon": -77.0530135}, {"fusion_lat": 0.0, "name": "ce68ec9e089c5da2b5a665cd9bca5d9c", "is_disabled": 0, "rental_uris": {"android": "https://dc.lft.to/lastmile_qr_scan", "ios": "https://dc.lft.to/lastmile_qr_scan"}, "fusion_lon": 0.0, "lat": 38.9357945, "bike_id": "ce68ec9e089c5da2b5a665cd9bca5d9c", "type": "electric_scooter", "is_reserved": 0, "lon": -77.02126933333334}, {"fusion_lat": 0.0, "name": "c6b363c3f6bcc9c3ac6625d4202d926b", "is_disabled": 0, "rental_uris": {"android": "https://dc.lft.to/lastmile_qr_scan", "ios": "https://dc.lft.to/lastmile_qr_scan"}, "fusion_lon": 0.0, "lat": 38.90669466666667, "bike_id": "c6b363c3f6bcc9c3ac6625d4202d926b", "type": "electric_scooter", "is_reserved": 0, "lon": -77.02713233333333}, {"fusion_lat": 0.0, "name": "dba316113ddf7287c204837189e95cb9", "is_disabled": 0, "rental_uris": {"android": "https://dc.lft.to/lastmile_qr_scan", "ios": "https://dc.lft.to/lastmile_qr_scan"}, "fusion_lon": 0.0, "lat": 38.949658, "bike_id": "dba316113ddf7287c204837189e95cb9", "type": "electric_scooter", "is_reserved": 0, "lon": -77.0663615}, {"fusion_lat": 0.0, "name": "a1166e22918c27bc990dc0ee0ac81074", "is_disabled": 0, "rental_uris": {"android": "https://dc.lft.to/lastmile_qr_scan", "ios": "https://dc.lft.to/lastmile_qr_scan"}, "fusion_lon": 0.0, "lat": 38.918232333333336, "bike_id": "a1166e22918c27bc990dc0ee0ac81074", "type": "electric_scooter", "is_reserved": 0, "lon": -77.0323175}, {"fusion_lat": 0.0, "name": "4ca706187c9d8ebe4207d232e0c36dfd", "is_disabled": 0, "rental_uris": {"android": "https://dc.lft.to/lastmile_qr_scan", "ios": "https://dc.lft.to/lastmile_qr_scan"}, "fusion_lon": 0.0, "lat": 38.90013283333333, "bike_id": "4ca706187c9d8ebe4207d232e0c36dfd", "type": "electric_scooter", "is_reserved": 0, "lon": -76.99760883333333}, {"fusion_lat": 0.0, "name": "7079f17395c02d5c6d5c843b0cc40e92", "is_disabled": 0, "rental_uris": {"android": "https://dc.lft.to/lastmile_qr_scan", "ios": "https://dc.lft.to/lastmile_qr_scan"}, "fusion_lon": 0.0, "lat": 38.903564333333335, "bike_id": "7079f17395c02d5c6d5c843b0cc40e92", "type": "electric_scooter", "is_reserved": 0, "lon": -77.01890083333333}, {"fusion_lat": 0.0, "name": "13dd7c08f54600f8ef2519eb795c142b", "is_disabled": 0, "rental_uris": {"android": "https://dc.lft.to/lastmile_qr_scan", "ios": "https://dc.lft.to/lastmile_qr_scan"}, "fusion_lon": 0.0, "lat": 38.92452633333333, "bike_id": "13dd7c08f54600f8ef2519eb795c142b", "type": "electric_scooter", "is_reserved": 0, "lon": -77.039635}, {"fusion_lat": 0.0, "name": "58811b17adb9541a4f918ba78edb768c", "is_disabled": 0, "rental_uris": {"android": "https://dc.lft.to/lastmile_qr_scan", "ios": "https://dc.lft.to/lastmile_qr_scan"}, "fusion_lon": 0.0, "lat": 38.9208505, "bike_id": "58811b17adb9541a4f918ba78edb768c", "type": "electric_scooter", "is_reserved": 0, "lon": -77.02540416666666}, {"fusion_lat": 0.0, "name": "4f5a096d54a5f618d730c4a416f54155", "is_disabled": 0, "rental_uris": {"android": "https://dc.lft.to/lastmile_qr_scan", "ios": "https://dc.lft.to/lastmile_qr_scan"}, "fusion_lon": 0.0, "lat": 38.904648333333334, "bike_id": "4f5a096d54a5f618d730c4a416f54155", "type": "electric_scooter", "is_reserved": 0, "lon": -77.02812983333334}, {"fusion_lat": 0.0, "name": "8a8efdde653e89722879bb51028d5505", "is_disabled": 0, "rental_uris": {"android": "https://dc.lft.to/lastmile_qr_scan", "ios": "https://dc.lft.to/lastmile_qr_scan"}, "fusion_lon": 0.0, "lat": 38.874649833333336, "bike_id": "8a8efdde653e89722879bb51028d5505", "type": "electric_scooter", "is_reserved": 0, "lon": -77.00575233333333}, {"fusion_lat": 0.0, "name": "5f12c53a51aabbee8b56bc622ae03c44", "is_disabled": 0, "rental_uris": {"android": "https://dc.lft.to/lastmile_qr_scan", "ios": "https://dc.lft.to/lastmile_qr_scan"}, "fusion_lon": 0.0, "lat": 38.90726766666667, "bike_id": "5f12c53a51aabbee8b56bc622ae03c44", "type": "electric_scooter", "is_reserved": 0, "lon": -77.00758516666667}, {"fusion_lat": 0.0, "name": "e1ee3f8b8fed7233aba4f5fba4852930", "is_disabled": 0, "rental_uris": {"android": "https://dc.lft.to/lastmile_qr_scan", "ios": "https://dc.lft.to/lastmile_qr_scan"}, "fusion_lon": 0.0, "lat": 38.87661683333333, "bike_id": "e1ee3f8b8fed7233aba4f5fba4852930", "type": "electric_scooter", "is_reserved": 0, "lon": -77.00072383333334}, {"fusion_lat": 0.0, "name": "aa66f5a56c00e138a5d6ecb87e631c25", "is_disabled": 0, "rental_uris": {"android": "https://dc.lft.to/lastmile_qr_scan", "ios": "https://dc.lft.to/lastmile_qr_scan"}, "fusion_lon": 0.0, "lat": 38.90255916666667, "bike_id": "aa66f5a56c00e138a5d6ecb87e631c25", "type": "electric_scooter", "is_reserved": 0, "lon": -77.00531833333334}, {"fusion_lat": 0.0, "name": "cdba6337ead030b0478648b8330790fa", "is_disabled": 0, "rental_uris": {"android": "https://dc.lft.to/lastmile_qr_scan", "ios": "https://dc.lft.to/lastmile_qr_scan"}, "fusion_lon": 0.0, "lat": 38.89225833333333, "bike_id": "cdba6337ead030b0478648b8330790fa", "type": "electric_scooter", "is_reserved": 0, "lon": -77.04896533333333}, {"fusion_lat": 0.0, "name": "958fdb288f27720437b54b638425a150", "is_disabled": 0, "rental_uris": {"android": "https://dc.lft.to/lastmile_qr_scan", "ios": "https://dc.lft.to/lastmile_qr_scan"}, "fusion_lon": 0.0, "lat": 38.938514833333336, "bike_id": "958fdb288f27720437b54b638425a150", "type": "electric_scooter", "is_reserved": 0, "lon": -77.03396533333333}, {"fusion_lat": 0.0, "name": "0b78563b8b70c86a31812a32285ff27e", "is_disabled": 0, "rental_uris": {"android": "https://dc.lft.to/lastmile_qr_scan", "ios": "https://dc.lft.to/lastmile_qr_scan"}, "fusion_lon": 0.0, "lat": 38.957047833333334, "bike_id": "0b78563b8b70c86a31812a32285ff27e", "type": "electric_scooter", "is_reserved": 0, "lon": -77.0241035}, {"fusion_lat": 0.0, "name": "e956e6375bc1402c04a5d7be4c17fe28", "is_disabled": 0, "rental_uris": {"android": "https://dc.lft.to/lastmile_qr_scan", "ios": "https://dc.lft.to/lastmile_qr_scan"}, "fusion_lon": 0.0, "lat": 38.917982, "bike_id": "e956e6375bc1402c04a5d7be4c17fe28", "type": "electric_scooter", "is_reserved": 0, "lon": -77.04170933333333}, {"fusion_lat": 0.0, "name": "e45de1c6c1d9395fac4e78d5cd0f682a", "is_disabled": 0, "rental_uris": {"android": "https://dc.lft.to/lastmile_qr_scan", "ios": "https://dc.lft.to/lastmile_qr_scan"}, "fusion_lon": 0.0, "lat": 38.91764216666667, "bike_id": "e45de1c6c1d9395fac4e78d5cd0f682a", "type": "electric_scooter", "is_reserved": 0, "lon": -77.004476}, {"fusion_lat": 0.0, "name": "c261fceb834e95a5bbd3818e2298806e", "is_disabled": 0, "rental_uris": {"android": "https://dc.lft.to/lastmile_qr_scan", "ios": "https://dc.lft.to/lastmile_qr_scan"}, "fusion_lon": 0.0, "lat": 38.928569333333336, "bike_id": "c261fceb834e95a5bbd3818e2298806e", "type": "electric_scooter", "is_reserved": 0, "lon": -77.03534}, {"fusion_lat": 0.0, "name": "fa05a3092a860c0f68c7df08720f3891", "is_disabled": 0, "rental_uris": {"android": "https://dc.lft.to/lastmile_qr_scan", "ios": "https://dc.lft.to/lastmile_qr_scan"}, "fusion_lon": 0.0, "lat": 38.831591, "bike_id": "fa05a3092a860c0f68c7df08720f3891", "type": "electric_bike", "is_reserved": 0, "lon": -76.99575416666667}, {"fusion_lat": 0.0, "name": "10459ff68716cca22887e4ff17580db3", "is_disabled": 0, "rental_uris": {"android": "https://dc.lft.to/lastmile_qr_scan", "ios": "https://dc.lft.to/lastmile_qr_scan"}, "fusion_lon": 0.0, "lat": 38.899566, "bike_id": "10459ff68716cca22887e4ff17580db3", "type": "electric_scooter", "is_reserved": 0, "lon": -76.9753095}, {"fusion_lat": 0.0, "name": "e82d292967ad28b4047355bbe5895427", "is_disabled": 0, "rental_uris": {"android": "https://dc.lft.to/lastmile_qr_scan", "ios": "https://dc.lft.to/lastmile_qr_scan"}, "fusion_lon": 0.0, "lat": 38.874063666666665, "bike_id": "e82d292967ad28b4047355bbe5895427", "type": "electric_scooter", "is_reserved": 0, "lon": -77.00201966666667}, {"fusion_lat": 0.0, "name": "f6dd33354515386083c5024de5dcbbf7", "is_disabled": 0, "rental_uris": {"android": "https://dc.lft.to/lastmile_qr_scan", "ios": "https://dc.lft.to/lastmile_qr_scan"}, "fusion_lon": 0.0, "lat": 38.908805666666666, "bike_id": "f6dd33354515386083c5024de5dcbbf7", "type": "electric_scooter", "is_reserved": 0, "lon": -77.04385566666667}, {"fusion_lat": 0.0, "name": "8e94a6994d780ff7770c73b47bf4a255", "is_disabled": 0, "rental_uris": {"android": "https://dc.lft.to/lastmile_qr_scan", "ios": "https://dc.lft.to/lastmile_qr_scan"}, "fusion_lon": 0.0, "lat": 38.9021285, "bike_id": "8e94a6994d780ff7770c73b47bf4a255", "type": "electric_scooter", "is_reserved": 0, "lon": -76.98615833333334}, {"fusion_lat": 0.0, "name": "33ae9a554de471ddcb2e85de7d5036df", "is_disabled": 0, "rental_uris": {"android": "https://dc.lft.to/lastmile_qr_scan", "ios": "https://dc.lft.to/lastmile_qr_scan"}, "fusion_lon": 0.0, "lat": 38.915627, "bike_id": "33ae9a554de471ddcb2e85de7d5036df", "type": "electric_scooter", "is_reserved": 0, "lon": -77.02276083333334}, {"fusion_lat": 0.0, "name": "47d202f30d0d52d641da0e18e77b91a0", "is_disabled": 0, "rental_uris": {"android": "https://dc.lft.to/lastmile_qr_scan", "ios": "https://dc.lft.to/lastmile_qr_scan"}, "fusion_lon": 0.0, "lat": 38.91509416666667, "bike_id": "47d202f30d0d52d641da0e18e77b91a0", "type": "electric_scooter", "is_reserved": 0, "lon": -77.01905166666667}, {"fusion_lat": 0.0, "name": "6790ab6c2497377bdc7ea0792d61fe23", "is_disabled": 0, "rental_uris": {"android": "https://dc.lft.to/lastmile_qr_scan", "ios": "https://dc.lft.to/lastmile_qr_scan"}, "fusion_lon": 0.0, "lat": 38.9058005, "bike_id": "6790ab6c2497377bdc7ea0792d61fe23", "type": "electric_scooter", "is_reserved": 0, "lon": -77.00887}, {"fusion_lat": 0.0, "name": "51381e395d737bf46aa450466b1e9236", "is_disabled": 0, "rental_uris": {"android": "https://dc.lft.to/lastmile_qr_scan", "ios": "https://dc.lft.to/lastmile_qr_scan"}, "fusion_lon": 0.0, "lat": 38.93536133333333, "bike_id": "51381e395d737bf46aa450466b1e9236", "type": "electric_scooter", "is_reserved": 0, "lon": -77.05753516666667}, {"fusion_lat": 0.0, "name": "4cd594c6788b6fb25107b689d51cdaa5", "is_disabled": 0, "rental_uris": {"android": "https://dc.lft.to/lastmile_qr_scan", "ios": "https://dc.lft.to/lastmile_qr_scan"}, "fusion_lon": 0.0, "lat": 38.911043666666664, "bike_id": "4cd594c6788b6fb25107b689d51cdaa5", "type": "electric_scooter", "is_reserved": 0, "lon": -77.0420245}, {"fusion_lat": 0.0, "name": "cfa1794934636da9ae776de98b4caf74", "is_disabled": 0, "rental_uris": {"android": "https://dc.lft.to/lastmile_qr_scan", "ios": "https://dc.lft.to/lastmile_qr_scan"}, "fusion_lon": 0.0, "lat": 38.91715833333333, "bike_id": "cfa1794934636da9ae776de98b4caf74", "type": "electric_scooter", "is_reserved": 0, "lon": -77.02595216666667}, {"fusion_lat": 0.0, "name": "dd552e616da2c870eeaef4a4c7cc3ffe", "is_disabled": 0, "rental_uris": {"android": "https://dc.lft.to/lastmile_qr_scan", "ios": "https://dc.lft.to/lastmile_qr_scan"}, "fusion_lon": 0.0, "lat": 38.91635266666667, "bike_id": "dd552e616da2c870eeaef4a4c7cc3ffe", "type": "electric_scooter", "is_reserved": 0, "lon": -77.03199416666666}, {"fusion_lat": 0.0, "name": "95970dc302919ffa74ede4566f6f452a", "is_disabled": 0, "rental_uris": {"android": "https://dc.lft.to/lastmile_qr_scan", "ios": "https://dc.lft.to/lastmile_qr_scan"}, "fusion_lon": 0.0, "lat": 38.908408, "bike_id": "95970dc302919ffa74ede4566f6f452a", "type": "electric_scooter", "is_reserved": 0, "lon": -77.03296683333333}, {"fusion_lat": 0.0, "name": "7d3983db8599654e9ff41cdb5d75e7ba", "is_disabled": 0, "rental_uris": {"android": "https://dc.lft.to/lastmile_qr_scan", "ios": "https://dc.lft.to/lastmile_qr_scan"}, "fusion_lon": 0.0, "lat": 38.90392833333333, "bike_id": "7d3983db8599654e9ff41cdb5d75e7ba", "type": "electric_scooter", "is_reserved": 0, "lon": -76.9894265}, {"fusion_lat": 0.0, "name": "493df58c787c99b287333e7212659213", "is_disabled": 0, "rental_uris": {"android": "https://dc.lft.to/lastmile_qr_scan", "ios": "https://dc.lft.to/lastmile_qr_scan"}, "fusion_lon": 0.0, "lat": 38.875785666666665, "bike_id": "493df58c787c99b287333e7212659213", "type": "electric_bike", "is_reserved": 0, "lon": -77.2341115}, {"fusion_lat": 0.0, "name": "7401b9b7fbe81b14f3e615ef065fdc9c", "is_disabled": 0, "rental_uris": {"android": "https://dc.lft.to/lastmile_qr_scan", "ios": "https://dc.lft.to/lastmile_qr_scan"}, "fusion_lon": 0.0, "lat": 38.89974016666667, "bike_id": "7401b9b7fbe81b14f3e615ef065fdc9c", "type": "electric_scooter", "is_reserved": 0, "lon": -77.02713783333333}, {"fusion_lat": 0.0, "name": "b859640cbe2e3bbe1b786e8e1c810e98", "is_disabled": 0, "rental_uris": {"android": "https://dc.lft.to/lastmile_qr_scan", "ios": "https://dc.lft.to/lastmile_qr_scan"}, "fusion_lon": 0.0, "lat": 38.896846333333336, "bike_id": "b859640cbe2e3bbe1b786e8e1c810e98", "type": "electric_scooter", "is_reserved": 0, "lon": -76.93712283333333}, {"fusion_lat": 0.0, "name": "165b5101681ce9ab40a6ef913294dd08", "is_disabled": 0, "rental_uris": {"android": "https://dc.lft.to/lastmile_qr_scan", "ios": "https://dc.lft.to/lastmile_qr_scan"}, "fusion_lon": 0.0, "lat": 38.924113166666665, "bike_id": "165b5101681ce9ab40a6ef913294dd08", "type": "electric_scooter", "is_reserved": 0, "lon": -77.05259}, {"fusion_lat": 0.0, "name": "be6d34cf619a74024727ef4ffebb5b22", "is_disabled": 0, "rental_uris": {"android": "https://dc.lft.to/lastmile_qr_scan", "ios": "https://dc.lft.to/lastmile_qr_scan"}, "fusion_lon": 0.0, "lat": 38.95053866666667, "bike_id": "be6d34cf619a74024727ef4ffebb5b22", "type": "electric_scooter", "is_reserved": 0, "lon": -77.08030683333334}, {"fusion_lat": 0.0, "name": "c3f6e5f37aed8b095fc3075a5fabfaa2", "is_disabled": 0, "rental_uris": {"android": "https://dc.lft.to/lastmile_qr_scan", "ios": "https://dc.lft.to/lastmile_qr_scan"}, "fusion_lon": 0.0, "lat": 38.89910733333333, "bike_id": "c3f6e5f37aed8b095fc3075a5fabfaa2", "type": "electric_scooter", "is_reserved": 0, "lon": -76.94593883333333}, {"fusion_lat": 0.0, "name": "c811f5f462abf77a6a0ebcd3a511bba0", "is_disabled": 0, "rental_uris": {"android": "https://dc.lft.to/lastmile_qr_scan", "ios": "https://dc.lft.to/lastmile_qr_scan"}, "fusion_lon": 0.0, "lat": 38.928659, "bike_id": "c811f5f462abf77a6a0ebcd3a511bba0", "type": "electric_scooter", "is_reserved": 0, "lon": -77.013576}, {"fusion_lat": 0.0, "name": "9768de02c045de7151492764702af100", "is_disabled": 0, "rental_uris": {"android": "https://dc.lft.to/lastmile_qr_scan", "ios": "https://dc.lft.to/lastmile_qr_scan"}, "fusion_lon": 0.0, "lat": 38.899194333333334, "bike_id": "9768de02c045de7151492764702af100", "type": "electric_scooter", "is_reserved": 0, "lon": -77.03944583333333}, {"fusion_lat": 0.0, "name": "d5880674014bd0319dc476a7544715f2", "is_disabled": 0, "rental_uris": {"android": "https://dc.lft.to/lastmile_qr_scan", "ios": "https://dc.lft.to/lastmile_qr_scan"}, "fusion_lon": 0.0, "lat": 38.8899805, "bike_id": "d5880674014bd0319dc476a7544715f2", "type": "electric_scooter", "is_reserved": 0, "lon": -76.983731}, {"fusion_lat": 0.0, "name": "4269aa9833be77f5693868d83dfbc5b6", "is_disabled": 0, "rental_uris": {"android": "https://dc.lft.to/lastmile_qr_scan", "ios": "https://dc.lft.to/lastmile_qr_scan"}, "fusion_lon": 0.0, "lat": 38.91555266666667, "bike_id": "4269aa9833be77f5693868d83dfbc5b6", "type": "electric_scooter", "is_reserved": 0, "lon": -77.03862116666667}, {"fusion_lat": 0.0, "name": "495d971a182d96fb0aaffb12f7fa7743", "is_disabled": 0, "rental_uris": {"android": "https://dc.lft.to/lastmile_qr_scan", "ios": "https://dc.lft.to/lastmile_qr_scan"}, "fusion_lon": 0.0, "lat": 38.90357, "bike_id": "495d971a182d96fb0aaffb12f7fa7743", "type": "electric_scooter", "is_reserved": 0, "lon": -77.04004283333333}, {"fusion_lat": 0.0, "name": "e614eed21ec29c35f4bdab9dbd30d234", "is_disabled": 0, "rental_uris": {"android": "https://dc.lft.to/lastmile_qr_scan", "ios": "https://dc.lft.to/lastmile_qr_scan"}, "fusion_lon": 0.0, "lat": 38.913139, "bike_id": "e614eed21ec29c35f4bdab9dbd30d234", "type": "electric_scooter", "is_reserved": 0, "lon": -77.04166066666667}, {"fusion_lat": 0.0, "name": "99539a9fd0628663ce80ba2cc0eef40b", "is_disabled": 0, "rental_uris": {"android": "https://dc.lft.to/lastmile_qr_scan", "ios": "https://dc.lft.to/lastmile_qr_scan"}, "fusion_lon": 0.0, "lat": 38.911917833333334, "bike_id": "99539a9fd0628663ce80ba2cc0eef40b", "type": "electric_scooter", "is_reserved": 0, "lon": -77.00227083333333}, {"fusion_lat": 0.0, "name": "ea10620a8fc6d372196ad99e95e902f9", "is_disabled": 0, "rental_uris": {"android": "https://dc.lft.to/lastmile_qr_scan", "ios": "https://dc.lft.to/lastmile_qr_scan"}, "fusion_lon": 0.0, "lat": 38.90240083333333, "bike_id": "ea10620a8fc6d372196ad99e95e902f9", "type": "electric_scooter", "is_reserved": 0, "lon": -77.00525633333334}, {"fusion_lat": 0.0, "name": "7fc3b0807d2b425d821108bba5af124a", "is_disabled": 0, "rental_uris": {"android": "https://dc.lft.to/lastmile_qr_scan", "ios": "https://dc.lft.to/lastmile_qr_scan"}, "fusion_lon": 0.0, "lat": 38.923013166666664, "bike_id": "7fc3b0807d2b425d821108bba5af124a", "type": "electric_bike", "is_reserved": 0, "lon": -76.99387233333333}, {"fusion_lat": 0.0, "name": "e51c73f44247d32c98e5a0d43d777915", "is_disabled": 0, "rental_uris": {"android": "https://dc.lft.to/lastmile_qr_scan", "ios": "https://dc.lft.to/lastmile_qr_scan"}, "fusion_lon": 0.0, "lat": 38.92730016666667, "bike_id": "e51c73f44247d32c98e5a0d43d777915", "type": "electric_scooter", "is_reserved": 0, "lon": -77.02308883333333}, {"fusion_lat": 0.0, "name": "dcc99958f4d1ea4b261963d8d7bef9be", "is_disabled": 0, "rental_uris": {"android": "https://dc.lft.to/lastmile_qr_scan", "ios": "https://dc.lft.to/lastmile_qr_scan"}, "fusion_lon": 0.0, "lat": 38.8784505, "bike_id": "dcc99958f4d1ea4b261963d8d7bef9be", "type": "electric_scooter", "is_reserved": 0, "lon": -77.00113516666667}, {"fusion_lat": 0.0, "name": "15d1b718961b76254b82f27a4bcb5ea6", "is_disabled": 0, "rental_uris": {"android": "https://dc.lft.to/lastmile_qr_scan", "ios": "https://dc.lft.to/lastmile_qr_scan"}, "fusion_lon": 0.0, "lat": 38.8746565, "bike_id": "15d1b718961b76254b82f27a4bcb5ea6", "type": "electric_scooter", "is_reserved": 0, "lon": -77.00472466666666}, {"fusion_lat": 0.0, "name": "fd6727f4b0103ca94b322d9c7bcabee6", "is_disabled": 0, "rental_uris": {"android": "https://dc.lft.to/lastmile_qr_scan", "ios": "https://dc.lft.to/lastmile_qr_scan"}, "fusion_lon": 0.0, "lat": 38.907534, "bike_id": "fd6727f4b0103ca94b322d9c7bcabee6", "type": "electric_scooter", "is_reserved": 0, "lon": -77.04159816666666}, {"fusion_lat": 0.0, "name": "c6b183abb2faea50b051f5d10eb1e2a6", "is_disabled": 0, "rental_uris": {"android": "https://dc.lft.to/lastmile_qr_scan", "ios": "https://dc.lft.to/lastmile_qr_scan"}, "fusion_lon": 0.0, "lat": 38.90394233333333, "bike_id": "c6b183abb2faea50b051f5d10eb1e2a6", "type": "electric_scooter", "is_reserved": 0, "lon": -77.03439616666667}, {"fusion_lat": 0.0, "name": "a661ae9b2adc240934deff9a0bcf2161", "is_disabled": 0, "rental_uris": {"android": "https://dc.lft.to/lastmile_qr_scan", "ios": "https://dc.lft.to/lastmile_qr_scan"}, "fusion_lon": 0.0, "lat": 38.90856866666667, "bike_id": "a661ae9b2adc240934deff9a0bcf2161", "type": "electric_scooter", "is_reserved": 0, "lon": -77.03840333333333}, {"fusion_lat": 0.0, "name": "a6d904c5e3aee7cac793f70b2698d410", "is_disabled": 0, "rental_uris": {"android": "https://dc.lft.to/lastmile_qr_scan", "ios": "https://dc.lft.to/lastmile_qr_scan"}, "fusion_lon": 0.0, "lat": 38.907182, "bike_id": "a6d904c5e3aee7cac793f70b2698d410", "type": "electric_scooter", "is_reserved": 0, "lon": -77.0324985}, {"fusion_lat": 0.0, "name": "02b7c4813923b55156074e172c7c8204", "is_disabled": 0, "rental_uris": {"android": "https://dc.lft.to/lastmile_qr_scan", "ios": "https://dc.lft.to/lastmile_qr_scan"}, "fusion_lon": 0.0, "lat": 38.920864, "bike_id": "02b7c4813923b55156074e172c7c8204", "type": "electric_scooter", "is_reserved": 0, "lon": -77.02419383333333}, {"fusion_lat": 0.0, "name": "ab22f8ec7130a571e9fa3f88a3f5a485", "is_disabled": 0, "rental_uris": {"android": "https://dc.lft.to/lastmile_qr_scan", "ios": "https://dc.lft.to/lastmile_qr_scan"}, "fusion_lon": 0.0, "lat": 38.912572, "bike_id": "ab22f8ec7130a571e9fa3f88a3f5a485", "type": "electric_scooter", "is_reserved": 0, "lon": -77.035036}, {"fusion_lat": 0.0, "name": "b971c2c7e8f08e8f70b75656b585c961", "is_disabled": 0, "rental_uris": {"android": "https://dc.lft.to/lastmile_qr_scan", "ios": "https://dc.lft.to/lastmile_qr_scan"}, "fusion_lon": 0.0, "lat": 38.9212395, "bike_id": "b971c2c7e8f08e8f70b75656b585c961", "type": "electric_scooter", "is_reserved": 0, "lon": -77.02529866666667}, {"fusion_lat": 0.0, "name": "e5491430da11f9d91487a39633246be5", "is_disabled": 0, "rental_uris": {"android": "https://dc.lft.to/lastmile_qr_scan", "ios": "https://dc.lft.to/lastmile_qr_scan"}, "fusion_lon": 0.0, "lat": 38.93705716666667, "bike_id": "e5491430da11f9d91487a39633246be5", "type": "electric_scooter", "is_reserved": 0, "lon": -77.0243005}, {"fusion_lat": 0.0, "name": "30b6e9533bcfece4d223b154a37f1395", "is_disabled": 0, "rental_uris": {"android": "https://dc.lft.to/lastmile_qr_scan", "ios": "https://dc.lft.to/lastmile_qr_scan"}, "fusion_lon": 0.0, "lat": 38.9115335, "bike_id": "30b6e9533bcfece4d223b154a37f1395", "type": "electric_scooter", "is_reserved": 0, "lon": -77.010867}, {"fusion_lat": 0.0, "name": "0dd7034b14b359324c1f4e50f96369e4", "is_disabled": 0, "rental_uris": {"android": "https://dc.lft.to/lastmile_qr_scan", "ios": "https://dc.lft.to/lastmile_qr_scan"}, "fusion_lon": 0.0, "lat": 38.89761566666667, "bike_id": "0dd7034b14b359324c1f4e50f96369e4", "type": "electric_scooter", "is_reserved": 0, "lon": -77.0450935}, {"fusion_lat": 0.0, "name": "b949f26c256826a2756cfb6c73199b9e", "is_disabled": 0, "rental_uris": {"android": "https://dc.lft.to/lastmile_qr_scan", "ios": "https://dc.lft.to/lastmile_qr_scan"}, "fusion_lon": 0.0, "lat": 38.90015966666667, "bike_id": "b949f26c256826a2756cfb6c73199b9e", "type": "electric_scooter", "is_reserved": 0, "lon": -76.99976166666667}, {"fusion_lat": 0.0, "name": "8bf9dc2aa0955fb8c19d53bf5bc9101c", "is_disabled": 0, "rental_uris": {"android": "https://dc.lft.to/lastmile_qr_scan", "ios": "https://dc.lft.to/lastmile_qr_scan"}, "fusion_lon": 0.0, "lat": 38.8767045, "bike_id": "8bf9dc2aa0955fb8c19d53bf5bc9101c", "type": "electric_scooter", "is_reserved": 0, "lon": -77.00314083333333}, {"fusion_lat": 0.0, "name": "2b1611352f330baf3f8dbcc7d60faf90", "is_disabled": 0, "rental_uris": {"android": "https://dc.lft.to/lastmile_qr_scan", "ios": "https://dc.lft.to/lastmile_qr_scan"}, "fusion_lon": 0.0, "lat": 38.927661666666665, "bike_id": "2b1611352f330baf3f8dbcc7d60faf90", "type": "electric_scooter", "is_reserved": 0, "lon": -77.03243666666667}, {"fusion_lat": 0.0, "name": "a5d54542e84fb27272399303b2dac944", "is_disabled": 0, "rental_uris": {"android": "https://dc.lft.to/lastmile_qr_scan", "ios": "https://dc.lft.to/lastmile_qr_scan"}, "fusion_lon": 0.0, "lat": 38.92428133333333, "bike_id": "a5d54542e84fb27272399303b2dac944", "type": "electric_scooter", "is_reserved": 0, "lon": -77.02733733333334}, {"fusion_lat": 0.0, "name": "131ac1d3a0e4c79be88a7a5da6c13185", "is_disabled": 0, "rental_uris": {"android": "https://dc.lft.to/lastmile_qr_scan", "ios": "https://dc.lft.to/lastmile_qr_scan"}, "fusion_lon": 0.0, "lat": 38.900664, "bike_id": "131ac1d3a0e4c79be88a7a5da6c13185", "type": "electric_scooter", "is_reserved": 0, "lon": -77.050596}, {"fusion_lat": 0.0, "name": "83ce10219213494faecba7204afcfec0", "is_disabled": 0, "rental_uris": {"android": "https://dc.lft.to/lastmile_qr_scan", "ios": "https://dc.lft.to/lastmile_qr_scan"}, "fusion_lon": 0.0, "lat": 38.906403833333336, "bike_id": "83ce10219213494faecba7204afcfec0", "type": "electric_scooter", "is_reserved": 0, "lon": -77.04346616666666}, {"fusion_lat": 0.0, "name": "28bf8d1957281604164549726b64ee7d", "is_disabled": 0, "rental_uris": {"android": "https://dc.lft.to/lastmile_qr_scan", "ios": "https://dc.lft.to/lastmile_qr_scan"}, "fusion_lon": 0.0, "lat": 38.92844066666667, "bike_id": "28bf8d1957281604164549726b64ee7d", "type": "electric_bike", "is_reserved": 0, "lon": -77.020577}, {"fusion_lat": 0.0, "name": "87116f3215ee5d905671494c21e44f54", "is_disabled": 0, "rental_uris": {"android": "https://dc.lft.to/lastmile_qr_scan", "ios": "https://dc.lft.to/lastmile_qr_scan"}, "fusion_lon": 0.0, "lat": 38.91489416666667, "bike_id": "87116f3215ee5d905671494c21e44f54", "type": "electric_scooter", "is_reserved": 0, "lon": -77.04261}, {"fusion_lat": 0.0, "name": "a9ddd22f4131bdb05d8b61425ab074b1", "is_disabled": 0, "rental_uris": {"android": "https://dc.lft.to/lastmile_qr_scan", "ios": "https://dc.lft.to/lastmile_qr_scan"}, "fusion_lon": 0.0, "lat": 38.921452333333335, "bike_id": "a9ddd22f4131bdb05d8b61425ab074b1", "type": "electric_scooter", "is_reserved": 0, "lon": -77.04350133333334}, {"fusion_lat": 0.0, "name": "fbedbb22cf1c2440c84eb1c7dccc54ab", "is_disabled": 0, "rental_uris": {"android": "https://dc.lft.to/lastmile_qr_scan", "ios": "https://dc.lft.to/lastmile_qr_scan"}, "fusion_lon": 0.0, "lat": 38.907974333333335, "bike_id": "fbedbb22cf1c2440c84eb1c7dccc54ab", "type": "electric_scooter", "is_reserved": 0, "lon": -77.0420415}, {"fusion_lat": 0.0, "name": "2f6b137b9cf68bd8b8acb311cbbd01c5", "is_disabled": 0, "rental_uris": {"android": "https://dc.lft.to/lastmile_qr_scan", "ios": "https://dc.lft.to/lastmile_qr_scan"}, "fusion_lon": 0.0, "lat": 38.9075555, "bike_id": "2f6b137b9cf68bd8b8acb311cbbd01c5", "type": "electric_scooter", "is_reserved": 0, "lon": -77.03587933333333}, {"fusion_lat": 0.0, "name": "384a592f334c93e52f5dff14af29a26f", "is_disabled": 0, "rental_uris": {"android": "https://dc.lft.to/lastmile_qr_scan", "ios": "https://dc.lft.to/lastmile_qr_scan"}, "fusion_lon": 0.0, "lat": 38.90556866666667, "bike_id": "384a592f334c93e52f5dff14af29a26f", "type": "electric_scooter", "is_reserved": 0, "lon": -77.00805983333333}, {"fusion_lat": 0.0, "name": "4d89e844edd3a609e24d280a32695d27", "is_disabled": 0, "rental_uris": {"android": "https://dc.lft.to/lastmile_qr_scan", "ios": "https://dc.lft.to/lastmile_qr_scan"}, "fusion_lon": 0.0, "lat": 38.92247716666667, "bike_id": "4d89e844edd3a609e24d280a32695d27", "type": "electric_scooter", "is_reserved": 0, "lon": -77.04260816666667}, {"fusion_lat": 0.0, "name": "ac092e6e46c2f949a4210f0b037344a7", "is_disabled": 0, "rental_uris": {"android": "https://dc.lft.to/lastmile_qr_scan", "ios": "https://dc.lft.to/lastmile_qr_scan"}, "fusion_lon": 0.0, "lat": 38.9304595, "bike_id": "ac092e6e46c2f949a4210f0b037344a7", "type": "electric_bike", "is_reserved": 0, "lon": -77.03891316666666}, {"fusion_lat": 0.0, "name": "76fce9994c6af354769e5dd3ae11f816", "is_disabled": 0, "rental_uris": {"android": "https://dc.lft.to/lastmile_qr_scan", "ios": "https://dc.lft.to/lastmile_qr_scan"}, "fusion_lon": 0.0, "lat": 38.89750266666667, "bike_id": "76fce9994c6af354769e5dd3ae11f816", "type": "electric_scooter", "is_reserved": 0, "lon": -77.03297916666666}, {"fusion_lat": 0.0, "name": "fd7f4273107aad4abab6bb2cd636eb2c", "is_disabled": 0, "rental_uris": {"android": "https://dc.lft.to/lastmile_qr_scan", "ios": "https://dc.lft.to/lastmile_qr_scan"}, "fusion_lon": 0.0, "lat": 38.912704, "bike_id": "fd7f4273107aad4abab6bb2cd636eb2c", "type": "electric_scooter", "is_reserved": 0, "lon": -77.0403945}, {"fusion_lat": 0.0, "name": "c5988374978b3523a0749b2f47d71001", "is_disabled": 0, "rental_uris": {"android": "https://dc.lft.to/lastmile_qr_scan", "ios": "https://dc.lft.to/lastmile_qr_scan"}, "fusion_lon": 0.0, "lat": 38.91222666666667, "bike_id": "c5988374978b3523a0749b2f47d71001", "type": "electric_scooter", "is_reserved": 0, "lon": -77.06600216666666}, {"fusion_lat": 0.0, "name": "fcf1b7b4c5ac51e95c9455b24169a368", "is_disabled": 0, "rental_uris": {"android": "https://dc.lft.to/lastmile_qr_scan", "ios": "https://dc.lft.to/lastmile_qr_scan"}, "fusion_lon": 0.0, "lat": 38.898427, "bike_id": "fcf1b7b4c5ac51e95c9455b24169a368", "type": "electric_scooter", "is_reserved": 0, "lon": -77.02235033333334}, {"fusion_lat": 0.0, "name": "e92b1311f4e879b785c5938910810a6a", "is_disabled": 0, "rental_uris": {"android": "https://dc.lft.to/lastmile_qr_scan", "ios": "https://dc.lft.to/lastmile_qr_scan"}, "fusion_lon": 0.0, "lat": 38.93411483333333, "bike_id": "e92b1311f4e879b785c5938910810a6a", "type": "electric_bike", "is_reserved": 0, "lon": -77.04307716666666}, {"fusion_lat": 0.0, "name": "aca730ce825293140d831af024ea97e3", "is_disabled": 0, "rental_uris": {"android": "https://dc.lft.to/lastmile_qr_scan", "ios": "https://dc.lft.to/lastmile_qr_scan"}, "fusion_lon": 0.0, "lat": 38.91556033333333, "bike_id": "aca730ce825293140d831af024ea97e3", "type": "electric_scooter", "is_reserved": 0, "lon": -77.03860683333333}, {"fusion_lat": 0.0, "name": "20e3c81a204b2ca5adecaacc8363a1a7", "is_disabled": 0, "rental_uris": {"android": "https://dc.lft.to/lastmile_qr_scan", "ios": "https://dc.lft.to/lastmile_qr_scan"}, "fusion_lon": 0.0, "lat": 38.9065045, "bike_id": "20e3c81a204b2ca5adecaacc8363a1a7", "type": "electric_scooter", "is_reserved": 0, "lon": -77.00668}, {"fusion_lat": 0.0, "name": "0c8dc48945be0aa30617b86968f2bb8a", "is_disabled": 0, "rental_uris": {"android": "https://dc.lft.to/lastmile_qr_scan", "ios": "https://dc.lft.to/lastmile_qr_scan"}, "fusion_lon": 0.0, "lat": 38.96668666666667, "bike_id": "0c8dc48945be0aa30617b86968f2bb8a", "type": "electric_scooter", "is_reserved": 0, "lon": -77.02552216666666}, {"fusion_lat": 0.0, "name": "5bc3d3286460543a2f525c0947519b9b", "is_disabled": 0, "rental_uris": {"android": "https://dc.lft.to/lastmile_qr_scan", "ios": "https://dc.lft.to/lastmile_qr_scan"}, "fusion_lon": 0.0, "lat": 38.905983166666665, "bike_id": "5bc3d3286460543a2f525c0947519b9b", "type": "electric_scooter", "is_reserved": 0, "lon": -77.025985}, {"fusion_lat": 0.0, "name": "48d2ff953ebed9ad3f8414f4c309dfc0", "is_disabled": 0, "rental_uris": {"android": "https://dc.lft.to/lastmile_qr_scan", "ios": "https://dc.lft.to/lastmile_qr_scan"}, "fusion_lon": 0.0, "lat": 38.901416, "bike_id": "48d2ff953ebed9ad3f8414f4c309dfc0", "type": "electric_scooter", "is_reserved": 0, "lon": -77.04186766666666}, {"fusion_lat": 0.0, "name": "0a683b4ad1723efdc11c10f9e3ec515a", "is_disabled": 0, "rental_uris": {"android": "https://dc.lft.to/lastmile_qr_scan", "ios": "https://dc.lft.to/lastmile_qr_scan"}, "fusion_lon": 0.0, "lat": 38.90351783333333, "bike_id": "0a683b4ad1723efdc11c10f9e3ec515a", "type": "electric_scooter", "is_reserved": 0, "lon": -77.007384}, {"fusion_lat": 0.0, "name": "6b395d4643bd29946f342da8ad96c71b", "is_disabled": 0, "rental_uris": {"android": "https://dc.lft.to/lastmile_qr_scan", "ios": "https://dc.lft.to/lastmile_qr_scan"}, "fusion_lon": 0.0, "lat": 38.9179245, "bike_id": "6b395d4643bd29946f342da8ad96c71b", "type": "electric_scooter", "is_reserved": 0, "lon": -77.02297416666667}, {"fusion_lat": 0.0, "name": "81a98cc24bae50ccb4501725ae5325e9", "is_disabled": 0, "rental_uris": {"android": "https://dc.lft.to/lastmile_qr_scan", "ios": "https://dc.lft.to/lastmile_qr_scan"}, "fusion_lon": 0.0, "lat": 38.884240166666665, "bike_id": "81a98cc24bae50ccb4501725ae5325e9", "type": "electric_scooter", "is_reserved": 0, "lon": -77.02330066666667}, {"fusion_lat": 0.0, "name": "3ccf0c2a6505df845011e50dcf4b684f", "is_disabled": 0, "rental_uris": {"android": "https://dc.lft.to/lastmile_qr_scan", "ios": "https://dc.lft.to/lastmile_qr_scan"}, "fusion_lon": 0.0, "lat": 38.857220166666664, "bike_id": "3ccf0c2a6505df845011e50dcf4b684f", "type": "electric_bike", "is_reserved": 0, "lon": -76.9809685}, {"fusion_lat": 0.0, "name": "b3627510228872ca04d688559c6b2be7", "is_disabled": 0, "rental_uris": {"android": "https://dc.lft.to/lastmile_qr_scan", "ios": "https://dc.lft.to/lastmile_qr_scan"}, "fusion_lon": 0.0, "lat": 38.887463333333336, "bike_id": "b3627510228872ca04d688559c6b2be7", "type": "electric_scooter", "is_reserved": 0, "lon": -77.02128966666666}, {"fusion_lat": 0.0, "name": "b5bf9ccc3c46ca00bc6a3d94f500dbc6", "is_disabled": 0, "rental_uris": {"android": "https://dc.lft.to/lastmile_qr_scan", "ios": "https://dc.lft.to/lastmile_qr_scan"}, "fusion_lon": 0.0, "lat": 38.90796733333333, "bike_id": "b5bf9ccc3c46ca00bc6a3d94f500dbc6", "type": "electric_scooter", "is_reserved": 0, "lon": -77.034376}, {"fusion_lat": 0.0, "name": "60eb3b394130875bd646613269535b8a", "is_disabled": 0, "rental_uris": {"android": "https://dc.lft.to/lastmile_qr_scan", "ios": "https://dc.lft.to/lastmile_qr_scan"}, "fusion_lon": 0.0, "lat": 38.91694316666667, "bike_id": "60eb3b394130875bd646613269535b8a", "type": "electric_scooter", "is_reserved": 0, "lon": -77.027433}, {"fusion_lat": 0.0, "name": "cfe080e96b0d3f1cd421d5a511582f36", "is_disabled": 0, "rental_uris": {"android": "https://dc.lft.to/lastmile_qr_scan", "ios": "https://dc.lft.to/lastmile_qr_scan"},