{"data": {"bikes": [{"name": "a7a00bf1e8ba0801596aea1c4d6f04d2", "type": "electric_scooter", "lat": 38.89728216666666, "is_reserved": 0, "lon": -77.05568466666666, "fusion_lon": 0.0, "is_disabled": 0, "fusion_lat": 0.0, "bike_id": "a7a00bf1e8ba0801596aea1c4d6f04d2", "rental_uris": {"ios": "https://dc.lft.to/lastmile_qr_scan", "android": "https://dc.lft.to/lastmile_qr_scan"}}, {"name": "715a72b326a700c5374f8ef5a218d7c8", "type": "electric_scooter", "lat": 38.8922335, "is_reserved": 0, "lon": -77.03216366666666, "fusion_lon": 0.0, "is_disabled": 0, "fusion_lat": 0.0, "bike_id": "715a72b326a700c5374f8ef5a218d7c8", "rental_uris": {"ios": "https://dc.lft.to/lastmile_qr_scan", "android": "https://dc.lft.to/lastmile_qr_scan"}}, {"name": "c8ad8077a2e3f2b3decbe05f8bf04140", "type": "electric_scooter", "lat": 38.89483383333334, "is_reserved": 0, "lon": -76.948719, "fusion_lon": 0.0, "is_disabled": 0, "fusion_lat": 0.0, "bike_id": "c8ad8077a2e3f2b3decbe05f8bf04140", "rental_uris": {"ios": "https://dc.lft.to/lastmile_qr_scan", "android": "https://dc.lft.to/lastmile_qr_scan"}}, {"name": "cbe78e3db1a751a8bb799e1ff42e2fb5", "type": "electric_scooter", "lat": 38.90795466666667, "is_reserved": 0, "lon": -76.996952, "fusion_lon": 0.0, "is_disabled": 0, "fusion_lat": 0.0, "bike_id": "cbe78e3db1a751a8bb799e1ff42e2fb5", "rental_uris": {"ios": "https://dc.lft.to/lastmile_qr_scan", "android": "https://dc.lft.to/lastmile_qr_scan"}}, {"name": "068b43172075bf3d83ce1ddffd6161b9", "type": "electric_scooter", "lat": 38.916893, "is_reserved": 0, "lon": -77.01212083333333, "fusion_lon": 0.0, "is_disabled": 0, "fusion_lat": 0.0, "bike_id": "068b43172075bf3d83ce1ddffd6161b9", "rental_uris": {"ios": "https://dc.lft.to/lastmile_qr_scan", "android": "https://dc.lft.to/lastmile_qr_scan"}}, {"name": "3b0d2277fe8e7b3d4581da5393044094", "type": "electric_scooter", "lat": 38.934376666666665, "is_reserved": 0, "lon": -77.07258283333333, "fusion_lon": 0.0, "is_disabled": 0, "fusion_lat": 0.0, "bike_id": "3b0d2277fe8e7b3d4581da5393044094", "rental_uris": {"ios": "https://dc.lft.to/lastmile_qr_scan", "android": "https://dc.lft.to/lastmile_qr_scan"}}, {"name": "f4de92824eb87e0dc97fb8125201a572", "type": "electric_scooter", "lat": 38.89682283333333, "is_reserved": 0, "lon": -76.99623733333334, "fusion_lon": 0.0, "is_disabled": 0, "fusion_lat": 0.0, "bike_id": "f4de92824eb87e0dc97fb8125201a572", "rental_uris": {"ios": "https://dc.lft.to/lastmile_qr_scan", "android": "https://dc.lft.to/lastmile_qr_scan"}}, {"name": "236ef4e941b41591c63cb9a69f89edd8", "type": "electric_scooter", "lat": 38.90267016666667, "is_reserved": 0, "lon": -77.054038, "fusion_lon": 0.0, "is_disabled": 0, "fusion_lat": 0.0, "bike_id": "236ef4e941b41591c63cb9a69f89edd8", "rental_uris": {"ios": "https://dc.lft.to/lastmile_qr_scan", "android": "https://dc.lft.to/lastmile_qr_scan"}}, {"name": "d979639131497eaa7dcacb98dae73c49", "type": "electric_scooter", "lat": 38.894769333333336, "is_reserved": 0, "lon": -76.99535483333334, "fusion_lon": 0.0, "is_disabled": 0, "fusion_lat": 0.0, "bike_id": "d979639131497eaa7dcacb98dae73c49", "rental_uris": {"ios": "https://dc.lft.to/lastmile_qr_scan", "android": "https://dc.lft.to/lastmile_qr_scan"}}, {"name": "ee51d163293c92665942ef11c31299f9", "type": "electric_scooter", "lat": 38.8858745, "is_reserved": 0, "lon": -77.01991783333334, "fusion_lon": 0.0, "is_disabled": 0, "fusion_lat": 0.0, "bike_id": "ee51d163293c92665942ef11c31299f9", "rental_uris": {"ios": "https://dc.lft.to/lastmile_qr_scan", "android": "https://dc.lft.to/lastmile_qr_scan"}}, {"name": "f111beec2e70b9705b82fc7e505e09ad", "type": "electric_scooter", "lat": 38.91730866666666, "is_reserved": 0, "lon": -77.02305183333333, "fusion_lon": 0.0, "is_disabled": 0, "fusion_lat": 0.0, "bike_id": "f111beec2e70b9705b82fc7e505e09ad", "rental_uris": {"ios": "https://dc.lft.to/lastmile_qr_scan", "android": "https://dc.lft.to/lastmile_qr_scan"}}, {"name": "74ff93949236bdc46a1463ba12ce9f3d", "type": "electric_scooter", "lat": 38.9228955, "is_reserved": 0, "lon": -77.04257166666666, "fusion_lon": 0.0, "is_disabled": 0, "fusion_lat": 0.0, "bike_id": "74ff93949236bdc46a1463ba12ce9f3d", "rental_uris": {"ios": "https://dc.lft.to/lastmile_qr_scan", "android": "https://dc.lft.to/lastmile_qr_scan"}}, {"name": "4fbb2cf212101127079eeec6f4a512be", "type": "electric_scooter", "lat": 38.8791735, "is_reserved": 0, "lon": -77.017369, "fusion_lon": 0.0, "is_disabled": 0, "fusion_lat": 0.0, "bike_id": "4fbb2cf212101127079eeec6f4a512be", "rental_uris": {"ios": "https://dc.lft.to/lastmile_qr_scan", "android": "https://dc.lft.to/lastmile_qr_scan"}}, {"name": "4ddecb069c8a59fd213572118ef5c073", "type": "electric_scooter", "lat": 38.9003115, "is_reserved": 0, "lon": -77.00201566666667, "fusion_lon": 0.0, "is_disabled": 0, "fusion_lat": 0.0, "bike_id": "4ddecb069c8a59fd213572118ef5c073", "rental_uris": {"ios": "https://dc.lft.to/lastmile_qr_scan", "android": "https://dc.lft.to/lastmile_qr_scan"}}, {"name": "a153f65f3f5adbfbd8c3438b097d5367", "type": "electric_scooter", "lat": 38.898209, "is_reserved": 0, "lon": -77.033167, "fusion_lon": 0.0, "is_disabled": 0, "fusion_lat": 0.0, "bike_id": "a153f65f3f5adbfbd8c3438b097d5367", "rental_uris": {"ios": "https://dc.lft.to/lastmile_qr_scan", "android": "https://dc.lft.to/lastmile_qr_scan"}}, {"name": "89763c8fa904462094de134adfbad135", "type": "electric_scooter", "lat": 38.89346233333333, "is_reserved": 0, "lon": -76.99147816666667, "fusion_lon": 0.0, "is_disabled": 0, "fusion_lat": 0.0, "bike_id": "89763c8fa904462094de134adfbad135", "rental_uris": {"ios": "https://dc.lft.to/lastmile_qr_scan", "android": "https://dc.lft.to/lastmile_qr_scan"}}, {"name": "7145d00c72e4d25e096d2bf8b51e1c99", "type": "electric_scooter", "lat": 38.90373733333333, "is_reserved": 0, "lon": -77.03863283333334, "fusion_lon": 0.0, "is_disabled": 0, "fusion_lat": 0.0, "bike_id": "7145d00c72e4d25e096d2bf8b51e1c99", "rental_uris": {"ios": "https://dc.lft.to/lastmile_qr_scan", "android": "https://dc.lft.to/lastmile_qr_scan"}}, {"name": "1920605f30b35b24c6eeb7c16451e760", "type": "electric_scooter", "lat": 38.92466616666667, "is_reserved": 0, "lon": -77.02829966666667, "fusion_lon": 0.0, "is_disabled": 0, "fusion_lat": 0.0, "bike_id": "1920605f30b35b24c6eeb7c16451e760", "rental_uris": {"ios": "https://dc.lft.to/lastmile_qr_scan", "android": "https://dc.lft.to/lastmile_qr_scan"}}, {"name": "cd2d91fb984aea1f203274b88ea2f2c5", "type": "electric_scooter", "lat": 38.928726166666664, "is_reserved": 0, "lon": -77.03480833333333, "fusion_lon": 0.0, "is_disabled": 0, "fusion_lat": 0.0, "bike_id": "cd2d91fb984aea1f203274b88ea2f2c5", "rental_uris": {"ios": "https://dc.lft.to/lastmile_qr_scan", "android": "https://dc.lft.to/lastmile_qr_scan"}}, {"name": "1b817591f44fb27b047973c07ccf40d7", "type": "electric_scooter", "lat": 38.9227565, "is_reserved": 0, "lon": -77.03665466666666, "fusion_lon": 0.0, "is_disabled": 0, "fusion_lat": 0.0, "bike_id": "1b817591f44fb27b047973c07ccf40d7", "rental_uris": {"ios": "https://dc.lft.to/lastmile_qr_scan", "android": "https://dc.lft.to/lastmile_qr_scan"}}, {"name": "94689d1c2839e60e431b0a90a38895d0", "type": "electric_scooter", "lat": 38.864246333333334, "is_reserved": 0, "lon": -76.98579816666667, "fusion_lon": 0.0, "is_disabled": 0, "fusion_lat": 0.0, "bike_id": "94689d1c2839e60e431b0a90a38895d0", "rental_uris": {"ios": "https://dc.lft.to/lastmile_qr_scan", "android": "https://dc.lft.to/lastmile_qr_scan"}}, {"name": "e36e67ce14f3b8b8914d086f422f9f74", "type": "electric_bike", "lat": 38.89684883333334, "is_reserved": 0, "lon": -76.94064466666667, "fusion_lon": 0.0, "is_disabled": 0, "fusion_lat": 0.0, "bike_id": "e36e67ce14f3b8b8914d086f422f9f74", "rental_uris": {"ios": "https://dc.lft.to/lastmile_qr_scan", "android": "https://dc.lft.to/lastmile_qr_scan"}}, {"name": "aec7640d75b79aa722b1439e041ff521", "type": "electric_scooter", "lat": 38.933567333333336, "is_reserved": 0, "lon": -77.03427733333334, "fusion_lon": 0.0, "is_disabled": 0, "fusion_lat": 0.0, "bike_id": "aec7640d75b79aa722b1439e041ff521", "rental_uris": {"ios": "https://dc.lft.to/lastmile_qr_scan", "android": "https://dc.lft.to/lastmile_qr_scan"}}, {"name": "69ccfce99f4929289d86d53f8ad9d559", "type": "electric_bike", "lat": 38.886439833333334, "is_reserved": 0, "lon": -76.954683, "fusion_lon": 0.0, "is_disabled": 0, "fusion_lat": 0.0, "bike_id": "69ccfce99f4929289d86d53f8ad9d559", "rental_uris": {"ios": "https://dc.lft.to/lastmile_qr_scan", "android": "https://dc.lft.to/lastmile_qr_scan"}}, {"name": "e555c689296c0bf131c2b0ca9f857e85", "type": "electric_scooter", "lat": 38.933661, "is_reserved": 0, "lon": -77.05722433333334, "fusion_lon": 0.0, "is_disabled": 0, "fusion_lat": 0.0, "bike_id": "e555c689296c0bf131c2b0ca9f857e85", "rental_uris": {"ios": "https://dc.lft.to/lastmile_qr_scan", "android": "https://dc.lft.to/lastmile_qr_scan"}}, {"name": "13179599cd467e6dd42a80857ec20a3e", "type": "electric_scooter", "lat": 38.907259333333336, "is_reserved": 0, "lon": -77.02502366666667, "fusion_lon": 0.0, "is_disabled": 0, "fusion_lat": 0.0, "bike_id": "13179599cd467e6dd42a80857ec20a3e", "rental_uris": {"ios": "https://dc.lft.to/lastmile_qr_scan", "android": "https://dc.lft.to/lastmile_qr_scan"}}, {"name": "c64407426f97c5371563a607ec052c5a", "type": "electric_scooter", "lat": 38.925987166666665, "is_reserved": 0, "lon": -77.02119383333333, "fusion_lon": 0.0, "is_disabled": 0, "fusion_lat": 0.0, "bike_id": "c64407426f97c5371563a607ec052c5a", "rental_uris": {"ios": "https://dc.lft.to/lastmile_qr_scan", "android": "https://dc.lft.to/lastmile_qr_scan"}}, {"name": "bf1a54ad753ad841285f3315e43a1927", "type": "electric_scooter", "lat": 38.9055165, "is_reserved": 0, "lon": -77.046407, "fusion_lon": 0.0, "is_disabled": 0, "fusion_lat": 0.0, "bike_id": "bf1a54ad753ad841285f3315e43a1927", "rental_uris": {"ios": "https://dc.lft.to/lastmile_qr_scan", "android": "https://dc.lft.to/lastmile_qr_scan"}}, {"name": "ed1b1da42aacbc95bb6dbdc2f4b1747f", "type": "electric_scooter", "lat": 38.91769383333333, "is_reserved": 0, "lon": -77.02712016666666, "fusion_lon": 0.0, "is_disabled": 0, "fusion_lat": 0.0, "bike_id": "ed1b1da42aacbc95bb6dbdc2f4b1747f", "rental_uris": {"ios": "https://dc.lft.to/lastmile_qr_scan", "android": "https://dc.lft.to/lastmile_qr_scan"}}, {"name": "beb16f8b946b664f4970c5ee7a0613dc", "type": "electric_scooter", "lat": 38.89228266666667, "is_reserved": 0, "lon": -77.049948, "fusion_lon": 0.0, "is_disabled": 0, "fusion_lat": 0.0, "bike_id": "beb16f8b946b664f4970c5ee7a0613dc", "rental_uris": {"ios": "https://dc.lft.to/lastmile_qr_scan", "android": "https://dc.lft.to/lastmile_qr_scan"}}, {"name": "08db357ba8c7554e3b3d9f55fd2df3cd", "type": "electric_scooter", "lat": 38.937604, "is_reserved": 0, "lon": -77.02493166666666, "fusion_lon": 0.0, "is_disabled": 0, "fusion_lat": 0.0, "bike_id": "08db357ba8c7554e3b3d9f55fd2df3cd", "rental_uris": {"ios": "https://dc.lft.to/lastmile_qr_scan", "android": "https://dc.lft.to/lastmile_qr_scan"}}, {"name": "03877f5ace9e0d8ad1974521d250d9b9", "type": "electric_bike", "lat": 38.894566, "is_reserved": 0, "lon": -76.97035766666667, "fusion_lon": 0.0, "is_disabled": 0, "fusion_lat": 0.0, "bike_id": "03877f5ace9e0d8ad1974521d250d9b9", "rental_uris": {"ios": "https://dc.lft.to/lastmile_qr_scan", "android": "https://dc.lft.to/lastmile_qr_scan"}}, {"name": "ffc2ff439cd27a8dd2b2e779c4643d73", "type": "electric_scooter", "lat": 38.9104805, "is_reserved": 0, "lon": -77.02811783333334, "fusion_lon": 0.0, "is_disabled": 0, "fusion_lat": 0.0, "bike_id": "ffc2ff439cd27a8dd2b2e779c4643d73", "rental_uris": {"ios": "https://dc.lft.to/lastmile_qr_scan", "android": "https://dc.lft.to/lastmile_qr_scan"}}, {"name": "7c8d176aa122cfadbe830296894cfed3", "type": "electric_scooter", "lat": 38.9563045, "is_reserved": 0, "lon": -77.02538416666667, "fusion_lon": 0.0, "is_disabled": 0, "fusion_lat": 0.0, "bike_id": "7c8d176aa122cfadbe830296894cfed3", "rental_uris": {"ios": "https://dc.lft.to/lastmile_qr_scan", "android": "https://dc.lft.to/lastmile_qr_scan"}}, {"name": "74889b587dd3e3440a476b3421507402", "type": "electric_scooter", "lat": 38.9083415, "is_reserved": 0, "lon": -76.9996855, "fusion_lon": 0.0, "is_disabled": 0, "fusion_lat": 0.0, "bike_id": "74889b587dd3e3440a476b3421507402", "rental_uris": {"ios": "https://dc.lft.to/lastmile_qr_scan", "android": "https://dc.lft.to/lastmile_qr_scan"}}, {"name": "7e27cfbce12fc0b1e5b2a24dcfaa1fc7", "type": "electric_scooter", "lat": 38.88305533333333, "is_reserved": 0, "lon": -77.0177645, "fusion_lon": 0.0, "is_disabled": 0, "fusion_lat": 0.0, "bike_id": "7e27cfbce12fc0b1e5b2a24dcfaa1fc7", "rental_uris": {"ios": "https://dc.lft.to/lastmile_qr_scan", "android": "https://dc.lft.to/lastmile_qr_scan"}}, {"name": "1e9a34bf607eb681a361aebcc296b063", "type": "electric_scooter", "lat": 38.91496566666667, "is_reserved": 0, "lon": -77.01850783333333, "fusion_lon": 0.0, "is_disabled": 0, "fusion_lat": 0.0, "bike_id": "1e9a34bf607eb681a361aebcc296b063", "rental_uris": {"ios": "https://dc.lft.to/lastmile_qr_scan", "android": "https://dc.lft.to/lastmile_qr_scan"}}, {"name": "0d18ae8c8fd113e35a4006be7d053d1c", "type": "electric_scooter", "lat": 38.959086, "is_reserved": 0, "lon": -77.0807865, "fusion_lon": 0.0, "is_disabled": 0, "fusion_lat": 0.0, "bike_id": "0d18ae8c8fd113e35a4006be7d053d1c", "rental_uris": {"ios": "https://dc.lft.to/lastmile_qr_scan", "android": "https://dc.lft.to/lastmile_qr_scan"}}, {"name": "033f1989c1ca5a3e2be50a57c8378206", "type": "electric_scooter", "lat": 38.89234283333333, "is_reserved": 0, "lon": -77.01272766666666, "fusion_lon": 0.0, "is_disabled": 0, "fusion_lat": 0.0, "bike_id": "033f1989c1ca5a3e2be50a57c8378206", "rental_uris": {"ios": "https://dc.lft.to/lastmile_qr_scan", "android": "https://dc.lft.to/lastmile_qr_scan"}}, {"name": "f1754389273fd69b8f04a7af6c9b251d", "type": "electric_scooter", "lat": 38.8802735, "is_reserved": 0, "lon": -76.98838366666666, "fusion_lon": 0.0, "is_disabled": 0, "fusion_lat": 0.0, "bike_id": "f1754389273fd69b8f04a7af6c9b251d", "rental_uris": {"ios": "https://dc.lft.to/lastmile_qr_scan", "android": "https://dc.lft.to/lastmile_qr_scan"}}, {"name": "03f3524a8e493f6d1b8c7c80a82a23ab", "type": "electric_scooter", "lat": 38.933987, "is_reserved": 0, "lon": -77.03887266666666, "fusion_lon": 0.0, "is_disabled": 0, "fusion_lat": 0.0, "bike_id": "03f3524a8e493f6d1b8c7c80a82a23ab", "rental_uris": {"ios": "https://dc.lft.to/lastmile_qr_scan", "android": "https://dc.lft.to/lastmile_qr_scan"}}, {"name": "0ca91d85037eef0919b1f2a72e26e143", "type": "electric_scooter", "lat": 38.877623666666665, "is_reserved": 0, "lon": -77.0058445, "fusion_lon": 0.0, "is_disabled": 0, "fusion_lat": 0.0, "bike_id": "0ca91d85037eef0919b1f2a72e26e143", "rental_uris": {"ios": "https://dc.lft.to/lastmile_qr_scan", "android": "https://dc.lft.to/lastmile_qr_scan"}}, {"name": "b3487b4f92949b59ffa4548223f1369e", "type": "electric_scooter", "lat": 38.90502383333333, "is_reserved": 0, "lon": -77.05325533333334, "fusion_lon": 0.0, "is_disabled": 0, "fusion_lat": 0.0, "bike_id": "b3487b4f92949b59ffa4548223f1369e", "rental_uris": {"ios": "https://dc.lft.to/lastmile_qr_scan", "android": "https://dc.lft.to/lastmile_qr_scan"}}, {"name": "b5e917431e821f4d1207281e3eafe8e9", "type": "electric_scooter", "lat": 38.871275, "is_reserved": 0, "lon": -77.00599266666667, "fusion_lon": 0.0, "is_disabled": 0, "fusion_lat": 0.0, "bike_id": "b5e917431e821f4d1207281e3eafe8e9", "rental_uris": {"ios": "https://dc.lft.to/lastmile_qr_scan", "android": "https://dc.lft.to/lastmile_qr_scan"}}, {"name": "e19f123c168cf6561ff092bab124a1a8", "type": "electric_scooter", "lat": 38.903805, "is_reserved": 0, "lon": -77.03967566666667, "fusion_lon": 0.0, "is_disabled": 0, "fusion_lat": 0.0, "bike_id": "e19f123c168cf6561ff092bab124a1a8", "rental_uris": {"ios": "https://dc.lft.to/lastmile_qr_scan", "android": "https://dc.lft.to/lastmile_qr_scan"}}, {"name": "6cd8f92a8d295ea58122543b781c37f1", "type": "electric_scooter", "lat": 38.90326566666667, "is_reserved": 0, "lon": -77.038374, "fusion_lon": 0.0, "is_disabled": 0, "fusion_lat": 0.0, "bike_id": "6cd8f92a8d295ea58122543b781c37f1", "rental_uris": {"ios": "https://dc.lft.to/lastmile_qr_scan", "android": "https://dc.lft.to/lastmile_qr_scan"}}, {"name": "3319ff68db5176249c59089c23a4137f", "type": "electric_bike", "lat": 38.838637, "is_reserved": 0, "lon": -77.08868683333333, "fusion_lon": 0.0, "is_disabled": 0, "fusion_lat": 0.0, "bike_id": "3319ff68db5176249c59089c23a4137f", "rental_uris": {"ios": "https://dc.lft.to/lastmile_qr_scan", "android": "https://dc.lft.to/lastmile_qr_scan"}}, {"name": "b2331efc05b993639079c95c68af3696", "type": "electric_bike", "lat": 38.90164866666667, "is_reserved": 0, "lon": -76.98011383333333, "fusion_lon": 0.0, "is_disabled": 0, "fusion_lat": 0.0, "bike_id": "b2331efc05b993639079c95c68af3696", "rental_uris": {"ios": "https://dc.lft.to/lastmile_qr_scan", "android": "https://dc.lft.to/lastmile_qr_scan"}}, {"name": "333acf0465f8de00d46bb9982276fe46", "type": "electric_scooter", "lat": 38.93225416666667, "is_reserved": 0, "lon": -77.035451, "fusion_lon": 0.0, "is_disabled": 0, "fusion_lat": 0.0, "bike_id": "333acf0465f8de00d46bb9982276fe46", "rental_uris": {"ios": "https://dc.lft.to/lastmile_qr_scan", "android": "https://dc.lft.to/lastmile_qr_scan"}}, {"name": "ca3998c6689c6f5ae6cd7e1eb5ed813d", "type": "electric_scooter", "lat": 38.9004005, "is_reserved": 0, "lon": -77.001854, "fusion_lon": 0.0, "is_disabled": 0, "fusion_lat": 0.0, "bike_id": "ca3998c6689c6f5ae6cd7e1eb5ed813d", "rental_uris": {"ios": "https://dc.lft.to/lastmile_qr_scan", "android": "https://dc.lft.to/lastmile_qr_scan"}}, {"name": "ffd759cf05e956ccae7e5f0fceaa0093", "type": "electric_scooter", "lat": 38.889424, "is_reserved": 0, "lon": -76.9481965, "fusion_lon": 0.0, "is_disabled": 0, "fusion_lat": 0.0, "bike_id": "ffd759cf05e956ccae7e5f0fceaa0093", "rental_uris": {"ios": "https://dc.lft.to/lastmile_qr_scan", "android": "https://dc.lft.to/lastmile_qr_scan"}}, {"name": "f22e9c79931d034a1f858821113494d2", "type": "electric_bike", "lat": 38.9732775, "is_reserved": 0, "lon": -77.02148516666666, "fusion_lon": 0.0, "is_disabled": 0, "fusion_lat": 0.0, "bike_id": "f22e9c79931d034a1f858821113494d2", "rental_uris": {"ios": "https://dc.lft.to/lastmile_qr_scan", "android": "https://dc.lft.to/lastmile_qr_scan"}}, {"name": "403220b77aba5d0609dfdf1fd302607d", "type": "electric_scooter", "lat": 38.9291545, "is_reserved": 0, "lon": -77.02194366666667, "fusion_lon": 0.0, "is_disabled": 0, "fusion_lat": 0.0, "bike_id": "403220b77aba5d0609dfdf1fd302607d", "rental_uris": {"ios": "https://dc.lft.to/lastmile_qr_scan", "android": "https://dc.lft.to/lastmile_qr_scan"}}, {"name": "6fa4e93dfcd3d8b3ed8e639894cc6f9d", "type": "electric_scooter", "lat": 38.900278166666666, "is_reserved": 0, "lon": -76.99449366666667, "fusion_lon": 0.0, "is_disabled": 0, "fusion_lat": 0.0, "bike_id": "6fa4e93dfcd3d8b3ed8e639894cc6f9d", "rental_uris": {"ios": "https://dc.lft.to/lastmile_qr_scan", "android": "https://dc.lft.to/lastmile_qr_scan"}}, {"name": "2769729f7b06014bb73554e902e77eae", "type": "electric_bike", "lat": 38.9588715, "is_reserved": 0, "lon": -76.92489233333333, "fusion_lon": 0.0, "is_disabled": 0, "fusion_lat": 0.0, "bike_id": "2769729f7b06014bb73554e902e77eae", "rental_uris": {"ios": "https://dc.lft.to/lastmile_qr_scan", "android": "https://dc.lft.to/lastmile_qr_scan"}}, {"name": "c0c21a4e28bde89e57478c1c15264590", "type": "electric_scooter", "lat": 38.93642233333333, "is_reserved": 0, "lon": -77.03688033333333, "fusion_lon": 0.0, "is_disabled": 0, "fusion_lat": 0.0, "bike_id": "c0c21a4e28bde89e57478c1c15264590", "rental_uris": {"ios": "https://dc.lft.to/lastmile_qr_scan", "android": "https://dc.lft.to/lastmile_qr_scan"}}, {"name": "c84ee8931086f0f5f41ba4713aa69e30", "type": "electric_bike", "lat": 38.922834333333334, "is_reserved": 0, "lon": -77.03663616666667, "fusion_lon": 0.0, "is_disabled": 0, "fusion_lat": 0.0, "bike_id": "c84ee8931086f0f5f41ba4713aa69e30", "rental_uris": {"ios": "https://dc.lft.to/lastmile_qr_scan", "android": "https://dc.lft.to/lastmile_qr_scan"}}, {"name": "28240c47e6c027c2506d14bcfbbcb837", "type": "electric_scooter", "lat": 38.9003385, "is_reserved": 0, "lon": -77.0116425, "fusion_lon": 0.0, "is_disabled": 0, "fusion_lat": 0.0, "bike_id": "28240c47e6c027c2506d14bcfbbcb837", "rental_uris": {"ios": "https://dc.lft.to/lastmile_qr_scan", "android": "https://dc.lft.to/lastmile_qr_scan"}}, {"name": "d1bae288bf771b949cd69ac8ac03ac21", "type": "electric_scooter", "lat": 38.87736183333333, "is_reserved": 0, "lon": -76.97281516666666, "fusion_lon": 0.0, "is_disabled": 0, "fusion_lat": 0.0, "bike_id": "d1bae288bf771b949cd69ac8ac03ac21", "rental_uris": {"ios": "https://dc.lft.to/lastmile_qr_scan", "android": "https://dc.lft.to/lastmile_qr_scan"}}, {"name": "7799b2e1eacd1e3bad963e937687639f", "type": "electric_scooter", "lat": 38.861998666666665, "is_reserved": 0, "lon": -76.99466783333334, "fusion_lon": 0.0, "is_disabled": 0, "fusion_lat": 0.0, "bike_id": "7799b2e1eacd1e3bad963e937687639f", "rental_uris": {"ios": "https://dc.lft.to/lastmile_qr_scan", "android": "https://dc.lft.to/lastmile_qr_scan"}}, {"name": "add86b95be0b4ee6f1e8729baa3353c8", "type": "electric_scooter", "lat": 38.94838033333333, "is_reserved": 0, "lon": -77.025553, "fusion_lon": 0.0, "is_disabled": 0, "fusion_lat": 0.0, "bike_id": "add86b95be0b4ee6f1e8729baa3353c8", "rental_uris": {"ios": "https://dc.lft.to/lastmile_qr_scan", "android": "https://dc.lft.to/lastmile_qr_scan"}}, {"name": "e5fb296b1db7f36e4632d09b173838f2", "type": "electric_scooter", "lat": 38.9324945, "is_reserved": 0, "lon": -77.03279816666667, "fusion_lon": 0.0, "is_disabled": 0, "fusion_lat": 0.0, "bike_id": "e5fb296b1db7f36e4632d09b173838f2", "rental_uris": {"ios": "https://dc.lft.to/lastmile_qr_scan", "android": "https://dc.lft.to/lastmile_qr_scan"}}, {"name": "9829f8d3a6a10fb28bcea53224fe73ef", "type": "electric_scooter", "lat": 38.93498683333333, "is_reserved": 0, "lon": -77.02723966666667, "fusion_lon": 0.0, "is_disabled": 0, "fusion_lat": 0.0, "bike_id": "9829f8d3a6a10fb28bcea53224fe73ef", "rental_uris": {"ios": "https://dc.lft.to/lastmile_qr_scan", "android": "https://dc.lft.to/lastmile_qr_scan"}}, {"name": "d1f37ad1d093af91c8cb0f8626441cd9", "type": "electric_scooter", "lat": 38.9110625, "is_reserved": 0, "lon": -77.04227583333333, "fusion_lon": 0.0, "is_disabled": 0, "fusion_lat": 0.0, "bike_id": "d1f37ad1d093af91c8cb0f8626441cd9", "rental_uris": {"ios": "https://dc.lft.to/lastmile_qr_scan", "android": "https://dc.lft.to/lastmile_qr_scan"}}, {"name": "477d02fbe65d8fa36152f52c979d101f", "type": "electric_scooter", "lat": 38.903630166666666, "is_reserved": 0, "lon": -77.02518866666666, "fusion_lon": 0.0, "is_disabled": 0, "fusion_lat": 0.0, "bike_id": "477d02fbe65d8fa36152f52c979d101f", "rental_uris": {"ios": "https://dc.lft.to/lastmile_qr_scan", "android": "https://dc.lft.to/lastmile_qr_scan"}}, {"name": "d76bd2471affeda756d97a63ca7db13d", "type": "electric_scooter", "lat": 38.928989666666666, "is_reserved": 0, "lon": -77.02500666666667, "fusion_lon": 0.0, "is_disabled": 0, "fusion_lat": 0.0, "bike_id": "d76bd2471affeda756d97a63ca7db13d", "rental_uris": {"ios": "https://dc.lft.to/lastmile_qr_scan", "android": "https://dc.lft.to/lastmile_qr_scan"}}, {"name": "c42669b07c152dd8313ba312f50843f8", "type": "electric_scooter", "lat": 38.920487666666666, "is_reserved": 0, "lon": -77.0339265, "fusion_lon": 0.0, "is_disabled": 0, "fusion_lat": 0.0, "bike_id": "c42669b07c152dd8313ba312f50843f8", "rental_uris": {"ios": "https://dc.lft.to/lastmile_qr_scan", "android": "https://dc.lft.to/lastmile_qr_scan"}}, {"name": "5eef1c8d0ab111896d6c961d552726a3", "type": "electric_scooter", "lat": 38.90043983333333, "is_reserved": 0, "lon": -77.02602516666667, "fusion_lon": 0.0, "is_disabled": 0, "fusion_lat": 0.0, "bike_id": "5eef1c8d0ab111896d6c961d552726a3", "rental_uris": {"ios": "https://dc.lft.to/lastmile_qr_scan", "android": "https://dc.lft.to/lastmile_qr_scan"}}, {"name": "83dde787fdbced1fa8438929ddb51bf0", "type": "electric_bike", "lat": 38.99235383333333, "is_reserved": 0, "lon": -76.87821833333334, "fusion_lon": 0.0, "is_disabled": 0, "fusion_lat": 0.0, "bike_id": "83dde787fdbced1fa8438929ddb51bf0", "rental_uris": {"ios": "https://dc.lft.to/lastmile_qr_scan", "android": "https://dc.lft.to/lastmile_qr_scan"}}, {"name": "7f6cdcc80c8c5a530b82b81786029974", "type": "electric_scooter", "lat": 38.902795166666664, "is_reserved": 0, "lon": -77.06103633333333, "fusion_lon": 0.0, "is_disabled": 0, "fusion_lat": 0.0, "bike_id": "7f6cdcc80c8c5a530b82b81786029974", "rental_uris": {"ios": "https://dc.lft.to/lastmile_qr_scan", "android": "https://dc.lft.to/lastmile_qr_scan"}}, {"name": "1ba78f2d3c62fc412e843476d7a93e9c", "type": "electric_scooter", "lat": 38.91598233333333, "is_reserved": 0, "lon": -77.032203, "fusion_lon": 0.0, "is_disabled": 0, "fusion_lat": 0.0, "bike_id": "1ba78f2d3c62fc412e843476d7a93e9c", "rental_uris": {"ios": "https://dc.lft.to/lastmile_qr_scan", "android": "https://dc.lft.to/lastmile_qr_scan"}}, {"name": "c105a523db75eb139c9e47e1f7cc2b7e", "type": "electric_scooter", "lat": 38.901416166666664, "is_reserved": 0, "lon": -77.01194666666666, "fusion_lon": 0.0, "is_disabled": 0, "fusion_lat": 0.0, "bike_id": "c105a523db75eb139c9e47e1f7cc2b7e", "rental_uris": {"ios": "https://dc.lft.to/lastmile_qr_scan", "android": "https://dc.lft.to/lastmile_qr_scan"}}, {"name": "6e2778ce3cb49b0e8ab5ac0a4984bb10", "type": "electric_bike", "lat": 38.92214166666667, "is_reserved": 0, "lon": -76.98834866666667, "fusion_lon": 0.0, "is_disabled": 0, "fusion_lat": 0.0, "bike_id": "6e2778ce3cb49b0e8ab5ac0a4984bb10", "rental_uris": {"ios": "https://dc.lft.to/lastmile_qr_scan", "android": "https://dc.lft.to/lastmile_qr_scan"}}, {"name": "415e8c4da06dd7528189100333459232", "type": "electric_bike", "lat": 38.96941566666667, "is_reserved": 0, "lon": -76.95656633333333, "fusion_lon": 0.0, "is_disabled": 0, "fusion_lat": 0.0, "bike_id": "415e8c4da06dd7528189100333459232", "rental_uris": {"ios": "https://dc.lft.to/lastmile_qr_scan", "android": "https://dc.lft.to/lastmile_qr_scan"}}, {"name": "a5b9214f30486144ea73ebbc00e8c708", "type": "electric_scooter", "lat": 38.84291866666667, "is_reserved": 0, "lon": -76.99950716666666, "fusion_lon": 0.0, "is_disabled": 0, "fusion_lat": 0.0, "bike_id": "a5b9214f30486144ea73ebbc00e8c708", "rental_uris": {"ios": "https://dc.lft.to/lastmile_qr_scan", "android": "https://dc.lft.to/lastmile_qr_scan"}}, {"name": "da4db8a0168b9ff1a2550b8786484e03", "type": "electric_scooter", "lat": 38.90379083333333, "is_reserved": 0, "lon": -77.01740633333333, "fusion_lon": 0.0, "is_disabled": 0, "fusion_lat": 0.0, "bike_id": "da4db8a0168b9ff1a2550b8786484e03", "rental_uris": {"ios": "https://dc.lft.to/lastmile_qr_scan", "android": "https://dc.lft.to/lastmile_qr_scan"}}, {"name": "184fc75fbd1655393a6b1bf229899b18", "type": "electric_scooter", "lat": 38.902363333333334, "is_reserved": 0, "lon": -77.0019735, "fusion_lon": 0.0, "is_disabled": 0, "fusion_lat": 0.0, "bike_id": "184fc75fbd1655393a6b1bf229899b18", "rental_uris": {"ios": "https://dc.lft.to/lastmile_qr_scan", "android": "https://dc.lft.to/lastmile_qr_scan"}}, {"name": "e2426bc130166cd243377cf1562ee7e3", "type": "electric_bike", "lat": 38.880842, "is_reserved": 0, "lon": -76.98531966666667, "fusion_lon": 0.0, "is_disabled": 0, "fusion_lat": 0.0, "bike_id": "e2426bc130166cd243377cf1562ee7e3", "rental_uris": {"ios": "https://dc.lft.to/lastmile_qr_scan", "android": "https://dc.lft.to/lastmile_qr_scan"}}, {"name": "9f99f13841c535baf7cf517eebc5cd63", "type": "electric_scooter", "lat": 38.91760716666667, "is_reserved": 0, "lon": -77.02718083333333, "fusion_lon": 0.0, "is_disabled": 0, "fusion_lat": 0.0, "bike_id": "9f99f13841c535baf7cf517eebc5cd63", "rental_uris": {"ios": "https://dc.lft.to/lastmile_qr_scan", "android": "https://dc.lft.to/lastmile_qr_scan"}}, {"name": "d541b473b663d190e1c929d41b4a9135", "type": "electric_scooter", "lat": 38.90364533333333, "is_reserved": 0, "lon": -77.04481966666667, "fusion_lon": 0.0, "is_disabled": 0, "fusion_lat": 0.0, "bike_id": "d541b473b663d190e1c929d41b4a9135", "rental_uris": {"ios": "https://dc.lft.to/lastmile_qr_scan", "android": "https://dc.lft.to/lastmile_qr_scan"}}, {"name": "5a0c2c51ee32677570852a9707bed8c8", "type": "electric_scooter", "lat": 38.90869333333333, "is_reserved": 0, "lon": -77.02503083333333, "fusion_lon": 0.0, "is_disabled": 0, "fusion_lat": 0.0, "bike_id": "5a0c2c51ee32677570852a9707bed8c8", "rental_uris": {"ios": "https://dc.lft.to/lastmile_qr_scan", "android": "https://dc.lft.to/lastmile_qr_scan"}}, {"name": "158777b37278b5d19cba295cc2d891e1", "type": "electric_scooter", "lat": 38.9026825, "is_reserved": 0, "lon": -77.05312783333333, "fusion_lon": 0.0, "is_disabled": 0, "fusion_lat": 0.0, "bike_id": "158777b37278b5d19cba295cc2d891e1", "rental_uris": {"ios": "https://dc.lft.to/lastmile_qr_scan", "android": "https://dc.lft.to/lastmile_qr_scan"}}, {"name": "a20df1554745af2c4d9c819f799b0d65", "type": "electric_scooter", "lat": 38.91566733333333, "is_reserved": 0, "lon": -77.04621766666666, "fusion_lon": 0.0, "is_disabled": 0, "fusion_lat": 0.0, "bike_id": "a20df1554745af2c4d9c819f799b0d65", "rental_uris": {"ios": "https://dc.lft.to/lastmile_qr_scan", "android": "https://dc.lft.to/lastmile_qr_scan"}}, {"name": "78968cdbec2e2e40457383e6b49c57d4", "type": "electric_scooter", "lat": 38.91710833333333, "is_reserved": 0, "lon": -77.03121016666667, "fusion_lon": 0.0, "is_disabled": 0, "fusion_lat": 0.0, "bike_id": "78968cdbec2e2e40457383e6b49c57d4", "rental_uris": {"ios": "https://dc.lft.to/lastmile_qr_scan", "android": "https://dc.lft.to/lastmile_qr_scan"}}, {"name": "db251e1b5f82da69b58a9c58d61fb011", "type": "electric_scooter", "lat": 38.88514283333333, "is_reserved": 0, "lon": -77.00570716666667, "fusion_lon": 0.0, "is_disabled": 0, "fusion_lat": 0.0, "bike_id": "db251e1b5f82da69b58a9c58d61fb011", "rental_uris": {"ios": "https://dc.lft.to/lastmile_qr_scan", "android": "https://dc.lft.to/lastmile_qr_scan"}}, {"name": "f20799904034f762c2180fe39c40a22d", "type": "electric_scooter", "lat": 38.92240833333334, "is_reserved": 0, "lon": -77.0309185, "fusion_lon": 0.0, "is_disabled": 0, "fusion_lat": 0.0, "bike_id": "f20799904034f762c2180fe39c40a22d", "rental_uris": {"ios": "https://dc.lft.to/lastmile_qr_scan", "android": "https://dc.lft.to/lastmile_qr_scan"}}, {"name": "23c31e978ca96c91f6b0eacefcca3b31", "type": "electric_scooter", "lat": 38.8982645, "is_reserved": 0, "lon": -77.03137033333333, "fusion_lon": 0.0, "is_disabled": 0, "fusion_lat": 0.0, "bike_id": "23c31e978ca96c91f6b0eacefcca3b31", "rental_uris": {"ios": "https://dc.lft.to/lastmile_qr_scan", "android": "https://dc.lft.to/lastmile_qr_scan"}}, {"name": "7150006840d582bdf5fbd9289121a580", "type": "electric_scooter", "lat": 38.9140035, "is_reserved": 0, "lon": -77.008403, "fusion_lon": 0.0, "is_disabled": 0, "fusion_lat": 0.0, "bike_id": "7150006840d582bdf5fbd9289121a580", "rental_uris": {"ios": "https://dc.lft.to/lastmile_qr_scan", "android": "https://dc.lft.to/lastmile_qr_scan"}}, {"name": "45f8caaa8161893cf1729160b7379027", "type": "electric_scooter", "lat": 38.895111166666666, "is_reserved": 0, "lon": -77.0109, "fusion_lon": 0.0, "is_disabled": 0, "fusion_lat": 0.0, "bike_id": "45f8caaa8161893cf1729160b7379027", "rental_uris": {"ios": "https://dc.lft.to/lastmile_qr_scan", "android": "https://dc.lft.to/lastmile_qr_scan"}}, {"name": "1ea8ba8f82bee4fc253b7d18e53bda95", "type": "electric_bike", "lat": 38.948915, "is_reserved": 0, "lon": -77.0192845, "fusion_lon": 0.0, "is_disabled": 0, "fusion_lat": 0.0, "bike_id": "1ea8ba8f82bee4fc253b7d18e53bda95", "rental_uris": {"ios": "https://dc.lft.to/lastmile_qr_scan", "android": "https://dc.lft.to/lastmile_qr_scan"}}, {"name": "e5337c36cad2b554b4431de6c57ae72d", "type": "electric_scooter", "lat": 38.92081133333333, "is_reserved": 0, "lon": -77.03220716666667, "fusion_lon": 0.0, "is_disabled": 0, "fusion_lat": 0.0, "bike_id": "e5337c36cad2b554b4431de6c57ae72d", "rental_uris": {"ios": "https://dc.lft.to/lastmile_qr_scan", "android": "https://dc.lft.to/lastmile_qr_scan"}}, {"name": "7edb0853f82197a8cf303144db289724", "type": "electric_scooter", "lat": 38.89526466666667, "is_reserved": 0, "lon": -77.01610466666666, "fusion_lon": 0.0, "is_disabled": 0, "fusion_lat": 0.0, "bike_id": "7edb0853f82197a8cf303144db289724", "rental_uris": {"ios": "https://dc.lft.to/lastmile_qr_scan", "android": "https://dc.lft.to/lastmile_qr_scan"}}, {"name": "93fb4fd4ddb6b144a1706e01eb4085ab", "type": "electric_scooter", "lat": 38.9350045, "is_reserved": 0, "lon": -77.028565, "fusion_lon": 0.0, "is_disabled": 0, "fusion_lat": 0.0, "bike_id": "93fb4fd4ddb6b144a1706e01eb4085ab", "rental_uris": {"ios": "https://dc.lft.to/lastmile_qr_scan", "android": "https://dc.lft.to/lastmile_qr_scan"}}, {"name": "26f7cff0b42353b12b7364c9e23a7c69", "type": "electric_scooter", "lat": 38.94180816666667, "is_reserved": 0, "lon": -77.03092766666667, "fusion_lon": 0.0, "is_disabled": 0, "fusion_lat": 0.0, "bike_id": "26f7cff0b42353b12b7364c9e23a7c69", "rental_uris": {"ios": "https://dc.lft.to/lastmile_qr_scan", "android": "https://dc.lft.to/lastmile_qr_scan"}}, {"name": "7dc5dbbb821d6782abd11291a5d4f8e2", "type": "electric_scooter", "lat": 38.90607466666667, "is_reserved": 0, "lon": -77.01318233333333, "fusion_lon": 0.0, "is_disabled": 0, "fusion_lat": 0.0, "bike_id": "7dc5dbbb821d6782abd11291a5d4f8e2", "rental_uris": {"ios": "https://dc.lft.to/lastmile_qr_scan", "android": "https://dc.lft.to/lastmile_qr_scan"}}, {"name": "d9cc900630e67e318c51689c1b32f58b", "type": "electric_scooter", "lat": 38.90719933333333, "is_reserved": 0, "lon": -77.02510183333334, "fusion_lon": 0.0, "is_disabled": 0, "fusion_lat": 0.0, "bike_id": "d9cc900630e67e318c51689c1b32f58b", "rental_uris": {"ios": "https://dc.lft.to/lastmile_qr_scan", "android": "https://dc.lft.to/lastmile_qr_scan"}}, {"name": "de6317bb73c93b8056b9efcd5fb49680", "type": "electric_bike", "lat": 38.85439483333333, "is_reserved": 0, "lon": -77.11704533333334, "fusion_lon": 0.0, "is_disabled": 0, "fusion_lat": 0.0, "bike_id": "de6317bb73c93b8056b9efcd5fb49680", "rental_uris": {"ios": "https://dc.lft.to/lastmile_qr_scan", "android": "https://dc.lft.to/lastmile_qr_scan"}}, {"name": "72f8b9a346bcf65710dee78402353105", "type": "electric_scooter", "lat": 38.93530466666667, "is_reserved": 0, "lon": -77.02858366666666, "fusion_lon": 0.0, "is_disabled": 0, "fusion_lat": 0.0, "bike_id": "72f8b9a346bcf65710dee78402353105", "rental_uris": {"ios": "https://dc.lft.to/lastmile_qr_scan", "android": "https://dc.lft.to/lastmile_qr_scan"}}, {"name": "f7060e0411ffc59bf12924130aeca13e", "type": "electric_bike", "lat": 38.918083, "is_reserved": 0, "lon": -77.03300533333334, "fusion_lon": 0.0, "is_disabled": 0, "fusion_lat": 0.0, "bike_id": "f7060e0411ffc59bf12924130aeca13e", "rental_uris": {"ios": "https://dc.lft.to/lastmile_qr_scan", "android": "https://dc.lft.to/lastmile_qr_scan"}}, {"name": "c079e942b0de9a15fb3ef33935c30d8f", "type": "electric_scooter", "lat": 38.89742116666667, "is_reserved": 0, "lon": -77.04678383333334, "fusion_lon": 0.0, "is_disabled": 0, "fusion_lat": 0.0, "bike_id": "c079e942b0de9a15fb3ef33935c30d8f", "rental_uris": {"ios": "https://dc.lft.to/lastmile_qr_scan", "android": "https://dc.lft.to/lastmile_qr_scan"}}, {"name": "436447561f9c0df477612fd84ad720c3", "type": "electric_scooter", "lat": 38.8788695, "is_reserved": 0, "lon": -77.0220385, "fusion_lon": 0.0, "is_disabled": 0, "fusion_lat": 0.0, "bike_id": "436447561f9c0df477612fd84ad720c3", "rental_uris": {"ios": "https://dc.lft.to/lastmile_qr_scan", "android": "https://dc.lft.to/lastmile_qr_scan"}}, {"name": "7a469b8901d9e4b1300583f6f4497517", "type": "electric_scooter", "lat": 38.897428833333336, "is_reserved": 0, "lon": -77.04679716666666, "fusion_lon": 0.0, "is_disabled": 0, "fusion_lat": 0.0, "bike_id": "7a469b8901d9e4b1300583f6f4497517", "rental_uris": {"ios": "https://dc.lft.to/lastmile_qr_scan", "android": "https://dc.lft.to/lastmile_qr_scan"}}, {"name": "fdaf2ac9627a14ff3515088d08dbcbb6", "type": "electric_scooter", "lat": 38.92684466666667, "is_reserved": 0, "lon": -77.02158333333334, "fusion_lon": 0.0, "is_disabled": 0, "fusion_lat": 0.0, "bike_id": "fdaf2ac9627a14ff3515088d08dbcbb6", "rental_uris": {"ios": "https://dc.lft.to/lastmile_qr_scan", "android": "https://dc.lft.to/lastmile_qr_scan"}}, {"name": "c4dfb8d6f29f01a7187274833b828d39", "type": "electric_scooter", "lat": 38.9079805, "is_reserved": 0, "lon": -76.997019, "fusion_lon": 0.0, "is_disabled": 0, "fusion_lat": 0.0, "bike_id": "c4dfb8d6f29f01a7187274833b828d39", "rental_uris": {"ios": "https://dc.lft.to/lastmile_qr_scan", "android": "https://dc.lft.to/lastmile_qr_scan"}}, {"name": "fb380d96a8d063a4af3d06d8d4c4e5d5", "type": "electric_scooter", "lat": 38.91059933333333, "is_reserved": 0, "lon": -77.03036466666667, "fusion_lon": 0.0, "is_disabled": 0, "fusion_lat": 0.0, "bike_id": "fb380d96a8d063a4af3d06d8d4c4e5d5", "rental_uris": {"ios": "https://dc.lft.to/lastmile_qr_scan", "android": "https://dc.lft.to/lastmile_qr_scan"}}, {"name": "dc6b9f9be134793441cd113ced1b7f43", "type": "electric_scooter", "lat": 38.9234715, "is_reserved": 0, "lon": -77.01902666666666, "fusion_lon": 0.0, "is_disabled": 0, "fusion_lat": 0.0, "bike_id": "dc6b9f9be134793441cd113ced1b7f43", "rental_uris": {"ios": "https://dc.lft.to/lastmile_qr_scan", "android": "https://dc.lft.to/lastmile_qr_scan"}}, {"name": "bd72792e7e7b168f37d6633a5ea0c113", "type": "electric_scooter", "lat": 38.90508666666667, "is_reserved": 0, "lon": -77.063837, "fusion_lon": 0.0, "is_disabled": 0, "fusion_lat": 0.0, "bike_id": "bd72792e7e7b168f37d6633a5ea0c113", "rental_uris": {"ios": "https://dc.lft.to/lastmile_qr_scan", "android": "https://dc.lft.to/lastmile_qr_scan"}}, {"name": "2484773fef9e1a9147140e8ac99adfbb", "type": "electric_bike", "lat": 38.888369833333336, "is_reserved": 0, "lon": -76.99364266666667, "fusion_lon": 0.0, "is_disabled": 0, "fusion_lat": 0.0, "bike_id": "2484773fef9e1a9147140e8ac99adfbb", "rental_uris": {"ios": "https://dc.lft.to/lastmile_qr_scan", "android": "https://dc.lft.to/lastmile_qr_scan"}}, {"name": "8cc7b4efa343ceebe39a1a39a4794537", "type": "electric_scooter", "lat": 38.9097265, "is_reserved": 0, "lon": -77.01122366666667, "fusion_lon": 0.0, "is_disabled": 0, "fusion_lat": 0.0, "bike_id": "8cc7b4efa343ceebe39a1a39a4794537", "rental_uris": {"ios": "https://dc.lft.to/lastmile_qr_scan", "android": "https://dc.lft.to/lastmile_qr_scan"}}, {"name": "11a453565cc7c67aff0ad18508fd9225", "type": "electric_scooter", "lat": 38.905862666666664, "is_reserved": 0, "lon": -77.0651935, "fusion_lon": 0.0, "is_disabled": 0, "fusion_lat": 0.0, "bike_id": "11a453565cc7c67aff0ad18508fd9225", "rental_uris": {"ios": "https://dc.lft.to/lastmile_qr_scan", "android": "https://dc.lft.to/lastmile_qr_scan"}}, {"name": "dd4890d359d66e7f96e79d7d6fa8a67f", "type": "electric_scooter", "lat": 38.918558833333336, "is_reserved": 0, "lon": -76.96545083333334, "fusion_lon": 0.0, "is_disabled": 0, "fusion_lat": 0.0, "bike_id": "dd4890d359d66e7f96e79d7d6fa8a67f", "rental_uris": {"ios": "https://dc.lft.to/lastmile_qr_scan", "android": "https://dc.lft.to/lastmile_qr_scan"}}, {"name": "4d0df604fee6adaed2ce312922463874", "type": "electric_scooter", "lat": 38.92053166666667, "is_reserved": 0, "lon": -77.029732, "fusion_lon": 0.0, "is_disabled": 0, "fusion_lat": 0.0, "bike_id": "4d0df604fee6adaed2ce312922463874", "rental_uris": {"ios": "https://dc.lft.to/lastmile_qr_scan", "android": "https://dc.lft.to/lastmile_qr_scan"}}, {"name": "e568c780f685d2d3289c324d0d98d913", "type": "electric_scooter", "lat": 38.9262855, "is_reserved": 0, "lon": -77.03502633333333, "fusion_lon": 0.0, "is_disabled": 0, "fusion_lat": 0.0, "bike_id": "e568c780f685d2d3289c324d0d98d913", "rental_uris": {"ios": "https://dc.lft.to/lastmile_qr_scan", "android": "https://dc.lft.to/lastmile_qr_scan"}}, {"name": "fe6b45185747e5aa22b9d7c2dd193035", "type": "electric_scooter", "lat": 38.90972633333333, "is_reserved": 0, "lon": -77.01712566666667, "fusion_lon": 0.0, "is_disabled": 0, "fusion_lat": 0.0, "bike_id": "fe6b45185747e5aa22b9d7c2dd193035", "rental_uris": {"ios": "https://dc.lft.to/lastmile_qr_scan", "android": "https://dc.lft.to/lastmile_qr_scan"}}, {"name": "0157e2af984a5fb0b289ac863f41e112", "type": "electric_bike", "lat": 38.95536216666667, "is_reserved": 0, "lon": -77.02291883333334, "fusion_lon": 0.0, "is_disabled": 0, "fusion_lat": 0.0, "bike_id": "0157e2af984a5fb0b289ac863f41e112", "rental_uris": {"ios": "https://dc.lft.to/lastmile_qr_scan", "android": "https://dc.lft.to/lastmile_qr_scan"}}, {"name": "7b8a8f93ed228a337f0f384be645afba", "type": "electric_scooter", "lat": 38.905868166666664, "is_reserved": 0, "lon": -77.06518533333333, "fusion_lon": 0.0, "is_disabled": 0, "fusion_lat": 0.0, "bike_id": "7b8a8f93ed228a337f0f384be645afba", "rental_uris": {"ios": "https://dc.lft.to/lastmile_qr_scan", "android": "https://dc.lft.to/lastmile_qr_scan"}}, {"name": "dc32cf67f19efc474d832caf11390824", "type": "electric_scooter", "lat": 38.91970216666667, "is_reserved": 0, "lon": -77.0010385, "fusion_lon": 0.0, "is_disabled": 0, "fusion_lat": 0.0, "bike_id": "dc32cf67f19efc474d832caf11390824", "rental_uris": {"ios": "https://dc.lft.to/lastmile_qr_scan", "android": "https://dc.lft.to/lastmile_qr_scan"}}, {"name": "29601ceb799f2133ada1f9c45abf0d8c", "type": "electric_scooter", "lat": 38.92454516666667, "is_reserved": 0, "lon": -77.00210133333333, "fusion_lon": 0.0, "is_disabled": 0, "fusion_lat": 0.0, "bike_id": "29601ceb799f2133ada1f9c45abf0d8c", "rental_uris": {"ios": "https://dc.lft.to/lastmile_qr_scan", "android": "https://dc.lft.to/lastmile_qr_scan"}}, {"name": "62b9c420962e2d187b80cbffa86c0646", "type": "electric_scooter", "lat": 38.90026016666667, "is_reserved": 0, "lon": -77.0118875, "fusion_lon": 0.0, "is_disabled": 0, "fusion_lat": 0.0, "bike_id": "62b9c420962e2d187b80cbffa86c0646", "rental_uris": {"ios": "https://dc.lft.to/lastmile_qr_scan", "android": "https://dc.lft.to/lastmile_qr_scan"}}, {"name": "525497bc21b277ffeb97a08691e2e7e8", "type": "electric_scooter", "lat": 38.9118605, "is_reserved": 0, "lon": -76.99619033333333, "fusion_lon": 0.0, "is_disabled": 0, "fusion_lat": 0.0, "bike_id": "525497bc21b277ffeb97a08691e2e7e8", "rental_uris": {"ios": "https://dc.lft.to/lastmile_qr_scan", "android": "https://dc.lft.to/lastmile_qr_scan"}}, {"name": "1d7d5621581a7fbb9defcb86d66e0a3e", "type": "electric_scooter", "lat": 38.94442133333333, "is_reserved": 0, "lon": -77.0634785, "fusion_lon": 0.0, "is_disabled": 0, "fusion_lat": 0.0, "bike_id": "1d7d5621581a7fbb9defcb86d66e0a3e", "rental_uris": {"ios": "https://dc.lft.to/lastmile_qr_scan", "android": "https://dc.lft.to/lastmile_qr_scan"}}, {"name": "4d9b5396c0da9cdc6f2845dab4028bf2", "type": "electric_scooter", "lat": 38.897817, "is_reserved": 0, "lon": -77.0298975, "fusion_lon": 0.0, "is_disabled": 0, "fusion_lat": 0.0, "bike_id": "4d9b5396c0da9cdc6f2845dab4028bf2", "rental_uris": {"ios": "https://dc.lft.to/lastmile_qr_scan", "android": "https://dc.lft.to/lastmile_qr_scan"}}, {"name": "1aa32bcd173152a8c990ad32e6104cb3", "type": "electric_scooter", "lat": 38.89224433333333, "is_reserved": 0, "lon": -77.04263583333334, "fusion_lon": 0.0, "is_disabled": 0, "fusion_lat": 0.0, "bike_id": "1aa32bcd173152a8c990ad32e6104cb3", "rental_uris": {"ios": "https://dc.lft.to/lastmile_qr_scan", "android": "https://dc.lft.to/lastmile_qr_scan"}}, {"name": "f0d32beb2fe9a56ee7dba487cd6575e3", "type": "electric_scooter", "lat": 38.920650333333334, "is_reserved": 0, "lon": -77.029191, "fusion_lon": 0.0, "is_disabled": 0, "fusion_lat": 0.0, "bike_id": "f0d32beb2fe9a56ee7dba487cd6575e3", "rental_uris": {"ios": "https://dc.lft.to/lastmile_qr_scan", "android": "https://dc.lft.to/lastmile_qr_scan"}}, {"name": "d7c2b7f8f197e2638819eea6cb5e461c", "type": "electric_scooter", "lat": 38.883315333333336, "is_reserved": 0, "lon": -77.017463, "fusion_lon": 0.0, "is_disabled": 0, "fusion_lat": 0.0, "bike_id": "d7c2b7f8f197e2638819eea6cb5e461c", "rental_uris": {"ios": "https://dc.lft.to/lastmile_qr_scan", "android": "https://dc.lft.to/lastmile_qr_scan"}}, {"name": "dd1927ac3995eda962d76c073feb65cc", "type": "electric_scooter", "lat": 38.961166166666665, "is_reserved": 0, "lon": -77.02813633333334, "fusion_lon": 0.0, "is_disabled": 0, "fusion_lat": 0.0, "bike_id": "dd1927ac3995eda962d76c073feb65cc", "rental_uris": {"ios": "https://dc.lft.to/lastmile_qr_scan", "android": "https://dc.lft.to/lastmile_qr_scan"}}, {"name": "68a401f515f206ae20c83c3dcecba576", "type": "electric_bike", "lat": 38.8549155, "is_reserved": 0, "lon": -77.115233, "fusion_lon": 0.0, "is_disabled": 0, "fusion_lat": 0.0, "bike_id": "68a401f515f206ae20c83c3dcecba576", "rental_uris": {"ios": "https://dc.lft.to/lastmile_qr_scan", "android": "https://dc.lft.to/lastmile_qr_scan"}}, {"name": "f9daa70ed7951d299070e3966911fbdb", "type": "electric_scooter", "lat": 38.917143, "is_reserved": 0, "lon": -77.0310045, "fusion_lon": 0.0, "is_disabled": 0, "fusion_lat": 0.0, "bike_id": "f9daa70ed7951d299070e3966911fbdb", "rental_uris": {"ios": "https://dc.lft.to/lastmile_qr_scan", "android": "https://dc.lft.to/lastmile_qr_scan"}}, {"name": "b97c7d7ebfb778b97665cd12fb969e9f", "type": "electric_scooter", "lat": 38.907649, "is_reserved": 0, "lon": -77.00121533333333, "fusion_lon": 0.0, "is_disabled": 0, "fusion_lat": 0.0, "bike_id": "b97c7d7ebfb778b97665cd12fb969e9f", "rental_uris": {"ios": "https://dc.lft.to/lastmile_qr_scan", "android": "https://dc.lft.to/lastmile_qr_scan"}}, {"name": "7a2dc17c6fcb3385a0e95d15ce6571aa", "type": "electric_scooter", "lat": 38.9194715, "is_reserved": 0, "lon": -77.01357, "fusion_lon": 0.0, "is_disabled": 0, "fusion_lat": 0.0, "bike_id": "7a2dc17c6fcb3385a0e95d15ce6571aa", "rental_uris": {"ios": "https://dc.lft.to/lastmile_qr_scan", "android": "https://dc.lft.to/lastmile_qr_scan"}}, {"name": "322935cd950e45e2572c9fc879dfea04", "type": "electric_scooter", "lat": 38.9258505, "is_reserved": 0, "lon": -77.03914416666667, "fusion_lon": 0.0, "is_disabled": 0, "fusion_lat": 0.0, "bike_id": "322935cd950e45e2572c9fc879dfea04", "rental_uris": {"ios": "https://dc.lft.to/lastmile_qr_scan", "android": "https://dc.lft.to/lastmile_qr_scan"}}, {"name": "d61cb722f3611973c9dea239f47ab5cd", "type": "electric_scooter", "lat": 38.920589666666665, "is_reserved": 0, "lon": -76.998719, "fusion_lon": 0.0, "is_disabled": 0, "fusion_lat": 0.0, "bike_id": "d61cb722f3611973c9dea239f47ab5cd", "rental_uris": {"ios": "https://dc.lft.to/lastmile_qr_scan", "android": "https://dc.lft.to/lastmile_qr_scan"}}, {"name": "7942a62225c15866f90d50d470e27605", "type": "electric_scooter", "lat": 38.91353483333333, "is_reserved": 0, "lon": -77.01560366666666, "fusion_lon": 0.0, "is_disabled": 0, "fusion_lat": 0.0, "bike_id": "7942a62225c15866f90d50d470e27605", "rental_uris": {"ios": "https://dc.lft.to/lastmile_qr_scan", "android": "https://dc.lft.to/lastmile_qr_scan"}}, {"name": "fc03202f2f31b203a17ccb8a9f467893", "type": "electric_scooter", "lat": 38.90785566666667, "is_reserved": 0, "lon": -77.04873066666667, "fusion_lon": 0.0, "is_disabled": 0, "fusion_lat": 0.0, "bike_id": "fc03202f2f31b203a17ccb8a9f467893", "rental_uris": {"ios": "https://dc.lft.to/lastmile_qr_scan", "android": "https://dc.lft.to/lastmile_qr_scan"}}, {"name": "c4775907c9afaded7f3efb3b2169eb52", "type": "electric_scooter", "lat": 38.9049725, "is_reserved": 0, "lon": -77.02947316666666, "fusion_lon": 0.0, "is_disabled": 0, "fusion_lat": 0.0, "bike_id": "c4775907c9afaded7f3efb3b2169eb52", "rental_uris": {"ios": "https://dc.lft.to/lastmile_qr_scan", "android": "https://dc.lft.to/lastmile_qr_scan"}}, {"name": "e8960ce88a31ae8ee710c289611a8095", "type": "electric_bike", "lat": 38.884043, "is_reserved": 0, "lon": -76.9605885, "fusion_lon": 0.0, "is_disabled": 0, "fusion_lat": 0.0, "bike_id": "e8960ce88a31ae8ee710c289611a8095", "rental_uris": {"ios": "https://dc.lft.to/lastmile_qr_scan", "android": "https://dc.lft.to/lastmile_qr_scan"}}, {"name": "0b3bc5bbaefee2d748375a5ed353bac8", "type": "electric_scooter", "lat": 38.93971283333333, "is_reserved": 0, "lon": -77.03259416666667, "fusion_lon": 0.0, "is_disabled": 0, "fusion_lat": 0.0, "bike_id": "0b3bc5bbaefee2d748375a5ed353bac8", "rental_uris": {"ios": "https://dc.lft.to/lastmile_qr_scan", "android": "https://dc.lft.to/lastmile_qr_scan"}}, {"name": "ea19dab5f218c25affb910eb3f40650a", "type": "electric_scooter", "lat": 38.894803333333336, "is_reserved": 0, "lon": -76.94869866666667, "fusion_lon": 0.0, "is_disabled": 0, "fusion_lat": 0.0, "bike_id": "ea19dab5f218c25affb910eb3f40650a", "rental_uris": {"ios": "https://dc.lft.to/lastmile_qr_scan", "android": "https://dc.lft.to/lastmile_qr_scan"}}, {"name": "f5f87abd85129aac3310400130601853", "type": "electric_scooter", "lat": 38.937367333333334, "is_reserved": 0, "lon": -77.02431366666667, "fusion_lon": 0.0, "is_disabled": 0, "fusion_lat": 0.0, "bike_id": "f5f87abd85129aac3310400130601853", "rental_uris": {"ios": "https://dc.lft.to/lastmile_qr_scan", "android": "https://dc.lft.to/lastmile_qr_scan"}}, {"name": "874d0b8bf98db2d7f49da4fbd83a0c64", "type": "electric_scooter", "lat": 38.92275716666666, "is_reserved": 0, "lon": -77.03663866666666, "fusion_lon": 0.0, "is_disabled": 0, "fusion_lat": 0.0, "bike_id": "874d0b8bf98db2d7f49da4fbd83a0c64", "rental_uris": {"ios": "https://dc.lft.to/lastmile_qr_scan", "android": "https://dc.lft.to/lastmile_qr_scan"}}, {"name": "494084e14abc8c5f2f14f87865cf1587", "type": "electric_scooter", "lat": 38.914326333333335, "is_reserved": 0, "lon": -77.046482, "fusion_lon": 0.0, "is_disabled": 0, "fusion_lat": 0.0, "bike_id": "494084e14abc8c5f2f14f87865cf1587", "rental_uris": {"ios": "https://dc.lft.to/lastmile_qr_scan", "android": "https://dc.lft.to/lastmile_qr_scan"}}, {"name": "e15dac338047be607926726748138829", "type": "electric_scooter", "lat": 38.899453666666666, "is_reserved": 0, "lon": -76.9801545, "fusion_lon": 0.0, "is_disabled": 0, "fusion_lat": 0.0, "bike_id": "e15dac338047be607926726748138829", "rental_uris": {"ios": "https://dc.lft.to/lastmile_qr_scan", "android": "https://dc.lft.to/lastmile_qr_scan"}}, {"name": "3e6aee8eded0ac73f58d358d33008603", "type": "electric_scooter", "lat": 38.904055666666665, "is_reserved": 0, "lon": -77.00577566666666, "fusion_lon": 0.0, "is_disabled": 0, "fusion_lat": 0.0, "bike_id": "3e6aee8eded0ac73f58d358d33008603", "rental_uris": {"ios": "https://dc.lft.to/lastmile_qr_scan", "android": "https://dc.lft.to/lastmile_qr_scan"}}, {"name": "3b04e538dd92aa6ffec5f342168b18a9", "type": "electric_scooter", "lat": 38.892233, "is_reserved": 0, "lon": -77.03089366666667, "fusion_lon": 0.0, "is_disabled": 0, "fusion_lat": 0.0, "bike_id": "3b04e538dd92aa6ffec5f342168b18a9", "rental_uris": {"ios": "https://dc.lft.to/lastmile_qr_scan", "android": "https://dc.lft.to/lastmile_qr_scan"}}, {"name": "80281d6fa93a16b8f59e6dd2cd50b48a", "type": "electric_scooter", "lat": 38.93709066666667, "is_reserved": 0, "lon": -77.02937933333334, "fusion_lon": 0.0, "is_disabled": 0, "fusion_lat": 0.0, "bike_id": "80281d6fa93a16b8f59e6dd2cd50b48a", "rental_uris": {"ios": "https://dc.lft.to/lastmile_qr_scan", "android": "https://dc.lft.to/lastmile_qr_scan"}}, {"name": "be0c33d76399b1bc5f05c987e975320b", "type": "electric_scooter", "lat": 38.90037, "is_reserved": 0, "lon": -77.00207266666666, "fusion_lon": 0.0, "is_disabled": 0, "fusion_lat": 0.0, "bike_id": "be0c33d76399b1bc5f05c987e975320b", "rental_uris": {"ios": "https://dc.lft.to/lastmile_qr_scan", "android": "https://dc.lft.to/lastmile_qr_scan"}}, {"name": "06d1e33d09ab865d052b2eb66af1e719", "type": "electric_scooter", "lat": 38.885163, "is_reserved": 0, "lon": -77.0056965, "fusion_lon": 0.0, "is_disabled": 0, "fusion_lat": 0.0, "bike_id": "06d1e33d09ab865d052b2eb66af1e719", "rental_uris": {"ios": "https://dc.lft.to/lastmile_qr_scan", "android": "https://dc.lft.to/lastmile_qr_scan"}}, {"name": "b659e76574f424a7eb00c457168df7c0", "type": "electric_scooter", "lat": 38.9038245, "is_reserved": 0, "lon": -77.00986366666666, "fusion_lon": 0.0, "is_disabled": 0, "fusion_lat": 0.0, "bike_id": "b659e76574f424a7eb00c457168df7c0", "rental_uris": {"ios": "https://dc.lft.to/lastmile_qr_scan", "android": "https://dc.lft.to/lastmile_qr_scan"}}, {"name": "ee7998bcec73a53cd34931bd280925c6", "type": "electric_bike", "lat": 38.95070066666667, "is_reserved": 0, "lon": -77.01202683333334, "fusion_lon": 0.0, "is_disabled": 0, "fusion_lat": 0.0, "bike_id": "ee7998bcec73a53cd34931bd280925c6", "rental_uris": {"ios": "https://dc.lft.to/lastmile_qr_scan", "android": "https://dc.lft.to/lastmile_qr_scan"}}, {"name": "1c8efa26b7f8493d5a886d7d66087a7b", "type": "electric_scooter", "lat": 38.93430033333333, "is_reserved": 0, "lon": -77.04000516666666, "fusion_lon": 0.0, "is_disabled": 0, "fusion_lat": 0.0, "bike_id": "1c8efa26b7f8493d5a886d7d66087a7b", "rental_uris": {"ios": "https://dc.lft.to/lastmile_qr_scan", "android": "https://dc.lft.to/lastmile_qr_scan"}}, {"name": "739e48f2b804a59408acfc8c748bf092", "type": "electric_scooter", "lat": 38.86662533333333, "is_reserved": 0, "lon": -76.9888395, "fusion_lon": 0.0, "is_disabled": 0, "fusion_lat": 0.0, "bike_id": "739e48f2b804a59408acfc8c748bf092", "rental_uris": {"ios": "https://dc.lft.to/lastmile_qr_scan", "android": "https://dc.lft.to/lastmile_qr_scan"}}, {"name": "a34dd9653507e723045bd7d555d35f40", "type": "electric_scooter", "lat": 38.88449466666667, "is_reserved": 0, "lon": -77.005749, "fusion_lon": 0.0, "is_disabled": 0, "fusion_lat": 0.0, "bike_id": "a34dd9653507e723045bd7d555d35f40", "rental_uris": {"ios": "https://dc.lft.to/lastmile_qr_scan", "android": "https://dc.lft.to/lastmile_qr_scan"}}, {"name": "d8445684379820f229742d40055eb5fe", "type": "electric_scooter", "lat": 38.898841, "is_reserved": 0, "lon": -76.93174666666667, "fusion_lon": 0.0, "is_disabled": 0, "fusion_lat": 0.0, "bike_id": "d8445684379820f229742d40055eb5fe", "rental_uris": {"ios": "https://dc.lft.to/lastmile_qr_scan", "android": "https://dc.lft.to/lastmile_qr_scan"}}, {"name": "d66cb5c4f7aabf4a07bdf5e40d1e8e8d", "type": "electric_scooter", "lat": 38.92761183333333, "is_reserved": 0, "lon": -77.02416066666666, "fusion_lon": 0.0, "is_disabled": 0, "fusion_lat": 0.0, "bike_id": "d66cb5c4f7aabf4a07bdf5e40d1e8e8d", "rental_uris": {"ios": "https://dc.lft.to/lastmile_qr_scan", "android": "https://dc.lft.to/lastmile_qr_scan"}}, {"name": "e3c21d2dda79259c9888ccf504b8704c", "type": "electric_scooter", "lat": 38.92881666666667, "is_reserved": 0, "lon": -77.037357, "fusion_lon": 0.0, "is_disabled": 0, "fusion_lat": 0.0, "bike_id": "e3c21d2dda79259c9888ccf504b8704c", "rental_uris": {"ios": "https://dc.lft.to/lastmile_qr_scan", "android": "https://dc.lft.to/lastmile_qr_scan"}}, {"name": "cb555bddc767eb66a198a1e98b1056f4", "type": "electric_bike", "lat": 38.94276683333333, "is_reserved": 0, "lon": -76.98071383333334, "fusion_lon": 0.0, "is_disabled": 0, "fusion_lat": 0.0, "bike_id": "cb555bddc767eb66a198a1e98b1056f4", "rental_uris": {"ios": "https://dc.lft.to/lastmile_qr_scan", "android": "https://dc.lft.to/lastmile_qr_scan"}}, {"name": "417d1d5376c7b6017a065fa919a8d3b1", "type": "electric_scooter", "lat": 38.9164345, "is_reserved": 0, "lon": -77.04623733333334, "fusion_lon": 0.0, "is_disabled": 0, "fusion_lat": 0.0, "bike_id": "417d1d5376c7b6017a065fa919a8d3b1", "rental_uris": {"ios": "https://dc.lft.to/lastmile_qr_scan", "android": "https://dc.lft.to/lastmile_qr_scan"}}, {"name": "3d3da5213483e0e6cbf0418a6f02e75c", "type": "electric_scooter", "lat": 38.894025666666664, "is_reserved": 0, "lon": -76.99364933333334, "fusion_lon": 0.0, "is_disabled": 0, "fusion_lat": 0.0, "bike_id": "3d3da5213483e0e6cbf0418a6f02e75c", "rental_uris": {"ios": "https://dc.lft.to/lastmile_qr_scan", "android": "https://dc.lft.to/lastmile_qr_scan"}}, {"name": "6f6bc7f7f0cdac32344537b1155c52ad", "type": "electric_scooter", "lat": 38.90523, "is_reserved": 0, "lon": -77.06626966666667, "fusion_lon": 0.0, "is_disabled": 0, "fusion_lat": 0.0, "bike_id": "6f6bc7f7f0cdac32344537b1155c52ad", "rental_uris": {"ios": "https://dc.lft.to/lastmile_qr_scan", "android": "https://dc.lft.to/lastmile_qr_scan"}}, {"name": "fcf91728cb186773e50f9a34b16bc5c1", "type": "electric_scooter", "lat": 38.9463965, "is_reserved": 0, "lon": -77.0192535, "fusion_lon": 0.0, "is_disabled": 0, "fusion_lat": 0.0, "bike_id": "fcf91728cb186773e50f9a34b16bc5c1", "rental_uris": {"ios": "https://dc.lft.to/lastmile_qr_scan", "android": "https://dc.lft.to/lastmile_qr_scan"}}, {"name": "59caa39d03378bcb01402077097b376b", "type": "electric_scooter", "lat": 38.9273385, "is_reserved": 0, "lon": -77.0298785, "fusion_lon": 0.0, "is_disabled": 0, "fusion_lat": 0.0, "bike_id": "59caa39d03378bcb01402077097b376b", "rental_uris": {"ios": "https://dc.lft.to/lastmile_qr_scan", "android": "https://dc.lft.to/lastmile_qr_scan"}}, {"name": "91ad8793d24d0b3b0c0c70d3e3e0cf35", "type": "electric_scooter", "lat": 38.905257666666664, "is_reserved": 0, "lon": -77.05022966666667, "fusion_lon": 0.0, "is_disabled": 0, "fusion_lat": 0.0, "bike_id": "91ad8793d24d0b3b0c0c70d3e3e0cf35", "rental_uris": {"ios": "https://dc.lft.to/lastmile_qr_scan", "android": "https://dc.lft.to/lastmile_qr_scan"}}, {"name": "d6e86449b74436cf95836eae1f4b5efe", "type": "electric_scooter", "lat": 38.93938333333333, "is_reserved": 0, "lon": -77.0170825, "fusion_lon": 0.0, "is_disabled": 0, "fusion_lat": 0.0, "bike_id": "d6e86449b74436cf95836eae1f4b5efe", "rental_uris": {"ios": "https://dc.lft.to/lastmile_qr_scan", "android": "https://dc.lft.to/lastmile_qr_scan"}}, {"name": "b21a926ff4af3790df6a085ce3ab30ba", "type": "electric_scooter", "lat": 38.91011566666667, "is_reserved": 0, "lon": -76.99389366666666, "fusion_lon": 0.0, "is_disabled": 0, "fusion_lat": 0.0, "bike_id": "b21a926ff4af3790df6a085ce3ab30ba", "rental_uris": {"ios": "https://dc.lft.to/lastmile_qr_scan", "android": "https://dc.lft.to/lastmile_qr_scan"}}, {"name": "85a0b3131f9286dd6377c126a487b31f", "type": "electric_bike", "lat": 38.874772, "is_reserved": 0, "lon": -76.965303, "fusion_lon": 0.0, "is_disabled": 0, "fusion_lat": 0.0, "bike_id": "85a0b3131f9286dd6377c126a487b31f", "rental_uris": {"ios": "https://dc.lft.to/lastmile_qr_scan", "android": "https://dc.lft.to/lastmile_qr_scan"}}, {"name": "62dd2f66f23f2bd75fcaba4a76e313c6", "type": "electric_scooter", "lat": 38.900733833333334, "is_reserved": 0, "lon": -77.01296283333333, "fusion_lon": 0.0, "is_disabled": 0, "fusion_lat": 0.0, "bike_id": "62dd2f66f23f2bd75fcaba4a76e313c6", "rental_uris": {"ios": "https://dc.lft.to/lastmile_qr_scan", "android": "https://dc.lft.to/lastmile_qr_scan"}}, {"name": "325623bd62955480ba4082f243bfc0d0", "type": "electric_scooter", "lat": 38.89604333333333, "is_reserved": 0, "lon": -77.04508716666666, "fusion_lon": 0.0, "is_disabled": 0, "fusion_lat": 0.0, "bike_id": "325623bd62955480ba4082f243bfc0d0", "rental_uris": {"ios": "https://dc.lft.to/lastmile_qr_scan", "android": "https://dc.lft.to/lastmile_qr_scan"}}, {"name": "db6efaed96d95c33575f27078b5fd23e", "type": "electric_scooter", "lat": 38.934532833333336, "is_reserved": 0, "lon": -77.0723495, "fusion_lon": 0.0, "is_disabled": 0, "fusion_lat": 0.0, "bike_id": "db6efaed96d95c33575f27078b5fd23e", "rental_uris": {"ios": "https://dc.lft.to/lastmile_qr_scan", "android": "https://dc.lft.to/lastmile_qr_scan"}}, {"name": "6c9e37b82d349b23eadb087f9292e1bd", "type": "electric_scooter", "lat": 38.8831785, "is_reserved": 0, "lon": -77.00930066666666, "fusion_lon": 0.0, "is_disabled": 0, "fusion_lat": 0.0, "bike_id": "6c9e37b82d349b23eadb087f9292e1bd", "rental_uris": {"ios": "https://dc.lft.to/lastmile_qr_scan", "android": "https://dc.lft.to/lastmile_qr_scan"}}, {"name": "040d3a6a8fc1bb4f9b4cbc5b1a1b9995", "type": "electric_scooter", "lat": 38.894920666666664, "is_reserved": 0, "lon": -77.0229915, "fusion_lon": 0.0, "is_disabled": 0, "fusion_lat": 0.0, "bike_id": "040d3a6a8fc1bb4f9b4cbc5b1a1b9995", "rental_uris": {"ios": "https://dc.lft.to/lastmile_qr_scan", "android": "https://dc.lft.to/lastmile_qr_scan"}}, {"name": "47bc1be5eee32f831ecaba185450b800", "type": "electric_bike", "lat": 38.89887, "is_reserved": 0, "lon": -76.9839065, "fusion_lon": 0.0, "is_disabled": 0, "fusion_lat": 0.0, "bike_id": "47bc1be5eee32f831ecaba185450b800", "rental_uris": {"ios": "https://dc.lft.to/lastmile_qr_scan", "android": "https://dc.lft.to/lastmile_qr_scan"}}, {"name": "a26f123264403b395c463cd1d6b5aa29", "type": "electric_bike", "lat": 38.96752583333333, "is_reserved": 0, "lon": -77.02789383333334, "fusion_lon": 0.0, "is_disabled": 0, "fusion_lat": 0.0, "bike_id": "a26f123264403b395c463cd1d6b5aa29", "rental_uris": {"ios": "https://dc.lft.to/lastmile_qr_scan", "android": "https://dc.lft.to/lastmile_qr_scan"}}, {"name": "9edf3bfa7b2f55e9d8757316d024fa35", "type": "electric_scooter", "lat": 38.8962515, "is_reserved": 0, "lon": -77.010151, "fusion_lon": 0.0, "is_disabled": 0, "fusion_lat": 0.0, "bike_id": "9edf3bfa7b2f55e9d8757316d024fa35", "rental_uris": {"ios": "https://dc.lft.to/lastmile_qr_scan", "android": "https://dc.lft.to/lastmile_qr_scan"}}, {"name": "e1e8da980fc2bab338b6c3e254545556", "type": "electric_scooter", "lat": 38.92354566666667, "is_reserved": 0, "lon": -77.0531695, "fusion_lon": 0.0, "is_disabled": 0, "fusion_lat": 0.0, "bike_id": "e1e8da980fc2bab338b6c3e254545556", "rental_uris": {"ios": "https://dc.lft.to/lastmile_qr_scan", "android": "https://dc.lft.to/lastmile_qr_scan"}}, {"name": "5eae1c0626ce0d25c2440fa8c289801d", "type": "electric_scooter", "lat": 38.93292133333333, "is_reserved": 0, "lon": -77.03980833333334, "fusion_lon": 0.0, "is_disabled": 0, "fusion_lat": 0.0, "bike_id": "5eae1c0626ce0d25c2440fa8c289801d", "rental_uris": {"ios": "https://dc.lft.to/lastmile_qr_scan", "android": "https://dc.lft.to/lastmile_qr_scan"}}, {"name": "d61b8bb3823ec1a20ee33770192d12b5", "type": "electric_scooter", "lat": 38.89239383333334, "is_reserved": 0, "lon": -77.01533666666667, "fusion_lon": 0.0, "is_disabled": 0, "fusion_lat": 0.0, "bike_id": "d61b8bb3823ec1a20ee33770192d12b5", "rental_uris": {"ios": "https://dc.lft.to/lastmile_qr_scan", "android": "https://dc.lft.to/lastmile_qr_scan"}}, {"name": "60264bd289f4e05177f510c331d5f1f0", "type": "electric_scooter", "lat": 38.90841866666667, "is_reserved": 0, "lon": -77.026956, "fusion_lon": 0.0, "is_disabled": 0, "fusion_lat": 0.0, "bike_id": "60264bd289f4e05177f510c331d5f1f0", "rental_uris": {"ios": "https://dc.lft.to/lastmile_qr_scan", "android": "https://dc.lft.to/lastmile_qr_scan"}}, {"name": "626275cc96a32b6bedbb05338dc36435", "type": "electric_scooter", "lat": 38.86524133333333, "is_reserved": 0, "lon": -76.99028266666667, "fusion_lon": 0.0, "is_disabled": 0, "fusion_lat": 0.0, "bike_id": "626275cc96a32b6bedbb05338dc36435", "rental_uris": {"ios": "https://dc.lft.to/lastmile_qr_scan", "android": "https://dc.lft.to/lastmile_qr_scan"}}, {"name": "930540535c3a21129d35f8b205fb4727", "type": "electric_scooter", "lat": 38.89739766666667, "is_reserved": 0, "lon": -76.93841683333333, "fusion_lon": 0.0, "is_disabled": 0, "fusion_lat": 0.0, "bike_id": "930540535c3a21129d35f8b205fb4727", "rental_uris": {"ios": "https://dc.lft.to/lastmile_qr_scan", "android": "https://dc.lft.to/lastmile_qr_scan"}}, {"name": "eb6da406aba75d966861e04209202996", "type": "electric_scooter", "lat": 38.8869005, "is_reserved": 0, "lon": -76.9576265, "fusion_lon": 0.0, "is_disabled": 0, "fusion_lat": 0.0, "bike_id": "eb6da406aba75d966861e04209202996", "rental_uris": {"ios": "https://dc.lft.to/lastmile_qr_scan", "android": "https://dc.lft.to/lastmile_qr_scan"}}, {"name": "9d45a3df4c56485dc2e53fe29b820b0a", "type": "electric_scooter", "lat": 38.90680233333333, "is_reserved": 0, "lon": -77.03815766666666, "fusion_lon": 0.0, "is_disabled": 0, "fusion_lat": 0.0, "bike_id": "9d45a3df4c56485dc2e53fe29b820b0a", "rental_uris": {"ios": "https://dc.lft.to/lastmile_qr_scan", "android": "https://dc.lft.to/lastmile_qr_scan"}}, {"name": "5f06a7c83854edc116f3bb8f38df4496", "type": "electric_scooter", "lat": 38.89460716666667, "is_reserved": 0, "lon": -77.01914966666666, "fusion_lon": 0.0, "is_disabled": 0, "fusion_lat": 0.0, "bike_id": "5f06a7c83854edc116f3bb8f38df4496", "rental_uris": {"ios": "https://dc.lft.to/lastmile_qr_scan", "android": "https://dc.lft.to/lastmile_qr_scan"}}, {"name": "570dc5bf69decd48ddaf953eb2c5d9a1", "type": "electric_scooter", "lat": 38.876294333333334, "is_reserved": 0, "lon": -76.9652935, "fusion_lon": 0.0, "is_disabled": 0, "fusion_lat": 0.0, "bike_id": "570dc5bf69decd48ddaf953eb2c5d9a1", "rental_uris": {"ios": "https://dc.lft.to/lastmile_qr_scan", "android": "https://dc.lft.to/lastmile_qr_scan"}}, {"name": "d9f85beef66a62b144dea97aecf70028", "type": "electric_bike", "lat": 38.83823433333333, "is_reserved": 0, "lon": -76.99683366666666, "fusion_lon": 0.0, "is_disabled": 0, "fusion_lat": 0.0, "bike_id": "d9f85beef66a62b144dea97aecf70028", "rental_uris": {"ios": "https://dc.lft.to/lastmile_qr_scan", "android": "https://dc.lft.to/lastmile_qr_scan"}}, {"name": "554d7fb72df211b023322369b63190c6", "type": "electric_scooter", "lat": 38.930972833333335, "is_reserved": 0, "lon": -77.02542816666667, "fusion_lon": 0.0, "is_disabled": 0, "fusion_lat": 0.0, "bike_id": "554d7fb72df211b023322369b63190c6", "rental_uris": {"ios": "https://dc.lft.to/lastmile_qr_scan", "android": "https://dc.lft.to/lastmile_qr_scan"}}, {"name": "5a0850be3f6b691a30179b980e30b42a", "type": "electric_scooter", "lat": 38.84292516666667, "is_reserved": 0, "lon": -76.9994715, "fusion_lon": 0.0, "is_disabled": 0, "fusion_lat": 0.0, "bike_id": "5a0850be3f6b691a30179b980e30b42a", "rental_uris": {"ios": "https://dc.lft.to/lastmile_qr_scan", "android": "https://dc.lft.to/lastmile_qr_scan"}}, {"name": "4cc067f367d88e96a0e0f8f25352927e", "type": "electric_scooter", "lat": 38.90449066666667, "is_reserved": 0, "lon": -76.9962275, "fusion_lon": 0.0, "is_disabled": 0, "fusion_lat": 0.0, "bike_id": "4cc067f367d88e96a0e0f8f25352927e", "rental_uris": {"ios": "https://dc.lft.to/lastmile_qr_scan", "android": "https://dc.lft.to/lastmile_qr_scan"}}, {"name": "6c162e4cbf490996116ebb145d9e6228", "type": "electric_scooter", "lat": 38.8783825, "is_reserved": 0, "lon": -76.99038283333333, "fusion_lon": 0.0, "is_disabled": 0, "fusion_lat": 0.0, "bike_id": "6c162e4cbf490996116ebb145d9e6228", "rental_uris": {"ios": "https://dc.lft.to/lastmile_qr_scan", "android": "https://dc.lft.to/lastmile_qr_scan"}}, {"name": "da2f73e0cc026242c45f645ef62ca497", "type": "electric_scooter", "lat": 38.9349125, "is_reserved": 0, "lon": -77.032913, "fusion_lon": 0.0, "is_disabled": 0, "fusion_lat": 0.0, "bike_id": "da2f73e0cc026242c45f645ef62ca497", "rental_uris": {"ios": "https://dc.lft.to/lastmile_qr_scan", "android": "https://dc.lft.to/lastmile_qr_scan"}}, {"name": "a1c112444fc1bd591d1bf4fe0c8afa85", "type": "electric_scooter", "lat": 38.91916233333333, "is_reserved": 0, "lon": -77.01341466666666, "fusion_lon": 0.0, "is_disabled": 0, "fusion_lat": 0.0, "bike_id": "a1c112444fc1bd591d1bf4fe0c8afa85", "rental_uris": {"ios": "https://dc.lft.to/lastmile_qr_scan", "android": "https://dc.lft.to/lastmile_qr_scan"}}, {"name": "e65dcfb32f38576b5490be713b8ab323", "type": "electric_scooter", "lat": 38.90301683333333, "is_reserved": 0, "lon": -76.9985585, "fusion_lon": 0.0, "is_disabled": 0, "fusion_lat": 0.0, "bike_id": "e65dcfb32f38576b5490be713b8ab323", "rental_uris": {"ios": "https://dc.lft.to/lastmile_qr_scan", "android": "https://dc.lft.to/lastmile_qr_scan"}}, {"name": "788bf454d6e3b7927e09afa65badf43e", "type": "electric_scooter", "lat": 38.9173645, "is_reserved": 0, "lon": -77.06843466666666, "fusion_lon": 0.0, "is_disabled": 0, "fusion_lat": 0.0, "bike_id": "788bf454d6e3b7927e09afa65badf43e", "rental_uris": {"ios": "https://dc.lft.to/lastmile_qr_scan", "android": "https://dc.lft.to/lastmile_qr_scan"}}, {"name": "66a9618f2ec96c45963223be6a043fa7", "type": "electric_scooter", "lat": 38.8763065, "is_reserved": 0, "lon": -76.96525883333334, "fusion_lon": 0.0, "is_disabled": 0, "fusion_lat": 0.0, "bike_id": "66a9618f2ec96c45963223be6a043fa7", "rental_uris": {"ios": "https://dc.lft.to/lastmile_qr_scan", "android": "https://dc.lft.to/lastmile_qr_scan"}}, {"name": "0e067e8081a5bf3aa5877ee5f7821f4f", "type": "electric_scooter", "lat": 38.905873166666666, "is_reserved": 0, "lon": -77.00597183333333, "fusion_lon": 0.0, "is_disabled": 0, "fusion_lat": 0.0, "bike_id": "0e067e8081a5bf3aa5877ee5f7821f4f", "rental_uris": {"ios": "https://dc.lft.to/lastmile_qr_scan", "android": "https://dc.lft.to/lastmile_qr_scan"}}, {"name": "b8ffed13c859dbba976758602f821b70", "type": "electric_scooter", "lat": 38.895843666666664, "is_reserved": 0, "lon": -76.93716933333333, "fusion_lon": 0.0, "is_disabled": 0, "fusion_lat": 0.0, "bike_id": "b8ffed13c859dbba976758602f821b70", "rental_uris": {"ios": "https://dc.lft.to/lastmile_qr_scan", "android": "https://dc.lft.to/lastmile_qr_scan"}}, {"name": "6d876f3fbe3c7a1bd73a4add793328fd", "type": "electric_scooter", "lat": 38.856136666666664, "is_reserved": 0, "lon": -76.98020933333333, "fusion_lon": 0.0, "is_disabled": 0, "fusion_lat": 0.0, "bike_id": "6d876f3fbe3c7a1bd73a4add793328fd", "rental_uris": {"ios": "https://dc.lft.to/lastmile_qr_scan", "android": "https://dc.lft.to/lastmile_qr_scan"}}, {"name": "35baf31bc3b43ed5a4cedfc2502b61a9", "type": "electric_scooter", "lat": 38.90319933333333, "is_reserved": 0, "lon": -77.03843183333333, "fusion_lon": 0.0, "is_disabled": 0, "fusion_lat": 0.0, "bike_id": "35baf31bc3b43ed5a4cedfc2502b61a9", "rental_uris": {"ios": "https://dc.lft.to/lastmile_qr_scan", "android": "https://dc.lft.to/lastmile_qr_scan"}}, {"name": "c1f9be5e820d40bf4d3dcb5ccb51f4ac", "type": "electric_scooter", "lat": 38.915885333333335, "is_reserved": 0, "lon": -77.0469145, "fusion_lon": 0.0, "is_disabled": 0, "fusion_lat": 0.0, "bike_id": "c1f9be5e820d40bf4d3dcb5ccb51f4ac", "rental_uris": {"ios": "https://dc.lft.to/lastmile_qr_scan", "android": "https://dc.lft.to/lastmile_qr_scan"}}, {"name": "b372e6cc9d05530c19b49b15675ba359", "type": "electric_scooter", "lat": 38.92795983333333, "is_reserved": 0, "lon": -77.043558, "fusion_lon": 0.0, "is_disabled": 0, "fusion_lat": 0.0, "bike_id": "b372e6cc9d05530c19b49b15675ba359", "rental_uris": {"ios": "https://dc.lft.to/lastmile_qr_scan", "android": "https://dc.lft.to/lastmile_qr_scan"}}, {"name": "3907bd174ed14f17d46db5d2881e0427", "type": "electric_scooter", "lat": 38.949503166666666, "is_reserved": 0, "lon": -77.01615233333334, "fusion_lon": 0.0, "is_disabled": 0, "fusion_lat": 0.0, "bike_id": "3907bd174ed14f17d46db5d2881e0427", "rental_uris": {"ios": "https://dc.lft.to/lastmile_qr_scan", "android": "https://dc.lft.to/lastmile_qr_scan"}}, {"name": "babb976cc41ac0b036fcab0eac91d784", "type": "electric_scooter", "lat": 38.90062783333333, "is_reserved": 0, "lon": -77.02590766666667, "fusion_lon": 0.0, "is_disabled": 0, "fusion_lat": 0.0, "bike_id": "babb976cc41ac0b036fcab0eac91d784", "rental_uris": {"ios": "https://dc.lft.to/lastmile_qr_scan", "android": "https://dc.lft.to/lastmile_qr_scan"}}, {"name": "79ba83df0e539362d2595f625dc47cea", "type": "electric_scooter", "lat": 38.911035, "is_reserved": 0, "lon": -77.04669633333333, "fusion_lon": 0.0, "is_disabled": 0, "fusion_lat": 0.0, "bike_id": "79ba83df0e539362d2595f625dc47cea", "rental_uris": {"ios": "https://dc.lft.to/lastmile_qr_scan", "android": "https://dc.lft.to/lastmile_qr_scan"}}, {"name": "e492cbace7c438a14c9ff0992515420e", "type": "electric_scooter", "lat": 38.923831666666665, "is_reserved": 0, "lon": -77.03134116666666, "fusion_lon": 0.0, "is_disabled": 0, "fusion_lat": 0.0, "bike_id": "e492cbace7c438a14c9ff0992515420e", "rental_uris": {"ios": "https://dc.lft.to/lastmile_qr_scan", "android": "https://dc.lft.to/lastmile_qr_scan"}}, {"name": "a5e16f0bc7110c4d768c37f3c63ac7c6", "type": "electric_scooter", "lat": 38.89219583333333, "is_reserved": 0, "lon": -77.03212316666666, "fusion_lon": 0.0, "is_disabled": 0, "fusion_lat": 0.0, "bike_id": "a5e16f0bc7110c4d768c37f3c63ac7c6", "rental_uris": {"ios": "https://dc.lft.to/lastmile_qr_scan", "android": "https://dc.lft.to/lastmile_qr_scan"}}, {"name": "aafd024b5b070e44a4156c2740c81dc4", "type": "electric_scooter", "lat": 38.90242083333333, "is_reserved": 0, "lon": -77.017678, "fusion_lon": 0.0, "is_disabled": 0, "fusion_lat": 0.0, "bike_id": "aafd024b5b070e44a4156c2740c81dc4", "rental_uris": {"ios": "https://dc.lft.to/lastmile_qr_scan", "android": "https://dc.lft.to/lastmile_qr_scan"}}, {"name": "c8f811ff5c12e3ec8adc07ca9c82642c", "type": "electric_scooter", "lat": 38.90014133333333, "is_reserved": 0, "lon": -76.9981025, "fusion_lon": 0.0, "is_disabled": 0, "fusion_lat": 0.0, "bike_id": "c8f811ff5c12e3ec8adc07ca9c82642c", "rental_uris": {"ios": "https://dc.lft.to/lastmile_qr_scan", "android": "https://dc.lft.to/lastmile_qr_scan"}}, {"name": "bf6ccbb9e6071a21b5b93c4fa8fb8f21", "type": "electric_scooter", "lat": 38.90137, "is_reserved": 0, "lon": -77.05000983333333, "fusion_lon": 0.0, "is_disabled": 0, "fusion_lat": 0.0, "bike_id": "bf6ccbb9e6071a21b5b93c4fa8fb8f21", "rental_uris": {"ios": "https://dc.lft.to/lastmile_qr_scan", "android": "https://dc.lft.to/lastmile_qr_scan"}}, {"name": "1e39b804909bec851a533f661abba301", "type": "electric_scooter", "lat": 38.913302333333334, "is_reserved": 0, "lon": -77.04841416666666, "fusion_lon": 0.0, "is_disabled": 0, "fusion_lat": 0.0, "bike_id": "1e39b804909bec851a533f661abba301", "rental_uris": {"ios": "https://dc.lft.to/lastmile_qr_scan", "android": "https://dc.lft.to/lastmile_qr_scan"}}, {"name": "bd6982747cc0752c6774982032cdbf78", "type": "electric_scooter", "lat": 38.87837616666667, "is_reserved": 0, "lon": -76.988424, "fusion_lon": 0.0, "is_disabled": 0, "fusion_lat": 0.0, "bike_id": "bd6982747cc0752c6774982032cdbf78", "rental_uris": {"ios": "https://dc.lft.to/lastmile_qr_scan", "android": "https://dc.lft.to/lastmile_qr_scan"}}, {"name": "30ad99c2a4055049cdec56061091cb8a", "type": "electric_bike", "lat": 38.87667866666666, "is_reserved": 0, "lon": -77.014572, "fusion_lon": 0.0, "is_disabled": 0, "fusion_lat": 0.0, "bike_id": "30ad99c2a4055049cdec56061091cb8a", "rental_uris": {"ios": "https://dc.lft.to/lastmile_qr_scan", "android": "https://dc.lft.to/lastmile_qr_scan"}}, {"name": "2e3c92941486462aae2f942ec5c8d928", "type": "electric_bike", "lat": 38.935782333333336, "is_reserved": 0, "lon": -77.0212505, "fusion_lon": 0.0, "is_disabled": 0, "fusion_lat": 0.0, "bike_id": "2e3c92941486462aae2f942ec5c8d928", "rental_uris": {"ios": "https://dc.lft.to/lastmile_qr_scan", "android": "https://dc.lft.to/lastmile_qr_scan"}}, {"name": "74afcfb2f0c59416b22cd5c176ab2968", "type": "electric_scooter", "lat": 38.880525666666664, "is_reserved": 0, "lon": -77.0133035, "fusion_lon": 0.0, "is_disabled": 0, "fusion_lat": 0.0, "bike_id": "74afcfb2f0c59416b22cd5c176ab2968", "rental_uris": {"ios": "https://dc.lft.to/lastmile_qr_scan", "android": "https://dc.lft.to/lastmile_qr_scan"}}, {"name": "de223b2cda1eb6144a71592390a1b809", "type": "electric_scooter", "lat": 38.89516666666667, "is_reserved": 0, "lon": -76.99146683333333, "fusion_lon": 0.0, "is_disabled": 0, "fusion_lat": 0.0, "bike_id": "de223b2cda1eb6144a71592390a1b809", "rental_uris": {"ios": "https://dc.lft.to/lastmile_qr_scan", "android": "https://dc.lft.to/lastmile_qr_scan"}}, {"name": "754cf76167fbd78ef0b9c40bae988cd4", "type": "electric_scooter", "lat": 38.89884683333333, "is_reserved": 0, "lon": -76.931755, "fusion_lon": 0.0, "is_disabled": 0, "fusion_lat": 0.0, "bike_id": "754cf76167fbd78ef0b9c40bae988cd4", "rental_uris": {"ios": "https://dc.lft.to/lastmile_qr_scan", "android": "https://dc.lft.to/lastmile_qr_scan"}}, {"name": "c9453cb906770cb57d4e14343b2cec2a", "type": "electric_scooter", "lat": 38.942076166666666, "is_reserved": 0, "lon": -77.03588883333333, "fusion_lon": 0.0, "is_disabled": 0, "fusion_lat": 0.0, "bike_id": "c9453cb906770cb57d4e14343b2cec2a", "rental_uris": {"ios": "https://dc.lft.to/lastmile_qr_scan", "android": "https://dc.lft.to/lastmile_qr_scan"}}, {"name": "13b60a812e3d26f038d2481a93ec9e9a", "type": "electric_scooter", "lat": 38.9212635, "is_reserved": 0, "lon": -77.03662, "fusion_lon": 0.0, "is_disabled": 0, "fusion_lat": 0.0, "bike_id": "13b60a812e3d26f038d2481a93ec9e9a", "rental_uris": {"ios": "https://dc.lft.to/lastmile_qr_scan", "android": "https://dc.lft.to/lastmile_qr_scan"}}, {"name": "45f100f02e0f1f9c8d51ce3e14eeb7a8", "type": "electric_scooter", "lat": 38.90356233333333, "is_reserved": 0, "lon": -77.04008833333333, "fusion_lon": 0.0, "is_disabled": 0, "fusion_lat": 0.0, "bike_id": "45f100f02e0f1f9c8d51ce3e14eeb7a8", "rental_uris": {"ios": "https://dc.lft.to/lastmile_qr_scan", "android": "https://dc.lft.to/lastmile_qr_scan"}}, {"name": "69af50f1397ea43b05d1fff06358b24f", "type": "electric_scooter", "lat": 38.90269833333333, "is_reserved": 0, "lon": -77.017131, "fusion_lon": 0.0, "is_disabled": 0, "fusion_lat": 0.0, "bike_id": "69af50f1397ea43b05d1fff06358b24f", "rental_uris": {"ios": "https://dc.lft.to/lastmile_qr_scan", "android": "https://dc.lft.to/lastmile_qr_scan"}}, {"name": "01c7d8d12adadf4401d4400a7a0448bf", "type": "electric_scooter", "lat": 38.90659516666667, "is_reserved": 0, "lon": -77.038636, "fusion_lon": 0.0, "is_disabled": 0, "fusion_lat": 0.0, "bike_id": "01c7d8d12adadf4401d4400a7a0448bf", "rental_uris": {"ios": "https://dc.lft.to/lastmile_qr_scan", "android": "https://dc.lft.to/lastmile_qr_scan"}}, {"name": "35d8a7fde176be1f8acba4a4726ea4cc", "type": "electric_scooter", "lat": 38.8922165, "is_reserved": 0, "lon": -77.04869233333334, "fusion_lon": 0.0, "is_disabled": 0, "fusion_lat": 0.0, "bike_id": "35d8a7fde176be1f8acba4a4726ea4cc", "rental_uris": {"ios": "https://dc.lft.to/lastmile_qr_scan", "android": "https://dc.lft.to/lastmile_qr_scan"}}, {"name": "7c74f4d6b815b007a589c549cf065ab9", "type": "electric_scooter", "lat": 38.863525, "is_reserved": 0, "lon": -76.99072366666667, "fusion_lon": 0.0, "is_disabled": 0, "fusion_lat": 0.0, "bike_id": "7c74f4d6b815b007a589c549cf065ab9", "rental_uris": {"ios": "https://dc.lft.to/lastmile_qr_scan", "android": "https://dc.lft.to/lastmile_qr_scan"}}, {"name": "1d9e5cbbb6f739db11a0cae463491493", "type": "electric_scooter", "lat": 38.92249733333333, "is_reserved": 0, "lon": -77.03084, "fusion_lon": 0.0, "is_disabled": 0, "fusion_lat": 0.0, "bike_id": "1d9e5cbbb6f739db11a0cae463491493", "rental_uris": {"ios": "https://dc.lft.to/lastmile_qr_scan", "android": "https://dc.lft.to/lastmile_qr_scan"}}, {"name": "7f3f4d67b5c011ed0aa5dde9c03f75f7", "type": "electric_scooter", "lat": 38.885200833333336, "is_reserved": 0, "lon": -77.03348316666667, "fusion_lon": 0.0, "is_disabled": 0, "fusion_lat": 0.0, "bike_id": "7f3f4d67b5c011ed0aa5dde9c03f75f7", "rental_uris": {"ios": "https://dc.lft.to/lastmile_qr_scan", "android": "https://dc.lft.to/lastmile_qr_scan"}}, {"name": "ec182ce69a2ead5c56b44a79942feb1b", "type": "electric_scooter", "lat": 38.9040935, "is_reserved": 0, "lon": -76.97329383333333, "fusion_lon": 0.0, "is_disabled": 0, "fusion_lat": 0.0, "bike_id": "ec182ce69a2ead5c56b44a79942feb1b", "rental_uris": {"ios": "https://dc.lft.to/lastmile_qr_scan", "android": "https://dc.lft.to/lastmile_qr_scan"}}, {"name": "c5bef11534326a45399b21997a6394ac", "type": "electric_scooter", "lat": 38.90436966666667, "is_reserved": 0, "lon": -76.9848605, "fusion_lon": 0.0, "is_disabled": 0, "fusion_lat": 0.0, "bike_id": "c5bef11534326a45399b21997a6394ac", "rental_uris": {"ios": "https://dc.lft.to/lastmile_qr_scan", "android": "https://dc.lft.to/lastmile_qr_scan"}}, {"name": "84776f550be7414308c801d06529d28b", "type": "electric_scooter", "lat": 38.885233166666666, "is_reserved": 0, "lon": -76.9770995, "fusion_lon": 0.0, "is_disabled": 0, "fusion_lat": 0.0, "bike_id": "84776f550be7414308c801d06529d28b", "rental_uris": {"ios": "https://dc.lft.to/lastmile_qr_scan", "android": "https://dc.lft.to/lastmile_qr_scan"}}, {"name": "5a2b776965fa60ea683feb07b8a9d119", "type": "electric_scooter", "lat": 38.892268, "is_reserved": 0, "lon": -77.03217416666666, "fusion_lon": 0.0, "is_disabled": 0, "fusion_lat": 0.0, "bike_id": "5a2b776965fa60ea683feb07b8a9d119", "rental_uris": {"ios": "https://dc.lft.to/lastmile_qr_scan", "android": "https://dc.lft.to/lastmile_qr_scan"}}, {"name": "a9f3aaf334c5d3de5ed8776169291d3e", "type": "electric_scooter", "lat": 38.91018116666667, "is_reserved": 0, "lon": -77.02217766666666, "fusion_lon": 0.0, "is_disabled": 0, "fusion_lat": 0.0, "bike_id": "a9f3aaf334c5d3de5ed8776169291d3e", "rental_uris": {"ios": "https://dc.lft.to/lastmile_qr_scan", "android": "https://dc.lft.to/lastmile_qr_scan"}}, {"name": "b99caec27ff919fc84841eddc50c0c2e", "type": "electric_scooter", "lat": 38.90268233333333, "is_reserved": 0, "lon": -77.05316333333333, "fusion_lon": 0.0, "is_disabled": 0, "fusion_lat": 0.0, "bike_id": "b99caec27ff919fc84841eddc50c0c2e", "rental_uris": {"ios": "https://dc.lft.to/lastmile_qr_scan", "android": "https://dc.lft.to/lastmile_qr_scan"}}, {"name": "9fa070da0b863368f977d823a398e7de", "type": "electric_bike", "lat": 38.88268766666667, "is_reserved": 0, "lon": -76.99939216666667, "fusion_lon": 0.0, "is_disabled": 0, "fusion_lat": 0.0, "bike_id": "9fa070da0b863368f977d823a398e7de", "rental_uris": {"ios": "https://dc.lft.to/lastmile_qr_scan", "android": "https://dc.lft.to/lastmile_qr_scan"}}, {"name": "174a7b684a413c4fd38808235b6e0a54", "type": "electric_scooter", "lat": 38.918236666666665, "is_reserved": 0, "lon": -77.027839, "fusion_lon": 0.0, "is_disabled": 0, "fusion_lat": 0.0, "bike_id": "174a7b684a413c4fd38808235b6e0a54", "rental_uris": {"ios": "https://dc.lft.to/lastmile_qr_scan", "android": "https://dc.lft.to/lastmile_qr_scan"}}, {"name": "3ffb6aabf61247a5ae9f0a4959b3136e", "type": "electric_scooter", "lat": 38.931699, "is_reserved": 0, "lon": -77.02848916666666, "fusion_lon": 0.0, "is_disabled": 0, "fusion_lat": 0.0, "bike_id": "3ffb6aabf61247a5ae9f0a4959b3136e", "rental_uris": {"ios": "https://dc.lft.to/lastmile_qr_scan", "android": "https://dc.lft.to/lastmile_qr_scan"}}, {"name": "eb84a78b98d68e35fcabf05eda34f533", "type": "electric_scooter", "lat": 38.90583866666667, "is_reserved": 0, "lon": -77.03452183333333, "fusion_lon": 0.0, "is_disabled": 0, "fusion_lat": 0.0, "bike_id": "eb84a78b98d68e35fcabf05eda34f533", "rental_uris": {"ios": "https://dc.lft.to/lastmile_qr_scan", "android": "https://dc.lft.to/lastmile_qr_scan"}}, {"name": "38c9958a20265e33426d29d8d288a6cb", "type": "electric_scooter", "lat": 38.940129166666665, "is_reserved": 0, "lon": -77.0717215, "fusion_lon": 0.0, "is_disabled": 0, "fusion_lat": 0.0, "bike_id": "38c9958a20265e33426d29d8d288a6cb", "rental_uris": {"ios": "https://dc.lft.to/lastmile_qr_scan", "android": "https://dc.lft.to/lastmile_qr_scan"}}, {"name": "0e0ae350185e0480201de27044fbaf09", "type": "electric_scooter", "lat": 38.916950666666665, "is_reserved": 0, "lon": -77.01232583333334, "fusion_lon": 0.0, "is_disabled": 0, "fusion_lat": 0.0, "bike_id": "0e0ae350185e0480201de27044fbaf09", "rental_uris": {"ios": "https://dc.lft.to/lastmile_qr_scan", "android": "https://dc.lft.to/lastmile_qr_scan"}}, {"name": "f505b6eb7112ec95ebb437f7de2e5a7c", "type": "electric_scooter", "lat": 38.908935666666665, "is_reserved": 0, "lon": -77.03146216666667, "fusion_lon": 0.0, "is_disabled": 0, "fusion_lat": 0.0, "bike_id": "f505b6eb7112ec95ebb437f7de2e5a7c", "rental_uris": {"ios": "https://dc.lft.to/lastmile_qr_scan", "android": "https://dc.lft.to/lastmile_qr_scan"}}, {"name": "dc694347aa3e0cb0105b5de5c41c0199", "type": "electric_scooter", "lat": 38.91913483333333, "is_reserved": 0, "lon": -77.0342505, "fusion_lon": 0.0, "is_disabled": 0, "fusion_lat": 0.0, "bike_id": "dc694347aa3e0cb0105b5de5c41c0199", "rental_uris": {"ios": "https://dc.lft.to/lastmile_qr_scan", "android": "https://dc.lft.to/lastmile_qr_scan"}}, {"name": "2566a1e5c8f11fe64dd98a4cdfab04f8", "type": "electric_scooter", "lat": 38.92013933333333, "is_reserved": 0, "lon": -77.03863733333333, "fusion_lon": 0.0, "is_disabled": 0, "fusion_lat": 0.0, "bike_id": "2566a1e5c8f11fe64dd98a4cdfab04f8", "rental_uris": {"ios": "https://dc.lft.to/lastmile_qr_scan", "android": "https://dc.lft.to/lastmile_qr_scan"}}, {"name": "779012b6356fbcd9c9843278c29912a7", "type": "electric_scooter", "lat": 38.90665533333333, "is_reserved": 0, "lon": -77.02694116666666, "fusion_lon": 0.0, "is_disabled": 0, "fusion_lat": 0.0, "bike_id": "779012b6356fbcd9c9843278c29912a7", "rental_uris": {"ios": "https://dc.lft.to/lastmile_qr_scan", "android": "https://dc.lft.to/lastmile_qr_scan"}}, {"name": "4c5927dd3bcbce8322080318ea8455db", "type": "electric_scooter", "lat": 38.923657, "is_reserved": 0, "lon": -77.05027816666667, "fusion_lon": 0.0, "is_disabled": 0, "fusion_lat": 0.0, "bike_id": "4c5927dd3bcbce8322080318ea8455db", "rental_uris": {"ios": "https://dc.lft.to/lastmile_qr_scan", "android": "https://dc.lft.to/lastmile_qr_scan"}}, {"name": "780466c311ad522562fa8fca91f1c85d", "type": "electric_bike", "lat": 38.965028833333335, "is_reserved": 0, "lon": -77.10335983333333, "fusion_lon": 0.0, "is_disabled": 0, "fusion_lat": 0.0, "bike_id": "780466c311ad522562fa8fca91f1c85d", "rental_uris": {"ios": "https://dc.lft.to/lastmile_qr_scan", "android": "https://dc.lft.to/lastmile_qr_scan"}}, {"name": "b2e4e426b6938c5620774af4e04d4a14", "type": "electric_scooter", "lat": 38.925660666666666, "is_reserved": 0, "lon": -77.02279433333334, "fusion_lon": 0.0, "is_disabled": 0, "fusion_lat": 0.0, "bike_id": "b2e4e426b6938c5620774af4e04d4a14", "rental_uris": {"ios": "https://dc.lft.to/lastmile_qr_scan", "android": "https://dc.lft.to/lastmile_qr_scan"}}, {"name": "646563571d41f9b34f828d4b99fdfc6b", "type": "electric_scooter", "lat": 38.927145333333335, "is_reserved": 0, "lon": -77.02106966666666, "fusion_lon": 0.0, "is_disabled": 0, "fusion_lat": 0.0, "bike_id": "646563571d41f9b34f828d4b99fdfc6b", "rental_uris": {"ios": "https://dc.lft.to/lastmile_qr_scan", "android": "https://dc.lft.to/lastmile_qr_scan"}}, {"name": "e143b50529f8975c5badb0f9602792b5", "type": "electric_scooter", "lat": 38.9428025, "is_reserved": 0, "lon": -77.02503983333334, "fusion_lon": 0.0, "is_disabled": 0, "fusion_lat": 0.0, "bike_id": "e143b50529f8975c5badb0f9602792b5", "rental_uris": {"ios": "https://dc.lft.to/lastmile_qr_scan", "android": "https://dc.lft.to/lastmile_qr_scan"}}, {"name": "3f177f96609b4d76cb1ebc737601566f", "type": "electric_scooter", "lat": 38.866605666666665, "is_reserved": 0, "lon": -76.98885266666667, "fusion_lon": 0.0, "is_disabled": 0, "fusion_lat": 0.0, "bike_id": "3f177f96609b4d76cb1ebc737601566f", "rental_uris": {"ios": "https://dc.lft.to/lastmile_qr_scan", "android": "https://dc.lft.to/lastmile_qr_scan"}}, {"name": "eb9a7b7e884213b1602198a74b512a6a", "type": "electric_scooter", "lat": 38.896534, "is_reserved": 0, "lon": -77.0322615, "fusion_lon": 0.0, "is_disabled": 0, "fusion_lat": 0.0, "bike_id": "eb9a7b7e884213b1602198a74b512a6a", "rental_uris": {"ios": "https://dc.lft.to/lastmile_qr_scan", "android": "https://dc.lft.to/lastmile_qr_scan"}}, {"name": "fd7af11f8824df8937deddd4ce43f058", "type": "electric_scooter", "lat": 38.91631183333333, "is_reserved": 0, "lon": -77.0364595, "fusion_lon": 0.0, "is_disabled": 0, "fusion_lat": 0.0, "bike_id": "fd7af11f8824df8937deddd4ce43f058", "rental_uris": {"ios": "https://dc.lft.to/lastmile_qr_scan", "android": "https://dc.lft.to/lastmile_qr_scan"}}, {"name": "ad182987fe8fddf6220fd60f65884225", "type": "electric_scooter", "lat": 38.90240433333334, "is_reserved": 0, "lon": -77.00199533333333, "fusion_lon": 0.0, "is_disabled": 0, "fusion_lat": 0.0, "bike_id": "ad182987fe8fddf6220fd60f65884225", "rental_uris": {"ios": "https://dc.lft.to/lastmile_qr_scan", "android": "https://dc.lft.to/lastmile_qr_scan"}}, {"name": "7bdc87d8a4f33f68b491549f6413951b", "type": "electric_scooter", "lat": 38.898533, "is_reserved": 0, "lon": -76.9903095, "fusion_lon": 0.0, "is_disabled": 0, "fusion_lat": 0.0, "bike_id": "7bdc87d8a4f33f68b491549f6413951b", "rental_uris": {"ios": "https://dc.lft.to/lastmile_qr_scan", "android": "https://dc.lft.to/lastmile_qr_scan"}}, {"name": "c9943878ad030e0d87bd432b926149f8", "type": "electric_scooter", "lat": 38.91628133333333, "is_reserved": 0, "lon": -77.010823, "fusion_lon": 0.0, "is_disabled": 0, "fusion_lat": 0.0, "bike_id": "c9943878ad030e0d87bd432b926149f8", "rental_uris": {"ios": "https://dc.lft.to/lastmile_qr_scan", "android": "https://dc.lft.to/lastmile_qr_scan"}}, {"name": "703a953ba3705e36d1fd601ac2697be8", "type": "electric_scooter", "lat": 38.91020283333334, "is_reserved": 0, "lon": -77.044035, "fusion_lon": 0.0, "is_disabled": 0, "fusion_lat": 0.0, "bike_id": "703a953ba3705e36d1fd601ac2697be8", "rental_uris": {"ios": "https://dc.lft.to/lastmile_qr_scan", "android": "https://dc.lft.to/lastmile_qr_scan"}}, {"name": "e3e8d9b9e2acb64ece57d67eb2f95b9c", "type": "electric_scooter", "lat": 38.91557783333333, "is_reserved": 0, "lon": -77.02261383333334, "fusion_lon": 0.0, "is_disabled": 0, "fusion_lat": 0.0, "bike_id": "e3e8d9b9e2acb64ece57d67eb2f95b9c", "rental_uris": {"ios": "https://dc.lft.to/lastmile_qr_scan", "android": "https://dc.lft.to/lastmile_qr_scan"}}, {"name": "cb3ddc6c171bba33bb6d708ea436c1bb", "type": "electric_bike", "lat": 39.088565833333334, "is_reserved": 0, "lon": -77.1784165, "fusion_lon": 0.0, "is_disabled": 0, "fusion_lat": 0.0, "bike_id": "cb3ddc6c171bba33bb6d708ea436c1bb", "rental_uris": {"ios": "https://dc.lft.to/lastmile_qr_scan", "android": "https://dc.lft.to/lastmile_qr_scan"}}, {"name": "b98a606ca696124d22f8dd5fbd32be9e", "type": "electric_bike", "lat": 38.950867, "is_reserved": 0, "lon": -77.012273, "fusion_lon": 0.0, "is_disabled": 0, "fusion_lat": 0.0, "bike_id": "b98a606ca696124d22f8dd5fbd32be9e", "rental_uris": {"ios": "https://dc.lft.to/lastmile_qr_scan", "android": "https://dc.lft.to/lastmile_qr_scan"}}, {"name": "b2369c2f874155e19c57ecd7b82e8a20", "type": "electric_bike", "lat": 38.92850716666667, "is_reserved": 0, "lon": -77.2222835, "fusion_lon": 0.0, "is_disabled": 0, "fusion_lat": 0.0, "bike_id": "b2369c2f874155e19c57ecd7b82e8a20", "rental_uris": {"ios": "https://dc.lft.to/lastmile_qr_scan", "android": "https://dc.lft.to/lastmile_qr_scan"}}, {"name": "f63f24d9891733d09481a3e3d16c8efe", "type": "electric_scooter", "lat": 38.93048316666667, "is_reserved": 0, "lon": -77.02782483333333, "fusion_lon": 0.0, "is_disabled": 0, "fusion_lat": 0.0, "bike_id": "f63f24d9891733d09481a3e3d16c8efe", "rental_uris": {"ios": "https://dc.lft.to/lastmile_qr_scan", "android": "https://dc.lft.to/lastmile_qr_scan"}}, {"name": "543502155a9e7f5fdb6503d4d0e76673", "type": "electric_scooter", "lat": 38.904009333333335, "is_reserved": 0, "lon": -77.018502, "fusion_lon": 0.0, "is_disabled": 0, "fusion_lat": 0.0, "bike_id": "543502155a9e7f5fdb6503d4d0e76673", "rental_uris": {"ios": "https://dc.lft.to/lastmile_qr_scan", "android": "https://dc.lft.to/lastmile_qr_scan"}}, {"name": "cb2fb6daf844d84d32e9fafdc22ddd6a", "type": "electric_scooter", "lat": 38.935338333333334, "is_reserved": 0, "lon": -77.03414883333333, "fusion_lon": 0.0, "is_disabled": 0, "fusion_lat": 0.0, "bike_id": "cb2fb6daf844d84d32e9fafdc22ddd6a", "rental_uris": {"ios": "https://dc.lft.to/lastmile_qr_scan", "android": "https://dc.lft.to/lastmile_qr_scan"}}, {"name": "68963a91ebb65996df6f6b4288b3052f", "type": "electric_scooter", "lat": 38.95748433333333, "is_reserved": 0, "lon": -77.024162, "fusion_lon": 0.0, "is_disabled": 0, "fusion_lat": 0.0, "bike_id": "68963a91ebb65996df6f6b4288b3052f", "rental_uris": {"ios": "https://dc.lft.to/lastmile_qr_scan", "android": "https://dc.lft.to/lastmile_qr_scan"}}, {"name": "55720baf083112ef1d97c7a824fc0d01", "type": "electric_scooter", "lat": 38.9564855, "is_reserved": 0, "lon": -77.0328835, "fusion_lon": 0.0, "is_disabled": 0, "fusion_lat": 0.0, "bike_id": "55720baf083112ef1d97c7a824fc0d01", "rental_uris": {"ios": "https://dc.lft.to/lastmile_qr_scan", "android": "https://dc.lft.to/lastmile_qr_scan"}}, {"name": "91fb4ba2139b95d80491a156981d46d7", "type": "electric_bike", "lat": 38.93881116666667, "is_reserved": 0, "lon": -76.95411216666666, "fusion_lon": 0.0, "is_disabled": 0, "fusion_lat": 0.0, "bike_id": "91fb4ba2139b95d80491a156981d46d7", "rental_uris": {"ios": "https://dc.lft.to/lastmile_qr_scan", "android": "https://dc.lft.to/lastmile_qr_scan"}}, {"name": "5dcfa7d17e8e481f486781300974e705", "type": "electric_bike", "lat": 38.92486866666667, "is_reserved": 0, "lon": -77.07329666666666, "fusion_lon": 0.0, "is_disabled": 0, "fusion_lat": 0.0, "bike_id": "5dcfa7d17e8e481f486781300974e705", "rental_uris": {"ios": "https://dc.lft.to/lastmile_qr_scan", "android": "https://dc.lft.to/lastmile_qr_scan"}}, {"name": "e63af2ce6aa8f570e315467341ed925e", "type": "electric_scooter", "lat": 38.86538983333333, "is_reserved": 0, "lon": -76.98709016666666, "fusion_lon": 0.0, "is_disabled": 0, "fusion_lat": 0.0, "bike_id": "e63af2ce6aa8f570e315467341ed925e", "rental_uris": {"ios": "https://dc.lft.to/lastmile_qr_scan", "android": "https://dc.lft.to/lastmile_qr_scan"}}, {"name": "4d06e63707cf6845b33e9c3c31a14397", "type": "electric_bike", "lat": 38.95645966666667, "is_reserved": 0, "lon": -76.99744716666666, "fusion_lon": 0.0, "is_disabled": 0, "fusion_lat": 0.0, "bike_id": "4d06e63707cf6845b33e9c3c31a14397", "rental_uris": {"ios": "https://dc.lft.to/lastmile_qr_scan", "android": "https://dc.lft.to/lastmile_qr_scan"}}, {"name": "88fa9b8184b3c278e95bae111da9078b", "type": "electric_scooter", "lat": 38.883272, "is_reserved": 0, "lon": -77.01773283333333, "fusion_lon": 0.0, "is_disabled": 0, "fusion_lat": 0.0, "bike_id": "88fa9b8184b3c278e95bae111da9078b", "rental_uris": {"ios": "https://dc.lft.to/lastmile_qr_scan", "android": "https://dc.lft.to/lastmile_qr_scan"}}, {"name": "d37c4a7a9746181626f99a6a4d65250d", "type": "electric_scooter", "lat": 38.91387666666667, "is_reserved": 0, "lon": -77.033226, "fusion_lon": 0.0, "is_disabled": 0, "fusion_lat": 0.0, "bike_id": "d37c4a7a9746181626f99a6a4d65250d", "rental_uris": {"ios": "https://dc.lft.to/lastmile_qr_scan", "android": "https://dc.lft.to/lastmile_qr_scan"}}, {"name": "768391c60ed577c852550153d0f375b4", "type": "electric_bike", "lat": 38.951833, "is_reserved": 0, "lon": -76.93545333333333, "fusion_lon": 0.0, "is_disabled": 0, "fusion_lat": 0.0, "bike_id": "768391c60ed577c852550153d0f375b4", "rental_uris": {"ios": "https://dc.lft.to/lastmile_qr_scan", "android": "https://dc.lft.to/lastmile_qr_scan"}}, {"name": "89ef24b99b94babeb8624a3fec76ad5e", "type": "electric_scooter", "lat": 38.917036333333336, "is_reserved": 0, "lon": -77.00114916666666, "fusion_lon": 0.0, "is_disabled": 0, "fusion_lat": 0.0, "bike_id": "89ef24b99b94babeb8624a3fec76ad5e", "rental_uris": {"ios": "https://dc.lft.to/lastmile_qr_scan", "android": "https://dc.lft.to/lastmile_qr_scan"}}, {"name": "673eb97c59fd97aca7d9c5c198ccfa23", "type": "electric_scooter", "lat": 38.927117833333334, "is_reserved": 0, "lon": -77.03850966666667, "fusion_lon": 0.0, "is_disabled": 0, "fusion_lat": 0.0, "bike_id": "673eb97c59fd97aca7d9c5c198ccfa23", "rental_uris": {"ios": "https://dc.lft.to/lastmile_qr_scan", "android": "https://dc.lft.to/lastmile_qr_scan"}}, {"name": "ab67df4ed32062a59a9090f2a6cfe706", "type": "electric_scooter", "lat": 38.8726415, "is_reserved": 0, "lon": -77.01530733333334, "fusion_lon": 0.0, "is_disabled": 0, "fusion_lat": 0.0, "bike_id": "ab67df4ed32062a59a9090f2a6cfe706", "rental_uris": {"ios": "https://dc.lft.to/lastmile_qr_scan", "android": "https://dc.lft.to/lastmile_qr_scan"}}, {"name": "e318d8a9c84790e161c393d7ddb95df3", "type": "electric_scooter", "lat": 38.912565, "is_reserved": 0, "lon": -77.00958066666666, "fusion_lon": 0.0, "is_disabled": 0, "fusion_lat": 0.0, "bike_id": "e318d8a9c84790e161c393d7ddb95df3", "rental_uris": {"ios": "https://dc.lft.to/lastmile_qr_scan", "android": "https://dc.lft.to/lastmile_qr_scan"}}, {"name": "d5a2ca39c39dfa496088f6a0735c25bd", "type": "electric_scooter", "lat": 38.92590933333334, "is_reserved": 0, "lon": -77.004846, "fusion_lon": 0.0, "is_disabled": 0, "fusion_lat": 0.0, "bike_id": "d5a2ca39c39dfa496088f6a0735c25bd", "rental_uris": {"ios": "https://dc.lft.to/lastmile_qr_scan", "android": "https://dc.lft.to/lastmile_qr_scan"}}, {"name": "e7b65dafae032159def5947220db5770", "type": "electric_scooter", "lat": 38.935310666666666, "is_reserved": 0, "lon": -77.02855233333334, "fusion_lon": 0.0, "is_disabled": 0, "fusion_lat": 0.0, "bike_id": "e7b65dafae032159def5947220db5770", "rental_uris": {"ios": "https://dc.lft.to/lastmile_qr_scan", "android": "https://dc.lft.to/lastmile_qr_scan"}}, {"name": "a32dd79ba706a22976c88ddb7942ab07", "type": "electric_scooter", "lat": 38.88361233333333, "is_reserved": 0, "lon": -77.03174066666666, "fusion_lon": 0.0, "is_disabled": 0, "fusion_lat": 0.0, "bike_id": "a32dd79ba706a22976c88ddb7942ab07", "rental_uris": {"ios": "https://dc.lft.to/lastmile_qr_scan", "android": "https://dc.lft.to/lastmile_qr_scan"}}, {"name": "9c315083f5a8931075a72ddf429405e0", "type": "electric_scooter", "lat": 38.89231983333333, "is_reserved": 0, "lon": -77.0280175, "fusion_lon": 0.0, "is_disabled": 0, "fusion_lat": 0.0, "bike_id": "9c315083f5a8931075a72ddf429405e0", "rental_uris": {"ios": "https://dc.lft.to/lastmile_qr_scan", "android": "https://dc.lft.to/lastmile_qr_scan"}}, {"name": "1ecba741bb802b09dcf8fd81faf42dd7", "type": "electric_scooter", "lat": 38.9076865, "is_reserved": 0, "lon": -77.00107066666666, "fusion_lon": 0.0, "is_disabled": 0, "fusion_lat": 0.0, "bike_id": "1ecba741bb802b09dcf8fd81faf42dd7", "rental_uris": {"ios": "https://dc.lft.to/lastmile_qr_scan", "android": "https://dc.lft.to/lastmile_qr_scan"}}, {"name": "d6d759dddc8c50e3d1a027b1f4960675", "type": "electric_scooter", "lat": 38.931547333333334, "is_reserved": 0, "lon": -77.038868, "fusion_lon": 0.0, "is_disabled": 0, "fusion_lat": 0.0, "bike_id": "d6d759dddc8c50e3d1a027b1f4960675", "rental_uris": {"ios": "https://dc.lft.to/lastmile_qr_scan", "android": "https://dc.lft.to/lastmile_qr_scan"}}, {"name": "bc576696a619b9bd4d320e95dd912432", "type": "electric_scooter", "lat": 38.90687716666667, "is_reserved": 0, "lon": -77.0754205, "fusion_lon": 0.0, "is_disabled": 0, "fusion_lat": 0.0, "bike_id": "bc576696a619b9bd4d320e95dd912432", "rental_uris": {"ios": "https://dc.lft.to/lastmile_qr_scan", "android": "https://dc.lft.to/lastmile_qr_scan"}}, {"name": "d4a1fd771bc0595a82615ba123958f6a", "type": "electric_scooter", "lat": 38.898321, "is_reserved": 0, "lon": -76.94637483333334, "fusion_lon": 0.0, "is_disabled": 0, "fusion_lat": 0.0, "bike_id": "d4a1fd771bc0595a82615ba123958f6a", "rental_uris": {"ios": "https://dc.lft.to/lastmile_qr_scan", "android": "https://dc.lft.to/lastmile_qr_scan"}}, {"name": "fdf4690538d28f8fb593af59b1b93c86", "type": "electric_scooter", "lat": 38.8922275, "is_reserved": 0, "lon": -77.04330483333334, "fusion_lon": 0.0, "is_disabled": 0, "fusion_lat": 0.0, "bike_id": "fdf4690538d28f8fb593af59b1b93c86", "rental_uris": {"ios": "https://dc.lft.to/lastmile_qr_scan", "android": "https://dc.lft.to/lastmile_qr_scan"}}, {"name": "c43a664fe7ad1c50cc223407ce35963e", "type": "electric_bike", "lat": 38.89068816666666, "is_reserved": 0, "lon": -77.0790325, "fusion_lon": 0.0, "is_disabled": 0, "fusion_lat": 0.0, "bike_id": "c43a664fe7ad1c50cc223407ce35963e", "rental_uris": {"ios": "https://dc.lft.to/lastmile_qr_scan", "android": "https://dc.lft.to/lastmile_qr_scan"}}, {"name": "9ef739dd296a110f4860da9b02138ad6", "type": "electric_scooter", "lat": 38.892335833333334, "is_reserved": 0, "lon": -77.04999066666667, "fusion_lon": 0.0, "is_disabled": 0, "fusion_lat": 0.0, "bike_id": "9ef739dd296a110f4860da9b02138ad6", "rental_uris": {"ios": "https://dc.lft.to/lastmile_qr_scan", "android": "https://dc.lft.to/lastmile_qr_scan"}},