{"data": {"bikes": [{"bike_id": "56f88ba2ca7b76b06a5dcfcc241d9988", "type": "electric_scooter", "is_disabled": 0, "lat": 38.90283433333333, "rental_uris": {"ios": "https://dc.lft.to/lastmile_qr_scan", "android": "https://dc.lft.to/lastmile_qr_scan"}, "is_reserved": 0, "fusion_lon": 0.0, "fusion_lat": 0.0, "lon": -77.043995, "name": "56f88ba2ca7b76b06a5dcfcc241d9988"}, {"bike_id": "187288d0e5f9199e694f79fba920fe25", "type": "electric_scooter", "is_disabled": 0, "lat": 38.905085666666665, "rental_uris": {"ios": "https://dc.lft.to/lastmile_qr_scan", "android": "https://dc.lft.to/lastmile_qr_scan"}, "is_reserved": 0, "fusion_lon": 0.0, "fusion_lat": 0.0, "lon": -77.040942, "name": "187288d0e5f9199e694f79fba920fe25"}, {"bike_id": "52a83e78d66d1c34bae82f309e296464", "type": "electric_scooter", "is_disabled": 0, "lat": 38.9360665, "rental_uris": {"ios": "https://dc.lft.to/lastmile_qr_scan", "android": "https://dc.lft.to/lastmile_qr_scan"}, "is_reserved": 0, "fusion_lon": 0.0, "fusion_lat": 0.0, "lon": -77.03788033333333, "name": "52a83e78d66d1c34bae82f309e296464"}, {"bike_id": "2ab87a3967abf5a980cc1b58de98ee58", "type": "electric_scooter", "is_disabled": 0, "lat": 38.94113316666667, "rental_uris": {"ios": "https://dc.lft.to/lastmile_qr_scan", "android": "https://dc.lft.to/lastmile_qr_scan"}, "is_reserved": 0, "fusion_lon": 0.0, "fusion_lat": 0.0, "lon": -77.0254435, "name": "2ab87a3967abf5a980cc1b58de98ee58"}, {"bike_id": "19382ae957500d64656d7b9c55b9517d", "type": "electric_scooter", "is_disabled": 0, "lat": 38.862193166666664, "rental_uris": {"ios": "https://dc.lft.to/lastmile_qr_scan", "android": "https://dc.lft.to/lastmile_qr_scan"}, "is_reserved": 0, "fusion_lon": 0.0, "fusion_lat": 0.0, "lon": -76.99489366666667, "name": "19382ae957500d64656d7b9c55b9517d"}, {"bike_id": "4cb0930dc39185dc7ffc8b633c2281af", "type": "electric_scooter", "is_disabled": 0, "lat": 38.904919, "rental_uris": {"ios": "https://dc.lft.to/lastmile_qr_scan", "android": "https://dc.lft.to/lastmile_qr_scan"}, "is_reserved": 0, "fusion_lon": 0.0, "fusion_lat": 0.0, "lon": -76.94958283333334, "name": "4cb0930dc39185dc7ffc8b633c2281af"}, {"bike_id": "69c3a3410ff3f1a348572f9af60ae298", "type": "electric_bike", "is_disabled": 0, "lat": 38.95173, "rental_uris": {"ios": "https://dc.lft.to/lastmile_qr_scan", "android": "https://dc.lft.to/lastmile_qr_scan"}, "is_reserved": 0, "fusion_lon": 0.0, "fusion_lat": 0.0, "lon": -76.97734133333333, "name": "69c3a3410ff3f1a348572f9af60ae298"}, {"bike_id": "f7705a1f42e3c0a8f361258a304abf58", "type": "electric_scooter", "is_disabled": 0, "lat": 38.90808766666667, "rental_uris": {"ios": "https://dc.lft.to/lastmile_qr_scan", "android": "https://dc.lft.to/lastmile_qr_scan"}, "is_reserved": 0, "fusion_lon": 0.0, "fusion_lat": 0.0, "lon": -77.0432695, "name": "f7705a1f42e3c0a8f361258a304abf58"}, {"bike_id": "0966a8f7b197d559ffc89e62cf2b8ef9", "type": "electric_scooter", "is_disabled": 0, "lat": 38.928548666666664, "rental_uris": {"ios": "https://dc.lft.to/lastmile_qr_scan", "android": "https://dc.lft.to/lastmile_qr_scan"}, "is_reserved": 0, "fusion_lon": 0.0, "fusion_lat": 0.0, "lon": -77.01952883333334, "name": "0966a8f7b197d559ffc89e62cf2b8ef9"}, {"bike_id": "e4acdfa60c3f6b592900513380f1c6c5", "type": "electric_scooter", "is_disabled": 0, "lat": 38.92862566666667, "rental_uris": {"ios": "https://dc.lft.to/lastmile_qr_scan", "android": "https://dc.lft.to/lastmile_qr_scan"}, "is_reserved": 0, "fusion_lon": 0.0, "fusion_lat": 0.0, "lon": -77.01384283333333, "name": "e4acdfa60c3f6b592900513380f1c6c5"}, {"bike_id": "85b9e03ae40df394011dea86bd5daf0b", "type": "electric_bike", "is_disabled": 0, "lat": 38.855139, "rental_uris": {"ios": "https://dc.lft.to/lastmile_qr_scan", "android": "https://dc.lft.to/lastmile_qr_scan"}, "is_reserved": 0, "fusion_lon": 0.0, "fusion_lat": 0.0, "lon": -77.11997466666666, "name": "85b9e03ae40df394011dea86bd5daf0b"}, {"bike_id": "330548f954b5a1bcec9ad4f06202cb1d", "type": "electric_scooter", "is_disabled": 0, "lat": 38.9095925, "rental_uris": {"ios": "https://dc.lft.to/lastmile_qr_scan", "android": "https://dc.lft.to/lastmile_qr_scan"}, "is_reserved": 0, "fusion_lon": 0.0, "fusion_lat": 0.0, "lon": -77.03941966666666, "name": "330548f954b5a1bcec9ad4f06202cb1d"}, {"bike_id": "e134b5d5621394c52a5cbb3d6854b622", "type": "electric_bike", "is_disabled": 0, "lat": 38.99325616666667, "rental_uris": {"ios": "https://dc.lft.to/lastmile_qr_scan", "android": "https://dc.lft.to/lastmile_qr_scan"}, "is_reserved": 0, "fusion_lon": 0.0, "fusion_lat": 0.0, "lon": -76.9461445, "name": "e134b5d5621394c52a5cbb3d6854b622"}, {"bike_id": "2758e845571ea7196a89f497a6e48159", "type": "electric_scooter", "is_disabled": 0, "lat": 38.916777833333335, "rental_uris": {"ios": "https://dc.lft.to/lastmile_qr_scan", "android": "https://dc.lft.to/lastmile_qr_scan"}, "is_reserved": 0, "fusion_lon": 0.0, "fusion_lat": 0.0, "lon": -77.02970383333333, "name": "2758e845571ea7196a89f497a6e48159"}, {"bike_id": "915c80b6f5546275189ed98e29bab2fa", "type": "electric_scooter", "is_disabled": 0, "lat": 38.91399966666667, "rental_uris": {"ios": "https://dc.lft.to/lastmile_qr_scan", "android": "https://dc.lft.to/lastmile_qr_scan"}, "is_reserved": 0, "fusion_lon": 0.0, "fusion_lat": 0.0, "lon": -76.98190483333333, "name": "915c80b6f5546275189ed98e29bab2fa"}, {"bike_id": "4fdff727e1fa7cb8f24dd73fad2bc103", "type": "electric_scooter", "is_disabled": 0, "lat": 38.920001666666664, "rental_uris": {"ios": "https://dc.lft.to/lastmile_qr_scan", "android": "https://dc.lft.to/lastmile_qr_scan"}, "is_reserved": 0, "fusion_lon": 0.0, "fusion_lat": 0.0, "lon": -77.02384316666667, "name": "4fdff727e1fa7cb8f24dd73fad2bc103"}, {"bike_id": "bee79c78dede9af4c8e29dd285fbdfac", "type": "electric_scooter", "is_disabled": 0, "lat": 38.89530366666666, "rental_uris": {"ios": "https://dc.lft.to/lastmile_qr_scan", "android": "https://dc.lft.to/lastmile_qr_scan"}, "is_reserved": 0, "fusion_lon": 0.0, "fusion_lat": 0.0, "lon": -76.99477183333333, "name": "bee79c78dede9af4c8e29dd285fbdfac"}, {"bike_id": "f9af6f0b2c8fc5b03c7d1b883094dcc6", "type": "electric_scooter", "is_disabled": 0, "lat": 38.900384, "rental_uris": {"ios": "https://dc.lft.to/lastmile_qr_scan", "android": "https://dc.lft.to/lastmile_qr_scan"}, "is_reserved": 0, "fusion_lon": 0.0, "fusion_lat": 0.0, "lon": -77.0342095, "name": "f9af6f0b2c8fc5b03c7d1b883094dcc6"}, {"bike_id": "6ccc00de30237f6e59b2a1f631285d32", "type": "electric_scooter", "is_disabled": 0, "lat": 38.918655666666666, "rental_uris": {"ios": "https://dc.lft.to/lastmile_qr_scan", "android": "https://dc.lft.to/lastmile_qr_scan"}, "is_reserved": 0, "fusion_lon": 0.0, "fusion_lat": 0.0, "lon": -77.0703545, "name": "6ccc00de30237f6e59b2a1f631285d32"}, {"bike_id": "3383cfd90a01253aed04e8730cfa11fb", "type": "electric_scooter", "is_disabled": 0, "lat": 38.92974133333333, "rental_uris": {"ios": "https://dc.lft.to/lastmile_qr_scan", "android": "https://dc.lft.to/lastmile_qr_scan"}, "is_reserved": 0, "fusion_lon": 0.0, "fusion_lat": 0.0, "lon": -77.0550335, "name": "3383cfd90a01253aed04e8730cfa11fb"}, {"bike_id": "06f8eaca8e87292ce8debee6f1f4109c", "type": "electric_scooter", "is_disabled": 0, "lat": 38.9026155, "rental_uris": {"ios": "https://dc.lft.to/lastmile_qr_scan", "android": "https://dc.lft.to/lastmile_qr_scan"}, "is_reserved": 0, "fusion_lon": 0.0, "fusion_lat": 0.0, "lon": -77.03015266666667, "name": "06f8eaca8e87292ce8debee6f1f4109c"}, {"bike_id": "212197d44538675ca4cd246844892e14", "type": "electric_scooter", "is_disabled": 0, "lat": 38.90685833333333, "rental_uris": {"ios": "https://dc.lft.to/lastmile_qr_scan", "android": "https://dc.lft.to/lastmile_qr_scan"}, "is_reserved": 0, "fusion_lon": 0.0, "fusion_lat": 0.0, "lon": -77.02694066666666, "name": "212197d44538675ca4cd246844892e14"}, {"bike_id": "7041bd8beb899eabcfd9f3b9f4f79c59", "type": "electric_scooter", "is_disabled": 0, "lat": 38.87627416666667, "rental_uris": {"ios": "https://dc.lft.to/lastmile_qr_scan", "android": "https://dc.lft.to/lastmile_qr_scan"}, "is_reserved": 0, "fusion_lon": 0.0, "fusion_lat": 0.0, "lon": -76.96525616666666, "name": "7041bd8beb899eabcfd9f3b9f4f79c59"}, {"bike_id": "2b95fc6f41c24ed7032c8246a116a5a4", "type": "electric_scooter", "is_disabled": 0, "lat": 38.92082333333333, "rental_uris": {"ios": "https://dc.lft.to/lastmile_qr_scan", "android": "https://dc.lft.to/lastmile_qr_scan"}, "is_reserved": 0, "fusion_lon": 0.0, "fusion_lat": 0.0, "lon": -77.02402966666666, "name": "2b95fc6f41c24ed7032c8246a116a5a4"}, {"bike_id": "857ae7405a27551d3d704681e9d5bee3", "type": "electric_scooter", "is_disabled": 0, "lat": 38.90677916666667, "rental_uris": {"ios": "https://dc.lft.to/lastmile_qr_scan", "android": "https://dc.lft.to/lastmile_qr_scan"}, "is_reserved": 0, "fusion_lon": 0.0, "fusion_lat": 0.0, "lon": -77.0238195, "name": "857ae7405a27551d3d704681e9d5bee3"}, {"bike_id": "eed0c71bc3fc1114c3638af602ad7870", "type": "electric_scooter", "is_disabled": 0, "lat": 38.9073205, "rental_uris": {"ios": "https://dc.lft.to/lastmile_qr_scan", "android": "https://dc.lft.to/lastmile_qr_scan"}, "is_reserved": 0, "fusion_lon": 0.0, "fusion_lat": 0.0, "lon": -77.04159333333334, "name": "eed0c71bc3fc1114c3638af602ad7870"}, {"bike_id": "28448011763f950358005d47f31f7818", "type": "electric_scooter", "is_disabled": 0, "lat": 38.9396515, "rental_uris": {"ios": "https://dc.lft.to/lastmile_qr_scan", "android": "https://dc.lft.to/lastmile_qr_scan"}, "is_reserved": 0, "fusion_lon": 0.0, "fusion_lat": 0.0, "lon": -77.02499783333333, "name": "28448011763f950358005d47f31f7818"}, {"bike_id": "306a60c6673b1012f0e4bbe8ead87f2a", "type": "electric_scooter", "is_disabled": 0, "lat": 38.9590115, "rental_uris": {"ios": "https://dc.lft.to/lastmile_qr_scan", "android": "https://dc.lft.to/lastmile_qr_scan"}, "is_reserved": 0, "fusion_lon": 0.0, "fusion_lat": 0.0, "lon": -77.08601383333334, "name": "306a60c6673b1012f0e4bbe8ead87f2a"}, {"bike_id": "0e91fb8ef328e65b23026420db71e70b", "type": "electric_scooter", "is_disabled": 0, "lat": 38.90949716666667, "rental_uris": {"ios": "https://dc.lft.to/lastmile_qr_scan", "android": "https://dc.lft.to/lastmile_qr_scan"}, "is_reserved": 0, "fusion_lon": 0.0, "fusion_lat": 0.0, "lon": -77.0268455, "name": "0e91fb8ef328e65b23026420db71e70b"}, {"bike_id": "44cb7acb35b8b04a1130a6ecec9aef53", "type": "electric_scooter", "is_disabled": 0, "lat": 38.8707485, "rental_uris": {"ios": "https://dc.lft.to/lastmile_qr_scan", "android": "https://dc.lft.to/lastmile_qr_scan"}, "is_reserved": 0, "fusion_lon": 0.0, "fusion_lat": 0.0, "lon": -77.011889, "name": "44cb7acb35b8b04a1130a6ecec9aef53"}, {"bike_id": "fdd513ee05a4d179e4236ad2237048ba", "type": "electric_scooter", "is_disabled": 0, "lat": 38.908997166666666, "rental_uris": {"ios": "https://dc.lft.to/lastmile_qr_scan", "android": "https://dc.lft.to/lastmile_qr_scan"}, "is_reserved": 0, "fusion_lon": 0.0, "fusion_lat": 0.0, "lon": -77.08619883333333, "name": "fdd513ee05a4d179e4236ad2237048ba"}, {"bike_id": "924db03be873b646416cdd744884d176", "type": "electric_scooter", "is_disabled": 0, "lat": 38.93190583333333, "rental_uris": {"ios": "https://dc.lft.to/lastmile_qr_scan", "android": "https://dc.lft.to/lastmile_qr_scan"}, "is_reserved": 0, "fusion_lon": 0.0, "fusion_lat": 0.0, "lon": -77.01956666666666, "name": "924db03be873b646416cdd744884d176"}, {"bike_id": "09f1a9881201116a280293bf31e8cfcb", "type": "electric_scooter", "is_disabled": 0, "lat": 38.916370666666666, "rental_uris": {"ios": "https://dc.lft.to/lastmile_qr_scan", "android": "https://dc.lft.to/lastmile_qr_scan"}, "is_reserved": 0, "fusion_lon": 0.0, "fusion_lat": 0.0, "lon": -77.00051866666666, "name": "09f1a9881201116a280293bf31e8cfcb"}, {"bike_id": "83909797b11459de5232e10ac789b990", "type": "electric_scooter", "is_disabled": 0, "lat": 38.923375, "rental_uris": {"ios": "https://dc.lft.to/lastmile_qr_scan", "android": "https://dc.lft.to/lastmile_qr_scan"}, "is_reserved": 0, "fusion_lon": 0.0, "fusion_lat": 0.0, "lon": -77.05055483333334, "name": "83909797b11459de5232e10ac789b990"}, {"bike_id": "c7b1662476b2f185218d957090abbffe", "type": "electric_scooter", "is_disabled": 0, "lat": 38.918089333333334, "rental_uris": {"ios": "https://dc.lft.to/lastmile_qr_scan", "android": "https://dc.lft.to/lastmile_qr_scan"}, "is_reserved": 0, "fusion_lon": 0.0, "fusion_lat": 0.0, "lon": -77.031893, "name": "c7b1662476b2f185218d957090abbffe"}, {"bike_id": "99edd142bbc0289561bf7064889bd76f", "type": "electric_scooter", "is_disabled": 0, "lat": 38.90579966666667, "rental_uris": {"ios": "https://dc.lft.to/lastmile_qr_scan", "android": "https://dc.lft.to/lastmile_qr_scan"}, "is_reserved": 0, "fusion_lon": 0.0, "fusion_lat": 0.0, "lon": -77.02605716666666, "name": "99edd142bbc0289561bf7064889bd76f"}, {"bike_id": "4ad1ca2203c3aa3e1723af5206d55024", "type": "electric_scooter", "is_disabled": 0, "lat": 38.915609833333335, "rental_uris": {"ios": "https://dc.lft.to/lastmile_qr_scan", "android": "https://dc.lft.to/lastmile_qr_scan"}, "is_reserved": 0, "fusion_lon": 0.0, "fusion_lat": 0.0, "lon": -77.038738, "name": "4ad1ca2203c3aa3e1723af5206d55024"}, {"bike_id": "99e3784d1ec54c22ef495313d9aa78a5", "type": "electric_scooter", "is_disabled": 0, "lat": 38.91281, "rental_uris": {"ios": "https://dc.lft.to/lastmile_qr_scan", "android": "https://dc.lft.to/lastmile_qr_scan"}, "is_reserved": 0, "fusion_lon": 0.0, "fusion_lat": 0.0, "lon": -77.0224385, "name": "99e3784d1ec54c22ef495313d9aa78a5"}, {"bike_id": "aaabc1a8feb60cecce3b691c97ed2615", "type": "electric_scooter", "is_disabled": 0, "lat": 38.9256905, "rental_uris": {"ios": "https://dc.lft.to/lastmile_qr_scan", "android": "https://dc.lft.to/lastmile_qr_scan"}, "is_reserved": 0, "fusion_lon": 0.0, "fusion_lat": 0.0, "lon": -77.0377295, "name": "aaabc1a8feb60cecce3b691c97ed2615"}, {"bike_id": "771c4f07ba32b913501f730ce04e4fe5", "type": "electric_scooter", "is_disabled": 0, "lat": 38.882676000000004, "rental_uris": {"ios": "https://dc.lft.to/lastmile_qr_scan", "android": "https://dc.lft.to/lastmile_qr_scan"}, "is_reserved": 0, "fusion_lon": 0.0, "fusion_lat": 0.0, "lon": -76.99362966666666, "name": "771c4f07ba32b913501f730ce04e4fe5"}, {"bike_id": "f512b322438fa04bc83eb1b8136a7cb6", "type": "electric_scooter", "is_disabled": 0, "lat": 38.92604633333333, "rental_uris": {"ios": "https://dc.lft.to/lastmile_qr_scan", "android": "https://dc.lft.to/lastmile_qr_scan"}, "is_reserved": 0, "fusion_lon": 0.0, "fusion_lat": 0.0, "lon": -77.02655433333334, "name": "f512b322438fa04bc83eb1b8136a7cb6"}, {"bike_id": "34e968fd091ddb6e3eddbf40b7690388", "type": "electric_scooter", "is_disabled": 0, "lat": 38.90039933333333, "rental_uris": {"ios": "https://dc.lft.to/lastmile_qr_scan", "android": "https://dc.lft.to/lastmile_qr_scan"}, "is_reserved": 0, "fusion_lon": 0.0, "fusion_lat": 0.0, "lon": -77.04442366666666, "name": "34e968fd091ddb6e3eddbf40b7690388"}, {"bike_id": "87c04677eea3c0caf93e3686e360dae9", "type": "electric_scooter", "is_disabled": 0, "lat": 38.905069, "rental_uris": {"ios": "https://dc.lft.to/lastmile_qr_scan", "android": "https://dc.lft.to/lastmile_qr_scan"}, "is_reserved": 0, "fusion_lon": 0.0, "fusion_lat": 0.0, "lon": -77.068656, "name": "87c04677eea3c0caf93e3686e360dae9"}, {"bike_id": "5585e7942601191261258fb3da0f1d11", "type": "electric_scooter", "is_disabled": 0, "lat": 38.9215865, "rental_uris": {"ios": "https://dc.lft.to/lastmile_qr_scan", "android": "https://dc.lft.to/lastmile_qr_scan"}, "is_reserved": 0, "fusion_lon": 0.0, "fusion_lat": 0.0, "lon": -77.0333755, "name": "5585e7942601191261258fb3da0f1d11"}, {"bike_id": "00d3ae212cedb36303db83f479f0b1a1", "type": "electric_scooter", "is_disabled": 0, "lat": 38.890901, "rental_uris": {"ios": "https://dc.lft.to/lastmile_qr_scan", "android": "https://dc.lft.to/lastmile_qr_scan"}, "is_reserved": 0, "fusion_lon": 0.0, "fusion_lat": 0.0, "lon": -77.00258566666666, "name": "00d3ae212cedb36303db83f479f0b1a1"}, {"bike_id": "a4125d5250658d0b93438a3ceae712d8", "type": "electric_scooter", "is_disabled": 0, "lat": 38.942143333333334, "rental_uris": {"ios": "https://dc.lft.to/lastmile_qr_scan", "android": "https://dc.lft.to/lastmile_qr_scan"}, "is_reserved": 0, "fusion_lon": 0.0, "fusion_lat": 0.0, "lon": -77.025842, "name": "a4125d5250658d0b93438a3ceae712d8"}, {"bike_id": "5efeeb7529a39fc4554b88d67363ce05", "type": "electric_scooter", "is_disabled": 0, "lat": 38.87652116666667, "rental_uris": {"ios": "https://dc.lft.to/lastmile_qr_scan", "android": "https://dc.lft.to/lastmile_qr_scan"}, "is_reserved": 0, "fusion_lon": 0.0, "fusion_lat": 0.0, "lon": -77.0040705, "name": "5efeeb7529a39fc4554b88d67363ce05"}, {"bike_id": "06a09417dc6dd9a9812d6d0c9e245b3e", "type": "electric_scooter", "is_disabled": 0, "lat": 38.886282, "rental_uris": {"ios": "https://dc.lft.to/lastmile_qr_scan", "android": "https://dc.lft.to/lastmile_qr_scan"}, "is_reserved": 0, "fusion_lon": 0.0, "fusion_lat": 0.0, "lon": -76.99611483333334, "name": "06a09417dc6dd9a9812d6d0c9e245b3e"}, {"bike_id": "97373f660e79a2011b152999bfb65603", "type": "electric_scooter", "is_disabled": 0, "lat": 38.867756666666665, "rental_uris": {"ios": "https://dc.lft.to/lastmile_qr_scan", "android": "https://dc.lft.to/lastmile_qr_scan"}, "is_reserved": 0, "fusion_lon": 0.0, "fusion_lat": 0.0, "lon": -76.98838916666666, "name": "97373f660e79a2011b152999bfb65603"}, {"bike_id": "e054b6b941d058ceafba488b202f18ac", "type": "electric_scooter", "is_disabled": 0, "lat": 38.90237183333333, "rental_uris": {"ios": "https://dc.lft.to/lastmile_qr_scan", "android": "https://dc.lft.to/lastmile_qr_scan"}, "is_reserved": 0, "fusion_lon": 0.0, "fusion_lat": 0.0, "lon": -77.04153733333334, "name": "e054b6b941d058ceafba488b202f18ac"}, {"bike_id": "154e20dd14d1cb38bba4ce963b726d10", "type": "electric_scooter", "is_disabled": 0, "lat": 38.94999766666667, "rental_uris": {"ios": "https://dc.lft.to/lastmile_qr_scan", "android": "https://dc.lft.to/lastmile_qr_scan"}, "is_reserved": 0, "fusion_lon": 0.0, "fusion_lat": 0.0, "lon": -77.01557516666666, "name": "154e20dd14d1cb38bba4ce963b726d10"}, {"bike_id": "0f36de757d88219edc31524784f2bb14", "type": "electric_scooter", "is_disabled": 0, "lat": 38.862423, "rental_uris": {"ios": "https://dc.lft.to/lastmile_qr_scan", "android": "https://dc.lft.to/lastmile_qr_scan"}, "is_reserved": 0, "fusion_lon": 0.0, "fusion_lat": 0.0, "lon": -76.99496283333333, "name": "0f36de757d88219edc31524784f2bb14"}, {"bike_id": "ebaa0a41e80b7c75b7f3b43199637372", "type": "electric_scooter", "is_disabled": 0, "lat": 38.956588833333335, "rental_uris": {"ios": "https://dc.lft.to/lastmile_qr_scan", "android": "https://dc.lft.to/lastmile_qr_scan"}, "is_reserved": 0, "fusion_lon": 0.0, "fusion_lat": 0.0, "lon": -77.02398533333333, "name": "ebaa0a41e80b7c75b7f3b43199637372"}, {"bike_id": "e6b0d435644f4019ac0830ffbe5d3b7e", "type": "electric_scooter", "is_disabled": 0, "lat": 38.90246666666667, "rental_uris": {"ios": "https://dc.lft.to/lastmile_qr_scan", "android": "https://dc.lft.to/lastmile_qr_scan"}, "is_reserved": 0, "fusion_lon": 0.0, "fusion_lat": 0.0, "lon": -77.01744316666667, "name": "e6b0d435644f4019ac0830ffbe5d3b7e"}, {"bike_id": "32effa27710205538d047edbf9124303", "type": "electric_scooter", "is_disabled": 0, "lat": 38.91411683333333, "rental_uris": {"ios": "https://dc.lft.to/lastmile_qr_scan", "android": "https://dc.lft.to/lastmile_qr_scan"}, "is_reserved": 0, "fusion_lon": 0.0, "fusion_lat": 0.0, "lon": -77.02424316666666, "name": "32effa27710205538d047edbf9124303"}, {"bike_id": "0b1413bfd78052a7e7d94198eaecc788", "type": "electric_scooter", "is_disabled": 0, "lat": 38.901522166666666, "rental_uris": {"ios": "https://dc.lft.to/lastmile_qr_scan", "android": "https://dc.lft.to/lastmile_qr_scan"}, "is_reserved": 0, "fusion_lon": 0.0, "fusion_lat": 0.0, "lon": -77.02204416666666, "name": "0b1413bfd78052a7e7d94198eaecc788"}, {"bike_id": "fd01a7585e59e5a227e24698dee3a186", "type": "electric_scooter", "is_disabled": 0, "lat": 38.90126683333333, "rental_uris": {"ios": "https://dc.lft.to/lastmile_qr_scan", "android": "https://dc.lft.to/lastmile_qr_scan"}, "is_reserved": 0, "fusion_lon": 0.0, "fusion_lat": 0.0, "lon": -77.01835466666667, "name": "fd01a7585e59e5a227e24698dee3a186"}, {"bike_id": "1b631e2b95efaa65816b46170c88b50c", "type": "electric_scooter", "is_disabled": 0, "lat": 38.88534683333334, "rental_uris": {"ios": "https://dc.lft.to/lastmile_qr_scan", "android": "https://dc.lft.to/lastmile_qr_scan"}, "is_reserved": 0, "fusion_lon": 0.0, "fusion_lat": 0.0, "lon": -76.99829166666666, "name": "1b631e2b95efaa65816b46170c88b50c"}, {"bike_id": "4e32052b3275a63d2ba86a06088c5c94", "type": "electric_scooter", "is_disabled": 0, "lat": 38.904415, "rental_uris": {"ios": "https://dc.lft.to/lastmile_qr_scan", "android": "https://dc.lft.to/lastmile_qr_scan"}, "is_reserved": 0, "fusion_lon": 0.0, "fusion_lat": 0.0, "lon": -77.03462366666666, "name": "4e32052b3275a63d2ba86a06088c5c94"}, {"bike_id": "c50e2e7bda013ae96859f56664bd4709", "type": "electric_scooter", "is_disabled": 0, "lat": 38.87883866666667, "rental_uris": {"ios": "https://dc.lft.to/lastmile_qr_scan", "android": "https://dc.lft.to/lastmile_qr_scan"}, "is_reserved": 0, "fusion_lon": 0.0, "fusion_lat": 0.0, "lon": -77.02315433333334, "name": "c50e2e7bda013ae96859f56664bd4709"}, {"bike_id": "64212646dc3b1b122d462f71ca196098", "type": "electric_scooter", "is_disabled": 0, "lat": 38.91106633333333, "rental_uris": {"ios": "https://dc.lft.to/lastmile_qr_scan", "android": "https://dc.lft.to/lastmile_qr_scan"}, "is_reserved": 0, "fusion_lon": 0.0, "fusion_lat": 0.0, "lon": -77.02139983333333, "name": "64212646dc3b1b122d462f71ca196098"}, {"bike_id": "7b7d98328aa596c834b6ea01b7b1e7c5", "type": "electric_scooter", "is_disabled": 0, "lat": 38.8900455, "rental_uris": {"ios": "https://dc.lft.to/lastmile_qr_scan", "android": "https://dc.lft.to/lastmile_qr_scan"}, "is_reserved": 0, "fusion_lon": 0.0, "fusion_lat": 0.0, "lon": -76.93746216666666, "name": "7b7d98328aa596c834b6ea01b7b1e7c5"}, {"bike_id": "2f786a42c3928739cbc2b6f469415511", "type": "electric_scooter", "is_disabled": 0, "lat": 38.923170666666664, "rental_uris": {"ios": "https://dc.lft.to/lastmile_qr_scan", "android": "https://dc.lft.to/lastmile_qr_scan"}, "is_reserved": 0, "fusion_lon": 0.0, "fusion_lat": 0.0, "lon": -77.03910316666666, "name": "2f786a42c3928739cbc2b6f469415511"}, {"bike_id": "97193f168f6c5452e4f9bbd502fa6374", "type": "electric_scooter", "is_disabled": 0, "lat": 38.90772783333333, "rental_uris": {"ios": "https://dc.lft.to/lastmile_qr_scan", "android": "https://dc.lft.to/lastmile_qr_scan"}, "is_reserved": 0, "fusion_lon": 0.0, "fusion_lat": 0.0, "lon": -77.03855316666667, "name": "97193f168f6c5452e4f9bbd502fa6374"}, {"bike_id": "0bdb7aeb45087092dd967c57705c9d46", "type": "electric_scooter", "is_disabled": 0, "lat": 38.935104, "rental_uris": {"ios": "https://dc.lft.to/lastmile_qr_scan", "android": "https://dc.lft.to/lastmile_qr_scan"}, "is_reserved": 0, "fusion_lon": 0.0, "fusion_lat": 0.0, "lon": -77.0241885, "name": "0bdb7aeb45087092dd967c57705c9d46"}, {"bike_id": "af427bb78788df765b86fd188a14de5a", "type": "electric_scooter", "is_disabled": 0, "lat": 38.93657, "rental_uris": {"ios": "https://dc.lft.to/lastmile_qr_scan", "android": "https://dc.lft.to/lastmile_qr_scan"}, "is_reserved": 0, "fusion_lon": 0.0, "fusion_lat": 0.0, "lon": -77.05500016666667, "name": "af427bb78788df765b86fd188a14de5a"}, {"bike_id": "5bf3d08ac7a9952459c6f1ce967028de", "type": "electric_scooter", "is_disabled": 0, "lat": 38.90679383333333, "rental_uris": {"ios": "https://dc.lft.to/lastmile_qr_scan", "android": "https://dc.lft.to/lastmile_qr_scan"}, "is_reserved": 0, "fusion_lon": 0.0, "fusion_lat": 0.0, "lon": -77.02692316666666, "name": "5bf3d08ac7a9952459c6f1ce967028de"}, {"bike_id": "8598ea3d249eb09d1d54832865b835bb", "type": "electric_scooter", "is_disabled": 0, "lat": 38.915583833333336, "rental_uris": {"ios": "https://dc.lft.to/lastmile_qr_scan", "android": "https://dc.lft.to/lastmile_qr_scan"}, "is_reserved": 0, "fusion_lon": 0.0, "fusion_lat": 0.0, "lon": -77.03507683333333, "name": "8598ea3d249eb09d1d54832865b835bb"}, {"bike_id": "c8ed6c51bd0a03aa6f216ac855af440e", "type": "electric_scooter", "is_disabled": 0, "lat": 38.90109916666667, "rental_uris": {"ios": "https://dc.lft.to/lastmile_qr_scan", "android": "https://dc.lft.to/lastmile_qr_scan"}, "is_reserved": 0, "fusion_lon": 0.0, "fusion_lat": 0.0, "lon": -77.051569, "name": "c8ed6c51bd0a03aa6f216ac855af440e"}, {"bike_id": "a12d19cb5feed2fc2948a32ada7615a6", "type": "electric_scooter", "is_disabled": 0, "lat": 38.922405833333336, "rental_uris": {"ios": "https://dc.lft.to/lastmile_qr_scan", "android": "https://dc.lft.to/lastmile_qr_scan"}, "is_reserved": 0, "fusion_lon": 0.0, "fusion_lat": 0.0, "lon": -77.03902183333334, "name": "a12d19cb5feed2fc2948a32ada7615a6"}, {"bike_id": "f454cd33d9cca34420cb8d439a7bd8a1", "type": "electric_scooter", "is_disabled": 0, "lat": 38.92869233333333, "rental_uris": {"ios": "https://dc.lft.to/lastmile_qr_scan", "android": "https://dc.lft.to/lastmile_qr_scan"}, "is_reserved": 0, "fusion_lon": 0.0, "fusion_lat": 0.0, "lon": -77.03220516666667, "name": "f454cd33d9cca34420cb8d439a7bd8a1"}, {"bike_id": "4f71527bf77676cba53db6ba79e1203b", "type": "electric_bike", "is_disabled": 0, "lat": 38.93866966666667, "rental_uris": {"ios": "https://dc.lft.to/lastmile_qr_scan", "android": "https://dc.lft.to/lastmile_qr_scan"}, "is_reserved": 0, "fusion_lon": 0.0, "fusion_lat": 0.0, "lon": -77.02695266666667, "name": "4f71527bf77676cba53db6ba79e1203b"}, {"bike_id": "aa75b2d7a6bedcfbdaf964eea4622251", "type": "electric_scooter", "is_disabled": 0, "lat": 38.92994916666667, "rental_uris": {"ios": "https://dc.lft.to/lastmile_qr_scan", "android": "https://dc.lft.to/lastmile_qr_scan"}, "is_reserved": 0, "fusion_lon": 0.0, "fusion_lat": 0.0, "lon": -77.02351083333333, "name": "aa75b2d7a6bedcfbdaf964eea4622251"}, {"bike_id": "8e9ecbf319874906ffb73a9bf799cc48", "type": "electric_scooter", "is_disabled": 0, "lat": 38.90690766666667, "rental_uris": {"ios": "https://dc.lft.to/lastmile_qr_scan", "android": "https://dc.lft.to/lastmile_qr_scan"}, "is_reserved": 0, "fusion_lon": 0.0, "fusion_lat": 0.0, "lon": -77.06545066666666, "name": "8e9ecbf319874906ffb73a9bf799cc48"}, {"bike_id": "6eb7d52e9ffca2750c08a15ed3da5c04", "type": "electric_bike", "is_disabled": 0, "lat": 38.857660833333334, "rental_uris": {"ios": "https://dc.lft.to/lastmile_qr_scan", "android": "https://dc.lft.to/lastmile_qr_scan"}, "is_reserved": 0, "fusion_lon": 0.0, "fusion_lat": 0.0, "lon": -76.987657, "name": "6eb7d52e9ffca2750c08a15ed3da5c04"}, {"bike_id": "73732a9d9d3a98399a99e6f5dedf40ea", "type": "electric_scooter", "is_disabled": 0, "lat": 38.917479, "rental_uris": {"ios": "https://dc.lft.to/lastmile_qr_scan", "android": "https://dc.lft.to/lastmile_qr_scan"}, "is_reserved": 0, "fusion_lon": 0.0, "fusion_lat": 0.0, "lon": -77.0228365, "name": "73732a9d9d3a98399a99e6f5dedf40ea"}, {"bike_id": "6b5b57f520560ec559eb8282e0d8c62c", "type": "electric_scooter", "is_disabled": 0, "lat": 38.928221666666666, "rental_uris": {"ios": "https://dc.lft.to/lastmile_qr_scan", "android": "https://dc.lft.to/lastmile_qr_scan"}, "is_reserved": 0, "fusion_lon": 0.0, "fusion_lat": 0.0, "lon": -77.0225845, "name": "6b5b57f520560ec559eb8282e0d8c62c"}, {"bike_id": "add4a15855a760316de96343f4f700fa", "type": "electric_scooter", "is_disabled": 0, "lat": 38.91635983333333, "rental_uris": {"ios": "https://dc.lft.to/lastmile_qr_scan", "android": "https://dc.lft.to/lastmile_qr_scan"}, "is_reserved": 0, "fusion_lon": 0.0, "fusion_lat": 0.0, "lon": -77.02554216666667, "name": "add4a15855a760316de96343f4f700fa"}, {"bike_id": "7af4f068ebf68dd9f43166e4fcab6361", "type": "electric_scooter", "is_disabled": 0, "lat": 38.9029075, "rental_uris": {"ios": "https://dc.lft.to/lastmile_qr_scan", "android": "https://dc.lft.to/lastmile_qr_scan"}, "is_reserved": 0, "fusion_lon": 0.0, "fusion_lat": 0.0, "lon": -77.04400083333333, "name": "7af4f068ebf68dd9f43166e4fcab6361"}, {"bike_id": "a400a1e988bea86948b27914e56de849", "type": "electric_scooter", "is_disabled": 0, "lat": 38.90385966666667, "rental_uris": {"ios": "https://dc.lft.to/lastmile_qr_scan", "android": "https://dc.lft.to/lastmile_qr_scan"}, "is_reserved": 0, "fusion_lon": 0.0, "fusion_lat": 0.0, "lon": -76.98199566666666, "name": "a400a1e988bea86948b27914e56de849"}, {"bike_id": "25ca59b8bfa31b9eb4cffd14bab064e4", "type": "electric_scooter", "is_disabled": 0, "lat": 38.93271716666667, "rental_uris": {"ios": "https://dc.lft.to/lastmile_qr_scan", "android": "https://dc.lft.to/lastmile_qr_scan"}, "is_reserved": 0, "fusion_lon": 0.0, "fusion_lat": 0.0, "lon": -77.04539133333333, "name": "25ca59b8bfa31b9eb4cffd14bab064e4"}, {"bike_id": "f930ed6e191fa0be397456a413b66cd3", "type": "electric_bike", "is_disabled": 0, "lat": 38.837852, "rental_uris": {"ios": "https://dc.lft.to/lastmile_qr_scan", "android": "https://dc.lft.to/lastmile_qr_scan"}, "is_reserved": 0, "fusion_lon": 0.0, "fusion_lat": 0.0, "lon": -77.09344266666666, "name": "f930ed6e191fa0be397456a413b66cd3"}, {"bike_id": "7afc34ccc414b1c5aac3825022a7fce9", "type": "electric_scooter", "is_disabled": 0, "lat": 38.9008045, "rental_uris": {"ios": "https://dc.lft.to/lastmile_qr_scan", "android": "https://dc.lft.to/lastmile_qr_scan"}, "is_reserved": 0, "fusion_lon": 0.0, "fusion_lat": 0.0, "lon": -77.00913633333333, "name": "7afc34ccc414b1c5aac3825022a7fce9"}, {"bike_id": "2bf1320aadbfbfd322e47262c978231d", "type": "electric_scooter", "is_disabled": 0, "lat": 38.892226, "rental_uris": {"ios": "https://dc.lft.to/lastmile_qr_scan", "android": "https://dc.lft.to/lastmile_qr_scan"}, "is_reserved": 0, "fusion_lon": 0.0, "fusion_lat": 0.0, "lon": -77.04865533333333, "name": "2bf1320aadbfbfd322e47262c978231d"}, {"bike_id": "c855d96569408a206a2e147280411d64", "type": "electric_bike", "is_disabled": 0, "lat": 38.87297016666667, "rental_uris": {"ios": "https://dc.lft.to/lastmile_qr_scan", "android": "https://dc.lft.to/lastmile_qr_scan"}, "is_reserved": 0, "fusion_lon": 0.0, "fusion_lat": 0.0, "lon": -77.13930883333333, "name": "c855d96569408a206a2e147280411d64"}, {"bike_id": "ce913645582c45cee2356102713d33dc", "type": "electric_scooter", "is_disabled": 0, "lat": 38.924078, "rental_uris": {"ios": "https://dc.lft.to/lastmile_qr_scan", "android": "https://dc.lft.to/lastmile_qr_scan"}, "is_reserved": 0, "fusion_lon": 0.0, "fusion_lat": 0.0, "lon": -76.9938255, "name": "ce913645582c45cee2356102713d33dc"}, {"bike_id": "221b5e5696f11d1d84f30b2d61fa9c5f", "type": "electric_scooter", "is_disabled": 0, "lat": 38.92254766666667, "rental_uris": {"ios": "https://dc.lft.to/lastmile_qr_scan", "android": "https://dc.lft.to/lastmile_qr_scan"}, "is_reserved": 0, "fusion_lon": 0.0, "fusion_lat": 0.0, "lon": -77.038925, "name": "221b5e5696f11d1d84f30b2d61fa9c5f"}, {"bike_id": "ed5473f61925da1897615bef7856108a", "type": "electric_scooter", "is_disabled": 0, "lat": 38.94201133333333, "rental_uris": {"ios": "https://dc.lft.to/lastmile_qr_scan", "android": "https://dc.lft.to/lastmile_qr_scan"}, "is_reserved": 0, "fusion_lon": 0.0, "fusion_lat": 0.0, "lon": -77.017386, "name": "ed5473f61925da1897615bef7856108a"}, {"bike_id": "efb3581eb21fe3d6e836a1b96c6a431f", "type": "electric_scooter", "is_disabled": 0, "lat": 38.877858333333336, "rental_uris": {"ios": "https://dc.lft.to/lastmile_qr_scan", "android": "https://dc.lft.to/lastmile_qr_scan"}, "is_reserved": 0, "fusion_lon": 0.0, "fusion_lat": 0.0, "lon": -77.01756533333334, "name": "efb3581eb21fe3d6e836a1b96c6a431f"}, {"bike_id": "d484dca1de0d205ea9028f3e48400d25", "type": "electric_scooter", "is_disabled": 0, "lat": 38.9193005, "rental_uris": {"ios": "https://dc.lft.to/lastmile_qr_scan", "android": "https://dc.lft.to/lastmile_qr_scan"}, "is_reserved": 0, "fusion_lon": 0.0, "fusion_lat": 0.0, "lon": -77.01398166666667, "name": "d484dca1de0d205ea9028f3e48400d25"}, {"bike_id": "3b96899fd98e74bc3059671af4a4c387", "type": "electric_scooter", "is_disabled": 0, "lat": 38.9000025, "rental_uris": {"ios": "https://dc.lft.to/lastmile_qr_scan", "android": "https://dc.lft.to/lastmile_qr_scan"}, "is_reserved": 0, "fusion_lon": 0.0, "fusion_lat": 0.0, "lon": -77.00212933333333, "name": "3b96899fd98e74bc3059671af4a4c387"}, {"bike_id": "972369f1703685c242dc454579f67d0b", "type": "electric_scooter", "is_disabled": 0, "lat": 38.90556216666667, "rental_uris": {"ios": "https://dc.lft.to/lastmile_qr_scan", "android": "https://dc.lft.to/lastmile_qr_scan"}, "is_reserved": 0, "fusion_lon": 0.0, "fusion_lat": 0.0, "lon": -77.00581116666666, "name": "972369f1703685c242dc454579f67d0b"}, {"bike_id": "039d52b44b84162d8e110bfb4014c65b", "type": "electric_scooter", "is_disabled": 0, "lat": 38.919040833333334, "rental_uris": {"ios": "https://dc.lft.to/lastmile_qr_scan", "android": "https://dc.lft.to/lastmile_qr_scan"}, "is_reserved": 0, "fusion_lon": 0.0, "fusion_lat": 0.0, "lon": -77.03443216666666, "name": "039d52b44b84162d8e110bfb4014c65b"}, {"bike_id": "97ab194fedf1cc3b62641166a95ae58f", "type": "electric_scooter", "is_disabled": 0, "lat": 38.865018, "rental_uris": {"ios": "https://dc.lft.to/lastmile_qr_scan", "android": "https://dc.lft.to/lastmile_qr_scan"}, "is_reserved": 0, "fusion_lon": 0.0, "fusion_lat": 0.0, "lon": -76.9900285, "name": "97ab194fedf1cc3b62641166a95ae58f"}, {"bike_id": "11cbfac2f4fc1a9e40d2f7980d41d10f", "type": "electric_scooter", "is_disabled": 0, "lat": 38.88990166666667, "rental_uris": {"ios": "https://dc.lft.to/lastmile_qr_scan", "android": "https://dc.lft.to/lastmile_qr_scan"}, "is_reserved": 0, "fusion_lon": 0.0, "fusion_lat": 0.0, "lon": -77.0003655, "name": "11cbfac2f4fc1a9e40d2f7980d41d10f"}, {"bike_id": "e6ab0d8c48e268ba8902f581a3564313", "type": "electric_scooter", "is_disabled": 0, "lat": 38.91442166666667, "rental_uris": {"ios": "https://dc.lft.to/lastmile_qr_scan", "android": "https://dc.lft.to/lastmile_qr_scan"}, "is_reserved": 0, "fusion_lon": 0.0, "fusion_lat": 0.0, "lon": -77.012245, "name": "e6ab0d8c48e268ba8902f581a3564313"}, {"bike_id": "6ec4f9aa20a07fa03d4fe1b07516aeaf", "type": "electric_scooter", "is_disabled": 0, "lat": 38.91907483333333, "rental_uris": {"ios": "https://dc.lft.to/lastmile_qr_scan", "android": "https://dc.lft.to/lastmile_qr_scan"}, "is_reserved": 0, "fusion_lon": 0.0, "fusion_lat": 0.0, "lon": -77.03425183333333, "name": "6ec4f9aa20a07fa03d4fe1b07516aeaf"}, {"bike_id": "35507d5f20678d64e6167e2dc8ea32c4", "type": "electric_scooter", "is_disabled": 0, "lat": 38.8986635, "rental_uris": {"ios": "https://dc.lft.to/lastmile_qr_scan", "android": "https://dc.lft.to/lastmile_qr_scan"}, "is_reserved": 0, "fusion_lon": 0.0, "fusion_lat": 0.0, "lon": -76.946647, "name": "35507d5f20678d64e6167e2dc8ea32c4"}, {"bike_id": "c07244a1f067cd5c456b2ffa13ecb8aa", "type": "electric_scooter", "is_disabled": 0, "lat": 38.915572, "rental_uris": {"ios": "https://dc.lft.to/lastmile_qr_scan", "android": "https://dc.lft.to/lastmile_qr_scan"}, "is_reserved": 0, "fusion_lon": 0.0, "fusion_lat": 0.0, "lon": -77.03138683333333, "name": "c07244a1f067cd5c456b2ffa13ecb8aa"}, {"bike_id": "442f0e554eb4724360230b753fe8a2f5", "type": "electric_bike", "is_disabled": 0, "lat": 38.853488, "rental_uris": {"ios": "https://dc.lft.to/lastmile_qr_scan", "android": "https://dc.lft.to/lastmile_qr_scan"}, "is_reserved": 0, "fusion_lon": 0.0, "fusion_lat": 0.0, "lon": -77.08683383333333, "name": "442f0e554eb4724360230b753fe8a2f5"}, {"bike_id": "c926a17696b515e3269fcf1e2befa4f5", "type": "electric_scooter", "is_disabled": 0, "lat": 38.95149466666667, "rental_uris": {"ios": "https://dc.lft.to/lastmile_qr_scan", "android": "https://dc.lft.to/lastmile_qr_scan"}, "is_reserved": 0, "fusion_lon": 0.0, "fusion_lat": 0.0, "lon": -77.018681, "name": "c926a17696b515e3269fcf1e2befa4f5"}, {"bike_id": "26bf432c04907cb9292b98c7f0e50161", "type": "electric_scooter", "is_disabled": 0, "lat": 38.895381, "rental_uris": {"ios": "https://dc.lft.to/lastmile_qr_scan", "android": "https://dc.lft.to/lastmile_qr_scan"}, "is_reserved": 0, "fusion_lon": 0.0, "fusion_lat": 0.0, "lon": -76.9489355, "name": "26bf432c04907cb9292b98c7f0e50161"}, {"bike_id": "942fd9fb29c43c8ab096d4d0fb5044d5", "type": "electric_scooter", "is_disabled": 0, "lat": 38.8886925, "rental_uris": {"ios": "https://dc.lft.to/lastmile_qr_scan", "android": "https://dc.lft.to/lastmile_qr_scan"}, "is_reserved": 0, "fusion_lon": 0.0, "fusion_lat": 0.0, "lon": -77.03996166666667, "name": "942fd9fb29c43c8ab096d4d0fb5044d5"}, {"bike_id": "593ef85b364f7e62b0bd00e44be39406", "type": "electric_scooter", "is_disabled": 0, "lat": 38.87725566666667, "rental_uris": {"ios": "https://dc.lft.to/lastmile_qr_scan", "android": "https://dc.lft.to/lastmile_qr_scan"}, "is_reserved": 0, "fusion_lon": 0.0, "fusion_lat": 0.0, "lon": -77.01773083333333, "name": "593ef85b364f7e62b0bd00e44be39406"}, {"bike_id": "f9550a75705853822687413f9ebb7919", "type": "electric_scooter", "is_disabled": 0, "lat": 38.89008783333333, "rental_uris": {"ios": "https://dc.lft.to/lastmile_qr_scan", "android": "https://dc.lft.to/lastmile_qr_scan"}, "is_reserved": 0, "fusion_lon": 0.0, "fusion_lat": 0.0, "lon": -76.937456, "name": "f9550a75705853822687413f9ebb7919"}, {"bike_id": "17845c19850d7aafa629399b3e4376ae", "type": "electric_scooter", "is_disabled": 0, "lat": 38.89321833333333, "rental_uris": {"ios": "https://dc.lft.to/lastmile_qr_scan", "android": "https://dc.lft.to/lastmile_qr_scan"}, "is_reserved": 0, "fusion_lon": 0.0, "fusion_lat": 0.0, "lon": -77.0488245, "name": "17845c19850d7aafa629399b3e4376ae"}, {"bike_id": "74b4a882c978387b75a4d1e4d56c6660", "type": "electric_scooter", "is_disabled": 0, "lat": 38.8991695, "rental_uris": {"ios": "https://dc.lft.to/lastmile_qr_scan", "android": "https://dc.lft.to/lastmile_qr_scan"}, "is_reserved": 0, "fusion_lon": 0.0, "fusion_lat": 0.0, "lon": -77.01522933333334, "name": "74b4a882c978387b75a4d1e4d56c6660"}, {"bike_id": "c7dc65ca4b85c883aa12e8f234cbd67b", "type": "electric_scooter", "is_disabled": 0, "lat": 38.91848066666667, "rental_uris": {"ios": "https://dc.lft.to/lastmile_qr_scan", "android": "https://dc.lft.to/lastmile_qr_scan"}, "is_reserved": 0, "fusion_lon": 0.0, "fusion_lat": 0.0, "lon": -77.032113, "name": "c7dc65ca4b85c883aa12e8f234cbd67b"}, {"bike_id": "473bb9058bb34dadb848160f51794949", "type": "electric_scooter", "is_disabled": 0, "lat": 38.95470916666667, "rental_uris": {"ios": "https://dc.lft.to/lastmile_qr_scan", "android": "https://dc.lft.to/lastmile_qr_scan"}, "is_reserved": 0, "fusion_lon": 0.0, "fusion_lat": 0.0, "lon": -77.0821735, "name": "473bb9058bb34dadb848160f51794949"}, {"bike_id": "cd8d55e68953e73b01c9d4e99e9152b5", "type": "electric_scooter", "is_disabled": 0, "lat": 38.8637365, "rental_uris": {"ios": "https://dc.lft.to/lastmile_qr_scan", "android": "https://dc.lft.to/lastmile_qr_scan"}, "is_reserved": 0, "fusion_lon": 0.0, "fusion_lat": 0.0, "lon": -76.99057733333333, "name": "cd8d55e68953e73b01c9d4e99e9152b5"}, {"bike_id": "3397e5aa5e262a8536f1844e4d071e58", "type": "electric_scooter", "is_disabled": 0, "lat": 38.90563366666667, "rental_uris": {"ios": "https://dc.lft.to/lastmile_qr_scan", "android": "https://dc.lft.to/lastmile_qr_scan"}, "is_reserved": 0, "fusion_lon": 0.0, "fusion_lat": 0.0, "lon": -77.005907, "name": "3397e5aa5e262a8536f1844e4d071e58"}, {"bike_id": "b9c5d6f1e236150ce4dfab4704e33f38", "type": "electric_bike", "is_disabled": 0, "lat": 38.89737733333333, "rental_uris": {"ios": "https://dc.lft.to/lastmile_qr_scan", "android": "https://dc.lft.to/lastmile_qr_scan"}, "is_reserved": 0, "fusion_lon": 0.0, "fusion_lat": 0.0, "lon": -76.99218283333333, "name": "b9c5d6f1e236150ce4dfab4704e33f38"}, {"bike_id": "1fa0ea34bd750bf3c37f9e4559a5687d", "type": "electric_scooter", "is_disabled": 0, "lat": 38.942712, "rental_uris": {"ios": "https://dc.lft.to/lastmile_qr_scan", "android": "https://dc.lft.to/lastmile_qr_scan"}, "is_reserved": 0, "fusion_lon": 0.0, "fusion_lat": 0.0, "lon": -77.0325645, "name": "1fa0ea34bd750bf3c37f9e4559a5687d"}, {"bike_id": "b36263a502d0ed9b03457764e3fe3ae0", "type": "electric_scooter", "is_disabled": 0, "lat": 38.8953445, "rental_uris": {"ios": "https://dc.lft.to/lastmile_qr_scan", "android": "https://dc.lft.to/lastmile_qr_scan"}, "is_reserved": 0, "fusion_lon": 0.0, "fusion_lat": 0.0, "lon": -77.010914, "name": "b36263a502d0ed9b03457764e3fe3ae0"}, {"bike_id": "3e157e5425cf3f6b02ee3082bb4faa73", "type": "electric_scooter", "is_disabled": 0, "lat": 38.90369, "rental_uris": {"ios": "https://dc.lft.to/lastmile_qr_scan", "android": "https://dc.lft.to/lastmile_qr_scan"}, "is_reserved": 0, "fusion_lon": 0.0, "fusion_lat": 0.0, "lon": -77.04344083333334, "name": "3e157e5425cf3f6b02ee3082bb4faa73"}, {"bike_id": "f04f60a69c9987a063ecf66707ec57fd", "type": "electric_scooter", "is_disabled": 0, "lat": 38.874188833333335, "rental_uris": {"ios": "https://dc.lft.to/lastmile_qr_scan", "android": "https://dc.lft.to/lastmile_qr_scan"}, "is_reserved": 0, "fusion_lon": 0.0, "fusion_lat": 0.0, "lon": -76.96907383333334, "name": "f04f60a69c9987a063ecf66707ec57fd"}, {"bike_id": "e05e89b8c7b96c7027f486acf38d0b35", "type": "electric_scooter", "is_disabled": 0, "lat": 38.899122, "rental_uris": {"ios": "https://dc.lft.to/lastmile_qr_scan", "android": "https://dc.lft.to/lastmile_qr_scan"}, "is_reserved": 0, "fusion_lon": 0.0, "fusion_lat": 0.0, "lon": -76.93368183333334, "name": "e05e89b8c7b96c7027f486acf38d0b35"}, {"bike_id": "30075b135b5840f2c85eeb0358123723", "type": "electric_scooter", "is_disabled": 0, "lat": 38.9161245, "rental_uris": {"ios": "https://dc.lft.to/lastmile_qr_scan", "android": "https://dc.lft.to/lastmile_qr_scan"}, "is_reserved": 0, "fusion_lon": 0.0, "fusion_lat": 0.0, "lon": -77.04862416666667, "name": "30075b135b5840f2c85eeb0358123723"}, {"bike_id": "035c11956f3d41fbe68471d67bc91197", "type": "electric_scooter", "is_disabled": 0, "lat": 38.94788916666667, "rental_uris": {"ios": "https://dc.lft.to/lastmile_qr_scan", "android": "https://dc.lft.to/lastmile_qr_scan"}, "is_reserved": 0, "fusion_lon": 0.0, "fusion_lat": 0.0, "lon": -77.02133983333333, "name": "035c11956f3d41fbe68471d67bc91197"}, {"bike_id": "e205676a22ca0d18be67b1cc573d8d46", "type": "electric_scooter", "is_disabled": 0, "lat": 38.86984783333333, "rental_uris": {"ios": "https://dc.lft.to/lastmile_qr_scan", "android": "https://dc.lft.to/lastmile_qr_scan"}, "is_reserved": 0, "fusion_lon": 0.0, "fusion_lat": 0.0, "lon": -76.98182133333333, "name": "e205676a22ca0d18be67b1cc573d8d46"}, {"bike_id": "2bbf2f26baefaac9a9fc0078485c4cd4", "type": "electric_scooter", "is_disabled": 0, "lat": 38.9367965, "rental_uris": {"ios": "https://dc.lft.to/lastmile_qr_scan", "android": "https://dc.lft.to/lastmile_qr_scan"}, "is_reserved": 0, "fusion_lon": 0.0, "fusion_lat": 0.0, "lon": -77.036352, "name": "2bbf2f26baefaac9a9fc0078485c4cd4"}, {"bike_id": "f7f71d92ed7871a6951645094835c72d", "type": "electric_scooter", "is_disabled": 0, "lat": 38.92597466666667, "rental_uris": {"ios": "https://dc.lft.to/lastmile_qr_scan", "android": "https://dc.lft.to/lastmile_qr_scan"}, "is_reserved": 0, "fusion_lon": 0.0, "fusion_lat": 0.0, "lon": -77.02496533333333, "name": "f7f71d92ed7871a6951645094835c72d"}, {"bike_id": "c1f7dbe69f56653938cc2bc54f0674b9", "type": "electric_scooter", "is_disabled": 0, "lat": 38.913693, "rental_uris": {"ios": "https://dc.lft.to/lastmile_qr_scan", "android": "https://dc.lft.to/lastmile_qr_scan"}, "is_reserved": 0, "fusion_lon": 0.0, "fusion_lat": 0.0, "lon": -77.0726895, "name": "c1f7dbe69f56653938cc2bc54f0674b9"}, {"bike_id": "9b145d3b7c9737ea86e4aff02ff9d1f4", "type": "electric_bike", "is_disabled": 0, "lat": 38.880578, "rental_uris": {"ios": "https://dc.lft.to/lastmile_qr_scan", "android": "https://dc.lft.to/lastmile_qr_scan"}, "is_reserved": 0, "fusion_lon": 0.0, "fusion_lat": 0.0, "lon": -76.9624375, "name": "9b145d3b7c9737ea86e4aff02ff9d1f4"}, {"bike_id": "bf8040c8685f0af10c3445caf35ac748", "type": "electric_scooter", "is_disabled": 0, "lat": 38.919315833333336, "rental_uris": {"ios": "https://dc.lft.to/lastmile_qr_scan", "android": "https://dc.lft.to/lastmile_qr_scan"}, "is_reserved": 0, "fusion_lon": 0.0, "fusion_lat": 0.0, "lon": -77.04503666666666, "name": "bf8040c8685f0af10c3445caf35ac748"}, {"bike_id": "7cc3ea2382e5cfe73f3e7bd2fe709faf", "type": "electric_scooter", "is_disabled": 0, "lat": 38.92440716666667, "rental_uris": {"ios": "https://dc.lft.to/lastmile_qr_scan", "android": "https://dc.lft.to/lastmile_qr_scan"}, "is_reserved": 0, "fusion_lon": 0.0, "fusion_lat": 0.0, "lon": -77.0335575, "name": "7cc3ea2382e5cfe73f3e7bd2fe709faf"}, {"bike_id": "9bdc91f0afe1fd499e14e91788d18d9c", "type": "electric_scooter", "is_disabled": 0, "lat": 38.905583, "rental_uris": {"ios": "https://dc.lft.to/lastmile_qr_scan", "android": "https://dc.lft.to/lastmile_qr_scan"}, "is_reserved": 0, "fusion_lon": 0.0, "fusion_lat": 0.0, "lon": -77.038238, "name": "9bdc91f0afe1fd499e14e91788d18d9c"}, {"bike_id": "a64e4ce6bb2b4fbc6bdf4f0c909cec2a", "type": "electric_scooter", "is_disabled": 0, "lat": 38.91909666666667, "rental_uris": {"ios": "https://dc.lft.to/lastmile_qr_scan", "android": "https://dc.lft.to/lastmile_qr_scan"}, "is_reserved": 0, "fusion_lon": 0.0, "fusion_lat": 0.0, "lon": -77.0141315, "name": "a64e4ce6bb2b4fbc6bdf4f0c909cec2a"}, {"bike_id": "915464ca051942e8732b1ef6da589195", "type": "electric_scooter", "is_disabled": 0, "lat": 38.94449816666667, "rental_uris": {"ios": "https://dc.lft.to/lastmile_qr_scan", "android": "https://dc.lft.to/lastmile_qr_scan"}, "is_reserved": 0, "fusion_lon": 0.0, "fusion_lat": 0.0, "lon": -77.0280395, "name": "915464ca051942e8732b1ef6da589195"}, {"bike_id": "50607d149b03fa587e14fe70d7578146", "type": "electric_bike", "is_disabled": 0, "lat": 38.910141, "rental_uris": {"ios": "https://dc.lft.to/lastmile_qr_scan", "android": "https://dc.lft.to/lastmile_qr_scan"}, "is_reserved": 0, "fusion_lon": 0.0, "fusion_lat": 0.0, "lon": -77.2279965, "name": "50607d149b03fa587e14fe70d7578146"}, {"bike_id": "b86e8ec158f4e237eef17101b819c500", "type": "electric_scooter", "is_disabled": 0, "lat": 38.921513166666664, "rental_uris": {"ios": "https://dc.lft.to/lastmile_qr_scan", "android": "https://dc.lft.to/lastmile_qr_scan"}, "is_reserved": 0, "fusion_lon": 0.0, "fusion_lat": 0.0, "lon": -77.03531366666667, "name": "b86e8ec158f4e237eef17101b819c500"}, {"bike_id": "f9b2ebd6fd61bcf4fdc83253158691d6", "type": "electric_scooter", "is_disabled": 0, "lat": 38.90101, "rental_uris": {"ios": "https://dc.lft.to/lastmile_qr_scan", "android": "https://dc.lft.to/lastmile_qr_scan"}, "is_reserved": 0, "fusion_lon": 0.0, "fusion_lat": 0.0, "lon": -77.05783983333333, "name": "f9b2ebd6fd61bcf4fdc83253158691d6"}, {"bike_id": "0f1a643bf9cb77650a4f9d783013e5d1", "type": "electric_scooter", "is_disabled": 0, "lat": 38.9284945, "rental_uris": {"ios": "https://dc.lft.to/lastmile_qr_scan", "android": "https://dc.lft.to/lastmile_qr_scan"}, "is_reserved": 0, "fusion_lon": 0.0, "fusion_lat": 0.0, "lon": -77.019446, "name": "0f1a643bf9cb77650a4f9d783013e5d1"}, {"bike_id": "f01bb7eba54facadff7201d7f36a710e", "type": "electric_scooter", "is_disabled": 0, "lat": 38.90698016666666, "rental_uris": {"ios": "https://dc.lft.to/lastmile_qr_scan", "android": "https://dc.lft.to/lastmile_qr_scan"}, "is_reserved": 0, "fusion_lon": 0.0, "fusion_lat": 0.0, "lon": -77.0360055, "name": "f01bb7eba54facadff7201d7f36a710e"}, {"bike_id": "fec78c7409a103ed9249707906e32bb6", "type": "electric_scooter", "is_disabled": 0, "lat": 38.914046666666664, "rental_uris": {"ios": "https://dc.lft.to/lastmile_qr_scan", "android": "https://dc.lft.to/lastmile_qr_scan"}, "is_reserved": 0, "fusion_lon": 0.0, "fusion_lat": 0.0, "lon": -77.01554566666667, "name": "fec78c7409a103ed9249707906e32bb6"}, {"bike_id": "8ed5b2922bea83a07afe751c81b21746", "type": "electric_scooter", "is_disabled": 0, "lat": 38.916746333333336, "rental_uris": {"ios": "https://dc.lft.to/lastmile_qr_scan", "android": "https://dc.lft.to/lastmile_qr_scan"}, "is_reserved": 0, "fusion_lon": 0.0, "fusion_lat": 0.0, "lon": -77.03201066666666, "name": "8ed5b2922bea83a07afe751c81b21746"}, {"bike_id": "ce8e8ac3bcd9a4ee49b3a668504cf2db", "type": "electric_bike", "is_disabled": 0, "lat": 38.872749666666664, "rental_uris": {"ios": "https://dc.lft.to/lastmile_qr_scan", "android": "https://dc.lft.to/lastmile_qr_scan"}, "is_reserved": 0, "fusion_lon": 0.0, "fusion_lat": 0.0, "lon": -77.23318866666666, "name": "ce8e8ac3bcd9a4ee49b3a668504cf2db"}, {"bike_id": "5445c808ea927b8fa8d4c6d53504d4cc", "type": "electric_bike", "is_disabled": 0, "lat": 38.879375833333334, "rental_uris": {"ios": "https://dc.lft.to/lastmile_qr_scan", "android": "https://dc.lft.to/lastmile_qr_scan"}, "is_reserved": 0, "fusion_lon": 0.0, "fusion_lat": 0.0, "lon": -76.98083833333334, "name": "5445c808ea927b8fa8d4c6d53504d4cc"}, {"bike_id": "854a1d2cf5920fe8e500553444bcc556", "type": "electric_scooter", "is_disabled": 0, "lat": 38.844392666666664, "rental_uris": {"ios": "https://dc.lft.to/lastmile_qr_scan", "android": "https://dc.lft.to/lastmile_qr_scan"}, "is_reserved": 0, "fusion_lon": 0.0, "fusion_lat": 0.0, "lon": -76.9874355, "name": "854a1d2cf5920fe8e500553444bcc556"}, {"bike_id": "1476946876d31ad933c8641c69b5e251", "type": "electric_bike", "is_disabled": 0, "lat": 38.897377166666665, "rental_uris": {"ios": "https://dc.lft.to/lastmile_qr_scan", "android": "https://dc.lft.to/lastmile_qr_scan"}, "is_reserved": 0, "fusion_lon": 0.0, "fusion_lat": 0.0, "lon": -76.94251716666666, "name": "1476946876d31ad933c8641c69b5e251"}, {"bike_id": "160a26beee82e02fbf8431d94f4d89f9", "type": "electric_scooter", "is_disabled": 0, "lat": 38.85697566666666, "rental_uris": {"ios": "https://dc.lft.to/lastmile_qr_scan", "android": "https://dc.lft.to/lastmile_qr_scan"}, "is_reserved": 0, "fusion_lon": 0.0, "fusion_lat": 0.0, "lon": -76.98967016666667, "name": "160a26beee82e02fbf8431d94f4d89f9"}, {"bike_id": "a55d666532bc70de444cb50fa183ba55", "type": "electric_scooter", "is_disabled": 0, "lat": 38.912771666666664, "rental_uris": {"ios": "https://dc.lft.to/lastmile_qr_scan", "android": "https://dc.lft.to/lastmile_qr_scan"}, "is_reserved": 0, "fusion_lon": 0.0, "fusion_lat": 0.0, "lon": -77.047353, "name": "a55d666532bc70de444cb50fa183ba55"}, {"bike_id": "af634a217d5d0f292fafea3253259fdd", "type": "electric_scooter", "is_disabled": 0, "lat": 38.90057783333334, "rental_uris": {"ios": "https://dc.lft.to/lastmile_qr_scan", "android": "https://dc.lft.to/lastmile_qr_scan"}, "is_reserved": 0, "fusion_lon": 0.0, "fusion_lat": 0.0, "lon": -76.93474166666667, "name": "af634a217d5d0f292fafea3253259fdd"}, {"bike_id": "7936b641bd29cbaedb02682558900c35", "type": "electric_scooter", "is_disabled": 0, "lat": 38.93004583333333, "rental_uris": {"ios": "https://dc.lft.to/lastmile_qr_scan", "android": "https://dc.lft.to/lastmile_qr_scan"}, "is_reserved": 0, "fusion_lon": 0.0, "fusion_lat": 0.0, "lon": -77.014298, "name": "7936b641bd29cbaedb02682558900c35"}, {"bike_id": "1acaf9bd0400cfbdfc2e2179b8e7bbf8", "type": "electric_scooter", "is_disabled": 0, "lat": 38.9353145, "rental_uris": {"ios": "https://dc.lft.to/lastmile_qr_scan", "android": "https://dc.lft.to/lastmile_qr_scan"}, "is_reserved": 0, "fusion_lon": 0.0, "fusion_lat": 0.0, "lon": -77.02349016666666, "name": "1acaf9bd0400cfbdfc2e2179b8e7bbf8"}, {"bike_id": "c22783594de7a1a7f908dc8c4d9ccb16", "type": "electric_bike", "is_disabled": 0, "lat": 38.896105666666664, "rental_uris": {"ios": "https://dc.lft.to/lastmile_qr_scan", "android": "https://dc.lft.to/lastmile_qr_scan"}, "is_reserved": 0, "fusion_lon": 0.0, "fusion_lat": 0.0, "lon": -77.02220316666667, "name": "c22783594de7a1a7f908dc8c4d9ccb16"}, {"bike_id": "9bd574a36d2e987538d4f811d03e61b9", "type": "electric_scooter", "is_disabled": 0, "lat": 38.91570333333333, "rental_uris": {"ios": "https://dc.lft.to/lastmile_qr_scan", "android": "https://dc.lft.to/lastmile_qr_scan"}, "is_reserved": 0, "fusion_lon": 0.0, "fusion_lat": 0.0, "lon": -77.019976, "name": "9bd574a36d2e987538d4f811d03e61b9"}, {"bike_id": "4fc3c48eb509b9c697bd0421a34ef785", "type": "electric_scooter", "is_disabled": 0, "lat": 38.90153, "rental_uris": {"ios": "https://dc.lft.to/lastmile_qr_scan", "android": "https://dc.lft.to/lastmile_qr_scan"}, "is_reserved": 0, "fusion_lon": 0.0, "fusion_lat": 0.0, "lon": -77.02203233333333, "name": "4fc3c48eb509b9c697bd0421a34ef785"}, {"bike_id": "4fc48a79954a7e970e7edbbf7be0bccc", "type": "electric_scooter", "is_disabled": 0, "lat": 38.903626833333334, "rental_uris": {"ios": "https://dc.lft.to/lastmile_qr_scan", "android": "https://dc.lft.to/lastmile_qr_scan"}, "is_reserved": 0, "fusion_lon": 0.0, "fusion_lat": 0.0, "lon": -76.99383016666667, "name": "4fc48a79954a7e970e7edbbf7be0bccc"}, {"bike_id": "371f06bc2778b9d4b1420fe58e5c9dac", "type": "electric_scooter", "is_disabled": 0, "lat": 38.890064333333335, "rental_uris": {"ios": "https://dc.lft.to/lastmile_qr_scan", "android": "https://dc.lft.to/lastmile_qr_scan"}, "is_reserved": 0, "fusion_lon": 0.0, "fusion_lat": 0.0, "lon": -76.93745833333334, "name": "371f06bc2778b9d4b1420fe58e5c9dac"}, {"bike_id": "791369219e35c5d39c612ea7be703bc7", "type": "electric_scooter", "is_disabled": 0, "lat": 38.934455166666666, "rental_uris": {"ios": "https://dc.lft.to/lastmile_qr_scan", "android": "https://dc.lft.to/lastmile_qr_scan"}, "is_reserved": 0, "fusion_lon": 0.0, "fusion_lat": 0.0, "lon": -77.02980333333333, "name": "791369219e35c5d39c612ea7be703bc7"}, {"bike_id": "bb214717c7738d2b14c0d9d296e00c1e", "type": "electric_scooter", "is_disabled": 0, "lat": 38.9219105, "rental_uris": {"ios": "https://dc.lft.to/lastmile_qr_scan", "android": "https://dc.lft.to/lastmile_qr_scan"}, "is_reserved": 0, "fusion_lon": 0.0, "fusion_lat": 0.0, "lon": -76.99365666666667, "name": "bb214717c7738d2b14c0d9d296e00c1e"}, {"bike_id": "a8b4ebe937993a475420e31b69a76708", "type": "electric_bike", "is_disabled": 0, "lat": 39.05793083333333, "rental_uris": {"ios": "https://dc.lft.to/lastmile_qr_scan", "android": "https://dc.lft.to/lastmile_qr_scan"}, "is_reserved": 0, "fusion_lon": 0.0, "fusion_lat": 0.0, "lon": -77.15024616666666, "name": "a8b4ebe937993a475420e31b69a76708"}, {"bike_id": "5ca953977aa089d1b9c81d2ef369c6f9", "type": "electric_scooter", "is_disabled": 0, "lat": 38.934531, "rental_uris": {"ios": "https://dc.lft.to/lastmile_qr_scan", "android": "https://dc.lft.to/lastmile_qr_scan"}, "is_reserved": 0, "fusion_lon": 0.0, "fusion_lat": 0.0, "lon": -77.03049816666666, "name": "5ca953977aa089d1b9c81d2ef369c6f9"}, {"bike_id": "89e9748c128c3e4c669c6c9b516d84e1", "type": "electric_scooter", "is_disabled": 0, "lat": 38.9104145, "rental_uris": {"ios": "https://dc.lft.to/lastmile_qr_scan", "android": "https://dc.lft.to/lastmile_qr_scan"}, "is_reserved": 0, "fusion_lon": 0.0, "fusion_lat": 0.0, "lon": -77.03824583333333, "name": "89e9748c128c3e4c669c6c9b516d84e1"}, {"bike_id": "e9a4cc00a8390fdc41da69e68b7d0948", "type": "electric_scooter", "is_disabled": 0, "lat": 38.93231133333333, "rental_uris": {"ios": "https://dc.lft.to/lastmile_qr_scan", "android": "https://dc.lft.to/lastmile_qr_scan"}, "is_reserved": 0, "fusion_lon": 0.0, "fusion_lat": 0.0, "lon": -77.0339345, "name": "e9a4cc00a8390fdc41da69e68b7d0948"}, {"bike_id": "8bbb4da92ba5d0b027fae04f41185cec", "type": "electric_scooter", "is_disabled": 0, "lat": 38.920571833333334, "rental_uris": {"ios": "https://dc.lft.to/lastmile_qr_scan", "android": "https://dc.lft.to/lastmile_qr_scan"}, "is_reserved": 0, "fusion_lon": 0.0, "fusion_lat": 0.0, "lon": -77.03465366666667, "name": "8bbb4da92ba5d0b027fae04f41185cec"}, {"bike_id": "735a5890c99f0474ae458d55bccf03a3", "type": "electric_scooter", "is_disabled": 0, "lat": 38.908027, "rental_uris": {"ios": "https://dc.lft.to/lastmile_qr_scan", "android": "https://dc.lft.to/lastmile_qr_scan"}, "is_reserved": 0, "fusion_lon": 0.0, "fusion_lat": 0.0, "lon": -77.03442533333333, "name": "735a5890c99f0474ae458d55bccf03a3"}, {"bike_id": "dbbf156c989bdeb8e798404d28efc6ad", "type": "electric_scooter", "is_disabled": 0, "lat": 38.89667266666667, "rental_uris": {"ios": "https://dc.lft.to/lastmile_qr_scan", "android": "https://dc.lft.to/lastmile_qr_scan"}, "is_reserved": 0, "fusion_lon": 0.0, "fusion_lat": 0.0, "lon": -76.98817283333334, "name": "dbbf156c989bdeb8e798404d28efc6ad"}, {"bike_id": "7fe565a4952cda5213a5a32dfe8cf975", "type": "electric_scooter", "is_disabled": 0, "lat": 38.885169166666664, "rental_uris": {"ios": "https://dc.lft.to/lastmile_qr_scan", "android": "https://dc.lft.to/lastmile_qr_scan"}, "is_reserved": 0, "fusion_lon": 0.0, "fusion_lat": 0.0, "lon": -77.01545466666667, "name": "7fe565a4952cda5213a5a32dfe8cf975"}, {"bike_id": "54a5fed41ad32a0db679fd1eb560f003", "type": "electric_scooter", "is_disabled": 0, "lat": 38.9030505, "rental_uris": {"ios": "https://dc.lft.to/lastmile_qr_scan", "android": "https://dc.lft.to/lastmile_qr_scan"}, "is_reserved": 0, "fusion_lon": 0.0, "fusion_lat": 0.0, "lon": -76.9835185, "name": "54a5fed41ad32a0db679fd1eb560f003"}, {"bike_id": "720a8fa809d82650ac63ffd945695bcd", "type": "electric_scooter", "is_disabled": 0, "lat": 38.920680833333336, "rental_uris": {"ios": "https://dc.lft.to/lastmile_qr_scan", "android": "https://dc.lft.to/lastmile_qr_scan"}, "is_reserved": 0, "fusion_lon": 0.0, "fusion_lat": 0.0, "lon": -77.02369783333333, "name": "720a8fa809d82650ac63ffd945695bcd"}, {"bike_id": "568e8b3fa664e70e35ad02a85d12ebd3", "type": "electric_scooter", "is_disabled": 0, "lat": 38.898528166666665, "rental_uris": {"ios": "https://dc.lft.to/lastmile_qr_scan", "android": "https://dc.lft.to/lastmile_qr_scan"}, "is_reserved": 0, "fusion_lon": 0.0, "fusion_lat": 0.0, "lon": -77.04873566666667, "name": "568e8b3fa664e70e35ad02a85d12ebd3"}, {"bike_id": "1360c27dbc8d060cbd9954b934d96017", "type": "electric_scooter", "is_disabled": 0, "lat": 38.913585833333336, "rental_uris": {"ios": "https://dc.lft.to/lastmile_qr_scan", "android": "https://dc.lft.to/lastmile_qr_scan"}, "is_reserved": 0, "fusion_lon": 0.0, "fusion_lat": 0.0, "lon": -77.04491566666667, "name": "1360c27dbc8d060cbd9954b934d96017"}, {"bike_id": "76c4a359515c3f071404f9da0e0fd8c0", "type": "electric_scooter", "is_disabled": 0, "lat": 38.912783, "rental_uris": {"ios": "https://dc.lft.to/lastmile_qr_scan", "android": "https://dc.lft.to/lastmile_qr_scan"}, "is_reserved": 0, "fusion_lon": 0.0, "fusion_lat": 0.0, "lon": -77.02714383333333, "name": "76c4a359515c3f071404f9da0e0fd8c0"}, {"bike_id": "98ad45cdcceb70e7a2677c21da61d0bc", "type": "electric_scooter", "is_disabled": 0, "lat": 38.89193866666667, "rental_uris": {"ios": "https://dc.lft.to/lastmile_qr_scan", "android": "https://dc.lft.to/lastmile_qr_scan"}, "is_reserved": 0, "fusion_lon": 0.0, "fusion_lat": 0.0, "lon": -77.00232716666666, "name": "98ad45cdcceb70e7a2677c21da61d0bc"}, {"bike_id": "b9621dea9b3f430e401b413ab74d050c", "type": "electric_scooter", "is_disabled": 0, "lat": 38.8974455, "rental_uris": {"ios": "https://dc.lft.to/lastmile_qr_scan", "android": "https://dc.lft.to/lastmile_qr_scan"}, "is_reserved": 0, "fusion_lon": 0.0, "fusion_lat": 0.0, "lon": -77.03327166666666, "name": "b9621dea9b3f430e401b413ab74d050c"}, {"bike_id": "840ea7c37dac7dc4a192615454d68743", "type": "electric_scooter", "is_disabled": 0, "lat": 38.87070083333333, "rental_uris": {"ios": "https://dc.lft.to/lastmile_qr_scan", "android": "https://dc.lft.to/lastmile_qr_scan"}, "is_reserved": 0, "fusion_lon": 0.0, "fusion_lat": 0.0, "lon": -76.98919016666666, "name": "840ea7c37dac7dc4a192615454d68743"}, {"bike_id": "752667fe2546aa41dd70b9b276eddf3c", "type": "electric_scooter", "is_disabled": 0, "lat": 38.920911, "rental_uris": {"ios": "https://dc.lft.to/lastmile_qr_scan", "android": "https://dc.lft.to/lastmile_qr_scan"}, "is_reserved": 0, "fusion_lon": 0.0, "fusion_lat": 0.0, "lon": -77.02535966666666, "name": "752667fe2546aa41dd70b9b276eddf3c"}, {"bike_id": "d47b06ad175fbd2fcdbff15bd7efa268", "type": "electric_scooter", "is_disabled": 0, "lat": 38.902382, "rental_uris": {"ios": "https://dc.lft.to/lastmile_qr_scan", "android": "https://dc.lft.to/lastmile_qr_scan"}, "is_reserved": 0, "fusion_lon": 0.0, "fusion_lat": 0.0, "lon": -77.0020295, "name": "d47b06ad175fbd2fcdbff15bd7efa268"}, {"bike_id": "2d1419324431e05e2cd1610e22323629", "type": "electric_scooter", "is_disabled": 0, "lat": 38.90679633333333, "rental_uris": {"ios": "https://dc.lft.to/lastmile_qr_scan", "android": "https://dc.lft.to/lastmile_qr_scan"}, "is_reserved": 0, "fusion_lon": 0.0, "fusion_lat": 0.0, "lon": -77.07168316666667, "name": "2d1419324431e05e2cd1610e22323629"}, {"bike_id": "e24977153814bd5db9f09d1002f0fadd", "type": "electric_scooter", "is_disabled": 0, "lat": 38.919134166666666, "rental_uris": {"ios": "https://dc.lft.to/lastmile_qr_scan", "android": "https://dc.lft.to/lastmile_qr_scan"}, "is_reserved": 0, "fusion_lon": 0.0, "fusion_lat": 0.0, "lon": -77.029438, "name": "e24977153814bd5db9f09d1002f0fadd"}, {"bike_id": "e013582e5c2873486b765dcff6c1310d", "type": "electric_bike", "is_disabled": 0, "lat": 38.932348, "rental_uris": {"ios": "https://dc.lft.to/lastmile_qr_scan", "android": "https://dc.lft.to/lastmile_qr_scan"}, "is_reserved": 0, "fusion_lon": 0.0, "fusion_lat": 0.0, "lon": -76.974266, "name": "e013582e5c2873486b765dcff6c1310d"}, {"bike_id": "96e0675f90a6ff3385209781c8e421be", "type": "electric_scooter", "is_disabled": 0, "lat": 38.9064985, "rental_uris": {"ios": "https://dc.lft.to/lastmile_qr_scan", "android": "https://dc.lft.to/lastmile_qr_scan"}, "is_reserved": 0, "fusion_lon": 0.0, "fusion_lat": 0.0, "lon": -77.01462316666667, "name": "96e0675f90a6ff3385209781c8e421be"}, {"bike_id": "ef5dc28bcad1012f8398f377266a5e71", "type": "electric_scooter", "is_disabled": 0, "lat": 38.900583166666664, "rental_uris": {"ios": "https://dc.lft.to/lastmile_qr_scan", "android": "https://dc.lft.to/lastmile_qr_scan"}, "is_reserved": 0, "fusion_lon": 0.0, "fusion_lat": 0.0, "lon": -77.03513433333333, "name": "ef5dc28bcad1012f8398f377266a5e71"}, {"bike_id": "3e0a77e3ff0ede01ccba909fa4bbbf94", "type": "electric_scooter", "is_disabled": 0, "lat": 38.90659616666667, "rental_uris": {"ios": "https://dc.lft.to/lastmile_qr_scan", "android": "https://dc.lft.to/lastmile_qr_scan"}, "is_reserved": 0, "fusion_lon": 0.0, "fusion_lat": 0.0, "lon": -77.07181833333334, "name": "3e0a77e3ff0ede01ccba909fa4bbbf94"}, {"bike_id": "55995c01347bdc31984a68dd6b30c245", "type": "electric_scooter", "is_disabled": 0, "lat": 38.92706, "rental_uris": {"ios": "https://dc.lft.to/lastmile_qr_scan", "android": "https://dc.lft.to/lastmile_qr_scan"}, "is_reserved": 0, "fusion_lon": 0.0, "fusion_lat": 0.0, "lon": -77.02329733333333, "name": "55995c01347bdc31984a68dd6b30c245"}, {"bike_id": "9c392631b8119e56e5f91d70972f6eb6", "type": "electric_scooter", "is_disabled": 0, "lat": 38.9033225, "rental_uris": {"ios": "https://dc.lft.to/lastmile_qr_scan", "android": "https://dc.lft.to/lastmile_qr_scan"}, "is_reserved": 0, "fusion_lon": 0.0, "fusion_lat": 0.0, "lon": -77.06926316666667, "name": "9c392631b8119e56e5f91d70972f6eb6"}, {"bike_id": "2d2a9a3a26f272dae811df143ea63771", "type": "electric_scooter", "is_disabled": 0, "lat": 38.98431633333333, "rental_uris": {"ios": "https://dc.lft.to/lastmile_qr_scan", "android": "https://dc.lft.to/lastmile_qr_scan"}, "is_reserved": 0, "fusion_lon": 0.0, "fusion_lat": 0.0, "lon": -77.02674433333334, "name": "2d2a9a3a26f272dae811df143ea63771"}, {"bike_id": "db8f9482b8c60edc2cd3bab2eb2195e6", "type": "electric_scooter", "is_disabled": 0, "lat": 38.90736166666667, "rental_uris": {"ios": "https://dc.lft.to/lastmile_qr_scan", "android": "https://dc.lft.to/lastmile_qr_scan"}, "is_reserved": 0, "fusion_lon": 0.0, "fusion_lat": 0.0, "lon": -77.029528, "name": "db8f9482b8c60edc2cd3bab2eb2195e6"}, {"bike_id": "c2f29bde3a202e05dc38d297fff49037", "type": "electric_scooter", "is_disabled": 0, "lat": 38.862465, "rental_uris": {"ios": "https://dc.lft.to/lastmile_qr_scan", "android": "https://dc.lft.to/lastmile_qr_scan"}, "is_reserved": 0, "fusion_lon": 0.0, "fusion_lat": 0.0, "lon": -76.99500716666667, "name": "c2f29bde3a202e05dc38d297fff49037"}, {"bike_id": "c6b1739a51217581850b4414e9b2f912", "type": "electric_scooter", "is_disabled": 0, "lat": 38.90392033333333, "rental_uris": {"ios": "https://dc.lft.to/lastmile_qr_scan", "android": "https://dc.lft.to/lastmile_qr_scan"}, "is_reserved": 0, "fusion_lon": 0.0, "fusion_lat": 0.0, "lon": -76.98942216666667, "name": "c6b1739a51217581850b4414e9b2f912"}, {"bike_id": "a405f494fc68b6001b02c5ff0ee41d89", "type": "electric_scooter", "is_disabled": 0, "lat": 38.91910883333333, "rental_uris": {"ios": "https://dc.lft.to/lastmile_qr_scan", "android": "https://dc.lft.to/lastmile_qr_scan"}, "is_reserved": 0, "fusion_lon": 0.0, "fusion_lat": 0.0, "lon": -77.04471533333333, "name": "a405f494fc68b6001b02c5ff0ee41d89"}, {"bike_id": "1745a3002c39bf6b51408842dc6ed385", "type": "electric_scooter", "is_disabled": 0, "lat": 38.957829333333336, "rental_uris": {"ios": "https://dc.lft.to/lastmile_qr_scan", "android": "https://dc.lft.to/lastmile_qr_scan"}, "is_reserved": 0, "fusion_lon": 0.0, "fusion_lat": 0.0, "lon": -77.01994983333333, "name": "1745a3002c39bf6b51408842dc6ed385"}, {"bike_id": "8aea0fb308d571dc5872d5e2cda5b849", "type": "electric_scooter", "is_disabled": 0, "lat": 38.90040966666667, "rental_uris": {"ios": "https://dc.lft.to/lastmile_qr_scan", "android": "https://dc.lft.to/lastmile_qr_scan"}, "is_reserved": 0, "fusion_lon": 0.0, "fusion_lat": 0.0, "lon": -77.01780783333334, "name": "8aea0fb308d571dc5872d5e2cda5b849"}, {"bike_id": "161bf99cbfabc47379830942cfe7efe3", "type": "electric_scooter", "is_disabled": 0, "lat": 38.96193383333333, "rental_uris": {"ios": "https://dc.lft.to/lastmile_qr_scan", "android": "https://dc.lft.to/lastmile_qr_scan"}, "is_reserved": 0, "fusion_lon": 0.0, "fusion_lat": 0.0, "lon": -77.028048, "name": "161bf99cbfabc47379830942cfe7efe3"}, {"bike_id": "97602e463738f86774e22cafe58a61bd", "type": "electric_scooter", "is_disabled": 0, "lat": 38.93774466666667, "rental_uris": {"ios": "https://dc.lft.to/lastmile_qr_scan", "android": "https://dc.lft.to/lastmile_qr_scan"}, "is_reserved": 0, "fusion_lon": 0.0, "fusion_lat": 0.0, "lon": -77.01974416666667, "name": "97602e463738f86774e22cafe58a61bd"}, {"bike_id": "caea5dffd148053d881bc0f8902974fd", "type": "electric_scooter", "is_disabled": 0, "lat": 38.9246595, "rental_uris": {"ios": "https://dc.lft.to/lastmile_qr_scan", "android": "https://dc.lft.to/lastmile_qr_scan"}, "is_reserved": 0, "fusion_lon": 0.0, "fusion_lat": 0.0, "lon": -77.04380633333334, "name": "caea5dffd148053d881bc0f8902974fd"}, {"bike_id": "f001fd4e297982e9d6fca15e4d0899f3", "type": "electric_scooter", "is_disabled": 0, "lat": 38.912571166666666, "rental_uris": {"ios": "https://dc.lft.to/lastmile_qr_scan", "android": "https://dc.lft.to/lastmile_qr_scan"}, "is_reserved": 0, "fusion_lon": 0.0, "fusion_lat": 0.0, "lon": -77.04439966666666, "name": "f001fd4e297982e9d6fca15e4d0899f3"}, {"bike_id": "9cfbf77343a26346cbb0dfc76b1e7459", "type": "electric_scooter", "is_disabled": 0, "lat": 38.85895583333333, "rental_uris": {"ios": "https://dc.lft.to/lastmile_qr_scan", "android": "https://dc.lft.to/lastmile_qr_scan"}, "is_reserved": 0, "fusion_lon": 0.0, "fusion_lat": 0.0, "lon": -76.99729, "name": "9cfbf77343a26346cbb0dfc76b1e7459"}, {"bike_id": "289ce804d73b2293bd1d60a4445853be", "type": "electric_scooter", "is_disabled": 0, "lat": 38.911986, "rental_uris": {"ios": "https://dc.lft.to/lastmile_qr_scan", "android": "https://dc.lft.to/lastmile_qr_scan"}, "is_reserved": 0, "fusion_lon": 0.0, "fusion_lat": 0.0, "lon": -77.00394966666667, "name": "289ce804d73b2293bd1d60a4445853be"}, {"bike_id": "60f910e78510ee07171e166bd3946fed", "type": "electric_scooter", "is_disabled": 0, "lat": 38.89982066666666, "rental_uris": {"ios": "https://dc.lft.to/lastmile_qr_scan", "android": "https://dc.lft.to/lastmile_qr_scan"}, "is_reserved": 0, "fusion_lon": 0.0, "fusion_lat": 0.0, "lon": -76.98571866666667, "name": "60f910e78510ee07171e166bd3946fed"}, {"bike_id": "232a55dadf1f6921439d8cd84253886e", "type": "electric_scooter", "is_disabled": 0, "lat": 38.916380833333335, "rental_uris": {"ios": "https://dc.lft.to/lastmile_qr_scan", "android": "https://dc.lft.to/lastmile_qr_scan"}, "is_reserved": 0, "fusion_lon": 0.0, "fusion_lat": 0.0, "lon": -77.039778, "name": "232a55dadf1f6921439d8cd84253886e"}, {"bike_id": "5c4444a470e78f5ee4cb78c5782cdb78", "type": "electric_scooter", "is_disabled": 0, "lat": 38.90286316666667, "rental_uris": {"ios": "https://dc.lft.to/lastmile_qr_scan", "android": "https://dc.lft.to/lastmile_qr_scan"}, "is_reserved": 0, "fusion_lon": 0.0, "fusion_lat": 0.0, "lon": -77.00367133333333, "name": "5c4444a470e78f5ee4cb78c5782cdb78"}, {"bike_id": "68959dca315f3dc1dbc0e93d19f184d4", "type": "electric_scooter", "is_disabled": 0, "lat": 38.9184565, "rental_uris": {"ios": "https://dc.lft.to/lastmile_qr_scan", "android": "https://dc.lft.to/lastmile_qr_scan"}, "is_reserved": 0, "fusion_lon": 0.0, "fusion_lat": 0.0, "lon": -77.03883366666666, "name": "68959dca315f3dc1dbc0e93d19f184d4"}, {"bike_id": "dd6199dfb6f815997814607a87ff726d", "type": "electric_scooter", "is_disabled": 0, "lat": 38.899870166666666, "rental_uris": {"ios": "https://dc.lft.to/lastmile_qr_scan", "android": "https://dc.lft.to/lastmile_qr_scan"}, "is_reserved": 0, "fusion_lon": 0.0, "fusion_lat": 0.0, "lon": -76.95002416666667, "name": "dd6199dfb6f815997814607a87ff726d"}, {"bike_id": "d448587e651db1067612928bd4f6bb54", "type": "electric_bike", "is_disabled": 0, "lat": 38.863325, "rental_uris": {"ios": "https://dc.lft.to/lastmile_qr_scan", "android": "https://dc.lft.to/lastmile_qr_scan"}, "is_reserved": 0, "fusion_lon": 0.0, "fusion_lat": 0.0, "lon": -76.98722616666667, "name": "d448587e651db1067612928bd4f6bb54"}, {"bike_id": "868c6913c8aa4aea381cdfc807c30dc3", "type": "electric_scooter", "is_disabled": 0, "lat": 38.893413, "rental_uris": {"ios": "https://dc.lft.to/lastmile_qr_scan", "android": "https://dc.lft.to/lastmile_qr_scan"}, "is_reserved": 0, "fusion_lon": 0.0, "fusion_lat": 0.0, "lon": -76.9938505, "name": "868c6913c8aa4aea381cdfc807c30dc3"}, {"bike_id": "78a5b6aa3e36b302c54a828093185094", "type": "electric_scooter", "is_disabled": 0, "lat": 38.931732, "rental_uris": {"ios": "https://dc.lft.to/lastmile_qr_scan", "android": "https://dc.lft.to/lastmile_qr_scan"}, "is_reserved": 0, "fusion_lon": 0.0, "fusion_lat": 0.0, "lon": -77.02814816666667, "name": "78a5b6aa3e36b302c54a828093185094"}, {"bike_id": "b9ce1bbd9e2140b90e81829b99d906e2", "type": "electric_scooter", "is_disabled": 0, "lat": 38.91634033333333, "rental_uris": {"ios": "https://dc.lft.to/lastmile_qr_scan", "android": "https://dc.lft.to/lastmile_qr_scan"}, "is_reserved": 0, "fusion_lon": 0.0, "fusion_lat": 0.0, "lon": -77.029621, "name": "b9ce1bbd9e2140b90e81829b99d906e2"}, {"bike_id": "e99772ef0d31604487f715fd2c5ada73", "type": "electric_scooter", "is_disabled": 0, "lat": 38.914896666666664, "rental_uris": {"ios": "https://dc.lft.to/lastmile_qr_scan", "android": "https://dc.lft.to/lastmile_qr_scan"}, "is_reserved": 0, "fusion_lon": 0.0, "fusion_lat": 0.0, "lon": -76.98578133333334, "name": "e99772ef0d31604487f715fd2c5ada73"}, {"bike_id": "bc30b15d347cfd30442c3e34cfcd6d2e", "type": "electric_scooter", "is_disabled": 0, "lat": 38.9259265, "rental_uris": {"ios": "https://dc.lft.to/lastmile_qr_scan", "android": "https://dc.lft.to/lastmile_qr_scan"}, "is_reserved": 0, "fusion_lon": 0.0, "fusion_lat": 0.0, "lon": -77.008338, "name": "bc30b15d347cfd30442c3e34cfcd6d2e"}, {"bike_id": "407b069e84b17881989831b15ba747b0", "type": "electric_scooter", "is_disabled": 0, "lat": 38.90960583333333, "rental_uris": {"ios": "https://dc.lft.to/lastmile_qr_scan", "android": "https://dc.lft.to/lastmile_qr_scan"}, "is_reserved": 0, "fusion_lon": 0.0, "fusion_lat": 0.0, "lon": -77.040539, "name": "407b069e84b17881989831b15ba747b0"}, {"bike_id": "79837599d77424546005e3b91c2e6594", "type": "electric_scooter", "is_disabled": 0, "lat": 38.90029283333333, "rental_uris": {"ios": "https://dc.lft.to/lastmile_qr_scan", "android": "https://dc.lft.to/lastmile_qr_scan"}, "is_reserved": 0, "fusion_lon": 0.0, "fusion_lat": 0.0, "lon": -76.980604, "name": "79837599d77424546005e3b91c2e6594"}, {"bike_id": "39313b3d9de012479f86103397e3ca3b", "type": "electric_scooter", "is_disabled": 0, "lat": 38.920428, "rental_uris": {"ios": "https://dc.lft.to/lastmile_qr_scan", "android": "https://dc.lft.to/lastmile_qr_scan"}, "is_reserved": 0, "fusion_lon": 0.0, "fusion_lat": 0.0, "lon": -77.0344655, "name": "39313b3d9de012479f86103397e3ca3b"}, {"bike_id": "0611285b1ade86fa69d7cbb3f0fd067f", "type": "electric_scooter", "is_disabled": 0, "lat": 38.9317855, "rental_uris": {"ios": "https://dc.lft.to/lastmile_qr_scan", "android": "https://dc.lft.to/lastmile_qr_scan"}, "is_reserved": 0, "fusion_lon": 0.0, "fusion_lat": 0.0, "lon": -77.042963, "name": "0611285b1ade86fa69d7cbb3f0fd067f"}, {"bike_id": "ee5e0d65e04ba66df8e9e0aacbc7ca5f", "type": "electric_scooter", "is_disabled": 0, "lat": 38.901582833333336, "rental_uris": {"ios": "https://dc.lft.to/lastmile_qr_scan", "android": "https://dc.lft.to/lastmile_qr_scan"}, "is_reserved": 0, "fusion_lon": 0.0, "fusion_lat": 0.0, "lon": -77.02213716666667, "name": "ee5e0d65e04ba66df8e9e0aacbc7ca5f"}, {"bike_id": "eb9c58f545aaee11ecac6a6dc4c456a8", "type": "electric_scooter", "is_disabled": 0, "lat": 38.90543616666667, "rental_uris": {"ios": "https://dc.lft.to/lastmile_qr_scan", "android": "https://dc.lft.to/lastmile_qr_scan"}, "is_reserved": 0, "fusion_lon": 0.0, "fusion_lat": 0.0, "lon": -77.005473, "name": "eb9c58f545aaee11ecac6a6dc4c456a8"}, {"bike_id": "aa4ff9e59ea00caea338be95f44a79ec", "type": "electric_scooter", "is_disabled": 0, "lat": 38.8771455, "rental_uris": {"ios": "https://dc.lft.to/lastmile_qr_scan", "android": "https://dc.lft.to/lastmile_qr_scan"}, "is_reserved": 0, "fusion_lon": 0.0, "fusion_lat": 0.0, "lon": -77.017639, "name": "aa4ff9e59ea00caea338be95f44a79ec"}, {"bike_id": "736372f78457fd1285e673abbc273c38", "type": "electric_scooter", "is_disabled": 0, "lat": 38.88606683333333, "rental_uris": {"ios": "https://dc.lft.to/lastmile_qr_scan", "android": "https://dc.lft.to/lastmile_qr_scan"}, "is_reserved": 0, "fusion_lon": 0.0, "fusion_lat": 0.0, "lon": -77.02836783333333, "name": "736372f78457fd1285e673abbc273c38"}, {"bike_id": "65ac1c9af4cf9b4d6c21d57a357bb1ff", "type": "electric_scooter", "is_disabled": 0, "lat": 38.844354833333334, "rental_uris": {"ios": "https://dc.lft.to/lastmile_qr_scan", "android": "https://dc.lft.to/lastmile_qr_scan"}, "is_reserved": 0, "fusion_lon": 0.0, "fusion_lat": 0.0, "lon": -76.9977645, "name": "65ac1c9af4cf9b4d6c21d57a357bb1ff"}, {"bike_id": "05303540bfdecb40d64130122a08e0f2", "type": "electric_scooter", "is_disabled": 0, "lat": 38.9073825, "rental_uris": {"ios": "https://dc.lft.to/lastmile_qr_scan", "android": "https://dc.lft.to/lastmile_qr_scan"}, "is_reserved": 0, "fusion_lon": 0.0, "fusion_lat": 0.0, "lon": -77.06338816666667, "name": "05303540bfdecb40d64130122a08e0f2"}, {"bike_id": "1478a973f5c0658de7e495c3eaade14f", "type": "electric_scooter", "is_disabled": 0, "lat": 38.90914866666667, "rental_uris": {"ios": "https://dc.lft.to/lastmile_qr_scan", "android": "https://dc.lft.to/lastmile_qr_scan"}, "is_reserved": 0, "fusion_lon": 0.0, "fusion_lat": 0.0, "lon": -77.04501983333333, "name": "1478a973f5c0658de7e495c3eaade14f"}, {"bike_id": "98fe962a765e63770a9291d42d7e37d8", "type": "electric_scooter", "is_disabled": 0, "lat": 38.92859166666667, "rental_uris": {"ios": "https://dc.lft.to/lastmile_qr_scan", "android": "https://dc.lft.to/lastmile_qr_scan"}, "is_reserved": 0, "fusion_lon": 0.0, "fusion_lat": 0.0, "lon": -77.05444633333333, "name": "98fe962a765e63770a9291d42d7e37d8"}, {"bike_id": "e8f617ecc7463dd925ac94870a13d750", "type": "electric_scooter", "is_disabled": 0, "lat": 38.91699633333333, "rental_uris": {"ios": "https://dc.lft.to/lastmile_qr_scan", "android": "https://dc.lft.to/lastmile_qr_scan"}, "is_reserved": 0, "fusion_lon": 0.0, "fusion_lat": 0.0, "lon": -77.03183366666667, "name": "e8f617ecc7463dd925ac94870a13d750"}, {"bike_id": "f917cf1605d2e815c1eeaf1539fc553d", "type": "electric_scooter", "is_disabled": 0, "lat": 38.90247816666667, "rental_uris": {"ios": "https://dc.lft.to/lastmile_qr_scan", "android": "https://dc.lft.to/lastmile_qr_scan"}, "is_reserved": 0, "fusion_lon": 0.0, "fusion_lat": 0.0, "lon": -77.01858866666667, "name": "f917cf1605d2e815c1eeaf1539fc553d"}, {"bike_id": "e00abbfcee76fc2ece0ac95c273a054e", "type": "electric_scooter", "is_disabled": 0, "lat": 38.922715333333336, "rental_uris": {"ios": "https://dc.lft.to/lastmile_qr_scan", "android": "https://dc.lft.to/lastmile_qr_scan"}, "is_reserved": 0, "fusion_lon": 0.0, "fusion_lat": 0.0, "lon": -77.0328095, "name": "e00abbfcee76fc2ece0ac95c273a054e"}, {"bike_id": "b25ad895f5778117deb2dc6474199799", "type": "electric_scooter", "is_disabled": 0, "lat": 38.90734233333333, "rental_uris": {"ios": "https://dc.lft.to/lastmile_qr_scan", "android": "https://dc.lft.to/lastmile_qr_scan"}, "is_reserved": 0, "fusion_lon": 0.0, "fusion_lat": 0.0, "lon": -77.02957166666667, "name": "b25ad895f5778117deb2dc6474199799"}, {"bike_id": "78a1e7eb8d80f0f03334efa23bdd26ea", "type": "electric_bike", "is_disabled": 0, "lat": 38.9083625, "rental_uris": {"ios": "https://dc.lft.to/lastmile_qr_scan", "android": "https://dc.lft.to/lastmile_qr_scan"}, "is_reserved": 0, "fusion_lon": 0.0, "fusion_lat": 0.0, "lon": -76.9331155, "name": "78a1e7eb8d80f0f03334efa23bdd26ea"}, {"bike_id": "f7c51e8f3a15420187f6156c545d588b", "type": "electric_scooter", "is_disabled": 0, "lat": 38.87096583333334, "rental_uris": {"ios": "https://dc.lft.to/lastmile_qr_scan", "android": "https://dc.lft.to/lastmile_qr_scan"}, "is_reserved": 0, "fusion_lon": 0.0, "fusion_lat": 0.0, "lon": -77.012119, "name": "f7c51e8f3a15420187f6156c545d588b"}, {"bike_id": "d57c7a522d51b2d842591e99b7ad7966", "type": "electric_scooter", "is_disabled": 0, "lat": 38.909819666666664, "rental_uris": {"ios": "https://dc.lft.to/lastmile_qr_scan", "android": "https://dc.lft.to/lastmile_qr_scan"}, "is_reserved": 0, "fusion_lon": 0.0, "fusion_lat": 0.0, "lon": -77.031816, "name": "d57c7a522d51b2d842591e99b7ad7966"}, {"bike_id": "53aef0281dae7c793b8373d5b6969031", "type": "electric_scooter", "is_disabled": 0, "lat": 38.88399783333333, "rental_uris": {"ios": "https://dc.lft.to/lastmile_qr_scan", "android": "https://dc.lft.to/lastmile_qr_scan"}, "is_reserved": 0, "fusion_lon": 0.0, "fusion_lat": 0.0, "lon": -76.95396683333334, "name": "53aef0281dae7c793b8373d5b6969031"}, {"bike_id": "5bbe7ab5d2b240c0f4223ed7f7af0158", "type": "electric_scooter", "is_disabled": 0, "lat": 38.9056985, "rental_uris": {"ios": "https://dc.lft.to/lastmile_qr_scan", "android": "https://dc.lft.to/lastmile_qr_scan"}, "is_reserved": 0, "fusion_lon": 0.0, "fusion_lat": 0.0, "lon": -76.97628716666667, "name": "5bbe7ab5d2b240c0f4223ed7f7af0158"}, {"bike_id": "16fce8337e2637f96f110d46f026331a", "type": "electric_scooter", "is_disabled": 0, "lat": 38.903229833333334, "rental_uris": {"ios": "https://dc.lft.to/lastmile_qr_scan", "android": "https://dc.lft.to/lastmile_qr_scan"}, "is_reserved": 0, "fusion_lon": 0.0, "fusion_lat": 0.0, "lon": -76.99419816666666, "name": "16fce8337e2637f96f110d46f026331a"}, {"bike_id": "ae98bb3893879473a52b0baa6a0ae613", "type": "electric_scooter", "is_disabled": 0, "lat": 38.90213933333333, "rental_uris": {"ios": "https://dc.lft.to/lastmile_qr_scan", "android": "https://dc.lft.to/lastmile_qr_scan"}, "is_reserved": 0, "fusion_lon": 0.0, "fusion_lat": 0.0, "lon": -77.022131, "name": "ae98bb3893879473a52b0baa6a0ae613"}, {"bike_id": "40faf4c10c3be9432b6fce4a50c5a756", "type": "electric_scooter", "is_disabled": 0, "lat": 38.905432833333336, "rental_uris": {"ios": "https://dc.lft.to/lastmile_qr_scan", "android": "https://dc.lft.to/lastmile_qr_scan"}, "is_reserved": 0, "fusion_lon": 0.0, "fusion_lat": 0.0, "lon": -77.03829766666667, "name": "40faf4c10c3be9432b6fce4a50c5a756"}, {"bike_id": "5774dfef1f4b44fcbb1ea23202d40d8b", "type": "electric_scooter", "is_disabled": 0, "lat": 38.924912166666665, "rental_uris": {"ios": "https://dc.lft.to/lastmile_qr_scan", "android": "https://dc.lft.to/lastmile_qr_scan"}, "is_reserved": 0, "fusion_lon": 0.0, "fusion_lat": 0.0, "lon": -77.05758116666667, "name": "5774dfef1f4b44fcbb1ea23202d40d8b"}, {"bike_id": "d1fac96c4810caa567837bd78f327c7a", "type": "electric_scooter", "is_disabled": 0, "lat": 38.90402733333333, "rental_uris": {"ios": "https://dc.lft.to/lastmile_qr_scan", "android": "https://dc.lft.to/lastmile_qr_scan"}, "is_reserved": 0, "fusion_lon": 0.0, "fusion_lat": 0.0, "lon": -77.06310316666666, "name": "d1fac96c4810caa567837bd78f327c7a"}, {"bike_id": "e5e583c0b4633a8c7bf864aa92218b30", "type": "electric_scooter", "is_disabled": 0, "lat": 38.9364065, "rental_uris": {"ios": "https://dc.lft.to/lastmile_qr_scan", "android": "https://dc.lft.to/lastmile_qr_scan"}, "is_reserved": 0, "fusion_lon": 0.0, "fusion_lat": 0.0, "lon": -77.05887933333334, "name": "e5e583c0b4633a8c7bf864aa92218b30"}, {"bike_id": "dde548de178738e0f2899367d0f9c5a5", "type": "electric_scooter", "is_disabled": 0, "lat": 38.906435333333334, "rental_uris": {"ios": "https://dc.lft.to/lastmile_qr_scan", "android": "https://dc.lft.to/lastmile_qr_scan"}, "is_reserved": 0, "fusion_lon": 0.0, "fusion_lat": 0.0, "lon": -77.01431916666667, "name": "dde548de178738e0f2899367d0f9c5a5"}, {"bike_id": "1ccef81434cc2ae90788b35553bfe1e7", "type": "electric_scooter", "is_disabled": 0, "lat": 38.910749833333334, "rental_uris": {"ios": "https://dc.lft.to/lastmile_qr_scan", "android": "https://dc.lft.to/lastmile_qr_scan"}, "is_reserved": 0, "fusion_lon": 0.0, "fusion_lat": 0.0, "lon": -77.03727433333333, "name": "1ccef81434cc2ae90788b35553bfe1e7"}, {"bike_id": "1d0964c34c750321a4dddd271db0d957", "type": "electric_scooter", "is_disabled": 0, "lat": 38.9420985, "rental_uris": {"ios": "https://dc.lft.to/lastmile_qr_scan", "android": "https://dc.lft.to/lastmile_qr_scan"}, "is_reserved": 0, "fusion_lon": 0.0, "fusion_lat": 0.0, "lon": -77.0258465, "name": "1d0964c34c750321a4dddd271db0d957"}, {"bike_id": "f871ae33b63dc9a171bf61255265552b", "type": "electric_scooter", "is_disabled": 0, "lat": 38.89875716666667, "rental_uris": {"ios": "https://dc.lft.to/lastmile_qr_scan", "android": "https://dc.lft.to/lastmile_qr_scan"}, "is_reserved": 0, "fusion_lon": 0.0, "fusion_lat": 0.0, "lon": -76.93184633333334, "name": "f871ae33b63dc9a171bf61255265552b"}, {"bike_id": "ace3a21ab9d6090727bcb615322f8266", "type": "electric_scooter", "is_disabled": 0, "lat": 38.9035385, "rental_uris": {"ios": "https://dc.lft.to/lastmile_qr_scan", "android": "https://dc.lft.to/lastmile_qr_scan"}, "is_reserved": 0, "fusion_lon": 0.0, "fusion_lat": 0.0, "lon": -77.04497366666666, "name": "ace3a21ab9d6090727bcb615322f8266"}, {"bike_id": "704e90d17d3000a366f2c4b69fb040ed", "type": "electric_scooter", "is_disabled": 0, "lat": 38.90683716666667, "rental_uris": {"ios": "https://dc.lft.to/lastmile_qr_scan", "android": "https://dc.lft.to/lastmile_qr_scan"}, "is_reserved": 0, "fusion_lon": 0.0, "fusion_lat": 0.0, "lon": -77.02696066666667, "name": "704e90d17d3000a366f2c4b69fb040ed"}, {"bike_id": "37a38b22d654b8c2551b22ff04dccfa8", "type": "electric_scooter", "is_disabled": 0, "lat": 38.9238625, "rental_uris": {"ios": "https://dc.lft.to/lastmile_qr_scan", "android": "https://dc.lft.to/lastmile_qr_scan"}, "is_reserved": 0, "fusion_lon": 0.0, "fusion_lat": 0.0, "lon": -77.0260265, "name": "37a38b22d654b8c2551b22ff04dccfa8"}, {"bike_id": "5c99ab18dc5194d16aae5e410bf06e64", "type": "electric_scooter", "is_disabled": 0, "lat": 38.91355733333333, "rental_uris": {"ios": "https://dc.lft.to/lastmile_qr_scan", "android": "https://dc.lft.to/lastmile_qr_scan"}, "is_reserved": 0, "fusion_lon": 0.0, "fusion_lat": 0.0, "lon": -77.02568533333333, "name": "5c99ab18dc5194d16aae5e410bf06e64"}, {"bike_id": "0c1de0500efaf791cf545a873ab0bc7d", "type": "electric_scooter", "is_disabled": 0, "lat": 38.9000425, "rental_uris": {"ios": "https://dc.lft.to/lastmile_qr_scan", "android": "https://dc.lft.to/lastmile_qr_scan"}, "is_reserved": 0, "fusion_lon": 0.0, "fusion_lat": 0.0, "lon": -77.0465985, "name": "0c1de0500efaf791cf545a873ab0bc7d"}, {"bike_id": "0b24b264ac10f6271ac819e82282063a", "type": "electric_scooter", "is_disabled": 0, "lat": 38.89614016666667, "rental_uris": {"ios": "https://dc.lft.to/lastmile_qr_scan", "android": "https://dc.lft.to/lastmile_qr_scan"}, "is_reserved": 0, "fusion_lon": 0.0, "fusion_lat": 0.0, "lon": -76.98164366666667, "name": "0b24b264ac10f6271ac819e82282063a"}, {"bike_id": "d24975e565f312ce15507bf3dc8c30db", "type": "electric_scooter", "is_disabled": 0, "lat": 38.91566533333334, "rental_uris": {"ios": "https://dc.lft.to/lastmile_qr_scan", "android": "https://dc.lft.to/lastmile_qr_scan"}, "is_reserved": 0, "fusion_lon": 0.0, "fusion_lat": 0.0, "lon": -77.01999733333334, "name": "d24975e565f312ce15507bf3dc8c30db"}, {"bike_id": "7a338abe2a320a56abc06c3fea3fca93", "type": "electric_scooter", "is_disabled": 0, "lat": 38.89531566666667, "rental_uris": {"ios": "https://dc.lft.to/lastmile_qr_scan", "android": "https://dc.lft.to/lastmile_qr_scan"}, "is_reserved": 0, "fusion_lon": 0.0, "fusion_lat": 0.0, "lon": -77.0111385, "name": "7a338abe2a320a56abc06c3fea3fca93"}, {"bike_id": "b01dca47234ac919ecec5f2523f67ac2", "type": "electric_scooter", "is_disabled": 0, "lat": 38.91756566666667, "rental_uris": {"ios": "https://dc.lft.to/lastmile_qr_scan", "android": "https://dc.lft.to/lastmile_qr_scan"}, "is_reserved": 0, "fusion_lon": 0.0, "fusion_lat": 0.0, "lon": -77.04767233333334, "name": "b01dca47234ac919ecec5f2523f67ac2"}, {"bike_id": "9b6a889835a5b4c29bbde288bd12e36b", "type": "electric_scooter", "is_disabled": 0, "lat": 38.91116383333333, "rental_uris": {"ios": "https://dc.lft.to/lastmile_qr_scan", "android": "https://dc.lft.to/lastmile_qr_scan"}, "is_reserved": 0, "fusion_lon": 0.0, "fusion_lat": 0.0, "lon": -77.04479466666666, "name": "9b6a889835a5b4c29bbde288bd12e36b"}, {"bike_id": "71fa6a42b666072de5abcb54552ef263", "type": "electric_scooter", "is_disabled": 0, "lat": 38.908118333333334, "rental_uris": {"ios": "https://dc.lft.to/lastmile_qr_scan", "android": "https://dc.lft.to/lastmile_qr_scan"}, "is_reserved": 0, "fusion_lon": 0.0, "fusion_lat": 0.0, "lon": -77.03449566666667, "name": "71fa6a42b666072de5abcb54552ef263"}, {"bike_id": "a6b3ba9398f6491682e866c0dcefc0c7", "type": "electric_bike", "is_disabled": 0, "lat": 38.87934283333333, "rental_uris": {"ios": "https://dc.lft.to/lastmile_qr_scan", "android": "https://dc.lft.to/lastmile_qr_scan"}, "is_reserved": 0, "fusion_lon": 0.0, "fusion_lat": 0.0, "lon": -76.980834, "name": "a6b3ba9398f6491682e866c0dcefc0c7"}, {"bike_id": "d1bac6140ae81b08e9a9d01cddb63cef", "type": "electric_scooter", "is_disabled": 0, "lat": 38.905005333333335, "rental_uris": {"ios": "https://dc.lft.to/lastmile_qr_scan", "android": "https://dc.lft.to/lastmile_qr_scan"}, "is_reserved": 0, "fusion_lon": 0.0, "fusion_lat": 0.0, "lon": -77.061175, "name": "d1bac6140ae81b08e9a9d01cddb63cef"}, {"bike_id": "19f5893c6589b2624870cd38c380ca9b", "type": "electric_scooter", "is_disabled": 0, "lat": 38.902711333333336, "rental_uris": {"ios": "https://dc.lft.to/lastmile_qr_scan", "android": "https://dc.lft.to/lastmile_qr_scan"}, "is_reserved": 0, "fusion_lon": 0.0, "fusion_lat": 0.0, "lon": -77.01900516666667, "name": "19f5893c6589b2624870cd38c380ca9b"}, {"bike_id": "0bf5d5fdaab9fcee2d566010951857b4", "type": "electric_scooter", "is_disabled": 0, "lat": 38.90550283333334, "rental_uris": {"ios": "https://dc.lft.to/lastmile_qr_scan", "android": "https://dc.lft.to/lastmile_qr_scan"}, "is_reserved": 0, "fusion_lon": 0.0, "fusion_lat": 0.0, "lon": -77.0283635, "name": "0bf5d5fdaab9fcee2d566010951857b4"}, {"bike_id": "bcd05f1b62d4ee26fcb7b79fac1446aa", "type": "electric_scooter", "is_disabled": 0, "lat": 38.8668255, "rental_uris": {"ios": "https://dc.lft.to/lastmile_qr_scan", "android": "https://dc.lft.to/lastmile_qr_scan"}, "is_reserved": 0, "fusion_lon": 0.0, "fusion_lat": 0.0, "lon": -76.98580216666667, "name": "bcd05f1b62d4ee26fcb7b79fac1446aa"}, {"bike_id": "fb56717ab13ee2cd48fa87c45578df3c", "type": "electric_scooter", "is_disabled": 0, "lat": 38.916797, "rental_uris": {"ios": "https://dc.lft.to/lastmile_qr_scan", "android": "https://dc.lft.to/lastmile_qr_scan"}, "is_reserved": 0, "fusion_lon": 0.0, "fusion_lat": 0.0, "lon": -77.02284416666667, "name": "fb56717ab13ee2cd48fa87c45578df3c"}, {"bike_id": "847c7081157443103502edef5acefb69", "type": "electric_scooter", "is_disabled": 0, "lat": 38.90265, "rental_uris": {"ios": "https://dc.lft.to/lastmile_qr_scan", "android": "https://dc.lft.to/lastmile_qr_scan"}, "is_reserved": 0, "fusion_lon": 0.0, "fusion_lat": 0.0, "lon": -77.00327866666667, "name": "847c7081157443103502edef5acefb69"}, {"bike_id": "cbbbc4b5e3e140842b78657c49d11644", "type": "electric_scooter", "is_disabled": 0, "lat": 38.90470366666667, "rental_uris": {"ios": "https://dc.lft.to/lastmile_qr_scan", "android": "https://dc.lft.to/lastmile_qr_scan"}, "is_reserved": 0, "fusion_lon": 0.0, "fusion_lat": 0.0, "lon": -77.04858466666667, "name": "cbbbc4b5e3e140842b78657c49d11644"}, {"bike_id": "e31a87926fc5a650e8c59e0233ad6ad1", "type": "electric_scooter", "is_disabled": 0, "lat": 38.90285766666667, "rental_uris": {"ios": "https://dc.lft.to/lastmile_qr_scan", "android": "https://dc.lft.to/lastmile_qr_scan"}, "is_reserved": 0, "fusion_lon": 0.0, "fusion_lat": 0.0, "lon": -77.0242905, "name": "e31a87926fc5a650e8c59e0233ad6ad1"}, {"bike_id": "0159f25cd5cdbabd942240625f78564d", "type": "electric_scooter", "is_disabled": 0, "lat": 38.927852666666666, "rental_uris": {"ios": "https://dc.lft.to/lastmile_qr_scan", "android": "https://dc.lft.to/lastmile_qr_scan"}, "is_reserved": 0, "fusion_lon": 0.0, "fusion_lat": 0.0, "lon": -77.04324966666667, "name": "0159f25cd5cdbabd942240625f78564d"}, {"bike_id": "043549bf282bd46bdd475cce14f79e89", "type": "electric_scooter", "is_disabled": 0, "lat": 38.86245783333333, "rental_uris": {"ios": "https://dc.lft.to/lastmile_qr_scan", "android": "https://dc.lft.to/lastmile_qr_scan"}, "is_reserved": 0, "fusion_lon": 0.0, "fusion_lat": 0.0, "lon": -76.99501433333333, "name": "043549bf282bd46bdd475cce14f79e89"}, {"bike_id": "b824328fcc4f92cd03c69a9fbb6ca90f", "type": "electric_scooter", "is_disabled": 0, "lat": 38.907342, "rental_uris": {"ios": "https://dc.lft.to/lastmile_qr_scan", "android": "https://dc.lft.to/lastmile_qr_scan"}, "is_reserved": 0, "fusion_lon": 0.0, "fusion_lat": 0.0, "lon": -77.03444316666666, "name": "b824328fcc4f92cd03c69a9fbb6ca90f"}, {"bike_id": "9350140caaabb517124242c6b8d0ab48", "type": "electric_scooter", "is_disabled": 0, "lat": 38.933229833333336, "rental_uris": {"ios": "https://dc.lft.to/lastmile_qr_scan", "android": "https://dc.lft.to/lastmile_qr_scan"}, "is_reserved": 0, "fusion_lon": 0.0, "fusion_lat": 0.0, "lon": -77.02925266666666, "name": "9350140caaabb517124242c6b8d0ab48"}, {"bike_id": "7445494fce59923e14fa20f8355ab626", "type": "electric_scooter", "is_disabled": 0, "lat": 38.9031185, "rental_uris": {"ios": "https://dc.lft.to/lastmile_qr_scan", "android": "https://dc.lft.to/lastmile_qr_scan"}, "is_reserved": 0, "fusion_lon": 0.0, "fusion_lat": 0.0, "lon": -76.98361116666666, "name": "7445494fce59923e14fa20f8355ab626"}, {"bike_id": "03fc9794b26b110bc1ae0ddbd188227a", "type": "electric_scooter", "is_disabled": 0, "lat": 38.917537833333334, "rental_uris": {"ios": "https://dc.lft.to/lastmile_qr_scan", "android": "https://dc.lft.to/lastmile_qr_scan"}, "is_reserved": 0, "fusion_lon": 0.0, "fusion_lat": 0.0, "lon": -77.0385815, "name": "03fc9794b26b110bc1ae0ddbd188227a"}, {"bike_id": "8048f56c023420da969ca709f1bfdeef", "type": "electric_scooter", "is_disabled": 0, "lat": 38.92449383333334, "rental_uris": {"ios": "https://dc.lft.to/lastmile_qr_scan", "android": "https://dc.lft.to/lastmile_qr_scan"}, "is_reserved": 0, "fusion_lon": 0.0, "fusion_lat": 0.0, "lon": -77.02403566666666, "name": "8048f56c023420da969ca709f1bfdeef"}, {"bike_id": "97c713a25786196604a750ba39e7915d", "type": "electric_scooter", "is_disabled": 0, "lat": 38.88069516666667, "rental_uris": {"ios": "https://dc.lft.to/lastmile_qr_scan", "android": "https://dc.lft.to/lastmile_qr_scan"}, "is_reserved": 0, "fusion_lon": 0.0, "fusion_lat": 0.0, "lon": -76.995049, "name": "97c713a25786196604a750ba39e7915d"}, {"bike_id": "7f7d6eb89d25b863c7e05cf0919a28c8", "type": "electric_bike", "is_disabled": 0, "lat": 38.85411, "rental_uris": {"ios": "https://dc.lft.to/lastmile_qr_scan", "android": "https://dc.lft.to/lastmile_qr_scan"}, "is_reserved": 0, "fusion_lon": 0.0, "fusion_lat": 0.0, "lon": -77.12075683333333, "name": "7f7d6eb89d25b863c7e05cf0919a28c8"}, {"bike_id": "878085ac07de721c2f008b3364923b10", "type": "electric_scooter", "is_disabled": 0, "lat": 38.874576, "rental_uris": {"ios": "https://dc.lft.to/lastmile_qr_scan", "android": "https://dc.lft.to/lastmile_qr_scan"}, "is_reserved": 0, "fusion_lon": 0.0, "fusion_lat": 0.0, "lon": -77.00307016666666, "name": "878085ac07de721c2f008b3364923b10"}, {"bike_id": "400ec06c0bd6349cd1972a12cde61d6d", "type": "electric_scooter", "is_disabled": 0, "lat": 38.94839016666667, "rental_uris": {"ios": "https://dc.lft.to/lastmile_qr_scan", "android": "https://dc.lft.to/lastmile_qr_scan"}, "is_reserved": 0, "fusion_lon": 0.0, "fusion_lat": 0.0, "lon": -77.02547, "name": "400ec06c0bd6349cd1972a12cde61d6d"}, {"bike_id": "6488fc75862b757e4952295b3c7ab599", "type": "electric_scooter", "is_disabled": 0, "lat": 38.934680666666665, "rental_uris": {"ios": "https://dc.lft.to/lastmile_qr_scan", "android": "https://dc.lft.to/lastmile_qr_scan"}, "is_reserved": 0, "fusion_lon": 0.0, "fusion_lat": 0.0, "lon": -77.028048, "name": "6488fc75862b757e4952295b3c7ab599"}, {"bike_id": "2a8ffef069421356d79da903c917a051", "type": "electric_bike", "is_disabled": 0, "lat": 38.897655, "rental_uris": {"ios": "https://dc.lft.to/lastmile_qr_scan", "android": "https://dc.lft.to/lastmile_qr_scan"}, "is_reserved": 0, "fusion_lon": 0.0, "fusion_lat": 0.0, "lon": -77.00899366666667, "name": "2a8ffef069421356d79da903c917a051"}, {"bike_id": "204648a681d29c5d44d426e87cefbe6e", "type": "electric_scooter", "is_disabled": 0, "lat": 38.934154, "rental_uris": {"ios": "https://dc.lft.to/lastmile_qr_scan", "android": "https://dc.lft.to/lastmile_qr_scan"}, "is_reserved": 0, "fusion_lon": 0.0, "fusion_lat": 0.0, "lon": -77.039125, "name": "204648a681d29c5d44d426e87cefbe6e"}, {"bike_id": "68b6f89f7b3b66d4f4d702212735313b", "type": "electric_scooter", "is_disabled": 0, "lat": 38.908077166666665, "rental_uris": {"ios": "https://dc.lft.to/lastmile_qr_scan", "android": "https://dc.lft.to/lastmile_qr_scan"}, "is_reserved": 0, "fusion_lon": 0.0, "fusion_lat": 0.0, "lon": -77.04328366666667, "name": "68b6f89f7b3b66d4f4d702212735313b"}, {"bike_id": "840a36f5fdaa059df81e5796edb1d458", "type": "electric_scooter", "is_disabled": 0, "lat": 38.92503766666667, "rental_uris": {"ios": "https://dc.lft.to/lastmile_qr_scan", "android": "https://dc.lft.to/lastmile_qr_scan"}, "is_reserved": 0, "fusion_lon": 0.0, "fusion_lat": 0.0, "lon": -77.037746, "name": "840a36f5fdaa059df81e5796edb1d458"}, {"bike_id": "28a0a4c3cf65905a0802ea15dd7f7f58", "type": "electric_scooter", "is_disabled": 0, "lat": 38.90030933333333, "rental_uris": {"ios": "https://dc.lft.to/lastmile_qr_scan", "android": "https://dc.lft.to/lastmile_qr_scan"}, "is_reserved": 0, "fusion_lon": 0.0, "fusion_lat": 0.0, "lon": -76.99761966666667, "name": "28a0a4c3cf65905a0802ea15dd7f7f58"}, {"bike_id": "c06b1b7a86a7e64b140e5200271db5e6", "type": "electric_scooter", "is_disabled": 0, "lat": 38.90716716666667, "rental_uris": {"ios": "https://dc.lft.to/lastmile_qr_scan", "android": "https://dc.lft.to/lastmile_qr_scan"}, "is_reserved": 0, "fusion_lon": 0.0, "fusion_lat": 0.0, "lon": -77.0448855, "name": "c06b1b7a86a7e64b140e5200271db5e6"}, {"bike_id": "34822d626ea482ad1a8e04eb0bfcd1f8", "type": "electric_scooter", "is_disabled": 0, "lat": 38.85445716666667, "rental_uris": {"ios": "https://dc.lft.to/lastmile_qr_scan", "android": "https://dc.lft.to/lastmile_qr_scan"}, "is_reserved": 0, "fusion_lon": 0.0, "fusion_lat": 0.0, "lon": -76.986093, "name": "34822d626ea482ad1a8e04eb0bfcd1f8"}, {"bike_id": "b5ca908ec89206150ba64d6ef6048eef", "type": "electric_scooter", "is_disabled": 0, "lat": 38.942894333333335, "rental_uris": {"ios": "https://dc.lft.to/lastmile_qr_scan", "android": "https://dc.lft.to/lastmile_qr_scan"}, "is_reserved": 0, "fusion_lon": 0.0, "fusion_lat": 0.0, "lon": -77.021764, "name": "b5ca908ec89206150ba64d6ef6048eef"}, {"bike_id": "934f3f5e4c8dc09cac7160574f065e4c", "type": "electric_scooter", "is_disabled": 0, "lat": 38.93532666666667, "rental_uris": {"ios": "https://dc.lft.to/lastmile_qr_scan", "android": "https://dc.lft.to/lastmile_qr_scan"}, "is_reserved": 0, "fusion_lon": 0.0, "fusion_lat": 0.0, "lon": -77.023515, "name": "934f3f5e4c8dc09cac7160574f065e4c"}, {"bike_id": "7a7e0ca83e725eb1c11a6a1ed23be0a0", "type": "electric_scooter", "is_disabled": 0, "lat": 38.896956333333335, "rental_uris": {"ios": "https://dc.lft.to/lastmile_qr_scan", "android": "https://dc.lft.to/lastmile_qr_scan"}, "is_reserved": 0, "fusion_lon": 0.0, "fusion_lat": 0.0, "lon": -77.02694433333333, "name": "7a7e0ca83e725eb1c11a6a1ed23be0a0"}, {"bike_id": "98edced1a88f67b7d2794b48aca78b52", "type": "electric_scooter", "is_disabled": 0, "lat": 38.9179455, "rental_uris": {"ios": "https://dc.lft.to/lastmile_qr_scan", "android": "https://dc.lft.to/lastmile_qr_scan"}, "is_reserved": 0, "fusion_lon": 0.0, "fusion_lat": 0.0, "lon": -77.0271625, "name": "98edced1a88f67b7d2794b48aca78b52"}, {"bike_id": "3b0c00ffa44111f0052ecf5dfb40649a", "type": "electric_scooter", "is_disabled": 0, "lat": 38.922156666666666, "rental_uris": {"ios": "https://dc.lft.to/lastmile_qr_scan", "android": "https://dc.lft.to/lastmile_qr_scan"}, "is_reserved": 0, "fusion_lon": 0.0, "fusion_lat": 0.0, "lon": -77.03464583333333, "name": "3b0c00ffa44111f0052ecf5dfb40649a"}, {"bike_id": "4aab0d23f37d883ebb15356c180d174c", "type": "electric_scooter", "is_disabled": 0, "lat": 38.96139316666667, "rental_uris": {"ios": "https://dc.lft.to/lastmile_qr_scan", "android": "https://dc.lft.to/lastmile_qr_scan"}, "is_reserved": 0, "fusion_lon": 0.0, "fusion_lat": 0.0, "lon": -77.029904, "name": "4aab0d23f37d883ebb15356c180d174c"}, {"bike_id": "69ae26d3ead9a94184acf0f278130947", "type": "electric_scooter", "is_disabled": 0, "lat": 38.902555166666666, "rental_uris": {"ios": "https://dc.lft.to/lastmile_qr_scan", "android": "https://dc.lft.to/lastmile_qr_scan"}, "is_reserved": 0, "fusion_lon": 0.0, "fusion_lat": 0.0, "lon": -76.97548616666667, "name": "69ae26d3ead9a94184acf0f278130947"}, {"bike_id": "8ace664b69abca5c053f380173362c9d", "type": "electric_scooter", "is_disabled": 0, "lat": 38.90956516666667, "rental_uris": {"ios": "https://dc.lft.to/lastmile_qr_scan", "android": "https://dc.lft.to/lastmile_qr_scan"}, "is_reserved": 0, "fusion_lon": 0.0, "fusion_lat": 0.0, "lon": -77.0268585, "name": "8ace664b69abca5c053f380173362c9d"}, {"bike_id": "ee0d2e6873f154655af4e6278771e845", "type": "electric_scooter", "is_disabled": 0, "lat": 38.88524133333333, "rental_uris": {"ios": "https://dc.lft.to/lastmile_qr_scan", "android": "https://dc.lft.to/lastmile_qr_scan"}, "is_reserved": 0, "fusion_lon": 0.0, "fusion_lat": 0.0, "lon": -77.01135133333334, "name": "ee0d2e6873f154655af4e6278771e845"}, {"bike_id": "6fc922d3f36f3c4bd341a06e2cf9f040", "type": "electric_scooter", "is_disabled": 0, "lat": 38.9112265, "rental_uris": {"ios": "https://dc.lft.to/lastmile_qr_scan", "android": "https://dc.lft.to/lastmile_qr_scan"}, "is_reserved": 0, "fusion_lon": 0.0, "fusion_lat": 0.0, "lon": -77.03206533333334, "name": "6fc922d3f36f3c4bd341a06e2cf9f040"},