{"data": {"bikes": [{"fusion_lat": 0.0, "name": "897472417a12e9c908d62b282dfe79e9", "is_disabled": 0, "rental_uris": {"android": "https://dc.lft.to/lastmile_qr_scan", "ios": "https://dc.lft.to/lastmile_qr_scan"}, "fusion_lon": 0.0, "lat": 38.9006285, "bike_id": "897472417a12e9c908d62b282dfe79e9", "type": "electric_scooter", "is_reserved": 0, "lon": -76.9338715}, {"fusion_lat": 0.0, "name": "a2376c6b71f7d6e40a3b48fdc629e843", "is_disabled": 0, "rental_uris": {"android": "https://dc.lft.to/lastmile_qr_scan", "ios": "https://dc.lft.to/lastmile_qr_scan"}, "fusion_lon": 0.0, "lat": 38.89949466666667, "bike_id": "a2376c6b71f7d6e40a3b48fdc629e843", "type": "electric_scooter", "is_reserved": 0, "lon": -77.04176216666667}, {"fusion_lat": 0.0, "name": "42c97c31a48ce4b53a154b3224065623", "is_disabled": 0, "rental_uris": {"android": "https://dc.lft.to/lastmile_qr_scan", "ios": "https://dc.lft.to/lastmile_qr_scan"}, "fusion_lon": 0.0, "lat": 38.990585, "bike_id": "42c97c31a48ce4b53a154b3224065623", "type": "electric_bike", "is_reserved": 0, "lon": -77.03868233333333}, {"fusion_lat": 0.0, "name": "0eb5d35486750dfe6448424142c92100", "is_disabled": 0, "rental_uris": {"android": "https://dc.lft.to/lastmile_qr_scan", "ios": "https://dc.lft.to/lastmile_qr_scan"}, "fusion_lon": 0.0, "lat": 38.928423, "bike_id": "0eb5d35486750dfe6448424142c92100", "type": "electric_scooter", "is_reserved": 0, "lon": -77.036525}, {"fusion_lat": 0.0, "name": "5424eff63c377bd6d08ebbbfd0d07911", "is_disabled": 0, "rental_uris": {"android": "https://dc.lft.to/lastmile_qr_scan", "ios": "https://dc.lft.to/lastmile_qr_scan"}, "fusion_lon": 0.0, "lat": 38.913523833333336, "bike_id": "5424eff63c377bd6d08ebbbfd0d07911", "type": "electric_scooter", "is_reserved": 0, "lon": -77.03184983333334}, {"fusion_lat": 0.0, "name": "a92787fd6e3e3e310d91ba9ff5cb8230", "is_disabled": 0, "rental_uris": {"android": "https://dc.lft.to/lastmile_qr_scan", "ios": "https://dc.lft.to/lastmile_qr_scan"}, "fusion_lon": 0.0, "lat": 38.876901833333335, "bike_id": "a92787fd6e3e3e310d91ba9ff5cb8230", "type": "electric_scooter", "is_reserved": 0, "lon": -77.01755033333333}, {"fusion_lat": 0.0, "name": "9d41bf0bd41810007ca0b2063cd6600b", "is_disabled": 0, "rental_uris": {"android": "https://dc.lft.to/lastmile_qr_scan", "ios": "https://dc.lft.to/lastmile_qr_scan"}, "fusion_lon": 0.0, "lat": 38.93877716666667, "bike_id": "9d41bf0bd41810007ca0b2063cd6600b", "type": "electric_scooter", "is_reserved": 0, "lon": -77.03215433333334}, {"fusion_lat": 0.0, "name": "9dbac13f7a67654962d9257a85fc812a", "is_disabled": 0, "rental_uris": {"android": "https://dc.lft.to/lastmile_qr_scan", "ios": "https://dc.lft.to/lastmile_qr_scan"}, "fusion_lon": 0.0, "lat": 38.92195866666667, "bike_id": "9dbac13f7a67654962d9257a85fc812a", "type": "electric_scooter", "is_reserved": 0, "lon": -77.02963083333333}, {"fusion_lat": 0.0, "name": "a986b7fa8cbe4407e943312bcd562ada", "is_disabled": 0, "rental_uris": {"android": "https://dc.lft.to/lastmile_qr_scan", "ios": "https://dc.lft.to/lastmile_qr_scan"}, "fusion_lon": 0.0, "lat": 38.8922475, "bike_id": "a986b7fa8cbe4407e943312bcd562ada", "type": "electric_scooter", "is_reserved": 0, "lon": -77.03130683333333}, {"fusion_lat": 0.0, "name": "389b516a58ca4a087435c3881773de49", "is_disabled": 0, "rental_uris": {"android": "https://dc.lft.to/lastmile_qr_scan", "ios": "https://dc.lft.to/lastmile_qr_scan"}, "fusion_lon": 0.0, "lat": 38.886230833333336, "bike_id": "389b516a58ca4a087435c3881773de49", "type": "electric_scooter", "is_reserved": 0, "lon": -77.01542166666667}, {"fusion_lat": 0.0, "name": "34090e43a86a0a488ebf5d493a4b051e", "is_disabled": 0, "rental_uris": {"android": "https://dc.lft.to/lastmile_qr_scan", "ios": "https://dc.lft.to/lastmile_qr_scan"}, "fusion_lon": 0.0, "lat": 38.83548066666667, "bike_id": "34090e43a86a0a488ebf5d493a4b051e", "type": "electric_bike", "is_reserved": 0, "lon": -76.98728533333333}, {"fusion_lat": 0.0, "name": "05ae12799cc4bdab77145b0fd0909026", "is_disabled": 0, "rental_uris": {"android": "https://dc.lft.to/lastmile_qr_scan", "ios": "https://dc.lft.to/lastmile_qr_scan"}, "fusion_lon": 0.0, "lat": 38.84392966666667, "bike_id": "05ae12799cc4bdab77145b0fd0909026", "type": "electric_scooter", "is_reserved": 0, "lon": -76.98957716666666}, {"fusion_lat": 0.0, "name": "34f217e7edae866cccf9c252e13c3a50", "is_disabled": 0, "rental_uris": {"android": "https://dc.lft.to/lastmile_qr_scan", "ios": "https://dc.lft.to/lastmile_qr_scan"}, "fusion_lon": 0.0, "lat": 38.934354666666664, "bike_id": "34f217e7edae866cccf9c252e13c3a50", "type": "electric_scooter", "is_reserved": 0, "lon": -77.03996516666666}, {"fusion_lat": 0.0, "name": "ac1e145bfc71c74496ebff13c7ac3ccf", "is_disabled": 0, "rental_uris": {"android": "https://dc.lft.to/lastmile_qr_scan", "ios": "https://dc.lft.to/lastmile_qr_scan"}, "fusion_lon": 0.0, "lat": 38.92089633333333, "bike_id": "ac1e145bfc71c74496ebff13c7ac3ccf", "type": "electric_scooter", "is_reserved": 0, "lon": -77.02201366666667}, {"fusion_lat": 0.0, "name": "93edeabd389c055c852400c46c570565", "is_disabled": 0, "rental_uris": {"android": "https://dc.lft.to/lastmile_qr_scan", "ios": "https://dc.lft.to/lastmile_qr_scan"}, "fusion_lon": 0.0, "lat": 38.902922833333335, "bike_id": "93edeabd389c055c852400c46c570565", "type": "electric_scooter", "is_reserved": 0, "lon": -76.97633816666666}, {"fusion_lat": 0.0, "name": "8442799e9d5843d189cf0e1f195016c6", "is_disabled": 0, "rental_uris": {"android": "https://dc.lft.to/lastmile_qr_scan", "ios": "https://dc.lft.to/lastmile_qr_scan"}, "fusion_lon": 0.0, "lat": 38.9033825, "bike_id": "8442799e9d5843d189cf0e1f195016c6", "type": "electric_scooter", "is_reserved": 0, "lon": -77.05269883333334}, {"fusion_lat": 0.0, "name": "bf4e80bc0ba1da21041b898c003ceb3d", "is_disabled": 0, "rental_uris": {"android": "https://dc.lft.to/lastmile_qr_scan", "ios": "https://dc.lft.to/lastmile_qr_scan"}, "fusion_lon": 0.0, "lat": 38.93322966666667, "bike_id": "bf4e80bc0ba1da21041b898c003ceb3d", "type": "electric_scooter", "is_reserved": 0, "lon": -77.02398183333334}, {"fusion_lat": 0.0, "name": "128a16413ebd5922952cac381a4d5e69", "is_disabled": 0, "rental_uris": {"android": "https://dc.lft.to/lastmile_qr_scan", "ios": "https://dc.lft.to/lastmile_qr_scan"}, "fusion_lon": 0.0, "lat": 38.941601666666664, "bike_id": "128a16413ebd5922952cac381a4d5e69", "type": "electric_scooter", "is_reserved": 0, "lon": -77.02624933333334}, {"fusion_lat": 0.0, "name": "0596637228b69b13ae73d9ce180ddc58", "is_disabled": 0, "rental_uris": {"android": "https://dc.lft.to/lastmile_qr_scan", "ios": "https://dc.lft.to/lastmile_qr_scan"}, "fusion_lon": 0.0, "lat": 38.9180815, "bike_id": "0596637228b69b13ae73d9ce180ddc58", "type": "electric_scooter", "is_reserved": 0, "lon": -77.03658983333334}, {"fusion_lat": 0.0, "name": "d8d38d26dc489f6270b4618cf4b0d5ec", "is_disabled": 0, "rental_uris": {"android": "https://dc.lft.to/lastmile_qr_scan", "ios": "https://dc.lft.to/lastmile_qr_scan"}, "fusion_lon": 0.0, "lat": 38.93470033333333, "bike_id": "d8d38d26dc489f6270b4618cf4b0d5ec", "type": "electric_scooter", "is_reserved": 0, "lon": -77.02398183333334}, {"fusion_lat": 0.0, "name": "15e0458deda08f3feb66c2e0a1f48675", "is_disabled": 0, "rental_uris": {"android": "https://dc.lft.to/lastmile_qr_scan", "ios": "https://dc.lft.to/lastmile_qr_scan"}, "fusion_lon": 0.0, "lat": 38.892235166666666, "bike_id": "15e0458deda08f3feb66c2e0a1f48675", "type": "electric_scooter", "is_reserved": 0, "lon": -77.04680033333334}, {"fusion_lat": 0.0, "name": "20ab004fa5f8449c4b71ad5934fac89b", "is_disabled": 0, "rental_uris": {"android": "https://dc.lft.to/lastmile_qr_scan", "ios": "https://dc.lft.to/lastmile_qr_scan"}, "fusion_lon": 0.0, "lat": 38.90305883333333, "bike_id": "20ab004fa5f8449c4b71ad5934fac89b", "type": "electric_bike", "is_reserved": 0, "lon": -76.97651583333334}, {"fusion_lat": 0.0, "name": "e873e2a587035d9a55aae2b1d77158c5", "is_disabled": 0, "rental_uris": {"android": "https://dc.lft.to/lastmile_qr_scan", "ios": "https://dc.lft.to/lastmile_qr_scan"}, "fusion_lon": 0.0, "lat": 38.997746, "bike_id": "e873e2a587035d9a55aae2b1d77158c5", "type": "electric_bike", "is_reserved": 0, "lon": -77.04713366666667}, {"fusion_lat": 0.0, "name": "c95ee322a5d90663f9a9c5622d952987", "is_disabled": 0, "rental_uris": {"android": "https://dc.lft.to/lastmile_qr_scan", "ios": "https://dc.lft.to/lastmile_qr_scan"}, "fusion_lon": 0.0, "lat": 38.93395666666667, "bike_id": "c95ee322a5d90663f9a9c5622d952987", "type": "electric_scooter", "is_reserved": 0, "lon": -77.05741533333334}, {"fusion_lat": 0.0, "name": "d40142027d2bbfbb2125ef42e9600d49", "is_disabled": 0, "rental_uris": {"android": "https://dc.lft.to/lastmile_qr_scan", "ios": "https://dc.lft.to/lastmile_qr_scan"}, "fusion_lon": 0.0, "lat": 38.908202, "bike_id": "d40142027d2bbfbb2125ef42e9600d49", "type": "electric_scooter", "is_reserved": 0, "lon": -77.04343366666667}, {"fusion_lat": 0.0, "name": "9984c249215f4d8a7cdcd3fa6e447712", "is_disabled": 0, "rental_uris": {"android": "https://dc.lft.to/lastmile_qr_scan", "ios": "https://dc.lft.to/lastmile_qr_scan"}, "fusion_lon": 0.0, "lat": 38.913589333333334, "bike_id": "9984c249215f4d8a7cdcd3fa6e447712", "type": "electric_scooter", "is_reserved": 0, "lon": -77.04488683333334}, {"fusion_lat": 0.0, "name": "b5726bdfe8a44f8b736fc390d49f0e58", "is_disabled": 0, "rental_uris": {"android": "https://dc.lft.to/lastmile_qr_scan", "ios": "https://dc.lft.to/lastmile_qr_scan"}, "fusion_lon": 0.0, "lat": 38.962084, "bike_id": "b5726bdfe8a44f8b736fc390d49f0e58", "type": "electric_scooter", "is_reserved": 0, "lon": -77.02233116666666}, {"fusion_lat": 0.0, "name": "e809f93bacc2c6af8d3daade06d49ab7", "is_disabled": 0, "rental_uris": {"android": "https://dc.lft.to/lastmile_qr_scan", "ios": "https://dc.lft.to/lastmile_qr_scan"}, "fusion_lon": 0.0, "lat": 38.90156266666666, "bike_id": "e809f93bacc2c6af8d3daade06d49ab7", "type": "electric_scooter", "is_reserved": 0, "lon": -77.042379}, {"fusion_lat": 0.0, "name": "32fc737beb9ec476a24617f70174c253", "is_disabled": 0, "rental_uris": {"android": "https://dc.lft.to/lastmile_qr_scan", "ios": "https://dc.lft.to/lastmile_qr_scan"}, "fusion_lon": 0.0, "lat": 38.83159466666667, "bike_id": "32fc737beb9ec476a24617f70174c253", "type": "electric_bike", "is_reserved": 0, "lon": -76.99547066666666}, {"fusion_lat": 0.0, "name": "a19d0ae07e6af573e16aec51f465c848", "is_disabled": 0, "rental_uris": {"android": "https://dc.lft.to/lastmile_qr_scan", "ios": "https://dc.lft.to/lastmile_qr_scan"}, "fusion_lon": 0.0, "lat": 38.900098666666665, "bike_id": "a19d0ae07e6af573e16aec51f465c848", "type": "electric_scooter", "is_reserved": 0, "lon": -77.011905}, {"fusion_lat": 0.0, "name": "f57dae17f8b18239071d283c8cd0e710", "is_disabled": 0, "rental_uris": {"android": "https://dc.lft.to/lastmile_qr_scan", "ios": "https://dc.lft.to/lastmile_qr_scan"}, "fusion_lon": 0.0, "lat": 38.9387075, "bike_id": "f57dae17f8b18239071d283c8cd0e710", "type": "electric_scooter", "is_reserved": 0, "lon": -77.02559683333334}, {"fusion_lat": 0.0, "name": "7ed4cdd254ed86f8d04bfda48ae44d4d", "is_disabled": 0, "rental_uris": {"android": "https://dc.lft.to/lastmile_qr_scan", "ios": "https://dc.lft.to/lastmile_qr_scan"}, "fusion_lon": 0.0, "lat": 38.8921755, "bike_id": "7ed4cdd254ed86f8d04bfda48ae44d4d", "type": "electric_scooter", "is_reserved": 0, "lon": -77.03143633333333}, {"fusion_lat": 0.0, "name": "2d2b340092d72b6e89a195bbbb9f922f", "is_disabled": 0, "rental_uris": {"android": "https://dc.lft.to/lastmile_qr_scan", "ios": "https://dc.lft.to/lastmile_qr_scan"}, "fusion_lon": 0.0, "lat": 38.90029883333333, "bike_id": "2d2b340092d72b6e89a195bbbb9f922f", "type": "electric_bike", "is_reserved": 0, "lon": -76.97223533333333}, {"fusion_lat": 0.0, "name": "a1988849f32a76a031afddaa7bfaefd2", "is_disabled": 0, "rental_uris": {"android": "https://dc.lft.to/lastmile_qr_scan", "ios": "https://dc.lft.to/lastmile_qr_scan"}, "fusion_lon": 0.0, "lat": 38.90985416666667, "bike_id": "a1988849f32a76a031afddaa7bfaefd2", "type": "electric_scooter", "is_reserved": 0, "lon": -77.042627}, {"fusion_lat": 0.0, "name": "1833e333ce4c8c689510f3af3a3b8900", "is_disabled": 0, "rental_uris": {"android": "https://dc.lft.to/lastmile_qr_scan", "ios": "https://dc.lft.to/lastmile_qr_scan"}, "fusion_lon": 0.0, "lat": 38.905756833333335, "bike_id": "1833e333ce4c8c689510f3af3a3b8900", "type": "electric_scooter", "is_reserved": 0, "lon": -77.04357333333333}, {"fusion_lat": 0.0, "name": "7dd857f6e102b5ded12fafeb227a9c33", "is_disabled": 0, "rental_uris": {"android": "https://dc.lft.to/lastmile_qr_scan", "ios": "https://dc.lft.to/lastmile_qr_scan"}, "fusion_lon": 0.0, "lat": 38.8772295, "bike_id": "7dd857f6e102b5ded12fafeb227a9c33", "type": "electric_scooter", "is_reserved": 0, "lon": -77.004187}, {"fusion_lat": 0.0, "name": "b55afee36bdd44dcd95007ebf0ac9dad", "is_disabled": 0, "rental_uris": {"android": "https://dc.lft.to/lastmile_qr_scan", "ios": "https://dc.lft.to/lastmile_qr_scan"}, "fusion_lon": 0.0, "lat": 38.911522833333336, "bike_id": "b55afee36bdd44dcd95007ebf0ac9dad", "type": "electric_scooter", "is_reserved": 0, "lon": -77.004555}, {"fusion_lat": 0.0, "name": "8fe981e82338064fa03696eaf3b1c30c", "is_disabled": 0, "rental_uris": {"android": "https://dc.lft.to/lastmile_qr_scan", "ios": "https://dc.lft.to/lastmile_qr_scan"}, "fusion_lon": 0.0, "lat": 38.92255566666667, "bike_id": "8fe981e82338064fa03696eaf3b1c30c", "type": "electric_scooter", "is_reserved": 0, "lon": -77.00914016666667}, {"fusion_lat": 0.0, "name": "4ee251435eccb9f8ca58277ea9e16c13", "is_disabled": 0, "rental_uris": {"android": "https://dc.lft.to/lastmile_qr_scan", "ios": "https://dc.lft.to/lastmile_qr_scan"}, "fusion_lon": 0.0, "lat": 38.91446116666667, "bike_id": "4ee251435eccb9f8ca58277ea9e16c13", "type": "electric_scooter", "is_reserved": 0, "lon": -76.98816333333333}, {"fusion_lat": 0.0, "name": "c69eab0bd83a1b31a5f3fe52c8afcd0c", "is_disabled": 0, "rental_uris": {"android": "https://dc.lft.to/lastmile_qr_scan", "ios": "https://dc.lft.to/lastmile_qr_scan"}, "fusion_lon": 0.0, "lat": 38.925108, "bike_id": "c69eab0bd83a1b31a5f3fe52c8afcd0c", "type": "electric_scooter", "is_reserved": 0, "lon": -77.02286283333333}, {"fusion_lat": 0.0, "name": "dc26d9e9b24be88b82d899c05c3d7188", "is_disabled": 0, "rental_uris": {"android": "https://dc.lft.to/lastmile_qr_scan", "ios": "https://dc.lft.to/lastmile_qr_scan"}, "fusion_lon": 0.0, "lat": 38.9668435, "bike_id": "dc26d9e9b24be88b82d899c05c3d7188", "type": "electric_bike", "is_reserved": 0, "lon": -77.0224925}, {"fusion_lat": 0.0, "name": "3f68d581e97d8edd2c483b76f8542458", "is_disabled": 0, "rental_uris": {"android": "https://dc.lft.to/lastmile_qr_scan", "ios": "https://dc.lft.to/lastmile_qr_scan"}, "fusion_lon": 0.0, "lat": 38.9429375, "bike_id": "3f68d581e97d8edd2c483b76f8542458", "type": "electric_scooter", "is_reserved": 0, "lon": -77.02172016666667}, {"fusion_lat": 0.0, "name": "e85b2a17fbc5a5e46a9c146eac8d67fd", "is_disabled": 0, "rental_uris": {"android": "https://dc.lft.to/lastmile_qr_scan", "ios": "https://dc.lft.to/lastmile_qr_scan"}, "fusion_lon": 0.0, "lat": 38.9522335, "bike_id": "e85b2a17fbc5a5e46a9c146eac8d67fd", "type": "electric_scooter", "is_reserved": 0, "lon": -77.082154}, {"fusion_lat": 0.0, "name": "f6a4b695b96d9d2d8bc496fdf67cbb7b", "is_disabled": 0, "rental_uris": {"android": "https://dc.lft.to/lastmile_qr_scan", "ios": "https://dc.lft.to/lastmile_qr_scan"}, "fusion_lon": 0.0, "lat": 38.87941266666667, "bike_id": "f6a4b695b96d9d2d8bc496fdf67cbb7b", "type": "electric_scooter", "is_reserved": 0, "lon": -77.0089095}, {"fusion_lat": 0.0, "name": "beee01ed8f6efaa20a6fcdbe13f02256", "is_disabled": 0, "rental_uris": {"android": "https://dc.lft.to/lastmile_qr_scan", "ios": "https://dc.lft.to/lastmile_qr_scan"}, "fusion_lon": 0.0, "lat": 38.93867616666667, "bike_id": "beee01ed8f6efaa20a6fcdbe13f02256", "type": "electric_scooter", "is_reserved": 0, "lon": -77.02487966666666}, {"fusion_lat": 0.0, "name": "162a7d8151815909d842437f6c83a9cb", "is_disabled": 0, "rental_uris": {"android": "https://dc.lft.to/lastmile_qr_scan", "ios": "https://dc.lft.to/lastmile_qr_scan"}, "fusion_lon": 0.0, "lat": 38.854203166666665, "bike_id": "162a7d8151815909d842437f6c83a9cb", "type": "electric_bike", "is_reserved": 0, "lon": -77.1207375}, {"fusion_lat": 0.0, "name": "e60cba4d758049e0ae734c168295b6ad", "is_disabled": 0, "rental_uris": {"android": "https://dc.lft.to/lastmile_qr_scan", "ios": "https://dc.lft.to/lastmile_qr_scan"}, "fusion_lon": 0.0, "lat": 38.920654166666665, "bike_id": "e60cba4d758049e0ae734c168295b6ad", "type": "electric_scooter", "is_reserved": 0, "lon": -77.04221116666666}, {"fusion_lat": 0.0, "name": "7c0f67cd60a89c58f24a0b6dfdafbcae", "is_disabled": 0, "rental_uris": {"android": "https://dc.lft.to/lastmile_qr_scan", "ios": "https://dc.lft.to/lastmile_qr_scan"}, "fusion_lon": 0.0, "lat": 38.884355166666666, "bike_id": "7c0f67cd60a89c58f24a0b6dfdafbcae", "type": "electric_scooter", "is_reserved": 0, "lon": -76.957524}, {"fusion_lat": 0.0, "name": "044f90cf022624a784f4fc25ea4a372c", "is_disabled": 0, "rental_uris": {"android": "https://dc.lft.to/lastmile_qr_scan", "ios": "https://dc.lft.to/lastmile_qr_scan"}, "fusion_lon": 0.0, "lat": 38.89224, "bike_id": "044f90cf022624a784f4fc25ea4a372c", "type": "electric_scooter", "is_reserved": 0, "lon": -77.033125}, {"fusion_lat": 0.0, "name": "ee2356fe87be2f1404679a8be6c22816", "is_disabled": 0, "rental_uris": {"android": "https://dc.lft.to/lastmile_qr_scan", "ios": "https://dc.lft.to/lastmile_qr_scan"}, "fusion_lon": 0.0, "lat": 38.9242085, "bike_id": "ee2356fe87be2f1404679a8be6c22816", "type": "electric_scooter", "is_reserved": 0, "lon": -76.99716033333333}, {"fusion_lat": 0.0, "name": "d56ef296c025607d09d4129f41354beb", "is_disabled": 0, "rental_uris": {"android": "https://dc.lft.to/lastmile_qr_scan", "ios": "https://dc.lft.to/lastmile_qr_scan"}, "fusion_lon": 0.0, "lat": 38.883003, "bike_id": "d56ef296c025607d09d4129f41354beb", "type": "electric_scooter", "is_reserved": 0, "lon": -76.948559}, {"fusion_lat": 0.0, "name": "597185705502a8d6e7761f6741394f4e", "is_disabled": 0, "rental_uris": {"android": "https://dc.lft.to/lastmile_qr_scan", "ios": "https://dc.lft.to/lastmile_qr_scan"}, "fusion_lon": 0.0, "lat": 38.920008, "bike_id": "597185705502a8d6e7761f6741394f4e", "type": "electric_scooter", "is_reserved": 0, "lon": -77.071843}, {"fusion_lat": 0.0, "name": "12d0003eb223216ffc0071768ad6fec4", "is_disabled": 0, "rental_uris": {"android": "https://dc.lft.to/lastmile_qr_scan", "ios": "https://dc.lft.to/lastmile_qr_scan"}, "fusion_lon": 0.0, "lat": 38.90020116666667, "bike_id": "12d0003eb223216ffc0071768ad6fec4", "type": "electric_scooter", "is_reserved": 0, "lon": -77.03515866666666}, {"fusion_lat": 0.0, "name": "1a86769d38ee1b958a05117a8132a70f", "is_disabled": 0, "rental_uris": {"android": "https://dc.lft.to/lastmile_qr_scan", "ios": "https://dc.lft.to/lastmile_qr_scan"}, "fusion_lon": 0.0, "lat": 38.8984165, "bike_id": "1a86769d38ee1b958a05117a8132a70f", "type": "electric_scooter", "is_reserved": 0, "lon": -77.01334816666666}, {"fusion_lat": 0.0, "name": "da38306b33774d7fadac379e21629864", "is_disabled": 0, "rental_uris": {"android": "https://dc.lft.to/lastmile_qr_scan", "ios": "https://dc.lft.to/lastmile_qr_scan"}, "fusion_lon": 0.0, "lat": 38.89069683333334, "bike_id": "da38306b33774d7fadac379e21629864", "type": "electric_scooter", "is_reserved": 0, "lon": -76.94459016666667}, {"fusion_lat": 0.0, "name": "1e677a559a4b51153925442edd278f48", "is_disabled": 0, "rental_uris": {"android": "https://dc.lft.to/lastmile_qr_scan", "ios": "https://dc.lft.to/lastmile_qr_scan"}, "fusion_lon": 0.0, "lat": 38.895384666666665, "bike_id": "1e677a559a4b51153925442edd278f48", "type": "electric_scooter", "is_reserved": 0, "lon": -77.0119695}, {"fusion_lat": 0.0, "name": "7860e2ad488de8647d69af5382ba3c8a", "is_disabled": 0, "rental_uris": {"android": "https://dc.lft.to/lastmile_qr_scan", "ios": "https://dc.lft.to/lastmile_qr_scan"}, "fusion_lon": 0.0, "lat": 38.92517216666667, "bike_id": "7860e2ad488de8647d69af5382ba3c8a", "type": "electric_scooter", "is_reserved": 0, "lon": -76.995663}, {"fusion_lat": 0.0, "name": "60c3c6c4f6eef972d3b0e8faf70687f7", "is_disabled": 0, "rental_uris": {"android": "https://dc.lft.to/lastmile_qr_scan", "ios": "https://dc.lft.to/lastmile_qr_scan"}, "fusion_lon": 0.0, "lat": 38.90155433333334, "bike_id": "60c3c6c4f6eef972d3b0e8faf70687f7", "type": "electric_scooter", "is_reserved": 0, "lon": -77.0414495}, {"fusion_lat": 0.0, "name": "bcf6efceab505e3bd19a7fb3fc7fe523", "is_disabled": 0, "rental_uris": {"android": "https://dc.lft.to/lastmile_qr_scan", "ios": "https://dc.lft.to/lastmile_qr_scan"}, "fusion_lon": 0.0, "lat": 38.86684483333333, "bike_id": "bcf6efceab505e3bd19a7fb3fc7fe523", "type": "electric_scooter", "is_reserved": 0, "lon": -76.9856265}, {"fusion_lat": 0.0, "name": "a189e91bc28db7b35a7e2236481d7e6c", "is_disabled": 0, "rental_uris": {"android": "https://dc.lft.to/lastmile_qr_scan", "ios": "https://dc.lft.to/lastmile_qr_scan"}, "fusion_lon": 0.0, "lat": 38.90260133333334, "bike_id": "a189e91bc28db7b35a7e2236481d7e6c", "type": "electric_scooter", "is_reserved": 0, "lon": -77.01757983333333}, {"fusion_lat": 0.0, "name": "cec384837845f41622a8fee456a47167", "is_disabled": 0, "rental_uris": {"android": "https://dc.lft.to/lastmile_qr_scan", "ios": "https://dc.lft.to/lastmile_qr_scan"}, "fusion_lon": 0.0, "lat": 38.90302883333333, "bike_id": "cec384837845f41622a8fee456a47167", "type": "electric_scooter", "is_reserved": 0, "lon": -77.03188983333334}, {"fusion_lat": 0.0, "name": "ff67b28e8d0d157b6928e0498a788a4c", "is_disabled": 0, "rental_uris": {"android": "https://dc.lft.to/lastmile_qr_scan", "ios": "https://dc.lft.to/lastmile_qr_scan"}, "fusion_lon": 0.0, "lat": 38.92858866666667, "bike_id": "ff67b28e8d0d157b6928e0498a788a4c", "type": "electric_scooter", "is_reserved": 0, "lon": -77.03100966666666}, {"fusion_lat": 0.0, "name": "36230f2bc67672f1b0c3d4ea293fd50a", "is_disabled": 0, "rental_uris": {"android": "https://dc.lft.to/lastmile_qr_scan", "ios": "https://dc.lft.to/lastmile_qr_scan"}, "fusion_lon": 0.0, "lat": 38.90001633333333, "bike_id": "36230f2bc67672f1b0c3d4ea293fd50a", "type": "electric_scooter", "is_reserved": 0, "lon": -76.98564766666667}, {"fusion_lat": 0.0, "name": "b4d8fbf60554456a5dca0af4d8660128", "is_disabled": 0, "rental_uris": {"android": "https://dc.lft.to/lastmile_qr_scan", "ios": "https://dc.lft.to/lastmile_qr_scan"}, "fusion_lon": 0.0, "lat": 38.85611016666667, "bike_id": "b4d8fbf60554456a5dca0af4d8660128", "type": "electric_scooter", "is_reserved": 0, "lon": -76.97278966666667}, {"fusion_lat": 0.0, "name": "3b36f69f72a96ed8837535fad69acf93", "is_disabled": 0, "rental_uris": {"android": "https://dc.lft.to/lastmile_qr_scan", "ios": "https://dc.lft.to/lastmile_qr_scan"}, "fusion_lon": 0.0, "lat": 38.89250416666667, "bike_id": "3b36f69f72a96ed8837535fad69acf93", "type": "electric_scooter", "is_reserved": 0, "lon": -77.04652016666667}, {"fusion_lat": 0.0, "name": "86c74f31762e7fcebe81cb14857aa836", "is_disabled": 0, "rental_uris": {"android": "https://dc.lft.to/lastmile_qr_scan", "ios": "https://dc.lft.to/lastmile_qr_scan"}, "fusion_lon": 0.0, "lat": 38.89239716666667, "bike_id": "86c74f31762e7fcebe81cb14857aa836", "type": "electric_scooter", "is_reserved": 0, "lon": -77.04874966666667}, {"fusion_lat": 0.0, "name": "8786cf78f7f2f17b47eb69297e6eeaea", "is_disabled": 0, "rental_uris": {"android": "https://dc.lft.to/lastmile_qr_scan", "ios": "https://dc.lft.to/lastmile_qr_scan"}, "fusion_lon": 0.0, "lat": 38.91480083333333, "bike_id": "8786cf78f7f2f17b47eb69297e6eeaea", "type": "electric_scooter", "is_reserved": 0, "lon": -77.022929}, {"fusion_lat": 0.0, "name": "1b2d7fa5dce363039baef927dae1bb16", "is_disabled": 0, "rental_uris": {"android": "https://dc.lft.to/lastmile_qr_scan", "ios": "https://dc.lft.to/lastmile_qr_scan"}, "fusion_lon": 0.0, "lat": 38.90507316666667, "bike_id": "1b2d7fa5dce363039baef927dae1bb16", "type": "electric_scooter", "is_reserved": 0, "lon": -77.051343}, {"fusion_lat": 0.0, "name": "3bae3499a21a4c9eaf47e131bb0196eb", "is_disabled": 0, "rental_uris": {"android": "https://dc.lft.to/lastmile_qr_scan", "ios": "https://dc.lft.to/lastmile_qr_scan"}, "fusion_lon": 0.0, "lat": 38.902193, "bike_id": "3bae3499a21a4c9eaf47e131bb0196eb", "type": "electric_scooter", "is_reserved": 0, "lon": -77.04756833333333}, {"fusion_lat": 0.0, "name": "a03b4282cbeb7aec0f80fead3e5ea180", "is_disabled": 0, "rental_uris": {"android": "https://dc.lft.to/lastmile_qr_scan", "ios": "https://dc.lft.to/lastmile_qr_scan"}, "fusion_lon": 0.0, "lat": 38.90877183333333, "bike_id": "a03b4282cbeb7aec0f80fead3e5ea180", "type": "electric_scooter", "is_reserved": 0, "lon": -77.03461}, {"fusion_lat": 0.0, "name": "55f2258a48c40de746d7185dba576a32", "is_disabled": 0, "rental_uris": {"android": "https://dc.lft.to/lastmile_qr_scan", "ios": "https://dc.lft.to/lastmile_qr_scan"}, "fusion_lon": 0.0, "lat": 38.923033333333336, "bike_id": "55f2258a48c40de746d7185dba576a32", "type": "electric_scooter", "is_reserved": 0, "lon": -77.04140333333334}, {"fusion_lat": 0.0, "name": "c6e5e09094f4f97109087187d27b463e", "is_disabled": 0, "rental_uris": {"android": "https://dc.lft.to/lastmile_qr_scan", "ios": "https://dc.lft.to/lastmile_qr_scan"}, "fusion_lon": 0.0, "lat": 38.909761, "bike_id": "c6e5e09094f4f97109087187d27b463e", "type": "electric_scooter", "is_reserved": 0, "lon": -77.03375}, {"fusion_lat": 0.0, "name": "a9eb91e44a9ebffa3b94c7847162c291", "is_disabled": 0, "rental_uris": {"android": "https://dc.lft.to/lastmile_qr_scan", "ios": "https://dc.lft.to/lastmile_qr_scan"}, "fusion_lon": 0.0, "lat": 38.91111633333333, "bike_id": "a9eb91e44a9ebffa3b94c7847162c291", "type": "electric_scooter", "is_reserved": 0, "lon": -77.0812965}, {"fusion_lat": 0.0, "name": "28cd1a3d87e2ce2140b9e91070100cbd", "is_disabled": 0, "rental_uris": {"android": "https://dc.lft.to/lastmile_qr_scan", "ios": "https://dc.lft.to/lastmile_qr_scan"}, "fusion_lon": 0.0, "lat": 38.88740883333333, "bike_id": "28cd1a3d87e2ce2140b9e91070100cbd", "type": "electric_scooter", "is_reserved": 0, "lon": -77.01532666666667}, {"fusion_lat": 0.0, "name": "684f10191093d601b6db728fd857a535", "is_disabled": 0, "rental_uris": {"android": "https://dc.lft.to/lastmile_qr_scan", "ios": "https://dc.lft.to/lastmile_qr_scan"}, "fusion_lon": 0.0, "lat": 38.9027195, "bike_id": "684f10191093d601b6db728fd857a535", "type": "electric_scooter", "is_reserved": 0, "lon": -77.0531355}, {"fusion_lat": 0.0, "name": "7d68c34bd53bdea3337c8ad672e5d5d1", "is_disabled": 0, "rental_uris": {"android": "https://dc.lft.to/lastmile_qr_scan", "ios": "https://dc.lft.to/lastmile_qr_scan"}, "fusion_lon": 0.0, "lat": 38.8668565, "bike_id": "7d68c34bd53bdea3337c8ad672e5d5d1", "type": "electric_scooter", "is_reserved": 0, "lon": -76.98572433333334}, {"fusion_lat": 0.0, "name": "4b5bcc3d97fee892589aa7f1a8ceb45f", "is_disabled": 0, "rental_uris": {"android": "https://dc.lft.to/lastmile_qr_scan", "ios": "https://dc.lft.to/lastmile_qr_scan"}, "fusion_lon": 0.0, "lat": 38.8874845, "bike_id": "4b5bcc3d97fee892589aa7f1a8ceb45f", "type": "electric_scooter", "is_reserved": 0, "lon": -77.02024316666666}, {"fusion_lat": 0.0, "name": "74c72a61a014b3646b2b0dc4606060bb", "is_disabled": 0, "rental_uris": {"android": "https://dc.lft.to/lastmile_qr_scan", "ios": "https://dc.lft.to/lastmile_qr_scan"}, "fusion_lon": 0.0, "lat": 38.93610983333333, "bike_id": "74c72a61a014b3646b2b0dc4606060bb", "type": "electric_scooter", "is_reserved": 0, "lon": -77.05859533333333}, {"fusion_lat": 0.0, "name": "d43304d1a852c68fadab1afbe641dcc8", "is_disabled": 0, "rental_uris": {"android": "https://dc.lft.to/lastmile_qr_scan", "ios": "https://dc.lft.to/lastmile_qr_scan"}, "fusion_lon": 0.0, "lat": 38.86627633333333, "bike_id": "d43304d1a852c68fadab1afbe641dcc8", "type": "electric_scooter", "is_reserved": 0, "lon": -76.98711366666667}, {"fusion_lat": 0.0, "name": "425a210fe3966b898003cfbce12c5ed6", "is_disabled": 0, "rental_uris": {"android": "https://dc.lft.to/lastmile_qr_scan", "ios": "https://dc.lft.to/lastmile_qr_scan"}, "fusion_lon": 0.0, "lat": 38.924709, "bike_id": "425a210fe3966b898003cfbce12c5ed6", "type": "electric_scooter", "is_reserved": 0, "lon": -77.022149}, {"fusion_lat": 0.0, "name": "b3e7d9b4362f46fddf4cdee547413c6b", "is_disabled": 0, "rental_uris": {"android": "https://dc.lft.to/lastmile_qr_scan", "ios": "https://dc.lft.to/lastmile_qr_scan"}, "fusion_lon": 0.0, "lat": 38.828066166666666, "bike_id": "b3e7d9b4362f46fddf4cdee547413c6b", "type": "electric_bike", "is_reserved": 0, "lon": -77.12489366666667}, {"fusion_lat": 0.0, "name": "c356a07584a0a788907d5ebcb36656c7", "is_disabled": 0, "rental_uris": {"android": "https://dc.lft.to/lastmile_qr_scan", "ios": "https://dc.lft.to/lastmile_qr_scan"}, "fusion_lon": 0.0, "lat": 38.8985235, "bike_id": "c356a07584a0a788907d5ebcb36656c7", "type": "electric_scooter", "is_reserved": 0, "lon": -77.03942033333334}, {"fusion_lat": 0.0, "name": "2682a40905a3ba9b3459d5f83a99c1b1", "is_disabled": 0, "rental_uris": {"android": "https://dc.lft.to/lastmile_qr_scan", "ios": "https://dc.lft.to/lastmile_qr_scan"}, "fusion_lon": 0.0, "lat": 38.920219833333334, "bike_id": "2682a40905a3ba9b3459d5f83a99c1b1", "type": "electric_scooter", "is_reserved": 0, "lon": -77.03140633333334}, {"fusion_lat": 0.0, "name": "62eeb99a079f17cdc8674ff5ad5048d5", "is_disabled": 0, "rental_uris": {"android": "https://dc.lft.to/lastmile_qr_scan", "ios": "https://dc.lft.to/lastmile_qr_scan"}, "fusion_lon": 0.0, "lat": 38.892269, "bike_id": "62eeb99a079f17cdc8674ff5ad5048d5", "type": "electric_scooter", "is_reserved": 0, "lon": -77.04183433333333}, {"fusion_lat": 0.0, "name": "689c5bf714509348c3732562a2a3983d", "is_disabled": 0, "rental_uris": {"android": "https://dc.lft.to/lastmile_qr_scan", "ios": "https://dc.lft.to/lastmile_qr_scan"}, "fusion_lon": 0.0, "lat": 38.865213, "bike_id": "689c5bf714509348c3732562a2a3983d", "type": "electric_bike", "is_reserved": 0, "lon": -76.9733225}, {"fusion_lat": 0.0, "name": "af3678e1b42b13f2019db09b94c0eeb0", "is_disabled": 0, "rental_uris": {"android": "https://dc.lft.to/lastmile_qr_scan", "ios": "https://dc.lft.to/lastmile_qr_scan"}, "fusion_lon": 0.0, "lat": 38.885419166666665, "bike_id": "af3678e1b42b13f2019db09b94c0eeb0", "type": "electric_scooter", "is_reserved": 0, "lon": -77.00050066666667}, {"fusion_lat": 0.0, "name": "3495b586aea1bccf9a1cc3b6e2eabaf0", "is_disabled": 0, "rental_uris": {"android": "https://dc.lft.to/lastmile_qr_scan", "ios": "https://dc.lft.to/lastmile_qr_scan"}, "fusion_lon": 0.0, "lat": 38.90955783333333, "bike_id": "3495b586aea1bccf9a1cc3b6e2eabaf0", "type": "electric_bike", "is_reserved": 0, "lon": -76.9843935}, {"fusion_lat": 0.0, "name": "69811444ec6bb0e4ab36e6184900809a", "is_disabled": 0, "rental_uris": {"android": "https://dc.lft.to/lastmile_qr_scan", "ios": "https://dc.lft.to/lastmile_qr_scan"}, "fusion_lon": 0.0, "lat": 38.860324166666665, "bike_id": "69811444ec6bb0e4ab36e6184900809a", "type": "electric_scooter", "is_reserved": 0, "lon": -76.9837295}, {"fusion_lat": 0.0, "name": "66fd8176f533d3475b2457fbcc708b7f", "is_disabled": 0, "rental_uris": {"android": "https://dc.lft.to/lastmile_qr_scan", "ios": "https://dc.lft.to/lastmile_qr_scan"}, "fusion_lon": 0.0, "lat": 38.8815995, "bike_id": "66fd8176f533d3475b2457fbcc708b7f", "type": "electric_scooter", "is_reserved": 0, "lon": -77.02767333333334}, {"fusion_lat": 0.0, "name": "dd776af0b898db9008ebdf02a6ed49af", "is_disabled": 0, "rental_uris": {"android": "https://dc.lft.to/lastmile_qr_scan", "ios": "https://dc.lft.to/lastmile_qr_scan"}, "fusion_lon": 0.0, "lat": 38.882675, "bike_id": "dd776af0b898db9008ebdf02a6ed49af", "type": "electric_scooter", "is_reserved": 0, "lon": -77.00362716666666}, {"fusion_lat": 0.0, "name": "5ab33206f82c5bc4e41fa4fb0614d504", "is_disabled": 0, "rental_uris": {"android": "https://dc.lft.to/lastmile_qr_scan", "ios": "https://dc.lft.to/lastmile_qr_scan"}, "fusion_lon": 0.0, "lat": 38.884061333333335, "bike_id": "5ab33206f82c5bc4e41fa4fb0614d504", "type": "electric_bike", "is_reserved": 0, "lon": -76.95419266666667}, {"fusion_lat": 0.0, "name": "d68a1a61984ce48ef24cf3c99612d3e3", "is_disabled": 0, "rental_uris": {"android": "https://dc.lft.to/lastmile_qr_scan", "ios": "https://dc.lft.to/lastmile_qr_scan"}, "fusion_lon": 0.0, "lat": 38.90143916666667, "bike_id": "d68a1a61984ce48ef24cf3c99612d3e3", "type": "electric_scooter", "is_reserved": 0, "lon": -77.060723}, {"fusion_lat": 0.0, "name": "574beaf8b2cab8839847d60461b76fe4", "is_disabled": 0, "rental_uris": {"android": "https://dc.lft.to/lastmile_qr_scan", "ios": "https://dc.lft.to/lastmile_qr_scan"}, "fusion_lon": 0.0, "lat": 38.90574616666667, "bike_id": "574beaf8b2cab8839847d60461b76fe4", "type": "electric_bike", "is_reserved": 0, "lon": -77.00891333333334}, {"fusion_lat": 0.0, "name": "78ebe3ff3d732a8a07cdab32f19a3c4c", "is_disabled": 0, "rental_uris": {"android": "https://dc.lft.to/lastmile_qr_scan", "ios": "https://dc.lft.to/lastmile_qr_scan"}, "fusion_lon": 0.0, "lat": 38.9518325, "bike_id": "78ebe3ff3d732a8a07cdab32f19a3c4c", "type": "electric_scooter", "is_reserved": 0, "lon": -77.02724133333334}, {"fusion_lat": 0.0, "name": "f7df67a6c4cf71653cfa6958c60f88dd", "is_disabled": 0, "rental_uris": {"android": "https://dc.lft.to/lastmile_qr_scan", "ios": "https://dc.lft.to/lastmile_qr_scan"}, "fusion_lon": 0.0, "lat": 38.896028333333334, "bike_id": "f7df67a6c4cf71653cfa6958c60f88dd", "type": "electric_scooter", "is_reserved": 0, "lon": -77.02669133333333}, {"fusion_lat": 0.0, "name": "f3f6d4b4ddf465e5736adddee89c0f03", "is_disabled": 0, "rental_uris": {"android": "https://dc.lft.to/lastmile_qr_scan", "ios": "https://dc.lft.to/lastmile_qr_scan"}, "fusion_lon": 0.0, "lat": 38.909118, "bike_id": "f3f6d4b4ddf465e5736adddee89c0f03", "type": "electric_scooter", "is_reserved": 0, "lon": -77.07267983333334}, {"fusion_lat": 0.0, "name": "12be66b19a9953c54671851399efed3d", "is_disabled": 0, "rental_uris": {"android": "https://dc.lft.to/lastmile_qr_scan", "ios": "https://dc.lft.to/lastmile_qr_scan"}, "fusion_lon": 0.0, "lat": 38.911924666666664, "bike_id": "12be66b19a9953c54671851399efed3d", "type": "electric_scooter", "is_reserved": 0, "lon": -77.00723583333334}, {"fusion_lat": 0.0, "name": "f5976e4cb75ee3a3cf2a891dd35e9605", "is_disabled": 0, "rental_uris": {"android": "https://dc.lft.to/lastmile_qr_scan", "ios": "https://dc.lft.to/lastmile_qr_scan"}, "fusion_lon": 0.0, "lat": 38.902726333333334, "bike_id": "f5976e4cb75ee3a3cf2a891dd35e9605", "type": "electric_scooter", "is_reserved": 0, "lon": -77.05315783333333}, {"fusion_lat": 0.0, "name": "0eb92aa4706813ea04e9978183f64f65", "is_disabled": 0, "rental_uris": {"android": "https://dc.lft.to/lastmile_qr_scan", "ios": "https://dc.lft.to/lastmile_qr_scan"}, "fusion_lon": 0.0, "lat": 38.87932383333333, "bike_id": "0eb92aa4706813ea04e9978183f64f65", "type": "electric_scooter", "is_reserved": 0, "lon": -77.00904566666667}, {"fusion_lat": 0.0, "name": "8dfc7375f871659439fbd10322b9912b", "is_disabled": 0, "rental_uris": {"android": "https://dc.lft.to/lastmile_qr_scan", "ios": "https://dc.lft.to/lastmile_qr_scan"}, "fusion_lon": 0.0, "lat": 38.88720983333333, "bike_id": "8dfc7375f871659439fbd10322b9912b", "type": "electric_scooter", "is_reserved": 0, "lon": -76.996423}, {"fusion_lat": 0.0, "name": "eecb6bdfe23a43b7735774da1d771df0", "is_disabled": 0, "rental_uris": {"android": "https://dc.lft.to/lastmile_qr_scan", "ios": "https://dc.lft.to/lastmile_qr_scan"}, "fusion_lon": 0.0, "lat": 38.903690166666664, "bike_id": "eecb6bdfe23a43b7735774da1d771df0", "type": "electric_scooter", "is_reserved": 0, "lon": -77.01845983333334}, {"fusion_lat": 0.0, "name": "a9e21d2654f2739c625fd4f5821d722d", "is_disabled": 0, "rental_uris": {"android": "https://dc.lft.to/lastmile_qr_scan", "ios": "https://dc.lft.to/lastmile_qr_scan"}, "fusion_lon": 0.0, "lat": 38.87798016666667, "bike_id": "a9e21d2654f2739c625fd4f5821d722d", "type": "electric_scooter", "is_reserved": 0, "lon": -77.00127316666666}, {"fusion_lat": 0.0, "name": "c2de5b7158b8e4a2eeff6ef0d9182fa8", "is_disabled": 0, "rental_uris": {"android": "https://dc.lft.to/lastmile_qr_scan", "ios": "https://dc.lft.to/lastmile_qr_scan"}, "fusion_lon": 0.0, "lat": 38.91827266666667, "bike_id": "c2de5b7158b8e4a2eeff6ef0d9182fa8", "type": "electric_scooter", "is_reserved": 0, "lon": -77.04176033333333}, {"fusion_lat": 0.0, "name": "9363349deb10de00c9b0a24a3d4cc718", "is_disabled": 0, "rental_uris": {"android": "https://dc.lft.to/lastmile_qr_scan", "ios": "https://dc.lft.to/lastmile_qr_scan"}, "fusion_lon": 0.0, "lat": 38.93515683333333, "bike_id": "9363349deb10de00c9b0a24a3d4cc718", "type": "electric_scooter", "is_reserved": 0, "lon": -77.05838066666666}, {"fusion_lat": 0.0, "name": "cfd583170a0d70ad381802741a7b1b52", "is_disabled": 0, "rental_uris": {"android": "https://dc.lft.to/lastmile_qr_scan", "ios": "https://dc.lft.to/lastmile_qr_scan"}, "fusion_lon": 0.0, "lat": 38.90763783333333, "bike_id": "cfd583170a0d70ad381802741a7b1b52", "type": "electric_scooter", "is_reserved": 0, "lon": -77.02977716666666}, {"fusion_lat": 0.0, "name": "d90aea7e1e2d938e89d2e8be08aab7b1", "is_disabled": 0, "rental_uris": {"android": "https://dc.lft.to/lastmile_qr_scan", "ios": "https://dc.lft.to/lastmile_qr_scan"}, "fusion_lon": 0.0, "lat": 38.87661683333333, "bike_id": "d90aea7e1e2d938e89d2e8be08aab7b1", "type": "electric_scooter", "is_reserved": 0, "lon": -77.00916533333333}, {"fusion_lat": 0.0, "name": "dc204e591bc7afc27228850913fdb3cd", "is_disabled": 0, "rental_uris": {"android": "https://dc.lft.to/lastmile_qr_scan", "ios": "https://dc.lft.to/lastmile_qr_scan"}, "fusion_lon": 0.0, "lat": 38.895743833333334, "bike_id": "dc204e591bc7afc27228850913fdb3cd", "type": "electric_scooter", "is_reserved": 0, "lon": -77.02294533333334}, {"fusion_lat": 0.0, "name": "574596916be6801222d3339877341c52", "is_disabled": 0, "rental_uris": {"android": "https://dc.lft.to/lastmile_qr_scan", "ios": "https://dc.lft.to/lastmile_qr_scan"}, "fusion_lon": 0.0, "lat": 38.958834833333334, "bike_id": "574596916be6801222d3339877341c52", "type": "electric_scooter", "is_reserved": 0, "lon": -77.01170883333333}, {"fusion_lat": 0.0, "name": "dca59e4074320c1beb0ee6f09553be81", "is_disabled": 0, "rental_uris": {"android": "https://dc.lft.to/lastmile_qr_scan", "ios": "https://dc.lft.to/lastmile_qr_scan"}, "fusion_lon": 0.0, "lat": 38.92057833333333, "bike_id": "dca59e4074320c1beb0ee6f09553be81", "type": "electric_scooter", "is_reserved": 0, "lon": -77.03301666666667}, {"fusion_lat": 0.0, "name": "545730a547eb9e12a050ca175e91363f", "is_disabled": 0, "rental_uris": {"android": "https://dc.lft.to/lastmile_qr_scan", "ios": "https://dc.lft.to/lastmile_qr_scan"}, "fusion_lon": 0.0, "lat": 38.912684666666664, "bike_id": "545730a547eb9e12a050ca175e91363f", "type": "electric_scooter", "is_reserved": 0, "lon": -77.013102}, {"fusion_lat": 0.0, "name": "bba720484832b4e75492927cc5c01a82", "is_disabled": 0, "rental_uris": {"android": "https://dc.lft.to/lastmile_qr_scan", "ios": "https://dc.lft.to/lastmile_qr_scan"}, "fusion_lon": 0.0, "lat": 38.89837, "bike_id": "bba720484832b4e75492927cc5c01a82", "type": "electric_scooter", "is_reserved": 0, "lon": -76.93178916666666}, {"fusion_lat": 0.0, "name": "121de92cde1982160abaa4803a14d933", "is_disabled": 0, "rental_uris": {"android": "https://dc.lft.to/lastmile_qr_scan", "ios": "https://dc.lft.to/lastmile_qr_scan"}, "fusion_lon": 0.0, "lat": 38.91552633333333, "bike_id": "121de92cde1982160abaa4803a14d933", "type": "electric_scooter", "is_reserved": 0, "lon": -77.03173683333333}, {"fusion_lat": 0.0, "name": "342c5247ea49b89c01a166356b420436", "is_disabled": 0, "rental_uris": {"android": "https://dc.lft.to/lastmile_qr_scan", "ios": "https://dc.lft.to/lastmile_qr_scan"}, "fusion_lon": 0.0, "lat": 38.840543, "bike_id": "342c5247ea49b89c01a166356b420436", "type": "electric_scooter", "is_reserved": 0, "lon": -76.97665983333333}, {"fusion_lat": 0.0, "name": "602ba6472c5a40961421a05556dad47d", "is_disabled": 0, "rental_uris": {"android": "https://dc.lft.to/lastmile_qr_scan", "ios": "https://dc.lft.to/lastmile_qr_scan"}, "fusion_lon": 0.0, "lat": 38.949926166666664, "bike_id": "602ba6472c5a40961421a05556dad47d", "type": "electric_scooter", "is_reserved": 0, "lon": -77.02707}, {"fusion_lat": 0.0, "name": "649c12fe27e39311506aa63e61e8d09f", "is_disabled": 0, "rental_uris": {"android": "https://dc.lft.to/lastmile_qr_scan", "ios": "https://dc.lft.to/lastmile_qr_scan"}, "fusion_lon": 0.0, "lat": 38.899213833333334, "bike_id": "649c12fe27e39311506aa63e61e8d09f", "type": "electric_scooter", "is_reserved": 0, "lon": -77.0035515}, {"fusion_lat": 0.0, "name": "a6eedebfcd7cd869de2cf244daaf029d", "is_disabled": 0, "rental_uris": {"android": "https://dc.lft.to/lastmile_qr_scan", "ios": "https://dc.lft.to/lastmile_qr_scan"}, "fusion_lon": 0.0, "lat": 38.914066166666665, "bike_id": "a6eedebfcd7cd869de2cf244daaf029d", "type": "electric_scooter", "is_reserved": 0, "lon": -77.02663783333334}, {"fusion_lat": 0.0, "name": "994bce40d5573eb6b51babdc2ace3fba", "is_disabled": 0, "rental_uris": {"android": "https://dc.lft.to/lastmile_qr_scan", "ios": "https://dc.lft.to/lastmile_qr_scan"}, "fusion_lon": 0.0, "lat": 38.8976585, "bike_id": "994bce40d5573eb6b51babdc2ace3fba", "type": "electric_scooter", "is_reserved": 0, "lon": -76.985539}, {"fusion_lat": 0.0, "name": "974494cc44189959bb9854d162e8b178", "is_disabled": 0, "rental_uris": {"android": "https://dc.lft.to/lastmile_qr_scan", "ios": "https://dc.lft.to/lastmile_qr_scan"}, "fusion_lon": 0.0, "lat": 38.94646483333333, "bike_id": "974494cc44189959bb9854d162e8b178", "type": "electric_scooter", "is_reserved": 0, "lon": -77.0648695}, {"fusion_lat": 0.0, "name": "54053a2c39a64484ed7fdf91491345da", "is_disabled": 0, "rental_uris": {"android": "https://dc.lft.to/lastmile_qr_scan", "ios": "https://dc.lft.to/lastmile_qr_scan"}, "fusion_lon": 0.0, "lat": 38.91689433333333, "bike_id": "54053a2c39a64484ed7fdf91491345da", "type": "electric_scooter", "is_reserved": 0, "lon": -77.03438583333333}, {"fusion_lat": 0.0, "name": "e5566bf8ea4213c17d33afc2db778084", "is_disabled": 0, "rental_uris": {"android": "https://dc.lft.to/lastmile_qr_scan", "ios": "https://dc.lft.to/lastmile_qr_scan"}, "fusion_lon": 0.0, "lat": 38.876777, "bike_id": "e5566bf8ea4213c17d33afc2db778084", "type": "electric_scooter", "is_reserved": 0, "lon": -77.0073655}, {"fusion_lat": 0.0, "name": "0f12768610b2487900a475ea8131fe6d", "is_disabled": 0, "rental_uris": {"android": "https://dc.lft.to/lastmile_qr_scan", "ios": "https://dc.lft.to/lastmile_qr_scan"}, "fusion_lon": 0.0, "lat": 38.908960666666665, "bike_id": "0f12768610b2487900a475ea8131fe6d", "type": "electric_scooter", "is_reserved": 0, "lon": -77.03209416666667}, {"fusion_lat": 0.0, "name": "20a03df7393357eaf334ae55a36ab97f", "is_disabled": 0, "rental_uris": {"android": "https://dc.lft.to/lastmile_qr_scan", "ios": "https://dc.lft.to/lastmile_qr_scan"}, "fusion_lon": 0.0, "lat": 38.887734333333334, "bike_id": "20a03df7393357eaf334ae55a36ab97f", "type": "electric_scooter", "is_reserved": 0, "lon": -76.97752666666666}, {"fusion_lat": 0.0, "name": "3f727d87da37062d5ac92c04b037b899", "is_disabled": 0, "rental_uris": {"android": "https://dc.lft.to/lastmile_qr_scan", "ios": "https://dc.lft.to/lastmile_qr_scan"}, "fusion_lon": 0.0, "lat": 38.91298666666667, "bike_id": "3f727d87da37062d5ac92c04b037b899", "type": "electric_scooter", "is_reserved": 0, "lon": -76.984667}, {"fusion_lat": 0.0, "name": "dc20bf03ff6715ccb865c4fc54a0a5d7", "is_disabled": 0, "rental_uris": {"android": "https://dc.lft.to/lastmile_qr_scan", "ios": "https://dc.lft.to/lastmile_qr_scan"}, "fusion_lon": 0.0, "lat": 38.912673833333336, "bike_id": "dc20bf03ff6715ccb865c4fc54a0a5d7", "type": "electric_scooter", "is_reserved": 0, "lon": -77.048385}, {"fusion_lat": 0.0, "name": "f9742c452ca3f9f831f428137409e5c2", "is_disabled": 0, "rental_uris": {"android": "https://dc.lft.to/lastmile_qr_scan", "ios": "https://dc.lft.to/lastmile_qr_scan"}, "fusion_lon": 0.0, "lat": 38.96160916666667, "bike_id": "f9742c452ca3f9f831f428137409e5c2", "type": "electric_scooter", "is_reserved": 0, "lon": -77.0736185}, {"fusion_lat": 0.0, "name": "8a0d324ec2f203d633cdb05e7fe25e88", "is_disabled": 0, "rental_uris": {"android": "https://dc.lft.to/lastmile_qr_scan", "ios": "https://dc.lft.to/lastmile_qr_scan"}, "fusion_lon": 0.0, "lat": 38.9005035, "bike_id": "8a0d324ec2f203d633cdb05e7fe25e88", "type": "electric_scooter", "is_reserved": 0, "lon": -77.007408}, {"fusion_lat": 0.0, "name": "51eb9d83950f2608197cd538839b9eb2", "is_disabled": 0, "rental_uris": {"android": "https://dc.lft.to/lastmile_qr_scan", "ios": "https://dc.lft.to/lastmile_qr_scan"}, "fusion_lon": 0.0, "lat": 38.8936335, "bike_id": "51eb9d83950f2608197cd538839b9eb2", "type": "electric_scooter", "is_reserved": 0, "lon": -76.9258935}, {"fusion_lat": 0.0, "name": "ae6e8b2ca60b709cfce3577035a18bad", "is_disabled": 0, "rental_uris": {"android": "https://dc.lft.to/lastmile_qr_scan", "ios": "https://dc.lft.to/lastmile_qr_scan"}, "fusion_lon": 0.0, "lat": 38.923022333333336, "bike_id": "ae6e8b2ca60b709cfce3577035a18bad", "type": "electric_scooter", "is_reserved": 0, "lon": -77.04110816666666}, {"fusion_lat": 0.0, "name": "794e6ba885cd907fb325cc6275d3b6a0", "is_disabled": 0, "rental_uris": {"android": "https://dc.lft.to/lastmile_qr_scan", "ios": "https://dc.lft.to/lastmile_qr_scan"}, "fusion_lon": 0.0, "lat": 38.9095215, "bike_id": "794e6ba885cd907fb325cc6275d3b6a0", "type": "electric_scooter", "is_reserved": 0, "lon": -76.985388}, {"fusion_lat": 0.0, "name": "819eb0aa125a6596ac789310a0047c6b", "is_disabled": 0, "rental_uris": {"android": "https://dc.lft.to/lastmile_qr_scan", "ios": "https://dc.lft.to/lastmile_qr_scan"}, "fusion_lon": 0.0, "lat": 38.91701066666667, "bike_id": "819eb0aa125a6596ac789310a0047c6b", "type": "electric_scooter", "is_reserved": 0, "lon": -77.04204116666666}, {"fusion_lat": 0.0, "name": "9d7a2155291a69b7cabb4e2a0e8c6cd7", "is_disabled": 0, "rental_uris": {"android": "https://dc.lft.to/lastmile_qr_scan", "ios": "https://dc.lft.to/lastmile_qr_scan"}, "fusion_lon": 0.0, "lat": 38.91880283333333, "bike_id": "9d7a2155291a69b7cabb4e2a0e8c6cd7", "type": "electric_scooter", "is_reserved": 0, "lon": -77.04311216666666}, {"fusion_lat": 0.0, "name": "4592256ee74e9e424c82aad9e75428a1", "is_disabled": 0, "rental_uris": {"android": "https://dc.lft.to/lastmile_qr_scan", "ios": "https://dc.lft.to/lastmile_qr_scan"}, "fusion_lon": 0.0, "lat": 38.9053055, "bike_id": "4592256ee74e9e424c82aad9e75428a1", "type": "electric_scooter", "is_reserved": 0, "lon": -77.0610365}, {"fusion_lat": 0.0, "name": "6e52edc9817fb03a65d9454d34ffefb3", "is_disabled": 0, "rental_uris": {"android": "https://dc.lft.to/lastmile_qr_scan", "ios": "https://dc.lft.to/lastmile_qr_scan"}, "fusion_lon": 0.0, "lat": 38.92362383333333, "bike_id": "6e52edc9817fb03a65d9454d34ffefb3", "type": "electric_scooter", "is_reserved": 0, "lon": -77.0505}, {"fusion_lat": 0.0, "name": "256cf79f17a5972adfb3d5c23bb99565", "is_disabled": 0, "rental_uris": {"android": "https://dc.lft.to/lastmile_qr_scan", "ios": "https://dc.lft.to/lastmile_qr_scan"}, "fusion_lon": 0.0, "lat": 38.865207166666664, "bike_id": "256cf79f17a5972adfb3d5c23bb99565", "type": "electric_bike", "is_reserved": 0, "lon": -77.12933666666666}, {"fusion_lat": 0.0, "name": "6a9a5e5bab6d6c77023f1733a3790877", "is_disabled": 0, "rental_uris": {"android": "https://dc.lft.to/lastmile_qr_scan", "ios": "https://dc.lft.to/lastmile_qr_scan"}, "fusion_lon": 0.0, "lat": 38.8246095, "bike_id": "6a9a5e5bab6d6c77023f1733a3790877", "type": "electric_bike", "is_reserved": 0, "lon": -77.00793333333333}, {"fusion_lat": 0.0, "name": "3f3414595243bfd84680aa51a367857e", "is_disabled": 0, "rental_uris": {"android": "https://dc.lft.to/lastmile_qr_scan", "ios": "https://dc.lft.to/lastmile_qr_scan"}, "fusion_lon": 0.0, "lat": 38.90798933333333, "bike_id": "3f3414595243bfd84680aa51a367857e", "type": "electric_bike", "is_reserved": 0, "lon": -76.99699116666666}, {"fusion_lat": 0.0, "name": "8bc2690f089bb931ee705b15bd713756", "is_disabled": 0, "rental_uris": {"android": "https://dc.lft.to/lastmile_qr_scan", "ios": "https://dc.lft.to/lastmile_qr_scan"}, "fusion_lon": 0.0, "lat": 38.90419383333333, "bike_id": "8bc2690f089bb931ee705b15bd713756", "type": "electric_scooter", "is_reserved": 0, "lon": -77.00128}, {"fusion_lat": 0.0, "name": "736109a2c9ddff8adca9836ee6c35397", "is_disabled": 0, "rental_uris": {"android": "https://dc.lft.to/lastmile_qr_scan", "ios": "https://dc.lft.to/lastmile_qr_scan"}, "fusion_lon": 0.0, "lat": 38.91263983333333, "bike_id": "736109a2c9ddff8adca9836ee6c35397", "type": "electric_scooter", "is_reserved": 0, "lon": -77.03177083333334}, {"fusion_lat": 0.0, "name": "01a9d687dedb83955c5058643ddfcf6c", "is_disabled": 0, "rental_uris": {"android": "https://dc.lft.to/lastmile_qr_scan", "ios": "https://dc.lft.to/lastmile_qr_scan"}, "fusion_lon": 0.0, "lat": 38.9097295, "bike_id": "01a9d687dedb83955c5058643ddfcf6c", "type": "electric_scooter", "is_reserved": 0, "lon": -77.0405365}, {"fusion_lat": 0.0, "name": "bb2c82ee3d2568c2a6e506e93f9139ac", "is_disabled": 0, "rental_uris": {"android": "https://dc.lft.to/lastmile_qr_scan", "ios": "https://dc.lft.to/lastmile_qr_scan"}, "fusion_lon": 0.0, "lat": 38.95639233333333, "bike_id": "bb2c82ee3d2568c2a6e506e93f9139ac", "type": "electric_scooter", "is_reserved": 0, "lon": -77.03300483333334}, {"fusion_lat": 0.0, "name": "2b352b4289c91d51922ad9b5d0d9add7", "is_disabled": 0, "rental_uris": {"android": "https://dc.lft.to/lastmile_qr_scan", "ios": "https://dc.lft.to/lastmile_qr_scan"}, "fusion_lon": 0.0, "lat": 38.92205233333333, "bike_id": "2b352b4289c91d51922ad9b5d0d9add7", "type": "electric_scooter", "is_reserved": 0, "lon": -77.020972}, {"fusion_lat": 0.0, "name": "3c6406d62e85e6a85eef5664d6c284c6", "is_disabled": 0, "rental_uris": {"android": "https://dc.lft.to/lastmile_qr_scan", "ios": "https://dc.lft.to/lastmile_qr_scan"}, "fusion_lon": 0.0, "lat": 38.92249783333333, "bike_id": "3c6406d62e85e6a85eef5664d6c284c6", "type": "electric_scooter", "is_reserved": 0, "lon": -76.98399166666667}, {"fusion_lat": 0.0, "name": "fe7aec577faa2b22153706e909be0019", "is_disabled": 0, "rental_uris": {"android": "https://dc.lft.to/lastmile_qr_scan", "ios": "https://dc.lft.to/lastmile_qr_scan"}, "fusion_lon": 0.0, "lat": 38.91153833333333, "bike_id": "fe7aec577faa2b22153706e909be0019", "type": "electric_scooter", "is_reserved": 0, "lon": -77.02383316666666}, {"fusion_lat": 0.0, "name": "095bbc727c9184ae8b9a9f662553052f", "is_disabled": 0, "rental_uris": {"android": "https://dc.lft.to/lastmile_qr_scan", "ios": "https://dc.lft.to/lastmile_qr_scan"}, "fusion_lon": 0.0, "lat": 38.908657833333336, "bike_id": "095bbc727c9184ae8b9a9f662553052f", "type": "electric_scooter", "is_reserved": 0, "lon": -76.99954416666667}, {"fusion_lat": 0.0, "name": "8044bff46640844c58a708a361cb8803", "is_disabled": 0, "rental_uris": {"android": "https://dc.lft.to/lastmile_qr_scan", "ios": "https://dc.lft.to/lastmile_qr_scan"}, "fusion_lon": 0.0, "lat": 38.93967266666667, "bike_id": "8044bff46640844c58a708a361cb8803", "type": "electric_scooter", "is_reserved": 0, "lon": -77.03255833333333}, {"fusion_lat": 0.0, "name": "8ec8625e3eba9dac88e61079d8c30e66", "is_disabled": 0, "rental_uris": {"android": "https://dc.lft.to/lastmile_qr_scan", "ios": "https://dc.lft.to/lastmile_qr_scan"}, "fusion_lon": 0.0, "lat": 38.89234533333333, "bike_id": "8ec8625e3eba9dac88e61079d8c30e66", "type": "electric_scooter", "is_reserved": 0, "lon": -77.04160983333334}, {"fusion_lat": 0.0, "name": "a5a816db9f7068f095f92dbfff9567e1", "is_disabled": 0, "rental_uris": {"android": "https://dc.lft.to/lastmile_qr_scan", "ios": "https://dc.lft.to/lastmile_qr_scan"}, "fusion_lon": 0.0, "lat": 38.89952016666667, "bike_id": "a5a816db9f7068f095f92dbfff9567e1", "type": "electric_scooter", "is_reserved": 0, "lon": -77.01596433333333}, {"fusion_lat": 0.0, "name": "2ce45e86074fd472ec99c7b89b2f906c", "is_disabled": 0, "rental_uris": {"android": "https://dc.lft.to/lastmile_qr_scan", "ios": "https://dc.lft.to/lastmile_qr_scan"}, "fusion_lon": 0.0, "lat": 38.89906383333334, "bike_id": "2ce45e86074fd472ec99c7b89b2f906c", "type": "electric_scooter", "is_reserved": 0, "lon": -76.927404}, {"fusion_lat": 0.0, "name": "db8f41681f0903d0c2052da2c3702190", "is_disabled": 0, "rental_uris": {"android": "https://dc.lft.to/lastmile_qr_scan", "ios": "https://dc.lft.to/lastmile_qr_scan"}, "fusion_lon": 0.0, "lat": 38.8830675, "bike_id": "db8f41681f0903d0c2052da2c3702190", "type": "electric_scooter", "is_reserved": 0, "lon": -76.948539}, {"fusion_lat": 0.0, "name": "e755cfe5e34327a52a4e9d3ceac86a08", "is_disabled": 0, "rental_uris": {"android": "https://dc.lft.to/lastmile_qr_scan", "ios": "https://dc.lft.to/lastmile_qr_scan"}, "fusion_lon": 0.0, "lat": 38.900315666666664, "bike_id": "e755cfe5e34327a52a4e9d3ceac86a08", "type": "electric_scooter", "is_reserved": 0, "lon": -76.99902716666666}, {"fusion_lat": 0.0, "name": "e329bf00afebde04559f853b80551342", "is_disabled": 0, "rental_uris": {"android": "https://dc.lft.to/lastmile_qr_scan", "ios": "https://dc.lft.to/lastmile_qr_scan"}, "fusion_lon": 0.0, "lat": 38.8642615, "bike_id": "e329bf00afebde04559f853b80551342", "type": "electric_scooter", "is_reserved": 0, "lon": -76.9899025}, {"fusion_lat": 0.0, "name": "3dbe7acc926e007ebf826a8f08eba1b0", "is_disabled": 0, "rental_uris": {"android": "https://dc.lft.to/lastmile_qr_scan", "ios": "https://dc.lft.to/lastmile_qr_scan"}, "fusion_lon": 0.0, "lat": 38.8740685, "bike_id": "3dbe7acc926e007ebf826a8f08eba1b0", "type": "electric_scooter", "is_reserved": 0, "lon": -77.00051416666666}, {"fusion_lat": 0.0, "name": "af0bfc034e3036cc118c84557606a79c", "is_disabled": 0, "rental_uris": {"android": "https://dc.lft.to/lastmile_qr_scan", "ios": "https://dc.lft.to/lastmile_qr_scan"}, "fusion_lon": 0.0, "lat": 39.070521, "bike_id": "af0bfc034e3036cc118c84557606a79c", "type": "electric_bike", "is_reserved": 0, "lon": -77.11483433333333}, {"fusion_lat": 0.0, "name": "80f075f95e4ca3820990e57e3b765bce", "is_disabled": 0, "rental_uris": {"android": "https://dc.lft.to/lastmile_qr_scan", "ios": "https://dc.lft.to/lastmile_qr_scan"}, "fusion_lon": 0.0, "lat": 38.93133983333333, "bike_id": "80f075f95e4ca3820990e57e3b765bce", "type": "electric_scooter", "is_reserved": 0, "lon": -77.03255}, {"fusion_lat": 0.0, "name": "549678841f18b0135bf12fe5d819d12c", "is_disabled": 0, "rental_uris": {"android": "https://dc.lft.to/lastmile_qr_scan", "ios": "https://dc.lft.to/lastmile_qr_scan"}, "fusion_lon": 0.0, "lat": 38.889123, "bike_id": "549678841f18b0135bf12fe5d819d12c", "type": "electric_scooter", "is_reserved": 0, "lon": -76.9897255}, {"fusion_lat": 0.0, "name": "d5c6e700e7db516336167c16483741d0", "is_disabled": 0, "rental_uris": {"android": "https://dc.lft.to/lastmile_qr_scan", "ios": "https://dc.lft.to/lastmile_qr_scan"}, "fusion_lon": 0.0, "lat": 38.919226333333334, "bike_id": "d5c6e700e7db516336167c16483741d0", "type": "electric_scooter", "is_reserved": 0, "lon": -77.02611583333334}, {"fusion_lat": 0.0, "name": "89132982df760aaf308c9f30bb741f73", "is_disabled": 0, "rental_uris": {"android": "https://dc.lft.to/lastmile_qr_scan", "ios": "https://dc.lft.to/lastmile_qr_scan"}, "fusion_lon": 0.0, "lat": 38.91602783333333, "bike_id": "89132982df760aaf308c9f30bb741f73", "type": "electric_scooter", "is_reserved": 0, "lon": -77.0239585}, {"fusion_lat": 0.0, "name": "1584fc9802e49e90846be65ca3f8e2fc", "is_disabled": 0, "rental_uris": {"android": "https://dc.lft.to/lastmile_qr_scan", "ios": "https://dc.lft.to/lastmile_qr_scan"}, "fusion_lon": 0.0, "lat": 38.9287705, "bike_id": "1584fc9802e49e90846be65ca3f8e2fc", "type": "electric_scooter", "is_reserved": 0, "lon": -77.032131}, {"fusion_lat": 0.0, "name": "9037bcaa3f9a304a1ac9fad43db6d2cc", "is_disabled": 0, "rental_uris": {"android": "https://dc.lft.to/lastmile_qr_scan", "ios": "https://dc.lft.to/lastmile_qr_scan"}, "fusion_lon": 0.0, "lat": 38.8962935, "bike_id": "9037bcaa3f9a304a1ac9fad43db6d2cc", "type": "electric_scooter", "is_reserved": 0, "lon": -77.0265325}, {"fusion_lat": 0.0, "name": "c5576ead0d9f4fe4f774c65f5914d7f4", "is_disabled": 0, "rental_uris": {"android": "https://dc.lft.to/lastmile_qr_scan", "ios": "https://dc.lft.to/lastmile_qr_scan"}, "fusion_lon": 0.0, "lat": 38.89609183333334, "bike_id": "c5576ead0d9f4fe4f774c65f5914d7f4", "type": "electric_scooter", "is_reserved": 0, "lon": -77.02848516666667}, {"fusion_lat": 0.0, "name": "826a903e2be46459f4e5b3bab4e302ab", "is_disabled": 0, "rental_uris": {"android": "https://dc.lft.to/lastmile_qr_scan", "ios": "https://dc.lft.to/lastmile_qr_scan"}, "fusion_lon": 0.0, "lat": 38.92256833333333, "bike_id": "826a903e2be46459f4e5b3bab4e302ab", "type": "electric_scooter", "is_reserved": 0, "lon": -77.03519883333334}, {"fusion_lat": 0.0, "name": "f8c541570210fea2cdcb17ff20e082bb", "is_disabled": 0, "rental_uris": {"android": "https://dc.lft.to/lastmile_qr_scan", "ios": "https://dc.lft.to/lastmile_qr_scan"}, "fusion_lon": 0.0, "lat": 38.8985075, "bike_id": "f8c541570210fea2cdcb17ff20e082bb", "type": "electric_scooter", "is_reserved": 0, "lon": -77.00740333333333}, {"fusion_lat": 0.0, "name": "1d102b76e2cdc092ca102ad8825f6189", "is_disabled": 0, "rental_uris": {"android": "https://dc.lft.to/lastmile_qr_scan", "ios": "https://dc.lft.to/lastmile_qr_scan"}, "fusion_lon": 0.0, "lat": 38.883249666666664, "bike_id": "1d102b76e2cdc092ca102ad8825f6189", "type": "electric_scooter", "is_reserved": 0, "lon": -77.01736683333333}, {"fusion_lat": 0.0, "name": "4febe108dbf959fa4bfef18e2f245a26", "is_disabled": 0, "rental_uris": {"android": "https://dc.lft.to/lastmile_qr_scan", "ios": "https://dc.lft.to/lastmile_qr_scan"}, "fusion_lon": 0.0, "lat": 38.88507083333333, "bike_id": "4febe108dbf959fa4bfef18e2f245a26", "type": "electric_scooter", "is_reserved": 0, "lon": -77.00566016666667}, {"fusion_lat": 0.0, "name": "964f16d8bb28d0a29ff4c0db75f57765", "is_disabled": 0, "rental_uris": {"android": "https://dc.lft.to/lastmile_qr_scan", "ios": "https://dc.lft.to/lastmile_qr_scan"}, "fusion_lon": 0.0, "lat": 38.905275333333336, "bike_id": "964f16d8bb28d0a29ff4c0db75f57765", "type": "electric_scooter", "is_reserved": 0, "lon": -77.0638385}, {"fusion_lat": 0.0, "name": "d69e7b30f6d50bdde1c29055f9cb9e0f", "is_disabled": 0, "rental_uris": {"android": "https://dc.lft.to/lastmile_qr_scan", "ios": "https://dc.lft.to/lastmile_qr_scan"}, "fusion_lon": 0.0, "lat": 38.96731166666667, "bike_id": "d69e7b30f6d50bdde1c29055f9cb9e0f", "type": "electric_scooter", "is_reserved": 0, "lon": -77.00918283333333}, {"fusion_lat": 0.0, "name": "81c1667a9b9c967d5e6fca664f4d0738", "is_disabled": 0, "rental_uris": {"android": "https://dc.lft.to/lastmile_qr_scan", "ios": "https://dc.lft.to/lastmile_qr_scan"}, "fusion_lon": 0.0, "lat": 38.9524275, "bike_id": "81c1667a9b9c967d5e6fca664f4d0738", "type": "electric_scooter", "is_reserved": 0, "lon": -77.02379266666667}, {"fusion_lat": 0.0, "name": "c27c7c982840e32bf203b1d22ff3f254", "is_disabled": 0, "rental_uris": {"android": "https://dc.lft.to/lastmile_qr_scan", "ios": "https://dc.lft.to/lastmile_qr_scan"}, "fusion_lon": 0.0, "lat": 38.87245266666667, "bike_id": "c27c7c982840e32bf203b1d22ff3f254", "type": "electric_scooter", "is_reserved": 0, "lon": -76.977251}, {"fusion_lat": 0.0, "name": "4f225c8389f7ea0acc9f279e9e20ad08", "is_disabled": 0, "rental_uris": {"android": "https://dc.lft.to/lastmile_qr_scan", "ios": "https://dc.lft.to/lastmile_qr_scan"}, "fusion_lon": 0.0, "lat": 38.90383716666667, "bike_id": "4f225c8389f7ea0acc9f279e9e20ad08", "type": "electric_scooter", "is_reserved": 0, "lon": -77.043647}, {"fusion_lat": 0.0, "name": "60e3b673449e0665a031495da0108c7e", "is_disabled": 0, "rental_uris": {"android": "https://dc.lft.to/lastmile_qr_scan", "ios": "https://dc.lft.to/lastmile_qr_scan"}, "fusion_lon": 0.0, "lat": 38.917018166666665, "bike_id": "60e3b673449e0665a031495da0108c7e", "type": "electric_scooter", "is_reserved": 0, "lon": -77.035856}, {"fusion_lat": 0.0, "name": "043a28bd366f628ba0dfe8816df1d49f", "is_disabled": 0, "rental_uris": {"android": "https://dc.lft.to/lastmile_qr_scan", "ios": "https://dc.lft.to/lastmile_qr_scan"}, "fusion_lon": 0.0, "lat": 38.987718666666666, "bike_id": "043a28bd366f628ba0dfe8816df1d49f", "type": "electric_bike", "is_reserved": 0, "lon": -77.1405195}, {"fusion_lat": 0.0, "name": "7de0bd2e9e4eb2d43e1e48e73a840fbd", "is_disabled": 0, "rental_uris": {"android": "https://dc.lft.to/lastmile_qr_scan", "ios": "https://dc.lft.to/lastmile_qr_scan"}, "fusion_lon": 0.0, "lat": 38.91038733333333, "bike_id": "7de0bd2e9e4eb2d43e1e48e73a840fbd", "type": "electric_scooter", "is_reserved": 0, "lon": -77.0641785}, {"fusion_lat": 0.0, "name": "1068c15ceff06e7d9bc3a7050ad2ba21", "is_disabled": 0, "rental_uris": {"android": "https://dc.lft.to/lastmile_qr_scan", "ios": "https://dc.lft.to/lastmile_qr_scan"}, "fusion_lon": 0.0, "lat": 38.902688, "bike_id": "1068c15ceff06e7d9bc3a7050ad2ba21", "type": "electric_scooter", "is_reserved": 0, "lon": -77.0352125}, {"fusion_lat": 0.0, "name": "bb52fea6c404632af4ab5691c3abbcf0", "is_disabled": 0, "rental_uris": {"android": "https://dc.lft.to/lastmile_qr_scan", "ios": "https://dc.lft.to/lastmile_qr_scan"}, "fusion_lon": 0.0, "lat": 38.90307833333333, "bike_id": "bb52fea6c404632af4ab5691c3abbcf0", "type": "electric_scooter", "is_reserved": 0, "lon": -77.02885333333333}, {"fusion_lat": 0.0, "name": "1868138a807afb82a3fa35114de62dd0", "is_disabled": 0, "rental_uris": {"android": "https://dc.lft.to/lastmile_qr_scan", "ios": "https://dc.lft.to/lastmile_qr_scan"}, "fusion_lon": 0.0, "lat": 38.905269833333335, "bike_id": "1868138a807afb82a3fa35114de62dd0", "type": "electric_scooter", "is_reserved": 0, "lon": -77.0630735}, {"fusion_lat": 0.0, "name": "1d5bfb3bdb995a04e47566c83088f880", "is_disabled": 0, "rental_uris": {"android": "https://dc.lft.to/lastmile_qr_scan", "ios": "https://dc.lft.to/lastmile_qr_scan"}, "fusion_lon": 0.0, "lat": 38.90411666666667, "bike_id": "1d5bfb3bdb995a04e47566c83088f880", "type": "electric_scooter", "is_reserved": 0, "lon": -76.97328266666666}, {"fusion_lat": 0.0, "name": "788318f79f00a60af3a2e04fc059c50a", "is_disabled": 0, "rental_uris": {"android": "https://dc.lft.to/lastmile_qr_scan", "ios": "https://dc.lft.to/lastmile_qr_scan"}, "fusion_lon": 0.0, "lat": 38.896586666666664, "bike_id": "788318f79f00a60af3a2e04fc059c50a", "type": "electric_scooter", "is_reserved": 0, "lon": -77.0248935}, {"fusion_lat": 0.0, "name": "e2b9e544f142e418220fe628b7ac915e", "is_disabled": 0, "rental_uris": {"android": "https://dc.lft.to/lastmile_qr_scan", "ios": "https://dc.lft.to/lastmile_qr_scan"}, "fusion_lon": 0.0, "lat": 38.92899166666667, "bike_id": "e2b9e544f142e418220fe628b7ac915e", "type": "electric_scooter", "is_reserved": 0, "lon": -77.032764}, {"fusion_lat": 0.0, "name": "f3252e6039818e0b0a9dc0f6f9a6f517", "is_disabled": 0, "rental_uris": {"android": "https://dc.lft.to/lastmile_qr_scan", "ios": "https://dc.lft.to/lastmile_qr_scan"}, "fusion_lon": 0.0, "lat": 38.91303216666667, "bike_id": "f3252e6039818e0b0a9dc0f6f9a6f517", "type": "electric_scooter", "is_reserved": 0, "lon": -77.0384945}, {"fusion_lat": 0.0, "name": "7289a88cdb30003853e1883fdc912cec", "is_disabled": 0, "rental_uris": {"android": "https://dc.lft.to/lastmile_qr_scan", "ios": "https://dc.lft.to/lastmile_qr_scan"}, "fusion_lon": 0.0, "lat": 38.961346666666664, "bike_id": "7289a88cdb30003853e1883fdc912cec", "type": "electric_scooter", "is_reserved": 0, "lon": -77.02780866666667}, {"fusion_lat": 0.0, "name": "9909295514eac5c4a639f8897ea5e34c", "is_disabled": 0, "rental_uris": {"android": "https://dc.lft.to/lastmile_qr_scan", "ios": "https://dc.lft.to/lastmile_qr_scan"}, "fusion_lon": 0.0, "lat": 38.9030425, "bike_id": "9909295514eac5c4a639f8897ea5e34c", "type": "electric_scooter", "is_reserved": 0, "lon": -77.06010333333333}, {"fusion_lat": 0.0, "name": "44416d36f196ad95e919c1c7353cc92c", "is_disabled": 0, "rental_uris": {"android": "https://dc.lft.to/lastmile_qr_scan", "ios": "https://dc.lft.to/lastmile_qr_scan"}, "fusion_lon": 0.0, "lat": 38.86629, "bike_id": "44416d36f196ad95e919c1c7353cc92c", "type": "electric_scooter", "is_reserved": 0, "lon": -76.98714516666666}, {"fusion_lat": 0.0, "name": "ddffd0c6779b98b1c82627763e867465", "is_disabled": 0, "rental_uris": {"android": "https://dc.lft.to/lastmile_qr_scan", "ios": "https://dc.lft.to/lastmile_qr_scan"}, "fusion_lon": 0.0, "lat": 38.876278, "bike_id": "ddffd0c6779b98b1c82627763e867465", "type": "electric_scooter", "is_reserved": 0, "lon": -77.0066015}, {"fusion_lat": 0.0, "name": "60ee63bd5d171c7ee6f9997c91f75790", "is_disabled": 0, "rental_uris": {"android": "https://dc.lft.to/lastmile_qr_scan", "ios": "https://dc.lft.to/lastmile_qr_scan"}, "fusion_lon": 0.0, "lat": 38.819922, "bike_id": "60ee63bd5d171c7ee6f9997c91f75790", "type": "electric_bike", "is_reserved": 0, "lon": -76.998134}, {"fusion_lat": 0.0, "name": "45873c9bce94d7d28bc24600ecd55c0d", "is_disabled": 0, "rental_uris": {"android": "https://dc.lft.to/lastmile_qr_scan", "ios": "https://dc.lft.to/lastmile_qr_scan"}, "fusion_lon": 0.0, "lat": 38.897838166666666, "bike_id": "45873c9bce94d7d28bc24600ecd55c0d", "type": "electric_scooter", "is_reserved": 0, "lon": -77.02804766666667}, {"fusion_lat": 0.0, "name": "502fe56e46ccea4a1d9c64a9a52644aa", "is_disabled": 0, "rental_uris": {"android": "https://dc.lft.to/lastmile_qr_scan", "ios": "https://dc.lft.to/lastmile_qr_scan"}, "fusion_lon": 0.0, "lat": 38.9340145, "bike_id": "502fe56e46ccea4a1d9c64a9a52644aa", "type": "electric_scooter", "is_reserved": 0, "lon": -77.05744183333333}, {"fusion_lat": 0.0, "name": "b52426cdb37405334dc6e6f20da8b503", "is_disabled": 0, "rental_uris": {"android": "https://dc.lft.to/lastmile_qr_scan", "ios": "https://dc.lft.to/lastmile_qr_scan"}, "fusion_lon": 0.0, "lat": 38.9244945, "bike_id": "b52426cdb37405334dc6e6f20da8b503", "type": "electric_scooter", "is_reserved": 0, "lon": -77.04203016666666}, {"fusion_lat": 0.0, "name": "8dc6a795cff88099d36f7975737be4bd", "is_disabled": 0, "rental_uris": {"android": "https://dc.lft.to/lastmile_qr_scan", "ios": "https://dc.lft.to/lastmile_qr_scan"}, "fusion_lon": 0.0, "lat": 38.896738, "bike_id": "8dc6a795cff88099d36f7975737be4bd", "type": "electric_scooter", "is_reserved": 0, "lon": -77.0051595}, {"fusion_lat": 0.0, "name": "450ca86b12854760a659510bc7eae307", "is_disabled": 0, "rental_uris": {"android": "https://dc.lft.to/lastmile_qr_scan", "ios": "https://dc.lft.to/lastmile_qr_scan"}, "fusion_lon": 0.0, "lat": 38.910735833333334, "bike_id": "450ca86b12854760a659510bc7eae307", "type": "electric_scooter", "is_reserved": 0, "lon": -77.0410405}, {"fusion_lat": 0.0, "name": "bf00a75e89273a0946d3f0f3df2c5a85", "is_disabled": 0, "rental_uris": {"android": "https://dc.lft.to/lastmile_qr_scan", "ios": "https://dc.lft.to/lastmile_qr_scan"}, "fusion_lon": 0.0, "lat": 38.88593783333334, "bike_id": "bf00a75e89273a0946d3f0f3df2c5a85", "type": "electric_scooter", "is_reserved": 0, "lon": -77.01721283333333}, {"fusion_lat": 0.0, "name": "4a38942ddac2da6e6bd99fdab5e7e600", "is_disabled": 0, "rental_uris": {"android": "https://dc.lft.to/lastmile_qr_scan", "ios": "https://dc.lft.to/lastmile_qr_scan"}, "fusion_lon": 0.0, "lat": 38.9219845, "bike_id": "4a38942ddac2da6e6bd99fdab5e7e600", "type": "electric_scooter", "is_reserved": 0, "lon": -76.99755916666666}, {"fusion_lat": 0.0, "name": "9d1e3060cc0013a9b6c62105cf47c51b", "is_disabled": 0, "rental_uris": {"android": "https://dc.lft.to/lastmile_qr_scan", "ios": "https://dc.lft.to/lastmile_qr_scan"}, "fusion_lon": 0.0, "lat": 38.89204683333333, "bike_id": "9d1e3060cc0013a9b6c62105cf47c51b", "type": "electric_bike", "is_reserved": 0, "lon": -76.97048483333333}, {"fusion_lat": 0.0, "name": "eb554927b9eab1642cda2f4fba37eae7", "is_disabled": 0, "rental_uris": {"android": "https://dc.lft.to/lastmile_qr_scan", "ios": "https://dc.lft.to/lastmile_qr_scan"}, "fusion_lon": 0.0, "lat": 38.92449633333333, "bike_id": "eb554927b9eab1642cda2f4fba37eae7", "type": "electric_scooter", "is_reserved": 0, "lon": -77.05250083333334}, {"fusion_lat": 0.0, "name": "7e2fa7e56dbd88e8a916b251ac46d088", "is_disabled": 0, "rental_uris": {"android": "https://dc.lft.to/lastmile_qr_scan", "ios": "https://dc.lft.to/lastmile_qr_scan"}, "fusion_lon": 0.0, "lat": 38.892318333333336, "bike_id": "7e2fa7e56dbd88e8a916b251ac46d088", "type": "electric_scooter", "is_reserved": 0, "lon": -77.02446583333334}, {"fusion_lat": 0.0, "name": "7282f5496a413d4dc6c055c0b0243be9", "is_disabled": 0, "rental_uris": {"android": "https://dc.lft.to/lastmile_qr_scan", "ios": "https://dc.lft.to/lastmile_qr_scan"}, "fusion_lon": 0.0, "lat": 38.904807, "bike_id": "7282f5496a413d4dc6c055c0b0243be9", "type": "electric_scooter", "is_reserved": 0, "lon": -76.94957666666667}, {"fusion_lat": 0.0, "name": "6a6dc70637ac5defda9032f9781be4c8", "is_disabled": 0, "rental_uris": {"android": "https://dc.lft.to/lastmile_qr_scan", "ios": "https://dc.lft.to/lastmile_qr_scan"}, "fusion_lon": 0.0, "lat": 38.94920616666667, "bike_id": "6a6dc70637ac5defda9032f9781be4c8", "type": "electric_scooter", "is_reserved": 0, "lon": -77.01853533333333}, {"fusion_lat": 0.0, "name": "0b8b166e03d75331f97747f852c4b885", "is_disabled": 0, "rental_uris": {"android": "https://dc.lft.to/lastmile_qr_scan", "ios": "https://dc.lft.to/lastmile_qr_scan"}, "fusion_lon": 0.0, "lat": 38.8757195, "bike_id": "0b8b166e03d75331f97747f852c4b885", "type": "electric_scooter", "is_reserved": 0, "lon": -77.00936966666667}, {"fusion_lat": 0.0, "name": "dcebe490ab224356c30775be35f18d19", "is_disabled": 0, "rental_uris": {"android": "https://dc.lft.to/lastmile_qr_scan", "ios": "https://dc.lft.to/lastmile_qr_scan"}, "fusion_lon": 0.0, "lat": 38.922301, "bike_id": "dcebe490ab224356c30775be35f18d19", "type": "electric_scooter", "is_reserved": 0, "lon": -77.04310583333333}, {"fusion_lat": 0.0, "name": "47cb218897342c681c14e114988e6212", "is_disabled": 0, "rental_uris": {"android": "https://dc.lft.to/lastmile_qr_scan", "ios": "https://dc.lft.to/lastmile_qr_scan"}, "fusion_lon": 0.0, "lat": 38.9146265, "bike_id": "47cb218897342c681c14e114988e6212", "type": "electric_scooter", "is_reserved": 0, "lon": -77.02166683333333}, {"fusion_lat": 0.0, "name": "70a1a96a37b18b5f13c292cf66d04a3c", "is_disabled": 0, "rental_uris": {"android": "https://dc.lft.to/lastmile_qr_scan", "ios": "https://dc.lft.to/lastmile_qr_scan"}, "fusion_lon": 0.0, "lat": 38.878039666666666, "bike_id": "70a1a96a37b18b5f13c292cf66d04a3c", "type": "electric_scooter", "is_reserved": 0, "lon": -77.005551}, {"fusion_lat": 0.0, "name": "b615538ca71e82246f18d5448f962a59", "is_disabled": 0, "rental_uris": {"android": "https://dc.lft.to/lastmile_qr_scan", "ios": "https://dc.lft.to/lastmile_qr_scan"}, "fusion_lon": 0.0, "lat": 38.88249366666667, "bike_id": "b615538ca71e82246f18d5448f962a59", "type": "electric_bike", "is_reserved": 0, "lon": -76.96257683333333}, {"fusion_lat": 0.0, "name": "6d587193daab32c23cd4a5c48b485665", "is_disabled": 0, "rental_uris": {"android": "https://dc.lft.to/lastmile_qr_scan", "ios": "https://dc.lft.to/lastmile_qr_scan"}, "fusion_lon": 0.0, "lat": 38.914832833333335, "bike_id": "6d587193daab32c23cd4a5c48b485665", "type": "electric_scooter", "is_reserved": 0, "lon": -77.02945883333334}, {"fusion_lat": 0.0, "name": "242550899137431ad3793d498730ad17", "is_disabled": 0, "rental_uris": {"android": "https://dc.lft.to/lastmile_qr_scan", "ios": "https://dc.lft.to/lastmile_qr_scan"}, "fusion_lon": 0.0, "lat": 38.90157283333333, "bike_id": "242550899137431ad3793d498730ad17", "type": "electric_scooter", "is_reserved": 0, "lon": -76.9762885}, {"fusion_lat": 0.0, "name": "3d497b2d65e8848e67350381494bbe62", "is_disabled": 0, "rental_uris": {"android": "https://dc.lft.to/lastmile_qr_scan", "ios": "https://dc.lft.to/lastmile_qr_scan"}, "fusion_lon": 0.0, "lat": 38.92043, "bike_id": "3d497b2d65e8848e67350381494bbe62", "type": "electric_scooter", "is_reserved": 0, "lon": -77.07980016666667}, {"fusion_lat": 0.0, "name": "86209dbbd8658c7cfb858e8de27f58c0", "is_disabled": 0, "rental_uris": {"android": "https://dc.lft.to/lastmile_qr_scan", "ios": "https://dc.lft.to/lastmile_qr_scan"}, "fusion_lon": 0.0, "lat": 38.90516683333333, "bike_id": "86209dbbd8658c7cfb858e8de27f58c0", "type": "electric_scooter", "is_reserved": 0, "lon": -77.06131783333333}, {"fusion_lat": 0.0, "name": "8f69c5d09d6c9ea6c503e539dc106a6f", "is_disabled": 0, "rental_uris": {"android": "https://dc.lft.to/lastmile_qr_scan", "ios": "https://dc.lft.to/lastmile_qr_scan"}, "fusion_lon": 0.0, "lat": 38.927938, "bike_id": "8f69c5d09d6c9ea6c503e539dc106a6f", "type": "electric_scooter", "is_reserved": 0, "lon": -76.95557783333334}, {"fusion_lat": 0.0, "name": "d07da63cca15b5ff446eaed7bd686a09", "is_disabled": 0, "rental_uris": {"android": "https://dc.lft.to/lastmile_qr_scan", "ios": "https://dc.lft.to/lastmile_qr_scan"}, "fusion_lon": 0.0, "lat": 38.892387166666666, "bike_id": "d07da63cca15b5ff446eaed7bd686a09", "type": "electric_scooter", "is_reserved": 0, "lon": -77.04875266666667}, {"fusion_lat": 0.0, "name": "0edb484f2bac4a9c7e7f13f3b2e577cb", "is_disabled": 0, "rental_uris": {"android": "https://dc.lft.to/lastmile_qr_scan", "ios": "https://dc.lft.to/lastmile_qr_scan"}, "fusion_lon": 0.0, "lat": 38.91408283333333, "bike_id": "0edb484f2bac4a9c7e7f13f3b2e577cb", "type": "electric_scooter", "is_reserved": 0, "lon": -77.0486755}, {"fusion_lat": 0.0, "name": "6ee7a7b3870993b59465959f64f4547e", "is_disabled": 0, "rental_uris": {"android": "https://dc.lft.to/lastmile_qr_scan", "ios": "https://dc.lft.to/lastmile_qr_scan"}, "fusion_lon": 0.0, "lat": 38.8995305, "bike_id": "6ee7a7b3870993b59465959f64f4547e", "type": "electric_scooter", "is_reserved": 0, "lon": -77.0416065}, {"fusion_lat": 0.0, "name": "b80a7c62def650707c0fc472064a593f", "is_disabled": 0, "rental_uris": {"android": "https://dc.lft.to/lastmile_qr_scan", "ios": "https://dc.lft.to/lastmile_qr_scan"}, "fusion_lon": 0.0, "lat": 38.914549, "bike_id": "b80a7c62def650707c0fc472064a593f", "type": "electric_scooter", "is_reserved": 0, "lon": -77.00641283333333}, {"fusion_lat": 0.0, "name": "93c239792197f17cfca33f77e889014f", "is_disabled": 0, "rental_uris": {"android": "https://dc.lft.to/lastmile_qr_scan", "ios": "https://dc.lft.to/lastmile_qr_scan"}, "fusion_lon": 0.0, "lat": 38.90958966666667, "bike_id": "93c239792197f17cfca33f77e889014f", "type": "electric_scooter", "is_reserved": 0, "lon": -77.03766783333333}, {"fusion_lat": 0.0, "name": "84256b772f6c1dde6e4d564ce836524c", "is_disabled": 0, "rental_uris": {"android": "https://dc.lft.to/lastmile_qr_scan", "ios": "https://dc.lft.to/lastmile_qr_scan"}, "fusion_lon": 0.0, "lat": 38.90716783333333, "bike_id": "84256b772f6c1dde6e4d564ce836524c", "type": "electric_scooter", "is_reserved": 0, "lon": -77.00763616666667}, {"fusion_lat": 0.0, "name": "98facac25d3c116cc255453b874336c5", "is_disabled": 0, "rental_uris": {"android": "https://dc.lft.to/lastmile_qr_scan", "ios": "https://dc.lft.to/lastmile_qr_scan"}, "fusion_lon": 0.0, "lat": 38.90412583333333, "bike_id": "98facac25d3c116cc255453b874336c5", "type": "electric_scooter", "is_reserved": 0, "lon": -76.9733085}, {"fusion_lat": 0.0, "name": "9f18eab8c90201aee546eb80dbcf87b6", "is_disabled": 0, "rental_uris": {"android": "https://dc.lft.to/lastmile_qr_scan", "ios": "https://dc.lft.to/lastmile_qr_scan"}, "fusion_lon": 0.0, "lat": 38.91856083333333, "bike_id": "9f18eab8c90201aee546eb80dbcf87b6", "type": "electric_scooter", "is_reserved": 0, "lon": -77.03199833333333}, {"fusion_lat": 0.0, "name": "47b119803695d43a0cf155ae9e146c55", "is_disabled": 0, "rental_uris": {"android": "https://dc.lft.to/lastmile_qr_scan", "ios": "https://dc.lft.to/lastmile_qr_scan"}, "fusion_lon": 0.0, "lat": 38.8778675, "bike_id": "47b119803695d43a0cf155ae9e146c55", "type": "electric_scooter", "is_reserved": 0, "lon": -76.99407966666666}, {"fusion_lat": 0.0, "name": "64d4ffe0d240422e12962277dd8be063", "is_disabled": 0, "rental_uris": {"android": "https://dc.lft.to/lastmile_qr_scan", "ios": "https://dc.lft.to/lastmile_qr_scan"}, "fusion_lon": 0.0, "lat": 38.93702366666667, "bike_id": "64d4ffe0d240422e12962277dd8be063", "type": "electric_scooter", "is_reserved": 0, "lon": -77.05599383333333}, {"fusion_lat": 0.0, "name": "df4cee2bfaf59e37543954b65239a39d", "is_disabled": 0, "rental_uris": {"android": "https://dc.lft.to/lastmile_qr_scan", "ios": "https://dc.lft.to/lastmile_qr_scan"}, "fusion_lon": 0.0, "lat": 38.91113383333333, "bike_id": "df4cee2bfaf59e37543954b65239a39d", "type": "electric_scooter", "is_reserved": 0, "lon": -77.03835416666666}, {"fusion_lat": 0.0, "name": "d769f2526e19b97f07ce804c74023bf2", "is_disabled": 0, "rental_uris": {"android": "https://dc.lft.to/lastmile_qr_scan", "ios": "https://dc.lft.to/lastmile_qr_scan"}, "fusion_lon": 0.0, "lat": 38.903645833333336, "bike_id": "d769f2526e19b97f07ce804c74023bf2", "type": "electric_scooter", "is_reserved": 0, "lon": -77.04232916666666}, {"fusion_lat": 0.0, "name": "15f1060c7c29f2322e5db466bb807076", "is_disabled": 0, "rental_uris": {"android": "https://dc.lft.to/lastmile_qr_scan", "ios": "https://dc.lft.to/lastmile_qr_scan"}, "fusion_lon": 0.0, "lat": 38.89696466666667, "bike_id": "15f1060c7c29f2322e5db466bb807076", "type": "electric_scooter", "is_reserved": 0, "lon": -77.00496216666667}, {"fusion_lat": 0.0, "name": "867c8e9ac82117d5d7e6b1c8ee23a6a4", "is_disabled": 0, "rental_uris": {"android": "https://dc.lft.to/lastmile_qr_scan", "ios": "https://dc.lft.to/lastmile_qr_scan"}, "fusion_lon": 0.0, "lat": 38.841313166666666, "bike_id": "867c8e9ac82117d5d7e6b1c8ee23a6a4", "type": "electric_bike", "is_reserved": 0, "lon": -77.06306933333333}, {"fusion_lat": 0.0, "name": "6b2c93b12326f8e25059d3988b36504c", "is_disabled": 0, "rental_uris": {"android": "https://dc.lft.to/lastmile_qr_scan", "ios": "https://dc.lft.to/lastmile_qr_scan"}, "fusion_lon": 0.0, "lat": 38.8853195, "bike_id": "6b2c93b12326f8e25059d3988b36504c", "type": "electric_bike", "is_reserved": 0, "lon": -77.12188833333333}, {"fusion_lat": 0.0, "name": "11bd7e3d318adf9c6e9c2dcf0b3ba592", "is_disabled": 0, "rental_uris": {"android": "https://dc.lft.to/lastmile_qr_scan", "ios": "https://dc.lft.to/lastmile_qr_scan"}, "fusion_lon": 0.0, "lat": 38.899980666666664, "bike_id": "11bd7e3d318adf9c6e9c2dcf0b3ba592", "type": "electric_scooter", "is_reserved": 0, "lon": -76.99957783333333}, {"fusion_lat": 0.0, "name": "4aa473ab9ec8bb6c66da3d59c9e5922c", "is_disabled": 0, "rental_uris": {"android": "https://dc.lft.to/lastmile_qr_scan", "ios": "https://dc.lft.to/lastmile_qr_scan"}, "fusion_lon": 0.0, "lat": 38.8983405, "bike_id": "4aa473ab9ec8bb6c66da3d59c9e5922c", "type": "electric_scooter", "is_reserved": 0, "lon": -77.031771}, {"fusion_lat": 0.0, "name": "561d1eca6c43cfc73dd7a5fedd8c8657", "is_disabled": 0, "rental_uris": {"android": "https://dc.lft.to/lastmile_qr_scan", "ios": "https://dc.lft.to/lastmile_qr_scan"}, "fusion_lon": 0.0, "lat": 38.914211, "bike_id": "561d1eca6c43cfc73dd7a5fedd8c8657", "type": "electric_scooter", "is_reserved": 0, "lon": -77.031708}, {"fusion_lat": 0.0, "name": "dc738323f45858be013e402a3abf6722", "is_disabled": 0, "rental_uris": {"android": "https://dc.lft.to/lastmile_qr_scan", "ios": "https://dc.lft.to/lastmile_qr_scan"}, "fusion_lon": 0.0, "lat": 38.91712, "bike_id": "dc738323f45858be013e402a3abf6722", "type": "electric_scooter", "is_reserved": 0, "lon": -77.0238075}, {"fusion_lat": 0.0, "name": "242a7f69918fa7b8a34a2e0158dfa75b", "is_disabled": 0, "rental_uris": {"android": "https://dc.lft.to/lastmile_qr_scan", "ios": "https://dc.lft.to/lastmile_qr_scan"}, "fusion_lon": 0.0, "lat": 38.9055245, "bike_id": "242a7f69918fa7b8a34a2e0158dfa75b", "type": "electric_scooter", "is_reserved": 0, "lon": -77.006083}, {"fusion_lat": 0.0, "name": "570f9a91a097a4914aaef28e1e03f21a", "is_disabled": 0, "rental_uris": {"android": "https://dc.lft.to/lastmile_qr_scan", "ios": "https://dc.lft.to/lastmile_qr_scan"}, "fusion_lon": 0.0, "lat": 38.89972183333333, "bike_id": "570f9a91a097a4914aaef28e1e03f21a", "type": "electric_scooter", "is_reserved": 0, "lon": -76.98161666666667}, {"fusion_lat": 0.0, "name": "872164d0fb77f9f1d01f1680213fef25", "is_disabled": 0, "rental_uris": {"android": "https://dc.lft.to/lastmile_qr_scan", "ios": "https://dc.lft.to/lastmile_qr_scan"}, "fusion_lon": 0.0, "lat": 38.93124266666667, "bike_id": "872164d0fb77f9f1d01f1680213fef25", "type": "electric_scooter", "is_reserved": 0, "lon": -76.98440366666667}, {"fusion_lat": 0.0, "name": "5284c9223f470cf04638c2d629804bfa", "is_disabled": 0, "rental_uris": {"android": "https://dc.lft.to/lastmile_qr_scan", "ios": "https://dc.lft.to/lastmile_qr_scan"}, "fusion_lon": 0.0, "lat": 38.9056865, "bike_id": "5284c9223f470cf04638c2d629804bfa", "type": "electric_scooter", "is_reserved": 0, "lon": -77.043745}, {"fusion_lat": 0.0, "name": "b45dd5ac93f849de160d771eb967b793", "is_disabled": 0, "rental_uris": {"android": "https://dc.lft.to/lastmile_qr_scan", "ios": "https://dc.lft.to/lastmile_qr_scan"}, "fusion_lon": 0.0, "lat": 38.94294516666667, "bike_id": "b45dd5ac93f849de160d771eb967b793", "type": "electric_scooter", "is_reserved": 0, "lon": -77.02168316666666}, {"fusion_lat": 0.0, "name": "bc3566b6009de00977bb289bfef01892", "is_disabled": 0, "rental_uris": {"android": "https://dc.lft.to/lastmile_qr_scan", "ios": "https://dc.lft.to/lastmile_qr_scan"}, "fusion_lon": 0.0, "lat": 38.955933, "bike_id": "bc3566b6009de00977bb289bfef01892", "type": "electric_bike", "is_reserved": 0, "lon": -76.995332}, {"fusion_lat": 0.0, "name": "71cd1527534445f7d5a852c86a54edac", "is_disabled": 0, "rental_uris": {"android": "https://dc.lft.to/lastmile_qr_scan", "ios": "https://dc.lft.to/lastmile_qr_scan"}, "fusion_lon": 0.0, "lat": 38.872944833333335, "bike_id": "71cd1527534445f7d5a852c86a54edac", "type": "electric_scooter", "is_reserved": 0, "lon": -77.00983466666666}, {"fusion_lat": 0.0, "name": "6dd6da0f0c10177d9d07e3cea2da1424", "is_disabled": 0, "rental_uris": {"android": "https://dc.lft.to/lastmile_qr_scan", "ios": "https://dc.lft.to/lastmile_qr_scan"}, "fusion_lon": 0.0, "lat": 38.895999, "bike_id": "6dd6da0f0c10177d9d07e3cea2da1424", "type": "electric_scooter", "is_reserved": 0, "lon": -77.02611483333334}, {"fusion_lat": 0.0, "name": "f335aba78b9d413ca361045127e061e9", "is_disabled": 0, "rental_uris": {"android": "https://dc.lft.to/lastmile_qr_scan", "ios": "https://dc.lft.to/lastmile_qr_scan"}, "fusion_lon": 0.0, "lat": 38.924018833333335, "bike_id": "f335aba78b9d413ca361045127e061e9", "type": "electric_scooter", "is_reserved": 0, "lon": -77.04307383333334}, {"fusion_lat": 0.0, "name": "906f8f874f45e4a7e7891923fe18e09e", "is_disabled": 0, "rental_uris": {"android": "https://dc.lft.to/lastmile_qr_scan", "ios": "https://dc.lft.to/lastmile_qr_scan"}, "fusion_lon": 0.0, "lat": 38.935908166666664, "bike_id": "906f8f874f45e4a7e7891923fe18e09e", "type": "electric_scooter", "is_reserved": 0, "lon": -77.0733935}, {"fusion_lat": 0.0, "name": "f59733aa3048e47073e9984293052c63", "is_disabled": 0, "rental_uris": {"android": "https://dc.lft.to/lastmile_qr_scan", "ios": "https://dc.lft.to/lastmile_qr_scan"}, "fusion_lon": 0.0, "lat": 38.92422583333333, "bike_id": "f59733aa3048e47073e9984293052c63", "type": "electric_scooter", "is_reserved": 0, "lon": -77.0195235}, {"fusion_lat": 0.0, "name": "ac7309e6fb0bed34b581347bb2cfa677", "is_disabled": 0, "rental_uris": {"android": "https://dc.lft.to/lastmile_qr_scan", "ios": "https://dc.lft.to/lastmile_qr_scan"}, "fusion_lon": 0.0, "lat": 38.920576, "bike_id": "ac7309e6fb0bed34b581347bb2cfa677", "type": "electric_bike", "is_reserved": 0, "lon": -77.0330705}, {"fusion_lat": 0.0, "name": "1b4148930e73b87645a6c4fc014a3c6c", "is_disabled": 0, "rental_uris": {"android": "https://dc.lft.to/lastmile_qr_scan", "ios": "https://dc.lft.to/lastmile_qr_scan"}, "fusion_lon": 0.0, "lat": 38.919179, "bike_id": "1b4148930e73b87645a6c4fc014a3c6c", "type": "electric_scooter", "is_reserved": 0, "lon": -77.024993}, {"fusion_lat": 0.0, "name": "3802cf21a78108e21f3dd4dbe384df45", "is_disabled": 0, "rental_uris": {"android": "https://dc.lft.to/lastmile_qr_scan", "ios": "https://dc.lft.to/lastmile_qr_scan"}, "fusion_lon": 0.0, "lat": 38.87182216666667, "bike_id": "3802cf21a78108e21f3dd4dbe384df45", "type": "electric_scooter", "is_reserved": 0, "lon": -77.0060895}, {"fusion_lat": 0.0, "name": "da7e6bc9d458caa23dd9e742ea37ee22", "is_disabled": 0, "rental_uris": {"android": "https://dc.lft.to/lastmile_qr_scan", "ios": "https://dc.lft.to/lastmile_qr_scan"}, "fusion_lon": 0.0, "lat": 38.9016755, "bike_id": "da7e6bc9d458caa23dd9e742ea37ee22", "type": "electric_scooter", "is_reserved": 0, "lon": -77.04883733333334}, {"fusion_lat": 0.0, "name": "29ba047444a5b4f1241bfb6b9f144252", "is_disabled": 0, "rental_uris": {"android": "https://dc.lft.to/lastmile_qr_scan", "ios": "https://dc.lft.to/lastmile_qr_scan"}, "fusion_lon": 0.0, "lat": 38.89221916666666, "bike_id": "29ba047444a5b4f1241bfb6b9f144252", "type": "electric_scooter", "is_reserved": 0, "lon": -77.02224883333334}, {"fusion_lat": 0.0, "name": "471682f4890bd98985eee2ecdff8c239", "is_disabled": 0, "rental_uris": {"android": "https://dc.lft.to/lastmile_qr_scan", "ios": "https://dc.lft.to/lastmile_qr_scan"}, "fusion_lon": 0.0, "lat": 38.9146055, "bike_id": "471682f4890bd98985eee2ecdff8c239", "type": "electric_scooter", "is_reserved": 0, "lon": -77.04177433333334}, {"fusion_lat": 0.0, "name": "91559a3b4f8223a00aa39a1d2bd9e80a", "is_disabled": 0, "rental_uris": {"android": "https://dc.lft.to/lastmile_qr_scan", "ios": "https://dc.lft.to/lastmile_qr_scan"}, "fusion_lon": 0.0, "lat": 38.928353333333334, "bike_id": "91559a3b4f8223a00aa39a1d2bd9e80a", "type": "electric_scooter", "is_reserved": 0, "lon": -77.05456983333333}, {"fusion_lat": 0.0, "name": "798e8f897efc0d5b89101eae5dd3d148", "is_disabled": 0, "rental_uris": {"android": "https://dc.lft.to/lastmile_qr_scan", "ios": "https://dc.lft.to/lastmile_qr_scan"}, "fusion_lon": 0.0, "lat": 38.887897, "bike_id": "798e8f897efc0d5b89101eae5dd3d148", "type": "electric_bike", "is_reserved": 0, "lon": -76.92342483333333}, {"fusion_lat": 0.0, "name": "d40c3d238f522b6d81ddcf68ca387dc6", "is_disabled": 0, "rental_uris": {"android": "https://dc.lft.to/lastmile_qr_scan", "ios": "https://dc.lft.to/lastmile_qr_scan"}, "fusion_lon": 0.0, "lat": 38.91405116666667, "bike_id": "d40c3d238f522b6d81ddcf68ca387dc6", "type": "electric_scooter", "is_reserved": 0, "lon": -77.03904783333333}, {"fusion_lat": 0.0, "name": "1e44970d8d05eec54d9be92c4e5b8a45", "is_disabled": 0, "rental_uris": {"android": "https://dc.lft.to/lastmile_qr_scan", "ios": "https://dc.lft.to/lastmile_qr_scan"}, "fusion_lon": 0.0, "lat": 38.918896333333336, "bike_id": "1e44970d8d05eec54d9be92c4e5b8a45", "type": "electric_scooter", "is_reserved": 0, "lon": -77.0296755}, {"fusion_lat": 0.0, "name": "5fb65607c65d406e52371a48518f0c42", "is_disabled": 0, "rental_uris": {"android": "https://dc.lft.to/lastmile_qr_scan", "ios": "https://dc.lft.to/lastmile_qr_scan"}, "fusion_lon": 0.0, "lat": 38.874924666666665, "bike_id": "5fb65607c65d406e52371a48518f0c42", "type": "electric_bike", "is_reserved": 0, "lon": -77.2112305}, {"fusion_lat": 0.0, "name": "e37e5d202a1889e0b5a0f89c73b460b5", "is_disabled": 0, "rental_uris": {"android": "https://dc.lft.to/lastmile_qr_scan", "ios": "https://dc.lft.to/lastmile_qr_scan"}, "fusion_lon": 0.0, "lat": 38.8961305, "bike_id": "e37e5d202a1889e0b5a0f89c73b460b5", "type": "electric_bike", "is_reserved": 0, "lon": -76.9074065}, {"fusion_lat": 0.0, "name": "ff4cd3d86335a84e4ed50fa752c27bfb", "is_disabled": 0, "rental_uris": {"android": "https://dc.lft.to/lastmile_qr_scan", "ios": "https://dc.lft.to/lastmile_qr_scan"}, "fusion_lon": 0.0, "lat": 38.907249, "bike_id": "ff4cd3d86335a84e4ed50fa752c27bfb", "type": "electric_scooter", "is_reserved": 0, "lon": -77.02981166666666}, {"fusion_lat": 0.0, "name": "a1460ae92fb021e9d2034f255638d75a", "is_disabled": 0, "rental_uris": {"android": "https://dc.lft.to/lastmile_qr_scan", "ios": "https://dc.lft.to/lastmile_qr_scan"}, "fusion_lon": 0.0, "lat": 38.84615516666667, "bike_id": "a1460ae92fb021e9d2034f255638d75a", "type": "electric_bike", "is_reserved": 0, "lon": -76.96907866666666}, {"fusion_lat": 0.0, "name": "4049a80e051822c3228edf4d67f668e0", "is_disabled": 0, "rental_uris": {"android": "https://dc.lft.to/lastmile_qr_scan", "ios": "https://dc.lft.to/lastmile_qr_scan"}, "fusion_lon": 0.0, "lat": 38.89223066666667, "bike_id": "4049a80e051822c3228edf4d67f668e0", "type": "electric_scooter", "is_reserved": 0, "lon": -77.04310266666667}, {"fusion_lat": 0.0, "name": "03ac77c185e8682e09608676f01173bb", "is_disabled": 0, "rental_uris": {"android": "https://dc.lft.to/lastmile_qr_scan", "ios": "https://dc.lft.to/lastmile_qr_scan"}, "fusion_lon": 0.0, "lat": 38.904660666666665, "bike_id": "03ac77c185e8682e09608676f01173bb", "type": "electric_scooter", "is_reserved": 0, "lon": -77.031173}, {"fusion_lat": 0.0, "name": "e78af88f20b7b59a0bbd065563a703a6", "is_disabled": 0, "rental_uris": {"android": "https://dc.lft.to/lastmile_qr_scan", "ios": "https://dc.lft.to/lastmile_qr_scan"}, "fusion_lon": 0.0, "lat": 38.91493766666667, "bike_id": "e78af88f20b7b59a0bbd065563a703a6", "type": "electric_bike", "is_reserved": 0, "lon": -77.01015983333333}, {"fusion_lat": 0.0, "name": "4be61da2bc09f37cfdbfb895f1a5f3b7", "is_disabled": 0, "rental_uris": {"android": "https://dc.lft.to/lastmile_qr_scan", "ios": "https://dc.lft.to/lastmile_qr_scan"}, "fusion_lon": 0.0, "lat": 38.948233333333334, "bike_id": "4be61da2bc09f37cfdbfb895f1a5f3b7", "type": "electric_scooter", "is_reserved": 0, "lon": -77.07996233333333}, {"fusion_lat": 0.0, "name": "b98c351e15a98fd9ee86ed7877a870a0", "is_disabled": 0, "rental_uris": {"android": "https://dc.lft.to/lastmile_qr_scan", "ios": "https://dc.lft.to/lastmile_qr_scan"}, "fusion_lon": 0.0, "lat": 38.9039555, "bike_id": "b98c351e15a98fd9ee86ed7877a870a0", "type": "electric_scooter", "is_reserved": 0, "lon": -77.04362666666667}, {"fusion_lat": 0.0, "name": "1d5090fb300ffd867372e62ed49471b3", "is_disabled": 0, "rental_uris": {"android": "https://dc.lft.to/lastmile_qr_scan", "ios": "https://dc.lft.to/lastmile_qr_scan"}, "fusion_lon": 0.0, "lat": 38.897397, "bike_id": "1d5090fb300ffd867372e62ed49471b3", "type": "electric_scooter", "is_reserved": 0, "lon": -77.04536616666667}, {"fusion_lat": 0.0, "name": "942f69962932829e3034bf9934e01c95", "is_disabled": 0, "rental_uris": {"android": "https://dc.lft.to/lastmile_qr_scan", "ios": "https://dc.lft.to/lastmile_qr_scan"}, "fusion_lon": 0.0, "lat": 38.916923, "bike_id": "942f69962932829e3034bf9934e01c95", "type": "electric_scooter", "is_reserved": 0, "lon": -77.02594633333334}, {"fusion_lat": 0.0, "name": "e052be22dd1065a73f4db82f14c3a9d2", "is_disabled": 0, "rental_uris": {"android": "https://dc.lft.to/lastmile_qr_scan", "ios": "https://dc.lft.to/lastmile_qr_scan"}, "fusion_lon": 0.0, "lat": 38.92273683333333, "bike_id": "e052be22dd1065a73f4db82f14c3a9d2", "type": "electric_scooter", "is_reserved": 0, "lon": -77.04234966666667}, {"fusion_lat": 0.0, "name": "a2b14e976ed684fe5e047adaa259bebc", "is_disabled": 0, "rental_uris": {"android": "https://dc.lft.to/lastmile_qr_scan", "ios": "https://dc.lft.to/lastmile_qr_scan"}, "fusion_lon": 0.0, "lat": 38.91982183333333, "bike_id": "a2b14e976ed684fe5e047adaa259bebc", "type": "electric_scooter", "is_reserved": 0, "lon": -77.03281216666667}, {"fusion_lat": 0.0, "name": "208d9348f8648e6b6613669194808e92", "is_disabled": 0, "rental_uris": {"android": "https://dc.lft.to/lastmile_qr_scan", "ios": "https://dc.lft.to/lastmile_qr_scan"}, "fusion_lon": 0.0, "lat": 38.91001833333333, "bike_id": "208d9348f8648e6b6613669194808e92", "type": "electric_scooter", "is_reserved": 0, "lon": -76.9941005}, {"fusion_lat": 0.0, "name": "96feb9c91aa441543954ac5a5a535a71", "is_disabled": 0, "rental_uris": {"android": "https://dc.lft.to/lastmile_qr_scan", "ios": "https://dc.lft.to/lastmile_qr_scan"}, "fusion_lon": 0.0, "lat": 38.8837035, "bike_id": "96feb9c91aa441543954ac5a5a535a71", "type": "electric_scooter", "is_reserved": 0, "lon": -76.9957255}, {"fusion_lat": 0.0, "name": "eb2896e432dc3e7f29042537b3855c79", "is_disabled": 0, "rental_uris": {"android": "https://dc.lft.to/lastmile_qr_scan", "ios": "https://dc.lft.to/lastmile_qr_scan"}, "fusion_lon": 0.0, "lat": 38.96146983333333, "bike_id": "eb2896e432dc3e7f29042537b3855c79", "type": "electric_scooter", "is_reserved": 0, "lon": -77.028164}, {"fusion_lat": 0.0, "name": "45889874563af1806d6b4b90242a3847", "is_disabled": 0, "rental_uris": {"android": "https://dc.lft.to/lastmile_qr_scan", "ios": "https://dc.lft.to/lastmile_qr_scan"}, "fusion_lon": 0.0, "lat": 38.9370555, "bike_id": "45889874563af1806d6b4b90242a3847", "type": "electric_scooter", "is_reserved": 0, "lon": -77.03279783333333}, {"fusion_lat": 0.0, "name": "317e013a38b09ad2f5d12e1791cf80ff", "is_disabled": 0, "rental_uris": {"android": "https://dc.lft.to/lastmile_qr_scan", "ios": "https://dc.lft.to/lastmile_qr_scan"}, "fusion_lon": 0.0, "lat": 38.90575316666666, "bike_id": "317e013a38b09ad2f5d12e1791cf80ff", "type": "electric_scooter", "is_reserved": 0, "lon": -77.05134016666666}, {"fusion_lat": 0.0, "name": "12f82f871e2923ba75dc099313cbfb6b", "is_disabled": 0, "rental_uris": {"android": "https://dc.lft.to/lastmile_qr_scan", "ios": "https://dc.lft.to/lastmile_qr_scan"}, "fusion_lon": 0.0, "lat": 38.90153033333333, "bike_id": "12f82f871e2923ba75dc099313cbfb6b", "type": "electric_scooter", "is_reserved": 0, "lon": -77.0392665}, {"fusion_lat": 0.0, "name": "51c556dc830ba29726e8e38e83a485dc", "is_disabled": 0, "rental_uris": {"android": "https://dc.lft.to/lastmile_qr_scan", "ios": "https://dc.lft.to/lastmile_qr_scan"}, "fusion_lon": 0.0, "lat": 38.88517516666667, "bike_id": "51c556dc830ba29726e8e38e83a485dc", "type": "electric_scooter", "is_reserved": 0, "lon": -77.01509633333333}, {"fusion_lat": 0.0, "name": "2a669c9fccf1d735e2c61b7461128f47", "is_disabled": 0, "rental_uris": {"android": "https://dc.lft.to/lastmile_qr_scan", "ios": "https://dc.lft.to/lastmile_qr_scan"}, "fusion_lon": 0.0, "lat": 38.945135666666665, "bike_id": "2a669c9fccf1d735e2c61b7461128f47", "type": "electric_scooter", "is_reserved": 0, "lon": -77.02171116666666}, {"fusion_lat": 0.0, "name": "2a0d923379fab1a3060bb2b2c0a02521", "is_disabled": 0, "rental_uris": {"android": "https://dc.lft.to/lastmile_qr_scan", "ios": "https://dc.lft.to/lastmile_qr_scan"}, "fusion_lon": 0.0, "lat": 38.902391333333334, "bike_id": "2a0d923379fab1a3060bb2b2c0a02521", "type": "electric_scooter", "is_reserved": 0, "lon": -77.05941533333333}, {"fusion_lat": 0.0, "name": "f6560f754d891d69b5d7019930c799ee", "is_disabled": 0, "rental_uris": {"android": "https://dc.lft.to/lastmile_qr_scan", "ios": "https://dc.lft.to/lastmile_qr_scan"}, "fusion_lon": 0.0, "lat": 38.923625666666666, "bike_id": "f6560f754d891d69b5d7019930c799ee", "type": "electric_scooter", "is_reserved": 0, "lon": -77.05049366666667}, {"fusion_lat": 0.0, "name": "da7562f14a293662db98a5897a3221fb", "is_disabled": 0, "rental_uris": {"android": "https://dc.lft.to/lastmile_qr_scan", "ios": "https://dc.lft.to/lastmile_qr_scan"}, "fusion_lon": 0.0, "lat": 38.920807333333336, "bike_id": "da7562f14a293662db98a5897a3221fb", "type": "electric_bike", "is_reserved": 0, "lon": -76.98945066666667}, {"fusion_lat": 0.0, "name": "6f33347c74915ae90267b0c58ad34685", "is_disabled": 0, "rental_uris": {"android": "https://dc.lft.to/lastmile_qr_scan", "ios": "https://dc.lft.to/lastmile_qr_scan"}, "fusion_lon": 0.0, "lat": 38.87957766666667, "bike_id": "6f33347c74915ae90267b0c58ad34685", "type": "electric_scooter", "is_reserved": 0, "lon": -76.9901625}, {"fusion_lat": 0.0, "name": "2dede42eb2a23a322c72734b7ee71eaa", "is_disabled": 0, "rental_uris": {"android": "https://dc.lft.to/lastmile_qr_scan", "ios": "https://dc.lft.to/lastmile_qr_scan"}, "fusion_lon": 0.0, "lat": 38.90176316666667, "bike_id": "2dede42eb2a23a322c72734b7ee71eaa", "type": "electric_scooter", "is_reserved": 0, "lon": -77.0344025}, {"fusion_lat": 0.0, "name": "995c5677a13d32f3391010ac9ed860e6", "is_disabled": 0, "rental_uris": {"android": "https://dc.lft.to/lastmile_qr_scan", "ios": "https://dc.lft.to/lastmile_qr_scan"}, "fusion_lon": 0.0, "lat": 38.90410716666667, "bike_id": "995c5677a13d32f3391010ac9ed860e6", "type": "electric_scooter", "is_reserved": 0, "lon": -76.97330466666666}, {"fusion_lat": 0.0, "name": "80fa0fd6f4ef907f3d223a293eaa134e", "is_disabled": 0, "rental_uris": {"android": "https://dc.lft.to/lastmile_qr_scan", "ios": "https://dc.lft.to/lastmile_qr_scan"}, "fusion_lon": 0.0, "lat": 38.914766166666666, "bike_id": "80fa0fd6f4ef907f3d223a293eaa134e", "type": "electric_scooter", "is_reserved": 0, "lon": -77.04550816666666}, {"fusion_lat": 0.0, "name": "ead447305109a0b590009571761a6a0a", "is_disabled": 0, "rental_uris": {"android": "https://dc.lft.to/lastmile_qr_scan", "ios": "https://dc.lft.to/lastmile_qr_scan"}, "fusion_lon": 0.0, "lat": 38.876880666666665, "bike_id": "ead447305109a0b590009571761a6a0a", "type": "electric_scooter", "is_reserved": 0, "lon": -77.01754933333333}, {"fusion_lat": 0.0, "name": "ff70889f71fbfe5af9e394ac6355751f", "is_disabled": 0, "rental_uris": {"android": "https://dc.lft.to/lastmile_qr_scan", "ios": "https://dc.lft.to/lastmile_qr_scan"}, "fusion_lon": 0.0, "lat": 38.898869, "bike_id": "ff70889f71fbfe5af9e394ac6355751f", "type": "electric_scooter", "is_reserved": 0, "lon": -77.03286233333333}, {"fusion_lat": 0.0, "name": "7db6cf6c5bd18f05003721af41a6e386", "is_disabled": 0, "rental_uris": {"android": "https://dc.lft.to/lastmile_qr_scan", "ios": "https://dc.lft.to/lastmile_qr_scan"}, "fusion_lon": 0.0, "lat": 38.9076545, "bike_id": "7db6cf6c5bd18f05003721af41a6e386", "type": "electric_scooter", "is_reserved": 0, "lon": -77.02980583333333}, {"fusion_lat": 0.0, "name": "80a7dcf574bb8960b8f928e48acc07ce", "is_disabled": 0, "rental_uris": {"android": "https://dc.lft.to/lastmile_qr_scan", "ios": "https://dc.lft.to/lastmile_qr_scan"}, "fusion_lon": 0.0, "lat": 38.92604566666667, "bike_id": "80a7dcf574bb8960b8f928e48acc07ce", "type": "electric_scooter", "is_reserved": 0, "lon": -77.02154433333334}, {"fusion_lat": 0.0, "name": "fa434bb4bd20b9b861afe32dc37b2c89", "is_disabled": 0, "rental_uris": {"android": "https://dc.lft.to/lastmile_qr_scan", "ios": "https://dc.lft.to/lastmile_qr_scan"}, "fusion_lon": 0.0, "lat": 38.915629333333335, "bike_id": "fa434bb4bd20b9b861afe32dc37b2c89", "type": "electric_scooter", "is_reserved": 0, "lon": -77.03221933333333}, {"fusion_lat": 0.0, "name": "ddc506f2d75178a32dce5ce324fc5b94", "is_disabled": 0, "rental_uris": {"android": "https://dc.lft.to/lastmile_qr_scan", "ios": "https://dc.lft.to/lastmile_qr_scan"}, "fusion_lon": 0.0, "lat": 38.89965316666667, "bike_id": "ddc506f2d75178a32dce5ce324fc5b94", "type": "electric_scooter", "is_reserved": 0, "lon": -77.0465555}, {"fusion_lat": 0.0, "name": "18ef99baab465d7853f79c6783daf595", "is_disabled": 0, "rental_uris": {"android": "https://dc.lft.to/lastmile_qr_scan", "ios": "https://dc.lft.to/lastmile_qr_scan"}, "fusion_lon": 0.0, "lat": 38.89830516666667, "bike_id": "18ef99baab465d7853f79c6783daf595", "type": "electric_scooter", "is_reserved": 0, "lon": -76.94630433333333}, {"fusion_lat": 0.0, "name": "c5a538290187ed3536b8ba11040852a1", "is_disabled": 0, "rental_uris": {"android": "https://dc.lft.to/lastmile_qr_scan", "ios": "https://dc.lft.to/lastmile_qr_scan"}, "fusion_lon": 0.0, "lat": 38.821772833333334, "bike_id": "c5a538290187ed3536b8ba11040852a1", "type": "electric_bike", "is_reserved": 0, "lon": -76.99510116666667}, {"fusion_lat": 0.0, "name": "bb16ff672dd83cf7377f2487e8907d72", "is_disabled": 0, "rental_uris": {"android": "https://dc.lft.to/lastmile_qr_scan", "ios": "https://dc.lft.to/lastmile_qr_scan"},