{"data": {"bikes": [{"lat": 38.92483283333333, "is_disabled": 0, "type": "electric_scooter", "lon": -77.03188216666666, "bike_id": "066c234b5a8a13563a7376abe523e470", "fusion_lat": 0.0, "name": "066c234b5a8a13563a7376abe523e470", "is_reserved": 0, "rental_uris": {"android": "https://dc.lft.to/lastmile_qr_scan", "ios": "https://dc.lft.to/lastmile_qr_scan"}, "fusion_lon": 0.0}, {"lat": 38.92541683333334, "is_disabled": 0, "type": "electric_scooter", "lon": -77.03449433333333, "bike_id": "1bcc641570da29ec3428ffff6fc3e695", "fusion_lat": 0.0, "name": "1bcc641570da29ec3428ffff6fc3e695", "is_reserved": 0, "rental_uris": {"android": "https://dc.lft.to/lastmile_qr_scan", "ios": "https://dc.lft.to/lastmile_qr_scan"}, "fusion_lon": 0.0}, {"lat": 38.96614683333333, "is_disabled": 0, "type": "electric_scooter", "lon": -77.0205415, "bike_id": "a5c1448468b8bc5dbd36c697f93c9ff6", "fusion_lat": 0.0, "name": "a5c1448468b8bc5dbd36c697f93c9ff6", "is_reserved": 0, "rental_uris": {"android": "https://dc.lft.to/lastmile_qr_scan", "ios": "https://dc.lft.to/lastmile_qr_scan"}, "fusion_lon": 0.0}, {"lat": 38.858075166666666, "is_disabled": 0, "type": "electric_scooter", "lon": -76.9864955, "bike_id": "8260ad7cc7003a253ac7fb0edb48ce21", "fusion_lat": 0.0, "name": "8260ad7cc7003a253ac7fb0edb48ce21", "is_reserved": 0, "rental_uris": {"android": "https://dc.lft.to/lastmile_qr_scan", "ios": "https://dc.lft.to/lastmile_qr_scan"}, "fusion_lon": 0.0}, {"lat": 38.942080833333335, "is_disabled": 0, "type": "electric_bike", "lon": -77.01826533333333, "bike_id": "cf9fee59ffebc2c973b1a46951102de4", "fusion_lat": 0.0, "name": "cf9fee59ffebc2c973b1a46951102de4", "is_reserved": 0, "rental_uris": {"android": "https://dc.lft.to/lastmile_qr_scan", "ios": "https://dc.lft.to/lastmile_qr_scan"}, "fusion_lon": 0.0}, {"lat": 38.934826666666666, "is_disabled": 0, "type": "electric_scooter", "lon": -77.05790966666666, "bike_id": "16de19c1fcd58a8afc16796afc0b5b89", "fusion_lat": 0.0, "name": "16de19c1fcd58a8afc16796afc0b5b89", "is_reserved": 0, "rental_uris": {"android": "https://dc.lft.to/lastmile_qr_scan", "ios": "https://dc.lft.to/lastmile_qr_scan"}, "fusion_lon": 0.0}, {"lat": 38.900250166666666, "is_disabled": 0, "type": "electric_scooter", "lon": -77.00205316666667, "bike_id": "3bb412140f9abb811d2da5f9939c3b36", "fusion_lat": 0.0, "name": "3bb412140f9abb811d2da5f9939c3b36", "is_reserved": 0, "rental_uris": {"android": "https://dc.lft.to/lastmile_qr_scan", "ios": "https://dc.lft.to/lastmile_qr_scan"}, "fusion_lon": 0.0}, {"lat": 38.88747566666667, "is_disabled": 0, "type": "electric_scooter", "lon": -77.03154066666667, "bike_id": "0d5d8a23a49e6ef2e3dfde2d7aa767af", "fusion_lat": 0.0, "name": "0d5d8a23a49e6ef2e3dfde2d7aa767af", "is_reserved": 0, "rental_uris": {"android": "https://dc.lft.to/lastmile_qr_scan", "ios": "https://dc.lft.to/lastmile_qr_scan"}, "fusion_lon": 0.0}, {"lat": 38.837278166666664, "is_disabled": 0, "type": "electric_bike", "lon": -76.99758283333334, "bike_id": "bc74bdc7a60a6981398f53ec9bffd3c9", "fusion_lat": 0.0, "name": "bc74bdc7a60a6981398f53ec9bffd3c9", "is_reserved": 0, "rental_uris": {"android": "https://dc.lft.to/lastmile_qr_scan", "ios": "https://dc.lft.to/lastmile_qr_scan"}, "fusion_lon": 0.0}, {"lat": 38.85498666666667, "is_disabled": 0, "type": "electric_bike", "lon": -76.98413866666667, "bike_id": "1d68e0fab5ccf996ddbf0f2393d07da4", "fusion_lat": 0.0, "name": "1d68e0fab5ccf996ddbf0f2393d07da4", "is_reserved": 0, "rental_uris": {"android": "https://dc.lft.to/lastmile_qr_scan", "ios": "https://dc.lft.to/lastmile_qr_scan"}, "fusion_lon": 0.0}, {"lat": 38.938142666666664, "is_disabled": 0, "type": "electric_bike", "lon": -77.02635716666667, "bike_id": "7038a5ce2e57aa21f276c306ba79881d", "fusion_lat": 0.0, "name": "7038a5ce2e57aa21f276c306ba79881d", "is_reserved": 0, "rental_uris": {"android": "https://dc.lft.to/lastmile_qr_scan", "ios": "https://dc.lft.to/lastmile_qr_scan"}, "fusion_lon": 0.0}, {"lat": 38.93844266666667, "is_disabled": 0, "type": "electric_scooter", "lon": -77.02579266666666, "bike_id": "e652483e5f8b353857b65d6cf4f7185f", "fusion_lat": 0.0, "name": "e652483e5f8b353857b65d6cf4f7185f", "is_reserved": 0, "rental_uris": {"android": "https://dc.lft.to/lastmile_qr_scan", "ios": "https://dc.lft.to/lastmile_qr_scan"}, "fusion_lon": 0.0}, {"lat": 38.91616233333333, "is_disabled": 0, "type": "electric_scooter", "lon": -77.02547733333333, "bike_id": "becf277bb2e91aad47c1a19b9f3447bb", "fusion_lat": 0.0, "name": "becf277bb2e91aad47c1a19b9f3447bb", "is_reserved": 0, "rental_uris": {"android": "https://dc.lft.to/lastmile_qr_scan", "ios": "https://dc.lft.to/lastmile_qr_scan"}, "fusion_lon": 0.0}, {"lat": 38.85684716666667, "is_disabled": 0, "type": "electric_scooter", "lon": -76.98173733333333, "bike_id": "66b20097fe1b906c867d36529c260dda", "fusion_lat": 0.0, "name": "66b20097fe1b906c867d36529c260dda", "is_reserved": 0, "rental_uris": {"android": "https://dc.lft.to/lastmile_qr_scan", "ios": "https://dc.lft.to/lastmile_qr_scan"}, "fusion_lon": 0.0}, {"lat": 38.9342755, "is_disabled": 0, "type": "electric_scooter", "lon": -77.04138233333333, "bike_id": "51e22aaff31afe63449374ba33c7b741", "fusion_lat": 0.0, "name": "51e22aaff31afe63449374ba33c7b741", "is_reserved": 0, "rental_uris": {"android": "https://dc.lft.to/lastmile_qr_scan", "ios": "https://dc.lft.to/lastmile_qr_scan"}, "fusion_lon": 0.0}, {"lat": 38.88998333333333, "is_disabled": 0, "type": "electric_scooter", "lon": -76.95568483333334, "bike_id": "ca9b42eb999c4be2a197901ef5b8487d", "fusion_lat": 0.0, "name": "ca9b42eb999c4be2a197901ef5b8487d", "is_reserved": 0, "rental_uris": {"android": "https://dc.lft.to/lastmile_qr_scan", "ios": "https://dc.lft.to/lastmile_qr_scan"}, "fusion_lon": 0.0}, {"lat": 38.90573366666667, "is_disabled": 0, "type": "electric_scooter", "lon": -77.06259016666667, "bike_id": "518d5a3289da1373eb7567e2b83745fd", "fusion_lat": 0.0, "name": "518d5a3289da1373eb7567e2b83745fd", "is_reserved": 0, "rental_uris": {"android": "https://dc.lft.to/lastmile_qr_scan", "ios": "https://dc.lft.to/lastmile_qr_scan"}, "fusion_lon": 0.0}, {"lat": 38.90554683333333, "is_disabled": 0, "type": "electric_scooter", "lon": -77.0059415, "bike_id": "2ad0e338fa1470855245ede4c286763b", "fusion_lat": 0.0, "name": "2ad0e338fa1470855245ede4c286763b", "is_reserved": 0, "rental_uris": {"android": "https://dc.lft.to/lastmile_qr_scan", "ios": "https://dc.lft.to/lastmile_qr_scan"}, "fusion_lon": 0.0}, {"lat": 38.906891, "is_disabled": 0, "type": "electric_scooter", "lon": -77.071989, "bike_id": "9e205d5028f825cd9ba387db498da198", "fusion_lat": 0.0, "name": "9e205d5028f825cd9ba387db498da198", "is_reserved": 0, "rental_uris": {"android": "https://dc.lft.to/lastmile_qr_scan", "ios": "https://dc.lft.to/lastmile_qr_scan"}, "fusion_lon": 0.0}, {"lat": 38.886248, "is_disabled": 0, "type": "electric_scooter", "lon": -77.00336, "bike_id": "771b042751a96dc56a581beaf0e265ba", "fusion_lat": 0.0, "name": "771b042751a96dc56a581beaf0e265ba", "is_reserved": 0, "rental_uris": {"android": "https://dc.lft.to/lastmile_qr_scan", "ios": "https://dc.lft.to/lastmile_qr_scan"}, "fusion_lon": 0.0}, {"lat": 38.908001666666664, "is_disabled": 0, "type": "electric_scooter", "lon": -77.03847533333334, "bike_id": "6506370e8e632f98662f70fdebd666cc", "fusion_lat": 0.0, "name": "6506370e8e632f98662f70fdebd666cc", "is_reserved": 0, "rental_uris": {"android": "https://dc.lft.to/lastmile_qr_scan", "ios": "https://dc.lft.to/lastmile_qr_scan"}, "fusion_lon": 0.0}, {"lat": 38.92183266666667, "is_disabled": 0, "type": "electric_scooter", "lon": -77.04019916666667, "bike_id": "25a654e55f69dbb8d9645560923a8fba", "fusion_lat": 0.0, "name": "25a654e55f69dbb8d9645560923a8fba", "is_reserved": 0, "rental_uris": {"android": "https://dc.lft.to/lastmile_qr_scan", "ios": "https://dc.lft.to/lastmile_qr_scan"}, "fusion_lon": 0.0}, {"lat": 38.90651116666667, "is_disabled": 0, "type": "electric_scooter", "lon": -77.01209, "bike_id": "d4c65824e55c6e674472ff241d1b3195", "fusion_lat": 0.0, "name": "d4c65824e55c6e674472ff241d1b3195", "is_reserved": 0, "rental_uris": {"android": "https://dc.lft.to/lastmile_qr_scan", "ios": "https://dc.lft.to/lastmile_qr_scan"}, "fusion_lon": 0.0}, {"lat": 38.9165835, "is_disabled": 0, "type": "electric_scooter", "lon": -77.04296883333333, "bike_id": "6ae951135b4f298d2c0b0abc66ab8337", "fusion_lat": 0.0, "name": "6ae951135b4f298d2c0b0abc66ab8337", "is_reserved": 0, "rental_uris": {"android": "https://dc.lft.to/lastmile_qr_scan", "ios": "https://dc.lft.to/lastmile_qr_scan"}, "fusion_lon": 0.0}, {"lat": 38.9859665, "is_disabled": 0, "type": "electric_bike", "lon": -77.03753266666666, "bike_id": "9f45babe2f7dc453208c3463b6f064d1", "fusion_lat": 0.0, "name": "9f45babe2f7dc453208c3463b6f064d1", "is_reserved": 0, "rental_uris": {"android": "https://dc.lft.to/lastmile_qr_scan", "ios": "https://dc.lft.to/lastmile_qr_scan"}, "fusion_lon": 0.0}, {"lat": 38.9107445, "is_disabled": 0, "type": "electric_scooter", "lon": -77.016386, "bike_id": "8b7a67d047390dfcf1f8a93e1e36f806", "fusion_lat": 0.0, "name": "8b7a67d047390dfcf1f8a93e1e36f806", "is_reserved": 0, "rental_uris": {"android": "https://dc.lft.to/lastmile_qr_scan", "ios": "https://dc.lft.to/lastmile_qr_scan"}, "fusion_lon": 0.0}, {"lat": 38.95249783333333, "is_disabled": 0, "type": "electric_bike", "lon": -76.98242016666667, "bike_id": "4588f872bb7cf39a20b71a893566c7b6", "fusion_lat": 0.0, "name": "4588f872bb7cf39a20b71a893566c7b6", "is_reserved": 0, "rental_uris": {"android": "https://dc.lft.to/lastmile_qr_scan", "ios": "https://dc.lft.to/lastmile_qr_scan"}, "fusion_lon": 0.0}, {"lat": 38.900505833333334, "is_disabled": 0, "type": "electric_scooter", "lon": -77.0074515, "bike_id": "baf7c47fb004b9d7106315fe7ce2c820", "fusion_lat": 0.0, "name": "baf7c47fb004b9d7106315fe7ce2c820", "is_reserved": 0, "rental_uris": {"android": "https://dc.lft.to/lastmile_qr_scan", "ios": "https://dc.lft.to/lastmile_qr_scan"}, "fusion_lon": 0.0}, {"lat": 38.92025666666667, "is_disabled": 0, "type": "electric_scooter", "lon": -77.043956, "bike_id": "ee1934e9b10f3d4f4166958b90ab0b0e", "fusion_lat": 0.0, "name": "ee1934e9b10f3d4f4166958b90ab0b0e", "is_reserved": 0, "rental_uris": {"android": "https://dc.lft.to/lastmile_qr_scan", "ios": "https://dc.lft.to/lastmile_qr_scan"}, "fusion_lon": 0.0}, {"lat": 38.896237666666664, "is_disabled": 0, "type": "electric_scooter", "lon": -77.031984, "bike_id": "c543887a7613cacefa55bad3147cf7ae", "fusion_lat": 0.0, "name": "c543887a7613cacefa55bad3147cf7ae", "is_reserved": 0, "rental_uris": {"android": "https://dc.lft.to/lastmile_qr_scan", "ios": "https://dc.lft.to/lastmile_qr_scan"}, "fusion_lon": 0.0}, {"lat": 38.865976833333335, "is_disabled": 0, "type": "electric_bike", "lon": -76.93231433333334, "bike_id": "1da18122306eb863c582adf343c8aee6", "fusion_lat": 0.0, "name": "1da18122306eb863c582adf343c8aee6", "is_reserved": 0, "rental_uris": {"android": "https://dc.lft.to/lastmile_qr_scan", "ios": "https://dc.lft.to/lastmile_qr_scan"}, "fusion_lon": 0.0}, {"lat": 38.9024725, "is_disabled": 0, "type": "electric_scooter", "lon": -77.01853216666666, "bike_id": "467239236a9f6fab60486722f0c49b54", "fusion_lat": 0.0, "name": "467239236a9f6fab60486722f0c49b54", "is_reserved": 0, "rental_uris": {"android": "https://dc.lft.to/lastmile_qr_scan", "ios": "https://dc.lft.to/lastmile_qr_scan"}, "fusion_lon": 0.0}, {"lat": 38.9279285, "is_disabled": 0, "type": "electric_scooter", "lon": -77.031513, "bike_id": "9f65546e89584ae10fcde5e2f066b548", "fusion_lat": 0.0, "name": "9f65546e89584ae10fcde5e2f066b548", "is_reserved": 0, "rental_uris": {"android": "https://dc.lft.to/lastmile_qr_scan", "ios": "https://dc.lft.to/lastmile_qr_scan"}, "fusion_lon": 0.0}, {"lat": 38.9217085, "is_disabled": 0, "type": "electric_scooter", "lon": -77.05137583333334, "bike_id": "aade7694ad82390c8a97da51fb681cab", "fusion_lat": 0.0, "name": "aade7694ad82390c8a97da51fb681cab", "is_reserved": 0, "rental_uris": {"android": "https://dc.lft.to/lastmile_qr_scan", "ios": "https://dc.lft.to/lastmile_qr_scan"}, "fusion_lon": 0.0}, {"lat": 38.852184, "is_disabled": 0, "type": "electric_bike", "lon": -77.12939333333334, "bike_id": "0cba4ce6ef23ee10b486643067bfcb46", "fusion_lat": 0.0, "name": "0cba4ce6ef23ee10b486643067bfcb46", "is_reserved": 0, "rental_uris": {"android": "https://dc.lft.to/lastmile_qr_scan", "ios": "https://dc.lft.to/lastmile_qr_scan"}, "fusion_lon": 0.0}, {"lat": 38.899121666666666, "is_disabled": 0, "type": "electric_scooter", "lon": -77.0036085, "bike_id": "ffd1948dfc492561d5ecd80de301beaf", "fusion_lat": 0.0, "name": "ffd1948dfc492561d5ecd80de301beaf", "is_reserved": 0, "rental_uris": {"android": "https://dc.lft.to/lastmile_qr_scan", "ios": "https://dc.lft.to/lastmile_qr_scan"}, "fusion_lon": 0.0}, {"lat": 38.9621885, "is_disabled": 0, "type": "electric_bike", "lon": -77.02782266666667, "bike_id": "9576d54ebcad6dbc38c68d74270a0148", "fusion_lat": 0.0, "name": "9576d54ebcad6dbc38c68d74270a0148", "is_reserved": 0, "rental_uris": {"android": "https://dc.lft.to/lastmile_qr_scan", "ios": "https://dc.lft.to/lastmile_qr_scan"}, "fusion_lon": 0.0}, {"lat": 38.934793, "is_disabled": 0, "type": "electric_scooter", "lon": -77.03249283333334, "bike_id": "f67b0e9e7a6b8aea5530f298377bab44", "fusion_lat": 0.0, "name": "f67b0e9e7a6b8aea5530f298377bab44", "is_reserved": 0, "rental_uris": {"android": "https://dc.lft.to/lastmile_qr_scan", "ios": "https://dc.lft.to/lastmile_qr_scan"}, "fusion_lon": 0.0}, {"lat": 38.9323235, "is_disabled": 0, "type": "electric_scooter", "lon": -77.04405, "bike_id": "d110134f2dd668fdc3a6c1fd64c796c8", "fusion_lat": 0.0, "name": "d110134f2dd668fdc3a6c1fd64c796c8", "is_reserved": 0, "rental_uris": {"android": "https://dc.lft.to/lastmile_qr_scan", "ios": "https://dc.lft.to/lastmile_qr_scan"}, "fusion_lon": 0.0}, {"lat": 38.923314166666664, "is_disabled": 0, "type": "electric_scooter", "lon": -77.04464666666667, "bike_id": "fc80c5d5c6bfe9c7b3bf71b55a979695", "fusion_lat": 0.0, "name": "fc80c5d5c6bfe9c7b3bf71b55a979695", "is_reserved": 0, "rental_uris": {"android": "https://dc.lft.to/lastmile_qr_scan", "ios": "https://dc.lft.to/lastmile_qr_scan"}, "fusion_lon": 0.0}, {"lat": 38.91106, "is_disabled": 0, "type": "electric_scooter", "lon": -77.03697333333334, "bike_id": "80e58b6101064f599ce10dc6c0051e76", "fusion_lat": 0.0, "name": "80e58b6101064f599ce10dc6c0051e76", "is_reserved": 0, "rental_uris": {"android": "https://dc.lft.to/lastmile_qr_scan", "ios": "https://dc.lft.to/lastmile_qr_scan"}, "fusion_lon": 0.0}, {"lat": 38.862134166666664, "is_disabled": 0, "type": "electric_bike", "lon": -76.99778166666667, "bike_id": "46c2f86ac31719cb6487a035cfd8c3bc", "fusion_lat": 0.0, "name": "46c2f86ac31719cb6487a035cfd8c3bc", "is_reserved": 0, "rental_uris": {"android": "https://dc.lft.to/lastmile_qr_scan", "ios": "https://dc.lft.to/lastmile_qr_scan"}, "fusion_lon": 0.0}, {"lat": 38.90214366666667, "is_disabled": 0, "type": "electric_scooter", "lon": -77.04850716666667, "bike_id": "5771b807cb53777ddf740398762b9dc9", "fusion_lat": 0.0, "name": "5771b807cb53777ddf740398762b9dc9", "is_reserved": 0, "rental_uris": {"android": "https://dc.lft.to/lastmile_qr_scan", "ios": "https://dc.lft.to/lastmile_qr_scan"}, "fusion_lon": 0.0}, {"lat": 38.87064516666667, "is_disabled": 0, "type": "electric_scooter", "lon": -77.00838033333333, "bike_id": "08fbcfe118c6a10ebd20c47efc12b1ef", "fusion_lat": 0.0, "name": "08fbcfe118c6a10ebd20c47efc12b1ef", "is_reserved": 0, "rental_uris": {"android": "https://dc.lft.to/lastmile_qr_scan", "ios": "https://dc.lft.to/lastmile_qr_scan"}, "fusion_lon": 0.0}, {"lat": 38.8651425, "is_disabled": 0, "type": "electric_scooter", "lon": -76.99045566666666, "bike_id": "6a98943a77ed83036140bb7e73eca206", "fusion_lat": 0.0, "name": "6a98943a77ed83036140bb7e73eca206", "is_reserved": 0, "rental_uris": {"android": "https://dc.lft.to/lastmile_qr_scan", "ios": "https://dc.lft.to/lastmile_qr_scan"}, "fusion_lon": 0.0}, {"lat": 38.89231383333333, "is_disabled": 0, "type": "electric_scooter", "lon": -77.04999933333333, "bike_id": "c72ca000a70f0f5c70f7460e7055b7ab", "fusion_lat": 0.0, "name": "c72ca000a70f0f5c70f7460e7055b7ab", "is_reserved": 0, "rental_uris": {"android": "https://dc.lft.to/lastmile_qr_scan", "ios": "https://dc.lft.to/lastmile_qr_scan"}, "fusion_lon": 0.0}, {"lat": 38.941811, "is_disabled": 0, "type": "electric_scooter", "lon": -77.03651333333333, "bike_id": "f99740dda6040a6f82f8c38fac17e85d", "fusion_lat": 0.0, "name": "f99740dda6040a6f82f8c38fac17e85d", "is_reserved": 0, "rental_uris": {"android": "https://dc.lft.to/lastmile_qr_scan", "ios": "https://dc.lft.to/lastmile_qr_scan"}, "fusion_lon": 0.0}, {"lat": 38.892586, "is_disabled": 0, "type": "electric_scooter", "lon": -77.04898633333333, "bike_id": "a9e2331215aaee7b58eba8d39aec2812", "fusion_lat": 0.0, "name": "a9e2331215aaee7b58eba8d39aec2812", "is_reserved": 0, "rental_uris": {"android": "https://dc.lft.to/lastmile_qr_scan", "ios": "https://dc.lft.to/lastmile_qr_scan"}, "fusion_lon": 0.0}, {"lat": 38.896244833333334, "is_disabled": 0, "type": "electric_scooter", "lon": -77.03210583333333, "bike_id": "d2dea1896c11814f6168be5c067d3ebe", "fusion_lat": 0.0, "name": "d2dea1896c11814f6168be5c067d3ebe", "is_reserved": 0, "rental_uris": {"android": "https://dc.lft.to/lastmile_qr_scan", "ios": "https://dc.lft.to/lastmile_qr_scan"}, "fusion_lon": 0.0}, {"lat": 38.9311945, "is_disabled": 0, "type": "electric_scooter", "lon": -77.038058, "bike_id": "f6127fb9177fc61a6487a9dcebb9540e", "fusion_lat": 0.0, "name": "f6127fb9177fc61a6487a9dcebb9540e", "is_reserved": 0, "rental_uris": {"android": "https://dc.lft.to/lastmile_qr_scan", "ios": "https://dc.lft.to/lastmile_qr_scan"}, "fusion_lon": 0.0}, {"lat": 38.87084766666667, "is_disabled": 0, "type": "electric_bike", "lon": -77.01199433333333, "bike_id": "957d0c63c465acc5f6174d9843d05c80", "fusion_lat": 0.0, "name": "957d0c63c465acc5f6174d9843d05c80", "is_reserved": 0, "rental_uris": {"android": "https://dc.lft.to/lastmile_qr_scan", "ios": "https://dc.lft.to/lastmile_qr_scan"}, "fusion_lon": 0.0}, {"lat": 38.95069633333333, "is_disabled": 0, "type": "electric_scooter", "lon": -77.06655333333333, "bike_id": "b99068048b3f373934dc194b461df949", "fusion_lat": 0.0, "name": "b99068048b3f373934dc194b461df949", "is_reserved": 0, "rental_uris": {"android": "https://dc.lft.to/lastmile_qr_scan", "ios": "https://dc.lft.to/lastmile_qr_scan"}, "fusion_lon": 0.0}, {"lat": 38.90133333333333, "is_disabled": 0, "type": "electric_scooter", "lon": -77.01809866666666, "bike_id": "cd1f02da745cf7cf5c4fbaf9f254e810", "fusion_lat": 0.0, "name": "cd1f02da745cf7cf5c4fbaf9f254e810", "is_reserved": 0, "rental_uris": {"android": "https://dc.lft.to/lastmile_qr_scan", "ios": "https://dc.lft.to/lastmile_qr_scan"}, "fusion_lon": 0.0}, {"lat": 38.90575483333333, "is_disabled": 0, "type": "electric_scooter", "lon": -77.02208666666667, "bike_id": "0d01570f6577938219142c3132823425", "fusion_lat": 0.0, "name": "0d01570f6577938219142c3132823425", "is_reserved": 0, "rental_uris": {"android": "https://dc.lft.to/lastmile_qr_scan", "ios": "https://dc.lft.to/lastmile_qr_scan"}, "fusion_lon": 0.0}, {"lat": 38.8762925, "is_disabled": 0, "type": "electric_scooter", "lon": -76.9652255, "bike_id": "2bbabbc90da8d72525f380a5a1191b13", "fusion_lat": 0.0, "name": "2bbabbc90da8d72525f380a5a1191b13", "is_reserved": 0, "rental_uris": {"android": "https://dc.lft.to/lastmile_qr_scan", "ios": "https://dc.lft.to/lastmile_qr_scan"}, "fusion_lon": 0.0}, {"lat": 38.9376305, "is_disabled": 0, "type": "electric_scooter", "lon": -77.023751, "bike_id": "451f686f31be966e593238d0576b67fb", "fusion_lat": 0.0, "name": "451f686f31be966e593238d0576b67fb", "is_reserved": 0, "rental_uris": {"android": "https://dc.lft.to/lastmile_qr_scan", "ios": "https://dc.lft.to/lastmile_qr_scan"}, "fusion_lon": 0.0}, {"lat": 38.907335833333335, "is_disabled": 0, "type": "electric_scooter", "lon": -77.0478305, "bike_id": "9aea6759ad899a7444dccb0028604e4a", "fusion_lat": 0.0, "name": "9aea6759ad899a7444dccb0028604e4a", "is_reserved": 0, "rental_uris": {"android": "https://dc.lft.to/lastmile_qr_scan", "ios": "https://dc.lft.to/lastmile_qr_scan"}, "fusion_lon": 0.0}, {"lat": 38.908018166666665, "is_disabled": 0, "type": "electric_scooter", "lon": -77.03474183333333, "bike_id": "9ecc1fed7994cccbd6d49a619241b8e3", "fusion_lat": 0.0, "name": "9ecc1fed7994cccbd6d49a619241b8e3", "is_reserved": 0, "rental_uris": {"android": "https://dc.lft.to/lastmile_qr_scan", "ios": "https://dc.lft.to/lastmile_qr_scan"}, "fusion_lon": 0.0}, {"lat": 38.896329, "is_disabled": 0, "type": "electric_scooter", "lon": -77.04486916666667, "bike_id": "85a149966fb554c744e13c7c73d2e25b", "fusion_lat": 0.0, "name": "85a149966fb554c744e13c7c73d2e25b", "is_reserved": 0, "rental_uris": {"android": "https://dc.lft.to/lastmile_qr_scan", "ios": "https://dc.lft.to/lastmile_qr_scan"}, "fusion_lon": 0.0}, {"lat": 38.842963166666664, "is_disabled": 0, "type": "electric_scooter", "lon": -76.99943216666667, "bike_id": "8e954592537a45eca6969ccd02a6ff76", "fusion_lat": 0.0, "name": "8e954592537a45eca6969ccd02a6ff76", "is_reserved": 0, "rental_uris": {"android": "https://dc.lft.to/lastmile_qr_scan", "ios": "https://dc.lft.to/lastmile_qr_scan"}, "fusion_lon": 0.0}, {"lat": 38.940962166666665, "is_disabled": 0, "type": "electric_scooter", "lon": -77.03280433333333, "bike_id": "27a383b74d7aa330376322eaea3e9ee5", "fusion_lat": 0.0, "name": "27a383b74d7aa330376322eaea3e9ee5", "is_reserved": 0, "rental_uris": {"android": "https://dc.lft.to/lastmile_qr_scan", "ios": "https://dc.lft.to/lastmile_qr_scan"}, "fusion_lon": 0.0}, {"lat": 38.898317666666664, "is_disabled": 0, "type": "electric_scooter", "lon": -77.02425366666667, "bike_id": "2ee6b69ce75497e49189268be7277a8e", "fusion_lat": 0.0, "name": "2ee6b69ce75497e49189268be7277a8e", "is_reserved": 0, "rental_uris": {"android": "https://dc.lft.to/lastmile_qr_scan", "ios": "https://dc.lft.to/lastmile_qr_scan"}, "fusion_lon": 0.0}, {"lat": 38.912168666666666, "is_disabled": 0, "type": "electric_scooter", "lon": -77.03443433333334, "bike_id": "565371fc8eb7edc78133c96e2a355bda", "fusion_lat": 0.0, "name": "565371fc8eb7edc78133c96e2a355bda", "is_reserved": 0, "rental_uris": {"android": "https://dc.lft.to/lastmile_qr_scan", "ios": "https://dc.lft.to/lastmile_qr_scan"}, "fusion_lon": 0.0}, {"lat": 38.8599725, "is_disabled": 0, "type": "electric_scooter", "lon": -76.98544666666666, "bike_id": "d650aa0bcdeb1d6034e41c3b4b46871b", "fusion_lat": 0.0, "name": "d650aa0bcdeb1d6034e41c3b4b46871b", "is_reserved": 0, "rental_uris": {"android": "https://dc.lft.to/lastmile_qr_scan", "ios": "https://dc.lft.to/lastmile_qr_scan"}, "fusion_lon": 0.0}, {"lat": 38.90030733333333, "is_disabled": 0, "type": "electric_scooter", "lon": -77.002104, "bike_id": "f255ae562f6353d2b44325b57401068b", "fusion_lat": 0.0, "name": "f255ae562f6353d2b44325b57401068b", "is_reserved": 0, "rental_uris": {"android": "https://dc.lft.to/lastmile_qr_scan", "ios": "https://dc.lft.to/lastmile_qr_scan"}, "fusion_lon": 0.0}, {"lat": 38.909765666666665, "is_disabled": 0, "type": "electric_scooter", "lon": -77.06894316666667, "bike_id": "60160e8c7ec7503688bce3c3ca137e2f", "fusion_lat": 0.0, "name": "60160e8c7ec7503688bce3c3ca137e2f", "is_reserved": 0, "rental_uris": {"android": "https://dc.lft.to/lastmile_qr_scan", "ios": "https://dc.lft.to/lastmile_qr_scan"}, "fusion_lon": 0.0}, {"lat": 38.93740316666667, "is_disabled": 0, "type": "electric_scooter", "lon": -77.036171, "bike_id": "79252b305c74b99b6b9e1d58b5f117ba", "fusion_lat": 0.0, "name": "79252b305c74b99b6b9e1d58b5f117ba", "is_reserved": 0, "rental_uris": {"android": "https://dc.lft.to/lastmile_qr_scan", "ios": "https://dc.lft.to/lastmile_qr_scan"}, "fusion_lon": 0.0}, {"lat": 38.898306833333336, "is_disabled": 0, "type": "electric_scooter", "lon": -77.03028733333333, "bike_id": "2a37d929aedfca23eb03e156e4e1c807", "fusion_lat": 0.0, "name": "2a37d929aedfca23eb03e156e4e1c807", "is_reserved": 0, "rental_uris": {"android": "https://dc.lft.to/lastmile_qr_scan", "ios": "https://dc.lft.to/lastmile_qr_scan"}, "fusion_lon": 0.0}, {"lat": 38.940924, "is_disabled": 0, "type": "electric_scooter", "lon": -77.061369, "bike_id": "34a84722cdd816920b50938db2ce9600", "fusion_lat": 0.0, "name": "34a84722cdd816920b50938db2ce9600", "is_reserved": 0, "rental_uris": {"android": "https://dc.lft.to/lastmile_qr_scan", "ios": "https://dc.lft.to/lastmile_qr_scan"}, "fusion_lon": 0.0}, {"lat": 38.93061016666667, "is_disabled": 0, "type": "electric_scooter", "lon": -77.03123133333334, "bike_id": "1a2f8c1e2dcda92fbe475d4d1768f04a", "fusion_lat": 0.0, "name": "1a2f8c1e2dcda92fbe475d4d1768f04a", "is_reserved": 0, "rental_uris": {"android": "https://dc.lft.to/lastmile_qr_scan", "ios": "https://dc.lft.to/lastmile_qr_scan"}, "fusion_lon": 0.0}, {"lat": 38.916413166666665, "is_disabled": 0, "type": "electric_scooter", "lon": -77.03132733333334, "bike_id": "f951812b542ba27db7e0243b9be0130f", "fusion_lat": 0.0, "name": "f951812b542ba27db7e0243b9be0130f", "is_reserved": 0, "rental_uris": {"android": "https://dc.lft.to/lastmile_qr_scan", "ios": "https://dc.lft.to/lastmile_qr_scan"}, "fusion_lon": 0.0}, {"lat": 38.93987516666667, "is_disabled": 0, "type": "electric_scooter", "lon": -77.0288905, "bike_id": "edf0452649162ae4d32b2806b42e05c6", "fusion_lat": 0.0, "name": "edf0452649162ae4d32b2806b42e05c6", "is_reserved": 0, "rental_uris": {"android": "https://dc.lft.to/lastmile_qr_scan", "ios": "https://dc.lft.to/lastmile_qr_scan"}, "fusion_lon": 0.0}, {"lat": 38.90531416666666, "is_disabled": 0, "type": "electric_bike", "lon": -77.05934066666667, "bike_id": "ac0be002a61b7fe35452aca829d952e7", "fusion_lat": 0.0, "name": "ac0be002a61b7fe35452aca829d952e7", "is_reserved": 0, "rental_uris": {"android": "https://dc.lft.to/lastmile_qr_scan", "ios": "https://dc.lft.to/lastmile_qr_scan"}, "fusion_lon": 0.0}, {"lat": 38.949079166666664, "is_disabled": 0, "type": "electric_bike", "lon": -76.9723835, "bike_id": "beac592bdc63903eb242511fcffcdaec", "fusion_lat": 0.0, "name": "beac592bdc63903eb242511fcffcdaec", "is_reserved": 0, "rental_uris": {"android": "https://dc.lft.to/lastmile_qr_scan", "ios": "https://dc.lft.to/lastmile_qr_scan"}, "fusion_lon": 0.0}, {"lat": 38.923966166666666, "is_disabled": 0, "type": "electric_scooter", "lon": -77.02706933333333, "bike_id": "48954267916b7084b85576471f4e1061", "fusion_lat": 0.0, "name": "48954267916b7084b85576471f4e1061", "is_reserved": 0, "rental_uris": {"android": "https://dc.lft.to/lastmile_qr_scan", "ios": "https://dc.lft.to/lastmile_qr_scan"}, "fusion_lon": 0.0}, {"lat": 38.89851083333333, "is_disabled": 0, "type": "electric_scooter", "lon": -77.03162433333334, "bike_id": "80ac70a0d2514a64e9ddb90290e6dfeb", "fusion_lat": 0.0, "name": "80ac70a0d2514a64e9ddb90290e6dfeb", "is_reserved": 0, "rental_uris": {"android": "https://dc.lft.to/lastmile_qr_scan", "ios": "https://dc.lft.to/lastmile_qr_scan"}, "fusion_lon": 0.0}, {"lat": 38.90241533333333, "is_disabled": 0, "type": "electric_scooter", "lon": -77.053167, "bike_id": "d342bfd227b43afb3f4753bb361d2419", "fusion_lat": 0.0, "name": "d342bfd227b43afb3f4753bb361d2419", "is_reserved": 0, "rental_uris": {"android": "https://dc.lft.to/lastmile_qr_scan", "ios": "https://dc.lft.to/lastmile_qr_scan"}, "fusion_lon": 0.0}, {"lat": 38.9388285, "is_disabled": 0, "type": "electric_scooter", "lon": -77.0328345, "bike_id": "799b8dedb9bc3f37f39582e0d70edb21", "fusion_lat": 0.0, "name": "799b8dedb9bc3f37f39582e0d70edb21", "is_reserved": 0, "rental_uris": {"android": "https://dc.lft.to/lastmile_qr_scan", "ios": "https://dc.lft.to/lastmile_qr_scan"}, "fusion_lon": 0.0}, {"lat": 38.907820666666666, "is_disabled": 0, "type": "electric_scooter", "lon": -77.03653566666667, "bike_id": "cfce212b47d6a1cb157c64aacbf148b9", "fusion_lat": 0.0, "name": "cfce212b47d6a1cb157c64aacbf148b9", "is_reserved": 0, "rental_uris": {"android": "https://dc.lft.to/lastmile_qr_scan", "ios": "https://dc.lft.to/lastmile_qr_scan"}, "fusion_lon": 0.0}, {"lat": 38.92301166666667, "is_disabled": 0, "type": "electric_scooter", "lon": -77.03658, "bike_id": "056a140e3c7a30b888e03e07e99a39b8", "fusion_lat": 0.0, "name": "056a140e3c7a30b888e03e07e99a39b8", "is_reserved": 0, "rental_uris": {"android": "https://dc.lft.to/lastmile_qr_scan", "ios": "https://dc.lft.to/lastmile_qr_scan"}, "fusion_lon": 0.0}, {"lat": 38.92825966666667, "is_disabled": 0, "type": "electric_scooter", "lon": -77.02189516666667, "bike_id": "d8e9488866e1903a6de5f8aa5f686542", "fusion_lat": 0.0, "name": "d8e9488866e1903a6de5f8aa5f686542", "is_reserved": 0, "rental_uris": {"android": "https://dc.lft.to/lastmile_qr_scan", "ios": "https://dc.lft.to/lastmile_qr_scan"}, "fusion_lon": 0.0}, {"lat": 38.973161, "is_disabled": 0, "type": "electric_scooter", "lon": -77.02706266666667, "bike_id": "fba19621b3e8e520d3962027dea4396d", "fusion_lat": 0.0, "name": "fba19621b3e8e520d3962027dea4396d", "is_reserved": 0, "rental_uris": {"android": "https://dc.lft.to/lastmile_qr_scan", "ios": "https://dc.lft.to/lastmile_qr_scan"}, "fusion_lon": 0.0}, {"lat": 38.90814066666667, "is_disabled": 0, "type": "electric_scooter", "lon": -77.03395383333333, "bike_id": "30ed1642bab61801c96c2d0cf23b3add", "fusion_lat": 0.0, "name": "30ed1642bab61801c96c2d0cf23b3add", "is_reserved": 0, "rental_uris": {"android": "https://dc.lft.to/lastmile_qr_scan", "ios": "https://dc.lft.to/lastmile_qr_scan"}, "fusion_lon": 0.0}, {"lat": 38.869882, "is_disabled": 0, "type": "electric_bike", "lon": -76.95992483333333, "bike_id": "0c087cd409e6bfa5e78993a8e4cb7e6c", "fusion_lat": 0.0, "name": "0c087cd409e6bfa5e78993a8e4cb7e6c", "is_reserved": 0, "rental_uris": {"android": "https://dc.lft.to/lastmile_qr_scan", "ios": "https://dc.lft.to/lastmile_qr_scan"}, "fusion_lon": 0.0}, {"lat": 38.8996585, "is_disabled": 0, "type": "electric_scooter", "lon": -77.021133, "bike_id": "71094c532f8a75802646c8c03daddc14", "fusion_lat": 0.0, "name": "71094c532f8a75802646c8c03daddc14", "is_reserved": 0, "rental_uris": {"android": "https://dc.lft.to/lastmile_qr_scan", "ios": "https://dc.lft.to/lastmile_qr_scan"}, "fusion_lon": 0.0}, {"lat": 38.8589725, "is_disabled": 0, "type": "electric_scooter", "lon": -76.99434133333334, "bike_id": "20d9eeb88b88f034e49cac764c19e474", "fusion_lat": 0.0, "name": "20d9eeb88b88f034e49cac764c19e474", "is_reserved": 0, "rental_uris": {"android": "https://dc.lft.to/lastmile_qr_scan", "ios": "https://dc.lft.to/lastmile_qr_scan"}, "fusion_lon": 0.0}, {"lat": 38.98504116666667, "is_disabled": 0, "type": "electric_bike", "lon": -76.982076, "bike_id": "dc6b888b52a334a6ec89940a48eeea45", "fusion_lat": 0.0, "name": "dc6b888b52a334a6ec89940a48eeea45", "is_reserved": 0, "rental_uris": {"android": "https://dc.lft.to/lastmile_qr_scan", "ios": "https://dc.lft.to/lastmile_qr_scan"}, "fusion_lon": 0.0}, {"lat": 38.93235966666667, "is_disabled": 0, "type": "electric_bike", "lon": -76.97427433333333, "bike_id": "eeb3fc1f53acb132238d35748f4343fe", "fusion_lat": 0.0, "name": "eeb3fc1f53acb132238d35748f4343fe", "is_reserved": 0, "rental_uris": {"android": "https://dc.lft.to/lastmile_qr_scan", "ios": "https://dc.lft.to/lastmile_qr_scan"}, "fusion_lon": 0.0}, {"lat": 38.88114816666667, "is_disabled": 0, "type": "electric_scooter", "lon": -77.01666083333333, "bike_id": "63e05f7f155d835c4628b648ef921ef1", "fusion_lat": 0.0, "name": "63e05f7f155d835c4628b648ef921ef1", "is_reserved": 0, "rental_uris": {"android": "https://dc.lft.to/lastmile_qr_scan", "ios": "https://dc.lft.to/lastmile_qr_scan"}, "fusion_lon": 0.0}, {"lat": 38.822678333333336, "is_disabled": 0, "type": "electric_bike", "lon": -77.0581415, "bike_id": "8b8ba067961bf8e53e79bb5d8e7ca110", "fusion_lat": 0.0, "name": "8b8ba067961bf8e53e79bb5d8e7ca110", "is_reserved": 0, "rental_uris": {"android": "https://dc.lft.to/lastmile_qr_scan", "ios": "https://dc.lft.to/lastmile_qr_scan"}, "fusion_lon": 0.0}, {"lat": 38.87477166666667, "is_disabled": 0, "type": "electric_scooter", "lon": -77.01070733333333, "bike_id": "448bef763842aedc172c377157e843b7", "fusion_lat": 0.0, "name": "448bef763842aedc172c377157e843b7", "is_reserved": 0, "rental_uris": {"android": "https://dc.lft.to/lastmile_qr_scan", "ios": "https://dc.lft.to/lastmile_qr_scan"}, "fusion_lon": 0.0}, {"lat": 38.9023325, "is_disabled": 0, "type": "electric_scooter", "lon": -77.02815583333333, "bike_id": "e958fa7e9c278281ba75f04661a5ef31", "fusion_lat": 0.0, "name": "e958fa7e9c278281ba75f04661a5ef31", "is_reserved": 0, "rental_uris": {"android": "https://dc.lft.to/lastmile_qr_scan", "ios": "https://dc.lft.to/lastmile_qr_scan"}, "fusion_lon": 0.0}, {"lat": 38.89976733333334, "is_disabled": 0, "type": "electric_scooter", "lon": -77.05095516666667, "bike_id": "87c9ddfb54f20f6d68357ba51b6b97cd", "fusion_lat": 0.0, "name": "87c9ddfb54f20f6d68357ba51b6b97cd", "is_reserved": 0, "rental_uris": {"android": "https://dc.lft.to/lastmile_qr_scan", "ios": "https://dc.lft.to/lastmile_qr_scan"}, "fusion_lon": 0.0}, {"lat": 38.897457333333335, "is_disabled": 0, "type": "electric_scooter", "lon": -77.04678116666666, "bike_id": "d8137cceb0336a63f2f404be5572c05e", "fusion_lat": 0.0, "name": "d8137cceb0336a63f2f404be5572c05e", "is_reserved": 0, "rental_uris": {"android": "https://dc.lft.to/lastmile_qr_scan", "ios": "https://dc.lft.to/lastmile_qr_scan"}, "fusion_lon": 0.0}, {"lat": 38.9125465, "is_disabled": 0, "type": "electric_scooter", "lon": -77.03860866666666, "bike_id": "ec589a3d2d196885a007fc46f9febbac", "fusion_lat": 0.0, "name": "ec589a3d2d196885a007fc46f9febbac", "is_reserved": 0, "rental_uris": {"android": "https://dc.lft.to/lastmile_qr_scan", "ios": "https://dc.lft.to/lastmile_qr_scan"}, "fusion_lon": 0.0}, {"lat": 38.892223666666666, "is_disabled": 0, "type": "electric_scooter", "lon": -77.02649666666667, "bike_id": "ac92e50f019c8524eadd6428457939d3", "fusion_lat": 0.0, "name": "ac92e50f019c8524eadd6428457939d3", "is_reserved": 0, "rental_uris": {"android": "https://dc.lft.to/lastmile_qr_scan", "ios": "https://dc.lft.to/lastmile_qr_scan"}, "fusion_lon": 0.0}, {"lat": 38.87682133333333, "is_disabled": 0, "type": "electric_scooter", "lon": -77.01791033333333, "bike_id": "0c55c8364ade5fe8045de9794f2f70df", "fusion_lat": 0.0, "name": "0c55c8364ade5fe8045de9794f2f70df", "is_reserved": 0, "rental_uris": {"android": "https://dc.lft.to/lastmile_qr_scan", "ios": "https://dc.lft.to/lastmile_qr_scan"}, "fusion_lon": 0.0}, {"lat": 38.906849333333334, "is_disabled": 0, "type": "electric_scooter", "lon": -76.99959683333333, "bike_id": "6ba3cda07d84b3ca266d15ca6d941415", "fusion_lat": 0.0, "name": "6ba3cda07d84b3ca266d15ca6d941415", "is_reserved": 0, "rental_uris": {"android": "https://dc.lft.to/lastmile_qr_scan", "ios": "https://dc.lft.to/lastmile_qr_scan"}, "fusion_lon": 0.0}, {"lat": 38.9264325, "is_disabled": 0, "type": "electric_scooter", "lon": -77.03795333333333, "bike_id": "4b3799ae77e815a5ee7e6dfe03c06607", "fusion_lat": 0.0, "name": "4b3799ae77e815a5ee7e6dfe03c06607", "is_reserved": 0, "rental_uris": {"android": "https://dc.lft.to/lastmile_qr_scan", "ios": "https://dc.lft.to/lastmile_qr_scan"}, "fusion_lon": 0.0}, {"lat": 38.91914533333333, "is_disabled": 0, "type": "electric_scooter", "lon": -77.03393583333333, "bike_id": "4c378526213a7d3be17f64eecbd9c6f0", "fusion_lat": 0.0, "name": "4c378526213a7d3be17f64eecbd9c6f0", "is_reserved": 0, "rental_uris": {"android": "https://dc.lft.to/lastmile_qr_scan", "ios": "https://dc.lft.to/lastmile_qr_scan"}, "fusion_lon": 0.0}, {"lat": 38.90289683333334, "is_disabled": 0, "type": "electric_scooter", "lon": -77.053152, "bike_id": "040b3fff721271eeaf88be611b738ab2", "fusion_lat": 0.0, "name": "040b3fff721271eeaf88be611b738ab2", "is_reserved": 0, "rental_uris": {"android": "https://dc.lft.to/lastmile_qr_scan", "ios": "https://dc.lft.to/lastmile_qr_scan"}, "fusion_lon": 0.0}, {"lat": 38.94606533333334, "is_disabled": 0, "type": "electric_scooter", "lon": -77.02978733333333, "bike_id": "c62c399e9afca62fc97c611c0e0eb319", "fusion_lat": 0.0, "name": "c62c399e9afca62fc97c611c0e0eb319", "is_reserved": 0, "rental_uris": {"android": "https://dc.lft.to/lastmile_qr_scan", "ios": "https://dc.lft.to/lastmile_qr_scan"}, "fusion_lon": 0.0}, {"lat": 38.910577833333335, "is_disabled": 0, "type": "electric_scooter", "lon": -77.01527516666667, "bike_id": "b6fda6e4ea3430fdac97d707c4fb8e74", "fusion_lat": 0.0, "name": "b6fda6e4ea3430fdac97d707c4fb8e74", "is_reserved": 0, "rental_uris": {"android": "https://dc.lft.to/lastmile_qr_scan", "ios": "https://dc.lft.to/lastmile_qr_scan"}, "fusion_lon": 0.0}, {"lat": 38.924195166666664, "is_disabled": 0, "type": "electric_scooter", "lon": -77.04447083333334, "bike_id": "01bd0a36be8cc421ec27a88033fcc0cb", "fusion_lat": 0.0, "name": "01bd0a36be8cc421ec27a88033fcc0cb", "is_reserved": 0, "rental_uris": {"android": "https://dc.lft.to/lastmile_qr_scan", "ios": "https://dc.lft.to/lastmile_qr_scan"}, "fusion_lon": 0.0}, {"lat": 38.899557, "is_disabled": 0, "type": "electric_scooter", "lon": -77.0517, "bike_id": "d89f97e9a67de485b772e5a1bba184a7", "fusion_lat": 0.0, "name": "d89f97e9a67de485b772e5a1bba184a7", "is_reserved": 0, "rental_uris": {"android": "https://dc.lft.to/lastmile_qr_scan", "ios": "https://dc.lft.to/lastmile_qr_scan"}, "fusion_lon": 0.0}, {"lat": 38.864951, "is_disabled": 0, "type": "electric_scooter", "lon": -76.974245, "bike_id": "3b6cc0567c25ca99051b02c985e4cff8", "fusion_lat": 0.0, "name": "3b6cc0567c25ca99051b02c985e4cff8", "is_reserved": 0, "rental_uris": {"android": "https://dc.lft.to/lastmile_qr_scan", "ios": "https://dc.lft.to/lastmile_qr_scan"}, "fusion_lon": 0.0}, {"lat": 38.8465825, "is_disabled": 0, "type": "electric_bike", "lon": -76.97932066666667, "bike_id": "b472da58ad80630a35dcaa3584bab1f4", "fusion_lat": 0.0, "name": "b472da58ad80630a35dcaa3584bab1f4", "is_reserved": 0, "rental_uris": {"android": "https://dc.lft.to/lastmile_qr_scan", "ios": "https://dc.lft.to/lastmile_qr_scan"}, "fusion_lon": 0.0}, {"lat": 38.93294133333333, "is_disabled": 0, "type": "electric_scooter", "lon": -77.03974533333333, "bike_id": "9e8e8e78a71efd58baf7239785c3b6df", "fusion_lat": 0.0, "name": "9e8e8e78a71efd58baf7239785c3b6df", "is_reserved": 0, "rental_uris": {"android": "https://dc.lft.to/lastmile_qr_scan", "ios": "https://dc.lft.to/lastmile_qr_scan"}, "fusion_lon": 0.0}, {"lat": 38.90727833333333, "is_disabled": 0, "type": "electric_scooter", "lon": -77.023822, "bike_id": "0d903106d0de0ee23e8904a9396f4eb2", "fusion_lat": 0.0, "name": "0d903106d0de0ee23e8904a9396f4eb2", "is_reserved": 0, "rental_uris": {"android": "https://dc.lft.to/lastmile_qr_scan", "ios": "https://dc.lft.to/lastmile_qr_scan"}, "fusion_lon": 0.0}, {"lat": 38.92485716666667, "is_disabled": 0, "type": "electric_scooter", "lon": -77.052056, "bike_id": "e5d361ac34e191f5d5309cfdffa949a8", "fusion_lat": 0.0, "name": "e5d361ac34e191f5d5309cfdffa949a8", "is_reserved": 0, "rental_uris": {"android": "https://dc.lft.to/lastmile_qr_scan", "ios": "https://dc.lft.to/lastmile_qr_scan"}, "fusion_lon": 0.0}, {"lat": 38.931755333333335, "is_disabled": 0, "type": "electric_scooter", "lon": -77.028181, "bike_id": "6181af437ad732ca06d3bc37cf5b06cd", "fusion_lat": 0.0, "name": "6181af437ad732ca06d3bc37cf5b06cd", "is_reserved": 0, "rental_uris": {"android": "https://dc.lft.to/lastmile_qr_scan", "ios": "https://dc.lft.to/lastmile_qr_scan"}, "fusion_lon": 0.0}, {"lat": 38.890458833333334, "is_disabled": 0, "type": "electric_scooter", "lon": -76.951409, "bike_id": "f340857cbcade8b9803eff275450ab0d", "fusion_lat": 0.0, "name": "f340857cbcade8b9803eff275450ab0d", "is_reserved": 0, "rental_uris": {"android": "https://dc.lft.to/lastmile_qr_scan", "ios": "https://dc.lft.to/lastmile_qr_scan"}, "fusion_lon": 0.0}, {"lat": 38.895107333333335, "is_disabled": 0, "type": "electric_scooter", "lon": -77.02291866666667, "bike_id": "423eeb391f933b607ec5a67c254a2c14", "fusion_lat": 0.0, "name": "423eeb391f933b607ec5a67c254a2c14", "is_reserved": 0, "rental_uris": {"android": "https://dc.lft.to/lastmile_qr_scan", "ios": "https://dc.lft.to/lastmile_qr_scan"}, "fusion_lon": 0.0}, {"lat": 38.905376333333336, "is_disabled": 0, "type": "electric_scooter", "lon": -77.03410933333333, "bike_id": "d0a482bd3344ea8e3b436b21ed7e2cdf", "fusion_lat": 0.0, "name": "d0a482bd3344ea8e3b436b21ed7e2cdf", "is_reserved": 0, "rental_uris": {"android": "https://dc.lft.to/lastmile_qr_scan", "ios": "https://dc.lft.to/lastmile_qr_scan"}, "fusion_lon": 0.0}, {"lat": 38.90297833333333, "is_disabled": 0, "type": "electric_scooter", "lon": -77.025858, "bike_id": "018b33af985044c9a42ac3e3063825e9", "fusion_lat": 0.0, "name": "018b33af985044c9a42ac3e3063825e9", "is_reserved": 0, "rental_uris": {"android": "https://dc.lft.to/lastmile_qr_scan", "ios": "https://dc.lft.to/lastmile_qr_scan"}, "fusion_lon": 0.0}, {"lat": 38.94171383333333, "is_disabled": 0, "type": "electric_scooter", "lon": -77.02340366666667, "bike_id": "7334e8d55925d2f7de344e4d8203379b", "fusion_lat": 0.0, "name": "7334e8d55925d2f7de344e4d8203379b", "is_reserved": 0, "rental_uris": {"android": "https://dc.lft.to/lastmile_qr_scan", "ios": "https://dc.lft.to/lastmile_qr_scan"}, "fusion_lon": 0.0}, {"lat": 38.894592833333334, "is_disabled": 0, "type": "electric_scooter", "lon": -77.02132133333333, "bike_id": "d88677eb7699d14e6e796b5def4bfb3e", "fusion_lat": 0.0, "name": "d88677eb7699d14e6e796b5def4bfb3e", "is_reserved": 0, "rental_uris": {"android": "https://dc.lft.to/lastmile_qr_scan", "ios": "https://dc.lft.to/lastmile_qr_scan"}, "fusion_lon": 0.0}, {"lat": 38.9054715, "is_disabled": 0, "type": "electric_scooter", "lon": -77.034012, "bike_id": "0f780ea9375624b5d2d0991877ba0148", "fusion_lat": 0.0, "name": "0f780ea9375624b5d2d0991877ba0148", "is_reserved": 0, "rental_uris": {"android": "https://dc.lft.to/lastmile_qr_scan", "ios": "https://dc.lft.to/lastmile_qr_scan"}, "fusion_lon": 0.0}, {"lat": 38.910497666666664, "is_disabled": 0, "type": "electric_scooter", "lon": -77.01510983333333, "bike_id": "e1b2568965b3c07b002f94b00baab656", "fusion_lat": 0.0, "name": "e1b2568965b3c07b002f94b00baab656", "is_reserved": 0, "rental_uris": {"android": "https://dc.lft.to/lastmile_qr_scan", "ios": "https://dc.lft.to/lastmile_qr_scan"}, "fusion_lon": 0.0}, {"lat": 38.8691005, "is_disabled": 0, "type": "electric_bike", "lon": -77.13176616666667, "bike_id": "51a80f5a7af95726e24e1746f1f4c366", "fusion_lat": 0.0, "name": "51a80f5a7af95726e24e1746f1f4c366", "is_reserved": 0, "rental_uris": {"android": "https://dc.lft.to/lastmile_qr_scan", "ios": "https://dc.lft.to/lastmile_qr_scan"}, "fusion_lon": 0.0}, {"lat": 38.920045333333334, "is_disabled": 0, "type": "electric_scooter", "lon": -77.03230966666666, "bike_id": "19919a18e6782248a91f33e42a2d1b35", "fusion_lat": 0.0, "name": "19919a18e6782248a91f33e42a2d1b35", "is_reserved": 0, "rental_uris": {"android": "https://dc.lft.to/lastmile_qr_scan", "ios": "https://dc.lft.to/lastmile_qr_scan"}, "fusion_lon": 0.0}, {"lat": 38.932826, "is_disabled": 0, "type": "electric_scooter", "lon": -77.03634133333334, "bike_id": "cc929ab0d536e17ef77a78b276829d8a", "fusion_lat": 0.0, "name": "cc929ab0d536e17ef77a78b276829d8a", "is_reserved": 0, "rental_uris": {"android": "https://dc.lft.to/lastmile_qr_scan", "ios": "https://dc.lft.to/lastmile_qr_scan"}, "fusion_lon": 0.0}, {"lat": 38.90588283333334, "is_disabled": 0, "type": "electric_scooter", "lon": -77.06516933333333, "bike_id": "df637b9b9f672540ac4e4eedff8a7a49", "fusion_lat": 0.0, "name": "df637b9b9f672540ac4e4eedff8a7a49", "is_reserved": 0, "rental_uris": {"android": "https://dc.lft.to/lastmile_qr_scan", "ios": "https://dc.lft.to/lastmile_qr_scan"}, "fusion_lon": 0.0}, {"lat": 38.86915783333333, "is_disabled": 0, "type": "electric_scooter", "lon": -76.98294716666666, "bike_id": "f7f9592cbedcf37056d6ce709ba0f8e2", "fusion_lat": 0.0, "name": "f7f9592cbedcf37056d6ce709ba0f8e2", "is_reserved": 0, "rental_uris": {"android": "https://dc.lft.to/lastmile_qr_scan", "ios": "https://dc.lft.to/lastmile_qr_scan"}, "fusion_lon": 0.0}, {"lat": 38.88421833333334, "is_disabled": 0, "type": "electric_scooter", "lon": -77.0002225, "bike_id": "1b7f140350c3932e6edd6ebf5627bc3c", "fusion_lat": 0.0, "name": "1b7f140350c3932e6edd6ebf5627bc3c", "is_reserved": 0, "rental_uris": {"android": "https://dc.lft.to/lastmile_qr_scan", "ios": "https://dc.lft.to/lastmile_qr_scan"}, "fusion_lon": 0.0}, {"lat": 38.9866165, "is_disabled": 0, "type": "electric_bike", "lon": -77.05632, "bike_id": "627962f5f188bb563bfed0bb1e87301d", "fusion_lat": 0.0, "name": "627962f5f188bb563bfed0bb1e87301d", "is_reserved": 0, "rental_uris": {"android": "https://dc.lft.to/lastmile_qr_scan", "ios": "https://dc.lft.to/lastmile_qr_scan"}, "fusion_lon": 0.0}, {"lat": 38.928754833333336, "is_disabled": 0, "type": "electric_scooter", "lon": -77.03332983333334, "bike_id": "b592d98829e3cece0ff738a5b1741fe2", "fusion_lat": 0.0, "name": "b592d98829e3cece0ff738a5b1741fe2", "is_reserved": 0, "rental_uris": {"android": "https://dc.lft.to/lastmile_qr_scan", "ios": "https://dc.lft.to/lastmile_qr_scan"}, "fusion_lon": 0.0}, {"lat": 38.878095333333334, "is_disabled": 0, "type": "electric_bike", "lon": -76.96073366666667, "bike_id": "ba6f2181141e711d5cde175af43d1da5", "fusion_lat": 0.0, "name": "ba6f2181141e711d5cde175af43d1da5", "is_reserved": 0, "rental_uris": {"android": "https://dc.lft.to/lastmile_qr_scan", "ios": "https://dc.lft.to/lastmile_qr_scan"}, "fusion_lon": 0.0}, {"lat": 38.91332, "is_disabled": 0, "type": "electric_scooter", "lon": -77.0312905, "bike_id": "5625ab049bc4ae062dbcc4702f6f0fce", "fusion_lat": 0.0, "name": "5625ab049bc4ae062dbcc4702f6f0fce", "is_reserved": 0, "rental_uris": {"android": "https://dc.lft.to/lastmile_qr_scan", "ios": "https://dc.lft.to/lastmile_qr_scan"}, "fusion_lon": 0.0}, {"lat": 38.84426833333333, "is_disabled": 0, "type": "electric_scooter", "lon": -76.99776816666666, "bike_id": "b37ed3dde6c883918e57f63461342b10", "fusion_lat": 0.0, "name": "b37ed3dde6c883918e57f63461342b10", "is_reserved": 0, "rental_uris": {"android": "https://dc.lft.to/lastmile_qr_scan", "ios": "https://dc.lft.to/lastmile_qr_scan"}, "fusion_lon": 0.0}, {"lat": 38.906536333333335, "is_disabled": 0, "type": "electric_scooter", "lon": -77.02944533333333, "bike_id": "d959358860ecce6a03fbbb2c4d358035", "fusion_lat": 0.0, "name": "d959358860ecce6a03fbbb2c4d358035", "is_reserved": 0, "rental_uris": {"android": "https://dc.lft.to/lastmile_qr_scan", "ios": "https://dc.lft.to/lastmile_qr_scan"}, "fusion_lon": 0.0}, {"lat": 38.923542833333336, "is_disabled": 0, "type": "electric_scooter", "lon": -77.03561116666667, "bike_id": "1cd66d0f790747ddad70f5570b08d5d7", "fusion_lat": 0.0, "name": "1cd66d0f790747ddad70f5570b08d5d7", "is_reserved": 0, "rental_uris": {"android": "https://dc.lft.to/lastmile_qr_scan", "ios": "https://dc.lft.to/lastmile_qr_scan"}, "fusion_lon": 0.0}, {"lat": 38.92484366666667, "is_disabled": 0, "type": "electric_scooter", "lon": -77.02631866666667, "bike_id": "0867f3507a72868d61c054c56802a0b2", "fusion_lat": 0.0, "name": "0867f3507a72868d61c054c56802a0b2", "is_reserved": 0, "rental_uris": {"android": "https://dc.lft.to/lastmile_qr_scan", "ios": "https://dc.lft.to/lastmile_qr_scan"}, "fusion_lon": 0.0}, {"lat": 38.909616, "is_disabled": 0, "type": "electric_scooter", "lon": -77.02277933333333, "bike_id": "015c718b4ef48ed5b9b76664ae21a027", "fusion_lat": 0.0, "name": "015c718b4ef48ed5b9b76664ae21a027", "is_reserved": 0, "rental_uris": {"android": "https://dc.lft.to/lastmile_qr_scan", "ios": "https://dc.lft.to/lastmile_qr_scan"}, "fusion_lon": 0.0}, {"lat": 38.9241235, "is_disabled": 0, "type": "electric_scooter", "lon": -77.0255925, "bike_id": "a3c744963edb2481b27d75fab21f23b3", "fusion_lat": 0.0, "name": "a3c744963edb2481b27d75fab21f23b3", "is_reserved": 0, "rental_uris": {"android": "https://dc.lft.to/lastmile_qr_scan", "ios": "https://dc.lft.to/lastmile_qr_scan"}, "fusion_lon": 0.0}, {"lat": 38.86614133333333, "is_disabled": 0, "type": "electric_scooter", "lon": -76.98689466666667, "bike_id": "f9b1dcc0bb47c21ffcf56eacb1b3b1e6", "fusion_lat": 0.0, "name": "f9b1dcc0bb47c21ffcf56eacb1b3b1e6", "is_reserved": 0, "rental_uris": {"android": "https://dc.lft.to/lastmile_qr_scan", "ios": "https://dc.lft.to/lastmile_qr_scan"}, "fusion_lon": 0.0}, {"lat": 38.893740333333334, "is_disabled": 0, "type": "electric_scooter", "lon": -76.94997633333334, "bike_id": "87b6159a5d6b6bff88e5f8ae288c3b4c", "fusion_lat": 0.0, "name": "87b6159a5d6b6bff88e5f8ae288c3b4c", "is_reserved": 0, "rental_uris": {"android": "https://dc.lft.to/lastmile_qr_scan", "ios": "https://dc.lft.to/lastmile_qr_scan"}, "fusion_lon": 0.0}, {"lat": 38.909805166666665, "is_disabled": 0, "type": "electric_scooter", "lon": -77.04801283333333, "bike_id": "3fc4f29482d6963ca27f5d44b278eb57", "fusion_lat": 0.0, "name": "3fc4f29482d6963ca27f5d44b278eb57", "is_reserved": 0, "rental_uris": {"android": "https://dc.lft.to/lastmile_qr_scan", "ios": "https://dc.lft.to/lastmile_qr_scan"}, "fusion_lon": 0.0}, {"lat": 38.884901666666664, "is_disabled": 0, "type": "electric_scooter", "lon": -77.00706366666667, "bike_id": "999e594040ab06214c88ebe60f0b1904", "fusion_lat": 0.0, "name": "999e594040ab06214c88ebe60f0b1904", "is_reserved": 0, "rental_uris": {"android": "https://dc.lft.to/lastmile_qr_scan", "ios": "https://dc.lft.to/lastmile_qr_scan"}, "fusion_lon": 0.0}, {"lat": 38.9213535, "is_disabled": 0, "type": "electric_scooter", "lon": -77.01041516666666, "bike_id": "24a88d2cda4c631d57ad3b7a800c7d4f", "fusion_lat": 0.0, "name": "24a88d2cda4c631d57ad3b7a800c7d4f", "is_reserved": 0, "rental_uris": {"android": "https://dc.lft.to/lastmile_qr_scan", "ios": "https://dc.lft.to/lastmile_qr_scan"}, "fusion_lon": 0.0}, {"lat": 38.932680500000004, "is_disabled": 0, "type": "electric_scooter", "lon": -77.038909, "bike_id": "8fc0f00cdc0da76a69b3128cf19dec4a", "fusion_lat": 0.0, "name": "8fc0f00cdc0da76a69b3128cf19dec4a", "is_reserved": 0, "rental_uris": {"android": "https://dc.lft.to/lastmile_qr_scan", "ios": "https://dc.lft.to/lastmile_qr_scan"}, "fusion_lon": 0.0}, {"lat": 38.84296633333334, "is_disabled": 0, "type": "electric_scooter", "lon": -76.99945383333333, "bike_id": "d977df125c7bc2894c89edb549e2f4fb", "fusion_lat": 0.0, "name": "d977df125c7bc2894c89edb549e2f4fb", "is_reserved": 0, "rental_uris": {"android": "https://dc.lft.to/lastmile_qr_scan", "ios": "https://dc.lft.to/lastmile_qr_scan"}, "fusion_lon": 0.0}, {"lat": 38.8427345, "is_disabled": 0, "type": "electric_bike", "lon": -76.98846133333333, "bike_id": "6f0dbdf37029680714482bd495f20510", "fusion_lat": 0.0, "name": "6f0dbdf37029680714482bd495f20510", "is_reserved": 0, "rental_uris": {"android": "https://dc.lft.to/lastmile_qr_scan", "ios": "https://dc.lft.to/lastmile_qr_scan"}, "fusion_lon": 0.0}, {"lat": 38.931075166666666, "is_disabled": 0, "type": "electric_scooter", "lon": -77.03820616666667, "bike_id": "51e2341bb7b8c4acefed9211dd357b95", "fusion_lat": 0.0, "name": "51e2341bb7b8c4acefed9211dd357b95", "is_reserved": 0, "rental_uris": {"android": "https://dc.lft.to/lastmile_qr_scan", "ios": "https://dc.lft.to/lastmile_qr_scan"}, "fusion_lon": 0.0}, {"lat": 38.892794, "is_disabled": 0, "type": "electric_scooter", "lon": -77.05029216666667, "bike_id": "fe357b75fc1e53c003e73cb27ad4e4f2", "fusion_lat": 0.0, "name": "fe357b75fc1e53c003e73cb27ad4e4f2", "is_reserved": 0, "rental_uris": {"android": "https://dc.lft.to/lastmile_qr_scan", "ios": "https://dc.lft.to/lastmile_qr_scan"}, "fusion_lon": 0.0}, {"lat": 38.936527833333336, "is_disabled": 0, "type": "electric_scooter", "lon": -77.03655966666666, "bike_id": "5fe91e0b21504938ac7832300e81f5c8", "fusion_lat": 0.0, "name": "5fe91e0b21504938ac7832300e81f5c8", "is_reserved": 0, "rental_uris": {"android": "https://dc.lft.to/lastmile_qr_scan", "ios": "https://dc.lft.to/lastmile_qr_scan"}, "fusion_lon": 0.0}, {"lat": 38.91787983333333, "is_disabled": 0, "type": "electric_scooter", "lon": -77.0230955, "bike_id": "fea0ff383bad216c4349b396e2d61bb4", "fusion_lat": 0.0, "name": "fea0ff383bad216c4349b396e2d61bb4", "is_reserved": 0, "rental_uris": {"android": "https://dc.lft.to/lastmile_qr_scan", "ios": "https://dc.lft.to/lastmile_qr_scan"}, "fusion_lon": 0.0}, {"lat": 38.90662283333333, "is_disabled": 0, "type": "electric_scooter", "lon": -77.03532033333333, "bike_id": "c43decd269b802521056b0576ee2b2d6", "fusion_lat": 0.0, "name": "c43decd269b802521056b0576ee2b2d6", "is_reserved": 0, "rental_uris": {"android": "https://dc.lft.to/lastmile_qr_scan", "ios": "https://dc.lft.to/lastmile_qr_scan"}, "fusion_lon": 0.0}, {"lat": 38.91849083333334, "is_disabled": 0, "type": "electric_scooter", "lon": -76.965413, "bike_id": "abedaa0d6a3dc936432f7bc4976975b0", "fusion_lat": 0.0, "name": "abedaa0d6a3dc936432f7bc4976975b0", "is_reserved": 0, "rental_uris": {"android": "https://dc.lft.to/lastmile_qr_scan", "ios": "https://dc.lft.to/lastmile_qr_scan"}, "fusion_lon": 0.0}, {"lat": 38.846292166666665, "is_disabled": 0, "type": "electric_bike", "lon": -77.069373, "bike_id": "8086dc7e42b9703b08fedb30bf63e722", "fusion_lat": 0.0, "name": "8086dc7e42b9703b08fedb30bf63e722", "is_reserved": 0, "rental_uris": {"android": "https://dc.lft.to/lastmile_qr_scan", "ios": "https://dc.lft.to/lastmile_qr_scan"}, "fusion_lon": 0.0}, {"lat": 38.923858333333335, "is_disabled": 0, "type": "electric_scooter", "lon": -77.03070533333333, "bike_id": "5b556db52c3886ac422c43ce0d64e3bf", "fusion_lat": 0.0, "name": "5b556db52c3886ac422c43ce0d64e3bf", "is_reserved": 0, "rental_uris": {"android": "https://dc.lft.to/lastmile_qr_scan", "ios": "https://dc.lft.to/lastmile_qr_scan"}, "fusion_lon": 0.0}, {"lat": 38.909995, "is_disabled": 0, "type": "electric_scooter", "lon": -77.02284983333334, "bike_id": "b8df5ccabfb6c8ea24283357c2eeaa26", "fusion_lat": 0.0, "name": "b8df5ccabfb6c8ea24283357c2eeaa26", "is_reserved": 0, "rental_uris": {"android": "https://dc.lft.to/lastmile_qr_scan", "ios": "https://dc.lft.to/lastmile_qr_scan"}, "fusion_lon": 0.0}, {"lat": 38.89508933333333, "is_disabled": 0, "type": "electric_scooter", "lon": -77.02745266666666, "bike_id": "a41ab1cb78c7f6ab1751c35da1bba45a", "fusion_lat": 0.0, "name": "a41ab1cb78c7f6ab1751c35da1bba45a", "is_reserved": 0, "rental_uris": {"android": "https://dc.lft.to/lastmile_qr_scan", "ios": "https://dc.lft.to/lastmile_qr_scan"}, "fusion_lon": 0.0}, {"lat": 38.91715116666666, "is_disabled": 0, "type": "electric_scooter", "lon": -77.03465166666666, "bike_id": "87009191f5ca62fa2197cf3b9c665b16", "fusion_lat": 0.0, "name": "87009191f5ca62fa2197cf3b9c665b16", "is_reserved": 0, "rental_uris": {"android": "https://dc.lft.to/lastmile_qr_scan", "ios": "https://dc.lft.to/lastmile_qr_scan"}, "fusion_lon": 0.0}, {"lat": 38.9044635, "is_disabled": 0, "type": "electric_scooter", "lon": -77.03598966666667, "bike_id": "dcc440ebaa39f425b1a2f8ac397c4927", "fusion_lat": 0.0, "name": "dcc440ebaa39f425b1a2f8ac397c4927", "is_reserved": 0, "rental_uris": {"android": "https://dc.lft.to/lastmile_qr_scan", "ios": "https://dc.lft.to/lastmile_qr_scan"}, "fusion_lon": 0.0}, {"lat": 38.9028025, "is_disabled": 0, "type": "electric_scooter", "lon": -77.040583, "bike_id": "28845bba97e9118037af0d472dc32b88", "fusion_lat": 0.0, "name": "28845bba97e9118037af0d472dc32b88", "is_reserved": 0, "rental_uris": {"android": "https://dc.lft.to/lastmile_qr_scan", "ios": "https://dc.lft.to/lastmile_qr_scan"}, "fusion_lon": 0.0}, {"lat": 38.86521666666667, "is_disabled": 0, "type": "electric_scooter", "lon": -76.99037483333333, "bike_id": "4bf0644ccf28917c9d29b26c8534385f", "fusion_lat": 0.0, "name": "4bf0644ccf28917c9d29b26c8534385f", "is_reserved": 0, "rental_uris": {"android": "https://dc.lft.to/lastmile_qr_scan", "ios": "https://dc.lft.to/lastmile_qr_scan"}, "fusion_lon": 0.0}, {"lat": 38.838139166666664, "is_disabled": 0, "type": "electric_bike", "lon": -77.09523633333333, "bike_id": "1b5233668e4f4bc9a3ae56b992c154fd", "fusion_lat": 0.0, "name": "1b5233668e4f4bc9a3ae56b992c154fd", "is_reserved": 0, "rental_uris": {"android": "https://dc.lft.to/lastmile_qr_scan", "ios": "https://dc.lft.to/lastmile_qr_scan"}, "fusion_lon": 0.0}, {"lat": 38.923367999999996, "is_disabled": 0, "type": "electric_scooter", "lon": -77.03502033333334, "bike_id": "ab91dcbf5a2e8965c1f3c778915f2f60", "fusion_lat": 0.0, "name": "ab91dcbf5a2e8965c1f3c778915f2f60", "is_reserved": 0, "rental_uris": {"android": "https://dc.lft.to/lastmile_qr_scan", "ios": "https://dc.lft.to/lastmile_qr_scan"}, "fusion_lon": 0.0}, {"lat": 38.876313, "is_disabled": 0, "type": "electric_scooter", "lon": -76.9652885, "bike_id": "df7b0efca77a5b920c9453256d2fc57c", "fusion_lat": 0.0, "name": "df7b0efca77a5b920c9453256d2fc57c", "is_reserved": 0, "rental_uris": {"android": "https://dc.lft.to/lastmile_qr_scan", "ios": "https://dc.lft.to/lastmile_qr_scan"}, "fusion_lon": 0.0}, {"lat": 38.92546166666666, "is_disabled": 0, "type": "electric_scooter", "lon": -77.033312, "bike_id": "3d6992ae5a0e57f255e617e58ff3a0ba", "fusion_lat": 0.0, "name": "3d6992ae5a0e57f255e617e58ff3a0ba", "is_reserved": 0, "rental_uris": {"android": "https://dc.lft.to/lastmile_qr_scan", "ios": "https://dc.lft.to/lastmile_qr_scan"}, "fusion_lon": 0.0}, {"lat": 38.915691, "is_disabled": 0, "type": "electric_scooter", "lon": -77.0119295, "bike_id": "d3f92523b4b125af2009c2748ff42d41", "fusion_lat": 0.0, "name": "d3f92523b4b125af2009c2748ff42d41", "is_reserved": 0, "rental_uris": {"android": "https://dc.lft.to/lastmile_qr_scan", "ios": "https://dc.lft.to/lastmile_qr_scan"}, "fusion_lon": 0.0}, {"lat": 38.859321333333334, "is_disabled": 0, "type": "electric_scooter", "lon": -76.99719, "bike_id": "b11c2e94dd37c52443eef7053a1c8d2e", "fusion_lat": 0.0, "name": "b11c2e94dd37c52443eef7053a1c8d2e", "is_reserved": 0, "rental_uris": {"android": "https://dc.lft.to/lastmile_qr_scan", "ios": "https://dc.lft.to/lastmile_qr_scan"}, "fusion_lon": 0.0}, {"lat": 38.907787166666665, "is_disabled": 0, "type": "electric_scooter", "lon": -77.0386015, "bike_id": "726d0ecd2c2cc1e261a382e952373c83", "fusion_lat": 0.0, "name": "726d0ecd2c2cc1e261a382e952373c83", "is_reserved": 0, "rental_uris": {"android": "https://dc.lft.to/lastmile_qr_scan", "ios": "https://dc.lft.to/lastmile_qr_scan"}, "fusion_lon": 0.0}, {"lat": 38.86999766666667, "is_disabled": 0, "type": "electric_bike", "lon": -77.0656235, "bike_id": "28e65e6d2eed588f834935f04133c111", "fusion_lat": 0.0, "name": "28e65e6d2eed588f834935f04133c111", "is_reserved": 0, "rental_uris": {"android": "https://dc.lft.to/lastmile_qr_scan", "ios": "https://dc.lft.to/lastmile_qr_scan"}, "fusion_lon": 0.0}, {"lat": 38.9463255, "is_disabled": 0, "type": "electric_scooter", "lon": -77.01844, "bike_id": "5544faec0b79d1781bf92213a7986b27", "fusion_lat": 0.0, "name": "5544faec0b79d1781bf92213a7986b27", "is_reserved": 0, "rental_uris": {"android": "https://dc.lft.to/lastmile_qr_scan", "ios": "https://dc.lft.to/lastmile_qr_scan"}, "fusion_lon": 0.0}, {"lat": 38.890557, "is_disabled": 0, "type": "electric_scooter", "lon": -76.93754916666667, "bike_id": "7e4273032d2090aeba470522399898f9", "fusion_lat": 0.0, "name": "7e4273032d2090aeba470522399898f9", "is_reserved": 0, "rental_uris": {"android": "https://dc.lft.to/lastmile_qr_scan", "ios": "https://dc.lft.to/lastmile_qr_scan"}, "fusion_lon": 0.0}, {"lat": 38.92407266666667, "is_disabled": 0, "type": "electric_scooter", "lon": -77.02740933333334, "bike_id": "0a0dea75a009e3b6ccfd8c82ec366a3f", "fusion_lat": 0.0, "name": "0a0dea75a009e3b6ccfd8c82ec366a3f", "is_reserved": 0, "rental_uris": {"android": "https://dc.lft.to/lastmile_qr_scan", "ios": "https://dc.lft.to/lastmile_qr_scan"}, "fusion_lon": 0.0}, {"lat": 38.902552, "is_disabled": 0, "type": "electric_scooter", "lon": -77.01758116666667, "bike_id": "2c771b8b7a15d6ec2bed01771de67c64", "fusion_lat": 0.0, "name": "2c771b8b7a15d6ec2bed01771de67c64", "is_reserved": 0, "rental_uris": {"android": "https://dc.lft.to/lastmile_qr_scan", "ios": "https://dc.lft.to/lastmile_qr_scan"}, "fusion_lon": 0.0}, {"lat": 38.95406283333333, "is_disabled": 0, "type": "electric_scooter", "lon": -77.02750183333333, "bike_id": "1b3ca744c681dfa4284cf183b14f31a7", "fusion_lat": 0.0, "name": "1b3ca744c681dfa4284cf183b14f31a7", "is_reserved": 0, "rental_uris": {"android": "https://dc.lft.to/lastmile_qr_scan", "ios": "https://dc.lft.to/lastmile_qr_scan"}, "fusion_lon": 0.0}, {"lat": 38.876782666666664, "is_disabled": 0, "type": "electric_scooter", "lon": -77.01791016666667, "bike_id": "cbce233691911bf124d2e55b919ddd14", "fusion_lat": 0.0, "name": "cbce233691911bf124d2e55b919ddd14", "is_reserved": 0, "rental_uris": {"android": "https://dc.lft.to/lastmile_qr_scan", "ios": "https://dc.lft.to/lastmile_qr_scan"}, "fusion_lon": 0.0}, {"lat": 38.91697666666666, "is_disabled": 0, "type": "electric_scooter", "lon": -77.04601783333334, "bike_id": "64c48426af78f8945f2791a3bbbc4192", "fusion_lat": 0.0, "name": "64c48426af78f8945f2791a3bbbc4192", "is_reserved": 0, "rental_uris": {"android": "https://dc.lft.to/lastmile_qr_scan", "ios": "https://dc.lft.to/lastmile_qr_scan"}, "fusion_lon": 0.0}, {"lat": 38.932660166666665, "is_disabled": 0, "type": "electric_scooter", "lon": -77.0326785, "bike_id": "859216b64bbdaf3b9cabb8932dedc569", "fusion_lat": 0.0, "name": "859216b64bbdaf3b9cabb8932dedc569", "is_reserved": 0, "rental_uris": {"android": "https://dc.lft.to/lastmile_qr_scan", "ios": "https://dc.lft.to/lastmile_qr_scan"}, "fusion_lon": 0.0}, {"lat": 38.93977433333333, "is_disabled": 0, "type": "electric_scooter", "lon": -77.02888666666666, "bike_id": "e06f9f49f526b1a8132ec38e4d22b3f8", "fusion_lat": 0.0, "name": "e06f9f49f526b1a8132ec38e4d22b3f8", "is_reserved": 0, "rental_uris": {"android": "https://dc.lft.to/lastmile_qr_scan", "ios": "https://dc.lft.to/lastmile_qr_scan"}, "fusion_lon": 0.0}, {"lat": 38.91566266666667, "is_disabled": 0, "type": "electric_scooter", "lon": -77.03152666666666, "bike_id": "34977729cc21d29cf0d146cfb0d9f7d8", "fusion_lat": 0.0, "name": "34977729cc21d29cf0d146cfb0d9f7d8", "is_reserved": 0, "rental_uris": {"android": "https://dc.lft.to/lastmile_qr_scan", "ios": "https://dc.lft.to/lastmile_qr_scan"}, "fusion_lon": 0.0}, {"lat": 38.86731116666667, "is_disabled": 0, "type": "electric_scooter", "lon": -77.01020983333333, "bike_id": "3fa22f4ee493b7b050d3322087dd1f5e", "fusion_lat": 0.0, "name": "3fa22f4ee493b7b050d3322087dd1f5e", "is_reserved": 0, "rental_uris": {"android": "https://dc.lft.to/lastmile_qr_scan", "ios": "https://dc.lft.to/lastmile_qr_scan"}, "fusion_lon": 0.0}, {"lat": 38.923607, "is_disabled": 0, "type": "electric_scooter", "lon": -77.050955, "bike_id": "deddd683fca7ae4c5692a328c92f7294", "fusion_lat": 0.0, "name": "deddd683fca7ae4c5692a328c92f7294", "is_reserved": 0, "rental_uris": {"android": "https://dc.lft.to/lastmile_qr_scan", "ios": "https://dc.lft.to/lastmile_qr_scan"}, "fusion_lon": 0.0}, {"lat": 38.857913833333335, "is_disabled": 0, "type": "electric_bike", "lon": -77.0996285, "bike_id": "ccd8313dccac646c05af5eb709ab3d70", "fusion_lat": 0.0, "name": "ccd8313dccac646c05af5eb709ab3d70", "is_reserved": 0, "rental_uris": {"android": "https://dc.lft.to/lastmile_qr_scan", "ios": "https://dc.lft.to/lastmile_qr_scan"}, "fusion_lon": 0.0}, {"lat": 38.9169165, "is_disabled": 0, "type": "electric_scooter", "lon": -77.02275616666667, "bike_id": "e855510b1040590fa37dd7b833aec4f5", "fusion_lat": 0.0, "name": "e855510b1040590fa37dd7b833aec4f5", "is_reserved": 0, "rental_uris": {"android": "https://dc.lft.to/lastmile_qr_scan", "ios": "https://dc.lft.to/lastmile_qr_scan"}, "fusion_lon": 0.0}, {"lat": 38.9398295, "is_disabled": 0, "type": "electric_scooter", "lon": -77.0326425, "bike_id": "bf64cf94bf650ddff6a107195ea52e38", "fusion_lat": 0.0, "name": "bf64cf94bf650ddff6a107195ea52e38", "is_reserved": 0, "rental_uris": {"android": "https://dc.lft.to/lastmile_qr_scan", "ios": "https://dc.lft.to/lastmile_qr_scan"}, "fusion_lon": 0.0}, {"lat": 38.89918883333333, "is_disabled": 0, "type": "electric_scooter", "lon": -76.93378416666667, "bike_id": "42027930311534a3d3db4a791916957a", "fusion_lat": 0.0, "name": "42027930311534a3d3db4a791916957a", "is_reserved": 0, "rental_uris": {"android": "https://dc.lft.to/lastmile_qr_scan", "ios": "https://dc.lft.to/lastmile_qr_scan"}, "fusion_lon": 0.0}, {"lat": 38.957814166666665, "is_disabled": 0, "type": "electric_scooter", "lon": -77.02461366666667, "bike_id": "916c4308957bd52bc619740a7c41565b", "fusion_lat": 0.0, "name": "916c4308957bd52bc619740a7c41565b", "is_reserved": 0, "rental_uris": {"android": "https://dc.lft.to/lastmile_qr_scan", "ios": "https://dc.lft.to/lastmile_qr_scan"}, "fusion_lon": 0.0}, {"lat": 38.926902, "is_disabled": 0, "type": "electric_scooter", "lon": -77.05101783333333, "bike_id": "f1a156d1f37ed740b62ce7b6c407814c", "fusion_lat": 0.0, "name": "f1a156d1f37ed740b62ce7b6c407814c", "is_reserved": 0, "rental_uris": {"android": "https://dc.lft.to/lastmile_qr_scan", "ios": "https://dc.lft.to/lastmile_qr_scan"}, "fusion_lon": 0.0}, {"lat": 38.95561933333333, "is_disabled": 0, "type": "electric_bike", "lon": -76.93538433333333, "bike_id": "a4ef01f502577a906df70ebf5414e319", "fusion_lat": 0.0, "name": "a4ef01f502577a906df70ebf5414e319", "is_reserved": 0, "rental_uris": {"android": "https://dc.lft.to/lastmile_qr_scan", "ios": "https://dc.lft.to/lastmile_qr_scan"}, "fusion_lon": 0.0}, {"lat": 38.93203466666667, "is_disabled": 0, "type": "electric_bike", "lon": -77.07832583333334, "bike_id": "6406a73fec344d81bffefabd63e1d089", "fusion_lat": 0.0, "name": "6406a73fec344d81bffefabd63e1d089", "is_reserved": 0, "rental_uris": {"android": "https://dc.lft.to/lastmile_qr_scan", "ios": "https://dc.lft.to/lastmile_qr_scan"}, "fusion_lon": 0.0}, {"lat": 38.906654833333334, "is_disabled": 0, "type": "electric_scooter", "lon": -77.03863383333334, "bike_id": "649a0cbb3d1a1c97f1d076afa20ea533", "fusion_lat": 0.0, "name": "649a0cbb3d1a1c97f1d076afa20ea533", "is_reserved": 0, "rental_uris": {"android": "https://dc.lft.to/lastmile_qr_scan", "ios": "https://dc.lft.to/lastmile_qr_scan"}, "fusion_lon": 0.0}, {"lat": 38.91267416666667, "is_disabled": 0, "type": "electric_scooter", "lon": -77.01308316666666, "bike_id": "de0ddf0a2bab7472acb79617bd76ec03", "fusion_lat": 0.0, "name": "de0ddf0a2bab7472acb79617bd76ec03", "is_reserved": 0, "rental_uris": {"android": "https://dc.lft.to/lastmile_qr_scan", "ios": "https://dc.lft.to/lastmile_qr_scan"}, "fusion_lon": 0.0}, {"lat": 38.8804945, "is_disabled": 0, "type": "electric_scooter", "lon": -77.0176895, "bike_id": "838a8d57d268659aa9e4d7dc6371b95a", "fusion_lat": 0.0, "name": "838a8d57d268659aa9e4d7dc6371b95a", "is_reserved": 0, "rental_uris": {"android": "https://dc.lft.to/lastmile_qr_scan", "ios": "https://dc.lft.to/lastmile_qr_scan"}, "fusion_lon": 0.0}, {"lat": 38.90265466666666, "is_disabled": 0, "type": "electric_scooter", "lon": -77.01641283333333, "bike_id": "098f55b6c53e31d41d6a3a37f0d598dd", "fusion_lat": 0.0, "name": "098f55b6c53e31d41d6a3a37f0d598dd", "is_reserved": 0, "rental_uris": {"android": "https://dc.lft.to/lastmile_qr_scan", "ios": "https://dc.lft.to/lastmile_qr_scan"}, "fusion_lon": 0.0}, {"lat": 38.84294533333333, "is_disabled": 0, "type": "electric_scooter", "lon": -76.9994845, "bike_id": "aeaeae4b786ad1fa4b29dd0084f7e1e6", "fusion_lat": 0.0, "name": "aeaeae4b786ad1fa4b29dd0084f7e1e6", "is_reserved": 0, "rental_uris": {"android": "https://dc.lft.to/lastmile_qr_scan", "ios": "https://dc.lft.to/lastmile_qr_scan"}, "fusion_lon": 0.0}, {"lat": 38.86348433333333, "is_disabled": 0, "type": "electric_scooter", "lon": -76.99000283333334, "bike_id": "a399fbbdc1e56d1fff32eb3705fc1754", "fusion_lat": 0.0, "name": "a399fbbdc1e56d1fff32eb3705fc1754", "is_reserved": 0, "rental_uris": {"android": "https://dc.lft.to/lastmile_qr_scan", "ios": "https://dc.lft.to/lastmile_qr_scan"}, "fusion_lon": 0.0}, {"lat": 38.926093, "is_disabled": 0, "type": "electric_scooter", "lon": -77.05696833333333, "bike_id": "b368d2bcd38cc1e23db9917b3ad3aa48", "fusion_lat": 0.0, "name": "b368d2bcd38cc1e23db9917b3ad3aa48", "is_reserved": 0, "rental_uris": {"android": "https://dc.lft.to/lastmile_qr_scan", "ios": "https://dc.lft.to/lastmile_qr_scan"}, "fusion_lon": 0.0}, {"lat": 38.94600166666667, "is_disabled": 0, "type": "electric_scooter", "lon": -77.070291, "bike_id": "b0e646a4a3f8f0b14b54aac4189578c2", "fusion_lat": 0.0, "name": "b0e646a4a3f8f0b14b54aac4189578c2", "is_reserved": 0, "rental_uris": {"android": "https://dc.lft.to/lastmile_qr_scan", "ios": "https://dc.lft.to/lastmile_qr_scan"}, "fusion_lon": 0.0}, {"lat": 38.9038505, "is_disabled": 0, "type": "electric_scooter", "lon": -77.05318983333333, "bike_id": "e185aa3e700acfa1f996d418994f94e6", "fusion_lat": 0.0, "name": "e185aa3e700acfa1f996d418994f94e6", "is_reserved": 0, "rental_uris": {"android": "https://dc.lft.to/lastmile_qr_scan", "ios": "https://dc.lft.to/lastmile_qr_scan"}, "fusion_lon": 0.0}, {"lat": 38.89366316666667, "is_disabled": 0, "type": "electric_scooter", "lon": -76.99109983333334, "bike_id": "f0a570bd7d2d115baff9743c93293152", "fusion_lat": 0.0, "name": "f0a570bd7d2d115baff9743c93293152", "is_reserved": 0, "rental_uris": {"android": "https://dc.lft.to/lastmile_qr_scan", "ios": "https://dc.lft.to/lastmile_qr_scan"}, "fusion_lon": 0.0}, {"lat": 38.8829235, "is_disabled": 0, "type": "electric_bike", "lon": -76.98793533333334, "bike_id": "f759597158767192ca892db3aba8b2a5", "fusion_lat": 0.0, "name": "f759597158767192ca892db3aba8b2a5", "is_reserved": 0, "rental_uris": {"android": "https://dc.lft.to/lastmile_qr_scan", "ios": "https://dc.lft.to/lastmile_qr_scan"}, "fusion_lon": 0.0}, {"lat": 38.92113466666667, "is_disabled": 0, "type": "electric_scooter", "lon": -77.04202683333334, "bike_id": "b5235daab420c0f4a5094e896c3cda97", "fusion_lat": 0.0, "name": "b5235daab420c0f4a5094e896c3cda97", "is_reserved": 0, "rental_uris": {"android": "https://dc.lft.to/lastmile_qr_scan", "ios": "https://dc.lft.to/lastmile_qr_scan"}, "fusion_lon": 0.0}, {"lat": 38.91556516666667, "is_disabled": 0, "type": "electric_scooter", "lon": -77.0097945, "bike_id": "0ace119695a7a2d0dbb124cd2395bffa", "fusion_lat": 0.0, "name": "0ace119695a7a2d0dbb124cd2395bffa", "is_reserved": 0, "rental_uris": {"android": "https://dc.lft.to/lastmile_qr_scan", "ios": "https://dc.lft.to/lastmile_qr_scan"}, "fusion_lon": 0.0}, {"lat": 38.8541535, "is_disabled": 0, "type": "electric_bike", "lon": -76.9096165, "bike_id": "a5e695ce5fb378e92ec8bbf7c7d2fba8", "fusion_lat": 0.0, "name": "a5e695ce5fb378e92ec8bbf7c7d2fba8", "is_reserved": 0, "rental_uris": {"android": "https://dc.lft.to/lastmile_qr_scan", "ios": "https://dc.lft.to/lastmile_qr_scan"}, "fusion_lon": 0.0}, {"lat": 38.91889533333333, "is_disabled": 0, "type": "electric_scooter", "lon": -77.03500416666667, "bike_id": "1c11a0fbdbc6afabc494f6109ecb1b86", "fusion_lat": 0.0, "name": "1c11a0fbdbc6afabc494f6109ecb1b86", "is_reserved": 0, "rental_uris": {"android": "https://dc.lft.to/lastmile_qr_scan", "ios": "https://dc.lft.to/lastmile_qr_scan"}, "fusion_lon": 0.0}, {"lat": 38.923850333333334, "is_disabled": 0, "type": "electric_scooter", "lon": -77.02764016666667, "bike_id": "70f73442b1adc73a96980e7fb8e826fd", "fusion_lat": 0.0, "name": "70f73442b1adc73a96980e7fb8e826fd", "is_reserved": 0, "rental_uris": {"android": "https://dc.lft.to/lastmile_qr_scan", "ios": "https://dc.lft.to/lastmile_qr_scan"}, "fusion_lon": 0.0}, {"lat": 38.9048745, "is_disabled": 0, "type": "electric_scooter", "lon": -76.995443, "bike_id": "35e4460f7fa6d7d4ae3f0aee0843aaa3", "fusion_lat": 0.0, "name": "35e4460f7fa6d7d4ae3f0aee0843aaa3", "is_reserved": 0, "rental_uris": {"android": "https://dc.lft.to/lastmile_qr_scan", "ios": "https://dc.lft.to/lastmile_qr_scan"}, "fusion_lon": 0.0}, {"lat": 38.84430283333333, "is_disabled": 0, "type": "electric_scooter", "lon": -76.997799, "bike_id": "78f2b5bc2bd955e759883a7a70819a8c", "fusion_lat": 0.0, "name": "78f2b5bc2bd955e759883a7a70819a8c", "is_reserved": 0, "rental_uris": {"android": "https://dc.lft.to/lastmile_qr_scan", "ios": "https://dc.lft.to/lastmile_qr_scan"}, "fusion_lon": 0.0}, {"lat": 38.81053083333333, "is_disabled": 0, "type": "electric_bike", "lon": -77.08510916666667, "bike_id": "63019aeb01379295df06689b76ae62f0", "fusion_lat": 0.0, "name": "63019aeb01379295df06689b76ae62f0", "is_reserved": 0, "rental_uris": {"android": "https://dc.lft.to/lastmile_qr_scan", "ios": "https://dc.lft.to/lastmile_qr_scan"}, "fusion_lon": 0.0}, {"lat": 38.89609466666667, "is_disabled": 0, "type": "electric_scooter", "lon": -76.95601266666667, "bike_id": "cdff0bf97abb07814dc180af5b66f925", "fusion_lat": 0.0, "name": "cdff0bf97abb07814dc180af5b66f925", "is_reserved": 0, "rental_uris": {"android": "https://dc.lft.to/lastmile_qr_scan", "ios": "https://dc.lft.to/lastmile_qr_scan"}, "fusion_lon": 0.0}, {"lat": 38.918942, "is_disabled": 0, "type": "electric_scooter", "lon": -77.03908983333334, "bike_id": "f2b570b46e18750abac0e8030efb640b", "fusion_lat": 0.0, "name": "f2b570b46e18750abac0e8030efb640b", "is_reserved": 0, "rental_uris": {"android": "https://dc.lft.to/lastmile_qr_scan", "ios": "https://dc.lft.to/lastmile_qr_scan"}, "fusion_lon": 0.0}, {"lat": 38.9085275, "is_disabled": 0, "type": "electric_scooter", "lon": -77.02819283333334, "bike_id": "dc5cd70d0f107e68f9d863030fe69e4a", "fusion_lat": 0.0, "name": "dc5cd70d0f107e68f9d863030fe69e4a", "is_reserved": 0, "rental_uris": {"android": "https://dc.lft.to/lastmile_qr_scan", "ios": "https://dc.lft.to/lastmile_qr_scan"}, "fusion_lon": 0.0}, {"lat": 38.92001416666667, "is_disabled": 0, "type": "electric_scooter", "lon": -77.03184016666667, "bike_id": "394cdc24d22f87ea508220b31a590d01", "fusion_lat": 0.0, "name": "394cdc24d22f87ea508220b31a590d01", "is_reserved": 0, "rental_uris": {"android": "https://dc.lft.to/lastmile_qr_scan", "ios": "https://dc.lft.to/lastmile_qr_scan"}, "fusion_lon": 0.0}, {"lat": 38.92870933333333, "is_disabled": 0, "type": "electric_scooter", "lon": -77.01412183333333, "bike_id": "d432b8e3c264b710f4e19f4e9cd847d7", "fusion_lat": 0.0, "name": "d432b8e3c264b710f4e19f4e9cd847d7", "is_reserved": 0, "rental_uris": {"android": "https://dc.lft.to/lastmile_qr_scan", "ios": "https://dc.lft.to/lastmile_qr_scan"}, "fusion_lon": 0.0}, {"lat": 38.914061333333336, "is_disabled": 0, "type": "electric_scooter", "lon": -77.03058516666667, "bike_id": "b8bd441a47ae9f6af58955b872d18875", "fusion_lat": 0.0, "name": "b8bd441a47ae9f6af58955b872d18875", "is_reserved": 0, "rental_uris": {"android": "https://dc.lft.to/lastmile_qr_scan", "ios": "https://dc.lft.to/lastmile_qr_scan"}, "fusion_lon": 0.0}, {"lat": 38.91715466666667, "is_disabled": 0, "type": "electric_scooter", "lon": -77.03855433333334, "bike_id": "2ec7454210f31d1342de31ecaa56c957", "fusion_lat": 0.0, "name": "2ec7454210f31d1342de31ecaa56c957", "is_reserved": 0, "rental_uris": {"android": "https://dc.lft.to/lastmile_qr_scan", "ios": "https://dc.lft.to/lastmile_qr_scan"}, "fusion_lon": 0.0}, {"lat": 38.9025165, "is_disabled": 0, "type": "electric_scooter", "lon": -77.04699316666667, "bike_id": "ae937deca2e9a70718c2383e43d1597f", "fusion_lat": 0.0, "name": "ae937deca2e9a70718c2383e43d1597f", "is_reserved": 0, "rental_uris": {"android": "https://dc.lft.to/lastmile_qr_scan", "ios": "https://dc.lft.to/lastmile_qr_scan"}, "fusion_lon": 0.0}, {"lat": 38.90452833333333, "is_disabled": 0, "type": "electric_scooter", "lon": -77.00783633333333, "bike_id": "d0057d8e671e22904e845535b871ffb6", "fusion_lat": 0.0, "name": "d0057d8e671e22904e845535b871ffb6", "is_reserved": 0, "rental_uris": {"android": "https://dc.lft.to/lastmile_qr_scan", "ios": "https://dc.lft.to/lastmile_qr_scan"}, "fusion_lon": 0.0}, {"lat": 38.88659033333333, "is_disabled": 0, "type": "electric_bike", "lon": -77.16236916666666, "bike_id": "6462adf0e9803c74773cee1df777b3af", "fusion_lat": 0.0, "name": "6462adf0e9803c74773cee1df777b3af", "is_reserved": 0, "rental_uris": {"android": "https://dc.lft.to/lastmile_qr_scan", "ios": "https://dc.lft.to/lastmile_qr_scan"}, "fusion_lon": 0.0}, {"lat": 38.901537833333336, "is_disabled": 0, "type": "electric_scooter", "lon": -77.0417035, "bike_id": "6a918d20af196445989f973a8dea1b81", "fusion_lat": 0.0, "name": "6a918d20af196445989f973a8dea1b81", "is_reserved": 0, "rental_uris": {"android": "https://dc.lft.to/lastmile_qr_scan", "ios": "https://dc.lft.to/lastmile_qr_scan"}, "fusion_lon": 0.0}, {"lat": 38.91062816666667, "is_disabled": 0, "type": "electric_scooter", "lon": -77.04582216666667, "bike_id": "2a6052d96b373a0f4f870e34648c2431", "fusion_lat": 0.0, "name": "2a6052d96b373a0f4f870e34648c2431", "is_reserved": 0, "rental_uris": {"android": "https://dc.lft.to/lastmile_qr_scan", "ios": "https://dc.lft.to/lastmile_qr_scan"}, "fusion_lon": 0.0}, {"lat": 38.94271416666667, "is_disabled": 0, "type": "electric_scooter", "lon": -77.03261683333334, "bike_id": "6c14b5f25e73b1a8f90879bf310c4c1f", "fusion_lat": 0.0, "name": "6c14b5f25e73b1a8f90879bf310c4c1f", "is_reserved": 0, "rental_uris": {"android": "https://dc.lft.to/lastmile_qr_scan", "ios": "https://dc.lft.to/lastmile_qr_scan"}, "fusion_lon": 0.0}, {"lat": 38.924072, "is_disabled": 0, "type": "electric_scooter", "lon": -77.0354875, "bike_id": "bd46ca01d0f4a8a57b408db04c7ec9a0", "fusion_lat": 0.0, "name": "bd46ca01d0f4a8a57b408db04c7ec9a0", "is_reserved": 0, "rental_uris": {"android": "https://dc.lft.to/lastmile_qr_scan", "ios": "https://dc.lft.to/lastmile_qr_scan"}, "fusion_lon": 0.0}, {"lat": 38.9262205, "is_disabled": 0, "type": "electric_scooter", "lon": -77.03619466666666, "bike_id": "b4ab9b70afa126596e7c8aa6cf74b706", "fusion_lat": 0.0, "name": "b4ab9b70afa126596e7c8aa6cf74b706", "is_reserved": 0, "rental_uris": {"android": "https://dc.lft.to/lastmile_qr_scan", "ios": "https://dc.lft.to/lastmile_qr_scan"}, "fusion_lon": 0.0}, {"lat": 38.933562333333334, "is_disabled": 0, "type": "electric_scooter", "lon": -77.05689966666667, "bike_id": "91d624a54815f92d4628644ff002e6db", "fusion_lat": 0.0, "name": "91d624a54815f92d4628644ff002e6db", "is_reserved": 0, "rental_uris": {"android": "https://dc.lft.to/lastmile_qr_scan", "ios": "https://dc.lft.to/lastmile_qr_scan"}, "fusion_lon": 0.0}, {"lat": 38.938555666666666, "is_disabled": 0, "type": "electric_scooter", "lon": -77.03375616666666, "bike_id": "2442ca4a3f52888651a495a0e2af3f49", "fusion_lat": 0.0, "name": "2442ca4a3f52888651a495a0e2af3f49", "is_reserved": 0, "rental_uris": {"android": "https://dc.lft.to/lastmile_qr_scan", "ios": "https://dc.lft.to/lastmile_qr_scan"}, "fusion_lon": 0.0}, {"lat": 38.917136, "is_disabled": 0, "type": "electric_scooter", "lon": -77.03039616666666, "bike_id": "fefa43797ad1d8cf2ee16a7655122020", "fusion_lat": 0.0, "name": "fefa43797ad1d8cf2ee16a7655122020", "is_reserved": 0, "rental_uris": {"android": "https://dc.lft.to/lastmile_qr_scan", "ios": "https://dc.lft.to/lastmile_qr_scan"}, "fusion_lon": 0.0}, {"lat": 38.93252716666667, "is_disabled": 0, "type": "electric_scooter", "lon": -77.04011533333333, "bike_id": "c464b6fd7eddbb9dc14f1049fcb4697f", "fusion_lat": 0.0, "name": "c464b6fd7eddbb9dc14f1049fcb4697f", "is_reserved": 0, "rental_uris": {"android": "https://dc.lft.to/lastmile_qr_scan", "ios": "https://dc.lft.to/lastmile_qr_scan"}, "fusion_lon": 0.0}, {"lat": 38.90647466666667, "is_disabled": 0, "type": "electric_scooter", "lon": -77.00840583333333, "bike_id": "bc34c151323bbf938c1566d37bd41222", "fusion_lat": 0.0, "name": "bc34c151323bbf938c1566d37bd41222", "is_reserved": 0, "rental_uris": {"android": "https://dc.lft.to/lastmile_qr_scan", "ios": "https://dc.lft.to/lastmile_qr_scan"}, "fusion_lon": 0.0}, {"lat": 38.897447, "is_disabled": 0, "type": "electric_scooter", "lon": -77.00006233333333, "bike_id": "16bdcbb49942041fd492fe4befb9e9c4", "fusion_lat": 0.0, "name": "16bdcbb49942041fd492fe4befb9e9c4", "is_reserved": 0, "rental_uris": {"android": "https://dc.lft.to/lastmile_qr_scan", "ios": "https://dc.lft.to/lastmile_qr_scan"}, "fusion_lon": 0.0}, {"lat": 38.86653366666667, "is_disabled": 0, "type": "electric_scooter", "lon": -76.98902916666667, "bike_id": "33e0b1e6d489b6f209d43ea71ba6252c", "fusion_lat": 0.0, "name": "33e0b1e6d489b6f209d43ea71ba6252c", "is_reserved": 0, "rental_uris": {"android": "https://dc.lft.to/lastmile_qr_scan", "ios": "https://dc.lft.to/lastmile_qr_scan"}, "fusion_lon": 0.0}, {"lat": 38.90974833333333, "is_disabled": 0, "type": "electric_scooter", "lon": -77.05266216666666, "bike_id": "df64bfcbecb3379b572b77caf14f8075", "fusion_lat": 0.0, "name": "df64bfcbecb3379b572b77caf14f8075", "is_reserved": 0, "rental_uris": {"android": "https://dc.lft.to/lastmile_qr_scan", "ios": "https://dc.lft.to/lastmile_qr_scan"}, "fusion_lon": 0.0}, {"lat": 38.929755166666666, "is_disabled": 0, "type": "electric_scooter", "lon": -77.03166183333333, "bike_id": "64bc8254cd612fadf34b91c296a4bd07", "fusion_lat": 0.0, "name": "64bc8254cd612fadf34b91c296a4bd07", "is_reserved": 0, "rental_uris": {"android": "https://dc.lft.to/lastmile_qr_scan", "ios": "https://dc.lft.to/lastmile_qr_scan"}, "fusion_lon": 0.0}, {"lat": 38.921401333333336, "is_disabled": 0, "type": "electric_scooter", "lon": -77.03663533333334, "bike_id": "26a25bc62d203e190cf40bdb225687b6", "fusion_lat": 0.0, "name": "26a25bc62d203e190cf40bdb225687b6", "is_reserved": 0, "rental_uris": {"android": "https://dc.lft.to/lastmile_qr_scan", "ios": "https://dc.lft.to/lastmile_qr_scan"}, "fusion_lon": 0.0}, {"lat": 38.896499666666664, "is_disabled": 0, "type": "electric_scooter", "lon": -77.0465065, "bike_id": "d15405f370ce2aff94fbcd22f00b533b", "fusion_lat": 0.0, "name": "d15405f370ce2aff94fbcd22f00b533b", "is_reserved": 0, "rental_uris": {"android": "https://dc.lft.to/lastmile_qr_scan", "ios": "https://dc.lft.to/lastmile_qr_scan"}, "fusion_lon": 0.0}, {"lat": 38.910146833333336, "is_disabled": 0, "type": "electric_scooter", "lon": -77.030144, "bike_id": "c47e5dc3df10ab2593a14e32176f70b8", "fusion_lat": 0.0, "name": "c47e5dc3df10ab2593a14e32176f70b8", "is_reserved": 0, "rental_uris": {"android": "https://dc.lft.to/lastmile_qr_scan", "ios": "https://dc.lft.to/lastmile_qr_scan"}, "fusion_lon": 0.0}, {"lat": 38.9284345, "is_disabled": 0, "type": "electric_scooter", "lon": -77.05430833333334, "bike_id": "4bee0c81159f1584ae2564c47822937b", "fusion_lat": 0.0, "name": "4bee0c81159f1584ae2564c47822937b", "is_reserved": 0, "rental_uris": {"android": "https://dc.lft.to/lastmile_qr_scan", "ios": "https://dc.lft.to/lastmile_qr_scan"}, "fusion_lon": 0.0}, {"lat": 38.905250333333335, "is_disabled": 0, "type": "electric_scooter", "lon": -77.03430166666666, "bike_id": "b42202cd9186140a39bdb6f2fcafa8c1", "fusion_lat": 0.0, "name": "b42202cd9186140a39bdb6f2fcafa8c1", "is_reserved": 0, "rental_uris": {"android": "https://dc.lft.to/lastmile_qr_scan", "ios": "https://dc.lft.to/lastmile_qr_scan"}, "fusion_lon": 0.0}, {"lat": 38.92254466666667, "is_disabled": 0, "type": "electric_scooter", "lon": -77.01936166666667, "bike_id": "574564c82e16cfbc6f78aac5f0139046", "fusion_lat": 0.0, "name": "574564c82e16cfbc6f78aac5f0139046", "is_reserved": 0, "rental_uris": {"android": "https://dc.lft.to/lastmile_qr_scan", "ios": "https://dc.lft.to/lastmile_qr_scan"}, "fusion_lon": 0.0}, {"lat": 38.872456, "is_disabled": 0, "type": "electric_scooter", "lon": -76.9772515, "bike_id": "9bf74b45653aa04ada0f1a5bcd7da787", "fusion_lat": 0.0, "name": "9bf74b45653aa04ada0f1a5bcd7da787", "is_reserved": 0, "rental_uris": {"android": "https://dc.lft.to/lastmile_qr_scan", "ios": "https://dc.lft.to/lastmile_qr_scan"}, "fusion_lon": 0.0}, {"lat": 38.9282965, "is_disabled": 0, "type": "electric_scooter", "lon": -77.05421533333333, "bike_id": "3ec6ef918508996bc05fc56defda6742", "fusion_lat": 0.0, "name": "3ec6ef918508996bc05fc56defda6742", "is_reserved": 0, "rental_uris": {"android": "https://dc.lft.to/lastmile_qr_scan", "ios": "https://dc.lft.to/lastmile_qr_scan"}, "fusion_lon": 0.0}, {"lat": 38.90959766666667, "is_disabled": 0, "type": "electric_scooter", "lon": -77.02678933333334, "bike_id": "6e57d018f85126ff1eb22c3a8116b6c7", "fusion_lat": 0.0, "name": "6e57d018f85126ff1eb22c3a8116b6c7", "is_reserved": 0, "rental_uris": {"android": "https://dc.lft.to/lastmile_qr_scan", "ios": "https://dc.lft.to/lastmile_qr_scan"}, "fusion_lon": 0.0}, {"lat": 38.88639083333333, "is_disabled": 0, "type": "electric_scooter", "lon": -76.95471166666667, "bike_id": "797e130c649c15fec561a9564799cb69", "fusion_lat": 0.0, "name": "797e130c649c15fec561a9564799cb69", "is_reserved": 0, "rental_uris": {"android": "https://dc.lft.to/lastmile_qr_scan", "ios": "https://dc.lft.to/lastmile_qr_scan"}, "fusion_lon": 0.0}, {"lat": 38.932334833333336, "is_disabled": 0, "type": "electric_scooter", "lon": -77.03393133333333, "bike_id": "a79f23624fe2f808067bbeef4aedc17a", "fusion_lat": 0.0, "name": "a79f23624fe2f808067bbeef4aedc17a", "is_reserved": 0, "rental_uris": {"android": "https://dc.lft.to/lastmile_qr_scan", "ios": "https://dc.lft.to/lastmile_qr_scan"}, "fusion_lon": 0.0}, {"lat": 38.94311416666667, "is_disabled": 0, "type": "electric_scooter", "lon": -77.06132166666667, "bike_id": "55a163bcf0b7a7f7fa06e2960edebfe0", "fusion_lat": 0.0, "name": "55a163bcf0b7a7f7fa06e2960edebfe0", "is_reserved": 0, "rental_uris": {"android": "https://dc.lft.to/lastmile_qr_scan", "ios": "https://dc.lft.to/lastmile_qr_scan"}, "fusion_lon": 0.0}, {"lat": 38.91580016666666, "is_disabled": 0, "type": "electric_scooter", "lon": -77.05023533333333, "bike_id": "1803d0cf70b2269bd50e222c1869dbff", "fusion_lat": 0.0, "name": "1803d0cf70b2269bd50e222c1869dbff", "is_reserved": 0, "rental_uris": {"android": "https://dc.lft.to/lastmile_qr_scan", "ios": "https://dc.lft.to/lastmile_qr_scan"}, "fusion_lon": 0.0}, {"lat": 38.90640233333333, "is_disabled": 0, "type": "electric_scooter", "lon": -77.014185, "bike_id": "5b2ff6b59be6c69d7ae8619f7959c196", "fusion_lat": 0.0, "name": "5b2ff6b59be6c69d7ae8619f7959c196", "is_reserved": 0, "rental_uris": {"android": "https://dc.lft.to/lastmile_qr_scan", "ios": "https://dc.lft.to/lastmile_qr_scan"}, "fusion_lon": 0.0}, {"lat": 38.90260583333333, "is_disabled": 0, "type": "electric_scooter", "lon": -77.034225, "bike_id": "03d5583e1b17ea3df00bcdeebbd79fd9", "fusion_lat": 0.0, "name": "03d5583e1b17ea3df00bcdeebbd79fd9", "is_reserved": 0, "rental_uris": {"android": "https://dc.lft.to/lastmile_qr_scan", "ios": "https://dc.lft.to/lastmile_qr_scan"}, "fusion_lon": 0.0}, {"lat": 38.90335916666667, "is_disabled": 0, "type": "electric_scooter", "lon": -76.9759435, "bike_id": "6ad6a9067f7016e20c053078b8d8ea57", "fusion_lat": 0.0, "name": "6ad6a9067f7016e20c053078b8d8ea57", "is_reserved": 0, "rental_uris": {"android": "https://dc.lft.to/lastmile_qr_scan", "ios": "https://dc.lft.to/lastmile_qr_scan"}, "fusion_lon": 0.0}, {"lat": 38.921068, "is_disabled": 0, "type": "electric_scooter", "lon": -77.04698233333333, "bike_id": "0de545ab4db582bf2306c067f6a5514b", "fusion_lat": 0.0, "name": "0de545ab4db582bf2306c067f6a5514b", "is_reserved": 0, "rental_uris": {"android": "https://dc.lft.to/lastmile_qr_scan", "ios": "https://dc.lft.to/lastmile_qr_scan"}, "fusion_lon": 0.0}, {"lat": 38.92831833333334, "is_disabled": 0, "type": "electric_scooter", "lon": -77.02258716666667, "bike_id": "ac880ab4ffd57e2dd22ed6bc7994fd31", "fusion_lat": 0.0, "name": "ac880ab4ffd57e2dd22ed6bc7994fd31", "is_reserved": 0, "rental_uris": {"android": "https://dc.lft.to/lastmile_qr_scan", "ios": "https://dc.lft.to/lastmile_qr_scan"}, "fusion_lon": 0.0}, {"lat": 38.9133595, "is_disabled": 0, "type": "electric_scooter", "lon": -77.048165, "bike_id": "16bdcd1f20a331ca9c91e91315ef8e32", "fusion_lat": 0.0, "name": "16bdcd1f20a331ca9c91e91315ef8e32", "is_reserved": 0, "rental_uris": {"android": "https://dc.lft.to/lastmile_qr_scan", "ios": "https://dc.lft.to/lastmile_qr_scan"}, "fusion_lon": 0.0}, {"lat": 38.908364166666665, "is_disabled": 0, "type": "electric_scooter", "lon": -76.99972866666667, "bike_id": "42e64a68b38b0265ab05bd644b405fc0", "fusion_lat": 0.0, "name": "42e64a68b38b0265ab05bd644b405fc0", "is_reserved": 0, "rental_uris": {"android": "https://dc.lft.to/lastmile_qr_scan", "ios": "https://dc.lft.to/lastmile_qr_scan"}, "fusion_lon": 0.0}, {"lat": 38.906658166666666, "is_disabled": 0, "type": "electric_scooter", "lon": -77.03860966666667, "bike_id": "c98ce6cd524167abe86fdecb510c622a", "fusion_lat": 0.0, "name": "c98ce6cd524167abe86fdecb510c622a", "is_reserved": 0, "rental_uris": {"android": "https://dc.lft.to/lastmile_qr_scan", "ios": "https://dc.lft.to/lastmile_qr_scan"}, "fusion_lon": 0.0}, {"lat": 38.902739333333336, "is_disabled": 0, "type": "electric_scooter", "lon": -77.04616383333334, "bike_id": "ed58a2670274c177c540d09b7b4dc762", "fusion_lat": 0.0, "name": "ed58a2670274c177c540d09b7b4dc762", "is_reserved": 0, "rental_uris": {"android": "https://dc.lft.to/lastmile_qr_scan", "ios": "https://dc.lft.to/lastmile_qr_scan"}, "fusion_lon": 0.0}, {"lat": 38.90966616666667, "is_disabled": 0, "type": "electric_scooter", "lon": -77.04526283333334, "bike_id": "59d1bb2ad19483e9d45b732baff63509", "fusion_lat": 0.0, "name": "59d1bb2ad19483e9d45b732baff63509", "is_reserved": 0, "rental_uris": {"android": "https://dc.lft.to/lastmile_qr_scan", "ios": "https://dc.lft.to/lastmile_qr_scan"}, "fusion_lon": 0.0}, {"lat": 38.996289166666664, "is_disabled": 0, "type": "electric_scooter", "lon": -77.0321165, "bike_id": "cb1a8fbf8e98305affe12e69ebe18ffd", "fusion_lat": 0.0, "name": "cb1a8fbf8e98305affe12e69ebe18ffd", "is_reserved": 0, "rental_uris": {"android": "https://dc.lft.to/lastmile_qr_scan", "ios": "https://dc.lft.to/lastmile_qr_scan"}, "fusion_lon": 0.0}, {"lat": 38.86404133333333, "is_disabled": 0, "type": "electric_bike", "lon": -76.97430666666666, "bike_id": "29e37fd3055b6b6609098ba8fbde72d1", "fusion_lat": 0.0, "name": "29e37fd3055b6b6609098ba8fbde72d1", "is_reserved": 0, "rental_uris": {"android": "https://dc.lft.to/lastmile_qr_scan", "ios": "https://dc.lft.to/lastmile_qr_scan"}, "fusion_lon": 0.0}, {"lat": 38.90729016666667, "is_disabled": 0, "type": "electric_scooter", "lon": -76.99818066666667, "bike_id": "b6da1dc4d37eb184d5dc95bdb6d19571", "fusion_lat": 0.0, "name": "b6da1dc4d37eb184d5dc95bdb6d19571", "is_reserved": 0, "rental_uris": {"android": "https://dc.lft.to/lastmile_qr_scan", "ios": "https://dc.lft.to/lastmile_qr_scan"}, "fusion_lon": 0.0}, {"lat": 38.933124, "is_disabled": 0, "type": "electric_scooter", "lon": -77.03448583333333, "bike_id": "f32862f560a04cfd55c02955c59c8d13", "fusion_lat": 0.0, "name": "f32862f560a04cfd55c02955c59c8d13", "is_reserved": 0, "rental_uris": {"android": "https://dc.lft.to/lastmile_qr_scan", "ios": "https://dc.lft.to/lastmile_qr_scan"}, "fusion_lon": 0.0}, {"lat": 38.894109, "is_disabled": 0, "type": "electric_scooter", "lon": -76.956621, "bike_id": "32ae0b20a9b54182a9ea81bbd71ffc68", "fusion_lat": 0.0, "name": "32ae0b20a9b54182a9ea81bbd71ffc68", "is_reserved": 0, "rental_uris": {"android": "https://dc.lft.to/lastmile_qr_scan", "ios": "https://dc.lft.to/lastmile_qr_scan"}, "fusion_lon": 0.0}, {"lat": 38.918225666666665, "is_disabled": 0, "type": "electric_scooter", "lon": -77.026128, "bike_id": "48d1b6255b3f7b42769c59b8d7bbbc35", "fusion_lat": 0.0, "name": "48d1b6255b3f7b42769c59b8d7bbbc35", "is_reserved": 0, "rental_uris": {"android": "https://dc.lft.to/lastmile_qr_scan", "ios": "https://dc.lft.to/lastmile_qr_scan"}, "fusion_lon": 0.0}, {"lat": 38.91416816666667, "is_disabled": 0, "type": "electric_scooter", "lon": -77.0223415, "bike_id": "6fcd294f4e515b5c69eb7e59a8b3e255", "fusion_lat": 0.0, "name": "6fcd294f4e515b5c69eb7e59a8b3e255", "is_reserved": 0, "rental_uris": {"android": "https://dc.lft.to/lastmile_qr_scan", "ios": "https://dc.lft.to/lastmile_qr_scan"}, "fusion_lon": 0.0}, {"lat": 38.93347583333333, "is_disabled": 0, "type": "electric_scooter", "lon": -77.023918, "bike_id": "1e32a3dee6d2614352916f8c0e0d367e", "fusion_lat": 0.0, "name": "1e32a3dee6d2614352916f8c0e0d367e", "is_reserved": 0, "rental_uris": {"android": "https://dc.lft.to/lastmile_qr_scan", "ios": "https://dc.lft.to/lastmile_qr_scan"}, "fusion_lon": 0.0}, {"lat": 38.916984166666666, "is_disabled": 0, "type": "electric_scooter", "lon": -77.0309915, "bike_id": "d1c2037361e360673f842758ac910eaa", "fusion_lat": 0.0, "name": "d1c2037361e360673f842758ac910eaa", "is_reserved": 0, "rental_uris": {"android": "https://dc.lft.to/lastmile_qr_scan", "ios": "https://dc.lft.to/lastmile_qr_scan"}, "fusion_lon": 0.0}, {"lat": 38.9095725, "is_disabled": 0, "type": "electric_scooter", "lon": -77.04064383333333, "bike_id": "f805ba12fb4bf5741746ac0754fb35b7", "fusion_lat": 0.0, "name": "f805ba12fb4bf5741746ac0754fb35b7", "is_reserved": 0, "rental_uris": {"android": "https://dc.lft.to/lastmile_qr_scan", "ios": "https://dc.lft.to/lastmile_qr_scan"}, "fusion_lon": 0.0}, {"lat": 38.91824183333333, "is_disabled": 0, "type": "electric_scooter", "lon": -77.04515333333333, "bike_id": "2c7b721435e42137352aa1f5a68effb0", "fusion_lat": 0.0, "name": "2c7b721435e42137352aa1f5a68effb0", "is_reserved": 0, "rental_uris": {"android": "https://dc.lft.to/lastmile_qr_scan", "ios": "https://dc.lft.to/lastmile_qr_scan"}, "fusion_lon": 0.0}, {"lat": 38.95405516666667, "is_disabled": 0, "type": "electric_scooter", "lon": -77.0274785, "bike_id": "365e0277092b0cb90687295bf219c0f5", "fusion_lat": 0.0, "name": "365e0277092b0cb90687295bf219c0f5", "is_reserved": 0, "rental_uris": {"android": "https://dc.lft.to/lastmile_qr_scan", "ios": "https://dc.lft.to/lastmile_qr_scan"}, "fusion_lon": 0.0}, {"lat": 38.90555066666667, "is_disabled": 0, "type": "electric_scooter", "lon": -77.056916, "bike_id": "3a9e4f6c2ecebfeca5f551c0cf5aaebe", "fusion_lat": 0.0, "name": "3a9e4f6c2ecebfeca5f551c0cf5aaebe", "is_reserved": 0, "rental_uris": {"android": "https://dc.lft.to/lastmile_qr_scan", "ios": "https://dc.lft.to/lastmile_qr_scan"}, "fusion_lon": 0.0}, {"lat": 38.80270433333333, "is_disabled": 0, "type": "electric_bike", "lon": -77.08110733333334, "bike_id": "647aeb5152bab4d6301bd672c320d55a", "fusion_lat": 0.0, "name": "647aeb5152bab4d6301bd672c320d55a", "is_reserved": 0, "rental_uris": {"android": "https://dc.lft.to/lastmile_qr_scan", "ios": "https://dc.lft.to/lastmile_qr_scan"}, "fusion_lon": 0.0}, {"lat": 38.922079333333336, "is_disabled": 0, "type": "electric_scooter", "lon": -77.0412415, "bike_id": "d72ea036b0890b6f7058776faa4c5f9b", "fusion_lat": 0.0, "name": "d72ea036b0890b6f7058776faa4c5f9b", "is_reserved": 0, "rental_uris": {"android": "https://dc.lft.to/lastmile_qr_scan", "ios": "https://dc.lft.to/lastmile_qr_scan"}, "fusion_lon": 0.0}, {"lat": 38.9549775, "is_disabled": 0, "type": "electric_scooter", "lon": -77.06568183333333, "bike_id": "d6d0f68b61d76e7f125421ede6a6f915", "fusion_lat": 0.0, "name": "d6d0f68b61d76e7f125421ede6a6f915", "is_reserved": 0, "rental_uris": {"android": "https://dc.lft.to/lastmile_qr_scan", "ios": "https://dc.lft.to/lastmile_qr_scan"}, "fusion_lon": 0.0}, {"lat": 38.866544833333336, "is_disabled": 0, "type": "electric_scooter", "lon": -76.98879, "bike_id": "8908785d9de38c5c9106da00e40b5cac", "fusion_lat": 0.0, "name": "8908785d9de38c5c9106da00e40b5cac", "is_reserved": 0, "rental_uris": {"android": "https://dc.lft.to/lastmile_qr_scan", "ios": "https://dc.lft.to/lastmile_qr_scan"}, "fusion_lon": 0.0}, {"lat": 38.920482166666666, "is_disabled": 0, "type": "electric_scooter", "lon": -77.0347355, "bike_id": "8b958f44a766dbff3b65770957302810", "fusion_lat": 0.0, "name": "8b958f44a766dbff3b65770957302810", "is_reserved": 0, "rental_uris": {"android": "https://dc.lft.to/lastmile_qr_scan", "ios": "https://dc.lft.to/lastmile_qr_scan"}, "fusion_lon": 0.0}, {"lat": 38.91769633333333, "is_disabled": 0, "type": "electric_scooter", "lon": -77.01501833333333, "bike_id": "5a8d887442798237f3651dd1bc4bae4b", "fusion_lat": 0.0, "name": "5a8d887442798237f3651dd1bc4bae4b", "is_reserved": 0, "rental_uris": {"android": "https://dc.lft.to/lastmile_qr_scan", "ios": "https://dc.lft.to/lastmile_qr_scan"}, "fusion_lon": 0.0}, {"lat": 38.89518533333333, "is_disabled": 0, "type": "electric_scooter", "lon": -76.977282, "bike_id": "71f90c6e780f7445c6d2f3763a099998", "fusion_lat": 0.0, "name": "71f90c6e780f7445c6d2f3763a099998", "is_reserved": 0, "rental_uris": {"android": "https://dc.lft.to/lastmile_qr_scan", "ios": "https://dc.lft.to/lastmile_qr_scan"}, "fusion_lon": 0.0}, {"lat": 38.900398833333334, "is_disabled": 0, "type": "electric_scooter", "lon": -77.02912016666667, "bike_id": "1590b9e7aa21afafccd60dd0799b8b7d", "fusion_lat": 0.0, "name": "1590b9e7aa21afafccd60dd0799b8b7d", "is_reserved": 0, "rental_uris": {"android": "https://dc.lft.to/lastmile_qr_scan", "ios": "https://dc.lft.to/lastmile_qr_scan"}, "fusion_lon": 0.0}, {"lat": 38.92046283333333, "is_disabled": 0, "type": "electric_scooter", "lon": -77.02361866666666, "bike_id": "2156adf62a5ea0d0d8819455144a9e35", "fusion_lat": 0.0, "name": "2156adf62a5ea0d0d8819455144a9e35", "is_reserved": 0, "rental_uris": {"android": "https://dc.lft.to/lastmile_qr_scan", "ios": "https://dc.lft.to/lastmile_qr_scan"}, "fusion_lon": 0.0}, {"lat": 38.89225116666667, "is_disabled": 0, "type": "electric_scooter", "lon": -77.04869116666667, "bike_id": "258ee33420a89c4d0d62a6d7acc93d98", "fusion_lat": 0.0, "name": "258ee33420a89c4d0d62a6d7acc93d98", "is_reserved": 0, "rental_uris": {"android": "https://dc.lft.to/lastmile_qr_scan", "ios": "https://dc.lft.to/lastmile_qr_scan"}, "fusion_lon": 0.0}, {"lat": 38.911964833333336, "is_disabled": 0, "type": "electric_scooter", "lon": -77.004427, "bike_id": "ea679c8febbe9e80d78f5dd8fa378bf8", "fusion_lat": 0.0, "name": "ea679c8febbe9e80d78f5dd8fa378bf8", "is_reserved": 0, "rental_uris": {"android": "https://dc.lft.to/lastmile_qr_scan", "ios": "https://dc.lft.to/lastmile_qr_scan"}, "fusion_lon": 0.0}, {"lat": 38.902808666666665, "is_disabled": 0, "type": "electric_scooter", "lon": -77.01743983333333, "bike_id": "f2daf40e45567dfa4e7bd46c8230ff0c", "fusion_lat": 0.0, "name": "f2daf40e45567dfa4e7bd46c8230ff0c", "is_reserved": 0, "rental_uris": {"android": "https://dc.lft.to/lastmile_qr_scan", "ios": "https://dc.lft.to/lastmile_qr_scan"}, "fusion_lon": 0.0}, {"lat": 38.89695783333333, "is_disabled": 0, "type": "electric_scooter", "lon": -77.02417083333333, "bike_id": "765880f89c771981f19234812eddb3a5", "fusion_lat": 0.0, "name": "765880f89c771981f19234812eddb3a5", "is_reserved": 0, "rental_uris": {"android": "https://dc.lft.to/lastmile_qr_scan", "ios": "https://dc.lft.to/lastmile_qr_scan"}, "fusion_lon": 0.0}, {"lat": 38.905371833333334, "is_disabled": 0, "type": "electric_scooter", "lon": -77.05935866666667, "bike_id": "bfc2192cc3be017e21e4c26ea02a4c99", "fusion_lat": 0.0, "name": "bfc2192cc3be017e21e4c26ea02a4c99", "is_reserved": 0, "rental_uris": {"android": "https://dc.lft.to/lastmile_qr_scan", "ios": "https://dc.lft.to/lastmile_qr_scan"}, "fusion_lon": 0.0}, {"lat": 38.90729233333333, "is_disabled": 0, "type": "electric_scooter", "lon": -77.023778, "bike_id": "aeef76762f8f4381da26280797032843", "fusion_lat": 0.0, "name": "aeef76762f8f4381da26280797032843", "is_reserved": 0, "rental_uris": {"android": "https://dc.lft.to/lastmile_qr_scan", "ios": "https://dc.lft.to/lastmile_qr_scan"}, "fusion_lon": 0.0}, {"lat": 38.88766833333333, "is_disabled": 0, "type": "electric_scooter", "lon": -76.9559905, "bike_id": "43947555fd7326dbed1c2de25b497176", "fusion_lat": 0.0, "name": "43947555fd7326dbed1c2de25b497176", "is_reserved": 0, "rental_uris": {"android": "https://dc.lft.to/lastmile_qr_scan", "ios": "https://dc.lft.to/lastmile_qr_scan"}, "fusion_lon": 0.0}, {"lat": 38.90495383333333, "is_disabled": 0, "type": "electric_scooter", "lon": -77.00134233333333, "bike_id": "c2699bb16fea197bf08b195cda764caa", "fusion_lat": 0.0, "name": "c2699bb16fea197bf08b195cda764caa", "is_reserved": 0, "rental_uris": {"android": "https://dc.lft.to/lastmile_qr_scan", "ios": "https://dc.lft.to/lastmile_qr_scan"}, "fusion_lon": 0.0}, {"lat": 38.9177045, "is_disabled": 0, "type": "electric_scooter", "lon": -77.01492183333333, "bike_id": "58404dba8d1babafbba7e5a1323ece33", "fusion_lat": 0.0, "name": "58404dba8d1babafbba7e5a1323ece33", "is_reserved": 0, "rental_uris": {"android": "https://dc.lft.to/lastmile_qr_scan", "ios": "https://dc.lft.to/lastmile_qr_scan"}, "fusion_lon": 0.0},