{"data": {"bikes": [{"fusion_lat": 0.0, "bike_id": "30b4670d12c4354c4d90ec8a3f23d497", "fusion_lon": 0.0, "lon": -77.033359, "lat": 38.92161216666667, "is_reserved": 0, "is_disabled": 0, "rental_uris": {"android": "https://dc.lft.to/lastmile_qr_scan", "ios": "https://dc.lft.to/lastmile_qr_scan"}, "name": "30b4670d12c4354c4d90ec8a3f23d497", "type": "electric_scooter"}, {"fusion_lat": 0.0, "bike_id": "2857a08222f70aaf7f69468b4faa7945", "fusion_lon": 0.0, "lon": -77.0401785, "lat": 38.899106833333335, "is_reserved": 0, "is_disabled": 0, "rental_uris": {"android": "https://dc.lft.to/lastmile_qr_scan", "ios": "https://dc.lft.to/lastmile_qr_scan"}, "name": "2857a08222f70aaf7f69468b4faa7945", "type": "electric_scooter"}, {"fusion_lat": 0.0, "bike_id": "647bb54e1d7eaf48edca114df1822587", "fusion_lon": 0.0, "lon": -77.043503, "lat": 38.905157, "is_reserved": 0, "is_disabled": 0, "rental_uris": {"android": "https://dc.lft.to/lastmile_qr_scan", "ios": "https://dc.lft.to/lastmile_qr_scan"}, "name": "647bb54e1d7eaf48edca114df1822587", "type": "electric_scooter"}, {"fusion_lat": 0.0, "bike_id": "4b7a353f56e2fffdf08bd0a182b89880", "fusion_lon": 0.0, "lon": -76.9819965, "lat": 38.89949083333333, "is_reserved": 0, "is_disabled": 0, "rental_uris": {"android": "https://dc.lft.to/lastmile_qr_scan", "ios": "https://dc.lft.to/lastmile_qr_scan"}, "name": "4b7a353f56e2fffdf08bd0a182b89880", "type": "electric_scooter"}, {"fusion_lat": 0.0, "bike_id": "33ff622dd84dec52cf47caf8060b03e2", "fusion_lon": 0.0, "lon": -77.02828433333333, "lat": 38.9314215, "is_reserved": 0, "is_disabled": 0, "rental_uris": {"android": "https://dc.lft.to/lastmile_qr_scan", "ios": "https://dc.lft.to/lastmile_qr_scan"}, "name": "33ff622dd84dec52cf47caf8060b03e2", "type": "electric_scooter"}, {"fusion_lat": 0.0, "bike_id": "66c9155fd036e97d39453ffca453e8e6", "fusion_lon": 0.0, "lon": -77.0195675, "lat": 38.921821666666666, "is_reserved": 0, "is_disabled": 0, "rental_uris": {"android": "https://dc.lft.to/lastmile_qr_scan", "ios": "https://dc.lft.to/lastmile_qr_scan"}, "name": "66c9155fd036e97d39453ffca453e8e6", "type": "electric_scooter"}, {"fusion_lat": 0.0, "bike_id": "185116defcfac19155aea0b06ae911e8", "fusion_lon": 0.0, "lon": -77.085776, "lat": 38.8443065, "is_reserved": 0, "is_disabled": 0, "rental_uris": {"android": "https://dc.lft.to/lastmile_qr_scan", "ios": "https://dc.lft.to/lastmile_qr_scan"}, "name": "185116defcfac19155aea0b06ae911e8", "type": "electric_bike"}, {"fusion_lat": 0.0, "bike_id": "6e651ebf94a1fa85cacf367e65ebcd7b", "fusion_lon": 0.0, "lon": -77.00458533333334, "lat": 38.914404166666664, "is_reserved": 0, "is_disabled": 0, "rental_uris": {"android": "https://dc.lft.to/lastmile_qr_scan", "ios": "https://dc.lft.to/lastmile_qr_scan"}, "name": "6e651ebf94a1fa85cacf367e65ebcd7b", "type": "electric_scooter"}, {"fusion_lat": 0.0, "bike_id": "bcb82be000d90b52b64ee8f00e806b47", "fusion_lon": 0.0, "lon": -77.03271383333333, "lat": 38.928441666666664, "is_reserved": 0, "is_disabled": 0, "rental_uris": {"android": "https://dc.lft.to/lastmile_qr_scan", "ios": "https://dc.lft.to/lastmile_qr_scan"}, "name": "bcb82be000d90b52b64ee8f00e806b47", "type": "electric_scooter"}, {"fusion_lat": 0.0, "bike_id": "4c5f1aa9f224495aef19e270f324b79c", "fusion_lon": 0.0, "lon": -76.949858, "lat": 38.893707166666665, "is_reserved": 0, "is_disabled": 0, "rental_uris": {"android": "https://dc.lft.to/lastmile_qr_scan", "ios": "https://dc.lft.to/lastmile_qr_scan"}, "name": "4c5f1aa9f224495aef19e270f324b79c", "type": "electric_scooter"}, {"fusion_lat": 0.0, "bike_id": "d9a0ec5896657a795748df018d699331", "fusion_lon": 0.0, "lon": -77.04666616666667, "lat": 38.9050205, "is_reserved": 0, "is_disabled": 0, "rental_uris": {"android": "https://dc.lft.to/lastmile_qr_scan", "ios": "https://dc.lft.to/lastmile_qr_scan"}, "name": "d9a0ec5896657a795748df018d699331", "type": "electric_scooter"}, {"fusion_lat": 0.0, "bike_id": "e9652bd7fdef5543cdecc327c6ddb21d", "fusion_lon": 0.0, "lon": -77.06891616666667, "lat": 38.9051185, "is_reserved": 0, "is_disabled": 0, "rental_uris": {"android": "https://dc.lft.to/lastmile_qr_scan", "ios": "https://dc.lft.to/lastmile_qr_scan"}, "name": "e9652bd7fdef5543cdecc327c6ddb21d", "type": "electric_scooter"}, {"fusion_lat": 0.0, "bike_id": "637ce4dd40e5e101bd2e36c7057c1667", "fusion_lon": 0.0, "lon": -77.03752383333334, "lat": 38.91255233333333, "is_reserved": 0, "is_disabled": 0, "rental_uris": {"android": "https://dc.lft.to/lastmile_qr_scan", "ios": "https://dc.lft.to/lastmile_qr_scan"}, "name": "637ce4dd40e5e101bd2e36c7057c1667", "type": "electric_scooter"}, {"fusion_lat": 0.0, "bike_id": "1c3aad0e5b6872cf90dc80e70cef4e95", "fusion_lon": 0.0, "lon": -77.00042133333334, "lat": 38.90689583333333, "is_reserved": 0, "is_disabled": 0, "rental_uris": {"android": "https://dc.lft.to/lastmile_qr_scan", "ios": "https://dc.lft.to/lastmile_qr_scan"}, "name": "1c3aad0e5b6872cf90dc80e70cef4e95", "type": "electric_scooter"}, {"fusion_lat": 0.0, "bike_id": "febeb18a94e5f40b782d3c73f837f9e6", "fusion_lon": 0.0, "lon": -77.02515066666666, "lat": 38.8922815, "is_reserved": 0, "is_disabled": 0, "rental_uris": {"android": "https://dc.lft.to/lastmile_qr_scan", "ios": "https://dc.lft.to/lastmile_qr_scan"}, "name": "febeb18a94e5f40b782d3c73f837f9e6", "type": "electric_scooter"}, {"fusion_lat": 0.0, "bike_id": "0fb3fb0780433ea0084bf8f24a591160", "fusion_lon": 0.0, "lon": -76.9984105, "lat": 38.89619416666667, "is_reserved": 0, "is_disabled": 0, "rental_uris": {"android": "https://dc.lft.to/lastmile_qr_scan", "ios": "https://dc.lft.to/lastmile_qr_scan"}, "name": "0fb3fb0780433ea0084bf8f24a591160", "type": "electric_scooter"}, {"fusion_lat": 0.0, "bike_id": "5a610bc13c0da8831005d81229fa250c", "fusion_lon": 0.0, "lon": -77.00309683333333, "lat": 38.9235375, "is_reserved": 0, "is_disabled": 0, "rental_uris": {"android": "https://dc.lft.to/lastmile_qr_scan", "ios": "https://dc.lft.to/lastmile_qr_scan"}, "name": "5a610bc13c0da8831005d81229fa250c", "type": "electric_scooter"}, {"fusion_lat": 0.0, "bike_id": "4102238cfcef7643415e9e29b6408ea7", "fusion_lon": 0.0, "lon": -77.03289433333333, "lat": 38.91709616666667, "is_reserved": 0, "is_disabled": 0, "rental_uris": {"android": "https://dc.lft.to/lastmile_qr_scan", "ios": "https://dc.lft.to/lastmile_qr_scan"}, "name": "4102238cfcef7643415e9e29b6408ea7", "type": "electric_scooter"}, {"fusion_lat": 0.0, "bike_id": "f2a3ba2379dc360428612d4ba370316f", "fusion_lon": 0.0, "lon": -76.946346, "lat": 38.898318833333335, "is_reserved": 0, "is_disabled": 0, "rental_uris": {"android": "https://dc.lft.to/lastmile_qr_scan", "ios": "https://dc.lft.to/lastmile_qr_scan"}, "name": "f2a3ba2379dc360428612d4ba370316f", "type": "electric_scooter"}, {"fusion_lat": 0.0, "bike_id": "b723bc8ba5e1fbf5d3268b05f70281d7", "fusion_lon": 0.0, "lon": -77.02801016666666, "lat": 38.91438633333333, "is_reserved": 0, "is_disabled": 0, "rental_uris": {"android": "https://dc.lft.to/lastmile_qr_scan", "ios": "https://dc.lft.to/lastmile_qr_scan"}, "name": "b723bc8ba5e1fbf5d3268b05f70281d7", "type": "electric_scooter"}, {"fusion_lat": 0.0, "bike_id": "ad1536ee5841e6826f2432e41676bc1a", "fusion_lon": 0.0, "lon": -77.024309, "lat": 38.892292, "is_reserved": 0, "is_disabled": 0, "rental_uris": {"android": "https://dc.lft.to/lastmile_qr_scan", "ios": "https://dc.lft.to/lastmile_qr_scan"}, "name": "ad1536ee5841e6826f2432e41676bc1a", "type": "electric_scooter"}, {"fusion_lat": 0.0, "bike_id": "8f7d774b53aab628b2d0b83762c4e1d5", "fusion_lon": 0.0, "lon": -77.01663083333334, "lat": 38.88120283333333, "is_reserved": 0, "is_disabled": 0, "rental_uris": {"android": "https://dc.lft.to/lastmile_qr_scan", "ios": "https://dc.lft.to/lastmile_qr_scan"}, "name": "8f7d774b53aab628b2d0b83762c4e1d5", "type": "electric_scooter"}, {"fusion_lat": 0.0, "bike_id": "4a1feef27e846311409ff402becaacba", "fusion_lon": 0.0, "lon": -77.04124866666666, "lat": 38.927251166666665, "is_reserved": 0, "is_disabled": 0, "rental_uris": {"android": "https://dc.lft.to/lastmile_qr_scan", "ios": "https://dc.lft.to/lastmile_qr_scan"}, "name": "4a1feef27e846311409ff402becaacba", "type": "electric_scooter"}, {"fusion_lat": 0.0, "bike_id": "349a0d779fc889658c577fd492081425", "fusion_lon": 0.0, "lon": -76.9774705, "lat": 38.8649185, "is_reserved": 0, "is_disabled": 0, "rental_uris": {"android": "https://dc.lft.to/lastmile_qr_scan", "ios": "https://dc.lft.to/lastmile_qr_scan"}, "name": "349a0d779fc889658c577fd492081425", "type": "electric_bike"}, {"fusion_lat": 0.0, "bike_id": "6ba52e9c84bbd5c5b6b7d1150f1e5548", "fusion_lon": 0.0, "lon": -77.01952083333333, "lat": 38.923723333333335, "is_reserved": 0, "is_disabled": 0, "rental_uris": {"android": "https://dc.lft.to/lastmile_qr_scan", "ios": "https://dc.lft.to/lastmile_qr_scan"}, "name": "6ba52e9c84bbd5c5b6b7d1150f1e5548", "type": "electric_scooter"}, {"fusion_lat": 0.0, "bike_id": "43562f965ba3628e5762a78cfe94d719", "fusion_lon": 0.0, "lon": -77.02924583333333, "lat": 38.89921316666667, "is_reserved": 0, "is_disabled": 0, "rental_uris": {"android": "https://dc.lft.to/lastmile_qr_scan", "ios": "https://dc.lft.to/lastmile_qr_scan"}, "name": "43562f965ba3628e5762a78cfe94d719", "type": "electric_scooter"}, {"fusion_lat": 0.0, "bike_id": "f4198e520903026faa83bf62481d4836", "fusion_lon": 0.0, "lon": -76.99931283333333, "lat": 38.843164, "is_reserved": 0, "is_disabled": 0, "rental_uris": {"android": "https://dc.lft.to/lastmile_qr_scan", "ios": "https://dc.lft.to/lastmile_qr_scan"}, "name": "f4198e520903026faa83bf62481d4836", "type": "electric_scooter"}, {"fusion_lat": 0.0, "bike_id": "757fff0c4709718466475bfd4cba4ff8", "fusion_lon": 0.0, "lon": -77.03539983333333, "lat": 38.92581066666666, "is_reserved": 0, "is_disabled": 0, "rental_uris": {"android": "https://dc.lft.to/lastmile_qr_scan", "ios": "https://dc.lft.to/lastmile_qr_scan"}, "name": "757fff0c4709718466475bfd4cba4ff8", "type": "electric_scooter"}, {"fusion_lat": 0.0, "bike_id": "cc3a0eead0a6f3b8bc43c698f4014ff2", "fusion_lon": 0.0, "lon": -77.057045, "lat": 38.92605783333333, "is_reserved": 0, "is_disabled": 0, "rental_uris": {"android": "https://dc.lft.to/lastmile_qr_scan", "ios": "https://dc.lft.to/lastmile_qr_scan"}, "name": "cc3a0eead0a6f3b8bc43c698f4014ff2", "type": "electric_bike"}, {"fusion_lat": 0.0, "bike_id": "8c6560ab85d5751930d51784d10bd540", "fusion_lon": 0.0, "lon": -77.02055366666667, "lat": 38.90967333333333, "is_reserved": 0, "is_disabled": 0, "rental_uris": {"android": "https://dc.lft.to/lastmile_qr_scan", "ios": "https://dc.lft.to/lastmile_qr_scan"}, "name": "8c6560ab85d5751930d51784d10bd540", "type": "electric_scooter"}, {"fusion_lat": 0.0, "bike_id": "372fdb7531e3bf6c1d900deb305d155f", "fusion_lon": 0.0, "lon": -77.0346905, "lat": 38.902620666666664, "is_reserved": 0, "is_disabled": 0, "rental_uris": {"android": "https://dc.lft.to/lastmile_qr_scan", "ios": "https://dc.lft.to/lastmile_qr_scan"}, "name": "372fdb7531e3bf6c1d900deb305d155f", "type": "electric_scooter"}, {"fusion_lat": 0.0, "bike_id": "fc4007a63043c83cab78b91f8aac71d7", "fusion_lon": 0.0, "lon": -77.0317555, "lat": 38.9209675, "is_reserved": 0, "is_disabled": 0, "rental_uris": {"android": "https://dc.lft.to/lastmile_qr_scan", "ios": "https://dc.lft.to/lastmile_qr_scan"}, "name": "fc4007a63043c83cab78b91f8aac71d7", "type": "electric_scooter"}, {"fusion_lat": 0.0, "bike_id": "1fda904ee9e7d6b6f05b5c329b6d676e", "fusion_lon": 0.0, "lon": -77.02397616666667, "lat": 38.9167705, "is_reserved": 0, "is_disabled": 0, "rental_uris": {"android": "https://dc.lft.to/lastmile_qr_scan", "ios": "https://dc.lft.to/lastmile_qr_scan"}, "name": "1fda904ee9e7d6b6f05b5c329b6d676e", "type": "electric_scooter"}, {"fusion_lat": 0.0, "bike_id": "2056f800e8b18bfb42a275e106ef628e", "fusion_lon": 0.0, "lon": -77.03443466666667, "lat": 38.9098225, "is_reserved": 0, "is_disabled": 0, "rental_uris": {"android": "https://dc.lft.to/lastmile_qr_scan", "ios": "https://dc.lft.to/lastmile_qr_scan"}, "name": "2056f800e8b18bfb42a275e106ef628e", "type": "electric_scooter"}, {"fusion_lat": 0.0, "bike_id": "75a3283f87205d7d03b08006c4b4a458", "fusion_lon": 0.0, "lon": -77.026382, "lat": 38.91704283333333, "is_reserved": 0, "is_disabled": 0, "rental_uris": {"android": "https://dc.lft.to/lastmile_qr_scan", "ios": "https://dc.lft.to/lastmile_qr_scan"}, "name": "75a3283f87205d7d03b08006c4b4a458", "type": "electric_scooter"}, {"fusion_lat": 0.0, "bike_id": "f371234b7a2723e8efbb48af19ee2a2b", "fusion_lon": 0.0, "lon": -77.005032, "lat": 38.912648833333336, "is_reserved": 0, "is_disabled": 0, "rental_uris": {"android": "https://dc.lft.to/lastmile_qr_scan", "ios": "https://dc.lft.to/lastmile_qr_scan"}, "name": "f371234b7a2723e8efbb48af19ee2a2b", "type": "electric_scooter"}, {"fusion_lat": 0.0, "bike_id": "c0051eb1fc004704ae810231d9377f30", "fusion_lon": 0.0, "lon": -77.02476916666667, "lat": 38.93097083333333, "is_reserved": 0, "is_disabled": 0, "rental_uris": {"android": "https://dc.lft.to/lastmile_qr_scan", "ios": "https://dc.lft.to/lastmile_qr_scan"}, "name": "c0051eb1fc004704ae810231d9377f30", "type": "electric_scooter"}, {"fusion_lat": 0.0, "bike_id": "3c9d0dc15704912e0813c2c7e5b65b20", "fusion_lon": 0.0, "lon": -77.034044, "lat": 38.92320216666667, "is_reserved": 0, "is_disabled": 0, "rental_uris": {"android": "https://dc.lft.to/lastmile_qr_scan", "ios": "https://dc.lft.to/lastmile_qr_scan"}, "name": "3c9d0dc15704912e0813c2c7e5b65b20", "type": "electric_scooter"}, {"fusion_lat": 0.0, "bike_id": "9afc7e7b5bea2cab9c0e5dac1ad655b1", "fusion_lon": 0.0, "lon": -77.02219283333334, "lat": 38.892219, "is_reserved": 0, "is_disabled": 0, "rental_uris": {"android": "https://dc.lft.to/lastmile_qr_scan", "ios": "https://dc.lft.to/lastmile_qr_scan"}, "name": "9afc7e7b5bea2cab9c0e5dac1ad655b1", "type": "electric_scooter"}, {"fusion_lat": 0.0, "bike_id": "c69d6b04734941e6f202bb52c8522941", "fusion_lon": 0.0, "lon": -77.0306105, "lat": 38.88047533333334, "is_reserved": 0, "is_disabled": 0, "rental_uris": {"android": "https://dc.lft.to/lastmile_qr_scan", "ios": "https://dc.lft.to/lastmile_qr_scan"}, "name": "c69d6b04734941e6f202bb52c8522941", "type": "electric_scooter"}, {"fusion_lat": 0.0, "bike_id": "c650ac011291862f3234364ab62c1b4f", "fusion_lon": 0.0, "lon": -77.05860033333333, "lat": 38.936046833333336, "is_reserved": 0, "is_disabled": 0, "rental_uris": {"android": "https://dc.lft.to/lastmile_qr_scan", "ios": "https://dc.lft.to/lastmile_qr_scan"}, "name": "c650ac011291862f3234364ab62c1b4f", "type": "electric_scooter"}, {"fusion_lat": 0.0, "bike_id": "f09d3248d9bec9f03638674806f0fc70", "fusion_lon": 0.0, "lon": -77.0423775, "lat": 38.91258066666666, "is_reserved": 0, "is_disabled": 0, "rental_uris": {"android": "https://dc.lft.to/lastmile_qr_scan", "ios": "https://dc.lft.to/lastmile_qr_scan"}, "name": "f09d3248d9bec9f03638674806f0fc70", "type": "electric_scooter"}, {"fusion_lat": 0.0, "bike_id": "6f8f573c602ea82a2a87a43327ceb860", "fusion_lon": 0.0, "lon": -77.04489416666667, "lat": 38.900472, "is_reserved": 0, "is_disabled": 0, "rental_uris": {"android": "https://dc.lft.to/lastmile_qr_scan", "ios": "https://dc.lft.to/lastmile_qr_scan"}, "name": "6f8f573c602ea82a2a87a43327ceb860", "type": "electric_scooter"}, {"fusion_lat": 0.0, "bike_id": "f8f46e01a79032c013a8fdaedde9f763", "fusion_lon": 0.0, "lon": -77.03712866666666, "lat": 38.91480983333334, "is_reserved": 0, "is_disabled": 0, "rental_uris": {"android": "https://dc.lft.to/lastmile_qr_scan", "ios": "https://dc.lft.to/lastmile_qr_scan"}, "name": "f8f46e01a79032c013a8fdaedde9f763", "type": "electric_scooter"}, {"fusion_lat": 0.0, "bike_id": "d088a0d7d392c3aa7e9b971b7af28911", "fusion_lon": 0.0, "lon": -77.04939716666667, "lat": 38.90091, "is_reserved": 0, "is_disabled": 0, "rental_uris": {"android": "https://dc.lft.to/lastmile_qr_scan", "ios": "https://dc.lft.to/lastmile_qr_scan"}, "name": "d088a0d7d392c3aa7e9b971b7af28911", "type": "electric_scooter"}, {"fusion_lat": 0.0, "bike_id": "d0a397a4d8a9a820a34c8fab1fdb0e4b", "fusion_lon": 0.0, "lon": -77.0279, "lat": 38.8955145, "is_reserved": 0, "is_disabled": 0, "rental_uris": {"android": "https://dc.lft.to/lastmile_qr_scan", "ios": "https://dc.lft.to/lastmile_qr_scan"}, "name": "d0a397a4d8a9a820a34c8fab1fdb0e4b", "type": "electric_scooter"}, {"fusion_lat": 0.0, "bike_id": "14dc8e52d5f750847ffbcf4b46df3898", "fusion_lon": 0.0, "lon": -77.03264316666667, "lat": 38.932617666666665, "is_reserved": 0, "is_disabled": 0, "rental_uris": {"android": "https://dc.lft.to/lastmile_qr_scan", "ios": "https://dc.lft.to/lastmile_qr_scan"}, "name": "14dc8e52d5f750847ffbcf4b46df3898", "type": "electric_scooter"}, {"fusion_lat": 0.0, "bike_id": "038919d8ebc8e5c0dbdc7f59314d4178", "fusion_lon": 0.0, "lon": -77.0217585, "lat": 38.89476766666667, "is_reserved": 0, "is_disabled": 0, "rental_uris": {"android": "https://dc.lft.to/lastmile_qr_scan", "ios": "https://dc.lft.to/lastmile_qr_scan"}, "name": "038919d8ebc8e5c0dbdc7f59314d4178", "type": "electric_scooter"}, {"fusion_lat": 0.0, "bike_id": "f94fd7a98493ace16ca28738ed8feea4", "fusion_lon": 0.0, "lon": -76.99129983333333, "lat": 38.901406333333334, "is_reserved": 0, "is_disabled": 0, "rental_uris": {"android": "https://dc.lft.to/lastmile_qr_scan", "ios": "https://dc.lft.to/lastmile_qr_scan"}, "name": "f94fd7a98493ace16ca28738ed8feea4", "type": "electric_scooter"}, {"fusion_lat": 0.0, "bike_id": "42a0bea580160e1980d6f2190cb5c78e", "fusion_lon": 0.0, "lon": -77.00597783333333, "lat": 38.872967333333335, "is_reserved": 0, "is_disabled": 0, "rental_uris": {"android": "https://dc.lft.to/lastmile_qr_scan", "ios": "https://dc.lft.to/lastmile_qr_scan"}, "name": "42a0bea580160e1980d6f2190cb5c78e", "type": "electric_scooter"}, {"fusion_lat": 0.0, "bike_id": "7f231692a91e28f3d589b61221e40bae", "fusion_lon": 0.0, "lon": -77.03187583333333, "lat": 38.91300233333333, "is_reserved": 0, "is_disabled": 0, "rental_uris": {"android": "https://dc.lft.to/lastmile_qr_scan", "ios": "https://dc.lft.to/lastmile_qr_scan"}, "name": "7f231692a91e28f3d589b61221e40bae", "type": "electric_scooter"}, {"fusion_lat": 0.0, "bike_id": "2397f75d2acb3c310fe0f51451af0c9f", "fusion_lon": 0.0, "lon": -77.01951033333333, "lat": 38.92252466666667, "is_reserved": 0, "is_disabled": 0, "rental_uris": {"android": "https://dc.lft.to/lastmile_qr_scan", "ios": "https://dc.lft.to/lastmile_qr_scan"}, "name": "2397f75d2acb3c310fe0f51451af0c9f", "type": "electric_scooter"}, {"fusion_lat": 0.0, "bike_id": "e5b267cb2ebd76402c99c215d24ff53b", "fusion_lon": 0.0, "lon": -77.00305516666667, "lat": 38.892259333333335, "is_reserved": 0, "is_disabled": 0, "rental_uris": {"android": "https://dc.lft.to/lastmile_qr_scan", "ios": "https://dc.lft.to/lastmile_qr_scan"}, "name": "e5b267cb2ebd76402c99c215d24ff53b", "type": "electric_scooter"}, {"fusion_lat": 0.0, "bike_id": "f776011f311acc383613c1a0afa1a99a", "fusion_lon": 0.0, "lon": -77.03171283333333, "lat": 38.89966166666667, "is_reserved": 0, "is_disabled": 0, "rental_uris": {"android": "https://dc.lft.to/lastmile_qr_scan", "ios": "https://dc.lft.to/lastmile_qr_scan"}, "name": "f776011f311acc383613c1a0afa1a99a", "type": "electric_scooter"}, {"fusion_lat": 0.0, "bike_id": "d4398d48fee36df8065d741a218dd86d", "fusion_lon": 0.0, "lon": -77.03869716666667, "lat": 38.906440833333335, "is_reserved": 0, "is_disabled": 0, "rental_uris": {"android": "https://dc.lft.to/lastmile_qr_scan", "ios": "https://dc.lft.to/lastmile_qr_scan"}, "name": "d4398d48fee36df8065d741a218dd86d", "type": "electric_scooter"}, {"fusion_lat": 0.0, "bike_id": "19b24bf10d1e3feac5da9768cc2dbe17", "fusion_lon": 0.0, "lon": -77.07165933333333, "lat": 38.90777466666667, "is_reserved": 0, "is_disabled": 0, "rental_uris": {"android": "https://dc.lft.to/lastmile_qr_scan", "ios": "https://dc.lft.to/lastmile_qr_scan"}, "name": "19b24bf10d1e3feac5da9768cc2dbe17", "type": "electric_scooter"}, {"fusion_lat": 0.0, "bike_id": "85f4c49ab95dda376d3d5b5f16ccd6b3", "fusion_lon": 0.0, "lon": -77.0162335, "lat": 38.929041833333336, "is_reserved": 0, "is_disabled": 0, "rental_uris": {"android": "https://dc.lft.to/lastmile_qr_scan", "ios": "https://dc.lft.to/lastmile_qr_scan"}, "name": "85f4c49ab95dda376d3d5b5f16ccd6b3", "type": "electric_scooter"}, {"fusion_lat": 0.0, "bike_id": "db4fc34dd9fcbfc9d4323e979ebc9ff1", "fusion_lon": 0.0, "lon": -77.02300616666666, "lat": 38.90155883333333, "is_reserved": 0, "is_disabled": 0, "rental_uris": {"android": "https://dc.lft.to/lastmile_qr_scan", "ios": "https://dc.lft.to/lastmile_qr_scan"}, "name": "db4fc34dd9fcbfc9d4323e979ebc9ff1", "type": "electric_scooter"}, {"fusion_lat": 0.0, "bike_id": "7647e17b9ceda9ff98b4a0c100247572", "fusion_lon": 0.0, "lon": -77.03194283333333, "lat": 38.90939433333333, "is_reserved": 0, "is_disabled": 0, "rental_uris": {"android": "https://dc.lft.to/lastmile_qr_scan", "ios": "https://dc.lft.to/lastmile_qr_scan"}, "name": "7647e17b9ceda9ff98b4a0c100247572", "type": "electric_scooter"}, {"fusion_lat": 0.0, "bike_id": "dd2e0f0a1a457d1bfa34701e5c6f7cb2", "fusion_lon": 0.0, "lon": -77.046739, "lat": 38.895579, "is_reserved": 0, "is_disabled": 0, "rental_uris": {"android": "https://dc.lft.to/lastmile_qr_scan", "ios": "https://dc.lft.to/lastmile_qr_scan"}, "name": "dd2e0f0a1a457d1bfa34701e5c6f7cb2", "type": "electric_scooter"}, {"fusion_lat": 0.0, "bike_id": "7549ff59d2c137afac0fc06d91cc28b1", "fusion_lon": 0.0, "lon": -77.03826216666667, "lat": 38.90411, "is_reserved": 0, "is_disabled": 0, "rental_uris": {"android": "https://dc.lft.to/lastmile_qr_scan", "ios": "https://dc.lft.to/lastmile_qr_scan"}, "name": "7549ff59d2c137afac0fc06d91cc28b1", "type": "electric_scooter"}, {"fusion_lat": 0.0, "bike_id": "87a077ab8138e654339ab702c0dc28a9", "fusion_lon": 0.0, "lon": -77.09492866666666, "lat": 38.80765733333333, "is_reserved": 0, "is_disabled": 0, "rental_uris": {"android": "https://dc.lft.to/lastmile_qr_scan", "ios": "https://dc.lft.to/lastmile_qr_scan"}, "name": "87a077ab8138e654339ab702c0dc28a9", "type": "electric_bike"}, {"fusion_lat": 0.0, "bike_id": "b266b0c42fed24b53244a12174236360", "fusion_lon": 0.0, "lon": -77.05176166666666, "lat": 38.9238435, "is_reserved": 0, "is_disabled": 0, "rental_uris": {"android": "https://dc.lft.to/lastmile_qr_scan", "ios": "https://dc.lft.to/lastmile_qr_scan"}, "name": "b266b0c42fed24b53244a12174236360", "type": "electric_scooter"}, {"fusion_lat": 0.0, "bike_id": "a02058b8777294d056d45ba00a1e2452", "fusion_lon": 0.0, "lon": -77.01407333333333, "lat": 38.9282785, "is_reserved": 0, "is_disabled": 0, "rental_uris": {"android": "https://dc.lft.to/lastmile_qr_scan", "ios": "https://dc.lft.to/lastmile_qr_scan"}, "name": "a02058b8777294d056d45ba00a1e2452", "type": "electric_scooter"}, {"fusion_lat": 0.0, "bike_id": "eb20024488f91e558a8a5e625d89e2ad", "fusion_lon": 0.0, "lon": -77.02639883333333, "lat": 38.91706833333333, "is_reserved": 0, "is_disabled": 0, "rental_uris": {"android": "https://dc.lft.to/lastmile_qr_scan", "ios": "https://dc.lft.to/lastmile_qr_scan"}, "name": "eb20024488f91e558a8a5e625d89e2ad", "type": "electric_scooter"}, {"fusion_lat": 0.0, "bike_id": "ad63505491047cc2af3c6ed1ac6e713f", "fusion_lon": 0.0, "lon": -77.01733933333334, "lat": 38.900769833333335, "is_reserved": 0, "is_disabled": 0, "rental_uris": {"android": "https://dc.lft.to/lastmile_qr_scan", "ios": "https://dc.lft.to/lastmile_qr_scan"}, "name": "ad63505491047cc2af3c6ed1ac6e713f", "type": "electric_scooter"}, {"fusion_lat": 0.0, "bike_id": "d639aa639b6323dde672a46ad60e8610", "fusion_lon": 0.0, "lon": -77.05887483333333, "lat": 38.93608, "is_reserved": 0, "is_disabled": 0, "rental_uris": {"android": "https://dc.lft.to/lastmile_qr_scan", "ios": "https://dc.lft.to/lastmile_qr_scan"}, "name": "d639aa639b6323dde672a46ad60e8610", "type": "electric_scooter"}, {"fusion_lat": 0.0, "bike_id": "c9839ddd8c420427ddb484fa773c7ac3", "fusion_lon": 0.0, "lon": -77.00131566666667, "lat": 38.873726166666664, "is_reserved": 0, "is_disabled": 0, "rental_uris": {"android": "https://dc.lft.to/lastmile_qr_scan", "ios": "https://dc.lft.to/lastmile_qr_scan"}, "name": "c9839ddd8c420427ddb484fa773c7ac3", "type": "electric_scooter"}, {"fusion_lat": 0.0, "bike_id": "58e1f512e2236adeffa822cc26328e6d", "fusion_lon": 0.0, "lon": -76.99075466666666, "lat": 38.89818283333334, "is_reserved": 0, "is_disabled": 0, "rental_uris": {"android": "https://dc.lft.to/lastmile_qr_scan", "ios": "https://dc.lft.to/lastmile_qr_scan"}, "name": "58e1f512e2236adeffa822cc26328e6d", "type": "electric_bike"}, {"fusion_lat": 0.0, "bike_id": "79e56e04b1d690b51b4603d6f2e9c9a8", "fusion_lon": 0.0, "lon": -77.03408666666667, "lat": 38.92735283333333, "is_reserved": 0, "is_disabled": 0, "rental_uris": {"android": "https://dc.lft.to/lastmile_qr_scan", "ios": "https://dc.lft.to/lastmile_qr_scan"}, "name": "79e56e04b1d690b51b4603d6f2e9c9a8", "type": "electric_scooter"}, {"fusion_lat": 0.0, "bike_id": "02aa32f2fb939de1c4b219adf494c2b3", "fusion_lon": 0.0, "lon": -77.03259433333334, "lat": 38.9321735, "is_reserved": 0, "is_disabled": 0, "rental_uris": {"android": "https://dc.lft.to/lastmile_qr_scan", "ios": "https://dc.lft.to/lastmile_qr_scan"}, "name": "02aa32f2fb939de1c4b219adf494c2b3", "type": "electric_scooter"}, {"fusion_lat": 0.0, "bike_id": "8c95b2463d03dcc82a159121eea94093", "fusion_lon": 0.0, "lon": -77.016969, "lat": 38.90459966666667, "is_reserved": 0, "is_disabled": 0, "rental_uris": {"android": "https://dc.lft.to/lastmile_qr_scan", "ios": "https://dc.lft.to/lastmile_qr_scan"}, "name": "8c95b2463d03dcc82a159121eea94093", "type": "electric_scooter"}, {"fusion_lat": 0.0, "bike_id": "0d7309a49ca068374f9c1b0605cca952", "fusion_lon": 0.0, "lon": -77.01836933333334, "lat": 38.909618333333334, "is_reserved": 0, "is_disabled": 0, "rental_uris": {"android": "https://dc.lft.to/lastmile_qr_scan", "ios": "https://dc.lft.to/lastmile_qr_scan"}, "name": "0d7309a49ca068374f9c1b0605cca952", "type": "electric_scooter"}, {"fusion_lat": 0.0, "bike_id": "6e13aa20363f4cbad39599d3f778499d", "fusion_lon": 0.0, "lon": -77.04174016666667, "lat": 38.89827916666667, "is_reserved": 0, "is_disabled": 0, "rental_uris": {"android": "https://dc.lft.to/lastmile_qr_scan", "ios": "https://dc.lft.to/lastmile_qr_scan"}, "name": "6e13aa20363f4cbad39599d3f778499d", "type": "electric_scooter"}, {"fusion_lat": 0.0, "bike_id": "13b319eec7916572bbf566e4e4d4ea2f", "fusion_lon": 0.0, "lon": -77.05181933333333, "lat": 38.923846833333336, "is_reserved": 0, "is_disabled": 0, "rental_uris": {"android": "https://dc.lft.to/lastmile_qr_scan", "ios": "https://dc.lft.to/lastmile_qr_scan"}, "name": "13b319eec7916572bbf566e4e4d4ea2f", "type": "electric_scooter"}, {"fusion_lat": 0.0, "bike_id": "0bd10cd97577dcac70a8d3f9b4c9ab26", "fusion_lon": 0.0, "lon": -77.03460766666667, "lat": 38.9072545, "is_reserved": 0, "is_disabled": 0, "rental_uris": {"android": "https://dc.lft.to/lastmile_qr_scan", "ios": "https://dc.lft.to/lastmile_qr_scan"}, "name": "0bd10cd97577dcac70a8d3f9b4c9ab26", "type": "electric_scooter"}, {"fusion_lat": 0.0, "bike_id": "c76b74e7bfffbd5f7ce479a265617aab", "fusion_lon": 0.0, "lon": -77.03007166666667, "lat": 38.93982966666667, "is_reserved": 0, "is_disabled": 0, "rental_uris": {"android": "https://dc.lft.to/lastmile_qr_scan", "ios": "https://dc.lft.to/lastmile_qr_scan"}, "name": "c76b74e7bfffbd5f7ce479a265617aab", "type": "electric_scooter"}, {"fusion_lat": 0.0, "bike_id": "d34ecbb9fc82eba8aa9777732a63c5fe", "fusion_lon": 0.0, "lon": -77.036826, "lat": 38.926391, "is_reserved": 0, "is_disabled": 0, "rental_uris": {"android": "https://dc.lft.to/lastmile_qr_scan", "ios": "https://dc.lft.to/lastmile_qr_scan"}, "name": "d34ecbb9fc82eba8aa9777732a63c5fe", "type": "electric_scooter"}, {"fusion_lat": 0.0, "bike_id": "c0035f201ad6ed3b797e80850d3918e7", "fusion_lon": 0.0, "lon": -77.02819033333333, "lat": 38.91630266666667, "is_reserved": 0, "is_disabled": 0, "rental_uris": {"android": "https://dc.lft.to/lastmile_qr_scan", "ios": "https://dc.lft.to/lastmile_qr_scan"}, "name": "c0035f201ad6ed3b797e80850d3918e7", "type": "electric_scooter"}, {"fusion_lat": 0.0, "bike_id": "241bfbeeca71226e028efe72352045f5", "fusion_lon": 0.0, "lon": -77.038659, "lat": 38.902730166666665, "is_reserved": 0, "is_disabled": 0, "rental_uris": {"android": "https://dc.lft.to/lastmile_qr_scan", "ios": "https://dc.lft.to/lastmile_qr_scan"}, "name": "241bfbeeca71226e028efe72352045f5", "type": "electric_scooter"}, {"fusion_lat": 0.0, "bike_id": "1844bedf6594756f1958ba81d2a39bdc", "fusion_lon": 0.0, "lon": -77.04378633333333, "lat": 38.90239016666666, "is_reserved": 0, "is_disabled": 0, "rental_uris": {"android": "https://dc.lft.to/lastmile_qr_scan", "ios": "https://dc.lft.to/lastmile_qr_scan"}, "name": "1844bedf6594756f1958ba81d2a39bdc", "type": "electric_scooter"}, {"fusion_lat": 0.0, "bike_id": "9b6c6906a57601388601feda452cb6e7", "fusion_lon": 0.0, "lon": -77.02627116666666, "lat": 38.962212, "is_reserved": 0, "is_disabled": 0, "rental_uris": {"android": "https://dc.lft.to/lastmile_qr_scan", "ios": "https://dc.lft.to/lastmile_qr_scan"}, "name": "9b6c6906a57601388601feda452cb6e7", "type": "electric_bike"}, {"fusion_lat": 0.0, "bike_id": "12244182c4b7211eae7b044071a21f57", "fusion_lon": 0.0, "lon": -76.99490483333334, "lat": 38.8860595, "is_reserved": 0, "is_disabled": 0, "rental_uris": {"android": "https://dc.lft.to/lastmile_qr_scan", "ios": "https://dc.lft.to/lastmile_qr_scan"}, "name": "12244182c4b7211eae7b044071a21f57", "type": "electric_scooter"}, {"fusion_lat": 0.0, "bike_id": "6fc256ef7966a616443d1f13a7ea5cc1", "fusion_lon": 0.0, "lon": -76.98284966666667, "lat": 38.916427, "is_reserved": 0, "is_disabled": 0, "rental_uris": {"android": "https://dc.lft.to/lastmile_qr_scan", "ios": "https://dc.lft.to/lastmile_qr_scan"}, "name": "6fc256ef7966a616443d1f13a7ea5cc1", "type": "electric_scooter"}, {"fusion_lat": 0.0, "bike_id": "f0df9efe6046e942f1e023df256a8d68", "fusion_lon": 0.0, "lon": -77.0518185, "lat": 38.924259666666664, "is_reserved": 0, "is_disabled": 0, "rental_uris": {"android": "https://dc.lft.to/lastmile_qr_scan", "ios": "https://dc.lft.to/lastmile_qr_scan"}, "name": "f0df9efe6046e942f1e023df256a8d68", "type": "electric_scooter"}, {"fusion_lat": 0.0, "bike_id": "8bf7459d13ef0abfd14b1fb5975dc97b", "fusion_lon": 0.0, "lon": -77.02532933333333, "lat": 38.92749666666667, "is_reserved": 0, "is_disabled": 0, "rental_uris": {"android": "https://dc.lft.to/lastmile_qr_scan", "ios": "https://dc.lft.to/lastmile_qr_scan"}, "name": "8bf7459d13ef0abfd14b1fb5975dc97b", "type": "electric_scooter"}, {"fusion_lat": 0.0, "bike_id": "75f8c0f15d74ebac34a8836cd1d5747a", "fusion_lon": 0.0, "lon": -77.01808083333333, "lat": 38.902879666666664, "is_reserved": 0, "is_disabled": 0, "rental_uris": {"android": "https://dc.lft.to/lastmile_qr_scan", "ios": "https://dc.lft.to/lastmile_qr_scan"}, "name": "75f8c0f15d74ebac34a8836cd1d5747a", "type": "electric_scooter"}, {"fusion_lat": 0.0, "bike_id": "f9354bb911285a86f1ed86651370100c", "fusion_lon": 0.0, "lon": -76.985952, "lat": 38.86685933333333, "is_reserved": 0, "is_disabled": 0, "rental_uris": {"android": "https://dc.lft.to/lastmile_qr_scan", "ios": "https://dc.lft.to/lastmile_qr_scan"}, "name": "f9354bb911285a86f1ed86651370100c", "type": "electric_scooter"}, {"fusion_lat": 0.0, "bike_id": "eaf7c678f37752957445c2becade2263", "fusion_lon": 0.0, "lon": -77.03174733333333, "lat": 38.9155575, "is_reserved": 0, "is_disabled": 0, "rental_uris": {"android": "https://dc.lft.to/lastmile_qr_scan", "ios": "https://dc.lft.to/lastmile_qr_scan"}, "name": "eaf7c678f37752957445c2becade2263", "type": "electric_scooter"}, {"fusion_lat": 0.0, "bike_id": "5ec46e3121a302d2e17a18c627288901", "fusion_lon": 0.0, "lon": -77.03423166666667, "lat": 38.91925633333334, "is_reserved": 0, "is_disabled": 0, "rental_uris": {"android": "https://dc.lft.to/lastmile_qr_scan", "ios": "https://dc.lft.to/lastmile_qr_scan"}, "name": "5ec46e3121a302d2e17a18c627288901", "type": "electric_scooter"}, {"fusion_lat": 0.0, "bike_id": "f9c4a7886230f4fcd56e0c9899f62914", "fusion_lon": 0.0, "lon": -76.99508716666666, "lat": 38.879165, "is_reserved": 0, "is_disabled": 0, "rental_uris": {"android": "https://dc.lft.to/lastmile_qr_scan", "ios": "https://dc.lft.to/lastmile_qr_scan"}, "name": "f9c4a7886230f4fcd56e0c9899f62914", "type": "electric_scooter"}, {"fusion_lat": 0.0, "bike_id": "4845b37f97672a4c2cc629f7963c12c0", "fusion_lon": 0.0, "lon": -77.032568, "lat": 38.942733833333335, "is_reserved": 0, "is_disabled": 0, "rental_uris": {"android": "https://dc.lft.to/lastmile_qr_scan", "ios": "https://dc.lft.to/lastmile_qr_scan"}, "name": "4845b37f97672a4c2cc629f7963c12c0", "type": "electric_scooter"}, {"fusion_lat": 0.0, "bike_id": "85ff2bbeac92f6a2392094e78606e2d9", "fusion_lon": 0.0, "lon": -77.03519816666666, "lat": 38.91598616666667, "is_reserved": 0, "is_disabled": 0, "rental_uris": {"android": "https://dc.lft.to/lastmile_qr_scan", "ios": "https://dc.lft.to/lastmile_qr_scan"}, "name": "85ff2bbeac92f6a2392094e78606e2d9", "type": "electric_scooter"}, {"fusion_lat": 0.0, "bike_id": "25eedcacdea8202205377628168829b4", "fusion_lon": 0.0, "lon": -77.03248933333333, "lat": 38.919894166666666, "is_reserved": 0, "is_disabled": 0, "rental_uris": {"android": "https://dc.lft.to/lastmile_qr_scan", "ios": "https://dc.lft.to/lastmile_qr_scan"}, "name": "25eedcacdea8202205377628168829b4", "type": "electric_scooter"}, {"fusion_lat": 0.0, "bike_id": "c4298b9a2ea1a656a150abf9270ae59c", "fusion_lon": 0.0, "lon": -77.060986, "lat": 38.90523133333333, "is_reserved": 0, "is_disabled": 0, "rental_uris": {"android": "https://dc.lft.to/lastmile_qr_scan", "ios": "https://dc.lft.to/lastmile_qr_scan"}, "name": "c4298b9a2ea1a656a150abf9270ae59c", "type": "electric_scooter"}, {"fusion_lat": 0.0, "bike_id": "b7d6f62f45cd2057f28e691ffe737482", "fusion_lon": 0.0, "lon": -77.04133783333333, "lat": 38.9212995, "is_reserved": 0, "is_disabled": 0, "rental_uris": {"android": "https://dc.lft.to/lastmile_qr_scan", "ios": "https://dc.lft.to/lastmile_qr_scan"}, "name": "b7d6f62f45cd2057f28e691ffe737482", "type": "electric_scooter"}, {"fusion_lat": 0.0, "bike_id": "2db4223e5994a89b4e3db2254ecbbf70", "fusion_lon": 0.0, "lon": -77.033355, "lat": 38.9389455, "is_reserved": 0, "is_disabled": 0, "rental_uris": {"android": "https://dc.lft.to/lastmile_qr_scan", "ios": "https://dc.lft.to/lastmile_qr_scan"}, "name": "2db4223e5994a89b4e3db2254ecbbf70", "type": "electric_scooter"}, {"fusion_lat": 0.0, "bike_id": "ada31f8c64ed07d730e39540998f1f34", "fusion_lon": 0.0, "lon": -76.99929116666667, "lat": 38.84315433333333, "is_reserved": 0, "is_disabled": 0, "rental_uris": {"android": "https://dc.lft.to/lastmile_qr_scan", "ios": "https://dc.lft.to/lastmile_qr_scan"}, "name": "ada31f8c64ed07d730e39540998f1f34", "type": "electric_scooter"}, {"fusion_lat": 0.0, "bike_id": "4caece5e6d969aa238e8a604f0597af4", "fusion_lon": 0.0, "lon": -77.01480033333333, "lat": 38.91411016666667, "is_reserved": 0, "is_disabled": 0, "rental_uris": {"android": "https://dc.lft.to/lastmile_qr_scan", "ios": "https://dc.lft.to/lastmile_qr_scan"}, "name": "4caece5e6d969aa238e8a604f0597af4", "type": "electric_scooter"}, {"fusion_lat": 0.0, "bike_id": "c5c129884522221bb95e4f218bacce89", "fusion_lon": 0.0, "lon": -76.948867, "lat": 38.895101333333336, "is_reserved": 0, "is_disabled": 0, "rental_uris": {"android": "https://dc.lft.to/lastmile_qr_scan", "ios": "https://dc.lft.to/lastmile_qr_scan"}, "name": "c5c129884522221bb95e4f218bacce89", "type": "electric_scooter"}, {"fusion_lat": 0.0, "bike_id": "e55e61652a8631c6549c6e79ac4e3408", "fusion_lon": 0.0, "lon": -77.02234, "lat": 38.8922095, "is_reserved": 0, "is_disabled": 0, "rental_uris": {"android": "https://dc.lft.to/lastmile_qr_scan", "ios": "https://dc.lft.to/lastmile_qr_scan"}, "name": "e55e61652a8631c6549c6e79ac4e3408", "type": "electric_scooter"}, {"fusion_lat": 0.0, "bike_id": "87792c538e3218b8a916d937b77bac8c", "fusion_lon": 0.0, "lon": -77.04761, "lat": 38.90547516666667, "is_reserved": 0, "is_disabled": 0, "rental_uris": {"android": "https://dc.lft.to/lastmile_qr_scan", "ios": "https://dc.lft.to/lastmile_qr_scan"}, "name": "87792c538e3218b8a916d937b77bac8c", "type": "electric_scooter"}, {"fusion_lat": 0.0, "bike_id": "9b63170558526c7fe31b5a2f4ab39a38", "fusion_lon": 0.0, "lon": -76.99385583333333, "lat": 38.89197083333333, "is_reserved": 0, "is_disabled": 0, "rental_uris": {"android": "https://dc.lft.to/lastmile_qr_scan", "ios": "https://dc.lft.to/lastmile_qr_scan"}, "name": "9b63170558526c7fe31b5a2f4ab39a38", "type": "electric_scooter"}, {"fusion_lat": 0.0, "bike_id": "56c131d3ca3a94607b00cb9df16ffb31", "fusion_lon": 0.0, "lon": -77.04038516666667, "lat": 38.906007, "is_reserved": 0, "is_disabled": 0, "rental_uris": {"android": "https://dc.lft.to/lastmile_qr_scan", "ios": "https://dc.lft.to/lastmile_qr_scan"}, "name": "56c131d3ca3a94607b00cb9df16ffb31", "type": "electric_scooter"}, {"fusion_lat": 0.0, "bike_id": "bbae2512709919acd428e0e1b0ffe162", "fusion_lon": 0.0, "lon": -77.0466155, "lat": 38.897816166666665, "is_reserved": 0, "is_disabled": 0, "rental_uris": {"android": "https://dc.lft.to/lastmile_qr_scan", "ios": "https://dc.lft.to/lastmile_qr_scan"}, "name": "bbae2512709919acd428e0e1b0ffe162", "type": "electric_scooter"}, {"fusion_lat": 0.0, "bike_id": "5c49f0f98328cd6413308e3668e50f34", "fusion_lon": 0.0, "lon": -77.00450983333333, "lat": 38.876574833333336, "is_reserved": 0, "is_disabled": 0, "rental_uris": {"android": "https://dc.lft.to/lastmile_qr_scan", "ios": "https://dc.lft.to/lastmile_qr_scan"}, "name": "5c49f0f98328cd6413308e3668e50f34", "type": "electric_scooter"}, {"fusion_lat": 0.0, "bike_id": "795605b1fb00416e7f730b7d1cf445cb", "fusion_lon": 0.0, "lon": -77.00886783333333, "lat": 38.89906583333333, "is_reserved": 0, "is_disabled": 0, "rental_uris": {"android": "https://dc.lft.to/lastmile_qr_scan", "ios": "https://dc.lft.to/lastmile_qr_scan"}, "name": "795605b1fb00416e7f730b7d1cf445cb", "type": "electric_scooter"}, {"fusion_lat": 0.0, "bike_id": "a53305438da21c69d10278b51024b2b7", "fusion_lon": 0.0, "lon": -76.9994165, "lat": 38.90623183333334, "is_reserved": 0, "is_disabled": 0, "rental_uris": {"android": "https://dc.lft.to/lastmile_qr_scan", "ios": "https://dc.lft.to/lastmile_qr_scan"}, "name": "a53305438da21c69d10278b51024b2b7", "type": "electric_scooter"}, {"fusion_lat": 0.0, "bike_id": "10d45850e69f96181c65481517e97fec", "fusion_lon": 0.0, "lon": -77.01218366666667, "lat": 38.892923833333334, "is_reserved": 0, "is_disabled": 0, "rental_uris": {"android": "https://dc.lft.to/lastmile_qr_scan", "ios": "https://dc.lft.to/lastmile_qr_scan"}, "name": "10d45850e69f96181c65481517e97fec", "type": "electric_scooter"}, {"fusion_lat": 0.0, "bike_id": "9a7a5ded5220792e6346dc2df0532b26", "fusion_lon": 0.0, "lon": -77.0351155, "lat": 38.903617, "is_reserved": 0, "is_disabled": 0, "rental_uris": {"android": "https://dc.lft.to/lastmile_qr_scan", "ios": "https://dc.lft.to/lastmile_qr_scan"}, "name": "9a7a5ded5220792e6346dc2df0532b26", "type": "electric_scooter"}, {"fusion_lat": 0.0, "bike_id": "26daf8093b25a9096d9f6d6eaaa8664e", "fusion_lon": 0.0, "lon": -76.946215, "lat": 38.832338, "is_reserved": 0, "is_disabled": 0, "rental_uris": {"android": "https://dc.lft.to/lastmile_qr_scan", "ios": "https://dc.lft.to/lastmile_qr_scan"}, "name": "26daf8093b25a9096d9f6d6eaaa8664e", "type": "electric_bike"}, {"fusion_lat": 0.0, "bike_id": "30288120621c633f545df584dbdcc094", "fusion_lon": 0.0, "lon": -77.0294335, "lat": 38.89640966666666, "is_reserved": 0, "is_disabled": 0, "rental_uris": {"android": "https://dc.lft.to/lastmile_qr_scan", "ios": "https://dc.lft.to/lastmile_qr_scan"}, "name": "30288120621c633f545df584dbdcc094", "type": "electric_scooter"}, {"fusion_lat": 0.0, "bike_id": "fa4174360728a702bd75dc4d7aa4136d", "fusion_lon": 0.0, "lon": -77.034663, "lat": 38.907301333333336, "is_reserved": 0, "is_disabled": 0, "rental_uris": {"android": "https://dc.lft.to/lastmile_qr_scan", "ios": "https://dc.lft.to/lastmile_qr_scan"}, "name": "fa4174360728a702bd75dc4d7aa4136d", "type": "electric_scooter"}, {"fusion_lat": 0.0, "bike_id": "3324d86402f162ef61ecff62c4060a71", "fusion_lon": 0.0, "lon": -77.0362745, "lat": 38.915498166666666, "is_reserved": 0, "is_disabled": 0, "rental_uris": {"android": "https://dc.lft.to/lastmile_qr_scan", "ios": "https://dc.lft.to/lastmile_qr_scan"}, "name": "3324d86402f162ef61ecff62c4060a71", "type": "electric_scooter"}, {"fusion_lat": 0.0, "bike_id": "8f420b35f95c4116a091026d5ebbe605", "fusion_lon": 0.0, "lon": -77.01998166666667, "lat": 38.9115725, "is_reserved": 0, "is_disabled": 0, "rental_uris": {"android": "https://dc.lft.to/lastmile_qr_scan", "ios": "https://dc.lft.to/lastmile_qr_scan"}, "name": "8f420b35f95c4116a091026d5ebbe605", "type": "electric_scooter"}, {"fusion_lat": 0.0, "bike_id": "f12dfd786a044e9c672a5c23eedbe0cc", "fusion_lon": 0.0, "lon": -77.06101416666667, "lat": 38.90521833333333, "is_reserved": 0, "is_disabled": 0, "rental_uris": {"android": "https://dc.lft.to/lastmile_qr_scan", "ios": "https://dc.lft.to/lastmile_qr_scan"}, "name": "f12dfd786a044e9c672a5c23eedbe0cc", "type": "electric_scooter"}, {"fusion_lat": 0.0, "bike_id": "ee4bdec4e7872864dfd9a43aaf47ac93", "fusion_lon": 0.0, "lon": -77.06196816666667, "lat": 38.944445, "is_reserved": 0, "is_disabled": 0, "rental_uris": {"android": "https://dc.lft.to/lastmile_qr_scan", "ios": "https://dc.lft.to/lastmile_qr_scan"}, "name": "ee4bdec4e7872864dfd9a43aaf47ac93", "type": "electric_scooter"}, {"fusion_lat": 0.0, "bike_id": "785161260ae7ddee2954bbd9a6854341", "fusion_lon": 0.0, "lon": -77.033354, "lat": 38.892252, "is_reserved": 0, "is_disabled": 0, "rental_uris": {"android": "https://dc.lft.to/lastmile_qr_scan", "ios": "https://dc.lft.to/lastmile_qr_scan"}, "name": "785161260ae7ddee2954bbd9a6854341", "type": "electric_scooter"}, {"fusion_lat": 0.0, "bike_id": "3ee97fd9ce81050ad46cc6c9797503a3", "fusion_lon": 0.0, "lon": -77.02826716666667, "lat": 38.92238533333333, "is_reserved": 0, "is_disabled": 0, "rental_uris": {"android": "https://dc.lft.to/lastmile_qr_scan", "ios": "https://dc.lft.to/lastmile_qr_scan"}, "name": "3ee97fd9ce81050ad46cc6c9797503a3", "type": "electric_scooter"}, {"fusion_lat": 0.0, "bike_id": "37008da0cdc86e304d7021d71f5fe00d", "fusion_lon": 0.0, "lon": -77.0013405, "lat": 38.87818516666667, "is_reserved": 0, "is_disabled": 0, "rental_uris": {"android": "https://dc.lft.to/lastmile_qr_scan", "ios": "https://dc.lft.to/lastmile_qr_scan"}, "name": "37008da0cdc86e304d7021d71f5fe00d", "type": "electric_scooter"}, {"fusion_lat": 0.0, "bike_id": "9016178cc3aa609decd8e5fb134b2920", "fusion_lon": 0.0, "lon": -76.932728, "lat": 38.95421116666667, "is_reserved": 0, "is_disabled": 0, "rental_uris": {"android": "https://dc.lft.to/lastmile_qr_scan", "ios": "https://dc.lft.to/lastmile_qr_scan"}, "name": "9016178cc3aa609decd8e5fb134b2920", "type": "electric_bike"}, {"fusion_lat": 0.0, "bike_id": "1e859da10511c396c31d3b5f4c2ed35e", "fusion_lon": 0.0, "lon": -77.044541, "lat": 38.91878716666667, "is_reserved": 0, "is_disabled": 0, "rental_uris": {"android": "https://dc.lft.to/lastmile_qr_scan", "ios": "https://dc.lft.to/lastmile_qr_scan"}, "name": "1e859da10511c396c31d3b5f4c2ed35e", "type": "electric_scooter"}, {"fusion_lat": 0.0, "bike_id": "619e0bd3bb09b10fd50981e077b5bdd9", "fusion_lon": 0.0, "lon": -77.016726, "lat": 38.87714033333334, "is_reserved": 0, "is_disabled": 0, "rental_uris": {"android": "https://dc.lft.to/lastmile_qr_scan", "ios": "https://dc.lft.to/lastmile_qr_scan"}, "name": "619e0bd3bb09b10fd50981e077b5bdd9", "type": "electric_scooter"}, {"fusion_lat": 0.0, "bike_id": "3220705a7c9bc0196c84afd06e5108f2", "fusion_lon": 0.0, "lon": -77.019582, "lat": 38.90268066666667, "is_reserved": 0, "is_disabled": 0, "rental_uris": {"android": "https://dc.lft.to/lastmile_qr_scan", "ios": "https://dc.lft.to/lastmile_qr_scan"}, "name": "3220705a7c9bc0196c84afd06e5108f2", "type": "electric_scooter"}, {"fusion_lat": 0.0, "bike_id": "6cf1a0fa18b8d50afcc2723366072714", "fusion_lon": 0.0, "lon": -77.0317705, "lat": 38.930383666666664, "is_reserved": 0, "is_disabled": 0, "rental_uris": {"android": "https://dc.lft.to/lastmile_qr_scan", "ios": "https://dc.lft.to/lastmile_qr_scan"}, "name": "6cf1a0fa18b8d50afcc2723366072714", "type": "electric_scooter"}, {"fusion_lat": 0.0, "bike_id": "049360aa6b90b12bbf8a62500305ad47", "fusion_lon": 0.0, "lon": -77.03175633333333, "lat": 38.902836, "is_reserved": 0, "is_disabled": 0, "rental_uris": {"android": "https://dc.lft.to/lastmile_qr_scan", "ios": "https://dc.lft.to/lastmile_qr_scan"}, "name": "049360aa6b90b12bbf8a62500305ad47", "type": "electric_scooter"}, {"fusion_lat": 0.0, "bike_id": "aee4fd7e5a8ad892c8fc7f74d1c0a8bf", "fusion_lon": 0.0, "lon": -76.935512, "lat": 38.890180666666666, "is_reserved": 0, "is_disabled": 0, "rental_uris": {"android": "https://dc.lft.to/lastmile_qr_scan", "ios": "https://dc.lft.to/lastmile_qr_scan"}, "name": "aee4fd7e5a8ad892c8fc7f74d1c0a8bf", "type": "electric_scooter"}, {"fusion_lat": 0.0, "bike_id": "d61e2b427a8b9db00286785fb487f98b", "fusion_lon": 0.0, "lon": -77.040749, "lat": 38.909713833333335, "is_reserved": 0, "is_disabled": 0, "rental_uris": {"android": "https://dc.lft.to/lastmile_qr_scan", "ios": "https://dc.lft.to/lastmile_qr_scan"}, "name": "d61e2b427a8b9db00286785fb487f98b", "type": "electric_scooter"}, {"fusion_lat": 0.0, "bike_id": "00d97b44b9ae4f3b4f585e7ef2cf3851", "fusion_lon": 0.0, "lon": -77.034608, "lat": 38.908751, "is_reserved": 0, "is_disabled": 0, "rental_uris": {"android": "https://dc.lft.to/lastmile_qr_scan", "ios": "https://dc.lft.to/lastmile_qr_scan"}, "name": "00d97b44b9ae4f3b4f585e7ef2cf3851", "type": "electric_scooter"}, {"fusion_lat": 0.0, "bike_id": "136ad602a69c3e0d7f0b0aaa5e45b4dd", "fusion_lon": 0.0, "lon": -76.98934083333333, "lat": 38.90187483333333, "is_reserved": 0, "is_disabled": 0, "rental_uris": {"android": "https://dc.lft.to/lastmile_qr_scan", "ios": "https://dc.lft.to/lastmile_qr_scan"}, "name": "136ad602a69c3e0d7f0b0aaa5e45b4dd", "type": "electric_scooter"}, {"fusion_lat": 0.0, "bike_id": "06dc056864a15465c90c78b2786e7188", "fusion_lon": 0.0, "lon": -77.05023766666666, "lat": 38.90152033333333, "is_reserved": 0, "is_disabled": 0, "rental_uris": {"android": "https://dc.lft.to/lastmile_qr_scan", "ios": "https://dc.lft.to/lastmile_qr_scan"}, "name": "06dc056864a15465c90c78b2786e7188", "type": "electric_scooter"}, {"fusion_lat": 0.0, "bike_id": "e1d137d09466bd6aef7e4c916fac1440", "fusion_lon": 0.0, "lon": -77.03210066666666, "lat": 38.91250483333334, "is_reserved": 0, "is_disabled": 0, "rental_uris": {"android": "https://dc.lft.to/lastmile_qr_scan", "ios": "https://dc.lft.to/lastmile_qr_scan"}, "name": "e1d137d09466bd6aef7e4c916fac1440", "type": "electric_scooter"}, {"fusion_lat": 0.0, "bike_id": "8ea020ac8c5385d795e4b8ad9aafe0ec", "fusion_lon": 0.0, "lon": -76.9937125, "lat": 38.861472166666665, "is_reserved": 0, "is_disabled": 0, "rental_uris": {"android": "https://dc.lft.to/lastmile_qr_scan", "ios": "https://dc.lft.to/lastmile_qr_scan"}, "name": "8ea020ac8c5385d795e4b8ad9aafe0ec", "type": "electric_scooter"}, {"fusion_lat": 0.0, "bike_id": "a1dd99282018ad63a0f1b8dc57a8de26", "fusion_lon": 0.0, "lon": -77.06878983333333, "lat": 38.90408333333333, "is_reserved": 0, "is_disabled": 0, "rental_uris": {"android": "https://dc.lft.to/lastmile_qr_scan", "ios": "https://dc.lft.to/lastmile_qr_scan"}, "name": "a1dd99282018ad63a0f1b8dc57a8de26", "type": "electric_bike"}, {"fusion_lat": 0.0, "bike_id": "1d11de92823e148c0f530a744f91eae7", "fusion_lon": 0.0, "lon": -77.00124016666666, "lat": 38.874431333333334, "is_reserved": 0, "is_disabled": 0, "rental_uris": {"android": "https://dc.lft.to/lastmile_qr_scan", "ios": "https://dc.lft.to/lastmile_qr_scan"}, "name": "1d11de92823e148c0f530a744f91eae7", "type": "electric_scooter"}, {"fusion_lat": 0.0, "bike_id": "00cd51375d69844792f99a2cc5992d1f", "fusion_lon": 0.0, "lon": -77.03034383333333, "lat": 38.88428966666667, "is_reserved": 0, "is_disabled": 0, "rental_uris": {"android": "https://dc.lft.to/lastmile_qr_scan", "ios": "https://dc.lft.to/lastmile_qr_scan"}, "name": "00cd51375d69844792f99a2cc5992d1f", "type": "electric_scooter"}, {"fusion_lat": 0.0, "bike_id": "c81ba53b5c41d4c74339ba06a27e976c", "fusion_lon": 0.0, "lon": -77.03348333333334, "lat": 38.9244055, "is_reserved": 0, "is_disabled": 0, "rental_uris": {"android": "https://dc.lft.to/lastmile_qr_scan", "ios": "https://dc.lft.to/lastmile_qr_scan"}, "name": "c81ba53b5c41d4c74339ba06a27e976c", "type": "electric_scooter"}, {"fusion_lat": 0.0, "bike_id": "9a1b48b0f6455fdc99868089f6bedef9", "fusion_lon": 0.0, "lon": -76.957469, "lat": 38.88427866666667, "is_reserved": 0, "is_disabled": 0, "rental_uris": {"android": "https://dc.lft.to/lastmile_qr_scan", "ios": "https://dc.lft.to/lastmile_qr_scan"}, "name": "9a1b48b0f6455fdc99868089f6bedef9", "type": "electric_scooter"}, {"fusion_lat": 0.0, "bike_id": "61ced80016f7d084619b3f798a6be553", "fusion_lon": 0.0, "lon": -77.02776533333333, "lat": 38.892205833333335, "is_reserved": 0, "is_disabled": 0, "rental_uris": {"android": "https://dc.lft.to/lastmile_qr_scan", "ios": "https://dc.lft.to/lastmile_qr_scan"}, "name": "61ced80016f7d084619b3f798a6be553", "type": "electric_scooter"}, {"fusion_lat": 0.0, "bike_id": "497df38fdf7ff02d7ee2e5bba6b2948e", "fusion_lon": 0.0, "lon": -76.99498616666666, "lat": 38.89922683333333, "is_reserved": 0, "is_disabled": 0, "rental_uris": {"android": "https://dc.lft.to/lastmile_qr_scan", "ios": "https://dc.lft.to/lastmile_qr_scan"}, "name": "497df38fdf7ff02d7ee2e5bba6b2948e", "type": "electric_scooter"}, {"fusion_lat": 0.0, "bike_id": "8fc00c821ef0f401f0de7e6982b22a94", "fusion_lon": 0.0, "lon": -77.06175233333333, "lat": 38.905100166666664, "is_reserved": 0, "is_disabled": 0, "rental_uris": {"android": "https://dc.lft.to/lastmile_qr_scan", "ios": "https://dc.lft.to/lastmile_qr_scan"}, "name": "8fc00c821ef0f401f0de7e6982b22a94", "type": "electric_scooter"}, {"fusion_lat": 0.0, "bike_id": "edf85227b1751fad1f1233217a5191fd", "fusion_lon": 0.0, "lon": -76.985821, "lat": 38.90807516666667, "is_reserved": 0, "is_disabled": 0, "rental_uris": {"android": "https://dc.lft.to/lastmile_qr_scan", "ios": "https://dc.lft.to/lastmile_qr_scan"}, "name": "edf85227b1751fad1f1233217a5191fd", "type": "electric_scooter"}, {"fusion_lat": 0.0, "bike_id": "165de18ae2f66f624ae5ff6d4beadd78", "fusion_lon": 0.0, "lon": -77.04364133333333, "lat": 38.90134233333333, "is_reserved": 0, "is_disabled": 0, "rental_uris": {"android": "https://dc.lft.to/lastmile_qr_scan", "ios": "https://dc.lft.to/lastmile_qr_scan"}, "name": "165de18ae2f66f624ae5ff6d4beadd78", "type": "electric_scooter"}, {"fusion_lat": 0.0, "bike_id": "fd9426a128d9a8cae4380d0e6e7e5d6f", "fusion_lon": 0.0, "lon": -77.04646233333334, "lat": 38.9157505, "is_reserved": 0, "is_disabled": 0, "rental_uris": {"android": "https://dc.lft.to/lastmile_qr_scan", "ios": "https://dc.lft.to/lastmile_qr_scan"}, "name": "fd9426a128d9a8cae4380d0e6e7e5d6f", "type": "electric_scooter"}, {"fusion_lat": 0.0, "bike_id": "56c0c452c74cb7cc756bdc2f0a78c764", "fusion_lon": 0.0, "lon": -77.03422183333333, "lat": 38.919239, "is_reserved": 0, "is_disabled": 0, "rental_uris": {"android": "https://dc.lft.to/lastmile_qr_scan", "ios": "https://dc.lft.to/lastmile_qr_scan"}, "name": "56c0c452c74cb7cc756bdc2f0a78c764", "type": "electric_scooter"}, {"fusion_lat": 0.0, "bike_id": "de0c9c91dae970a4e296668b267cfd7e", "fusion_lon": 0.0, "lon": -76.93303516666667, "lat": 38.891945166666666, "is_reserved": 0, "is_disabled": 0, "rental_uris": {"android": "https://dc.lft.to/lastmile_qr_scan", "ios": "https://dc.lft.to/lastmile_qr_scan"}, "name": "de0c9c91dae970a4e296668b267cfd7e", "type": "electric_scooter"}, {"fusion_lat": 0.0, "bike_id": "f0044d96c21b8db3b5fadc1a9bb119ef", "fusion_lon": 0.0, "lon": -77.0433595, "lat": 38.922198333333334, "is_reserved": 0, "is_disabled": 0, "rental_uris": {"android": "https://dc.lft.to/lastmile_qr_scan", "ios": "https://dc.lft.to/lastmile_qr_scan"}, "name": "f0044d96c21b8db3b5fadc1a9bb119ef", "type": "electric_scooter"}, {"fusion_lat": 0.0, "bike_id": "82ac056b5accf56ab98d7f88149dffac", "fusion_lon": 0.0, "lon": -77.00058616666666, "lat": 38.89497883333333, "is_reserved": 0, "is_disabled": 0, "rental_uris": {"android": "https://dc.lft.to/lastmile_qr_scan", "ios": "https://dc.lft.to/lastmile_qr_scan"}, "name": "82ac056b5accf56ab98d7f88149dffac", "type": "electric_scooter"}, {"fusion_lat": 0.0, "bike_id": "bb31ac710ec06383f6df78ed3c836343", "fusion_lon": 0.0, "lon": -76.93753133333334, "lat": 38.890371, "is_reserved": 0, "is_disabled": 0, "rental_uris": {"android": "https://dc.lft.to/lastmile_qr_scan", "ios": "https://dc.lft.to/lastmile_qr_scan"}, "name": "bb31ac710ec06383f6df78ed3c836343", "type": "electric_scooter"}, {"fusion_lat": 0.0, "bike_id": "4e09df5c39470e0ba963e3688c5cbc4e", "fusion_lon": 0.0, "lon": -77.05160816666667, "lat": 39.0431715, "is_reserved": 0, "is_disabled": 0, "rental_uris": {"android": "https://dc.lft.to/lastmile_qr_scan", "ios": "https://dc.lft.to/lastmile_qr_scan"}, "name": "4e09df5c39470e0ba963e3688c5cbc4e", "type": "electric_bike"}, {"fusion_lat": 0.0, "bike_id": "7cc0d41aa707512e8797dadd5ce08c46", "fusion_lon": 0.0, "lon": -76.98217116666666, "lat": 38.866497, "is_reserved": 0, "is_disabled": 0, "rental_uris": {"android": "https://dc.lft.to/lastmile_qr_scan", "ios": "https://dc.lft.to/lastmile_qr_scan"}, "name": "7cc0d41aa707512e8797dadd5ce08c46", "type": "electric_scooter"}, {"fusion_lat": 0.0, "bike_id": "6c15221a40907b381d7eb00c17b74ec1", "fusion_lon": 0.0, "lon": -77.04532833333333, "lat": 38.8919765, "is_reserved": 0, "is_disabled": 0, "rental_uris": {"android": "https://dc.lft.to/lastmile_qr_scan", "ios": "https://dc.lft.to/lastmile_qr_scan"}, "name": "6c15221a40907b381d7eb00c17b74ec1", "type": "electric_scooter"}, {"fusion_lat": 0.0, "bike_id": "840465bf52c57e22f09e41665369da09", "fusion_lon": 0.0, "lon": -77.04040266666667, "lat": 38.918576, "is_reserved": 0, "is_disabled": 0, "rental_uris": {"android": "https://dc.lft.to/lastmile_qr_scan", "ios": "https://dc.lft.to/lastmile_qr_scan"}, "name": "840465bf52c57e22f09e41665369da09", "type": "electric_scooter"}, {"fusion_lat": 0.0, "bike_id": "438a6f8b9fd5261aa2c5d17a3c41903b", "fusion_lon": 0.0, "lon": -77.01493183333334, "lat": 38.892214333333335, "is_reserved": 0, "is_disabled": 0, "rental_uris": {"android": "https://dc.lft.to/lastmile_qr_scan", "ios": "https://dc.lft.to/lastmile_qr_scan"}, "name": "438a6f8b9fd5261aa2c5d17a3c41903b", "type": "electric_scooter"}, {"fusion_lat": 0.0, "bike_id": "cad6bdd897352010e0bb0b290befd3d7", "fusion_lon": 0.0, "lon": -77.025835, "lat": 38.92034733333333, "is_reserved": 0, "is_disabled": 0, "rental_uris": {"android": "https://dc.lft.to/lastmile_qr_scan", "ios": "https://dc.lft.to/lastmile_qr_scan"}, "name": "cad6bdd897352010e0bb0b290befd3d7", "type": "electric_scooter"}, {"fusion_lat": 0.0, "bike_id": "7372503021ce8eb45abedf3a7c211896", "fusion_lon": 0.0, "lon": -77.03861916666666, "lat": 38.932443166666665, "is_reserved": 0, "is_disabled": 0, "rental_uris": {"android": "https://dc.lft.to/lastmile_qr_scan", "ios": "https://dc.lft.to/lastmile_qr_scan"}, "name": "7372503021ce8eb45abedf3a7c211896", "type": "electric_scooter"}, {"fusion_lat": 0.0, "bike_id": "000fd42ea7f4da924f77e89c6c0cd20c", "fusion_lon": 0.0, "lon": -77.05694983333333, "lat": 38.9371385, "is_reserved": 0, "is_disabled": 0, "rental_uris": {"android": "https://dc.lft.to/lastmile_qr_scan", "ios": "https://dc.lft.to/lastmile_qr_scan"}, "name": "000fd42ea7f4da924f77e89c6c0cd20c", "type": "electric_scooter"}, {"fusion_lat": 0.0, "bike_id": "44dd35cebd88626dbe91629969faaea0", "fusion_lon": 0.0, "lon": -77.10487116666667, "lat": 38.85608466666667, "is_reserved": 0, "is_disabled": 0, "rental_uris": {"android": "https://dc.lft.to/lastmile_qr_scan", "ios": "https://dc.lft.to/lastmile_qr_scan"}, "name": "44dd35cebd88626dbe91629969faaea0", "type": "electric_bike"}, {"fusion_lat": 0.0, "bike_id": "64df2839a705934be7f3bd5083d3ebd5", "fusion_lon": 0.0, "lon": -77.032482, "lat": 38.92869316666667, "is_reserved": 0, "is_disabled": 0, "rental_uris": {"android": "https://dc.lft.to/lastmile_qr_scan", "ios": "https://dc.lft.to/lastmile_qr_scan"}, "name": "64df2839a705934be7f3bd5083d3ebd5", "type": "electric_scooter"}, {"fusion_lat": 0.0, "bike_id": "2fb44938174ccd962f20e196eaab6409", "fusion_lon": 0.0, "lon": -76.98193933333333, "lat": 38.9674315, "is_reserved": 0, "is_disabled": 0, "rental_uris": {"android": "https://dc.lft.to/lastmile_qr_scan", "ios": "https://dc.lft.to/lastmile_qr_scan"}, "name": "2fb44938174ccd962f20e196eaab6409", "type": "electric_bike"}, {"fusion_lat": 0.0, "bike_id": "b8f86225333dfea64f07c4b4b3072d2c", "fusion_lon": 0.0, "lon": -77.02088966666666, "lat": 38.88182416666667, "is_reserved": 0, "is_disabled": 0, "rental_uris": {"android": "https://dc.lft.to/lastmile_qr_scan", "ios": "https://dc.lft.to/lastmile_qr_scan"}, "name": "b8f86225333dfea64f07c4b4b3072d2c", "type": "electric_scooter"}, {"fusion_lat": 0.0, "bike_id": "88b00deb6dd1f2c449937c4e6fa0ebe0", "fusion_lon": 0.0, "lon": -77.0134475, "lat": 38.878152166666666, "is_reserved": 0, "is_disabled": 0, "rental_uris": {"android": "https://dc.lft.to/lastmile_qr_scan", "ios": "https://dc.lft.to/lastmile_qr_scan"}, "name": "88b00deb6dd1f2c449937c4e6fa0ebe0", "type": "electric_scooter"}, {"fusion_lat": 0.0, "bike_id": "353d7920f4db5815690ffe02685927ec", "fusion_lon": 0.0, "lon": -77.02285466666666, "lat": 38.9078785, "is_reserved": 0, "is_disabled": 0, "rental_uris": {"android": "https://dc.lft.to/lastmile_qr_scan", "ios": "https://dc.lft.to/lastmile_qr_scan"}, "name": "353d7920f4db5815690ffe02685927ec", "type": "electric_scooter"}, {"fusion_lat": 0.0, "bike_id": "4f861a5484817acc73478f1a9de752a1", "fusion_lon": 0.0, "lon": -77.03444233333333, "lat": 38.93318333333333, "is_reserved": 0, "is_disabled": 0, "rental_uris": {"android": "https://dc.lft.to/lastmile_qr_scan", "ios": "https://dc.lft.to/lastmile_qr_scan"}, "name": "4f861a5484817acc73478f1a9de752a1", "type": "electric_scooter"}, {"fusion_lat": 0.0, "bike_id": "66e9f678ed2109f2112ad5975b869770", "fusion_lon": 0.0, "lon": -77.0376, "lat": 38.907791, "is_reserved": 0, "is_disabled": 0, "rental_uris": {"android": "https://dc.lft.to/lastmile_qr_scan", "ios": "https://dc.lft.to/lastmile_qr_scan"}, "name": "66e9f678ed2109f2112ad5975b869770", "type": "electric_scooter"}, {"fusion_lat": 0.0, "bike_id": "a3e5fa111922f411162002b89b997235", "fusion_lon": 0.0, "lon": -77.02872833333333, "lat": 38.916931166666664, "is_reserved": 0, "is_disabled": 0, "rental_uris": {"android": "https://dc.lft.to/lastmile_qr_scan", "ios": "https://dc.lft.to/lastmile_qr_scan"}, "name": "a3e5fa111922f411162002b89b997235", "type": "electric_scooter"}, {"fusion_lat": 0.0, "bike_id": "85d16aa9b17eb8554eecd2dc4cd0cda9", "fusion_lon": 0.0, "lon": -77.02771883333334, "lat": 38.892013, "is_reserved": 0, "is_disabled": 0, "rental_uris": {"android": "https://dc.lft.to/lastmile_qr_scan", "ios": "https://dc.lft.to/lastmile_qr_scan"}, "name": "85d16aa9b17eb8554eecd2dc4cd0cda9", "type": "electric_scooter"}, {"fusion_lat": 0.0, "bike_id": "9a4cbd35d7b257a7dfa8d34f25b322e4", "fusion_lon": 0.0, "lon": -77.03398016666667, "lat": 38.9073095, "is_reserved": 0, "is_disabled": 0, "rental_uris": {"android": "https://dc.lft.to/lastmile_qr_scan", "ios": "https://dc.lft.to/lastmile_qr_scan"}, "name": "9a4cbd35d7b257a7dfa8d34f25b322e4", "type": "electric_scooter"}, {"fusion_lat": 0.0, "bike_id": "98637c7dc3fcfb4803171c9d273838f1", "fusion_lon": 0.0, "lon": -77.028431, "lat": 38.93421416666666, "is_reserved": 0, "is_disabled": 0, "rental_uris": {"android": "https://dc.lft.to/lastmile_qr_scan", "ios": "https://dc.lft.to/lastmile_qr_scan"}, "name": "98637c7dc3fcfb4803171c9d273838f1", "type": "electric_scooter"}, {"fusion_lat": 0.0, "bike_id": "535500e6aee25e4b4da376f99dcea8ba", "fusion_lon": 0.0, "lon": -77.06639983333334, "lat": 38.905933166666664, "is_reserved": 0, "is_disabled": 0, "rental_uris": {"android": "https://dc.lft.to/lastmile_qr_scan", "ios": "https://dc.lft.to/lastmile_qr_scan"}, "name": "535500e6aee25e4b4da376f99dcea8ba", "type": "electric_scooter"}, {"fusion_lat": 0.0, "bike_id": "ba7ce948ab34b461bf4d2677b5b132bb", "fusion_lon": 0.0, "lon": -76.99833466666666, "lat": 38.8945615, "is_reserved": 0, "is_disabled": 0, "rental_uris": {"android": "https://dc.lft.to/lastmile_qr_scan", "ios": "https://dc.lft.to/lastmile_qr_scan"}, "name": "ba7ce948ab34b461bf4d2677b5b132bb", "type": "electric_scooter"}, {"fusion_lat": 0.0, "bike_id": "7e24b1e1b92036bc8a665907cc4d928c", "fusion_lon": 0.0, "lon": -77.0390675, "lat": 38.91405833333334, "is_reserved": 0, "is_disabled": 0, "rental_uris": {"android": "https://dc.lft.to/lastmile_qr_scan", "ios": "https://dc.lft.to/lastmile_qr_scan"}, "name": "7e24b1e1b92036bc8a665907cc4d928c", "type": "electric_scooter"}, {"fusion_lat": 0.0, "bike_id": "44dc6dfc669302447060ea11e3b3dd3f", "fusion_lon": 0.0, "lon": -77.04154516666667, "lat": 38.91813583333333, "is_reserved": 0, "is_disabled": 0, "rental_uris": {"android": "https://dc.lft.to/lastmile_qr_scan", "ios": "https://dc.lft.to/lastmile_qr_scan"}, "name": "44dc6dfc669302447060ea11e3b3dd3f", "type": "electric_scooter"}, {"fusion_lat": 0.0, "bike_id": "35ca279c752d587958fb75f64684cb27", "fusion_lon": 0.0, "lon": -77.019492, "lat": 38.924201333333336, "is_reserved": 0, "is_disabled": 0, "rental_uris": {"android": "https://dc.lft.to/lastmile_qr_scan", "ios": "https://dc.lft.to/lastmile_qr_scan"}, "name": "35ca279c752d587958fb75f64684cb27", "type": "electric_scooter"}, {"fusion_lat": 0.0, "bike_id": "1e558dbd1e855578299d44f3ab21485e", "fusion_lon": 0.0, "lon": -77.00236033333333, "lat": 38.952117, "is_reserved": 0, "is_disabled": 0, "rental_uris": {"android": "https://dc.lft.to/lastmile_qr_scan", "ios": "https://dc.lft.to/lastmile_qr_scan"}, "name": "1e558dbd1e855578299d44f3ab21485e", "type": "electric_scooter"}, {"fusion_lat": 0.0, "bike_id": "4db499070c04310d785de4117c7af95f", "fusion_lon": 0.0, "lon": -77.02924166666666, "lat": 38.89633116666667, "is_reserved": 0, "is_disabled": 0, "rental_uris": {"android": "https://dc.lft.to/lastmile_qr_scan", "ios": "https://dc.lft.to/lastmile_qr_scan"}, "name": "4db499070c04310d785de4117c7af95f", "type": "electric_scooter"}, {"fusion_lat": 0.0, "bike_id": "2042fbf9378a387c3a4b32154db71682", "fusion_lon": 0.0, "lon": -77.0337135, "lat": 38.9215705, "is_reserved": 0, "is_disabled": 0, "rental_uris": {"android": "https://dc.lft.to/lastmile_qr_scan", "ios": "https://dc.lft.to/lastmile_qr_scan"}, "name": "2042fbf9378a387c3a4b32154db71682", "type": "electric_scooter"}, {"fusion_lat": 0.0, "bike_id": "a7b175051d37a818ac3253130cbffcbd", "fusion_lon": 0.0, "lon": -77.0364775, "lat": 38.904647, "is_reserved": 0, "is_disabled": 0, "rental_uris": {"android": "https://dc.lft.to/lastmile_qr_scan", "ios": "https://dc.lft.to/lastmile_qr_scan"}, "name": "a7b175051d37a818ac3253130cbffcbd", "type": "electric_scooter"}, {"fusion_lat": 0.0, "bike_id": "dabfc1e18c7cf7300f0361900e490743", "fusion_lon": 0.0, "lon": -77.03263283333334, "lat": 38.9365265, "is_reserved": 0, "is_disabled": 0, "rental_uris": {"android": "https://dc.lft.to/lastmile_qr_scan", "ios": "https://dc.lft.to/lastmile_qr_scan"}, "name": "dabfc1e18c7cf7300f0361900e490743", "type": "electric_scooter"}, {"fusion_lat": 0.0, "bike_id": "c91b15b3fb5327b8705b33515afb1dc3", "fusion_lon": 0.0, "lon": -77.02715283333333, "lat": 38.91139666666667, "is_reserved": 0, "is_disabled": 0, "rental_uris": {"android": "https://dc.lft.to/lastmile_qr_scan", "ios": "https://dc.lft.to/lastmile_qr_scan"}, "name": "c91b15b3fb5327b8705b33515afb1dc3", "type": "electric_scooter"}, {"fusion_lat": 0.0, "bike_id": "e81021014b4ba32cba16ef033bc3d0f1", "fusion_lon": 0.0, "lon": -77.04677483333333, "lat": 38.894565, "is_reserved": 0, "is_disabled": 0, "rental_uris": {"android": "https://dc.lft.to/lastmile_qr_scan", "ios": "https://dc.lft.to/lastmile_qr_scan"}, "name": "e81021014b4ba32cba16ef033bc3d0f1", "type": "electric_scooter"}, {"fusion_lat": 0.0, "bike_id": "bff413291787cec118d4bbdcd4356dbf", "fusion_lon": 0.0, "lon": -77.04645733333334, "lat": 38.9212255, "is_reserved": 0, "is_disabled": 0, "rental_uris": {"android": "https://dc.lft.to/lastmile_qr_scan", "ios": "https://dc.lft.to/lastmile_qr_scan"}, "name": "bff413291787cec118d4bbdcd4356dbf", "type": "electric_scooter"}, {"fusion_lat": 0.0, "bike_id": "7a0704a2beb58bb0ad5bd4f3c745e6e2", "fusion_lon": 0.0, "lon": -77.04477116666666, "lat": 38.91422166666667, "is_reserved": 0, "is_disabled": 0, "rental_uris": {"android": "https://dc.lft.to/lastmile_qr_scan", "ios": "https://dc.lft.to/lastmile_qr_scan"}, "name": "7a0704a2beb58bb0ad5bd4f3c745e6e2", "type": "electric_scooter"}, {"fusion_lat": 0.0, "bike_id": "a145db959937bca7938c394751305d42", "fusion_lon": 0.0, "lon": -76.94881216666667, "lat": 38.895112166666664, "is_reserved": 0, "is_disabled": 0, "rental_uris": {"android": "https://dc.lft.to/lastmile_qr_scan", "ios": "https://dc.lft.to/lastmile_qr_scan"}, "name": "a145db959937bca7938c394751305d42", "type": "electric_scooter"}, {"fusion_lat": 0.0, "bike_id": "485d2c016200c46f717565825363bd87", "fusion_lon": 0.0, "lon": -77.06101183333334, "lat": 38.93707466666667, "is_reserved": 0, "is_disabled": 0, "rental_uris": {"android": "https://dc.lft.to/lastmile_qr_scan", "ios": "https://dc.lft.to/lastmile_qr_scan"}, "name": "485d2c016200c46f717565825363bd87", "type": "electric_scooter"}, {"fusion_lat": 0.0, "bike_id": "8c81d3b0dbe88049b3058e59a1a03161", "fusion_lon": 0.0, "lon": -77.0129985, "lat": 38.930280333333336, "is_reserved": 0, "is_disabled": 0, "rental_uris": {"android": "https://dc.lft.to/lastmile_qr_scan", "ios": "https://dc.lft.to/lastmile_qr_scan"}, "name": "8c81d3b0dbe88049b3058e59a1a03161", "type": "electric_scooter"}, {"fusion_lat": 0.0, "bike_id": "a1e0c36251854945048139b3a1b0c550", "fusion_lon": 0.0, "lon": -77.023836, "lat": 38.892368166666664, "is_reserved": 0, "is_disabled": 0, "rental_uris": {"android": "https://dc.lft.to/lastmile_qr_scan", "ios": "https://dc.lft.to/lastmile_qr_scan"}, "name": "a1e0c36251854945048139b3a1b0c550", "type": "electric_scooter"}, {"fusion_lat": 0.0, "bike_id": "ae9d8141c596e83d332362a31be705b7", "fusion_lon": 0.0, "lon": -76.94883916666667, "lat": 38.895082, "is_reserved": 0, "is_disabled": 0, "rental_uris": {"android": "https://dc.lft.to/lastmile_qr_scan", "ios": "https://dc.lft.to/lastmile_qr_scan"}, "name": "ae9d8141c596e83d332362a31be705b7", "type": "electric_scooter"}, {"fusion_lat": 0.0, "bike_id": "3c907e05ab7cecbc632cc84704d3080d", "fusion_lon": 0.0, "lon": -77.027729, "lat": 38.89611633333333, "is_reserved": 0, "is_disabled": 0, "rental_uris": {"android": "https://dc.lft.to/lastmile_qr_scan", "ios": "https://dc.lft.to/lastmile_qr_scan"}, "name": "3c907e05ab7cecbc632cc84704d3080d", "type": "electric_scooter"}, {"fusion_lat": 0.0, "bike_id": "d4e311910468a53e27837242bb46b1bc", "fusion_lon": 0.0, "lon": -77.04334, "lat": 38.892219, "is_reserved": 0, "is_disabled": 0, "rental_uris": {"android": "https://dc.lft.to/lastmile_qr_scan", "ios": "https://dc.lft.to/lastmile_qr_scan"}, "name": "d4e311910468a53e27837242bb46b1bc", "type": "electric_scooter"}, {"fusion_lat": 0.0, "bike_id": "fec19c9768b9e0b715fe2a4070e7c6bb", "fusion_lon": 0.0, "lon": -77.04504633333333, "lat": 38.89224016666667, "is_reserved": 0, "is_disabled": 0, "rental_uris": {"android": "https://dc.lft.to/lastmile_qr_scan", "ios": "https://dc.lft.to/lastmile_qr_scan"}, "name": "fec19c9768b9e0b715fe2a4070e7c6bb", "type": "electric_scooter"}, {"fusion_lat": 0.0, "bike_id": "4f26192b44b4d0ba8cf295acb02a13c2", "fusion_lon": 0.0, "lon": -77.04412566666667, "lat": 38.897478166666666, "is_reserved": 0, "is_disabled": 0, "rental_uris": {"android": "https://dc.lft.to/lastmile_qr_scan", "ios": "https://dc.lft.to/lastmile_qr_scan"}, "name": "4f26192b44b4d0ba8cf295acb02a13c2", "type": "electric_scooter"}, {"fusion_lat": 0.0, "bike_id": "ff1e241069f0ac7d2c6d468897dc83f8", "fusion_lon": 0.0, "lon": -77.02446666666667, "lat": 38.91414316666667, "is_reserved": 0, "is_disabled": 0, "rental_uris": {"android": "https://dc.lft.to/lastmile_qr_scan", "ios": "https://dc.lft.to/lastmile_qr_scan"}, "name": "ff1e241069f0ac7d2c6d468897dc83f8", "type": "electric_scooter"}, {"fusion_lat": 0.0, "bike_id": "8a018430f7b8003503958b73c219718d", "fusion_lon": 0.0, "lon": -77.02385266666667, "lat": 38.89810533333333, "is_reserved": 0, "is_disabled": 0, "rental_uris": {"android": "https://dc.lft.to/lastmile_qr_scan", "ios": "https://dc.lft.to/lastmile_qr_scan"}, "name": "8a018430f7b8003503958b73c219718d", "type": "electric_scooter"}, {"fusion_lat": 0.0, "bike_id": "f6837a3903f00339945f25f6c72f647e", "fusion_lon": 0.0, "lon": -76.990577, "lat": 38.8637845, "is_reserved": 0, "is_disabled": 0, "rental_uris": {"android": "https://dc.lft.to/lastmile_qr_scan", "ios": "https://dc.lft.to/lastmile_qr_scan"}, "name": "f6837a3903f00339945f25f6c72f647e", "type": "electric_scooter"}, {"fusion_lat": 0.0, "bike_id": "d298a827519c19771aa86e25c612036f", "fusion_lon": 0.0, "lon": -77.0189145, "lat": 38.9309155, "is_reserved": 0, "is_disabled": 0, "rental_uris": {"android": "https://dc.lft.to/lastmile_qr_scan", "ios": "https://dc.lft.to/lastmile_qr_scan"}, "name": "d298a827519c19771aa86e25c612036f", "type": "electric_scooter"}, {"fusion_lat": 0.0, "bike_id": "c8f246bb80871545e2b264605801ed7d", "fusion_lon": 0.0, "lon": -77.0413025, "lat": 38.901416, "is_reserved": 0, "is_disabled": 0, "rental_uris": {"android": "https://dc.lft.to/lastmile_qr_scan", "ios": "https://dc.lft.to/lastmile_qr_scan"}, "name": "c8f246bb80871545e2b264605801ed7d", "type": "electric_scooter"}, {"fusion_lat": 0.0, "bike_id": "3395f623332a0b0e8b9ab06b4d3182c2", "fusion_lon": 0.0, "lon": -77.02206316666667, "lat": 38.9053105, "is_reserved": 0, "is_disabled": 0, "rental_uris": {"android": "https://dc.lft.to/lastmile_qr_scan", "ios": "https://dc.lft.to/lastmile_qr_scan"}, "name": "3395f623332a0b0e8b9ab06b4d3182c2", "type": "electric_scooter"}, {"fusion_lat": 0.0, "bike_id": "3b566f47a1dea24bd3711ddb25738e28", "fusion_lon": 0.0, "lon": -77.02417666666666, "lat": 38.9182725, "is_reserved": 0, "is_disabled": 0, "rental_uris": {"android": "https://dc.lft.to/lastmile_qr_scan", "ios": "https://dc.lft.to/lastmile_qr_scan"}, "name": "3b566f47a1dea24bd3711ddb25738e28", "type": "electric_scooter"}, {"fusion_lat": 0.0, "bike_id": "5454c330290b6a81f203361aba75842b", "fusion_lon": 0.0, "lon": -77.03503983333333, "lat": 38.921457, "is_reserved": 0, "is_disabled": 0, "rental_uris": {"android": "https://dc.lft.to/lastmile_qr_scan", "ios": "https://dc.lft.to/lastmile_qr_scan"}, "name": "5454c330290b6a81f203361aba75842b", "type": "electric_scooter"}, {"fusion_lat": 0.0, "bike_id": "24a08582313b9c8049d13e6f36745551", "fusion_lon": 0.0, "lon": -76.900793, "lat": 38.887587833333335, "is_reserved": 0, "is_disabled": 0, "rental_uris": {"android": "https://dc.lft.to/lastmile_qr_scan", "ios": "https://dc.lft.to/lastmile_qr_scan"}, "name": "24a08582313b9c8049d13e6f36745551", "type": "electric_bike"}, {"fusion_lat": 0.0, "bike_id": "5137c8750fb27f7a077c6757f4d719bc", "fusion_lon": 0.0, "lon": -77.02224016666666, "lat": 38.8932245, "is_reserved": 0, "is_disabled": 0, "rental_uris": {"android": "https://dc.lft.to/lastmile_qr_scan", "ios": "https://dc.lft.to/lastmile_qr_scan"}, "name": "5137c8750fb27f7a077c6757f4d719bc", "type": "electric_scooter"}, {"fusion_lat": 0.0, "bike_id": "5a7bbb643c8792e6b72337974349af4d", "fusion_lon": 0.0, "lon": -77.02102383333333, "lat": 38.9217495, "is_reserved": 0, "is_disabled": 0, "rental_uris": {"android": "https://dc.lft.to/lastmile_qr_scan", "ios": "https://dc.lft.to/lastmile_qr_scan"}, "name": "5a7bbb643c8792e6b72337974349af4d", "type": "electric_scooter"}, {"fusion_lat": 0.0, "bike_id": "de612716fa645362f95af5b6bea7aefa", "fusion_lon": 0.0, "lon": -77.03506033333333, "lat": 38.921557, "is_reserved": 0, "is_disabled": 0, "rental_uris": {"android": "https://dc.lft.to/lastmile_qr_scan", "ios": "https://dc.lft.to/lastmile_qr_scan"}, "name": "de612716fa645362f95af5b6bea7aefa", "type": "electric_scooter"}, {"fusion_lat": 0.0, "bike_id": "03b0fca96a35f7306fb0f39f098d9e0b", "fusion_lon": 0.0, "lon": -77.044789, "lat": 38.90537966666667, "is_reserved": 0, "is_disabled": 0, "rental_uris": {"android": "https://dc.lft.to/lastmile_qr_scan", "ios": "https://dc.lft.to/lastmile_qr_scan"}, "name": "03b0fca96a35f7306fb0f39f098d9e0b", "type": "electric_scooter"}, {"fusion_lat": 0.0, "bike_id": "a4f89cc73c7998639ae161951f505d6d", "fusion_lon": 0.0, "lon": -77.04116933333333, "lat": 38.91051183333333, "is_reserved": 0, "is_disabled": 0, "rental_uris": {"android": "https://dc.lft.to/lastmile_qr_scan", "ios": "https://dc.lft.to/lastmile_qr_scan"}, "name": "a4f89cc73c7998639ae161951f505d6d", "type": "electric_scooter"}, {"fusion_lat": 0.0, "bike_id": "0e4f7762b14de31e673604ff81bcf88b", "fusion_lon": 0.0, "lon": -77.01498433333333, "lat": 38.89221833333333, "is_reserved": 0, "is_disabled": 0, "rental_uris": {"android": "https://dc.lft.to/lastmile_qr_scan", "ios": "https://dc.lft.to/lastmile_qr_scan"}, "name": "0e4f7762b14de31e673604ff81bcf88b", "type": "electric_scooter"}, {"fusion_lat": 0.0, "bike_id": "14c9766466adf1ef0d2b13841671d733", "fusion_lon": 0.0, "lon": -77.03219266666666, "lat": 38.892244166666664, "is_reserved": 0, "is_disabled": 0, "rental_uris": {"android": "https://dc.lft.to/lastmile_qr_scan", "ios": "https://dc.lft.to/lastmile_qr_scan"}, "name": "14c9766466adf1ef0d2b13841671d733", "type": "electric_scooter"}, {"fusion_lat": 0.0, "bike_id": "8cec1ee487219d8582b9adfc49d28664", "fusion_lon": 0.0, "lon": -76.9302895, "lat": 38.900110833333336, "is_reserved": 0, "is_disabled": 0, "rental_uris": {"android": "https://dc.lft.to/lastmile_qr_scan", "ios": "https://dc.lft.to/lastmile_qr_scan"}, "name": "8cec1ee487219d8582b9adfc49d28664", "type": "electric_scooter"}, {"fusion_lat": 0.0, "bike_id": "320c03f3c930a5669356b1703a058504", "fusion_lon": 0.0, "lon": -77.04865616666666, "lat": 38.906424, "is_reserved": 0, "is_disabled": 0, "rental_uris": {"android": "https://dc.lft.to/lastmile_qr_scan", "ios": "https://dc.lft.to/lastmile_qr_scan"}, "name": "320c03f3c930a5669356b1703a058504", "type": "electric_scooter"}, {"fusion_lat": 0.0, "bike_id": "08e319bf6b068f4b7d9c46b05d7ff898", "fusion_lon": 0.0, "lon": -77.06935766666666, "lat": 38.95207816666667, "is_reserved": 0, "is_disabled": 0, "rental_uris": {"android": "https://dc.lft.to/lastmile_qr_scan", "ios": "https://dc.lft.to/lastmile_qr_scan"}, "name": "08e319bf6b068f4b7d9c46b05d7ff898", "type": "electric_scooter"}, {"fusion_lat": 0.0, "bike_id": "f1b19c80989547b8d370118e7c5bd992", "fusion_lon": 0.0, "lon": -77.02585033333334, "lat": 38.903485, "is_reserved": 0, "is_disabled": 0, "rental_uris": {"android": "https://dc.lft.to/lastmile_qr_scan", "ios": "https://dc.lft.to/lastmile_qr_scan"}, "name": "f1b19c80989547b8d370118e7c5bd992", "type": "electric_scooter"}, {"fusion_lat": 0.0, "bike_id": "0ee7fb97adb2c19035952e6d40396dd6", "fusion_lon": 0.0, "lon": -77.02816066666666, "lat": 38.9317175, "is_reserved": 0, "is_disabled": 0, "rental_uris": {"android": "https://dc.lft.to/lastmile_qr_scan", "ios": "https://dc.lft.to/lastmile_qr_scan"}, "name": "0ee7fb97adb2c19035952e6d40396dd6", "type": "electric_scooter"}, {"fusion_lat": 0.0, "bike_id": "d1445ef0ff32b0f4d1a9a142948e252b", "fusion_lon": 0.0, "lon": -77.0302775, "lat": 38.917026166666666, "is_reserved": 0, "is_disabled": 0, "rental_uris": {"android": "https://dc.lft.to/lastmile_qr_scan", "ios": "https://dc.lft.to/lastmile_qr_scan"}, "name": "d1445ef0ff32b0f4d1a9a142948e252b", "type": "electric_scooter"}, {"fusion_lat": 0.0, "bike_id": "ed3cba6712ce289b34c6081829322985", "fusion_lon": 0.0, "lon": -77.05501533333333, "lat": 38.92980033333333, "is_reserved": 0, "is_disabled": 0, "rental_uris": {"android": "https://dc.lft.to/lastmile_qr_scan", "ios": "https://dc.lft.to/lastmile_qr_scan"}, "name": "ed3cba6712ce289b34c6081829322985", "type": "electric_scooter"}, {"fusion_lat": 0.0, "bike_id": "b224e0842ebdca54988f146b4be18a2c", "fusion_lon": 0.0, "lon": -77.04410416666667, "lat": 38.90022166666667, "is_reserved": 0, "is_disabled": 0, "rental_uris": {"android": "https://dc.lft.to/lastmile_qr_scan", "ios": "https://dc.lft.to/lastmile_qr_scan"}, "name": "b224e0842ebdca54988f146b4be18a2c", "type": "electric_scooter"}, {"fusion_lat": 0.0, "bike_id": "0c74a4dae316061724b61ebf6ca3a9d8", "fusion_lon": 0.0, "lon": -77.032742, "lat": 38.9199365, "is_reserved": 0, "is_disabled": 0, "rental_uris": {"android": "https://dc.lft.to/lastmile_qr_scan", "ios": "https://dc.lft.to/lastmile_qr_scan"}, "name": "0c74a4dae316061724b61ebf6ca3a9d8", "type": "electric_scooter"}, {"fusion_lat": 0.0, "bike_id": "1b812e809c80e372cd51d05d7d877c5d", "fusion_lon": 0.0, "lon": -77.0323755, "lat": 38.90451083333333, "is_reserved": 0, "is_disabled": 0, "rental_uris": {"android": "https://dc.lft.to/lastmile_qr_scan", "ios": "https://dc.lft.to/lastmile_qr_scan"}, "name": "1b812e809c80e372cd51d05d7d877c5d", "type": "electric_scooter"}, {"fusion_lat": 0.0, "bike_id": "811754b0786e05ff4661157978cef6cc", "fusion_lon": 0.0, "lon": -77.01408116666667, "lat": 38.91481066666667, "is_reserved": 0, "is_disabled": 0, "rental_uris": {"android": "https://dc.lft.to/lastmile_qr_scan", "ios": "https://dc.lft.to/lastmile_qr_scan"}, "name": "811754b0786e05ff4661157978cef6cc", "type": "electric_scooter"}, {"fusion_lat": 0.0, "bike_id": "05e2c8c71b23cc8e9a4ec493b65c1fe3", "fusion_lon": 0.0, "lon": -77.03178716666666, "lat": 38.91402216666667, "is_reserved": 0, "is_disabled": 0, "rental_uris": {"android": "https://dc.lft.to/lastmile_qr_scan", "ios": "https://dc.lft.to/lastmile_qr_scan"}, "name": "05e2c8c71b23cc8e9a4ec493b65c1fe3", "type": "electric_scooter"}, {"fusion_lat": 0.0, "bike_id": "8f9f0211ea6f1eaa2917433810325e87", "fusion_lon": 0.0, "lon": -77.02840916666666, "lat": 38.925797333333335, "is_reserved": 0, "is_disabled": 0, "rental_uris": {"android": "https://dc.lft.to/lastmile_qr_scan", "ios": "https://dc.lft.to/lastmile_qr_scan"}, "name": "8f9f0211ea6f1eaa2917433810325e87", "type": "electric_scooter"}, {"fusion_lat": 0.0, "bike_id": "5382d4e2024a08aeee38a254623d3fb2", "fusion_lon": 0.0, "lon": -77.112846, "lat": 39.047556, "is_reserved": 0, "is_disabled": 0, "rental_uris": {"android": "https://dc.lft.to/lastmile_qr_scan", "ios": "https://dc.lft.to/lastmile_qr_scan"}, "name": "5382d4e2024a08aeee38a254623d3fb2", "type": "electric_bike"}, {"fusion_lat": 0.0, "bike_id": "5d12622a72ba3dd82212a2d44e43cb75", "fusion_lon": 0.0, "lon": -77.03234416666666, "lat": 38.89629583333333, "is_reserved": 0, "is_disabled": 0, "rental_uris": {"android": "https://dc.lft.to/lastmile_qr_scan", "ios": "https://dc.lft.to/lastmile_qr_scan"}, "name": "5d12622a72ba3dd82212a2d44e43cb75", "type": "electric_scooter"}, {"fusion_lat": 0.0, "bike_id": "840aeffce6cb60b12fb01d7cce610af6", "fusion_lon": 0.0, "lon": -77.05109833333333, "lat": 38.90188033333333, "is_reserved": 0, "is_disabled": 0, "rental_uris": {"android": "https://dc.lft.to/lastmile_qr_scan", "ios": "https://dc.lft.to/lastmile_qr_scan"}, "name": "840aeffce6cb60b12fb01d7cce610af6", "type": "electric_scooter"}, {"fusion_lat": 0.0, "bike_id": "12a50a1690deb6e8f1562d03bea7ecbc", "fusion_lon": 0.0, "lon": -77.02056166666667, "lat": 38.9236635, "is_reserved": 0, "is_disabled": 0, "rental_uris": {"android": "https://dc.lft.to/lastmile_qr_scan", "ios": "https://dc.lft.to/lastmile_qr_scan"}, "name": "12a50a1690deb6e8f1562d03bea7ecbc", "type": "electric_scooter"}, {"fusion_lat": 0.0, "bike_id": "f21a3659f753440c2e1971af0b7b0bc5", "fusion_lon": 0.0, "lon": -77.02485066666667, "lat": 38.917034, "is_reserved": 0, "is_disabled": 0, "rental_uris": {"android": "https://dc.lft.to/lastmile_qr_scan", "ios": "https://dc.lft.to/lastmile_qr_scan"}, "name": "f21a3659f753440c2e1971af0b7b0bc5", "type": "electric_scooter"}, {"fusion_lat": 0.0, "bike_id": "53b45dd09a3bdea441f90f8415d6c1ff", "fusion_lon": 0.0, "lon": -77.067091, "lat": 38.91439666666667, "is_reserved": 0, "is_disabled": 0, "rental_uris": {"android": "https://dc.lft.to/lastmile_qr_scan", "ios": "https://dc.lft.to/lastmile_qr_scan"}, "name": "53b45dd09a3bdea441f90f8415d6c1ff", "type": "electric_scooter"}, {"fusion_lat": 0.0, "bike_id": "cf1c907414e62a9d40cd26f4727e23ca", "fusion_lon": 0.0, "lon": -76.96089483333333, "lat": 38.91862483333333, "is_reserved": 0, "is_disabled": 0, "rental_uris": {"android": "https://dc.lft.to/lastmile_qr_scan", "ios": "https://dc.lft.to/lastmile_qr_scan"}, "name": "cf1c907414e62a9d40cd26f4727e23ca", "type": "electric_bike"}, {"fusion_lat": 0.0, "bike_id": "092040c83bbca575a45aa3bc327538a0", "fusion_lon": 0.0, "lon": -77.02383633333334, "lat": 38.8923665, "is_reserved": 0, "is_disabled": 0, "rental_uris": {"android": "https://dc.lft.to/lastmile_qr_scan", "ios": "https://dc.lft.to/lastmile_qr_scan"}, "name": "092040c83bbca575a45aa3bc327538a0", "type": "electric_scooter"}, {"fusion_lat": 0.0, "bike_id": "3dedb42a22bdac3ad3fa93fc90c870b7", "fusion_lon": 0.0, "lon": -77.0352865, "lat": 38.9069385, "is_reserved": 0, "is_disabled": 0, "rental_uris": {"android": "https://dc.lft.to/lastmile_qr_scan", "ios": "https://dc.lft.to/lastmile_qr_scan"}, "name": "3dedb42a22bdac3ad3fa93fc90c870b7", "type": "electric_scooter"}, {"fusion_lat": 0.0, "bike_id": "542d6e66eee8c7f926b79d12105fba89", "fusion_lon": 0.0, "lon": -77.07223883333333, "lat": 38.96812833333333, "is_reserved": 0, "is_disabled": 0, "rental_uris": {"android": "https://dc.lft.to/lastmile_qr_scan", "ios": "https://dc.lft.to/lastmile_qr_scan"}, "name": "542d6e66eee8c7f926b79d12105fba89", "type": "electric_bike"}, {"fusion_lat": 0.0, "bike_id": "982ccb1bf646164f7a06e2ce722abf11", "fusion_lon": 0.0, "lon": -77.048693, "lat": 38.892292166666664, "is_reserved": 0, "is_disabled": 0, "rental_uris": {"android": "https://dc.lft.to/lastmile_qr_scan", "ios": "https://dc.lft.to/lastmile_qr_scan"}, "name": "982ccb1bf646164f7a06e2ce722abf11", "type": "electric_scooter"}, {"fusion_lat": 0.0, "bike_id": "f1d17109362fc501efeba3d34eef03bf", "fusion_lon": 0.0, "lon": -77.0181505, "lat": 38.92217016666667, "is_reserved": 0, "is_disabled": 0, "rental_uris": {"android": "https://dc.lft.to/lastmile_qr_scan", "ios": "https://dc.lft.to/lastmile_qr_scan"}, "name": "f1d17109362fc501efeba3d34eef03bf", "type": "electric_scooter"}, {"fusion_lat": 0.0, "bike_id": "91ab5adbd3b0527954ed45c22c57fd6a", "fusion_lon": 0.0, "lon": -77.0344495, "lat": 38.909483333333334, "is_reserved": 0, "is_disabled": 0, "rental_uris": {"android": "https://dc.lft.to/lastmile_qr_scan", "ios": "https://dc.lft.to/lastmile_qr_scan"}, "name": "91ab5adbd3b0527954ed45c22c57fd6a", "type": "electric_scooter"}, {"fusion_lat": 0.0, "bike_id": "310531f436f78fc0553fade185bb09ea", "fusion_lon": 0.0, "lon": -77.01106283333333, "lat": 38.897997833333335, "is_reserved": 0, "is_disabled": 0, "rental_uris": {"android": "https://dc.lft.to/lastmile_qr_scan", "ios": "https://dc.lft.to/lastmile_qr_scan"}, "name": "310531f436f78fc0553fade185bb09ea", "type": "electric_scooter"}, {"fusion_lat": 0.0, "bike_id": "3998f2ded15c11c4da35f0a939e1fa0c", "fusion_lon": 0.0, "lon": -77.04565866666667, "lat": 38.921228666666664, "is_reserved": 0, "is_disabled": 0, "rental_uris": {"android": "https://dc.lft.to/lastmile_qr_scan", "ios": "https://dc.lft.to/lastmile_qr_scan"}, "name": "3998f2ded15c11c4da35f0a939e1fa0c", "type": "electric_scooter"}, {"fusion_lat": 0.0, "bike_id": "7dcb5a79465dc2127253fb85261b1e64", "fusion_lon": 0.0, "lon": -77.03379033333333, "lat": 38.9216225, "is_reserved": 0, "is_disabled": 0, "rental_uris": {"android": "https://dc.lft.to/lastmile_qr_scan", "ios": "https://dc.lft.to/lastmile_qr_scan"}, "name": "7dcb5a79465dc2127253fb85261b1e64", "type": "electric_scooter"}, {"fusion_lat": 0.0, "bike_id": "b49bec5b3a387fd71eb994df5ba1ffab", "fusion_lon": 0.0, "lon": -77.0176645, "lat": 38.887316166666665, "is_reserved": 0, "is_disabled": 0, "rental_uris": {"android": "https://dc.lft.to/lastmile_qr_scan", "ios": "https://dc.lft.to/lastmile_qr_scan"}, "name": "b49bec5b3a387fd71eb994df5ba1ffab", "type": "electric_scooter"}, {"fusion_lat": 0.0, "bike_id": "4867adf78594d94665facefb0137575c", "fusion_lon": 0.0, "lon": -77.03608566666666, "lat": 38.936836666666665, "is_reserved": 0, "is_disabled": 0, "rental_uris": {"android": "https://dc.lft.to/lastmile_qr_scan", "ios": "https://dc.lft.to/lastmile_qr_scan"}, "name": "4867adf78594d94665facefb0137575c", "type": "electric_scooter"}, {"fusion_lat": 0.0, "bike_id": "ed34da21daacce9dbd35c5dded9c9e2c", "fusion_lon": 0.0, "lon": -76.9761945, "lat": 38.90382133333333, "is_reserved": 0, "is_disabled": 0, "rental_uris": {"android": "https://dc.lft.to/lastmile_qr_scan", "ios": "https://dc.lft.to/lastmile_qr_scan"}, "name": "ed34da21daacce9dbd35c5dded9c9e2c", "type": "electric_scooter"}, {"fusion_lat": 0.0, "bike_id": "3e4f0329264ed862dd728eeddb83c8c7", "fusion_lon": 0.0, "lon": -77.01277266666666, "lat": 38.89232283333333, "is_reserved": 0, "is_disabled": 0, "rental_uris": {"android": "https://dc.lft.to/lastmile_qr_scan", "ios": "https://dc.lft.to/lastmile_qr_scan"}, "name": "3e4f0329264ed862dd728eeddb83c8c7", "type": "electric_scooter"}, {"fusion_lat": 0.0, "bike_id": "975aee3fe6fb0a9acfd0ce2b32b2f07d", "fusion_lon": 0.0, "lon": -77.04493583333333, "lat": 38.905043, "is_reserved": 0, "is_disabled": 0, "rental_uris": {"android": "https://dc.lft.to/lastmile_qr_scan", "ios": "https://dc.lft.to/lastmile_qr_scan"}, "name": "975aee3fe6fb0a9acfd0ce2b32b2f07d", "type": "electric_scooter"}, {"fusion_lat": 0.0, "bike_id": "643c55d4f92d992633abcc6ea622961c", "fusion_lon": 0.0, "lon": -77.03414933333333, "lat": 38.9227275, "is_reserved": 0, "is_disabled": 0, "rental_uris": {"android": "https://dc.lft.to/lastmile_qr_scan", "ios": "https://dc.lft.to/lastmile_qr_scan"}, "name": "643c55d4f92d992633abcc6ea622961c", "type": "electric_scooter"}, {"fusion_lat": 0.0, "bike_id": "ee234b6dc3eecc4e9dcddce3f77419ff", "fusion_lon": 0.0, "lon": -77.022099, "lat": 38.89290366666667, "is_reserved": 0, "is_disabled": 0, "rental_uris": {"android": "https://dc.lft.to/lastmile_qr_scan", "ios": "https://dc.lft.to/lastmile_qr_scan"}, "name": "ee234b6dc3eecc4e9dcddce3f77419ff", "type": "electric_scooter"}, {"fusion_lat": 0.0, "bike_id": "9d0363194fa7ef00923bd982bd9c6273", "fusion_lon": 0.0, "lon": -77.02178933333333, "lat": 38.898938666666666, "is_reserved": 0, "is_disabled": 0, "rental_uris": {"android": "https://dc.lft.to/lastmile_qr_scan", "ios": "https://dc.lft.to/lastmile_qr_scan"}, "name": "9d0363194fa7ef00923bd982bd9c6273", "type": "electric_scooter"}, {"fusion_lat": 0.0, "bike_id": "e6f94e198a5ebbbcadc9126655ce9923", "fusion_lon": 0.0, "lon": -77.0222315, "lat": 38.93552866666667, "is_reserved": 0, "is_disabled": 0, "rental_uris": {"android": "https://dc.lft.to/lastmile_qr_scan", "ios": "https://dc.lft.to/lastmile_qr_scan"}, "name": "e6f94e198a5ebbbcadc9126655ce9923", "type": "electric_scooter"}, {"fusion_lat": 0.0, "bike_id": "79b943c4c00f033cada5ce477f9b95dc", "fusion_lon": 0.0, "lon": -77.01676266666666, "lat": 38.8812255, "is_reserved": 0, "is_disabled": 0, "rental_uris": {"android": "https://dc.lft.to/lastmile_qr_scan", "ios": "https://dc.lft.to/lastmile_qr_scan"}, "name": "79b943c4c00f033cada5ce477f9b95dc", "type": "electric_bike"}, {"fusion_lat": 0.0, "bike_id": "be40f21e04ce0135580bf379d6a72b1e", "fusion_lon": 0.0, "lon": -77.00949366666667, "lat": 38.8976195, "is_reserved": 0, "is_disabled": 0, "rental_uris": {"android": "https://dc.lft.to/lastmile_qr_scan", "ios": "https://dc.lft.to/lastmile_qr_scan"}, "name": "be40f21e04ce0135580bf379d6a72b1e", "type": "electric_scooter"}, {"fusion_lat": 0.0, "bike_id": "1271ce5d3764750fe024318bb0b94bfb", "fusion_lon": 0.0, "lon": -77.04568516666667, "lat": 38.90240166666667, "is_reserved": 0, "is_disabled": 0, "rental_uris": {"android": "https://dc.lft.to/lastmile_qr_scan", "ios": "https://dc.lft.to/lastmile_qr_scan"}, "name": "1271ce5d3764750fe024318bb0b94bfb", "type": "electric_scooter"}, {"fusion_lat": 0.0, "bike_id": "7795ba6b2d569cabe58033194a40793a", "fusion_lon": 0.0, "lon": -76.99055716666666, "lat": 38.863762666666666, "is_reserved": 0, "is_disabled": 0, "rental_uris": {"android": "https://dc.lft.to/lastmile_qr_scan", "ios": "https://dc.lft.to/lastmile_qr_scan"}, "name": "7795ba6b2d569cabe58033194a40793a", "type": "electric_scooter"}, {"fusion_lat": 0.0, "bike_id": "415830493549f0140bf122f096be9bd5", "fusion_lon": 0.0, "lon": -77.03381316666666, "lat": 38.9026865, "is_reserved": 0, "is_disabled": 0, "rental_uris": {"android": "https://dc.lft.to/lastmile_qr_scan", "ios": "https://dc.lft.to/lastmile_qr_scan"}, "name": "415830493549f0140bf122f096be9bd5", "type": "electric_scooter"}, {"fusion_lat": 0.0, "bike_id": "74165cdffde090cc6ba8bf81ff93240c", "fusion_lon": 0.0, "lon": -77.02725133333334, "lat": 38.896538166666666, "is_reserved": 0, "is_disabled": 0, "rental_uris": {"android": "https://dc.lft.to/lastmile_qr_scan", "ios": "https://dc.lft.to/lastmile_qr_scan"}, "name": "74165cdffde090cc6ba8bf81ff93240c", "type": "electric_scooter"}, {"fusion_lat": 0.0, "bike_id": "9766f6a54764640d96eebb3e07eed3c0", "fusion_lon": 0.0, "lon": -77.0318565, "lat": 38.896246166666664, "is_reserved": 0, "is_disabled": 0, "rental_uris": {"android": "https://dc.lft.to/lastmile_qr_scan", "ios": "https://dc.lft.to/lastmile_qr_scan"}, "name": "9766f6a54764640d96eebb3e07eed3c0", "type": "electric_scooter"}, {"fusion_lat": 0.0, "bike_id": "709c8b9f4a5e4169cd863ec14662ec21", "fusion_lon": 0.0, "lon": -77.03674116666667, "lat": 38.92274833333333, "is_reserved": 0, "is_disabled": 0, "rental_uris": {"android": "https://dc.lft.to/lastmile_qr_scan", "ios": "https://dc.lft.to/lastmile_qr_scan"}, "name": "709c8b9f4a5e4169cd863ec14662ec21", "type": "electric_scooter"}, {"fusion_lat": 0.0, "bike_id": "f9f54d9b1de0fe82df7f0920fa99a869", "fusion_lon": 0.0, "lon": -76.99949, "lat": 38.919239, "is_reserved": 0, "is_disabled": 0, "rental_uris": {"android": "https://dc.lft.to/lastmile_qr_scan", "ios": "https://dc.lft.to/lastmile_qr_scan"}, "name": "f9f54d9b1de0fe82df7f0920fa99a869", "type": "electric_scooter"}, {"fusion_lat": 0.0, "bike_id": "34a19be4ac02599e0cf3555170817d47", "fusion_lon": 0.0, "lon": -76.997321, "lat": 39.042330666666665, "is_reserved": 0, "is_disabled": 0, "rental_uris": {"android": "https://dc.lft.to/lastmile_qr_scan", "ios": "https://dc.lft.to/lastmile_qr_scan"}, "name": "34a19be4ac02599e0cf3555170817d47", "type": "electric_bike"}, {"fusion_lat": 0.0, "bike_id": "4ff612220b91dd6395d31dd67e435705", "fusion_lon": 0.0, "lon": -77.03461766666666, "lat": 38.90727366666667, "is_reserved": 0, "is_disabled": 0, "rental_uris": {"android": "https://dc.lft.to/lastmile_qr_scan", "ios": "https://dc.lft.to/lastmile_qr_scan"}, "name": "4ff612220b91dd6395d31dd67e435705", "type": "electric_scooter"}, {"fusion_lat": 0.0, "bike_id": "4960373ab8cf1f5743e0edc8f1d6fa64", "fusion_lon": 0.0, "lon": -77.019528, "lat": 38.92325666666667, "is_reserved": 0, "is_disabled": 0, "rental_uris": {"android": "https://dc.lft.to/lastmile_qr_scan", "ios": "https://dc.lft.to/lastmile_qr_scan"}, "name": "4960373ab8cf1f5743e0edc8f1d6fa64", "type": "electric_scooter"}, {"fusion_lat": 0.0, "bike_id": "722bb3f5610df3d583e62754b7b31930", "fusion_lon": 0.0, "lon": -77.04152883333333, "lat": 38.908388333333335, "is_reserved": 0, "is_disabled": 0, "rental_uris": {"android": "https://dc.lft.to/lastmile_qr_scan", "ios": "https://dc.lft.to/lastmile_qr_scan"}, "name": "722bb3f5610df3d583e62754b7b31930", "type": "electric_scooter"}, {"fusion_lat": 0.0, "bike_id": "06685a10aabed282063c084605eaa8bd", "fusion_lon": 0.0, "lon": -77.037315, "lat": 38.9057155, "is_reserved": 0, "is_disabled": 0, "rental_uris": {"android": "https://dc.lft.to/lastmile_qr_scan", "ios": "https://dc.lft.to/lastmile_qr_scan"}, "name": "06685a10aabed282063c084605eaa8bd", "type": "electric_scooter"}, {"fusion_lat": 0.0, "bike_id": "bee00a331d7e1e69d6311b786b6176bb", "fusion_lon": 0.0, "lon": -77.00691633333334, "lat": 38.909145, "is_reserved": 0, "is_disabled": 0, "rental_uris": {"android": "https://dc.lft.to/lastmile_qr_scan", "ios": "https://dc.lft.to/lastmile_qr_scan"}, "name": "bee00a331d7e1e69d6311b786b6176bb", "type": "electric_scooter"}, {"fusion_lat": 0.0, "bike_id": "27f9fa5f0cfb16928b7c98a5d97be6b3", "fusion_lon": 0.0, "lon": -77.04346433333333, "lat": 38.91041233333333, "is_reserved": 0, "is_disabled": 0, "rental_uris": {"android": "https://dc.lft.to/lastmile_qr_scan", "ios": "https://dc.lft.to/lastmile_qr_scan"}, "name": "27f9fa5f0cfb16928b7c98a5d97be6b3", "type": "electric_scooter"}, {"fusion_lat": 0.0, "bike_id": "eb018049dba9a53e0b6f3cccb4b7fee1", "fusion_lon": 0.0, "lon": -77.02400133333333, "lat": 38.88284783333334, "is_reserved": 0, "is_disabled": 0, "rental_uris": {"android": "https://dc.lft.to/lastmile_qr_scan", "ios": "https://dc.lft.to/lastmile_qr_scan"}, "name": "eb018049dba9a53e0b6f3cccb4b7fee1", "type": "electric_scooter"}, {"fusion_lat": 0.0, "bike_id": "62630ab32b12fe98eb0d8a5600673809", "fusion_lon": 0.0, "lon": -77.02399083333333, "lat": 38.907888666666665, "is_reserved": 0, "is_disabled": 0, "rental_uris": {"android": "https://dc.lft.to/lastmile_qr_scan", "ios": "https://dc.lft.to/lastmile_qr_scan"}, "name": "62630ab32b12fe98eb0d8a5600673809", "type": "electric_scooter"}, {"fusion_lat": 0.0, "bike_id": "984c0373b00cd4eb1ce961c48993ad41", "fusion_lon": 0.0, "lon": -77.01192433333334, "lat": 38.896804, "is_reserved": 0, "is_disabled": 0, "rental_uris": {"android": "https://dc.lft.to/lastmile_qr_scan", "ios": "https://dc.lft.to/lastmile_qr_scan"}, "name": "984c0373b00cd4eb1ce961c48993ad41", "type": "electric_scooter"}, {"fusion_lat": 0.0, "bike_id": "a627e5f3b2399aaabb29988abffef25a", "fusion_lon": 0.0, "lon": -77.039958, "lat": 38.908513666666664, "is_reserved": 0, "is_disabled": 0, "rental_uris": {"android": "https://dc.lft.to/lastmile_qr_scan", "ios": "https://dc.lft.to/lastmile_qr_scan"}, "name": "a627e5f3b2399aaabb29988abffef25a", "type": "electric_scooter"}, {"fusion_lat": 0.0, "bike_id": "d88efa0a4403c5abcd984addc659e75f", "fusion_lon": 0.0, "lon": -77.028202, "lat": 38.950854, "is_reserved": 0, "is_disabled": 0, "rental_uris": {"android": "https://dc.lft.to/lastmile_qr_scan", "ios": "https://dc.lft.to/lastmile_qr_scan"}, "name": "d88efa0a4403c5abcd984addc659e75f", "type": "electric_scooter"}, {"fusion_lat": 0.0, "bike_id": "d8141697b8acaa79982c91ee7390df73", "fusion_lon": 0.0, "lon": -77.00342366666666, "lat": 38.91101416666667, "is_reserved": 0, "is_disabled": 0, "rental_uris": {"android": "https://dc.lft.to/lastmile_qr_scan", "ios": "https://dc.lft.to/lastmile_qr_scan"}, "name": "d8141697b8acaa79982c91ee7390df73", "type": "electric_scooter"}, {"fusion_lat": 0.0, "bike_id": "adff64230aa4b0374cdf2def9b1f7988", "fusion_lon": 0.0, "lon": -76.94981583333333, "lat": 38.893715666666665, "is_reserved": 0, "is_disabled": 0, "rental_uris": {"android": "https://dc.lft.to/lastmile_qr_scan", "ios": "https://dc.lft.to/lastmile_qr_scan"}, "name": "adff64230aa4b0374cdf2def9b1f7988", "type": "electric_scooter"}, {"fusion_lat": 0.0, "bike_id": "003b670737f8be599059ec4bf7cb3b7f", "fusion_lon": 0.0, "lon": -76.935345, "lat": 38.8968265, "is_reserved": 0, "is_disabled": 0, "rental_uris": {"android": "https://dc.lft.to/lastmile_qr_scan", "ios": "https://dc.lft.to/lastmile_qr_scan"}, "name": "003b670737f8be599059ec4bf7cb3b7f", "type": "electric_scooter"}, {"fusion_lat": 0.0, "bike_id": "0d339d8c6e1466248f38fac77eccfc78", "fusion_lon": 0.0, "lon": -77.02587166666666, "lat": 38.892556666666664, "is_reserved": 0, "is_disabled": 0, "rental_uris": {"android": "https://dc.lft.to/lastmile_qr_scan", "ios": "https://dc.lft.to/lastmile_qr_scan"}, "name": "0d339d8c6e1466248f38fac77eccfc78", "type": "electric_scooter"}, {"fusion_lat": 0.0, "bike_id": "d47f1c1e83656e28401e943bb1552b3f", "fusion_lon": 0.0, "lon": -77.03916233333334, "lat": 38.92577883333333, "is_reserved": 0, "is_disabled": 0, "rental_uris": {"android": "https://dc.lft.to/lastmile_qr_scan", "ios": "https://dc.lft.to/lastmile_qr_scan"}, "name": "d47f1c1e83656e28401e943bb1552b3f", "type": "electric_scooter"}, {"fusion_lat": 0.0, "bike_id": "f32a44a6eec24d0891e10e36a6565549", "fusion_lon": 0.0, "lon": -77.09962216666666, "lat": 38.85789533333333, "is_reserved": 0, "is_disabled": 0, "rental_uris": {"android": "https://dc.lft.to/lastmile_qr_scan", "ios": "https://dc.lft.to/lastmile_qr_scan"}, "name": "f32a44a6eec24d0891e10e36a6565549", "type": "electric_bike"}, {"fusion_lat": 0.0, "bike_id": "a383c856af73357b0820a479913f84d3", "fusion_lon": 0.0, "lon": -77.03219616666667, "lat": 38.904275166666665, "is_reserved": 0, "is_disabled": 0, "rental_uris": {"android": "https://dc.lft.to/lastmile_qr_scan", "ios": "https://dc.lft.to/lastmile_qr_scan"}, "name": "a383c856af73357b0820a479913f84d3", "type": "electric_scooter"}, {"fusion_lat": 0.0, "bike_id": "fd693048601f014f1885d7373c6bca69", "fusion_lon": 0.0, "lon": -77.03513116666667, "lat": 38.92199183333334, "is_reserved": 0, "is_disabled": 0, "rental_uris": {"android": "https://dc.lft.to/lastmile_qr_scan", "ios": "https://dc.lft.to/lastmile_qr_scan"}, "name": "fd693048601f014f1885d7373c6bca69", "type": "electric_scooter"}, {"fusion_lat": 0.0, "bike_id": "0f62fa3d7798fd4d0f50c81f02881fe8", "fusion_lon": 0.0, "lon": -77.048677, "lat": 38.90524816666667, "is_reserved": 0, "is_disabled": 0, "rental_uris": {"android": "https://dc.lft.to/lastmile_qr_scan", "ios": "https://dc.lft.to/lastmile_qr_scan"}, "name": "0f62fa3d7798fd4d0f50c81f02881fe8", "type": "electric_scooter"}, {"fusion_lat": 0.0, "bike_id": "bfb891d7967f5032fd06f231751b3666", "fusion_lon": 0.0, "lon": -77.02425983333333, "lat": 38.926583, "is_reserved": 0, "is_disabled": 0, "rental_uris": {"android": "https://dc.lft.to/lastmile_qr_scan", "ios": "https://dc.lft.to/lastmile_qr_scan"}, "name": "bfb891d7967f5032fd06f231751b3666", "type": "electric_scooter"}, {"fusion_lat": 0.0, "bike_id": "dbd8b298ab6eae96f21fc51725eb7a2e", "fusion_lon": 0.0, "lon": -77.04867366666667, "lat": 38.90648683333333, "is_reserved": 0, "is_disabled": 0, "rental_uris": {"android": "https://dc.lft.to/lastmile_qr_scan", "ios": "https://dc.lft.to/lastmile_qr_scan"}, "name": "dbd8b298ab6eae96f21fc51725eb7a2e", "type": "electric_scooter"}, {"fusion_lat": 0.0, "bike_id": "7b4597760c99c8168b801e35f5e0fa7e", "fusion_lon": 0.0, "lon": -77.0276285, "lat": 38.934659833333335, "is_reserved": 0, "is_disabled": 0, "rental_uris": {"android": "https://dc.lft.to/lastmile_qr_scan", "ios": "https://dc.lft.to/lastmile_qr_scan"}, "name": "7b4597760c99c8168b801e35f5e0fa7e", "type": "electric_scooter"}, {"fusion_lat": 0.0, "bike_id": "67cf9760d2a58917fb69cce1a1c730c3", "fusion_lon": 0.0, "lon": -76.98527633333333, "lat": 38.866871, "is_reserved": 0, "is_disabled": 0, "rental_uris": {"android": "https://dc.lft.to/lastmile_qr_scan", "ios": "https://dc.lft.to/lastmile_qr_scan"}, "name": "67cf9760d2a58917fb69cce1a1c730c3", "type": "electric_scooter"}, {"fusion_lat": 0.0, "bike_id": "e1aab77c5eb280053f321aef60d24c7f", "fusion_lon": 0.0, "lon": -77.03199816666667, "lat": 38.914191333333335, "is_reserved": 0, "is_disabled": 0, "rental_uris": {"android": "https://dc.lft.to/lastmile_qr_scan", "ios": "https://dc.lft.to/lastmile_qr_scan"}, "name": "e1aab77c5eb280053f321aef60d24c7f", "type": "electric_scooter"}, {"fusion_lat": 0.0, "bike_id": "37c235d8870387c74ff3dacee28b3885", "fusion_lon": 0.0, "lon": -77.027151, "lat": 38.91679633333333, "is_reserved": 0, "is_disabled": 0, "rental_uris": {"android": "https://dc.lft.to/lastmile_qr_scan", "ios": "https://dc.lft.to/lastmile_qr_scan"}, "name": "37c235d8870387c74ff3dacee28b3885", "type": "electric_scooter"},