{"data": {"bikes": [{"is_disabled": 0, "rental_uris": {"android": "https://dc.lft.to/lastmile_qr_scan", "ios": "https://dc.lft.to/lastmile_qr_scan"}, "is_reserved": 0, "name": "4318fff3675c851b138177d7094f2d42", "lon": -77.05909433333333, "type": "electric_scooter", "bike_id": "4318fff3675c851b138177d7094f2d42", "fusion_lon": 0.0, "lat": 38.90131816666667, "fusion_lat": 0.0}, {"is_disabled": 0, "rental_uris": {"android": "https://dc.lft.to/lastmile_qr_scan", "ios": "https://dc.lft.to/lastmile_qr_scan"}, "is_reserved": 0, "name": "254f128b0d45c65a52ffd7e1459586fe", "lon": -77.01384016666667, "type": "electric_scooter", "bike_id": "254f128b0d45c65a52ffd7e1459586fe", "fusion_lon": 0.0, "lat": 38.91007166666667, "fusion_lat": 0.0}, {"is_disabled": 0, "rental_uris": {"android": "https://dc.lft.to/lastmile_qr_scan", "ios": "https://dc.lft.to/lastmile_qr_scan"}, "is_reserved": 0, "name": "8558749bcd9c376dbc2827d52057986c", "lon": -77.0336785, "type": "electric_scooter", "bike_id": "8558749bcd9c376dbc2827d52057986c", "fusion_lon": 0.0, "lat": 38.917281833333334, "fusion_lat": 0.0}, {"is_disabled": 0, "rental_uris": {"android": "https://dc.lft.to/lastmile_qr_scan", "ios": "https://dc.lft.to/lastmile_qr_scan"}, "is_reserved": 0, "name": "f8ad9bd88d0312068650e595504a643f", "lon": -77.01435766666667, "type": "electric_scooter", "bike_id": "f8ad9bd88d0312068650e595504a643f", "fusion_lon": 0.0, "lat": 38.8777485, "fusion_lat": 0.0}, {"is_disabled": 0, "rental_uris": {"android": "https://dc.lft.to/lastmile_qr_scan", "ios": "https://dc.lft.to/lastmile_qr_scan"}, "is_reserved": 0, "name": "7a98a54e66206085becb39624248b43f", "lon": -77.038596, "type": "electric_scooter", "bike_id": "7a98a54e66206085becb39624248b43f", "fusion_lon": 0.0, "lat": 38.91705016666667, "fusion_lat": 0.0}, {"is_disabled": 0, "rental_uris": {"android": "https://dc.lft.to/lastmile_qr_scan", "ios": "https://dc.lft.to/lastmile_qr_scan"}, "is_reserved": 0, "name": "035861db47c71c4939aea72cb7746dbe", "lon": -77.034526, "type": "electric_scooter", "bike_id": "035861db47c71c4939aea72cb7746dbe", "fusion_lon": 0.0, "lat": 38.905666833333335, "fusion_lat": 0.0}, {"is_disabled": 0, "rental_uris": {"android": "https://dc.lft.to/lastmile_qr_scan", "ios": "https://dc.lft.to/lastmile_qr_scan"}, "is_reserved": 0, "name": "269ba8283f89d6a6e622c16c2a519bf4", "lon": -77.02154116666667, "type": "electric_scooter", "bike_id": "269ba8283f89d6a6e622c16c2a519bf4", "fusion_lon": 0.0, "lat": 38.9260155, "fusion_lat": 0.0}, {"is_disabled": 0, "rental_uris": {"android": "https://dc.lft.to/lastmile_qr_scan", "ios": "https://dc.lft.to/lastmile_qr_scan"}, "is_reserved": 0, "name": "8b8e4d98f706533d7c7f44f6dfb261d3", "lon": -77.005185, "type": "electric_scooter", "bike_id": "8b8e4d98f706533d7c7f44f6dfb261d3", "fusion_lon": 0.0, "lat": 38.848747, "fusion_lat": 0.0}, {"is_disabled": 0, "rental_uris": {"android": "https://dc.lft.to/lastmile_qr_scan", "ios": "https://dc.lft.to/lastmile_qr_scan"}, "is_reserved": 0, "name": "ce74d87ee19febc0ddd6e977996bee01", "lon": -77.00715633333333, "type": "electric_scooter", "bike_id": "ce74d87ee19febc0ddd6e977996bee01", "fusion_lon": 0.0, "lat": 38.88497316666667, "fusion_lat": 0.0}, {"is_disabled": 0, "rental_uris": {"android": "https://dc.lft.to/lastmile_qr_scan", "ios": "https://dc.lft.to/lastmile_qr_scan"}, "is_reserved": 0, "name": "5d3a350f2667006b5d3afe642ce462b7", "lon": -77.0341115, "type": "electric_scooter", "bike_id": "5d3a350f2667006b5d3afe642ce462b7", "fusion_lon": 0.0, "lat": 38.919179, "fusion_lat": 0.0}, {"is_disabled": 0, "rental_uris": {"android": "https://dc.lft.to/lastmile_qr_scan", "ios": "https://dc.lft.to/lastmile_qr_scan"}, "is_reserved": 0, "name": "877105ffd217532f0ef69b21198ba0ae", "lon": -77.03987883333333, "type": "electric_scooter", "bike_id": "877105ffd217532f0ef69b21198ba0ae", "fusion_lon": 0.0, "lat": 38.898776, "fusion_lat": 0.0}, {"is_disabled": 0, "rental_uris": {"android": "https://dc.lft.to/lastmile_qr_scan", "ios": "https://dc.lft.to/lastmile_qr_scan"}, "is_reserved": 0, "name": "27c6169d6d3122ace7c49c5f3a885f17", "lon": -77.0319745, "type": "electric_scooter", "bike_id": "27c6169d6d3122ace7c49c5f3a885f17", "fusion_lon": 0.0, "lat": 38.93074333333333, "fusion_lat": 0.0}, {"is_disabled": 0, "rental_uris": {"android": "https://dc.lft.to/lastmile_qr_scan", "ios": "https://dc.lft.to/lastmile_qr_scan"}, "is_reserved": 0, "name": "43e8e556cf8730229a8442b7dbdf7904", "lon": -77.04377, "type": "electric_scooter", "bike_id": "43e8e556cf8730229a8442b7dbdf7904", "fusion_lon": 0.0, "lat": 38.90239016666666, "fusion_lat": 0.0}, {"is_disabled": 0, "rental_uris": {"android": "https://dc.lft.to/lastmile_qr_scan", "ios": "https://dc.lft.to/lastmile_qr_scan"}, "is_reserved": 0, "name": "35173364bce05f30da48c065069a9a15", "lon": -77.03748866666666, "type": "electric_scooter", "bike_id": "35173364bce05f30da48c065069a9a15", "fusion_lon": 0.0, "lat": 38.9290835, "fusion_lat": 0.0}, {"is_disabled": 0, "rental_uris": {"android": "https://dc.lft.to/lastmile_qr_scan", "ios": "https://dc.lft.to/lastmile_qr_scan"}, "is_reserved": 0, "name": "948040456829e6c9592c9ed8c775196d", "lon": -77.02384733333334, "type": "electric_scooter", "bike_id": "948040456829e6c9592c9ed8c775196d", "fusion_lon": 0.0, "lat": 38.9070755, "fusion_lat": 0.0}, {"is_disabled": 0, "rental_uris": {"android": "https://dc.lft.to/lastmile_qr_scan", "ios": "https://dc.lft.to/lastmile_qr_scan"}, "is_reserved": 0, "name": "222236fbc35970d1359ddb5195084f57", "lon": -76.987774, "type": "electric_scooter", "bike_id": "222236fbc35970d1359ddb5195084f57", "fusion_lon": 0.0, "lat": 38.89829483333333, "fusion_lat": 0.0}, {"is_disabled": 0, "rental_uris": {"android": "https://dc.lft.to/lastmile_qr_scan", "ios": "https://dc.lft.to/lastmile_qr_scan"}, "is_reserved": 0, "name": "9bee8b280bf771100ca606134ca000ee", "lon": -76.98207916666667, "type": "electric_bike", "bike_id": "9bee8b280bf771100ca606134ca000ee", "fusion_lon": 0.0, "lat": 38.985000666666664, "fusion_lat": 0.0}, {"is_disabled": 0, "rental_uris": {"android": "https://dc.lft.to/lastmile_qr_scan", "ios": "https://dc.lft.to/lastmile_qr_scan"}, "is_reserved": 0, "name": "c0b9765ae44752328cbe9e2dfe1f7d06", "lon": -77.04179616666667, "type": "electric_scooter", "bike_id": "c0b9765ae44752328cbe9e2dfe1f7d06", "fusion_lon": 0.0, "lat": 38.8922985, "fusion_lat": 0.0}, {"is_disabled": 0, "rental_uris": {"android": "https://dc.lft.to/lastmile_qr_scan", "ios": "https://dc.lft.to/lastmile_qr_scan"}, "is_reserved": 0, "name": "5866cb391be58221bad2535552093c65", "lon": -77.02359766666666, "type": "electric_scooter", "bike_id": "5866cb391be58221bad2535552093c65", "fusion_lon": 0.0, "lat": 38.89450316666667, "fusion_lat": 0.0}, {"is_disabled": 0, "rental_uris": {"android": "https://dc.lft.to/lastmile_qr_scan", "ios": "https://dc.lft.to/lastmile_qr_scan"}, "is_reserved": 0, "name": "de70fdf8c496434d5239147dbf618d3e", "lon": -76.9076035, "type": "electric_bike", "bike_id": "de70fdf8c496434d5239147dbf618d3e", "fusion_lon": 0.0, "lat": 38.924336333333336, "fusion_lat": 0.0}, {"is_disabled": 0, "rental_uris": {"android": "https://dc.lft.to/lastmile_qr_scan", "ios": "https://dc.lft.to/lastmile_qr_scan"}, "is_reserved": 0, "name": "e14c0fca057f3579d5915b947828c14f", "lon": -77.0417045, "type": "electric_scooter", "bike_id": "e14c0fca057f3579d5915b947828c14f", "fusion_lon": 0.0, "lat": 38.91264733333333, "fusion_lat": 0.0}, {"is_disabled": 0, "rental_uris": {"android": "https://dc.lft.to/lastmile_qr_scan", "ios": "https://dc.lft.to/lastmile_qr_scan"}, "is_reserved": 0, "name": "60f186909cee8522ee07b2f3667634a0", "lon": -77.02221083333333, "type": "electric_scooter", "bike_id": "60f186909cee8522ee07b2f3667634a0", "fusion_lon": 0.0, "lat": 38.9354905, "fusion_lat": 0.0}, {"is_disabled": 0, "rental_uris": {"android": "https://dc.lft.to/lastmile_qr_scan", "ios": "https://dc.lft.to/lastmile_qr_scan"}, "is_reserved": 0, "name": "8b77faf44f9516bba2415f5324850b67", "lon": -77.05936666666666, "type": "electric_scooter", "bike_id": "8b77faf44f9516bba2415f5324850b67", "fusion_lon": 0.0, "lat": 38.905298, "fusion_lat": 0.0}, {"is_disabled": 0, "rental_uris": {"android": "https://dc.lft.to/lastmile_qr_scan", "ios": "https://dc.lft.to/lastmile_qr_scan"}, "is_reserved": 0, "name": "4cb4a9e8e2522ecf8c323937780ab29f", "lon": -77.017802, "type": "electric_scooter", "bike_id": "4cb4a9e8e2522ecf8c323937780ab29f", "fusion_lon": 0.0, "lat": 38.9040515, "fusion_lat": 0.0}, {"is_disabled": 0, "rental_uris": {"android": "https://dc.lft.to/lastmile_qr_scan", "ios": "https://dc.lft.to/lastmile_qr_scan"}, "is_reserved": 0, "name": "d1a59d0b9cc83dffa365430228bf6079", "lon": -77.0377165, "type": "electric_scooter", "bike_id": "d1a59d0b9cc83dffa365430228bf6079", "fusion_lon": 0.0, "lat": 38.923277666666664, "fusion_lat": 0.0}, {"is_disabled": 0, "rental_uris": {"android": "https://dc.lft.to/lastmile_qr_scan", "ios": "https://dc.lft.to/lastmile_qr_scan"}, "is_reserved": 0, "name": "b2f19fa3a6fdcf160a8ec934e6e8d1b8", "lon": -77.0468, "type": "electric_scooter", "bike_id": "b2f19fa3a6fdcf160a8ec934e6e8d1b8", "fusion_lon": 0.0, "lat": 38.91582783333333, "fusion_lat": 0.0}, {"is_disabled": 0, "rental_uris": {"android": "https://dc.lft.to/lastmile_qr_scan", "ios": "https://dc.lft.to/lastmile_qr_scan"}, "is_reserved": 0, "name": "1718c993971e9943d97a04d900ab8ce6", "lon": -77.0227485, "type": "electric_scooter", "bike_id": "1718c993971e9943d97a04d900ab8ce6", "fusion_lon": 0.0, "lat": 38.91266733333333, "fusion_lat": 0.0}, {"is_disabled": 0, "rental_uris": {"android": "https://dc.lft.to/lastmile_qr_scan", "ios": "https://dc.lft.to/lastmile_qr_scan"}, "is_reserved": 0, "name": "bd42c94567957b1b34c519e8db3ccea3", "lon": -77.0386465, "type": "electric_scooter", "bike_id": "bd42c94567957b1b34c519e8db3ccea3", "fusion_lon": 0.0, "lat": 38.9065905, "fusion_lat": 0.0}, {"is_disabled": 0, "rental_uris": {"android": "https://dc.lft.to/lastmile_qr_scan", "ios": "https://dc.lft.to/lastmile_qr_scan"}, "is_reserved": 0, "name": "0d809622fb2fcc429a5a36934334e570", "lon": -77.024792, "type": "electric_scooter", "bike_id": "0d809622fb2fcc429a5a36934334e570", "fusion_lon": 0.0, "lat": 38.938801833333336, "fusion_lat": 0.0}, {"is_disabled": 0, "rental_uris": {"android": "https://dc.lft.to/lastmile_qr_scan", "ios": "https://dc.lft.to/lastmile_qr_scan"}, "is_reserved": 0, "name": "18c906208340c821f80c3da22e25af00", "lon": -77.04868066666667, "type": "electric_scooter", "bike_id": "18c906208340c821f80c3da22e25af00", "fusion_lon": 0.0, "lat": 38.8922515, "fusion_lat": 0.0}, {"is_disabled": 0, "rental_uris": {"android": "https://dc.lft.to/lastmile_qr_scan", "ios": "https://dc.lft.to/lastmile_qr_scan"}, "is_reserved": 0, "name": "1edc031d4f000ce505a0caf411623bc7", "lon": -77.03409533333334, "type": "electric_scooter", "bike_id": "1edc031d4f000ce505a0caf411623bc7", "fusion_lon": 0.0, "lat": 38.91917266666667, "fusion_lat": 0.0}, {"is_disabled": 0, "rental_uris": {"android": "https://dc.lft.to/lastmile_qr_scan", "ios": "https://dc.lft.to/lastmile_qr_scan"}, "is_reserved": 0, "name": "29227f5ee02be2e84af6200bf2012985", "lon": -77.02999, "type": "electric_scooter", "bike_id": "29227f5ee02be2e84af6200bf2012985", "fusion_lon": 0.0, "lat": 38.90507516666667, "fusion_lat": 0.0}, {"is_disabled": 0, "rental_uris": {"android": "https://dc.lft.to/lastmile_qr_scan", "ios": "https://dc.lft.to/lastmile_qr_scan"}, "is_reserved": 0, "name": "5af4999bc919c392e8102ba39a041b47", "lon": -76.98635833333333, "type": "electric_bike", "bike_id": "5af4999bc919c392e8102ba39a041b47", "fusion_lon": 0.0, "lat": 38.9016005, "fusion_lat": 0.0}, {"is_disabled": 0, "rental_uris": {"android": "https://dc.lft.to/lastmile_qr_scan", "ios": "https://dc.lft.to/lastmile_qr_scan"}, "is_reserved": 0, "name": "9897e8206a6a40a9b707a8b07bbced80", "lon": -77.03787816666667, "type": "electric_scooter", "bike_id": "9897e8206a6a40a9b707a8b07bbced80", "fusion_lon": 0.0, "lat": 38.92639466666667, "fusion_lat": 0.0}, {"is_disabled": 0, "rental_uris": {"android": "https://dc.lft.to/lastmile_qr_scan", "ios": "https://dc.lft.to/lastmile_qr_scan"}, "is_reserved": 0, "name": "948280bc999beca3d45f7f5a5a02465f", "lon": -77.021723, "type": "electric_scooter", "bike_id": "948280bc999beca3d45f7f5a5a02465f", "fusion_lon": 0.0, "lat": 38.94292766666667, "fusion_lat": 0.0}, {"is_disabled": 0, "rental_uris": {"android": "https://dc.lft.to/lastmile_qr_scan", "ios": "https://dc.lft.to/lastmile_qr_scan"}, "is_reserved": 0, "name": "43a2416536e16eb285524c77d3537728", "lon": -77.01907716666666, "type": "electric_bike", "bike_id": "43a2416536e16eb285524c77d3537728", "fusion_lon": 0.0, "lat": 38.93752083333333, "fusion_lat": 0.0}, {"is_disabled": 0, "rental_uris": {"android": "https://dc.lft.to/lastmile_qr_scan", "ios": "https://dc.lft.to/lastmile_qr_scan"}, "is_reserved": 0, "name": "58bc65843dedd84d7c4dab33704050f1", "lon": -76.985304, "type": "electric_scooter", "bike_id": "58bc65843dedd84d7c4dab33704050f1", "fusion_lon": 0.0, "lat": 38.90799766666667, "fusion_lat": 0.0}, {"is_disabled": 0, "rental_uris": {"android": "https://dc.lft.to/lastmile_qr_scan", "ios": "https://dc.lft.to/lastmile_qr_scan"}, "is_reserved": 0, "name": "ac7d01cede25b6ead61c962e3475fbac", "lon": -77.01366533333334, "type": "electric_scooter", "bike_id": "ac7d01cede25b6ead61c962e3475fbac", "fusion_lon": 0.0, "lat": 38.878987, "fusion_lat": 0.0}, {"is_disabled": 0, "rental_uris": {"android": "https://dc.lft.to/lastmile_qr_scan", "ios": "https://dc.lft.to/lastmile_qr_scan"}, "is_reserved": 0, "name": "1c5a0e05c23b0a99239df3b925491407", "lon": -76.987016, "type": "electric_scooter", "bike_id": "1c5a0e05c23b0a99239df3b925491407", "fusion_lon": 0.0, "lat": 38.907115166666664, "fusion_lat": 0.0}, {"is_disabled": 0, "rental_uris": {"android": "https://dc.lft.to/lastmile_qr_scan", "ios": "https://dc.lft.to/lastmile_qr_scan"}, "is_reserved": 0, "name": "8838ecda15f51347012aeb35a18e88e7", "lon": -77.03060733333334, "type": "electric_scooter", "bike_id": "8838ecda15f51347012aeb35a18e88e7", "fusion_lon": 0.0, "lat": 38.93980883333333, "fusion_lat": 0.0}, {"is_disabled": 0, "rental_uris": {"android": "https://dc.lft.to/lastmile_qr_scan", "ios": "https://dc.lft.to/lastmile_qr_scan"}, "is_reserved": 0, "name": "0724305a54c6b77a50b5c7cd82e08544", "lon": -77.0334735, "type": "electric_scooter", "bike_id": "0724305a54c6b77a50b5c7cd82e08544", "fusion_lon": 0.0, "lat": 38.91706883333333, "fusion_lat": 0.0}, {"is_disabled": 0, "rental_uris": {"android": "https://dc.lft.to/lastmile_qr_scan", "ios": "https://dc.lft.to/lastmile_qr_scan"}, "is_reserved": 0, "name": "3c67cae848a40722d3f92dd1abf8e63c", "lon": -77.02724916666666, "type": "electric_scooter", "bike_id": "3c67cae848a40722d3f92dd1abf8e63c", "fusion_lon": 0.0, "lat": 38.908517333333336, "fusion_lat": 0.0}, {"is_disabled": 0, "rental_uris": {"android": "https://dc.lft.to/lastmile_qr_scan", "ios": "https://dc.lft.to/lastmile_qr_scan"}, "is_reserved": 0, "name": "6ed2427cd35c7d8ebda26b04b43819f4", "lon": -76.97995216666666, "type": "electric_bike", "bike_id": "6ed2427cd35c7d8ebda26b04b43819f4", "fusion_lon": 0.0, "lat": 38.87754966666667, "fusion_lat": 0.0}, {"is_disabled": 0, "rental_uris": {"android": "https://dc.lft.to/lastmile_qr_scan", "ios": "https://dc.lft.to/lastmile_qr_scan"}, "is_reserved": 0, "name": "3b8b4941f75fc027c42275df04827aa6", "lon": -77.01361016666667, "type": "electric_scooter", "bike_id": "3b8b4941f75fc027c42275df04827aa6", "fusion_lon": 0.0, "lat": 38.930237, "fusion_lat": 0.0}, {"is_disabled": 0, "rental_uris": {"android": "https://dc.lft.to/lastmile_qr_scan", "ios": "https://dc.lft.to/lastmile_qr_scan"}, "is_reserved": 0, "name": "2ad67b576f283ab7df9123347ebc0123", "lon": -77.063466, "type": "electric_scooter", "bike_id": "2ad67b576f283ab7df9123347ebc0123", "fusion_lon": 0.0, "lat": 38.94441166666667, "fusion_lat": 0.0}, {"is_disabled": 0, "rental_uris": {"android": "https://dc.lft.to/lastmile_qr_scan", "ios": "https://dc.lft.to/lastmile_qr_scan"}, "is_reserved": 0, "name": "70080c4acc90b415e0f9c4f8f44cace2", "lon": -77.36087883333333, "type": "electric_bike", "bike_id": "70080c4acc90b415e0f9c4f8f44cace2", "fusion_lon": 0.0, "lat": 38.9395885, "fusion_lat": 0.0}, {"is_disabled": 0, "rental_uris": {"android": "https://dc.lft.to/lastmile_qr_scan", "ios": "https://dc.lft.to/lastmile_qr_scan"}, "is_reserved": 0, "name": "9017989d2fd50d4bb7735452b5f250d3", "lon": -77.03027883333333, "type": "electric_scooter", "bike_id": "9017989d2fd50d4bb7735452b5f250d3", "fusion_lon": 0.0, "lat": 38.92238583333334, "fusion_lat": 0.0}, {"is_disabled": 0, "rental_uris": {"android": "https://dc.lft.to/lastmile_qr_scan", "ios": "https://dc.lft.to/lastmile_qr_scan"}, "is_reserved": 0, "name": "f1801e7288fefd7bb485a205dc2e855d", "lon": -77.03554033333333, "type": "electric_scooter", "bike_id": "f1801e7288fefd7bb485a205dc2e855d", "fusion_lon": 0.0, "lat": 38.90671916666667, "fusion_lat": 0.0}, {"is_disabled": 0, "rental_uris": {"android": "https://dc.lft.to/lastmile_qr_scan", "ios": "https://dc.lft.to/lastmile_qr_scan"}, "is_reserved": 0, "name": "cc36277764f9c2e093b1438eca691935", "lon": -77.05930083333334, "type": "electric_scooter", "bike_id": "cc36277764f9c2e093b1438eca691935", "fusion_lon": 0.0, "lat": 38.936645166666665, "fusion_lat": 0.0}, {"is_disabled": 0, "rental_uris": {"android": "https://dc.lft.to/lastmile_qr_scan", "ios": "https://dc.lft.to/lastmile_qr_scan"}, "is_reserved": 0, "name": "95dcc12dbb29fb4e0525c88dcabdd78e", "lon": -76.93114183333333, "type": "electric_scooter", "bike_id": "95dcc12dbb29fb4e0525c88dcabdd78e", "fusion_lon": 0.0, "lat": 38.880245, "fusion_lat": 0.0}, {"is_disabled": 0, "rental_uris": {"android": "https://dc.lft.to/lastmile_qr_scan", "ios": "https://dc.lft.to/lastmile_qr_scan"}, "is_reserved": 0, "name": "5ba1bd1bf18d163da04b887ac500e82f", "lon": -77.0285415, "type": "electric_scooter", "bike_id": "5ba1bd1bf18d163da04b887ac500e82f", "fusion_lon": 0.0, "lat": 38.8951735, "fusion_lat": 0.0}, {"is_disabled": 0, "rental_uris": {"android": "https://dc.lft.to/lastmile_qr_scan", "ios": "https://dc.lft.to/lastmile_qr_scan"}, "is_reserved": 0, "name": "f05d7bd290fc71f0c2ef8fd7e23365e4", "lon": -77.05097166666667, "type": "electric_scooter", "bike_id": "f05d7bd290fc71f0c2ef8fd7e23365e4", "fusion_lon": 0.0, "lat": 38.92344333333333, "fusion_lat": 0.0}, {"is_disabled": 0, "rental_uris": {"android": "https://dc.lft.to/lastmile_qr_scan", "ios": "https://dc.lft.to/lastmile_qr_scan"}, "is_reserved": 0, "name": "c3c08d0a7832e3f3b33273c2eae0cf09", "lon": -77.012078, "type": "electric_scooter", "bike_id": "c3c08d0a7832e3f3b33273c2eae0cf09", "fusion_lon": 0.0, "lat": 38.918176, "fusion_lat": 0.0}, {"is_disabled": 0, "rental_uris": {"android": "https://dc.lft.to/lastmile_qr_scan", "ios": "https://dc.lft.to/lastmile_qr_scan"}, "is_reserved": 0, "name": "92ab103205c80ef6b2dba4864dbbeb33", "lon": -76.98091583333333, "type": "electric_scooter", "bike_id": "92ab103205c80ef6b2dba4864dbbeb33", "fusion_lon": 0.0, "lat": 38.85717366666667, "fusion_lat": 0.0}, {"is_disabled": 0, "rental_uris": {"android": "https://dc.lft.to/lastmile_qr_scan", "ios": "https://dc.lft.to/lastmile_qr_scan"}, "is_reserved": 0, "name": "0f3e3fabd0b813959463b789b85229fc", "lon": -77.01696733333333, "type": "electric_scooter", "bike_id": "0f3e3fabd0b813959463b789b85229fc", "fusion_lon": 0.0, "lat": 38.97499333333333, "fusion_lat": 0.0}, {"is_disabled": 0, "rental_uris": {"android": "https://dc.lft.to/lastmile_qr_scan", "ios": "https://dc.lft.to/lastmile_qr_scan"}, "is_reserved": 0, "name": "bed6071a12dbab619d962742200f7c28", "lon": -77.03272416666667, "type": "electric_scooter", "bike_id": "bed6071a12dbab619d962742200f7c28", "fusion_lon": 0.0, "lat": 38.91832633333333, "fusion_lat": 0.0}, {"is_disabled": 0, "rental_uris": {"android": "https://dc.lft.to/lastmile_qr_scan", "ios": "https://dc.lft.to/lastmile_qr_scan"}, "is_reserved": 0, "name": "69b77047559530e3cca63f77d6e6f300", "lon": -77.01584816666667, "type": "electric_bike", "bike_id": "69b77047559530e3cca63f77d6e6f300", "fusion_lon": 0.0, "lat": 39.046343, "fusion_lat": 0.0}, {"is_disabled": 0, "rental_uris": {"android": "https://dc.lft.to/lastmile_qr_scan", "ios": "https://dc.lft.to/lastmile_qr_scan"}, "is_reserved": 0, "name": "049a1554a2b2f1fc817d02954ea0fae2", "lon": -77.04340816666667, "type": "electric_scooter", "bike_id": "049a1554a2b2f1fc817d02954ea0fae2", "fusion_lon": 0.0, "lat": 38.8965585, "fusion_lat": 0.0}, {"is_disabled": 0, "rental_uris": {"android": "https://dc.lft.to/lastmile_qr_scan", "ios": "https://dc.lft.to/lastmile_qr_scan"}, "is_reserved": 0, "name": "ec8520828a62c432309063158b6d000c", "lon": -77.0246375, "type": "electric_scooter", "bike_id": "ec8520828a62c432309063158b6d000c", "fusion_lon": 0.0, "lat": 38.93909716666667, "fusion_lat": 0.0}, {"is_disabled": 0, "rental_uris": {"android": "https://dc.lft.to/lastmile_qr_scan", "ios": "https://dc.lft.to/lastmile_qr_scan"}, "is_reserved": 0, "name": "25ef326589a1abc10bba2076b099d364", "lon": -77.1829085, "type": "electric_bike", "bike_id": "25ef326589a1abc10bba2076b099d364", "fusion_lon": 0.0, "lat": 38.88342516666667, "fusion_lat": 0.0}, {"is_disabled": 0, "rental_uris": {"android": "https://dc.lft.to/lastmile_qr_scan", "ios": "https://dc.lft.to/lastmile_qr_scan"}, "is_reserved": 0, "name": "34931136e97b271bccacd57aaa6472ad", "lon": -76.98519516666667, "type": "electric_scooter", "bike_id": "34931136e97b271bccacd57aaa6472ad", "fusion_lon": 0.0, "lat": 38.86002633333333, "fusion_lat": 0.0}, {"is_disabled": 0, "rental_uris": {"android": "https://dc.lft.to/lastmile_qr_scan", "ios": "https://dc.lft.to/lastmile_qr_scan"}, "is_reserved": 0, "name": "a84beddbb7bd01d3c4cbbf8d0f620177", "lon": -76.96920033333333, "type": "electric_scooter", "bike_id": "a84beddbb7bd01d3c4cbbf8d0f620177", "fusion_lon": 0.0, "lat": 38.85524566666667, "fusion_lat": 0.0}, {"is_disabled": 0, "rental_uris": {"android": "https://dc.lft.to/lastmile_qr_scan", "ios": "https://dc.lft.to/lastmile_qr_scan"}, "is_reserved": 0, "name": "c0dac6a05fc912a1a378b2e4bb320cf3", "lon": -77.015324, "type": "electric_scooter", "bike_id": "c0dac6a05fc912a1a378b2e4bb320cf3", "fusion_lon": 0.0, "lat": 38.89531983333333, "fusion_lat": 0.0}, {"is_disabled": 0, "rental_uris": {"android": "https://dc.lft.to/lastmile_qr_scan", "ios": "https://dc.lft.to/lastmile_qr_scan"}, "is_reserved": 0, "name": "06d39d521baf7bdc20dbd9ee7afa2c21", "lon": -77.02831033333334, "type": "electric_scooter", "bike_id": "06d39d521baf7bdc20dbd9ee7afa2c21", "fusion_lon": 0.0, "lat": 38.9297, "fusion_lat": 0.0}, {"is_disabled": 0, "rental_uris": {"android": "https://dc.lft.to/lastmile_qr_scan", "ios": "https://dc.lft.to/lastmile_qr_scan"}, "is_reserved": 0, "name": "972014cad58e27629a36a758775480b5", "lon": -77.04330216666666, "type": "electric_scooter", "bike_id": "972014cad58e27629a36a758775480b5", "fusion_lon": 0.0, "lat": 38.92330183333333, "fusion_lat": 0.0}, {"is_disabled": 0, "rental_uris": {"android": "https://dc.lft.to/lastmile_qr_scan", "ios": "https://dc.lft.to/lastmile_qr_scan"}, "is_reserved": 0, "name": "37e036bc8f5c99dbe71b6da4878055da", "lon": -77.01016033333333, "type": "electric_scooter", "bike_id": "37e036bc8f5c99dbe71b6da4878055da", "fusion_lon": 0.0, "lat": 38.918201, "fusion_lat": 0.0}, {"is_disabled": 0, "rental_uris": {"android": "https://dc.lft.to/lastmile_qr_scan", "ios": "https://dc.lft.to/lastmile_qr_scan"}, "is_reserved": 0, "name": "6617281d98867f3edb25cf9e0ad20827", "lon": -76.98302, "type": "electric_scooter", "bike_id": "6617281d98867f3edb25cf9e0ad20827", "fusion_lon": 0.0, "lat": 38.903704833333336, "fusion_lat": 0.0}, {"is_disabled": 0, "rental_uris": {"android": "https://dc.lft.to/lastmile_qr_scan", "ios": "https://dc.lft.to/lastmile_qr_scan"}, "is_reserved": 0, "name": "49833e9b32e157e6192918d7c6f8de69", "lon": -77.005736, "type": "electric_scooter", "bike_id": "49833e9b32e157e6192918d7c6f8de69", "fusion_lon": 0.0, "lat": 38.90572266666667, "fusion_lat": 0.0}, {"is_disabled": 0, "rental_uris": {"android": "https://dc.lft.to/lastmile_qr_scan", "ios": "https://dc.lft.to/lastmile_qr_scan"}, "is_reserved": 0, "name": "b85494da85ed4270bea92848d51e11e9", "lon": -76.9494125, "type": "electric_scooter", "bike_id": "b85494da85ed4270bea92848d51e11e9", "fusion_lon": 0.0, "lat": 38.883175, "fusion_lat": 0.0}, {"is_disabled": 0, "rental_uris": {"android": "https://dc.lft.to/lastmile_qr_scan", "ios": "https://dc.lft.to/lastmile_qr_scan"}, "is_reserved": 0, "name": "b7ad2b98948162b19c160939d49f0faf", "lon": -77.01966583333333, "type": "electric_bike", "bike_id": "b7ad2b98948162b19c160939d49f0faf", "fusion_lon": 0.0, "lat": 38.929863833333336, "fusion_lat": 0.0}, {"is_disabled": 0, "rental_uris": {"android": "https://dc.lft.to/lastmile_qr_scan", "ios": "https://dc.lft.to/lastmile_qr_scan"}, "is_reserved": 0, "name": "20f919682b7c03c0589602da7f154f4c", "lon": -77.03193366666666, "type": "electric_scooter", "bike_id": "20f919682b7c03c0589602da7f154f4c", "fusion_lon": 0.0, "lat": 38.91920966666667, "fusion_lat": 0.0}, {"is_disabled": 0, "rental_uris": {"android": "https://dc.lft.to/lastmile_qr_scan", "ios": "https://dc.lft.to/lastmile_qr_scan"}, "is_reserved": 0, "name": "e264b3e56f2d3aea6f7388f9a818e0f4", "lon": -77.02487783333333, "type": "electric_scooter", "bike_id": "e264b3e56f2d3aea6f7388f9a818e0f4", "fusion_lon": 0.0, "lat": 38.88415466666667, "fusion_lat": 0.0}, {"is_disabled": 0, "rental_uris": {"android": "https://dc.lft.to/lastmile_qr_scan", "ios": "https://dc.lft.to/lastmile_qr_scan"}, "is_reserved": 0, "name": "af3f0b7ff158a05a5c9a050d614c4015", "lon": -77.09441533333333, "type": "electric_scooter", "bike_id": "af3f0b7ff158a05a5c9a050d614c4015", "fusion_lon": 0.0, "lat": 38.917879166666665, "fusion_lat": 0.0}, {"is_disabled": 0, "rental_uris": {"android": "https://dc.lft.to/lastmile_qr_scan", "ios": "https://dc.lft.to/lastmile_qr_scan"}, "is_reserved": 0, "name": "41b83ae72ff55ce5ccf7815971f5b7cd", "lon": -76.98835216666667, "type": "electric_scooter", "bike_id": "41b83ae72ff55ce5ccf7815971f5b7cd", "fusion_lon": 0.0, "lat": 38.89851133333333, "fusion_lat": 0.0}, {"is_disabled": 0, "rental_uris": {"android": "https://dc.lft.to/lastmile_qr_scan", "ios": "https://dc.lft.to/lastmile_qr_scan"}, "is_reserved": 0, "name": "37b5703b645aa18b4b9a05827676b6dd", "lon": -77.11173216666667, "type": "electric_bike", "bike_id": "37b5703b645aa18b4b9a05827676b6dd", "fusion_lon": 0.0, "lat": 38.85644083333333, "fusion_lat": 0.0}, {"is_disabled": 0, "rental_uris": {"android": "https://dc.lft.to/lastmile_qr_scan", "ios": "https://dc.lft.to/lastmile_qr_scan"}, "is_reserved": 0, "name": "32574692ebd9ff0e40b549b9d022328e", "lon": -76.99160816666667, "type": "electric_scooter", "bike_id": "32574692ebd9ff0e40b549b9d022328e", "fusion_lon": 0.0, "lat": 38.88141233333333, "fusion_lat": 0.0}, {"is_disabled": 0, "rental_uris": {"android": "https://dc.lft.to/lastmile_qr_scan", "ios": "https://dc.lft.to/lastmile_qr_scan"}, "is_reserved": 0, "name": "bb9f7586378691f2c008b74a3baf53b6", "lon": -77.015437, "type": "electric_scooter", "bike_id": "bb9f7586378691f2c008b74a3baf53b6", "fusion_lon": 0.0, "lat": 38.8876855, "fusion_lat": 0.0}, {"is_disabled": 0, "rental_uris": {"android": "https://dc.lft.to/lastmile_qr_scan", "ios": "https://dc.lft.to/lastmile_qr_scan"}, "is_reserved": 0, "name": "ec9eb96ffe4d6ac9f627f4db4b7f5a9b", "lon": -77.046373, "type": "electric_scooter", "bike_id": "ec9eb96ffe4d6ac9f627f4db4b7f5a9b", "fusion_lon": 0.0, "lat": 38.90555116666667, "fusion_lat": 0.0}, {"is_disabled": 0, "rental_uris": {"android": "https://dc.lft.to/lastmile_qr_scan", "ios": "https://dc.lft.to/lastmile_qr_scan"}, "is_reserved": 0, "name": "5ac4694fe7c7cfca5a7c778f7cad6048", "lon": -76.98745983333333, "type": "electric_scooter", "bike_id": "5ac4694fe7c7cfca5a7c778f7cad6048", "fusion_lon": 0.0, "lat": 38.879646, "fusion_lat": 0.0}, {"is_disabled": 0, "rental_uris": {"android": "https://dc.lft.to/lastmile_qr_scan", "ios": "https://dc.lft.to/lastmile_qr_scan"}, "is_reserved": 0, "name": "4efe6b27787f734585bcd7c302b5f340", "lon": -77.0401095, "type": "electric_scooter", "bike_id": "4efe6b27787f734585bcd7c302b5f340", "fusion_lon": 0.0, "lat": 38.9179345, "fusion_lat": 0.0}, {"is_disabled": 0, "rental_uris": {"android": "https://dc.lft.to/lastmile_qr_scan", "ios": "https://dc.lft.to/lastmile_qr_scan"}, "is_reserved": 0, "name": "279df95dbf5c1573c73226ed48ec9c4a", "lon": -77.029401, "type": "electric_scooter", "bike_id": "279df95dbf5c1573c73226ed48ec9c4a", "fusion_lon": 0.0, "lat": 38.90456133333333, "fusion_lat": 0.0}, {"is_disabled": 0, "rental_uris": {"android": "https://dc.lft.to/lastmile_qr_scan", "ios": "https://dc.lft.to/lastmile_qr_scan"}, "is_reserved": 0, "name": "8679f8e1ec5be2b209f483aa582ba599", "lon": -77.02724433333333, "type": "electric_scooter", "bike_id": "8679f8e1ec5be2b209f483aa582ba599", "fusion_lon": 0.0, "lat": 38.9095905, "fusion_lat": 0.0}, {"is_disabled": 0, "rental_uris": {"android": "https://dc.lft.to/lastmile_qr_scan", "ios": "https://dc.lft.to/lastmile_qr_scan"}, "is_reserved": 0, "name": "1e85a29b9e0b3140d64785c9bbea583b", "lon": -77.046646, "type": "electric_scooter", "bike_id": "1e85a29b9e0b3140d64785c9bbea583b", "fusion_lon": 0.0, "lat": 38.911721666666665, "fusion_lat": 0.0}, {"is_disabled": 0, "rental_uris": {"android": "https://dc.lft.to/lastmile_qr_scan", "ios": "https://dc.lft.to/lastmile_qr_scan"}, "is_reserved": 0, "name": "0b0ad59811db73caf9eca992dd3f774e", "lon": -77.1477305, "type": "electric_bike", "bike_id": "0b0ad59811db73caf9eca992dd3f774e", "fusion_lon": 0.0, "lat": 39.09594666666667, "fusion_lat": 0.0}, {"is_disabled": 0, "rental_uris": {"android": "https://dc.lft.to/lastmile_qr_scan", "ios": "https://dc.lft.to/lastmile_qr_scan"}, "is_reserved": 0, "name": "7ff14fb93f14c5c32b35be2977e92424", "lon": -77.09580933333334, "type": "electric_bike", "bike_id": "7ff14fb93f14c5c32b35be2977e92424", "fusion_lon": 0.0, "lat": 38.837877166666665, "fusion_lat": 0.0}, {"is_disabled": 0, "rental_uris": {"android": "https://dc.lft.to/lastmile_qr_scan", "ios": "https://dc.lft.to/lastmile_qr_scan"}, "is_reserved": 0, "name": "ffc3e3b007aae426a0633028c7346358", "lon": -77.00254083333333, "type": "electric_scooter", "bike_id": "ffc3e3b007aae426a0633028c7346358", "fusion_lon": 0.0, "lat": 38.911984833333335, "fusion_lat": 0.0}, {"is_disabled": 0, "rental_uris": {"android": "https://dc.lft.to/lastmile_qr_scan", "ios": "https://dc.lft.to/lastmile_qr_scan"}, "is_reserved": 0, "name": "8b6a0d0fab92f7368a68d56ac3642320", "lon": -77.0361095, "type": "electric_scooter", "bike_id": "8b6a0d0fab92f7368a68d56ac3642320", "fusion_lon": 0.0, "lat": 38.931505333333334, "fusion_lat": 0.0}, {"is_disabled": 0, "rental_uris": {"android": "https://dc.lft.to/lastmile_qr_scan", "ios": "https://dc.lft.to/lastmile_qr_scan"}, "is_reserved": 0, "name": "e4cffb305d44b8ac577be813d8a43b3a", "lon": -76.94886416666667, "type": "electric_scooter", "bike_id": "e4cffb305d44b8ac577be813d8a43b3a", "fusion_lon": 0.0, "lat": 38.895097666666665, "fusion_lat": 0.0}, {"is_disabled": 0, "rental_uris": {"android": "https://dc.lft.to/lastmile_qr_scan", "ios": "https://dc.lft.to/lastmile_qr_scan"}, "is_reserved": 0, "name": "1dc3f212a776a86924935fd6df27b6e2", "lon": -77.0012295, "type": "electric_bike", "bike_id": "1dc3f212a776a86924935fd6df27b6e2", "fusion_lon": 0.0, "lat": 38.9993215, "fusion_lat": 0.0}, {"is_disabled": 0, "rental_uris": {"android": "https://dc.lft.to/lastmile_qr_scan", "ios": "https://dc.lft.to/lastmile_qr_scan"}, "is_reserved": 0, "name": "bb40f82f7b5198519345d129124a5d6b", "lon": -77.04797083333334, "type": "electric_bike", "bike_id": "bb40f82f7b5198519345d129124a5d6b", "fusion_lon": 0.0, "lat": 38.91937516666667, "fusion_lat": 0.0}, {"is_disabled": 0, "rental_uris": {"android": "https://dc.lft.to/lastmile_qr_scan", "ios": "https://dc.lft.to/lastmile_qr_scan"}, "is_reserved": 0, "name": "6c05af55e8086ddac013bc62fff329d5", "lon": -76.94701716666667, "type": "electric_scooter", "bike_id": "6c05af55e8086ddac013bc62fff329d5", "fusion_lon": 0.0, "lat": 38.8972955, "fusion_lat": 0.0}, {"is_disabled": 0, "rental_uris": {"android": "https://dc.lft.to/lastmile_qr_scan", "ios": "https://dc.lft.to/lastmile_qr_scan"}, "is_reserved": 0, "name": "656967f6979a813368fa3152876c8da0", "lon": -77.01858266666666, "type": "electric_scooter", "bike_id": "656967f6979a813368fa3152876c8da0", "fusion_lon": 0.0, "lat": 38.903927333333336, "fusion_lat": 0.0}, {"is_disabled": 0, "rental_uris": {"android": "https://dc.lft.to/lastmile_qr_scan", "ios": "https://dc.lft.to/lastmile_qr_scan"}, "is_reserved": 0, "name": "11ae525c63ae046ff0eb281060d3da8a", "lon": -76.9922555, "type": "electric_scooter", "bike_id": "11ae525c63ae046ff0eb281060d3da8a", "fusion_lon": 0.0, "lat": 38.8988615, "fusion_lat": 0.0}, {"is_disabled": 0, "rental_uris": {"android": "https://dc.lft.to/lastmile_qr_scan", "ios": "https://dc.lft.to/lastmile_qr_scan"}, "is_reserved": 0, "name": "4854684694feca9a2ae5ee1e24c526c3", "lon": -77.02575066666667, "type": "electric_scooter", "bike_id": "4854684694feca9a2ae5ee1e24c526c3", "fusion_lon": 0.0, "lat": 38.89940383333333, "fusion_lat": 0.0}, {"is_disabled": 0, "rental_uris": {"android": "https://dc.lft.to/lastmile_qr_scan", "ios": "https://dc.lft.to/lastmile_qr_scan"}, "is_reserved": 0, "name": "21b96c1d8552203fcf335c4150b62cdd", "lon": -77.03059516666667, "type": "electric_scooter", "bike_id": "21b96c1d8552203fcf335c4150b62cdd", "fusion_lon": 0.0, "lat": 38.95631183333333, "fusion_lat": 0.0}, {"is_disabled": 0, "rental_uris": {"android": "https://dc.lft.to/lastmile_qr_scan", "ios": "https://dc.lft.to/lastmile_qr_scan"}, "is_reserved": 0, "name": "726efa83991567c4a769e12ef20417ab", "lon": -76.99686633333333, "type": "electric_scooter", "bike_id": "726efa83991567c4a769e12ef20417ab", "fusion_lon": 0.0, "lat": 38.860282166666664, "fusion_lat": 0.0}, {"is_disabled": 0, "rental_uris": {"android": "https://dc.lft.to/lastmile_qr_scan", "ios": "https://dc.lft.to/lastmile_qr_scan"}, "is_reserved": 0, "name": "80c0cc23d833402327f1913caafdb2d1", "lon": -77.0412285, "type": "electric_scooter", "bike_id": "80c0cc23d833402327f1913caafdb2d1", "fusion_lon": 0.0, "lat": 38.91707566666667, "fusion_lat": 0.0}, {"is_disabled": 0, "rental_uris": {"android": "https://dc.lft.to/lastmile_qr_scan", "ios": "https://dc.lft.to/lastmile_qr_scan"}, "is_reserved": 0, "name": "51ed44baf61a62628deb40979e9365e7", "lon": -77.0222765, "type": "electric_scooter", "bike_id": "51ed44baf61a62628deb40979e9365e7", "fusion_lon": 0.0, "lat": 38.887446833333335, "fusion_lat": 0.0}, {"is_disabled": 0, "rental_uris": {"android": "https://dc.lft.to/lastmile_qr_scan", "ios": "https://dc.lft.to/lastmile_qr_scan"}, "is_reserved": 0, "name": "d8c4338067d87703e94b138562a7d4ac", "lon": -77.04886716666667, "type": "electric_scooter", "bike_id": "d8c4338067d87703e94b138562a7d4ac", "fusion_lon": 0.0, "lat": 38.90392166666667, "fusion_lat": 0.0}, {"is_disabled": 0, "rental_uris": {"android": "https://dc.lft.to/lastmile_qr_scan", "ios": "https://dc.lft.to/lastmile_qr_scan"}, "is_reserved": 0, "name": "62ba8614dcbb1facaa4a8a8a3e8c0a7c", "lon": -76.96684783333333, "type": "electric_bike", "bike_id": "62ba8614dcbb1facaa4a8a8a3e8c0a7c", "fusion_lon": 0.0, "lat": 38.958924333333336, "fusion_lat": 0.0}, {"is_disabled": 0, "rental_uris": {"android": "https://dc.lft.to/lastmile_qr_scan", "ios": "https://dc.lft.to/lastmile_qr_scan"}, "is_reserved": 0, "name": "f790ce2b6cbeb75ff623fca6caa8af39", "lon": -77.00201433333334, "type": "electric_scooter", "bike_id": "f790ce2b6cbeb75ff623fca6caa8af39", "fusion_lon": 0.0, "lat": 38.9002965, "fusion_lat": 0.0}, {"is_disabled": 0, "rental_uris": {"android": "https://dc.lft.to/lastmile_qr_scan", "ios": "https://dc.lft.to/lastmile_qr_scan"}, "is_reserved": 0, "name": "09aa4b43799aed84ce3e02b21b2fff44", "lon": -77.01993766666666, "type": "electric_scooter", "bike_id": "09aa4b43799aed84ce3e02b21b2fff44", "fusion_lon": 0.0, "lat": 38.875727833333336, "fusion_lat": 0.0}, {"is_disabled": 0, "rental_uris": {"android": "https://dc.lft.to/lastmile_qr_scan", "ios": "https://dc.lft.to/lastmile_qr_scan"}, "is_reserved": 0, "name": "53f1e292ffb6324592c88de3017cfeab", "lon": -77.04649766666667, "type": "electric_scooter", "bike_id": "53f1e292ffb6324592c88de3017cfeab", "fusion_lon": 0.0, "lat": 38.893370166666664, "fusion_lat": 0.0}, {"is_disabled": 0, "rental_uris": {"android": "https://dc.lft.to/lastmile_qr_scan", "ios": "https://dc.lft.to/lastmile_qr_scan"}, "is_reserved": 0, "name": "6a3a105db0dadc90c3e9accd5526b16a", "lon": -77.06528266666666, "type": "electric_scooter", "bike_id": "6a3a105db0dadc90c3e9accd5526b16a", "fusion_lon": 0.0, "lat": 38.90517116666667, "fusion_lat": 0.0}, {"is_disabled": 0, "rental_uris": {"android": "https://dc.lft.to/lastmile_qr_scan", "ios": "https://dc.lft.to/lastmile_qr_scan"}, "is_reserved": 0, "name": "54cbff4d0467abbc7b492c5a426101cc", "lon": -77.05192316666667, "type": "electric_scooter", "bike_id": "54cbff4d0467abbc7b492c5a426101cc", "fusion_lon": 0.0, "lat": 38.92548583333333, "fusion_lat": 0.0}, {"is_disabled": 0, "rental_uris": {"android": "https://dc.lft.to/lastmile_qr_scan", "ios": "https://dc.lft.to/lastmile_qr_scan"}, "is_reserved": 0, "name": "16c7a3d0c7388e022f8037e2cb832e56", "lon": -77.026906, "type": "electric_scooter", "bike_id": "16c7a3d0c7388e022f8037e2cb832e56", "fusion_lon": 0.0, "lat": 38.907316, "fusion_lat": 0.0}, {"is_disabled": 0, "rental_uris": {"android": "https://dc.lft.to/lastmile_qr_scan", "ios": "https://dc.lft.to/lastmile_qr_scan"}, "is_reserved": 0, "name": "3fd41828513a08a4b8e54bec54e439fb", "lon": -77.08047516666667, "type": "electric_bike", "bike_id": "3fd41828513a08a4b8e54bec54e439fb", "fusion_lon": 0.0, "lat": 38.848423, "fusion_lat": 0.0}, {"is_disabled": 0, "rental_uris": {"android": "https://dc.lft.to/lastmile_qr_scan", "ios": "https://dc.lft.to/lastmile_qr_scan"}, "is_reserved": 0, "name": "48283138b48468ddb79880f4e0227cdf", "lon": -77.04163883333334, "type": "electric_scooter", "bike_id": "48283138b48468ddb79880f4e0227cdf", "fusion_lon": 0.0, "lat": 38.914176833333336, "fusion_lat": 0.0}, {"is_disabled": 0, "rental_uris": {"android": "https://dc.lft.to/lastmile_qr_scan", "ios": "https://dc.lft.to/lastmile_qr_scan"}, "is_reserved": 0, "name": "143d8a43bc8f20d967bf0c0e1202aab8", "lon": -77.02045733333334, "type": "electric_scooter", "bike_id": "143d8a43bc8f20d967bf0c0e1202aab8", "fusion_lon": 0.0, "lat": 38.915555499999996, "fusion_lat": 0.0}, {"is_disabled": 0, "rental_uris": {"android": "https://dc.lft.to/lastmile_qr_scan", "ios": "https://dc.lft.to/lastmile_qr_scan"}, "is_reserved": 0, "name": "50ff4bb04f8484d8baaee3724b62465e", "lon": -77.02416433333333, "type": "electric_scooter", "bike_id": "50ff4bb04f8484d8baaee3724b62465e", "fusion_lon": 0.0, "lat": 38.90961933333333, "fusion_lat": 0.0}, {"is_disabled": 0, "rental_uris": {"android": "https://dc.lft.to/lastmile_qr_scan", "ios": "https://dc.lft.to/lastmile_qr_scan"}, "is_reserved": 0, "name": "a64473a9a9300a1d892adf73f212c066", "lon": -77.05418983333334, "type": "electric_scooter", "bike_id": "a64473a9a9300a1d892adf73f212c066", "fusion_lon": 0.0, "lat": 38.928197, "fusion_lat": 0.0}, {"is_disabled": 0, "rental_uris": {"android": "https://dc.lft.to/lastmile_qr_scan", "ios": "https://dc.lft.to/lastmile_qr_scan"}, "is_reserved": 0, "name": "a2dfc712afdbb2e8489e8d66b0c28fe2", "lon": -77.0122235, "type": "electric_scooter", "bike_id": "a2dfc712afdbb2e8489e8d66b0c28fe2", "fusion_lon": 0.0, "lat": 38.916855, "fusion_lat": 0.0}, {"is_disabled": 0, "rental_uris": {"android": "https://dc.lft.to/lastmile_qr_scan", "ios": "https://dc.lft.to/lastmile_qr_scan"}, "is_reserved": 0, "name": "a2f2a6117bb9020fb1ecadb90dd8523e", "lon": -76.9655955, "type": "electric_scooter", "bike_id": "a2f2a6117bb9020fb1ecadb90dd8523e", "fusion_lon": 0.0, "lat": 38.91828266666667, "fusion_lat": 0.0}, {"is_disabled": 0, "rental_uris": {"android": "https://dc.lft.to/lastmile_qr_scan", "ios": "https://dc.lft.to/lastmile_qr_scan"}, "is_reserved": 0, "name": "287df908c14809bcf63e9d2150a2ef32", "lon": -77.04339583333334, "type": "electric_scooter", "bike_id": "287df908c14809bcf63e9d2150a2ef32", "fusion_lon": 0.0, "lat": 38.91181916666667, "fusion_lat": 0.0}, {"is_disabled": 0, "rental_uris": {"android": "https://dc.lft.to/lastmile_qr_scan", "ios": "https://dc.lft.to/lastmile_qr_scan"}, "is_reserved": 0, "name": "79955d6e99f3bbb21e967f930141f3d3", "lon": -76.947181, "type": "electric_scooter", "bike_id": "79955d6e99f3bbb21e967f930141f3d3", "fusion_lon": 0.0, "lat": 38.89675883333334, "fusion_lat": 0.0}, {"is_disabled": 0, "rental_uris": {"android": "https://dc.lft.to/lastmile_qr_scan", "ios": "https://dc.lft.to/lastmile_qr_scan"}, "is_reserved": 0, "name": "1a018b74ae4ecbc112256372bfc503cd", "lon": -77.03371266666667, "type": "electric_scooter", "bike_id": "1a018b74ae4ecbc112256372bfc503cd", "fusion_lon": 0.0, "lat": 38.91711083333333, "fusion_lat": 0.0}, {"is_disabled": 0, "rental_uris": {"android": "https://dc.lft.to/lastmile_qr_scan", "ios": "https://dc.lft.to/lastmile_qr_scan"}, "is_reserved": 0, "name": "ff2566619d9c41225c7625f834c26d77", "lon": -77.00889133333334, "type": "electric_scooter", "bike_id": "ff2566619d9c41225c7625f834c26d77", "fusion_lon": 0.0, "lat": 38.90575166666667, "fusion_lat": 0.0}, {"is_disabled": 0, "rental_uris": {"android": "https://dc.lft.to/lastmile_qr_scan", "ios": "https://dc.lft.to/lastmile_qr_scan"}, "is_reserved": 0, "name": "d42e8dbf991dff60eecdc7bd5b22d3d9", "lon": -77.017863, "type": "electric_bike", "bike_id": "d42e8dbf991dff60eecdc7bd5b22d3d9", "fusion_lon": 0.0, "lat": 38.97339266666667, "fusion_lat": 0.0}, {"is_disabled": 0, "rental_uris": {"android": "https://dc.lft.to/lastmile_qr_scan", "ios": "https://dc.lft.to/lastmile_qr_scan"}, "is_reserved": 0, "name": "9fc3e25489e2fa6c1ab908b78a82df12", "lon": -77.01507683333334, "type": "electric_scooter", "bike_id": "9fc3e25489e2fa6c1ab908b78a82df12", "fusion_lon": 0.0, "lat": 38.9100365, "fusion_lat": 0.0}, {"is_disabled": 0, "rental_uris": {"android": "https://dc.lft.to/lastmile_qr_scan", "ios": "https://dc.lft.to/lastmile_qr_scan"}, "is_reserved": 0, "name": "3e10282f8cc076172863ba890ae92d86", "lon": -77.045827, "type": "electric_scooter", "bike_id": "3e10282f8cc076172863ba890ae92d86", "fusion_lon": 0.0, "lat": 38.924133499999996, "fusion_lat": 0.0}, {"is_disabled": 0, "rental_uris": {"android": "https://dc.lft.to/lastmile_qr_scan", "ios": "https://dc.lft.to/lastmile_qr_scan"}, "is_reserved": 0, "name": "d9daefefdf85667e61a9ab7bdf77328e", "lon": -77.03857183333334, "type": "electric_scooter", "bike_id": "d9daefefdf85667e61a9ab7bdf77328e", "fusion_lon": 0.0, "lat": 38.9147575, "fusion_lat": 0.0}, {"is_disabled": 0, "rental_uris": {"android": "https://dc.lft.to/lastmile_qr_scan", "ios": "https://dc.lft.to/lastmile_qr_scan"}, "is_reserved": 0, "name": "20d6d56a208f9a5cbdd02a59c0d8dff6", "lon": -77.036817, "type": "electric_scooter", "bike_id": "20d6d56a208f9a5cbdd02a59c0d8dff6", "fusion_lon": 0.0, "lat": 38.9181665, "fusion_lat": 0.0}, {"is_disabled": 0, "rental_uris": {"android": "https://dc.lft.to/lastmile_qr_scan", "ios": "https://dc.lft.to/lastmile_qr_scan"}, "is_reserved": 0, "name": "291f9419af570ac0f624d0c03aecf618", "lon": -77.04132833333334, "type": "electric_bike", "bike_id": "291f9419af570ac0f624d0c03aecf618", "fusion_lon": 0.0, "lat": 38.9439845, "fusion_lat": 0.0}, {"is_disabled": 0, "rental_uris": {"android": "https://dc.lft.to/lastmile_qr_scan", "ios": "https://dc.lft.to/lastmile_qr_scan"}, "is_reserved": 0, "name": "6104fb1424a832128309f490a0336f17", "lon": -77.03368516666667, "type": "electric_scooter", "bike_id": "6104fb1424a832128309f490a0336f17", "fusion_lon": 0.0, "lat": 38.92152866666667, "fusion_lat": 0.0}, {"is_disabled": 0, "rental_uris": {"android": "https://dc.lft.to/lastmile_qr_scan", "ios": "https://dc.lft.to/lastmile_qr_scan"}, "is_reserved": 0, "name": "c3778f33efbcf4b6bdce5b04171b1fe9", "lon": -77.02840533333334, "type": "electric_scooter", "bike_id": "c3778f33efbcf4b6bdce5b04171b1fe9", "fusion_lon": 0.0, "lat": 38.92569783333333, "fusion_lat": 0.0}, {"is_disabled": 0, "rental_uris": {"android": "https://dc.lft.to/lastmile_qr_scan", "ios": "https://dc.lft.to/lastmile_qr_scan"}, "is_reserved": 0, "name": "4decd8aee9529a7b118e4dbe404e31cb", "lon": -77.02389966666667, "type": "electric_scooter", "bike_id": "4decd8aee9529a7b118e4dbe404e31cb", "fusion_lon": 0.0, "lat": 38.928021666666666, "fusion_lat": 0.0}, {"is_disabled": 0, "rental_uris": {"android": "https://dc.lft.to/lastmile_qr_scan", "ios": "https://dc.lft.to/lastmile_qr_scan"}, "is_reserved": 0, "name": "c273fd536446518760a58bb45c9d4cf9", "lon": -77.0322445, "type": "electric_scooter", "bike_id": "c273fd536446518760a58bb45c9d4cf9", "fusion_lon": 0.0, "lat": 38.90346483333333, "fusion_lat": 0.0}, {"is_disabled": 0, "rental_uris": {"android": "https://dc.lft.to/lastmile_qr_scan", "ios": "https://dc.lft.to/lastmile_qr_scan"}, "is_reserved": 0, "name": "dafa58d577301ea2f6594747b3b42fa7", "lon": -77.048551, "type": "electric_scooter", "bike_id": "dafa58d577301ea2f6594747b3b42fa7", "fusion_lon": 0.0, "lat": 38.904357, "fusion_lat": 0.0}, {"is_disabled": 0, "rental_uris": {"android": "https://dc.lft.to/lastmile_qr_scan", "ios": "https://dc.lft.to/lastmile_qr_scan"}, "is_reserved": 0, "name": "577564fbb6167cdf2abeace6f9ae1094", "lon": -76.928274, "type": "electric_scooter", "bike_id": "577564fbb6167cdf2abeace6f9ae1094", "fusion_lon": 0.0, "lat": 38.90173866666667, "fusion_lat": 0.0}, {"is_disabled": 0, "rental_uris": {"android": "https://dc.lft.to/lastmile_qr_scan", "ios": "https://dc.lft.to/lastmile_qr_scan"}, "is_reserved": 0, "name": "c5a79f18c29c93107a8386e4b3efe877", "lon": -76.98019816666667, "type": "electric_bike", "bike_id": "c5a79f18c29c93107a8386e4b3efe877", "fusion_lon": 0.0, "lat": 38.957551333333335, "fusion_lat": 0.0}, {"is_disabled": 0, "rental_uris": {"android": "https://dc.lft.to/lastmile_qr_scan", "ios": "https://dc.lft.to/lastmile_qr_scan"}, "is_reserved": 0, "name": "065207c2f8e747192e833d4a0e96b77c", "lon": -77.0460765, "type": "electric_scooter", "bike_id": "065207c2f8e747192e833d4a0e96b77c", "fusion_lon": 0.0, "lat": 38.899550166666664, "fusion_lat": 0.0}, {"is_disabled": 0, "rental_uris": {"android": "https://dc.lft.to/lastmile_qr_scan", "ios": "https://dc.lft.to/lastmile_qr_scan"}, "is_reserved": 0, "name": "8b446f23afdc87ed06022f5211e72769", "lon": -77.02934383333333, "type": "electric_scooter", "bike_id": "8b446f23afdc87ed06022f5211e72769", "fusion_lon": 0.0, "lat": 38.92973466666667, "fusion_lat": 0.0}, {"is_disabled": 0, "rental_uris": {"android": "https://dc.lft.to/lastmile_qr_scan", "ios": "https://dc.lft.to/lastmile_qr_scan"}, "is_reserved": 0, "name": "6b8f05a13efbdd0fded52883b9f0d172", "lon": -77.04408633333334, "type": "electric_scooter", "bike_id": "6b8f05a13efbdd0fded52883b9f0d172", "fusion_lon": 0.0, "lat": 38.90062833333333, "fusion_lat": 0.0}, {"is_disabled": 0, "rental_uris": {"android": "https://dc.lft.to/lastmile_qr_scan", "ios": "https://dc.lft.to/lastmile_qr_scan"}, "is_reserved": 0, "name": "3f9bc80ae0d706b9e1d1019c353d8e85", "lon": -77.00146516666666, "type": "electric_scooter", "bike_id": "3f9bc80ae0d706b9e1d1019c353d8e85", "fusion_lon": 0.0, "lat": 38.910780833333334, "fusion_lat": 0.0}, {"is_disabled": 0, "rental_uris": {"android": "https://dc.lft.to/lastmile_qr_scan", "ios": "https://dc.lft.to/lastmile_qr_scan"}, "is_reserved": 0, "name": "7f1f3a7420ebe7087a5420a69ad04304", "lon": -77.0327185, "type": "electric_scooter", "bike_id": "7f1f3a7420ebe7087a5420a69ad04304", "fusion_lon": 0.0, "lat": 38.93247683333333, "fusion_lat": 0.0}, {"is_disabled": 0, "rental_uris": {"android": "https://dc.lft.to/lastmile_qr_scan", "ios": "https://dc.lft.to/lastmile_qr_scan"}, "is_reserved": 0, "name": "9ff7a88d72b8e0106a1031d5f6e5bbfe", "lon": -77.0635395, "type": "electric_scooter", "bike_id": "9ff7a88d72b8e0106a1031d5f6e5bbfe", "fusion_lon": 0.0, "lat": 38.94433216666667, "fusion_lat": 0.0}, {"is_disabled": 0, "rental_uris": {"android": "https://dc.lft.to/lastmile_qr_scan", "ios": "https://dc.lft.to/lastmile_qr_scan"}, "is_reserved": 0, "name": "afdf83f59d44b87c7f56121500c537de", "lon": -77.02169883333333, "type": "electric_scooter", "bike_id": "afdf83f59d44b87c7f56121500c537de", "fusion_lon": 0.0, "lat": 38.899811166666666, "fusion_lat": 0.0}, {"is_disabled": 0, "rental_uris": {"android": "https://dc.lft.to/lastmile_qr_scan", "ios": "https://dc.lft.to/lastmile_qr_scan"}, "is_reserved": 0, "name": "be49b22e144bdee49cb57c105d9cb650", "lon": -77.03147383333334, "type": "electric_scooter", "bike_id": "be49b22e144bdee49cb57c105d9cb650", "fusion_lon": 0.0, "lat": 38.8873535, "fusion_lat": 0.0}, {"is_disabled": 0, "rental_uris": {"android": "https://dc.lft.to/lastmile_qr_scan", "ios": "https://dc.lft.to/lastmile_qr_scan"}, "is_reserved": 0, "name": "acdad3b2318610a56e52cb6bd1b8081b", "lon": -77.0296725, "type": "electric_scooter", "bike_id": "acdad3b2318610a56e52cb6bd1b8081b", "fusion_lon": 0.0, "lat": 38.89990016666667, "fusion_lat": 0.0}, {"is_disabled": 0, "rental_uris": {"android": "https://dc.lft.to/lastmile_qr_scan", "ios": "https://dc.lft.to/lastmile_qr_scan"}, "is_reserved": 0, "name": "1a09189977342baef80aff28285c2b76", "lon": -76.9877095, "type": "electric_scooter", "bike_id": "1a09189977342baef80aff28285c2b76", "fusion_lon": 0.0, "lat": 38.84453883333333, "fusion_lat": 0.0}, {"is_disabled": 0, "rental_uris": {"android": "https://dc.lft.to/lastmile_qr_scan", "ios": "https://dc.lft.to/lastmile_qr_scan"}, "is_reserved": 0, "name": "e6dbe58f0e8d41d8482f06ad5a106040", "lon": -77.041918, "type": "electric_scooter", "bike_id": "e6dbe58f0e8d41d8482f06ad5a106040", "fusion_lon": 0.0, "lat": 38.91665533333333, "fusion_lat": 0.0}, {"is_disabled": 0, "rental_uris": {"android": "https://dc.lft.to/lastmile_qr_scan", "ios": "https://dc.lft.to/lastmile_qr_scan"}, "is_reserved": 0, "name": "ddafb362c9e8ea8ad66e7d54c08f40c4", "lon": -77.03470733333333, "type": "electric_scooter", "bike_id": "ddafb362c9e8ea8ad66e7d54c08f40c4", "fusion_lon": 0.0, "lat": 38.911100833333336, "fusion_lat": 0.0}, {"is_disabled": 0, "rental_uris": {"android": "https://dc.lft.to/lastmile_qr_scan", "ios": "https://dc.lft.to/lastmile_qr_scan"}, "is_reserved": 0, "name": "66b177e05c3c771fe599d5762c6f559a", "lon": -76.9845985, "type": "electric_scooter", "bike_id": "66b177e05c3c771fe599d5762c6f559a", "fusion_lon": 0.0, "lat": 38.89357566666666, "fusion_lat": 0.0}, {"is_disabled": 0, "rental_uris": {"android": "https://dc.lft.to/lastmile_qr_scan", "ios": "https://dc.lft.to/lastmile_qr_scan"}, "is_reserved": 0, "name": "b0f97b3e66e2f72a42fa568aa4365b56", "lon": -77.036711, "type": "electric_scooter", "bike_id": "b0f97b3e66e2f72a42fa568aa4365b56", "fusion_lon": 0.0, "lat": 38.936507666666664, "fusion_lat": 0.0}, {"is_disabled": 0, "rental_uris": {"android": "https://dc.lft.to/lastmile_qr_scan", "ios": "https://dc.lft.to/lastmile_qr_scan"}, "is_reserved": 0, "name": "1d867cd7fba92e324bad65a139668b37", "lon": -77.012021, "type": "electric_scooter", "bike_id": "1d867cd7fba92e324bad65a139668b37", "fusion_lon": 0.0, "lat": 38.92737233333333, "fusion_lat": 0.0}, {"is_disabled": 0, "rental_uris": {"android": "https://dc.lft.to/lastmile_qr_scan", "ios": "https://dc.lft.to/lastmile_qr_scan"}, "is_reserved": 0, "name": "63b3454a68121b584933c38dc9ad1406", "lon": -77.032488, "type": "electric_scooter", "bike_id": "63b3454a68121b584933c38dc9ad1406", "fusion_lon": 0.0, "lat": 38.909617833333336, "fusion_lat": 0.0}, {"is_disabled": 0, "rental_uris": {"android": "https://dc.lft.to/lastmile_qr_scan", "ios": "https://dc.lft.to/lastmile_qr_scan"}, "is_reserved": 0, "name": "ab8253ed8bce62ec1d149e937057e650", "lon": -77.029124, "type": "electric_scooter", "bike_id": "ab8253ed8bce62ec1d149e937057e650", "fusion_lon": 0.0, "lat": 38.939683333333335, "fusion_lat": 0.0}, {"is_disabled": 0, "rental_uris": {"android": "https://dc.lft.to/lastmile_qr_scan", "ios": "https://dc.lft.to/lastmile_qr_scan"}, "is_reserved": 0, "name": "1715753befd370e274146b0663191af4", "lon": -76.935542, "type": "electric_scooter", "bike_id": "1715753befd370e274146b0663191af4", "fusion_lon": 0.0, "lat": 38.901547, "fusion_lat": 0.0}, {"is_disabled": 0, "rental_uris": {"android": "https://dc.lft.to/lastmile_qr_scan", "ios": "https://dc.lft.to/lastmile_qr_scan"}, "is_reserved": 0, "name": "a1aa8b3dfb1ffd9b4e86acc0006c2b2b", "lon": -77.05782533333333, "type": "electric_scooter", "bike_id": "a1aa8b3dfb1ffd9b4e86acc0006c2b2b", "fusion_lon": 0.0, "lat": 38.90507016666667, "fusion_lat": 0.0}, {"is_disabled": 0, "rental_uris": {"android": "https://dc.lft.to/lastmile_qr_scan", "ios": "https://dc.lft.to/lastmile_qr_scan"}, "is_reserved": 0, "name": "10b6fb87b9b99aca2abf9c1468f30ac5", "lon": -76.9854855, "type": "electric_scooter", "bike_id": "10b6fb87b9b99aca2abf9c1468f30ac5", "fusion_lon": 0.0, "lat": 38.90418566666666, "fusion_lat": 0.0}, {"is_disabled": 0, "rental_uris": {"android": "https://dc.lft.to/lastmile_qr_scan", "ios": "https://dc.lft.to/lastmile_qr_scan"}, "is_reserved": 0, "name": "c4d81d351629a26f323fa106bee38a83", "lon": -76.951941, "type": "electric_bike", "bike_id": "c4d81d351629a26f323fa106bee38a83", "fusion_lon": 0.0, "lat": 38.90692216666667, "fusion_lat": 0.0}, {"is_disabled": 0, "rental_uris": {"android": "https://dc.lft.to/lastmile_qr_scan", "ios": "https://dc.lft.to/lastmile_qr_scan"}, "is_reserved": 0, "name": "52b2a4eebadc02b7edcae195ae624910", "lon": -77.03788666666667, "type": "electric_scooter", "bike_id": "52b2a4eebadc02b7edcae195ae624910", "fusion_lon": 0.0, "lat": 38.930205, "fusion_lat": 0.0}, {"is_disabled": 0, "rental_uris": {"android": "https://dc.lft.to/lastmile_qr_scan", "ios": "https://dc.lft.to/lastmile_qr_scan"}, "is_reserved": 0, "name": "fcfd0d3985bd12829323762729c7551c", "lon": -77.054556, "type": "electric_scooter", "bike_id": "fcfd0d3985bd12829323762729c7551c", "fusion_lon": 0.0, "lat": 38.92897416666667, "fusion_lat": 0.0}, {"is_disabled": 0, "rental_uris": {"android": "https://dc.lft.to/lastmile_qr_scan", "ios": "https://dc.lft.to/lastmile_qr_scan"}, "is_reserved": 0, "name": "015f963a1816c8070e57115811ff1174", "lon": -77.02917366666667, "type": "electric_scooter", "bike_id": "015f963a1816c8070e57115811ff1174", "fusion_lon": 0.0, "lat": 38.9248165, "fusion_lat": 0.0}, {"is_disabled": 0, "rental_uris": {"android": "https://dc.lft.to/lastmile_qr_scan", "ios": "https://dc.lft.to/lastmile_qr_scan"}, "is_reserved": 0, "name": "9c8257674761a9525834eb0054e6154c", "lon": -77.0321275, "type": "electric_scooter", "bike_id": "9c8257674761a9525834eb0054e6154c", "fusion_lon": 0.0, "lat": 38.9258425, "fusion_lat": 0.0}, {"is_disabled": 0, "rental_uris": {"android": "https://dc.lft.to/lastmile_qr_scan", "ios": "https://dc.lft.to/lastmile_qr_scan"}, "is_reserved": 0, "name": "7da9bfdf2294149c308a9bc0a5fa8b29", "lon": -77.0281495, "type": "electric_scooter", "bike_id": "7da9bfdf2294149c308a9bc0a5fa8b29", "fusion_lon": 0.0, "lat": 38.93167833333333, "fusion_lat": 0.0}, {"is_disabled": 0, "rental_uris": {"android": "https://dc.lft.to/lastmile_qr_scan", "ios": "https://dc.lft.to/lastmile_qr_scan"}, "is_reserved": 0, "name": "e6f6c4986dced3eb14a18375279c176c", "lon": -77.04322266666667, "type": "electric_scooter", "bike_id": "e6f6c4986dced3eb14a18375279c176c", "fusion_lon": 0.0, "lat": 38.898146, "fusion_lat": 0.0}, {"is_disabled": 0, "rental_uris": {"android": "https://dc.lft.to/lastmile_qr_scan", "ios": "https://dc.lft.to/lastmile_qr_scan"}, "is_reserved": 0, "name": "0f088e3edfb9aa81a1ec6fd1c7e8164e", "lon": -76.98729366666667, "type": "electric_scooter", "bike_id": "0f088e3edfb9aa81a1ec6fd1c7e8164e", "fusion_lon": 0.0, "lat": 38.867112666666664, "fusion_lat": 0.0}, {"is_disabled": 0, "rental_uris": {"android": "https://dc.lft.to/lastmile_qr_scan", "ios": "https://dc.lft.to/lastmile_qr_scan"}, "is_reserved": 0, "name": "b3c0942a934d842bd8350beed8cc520e", "lon": -77.00118883333333, "type": "electric_scooter", "bike_id": "b3c0942a934d842bd8350beed8cc520e", "fusion_lon": 0.0, "lat": 38.91250083333333, "fusion_lat": 0.0}, {"is_disabled": 0, "rental_uris": {"android": "https://dc.lft.to/lastmile_qr_scan", "ios": "https://dc.lft.to/lastmile_qr_scan"}, "is_reserved": 0, "name": "e6d1f956e951ebbb130ebfb73078aab4", "lon": -76.95206633333333, "type": "electric_bike", "bike_id": "e6d1f956e951ebbb130ebfb73078aab4", "fusion_lon": 0.0, "lat": 38.93666233333333, "fusion_lat": 0.0}, {"is_disabled": 0, "rental_uris": {"android": "https://dc.lft.to/lastmile_qr_scan", "ios": "https://dc.lft.to/lastmile_qr_scan"}, "is_reserved": 0, "name": "d64da1874afc8870c98826dda48240d7", "lon": -77.0475855, "type": "electric_scooter", "bike_id": "d64da1874afc8870c98826dda48240d7", "fusion_lon": 0.0, "lat": 38.907190666666665, "fusion_lat": 0.0}, {"is_disabled": 0, "rental_uris": {"android": "https://dc.lft.to/lastmile_qr_scan", "ios": "https://dc.lft.to/lastmile_qr_scan"}, "is_reserved": 0, "name": "9af66913ea6f8d07e4bb913e3254ac01", "lon": -77.06646866666667, "type": "electric_scooter", "bike_id": "9af66913ea6f8d07e4bb913e3254ac01", "fusion_lon": 0.0, "lat": 38.92690533333333, "fusion_lat": 0.0}, {"is_disabled": 0, "rental_uris": {"android": "https://dc.lft.to/lastmile_qr_scan", "ios": "https://dc.lft.to/lastmile_qr_scan"}, "is_reserved": 0, "name": "0562140ec06e53a602008e7e2d216858", "lon": -77.007819, "type": "electric_scooter", "bike_id": "0562140ec06e53a602008e7e2d216858", "fusion_lon": 0.0, "lat": 38.90736616666667, "fusion_lat": 0.0}, {"is_disabled": 0, "rental_uris": {"android": "https://dc.lft.to/lastmile_qr_scan", "ios": "https://dc.lft.to/lastmile_qr_scan"}, "is_reserved": 0, "name": "98cb9c6d12125cc1b7e34eb66c1f57fb", "lon": -77.020108, "type": "electric_scooter", "bike_id": "98cb9c6d12125cc1b7e34eb66c1f57fb", "fusion_lon": 0.0, "lat": 38.87789433333333, "fusion_lat": 0.0}, {"is_disabled": 0, "rental_uris": {"android": "https://dc.lft.to/lastmile_qr_scan", "ios": "https://dc.lft.to/lastmile_qr_scan"}, "is_reserved": 0, "name": "657b410c944037c0edfe2cfdc0738a4c", "lon": -77.0240475, "type": "electric_scooter", "bike_id": "657b410c944037c0edfe2cfdc0738a4c", "fusion_lon": 0.0, "lat": 38.916664, "fusion_lat": 0.0}, {"is_disabled": 0, "rental_uris": {"android": "https://dc.lft.to/lastmile_qr_scan", "ios": "https://dc.lft.to/lastmile_qr_scan"}, "is_reserved": 0, "name": "255eb73c94fb3b1d247de67495b514c7", "lon": -77.0384155, "type": "electric_scooter", "bike_id": "255eb73c94fb3b1d247de67495b514c7", "fusion_lon": 0.0, "lat": 38.926455833333335, "fusion_lat": 0.0}, {"is_disabled": 0, "rental_uris": {"android": "https://dc.lft.to/lastmile_qr_scan", "ios": "https://dc.lft.to/lastmile_qr_scan"}, "is_reserved": 0, "name": "1ba263c5c64a75f142de1dbc25a6f313", "lon": -77.031964, "type": "electric_scooter", "bike_id": "1ba263c5c64a75f142de1dbc25a6f313", "fusion_lon": 0.0, "lat": 38.9180305, "fusion_lat": 0.0}, {"is_disabled": 0, "rental_uris": {"android": "https://dc.lft.to/lastmile_qr_scan", "ios": "https://dc.lft.to/lastmile_qr_scan"}, "is_reserved": 0, "name": "6c0ae0c43b21f17a7359cfbe236a42aa", "lon": -77.02409833333333, "type": "electric_scooter", "bike_id": "6c0ae0c43b21f17a7359cfbe236a42aa", "fusion_lon": 0.0, "lat": 38.930982, "fusion_lat": 0.0}, {"is_disabled": 0, "rental_uris": {"android": "https://dc.lft.to/lastmile_qr_scan", "ios": "https://dc.lft.to/lastmile_qr_scan"}, "is_reserved": 0, "name": "0a7973183b38051d412ea048ed773a4a", "lon": -77.01012733333333, "type": "electric_scooter", "bike_id": "0a7973183b38051d412ea048ed773a4a", "fusion_lon": 0.0, "lat": 38.90619566666667, "fusion_lat": 0.0}, {"is_disabled": 0, "rental_uris": {"android": "https://dc.lft.to/lastmile_qr_scan", "ios": "https://dc.lft.to/lastmile_qr_scan"}, "is_reserved": 0, "name": "e09cb30b1dc97ec94a647ed8f4e068b7", "lon": -77.023481, "type": "electric_scooter", "bike_id": "e09cb30b1dc97ec94a647ed8f4e068b7", "fusion_lon": 0.0, "lat": 38.92262366666667, "fusion_lat": 0.0}, {"is_disabled": 0, "rental_uris": {"android": "https://dc.lft.to/lastmile_qr_scan", "ios": "https://dc.lft.to/lastmile_qr_scan"}, "is_reserved": 0, "name": "44ecc0c20ca13740a312f2f43e42854e", "lon": -77.0220735, "type": "electric_scooter", "bike_id": "44ecc0c20ca13740a312f2f43e42854e", "fusion_lon": 0.0, "lat": 38.909802, "fusion_lat": 0.0}, {"is_disabled": 0, "rental_uris": {"android": "https://dc.lft.to/lastmile_qr_scan", "ios": "https://dc.lft.to/lastmile_qr_scan"}, "is_reserved": 0, "name": "5ac5d1757a3eaff85f6b527ee4e61dff", "lon": -77.11511666666667, "type": "electric_bike", "bike_id": "5ac5d1757a3eaff85f6b527ee4e61dff", "fusion_lon": 0.0, "lat": 38.881549, "fusion_lat": 0.0}, {"is_disabled": 0, "rental_uris": {"android": "https://dc.lft.to/lastmile_qr_scan", "ios": "https://dc.lft.to/lastmile_qr_scan"}, "is_reserved": 0, "name": "e2ac68f5462f9aeab73d46261031b80b", "lon": -76.97729816666667, "type": "electric_scooter", "bike_id": "e2ac68f5462f9aeab73d46261031b80b", "fusion_lon": 0.0, "lat": 38.89484133333333, "fusion_lat": 0.0}, {"is_disabled": 0, "rental_uris": {"android": "https://dc.lft.to/lastmile_qr_scan", "ios": "https://dc.lft.to/lastmile_qr_scan"}, "is_reserved": 0, "name": "26446f3e760edc1b661b537e49effc33", "lon": -77.03849183333334, "type": "electric_scooter", "bike_id": "26446f3e760edc1b661b537e49effc33", "fusion_lon": 0.0, "lat": 38.90364733333333, "fusion_lat": 0.0}, {"is_disabled": 0, "rental_uris": {"android": "https://dc.lft.to/lastmile_qr_scan", "ios": "https://dc.lft.to/lastmile_qr_scan"}, "is_reserved": 0, "name": "89c7c23fa27f52b96f344dd06d95e0a5", "lon": -76.97991566666667, "type": "electric_scooter", "bike_id": "89c7c23fa27f52b96f344dd06d95e0a5", "fusion_lon": 0.0, "lat": 38.888688, "fusion_lat": 0.0}, {"is_disabled": 0, "rental_uris": {"android": "https://dc.lft.to/lastmile_qr_scan", "ios": "https://dc.lft.to/lastmile_qr_scan"}, "is_reserved": 0, "name": "4fca049ce9e0d7da95d2a1d444fd9574", "lon": -77.0218295, "type": "electric_scooter", "bike_id": "4fca049ce9e0d7da95d2a1d444fd9574", "fusion_lon": 0.0, "lat": 38.9015985, "fusion_lat": 0.0}, {"is_disabled": 0, "rental_uris": {"android": "https://dc.lft.to/lastmile_qr_scan", "ios": "https://dc.lft.to/lastmile_qr_scan"}, "is_reserved": 0, "name": "df9fa8b39e6fec8186d38235d35397ba", "lon": -77.03229983333334, "type": "electric_scooter", "bike_id": "df9fa8b39e6fec8186d38235d35397ba", "fusion_lon": 0.0, "lat": 38.909545333333334, "fusion_lat": 0.0}, {"is_disabled": 0, "rental_uris": {"android": "https://dc.lft.to/lastmile_qr_scan", "ios": "https://dc.lft.to/lastmile_qr_scan"}, "is_reserved": 0, "name": "19dc520b563414d117747d89799a7390", "lon": -76.984676, "type": "electric_scooter", "bike_id": "19dc520b563414d117747d89799a7390", "fusion_lon": 0.0, "lat": 38.893572, "fusion_lat": 0.0}, {"is_disabled": 0, "rental_uris": {"android": "https://dc.lft.to/lastmile_qr_scan", "ios": "https://dc.lft.to/lastmile_qr_scan"}, "is_reserved": 0, "name": "e1436c57abe859de1fc75809413d84cf", "lon": -77.03088133333334, "type": "electric_scooter", "bike_id": "e1436c57abe859de1fc75809413d84cf", "fusion_lon": 0.0, "lat": 38.92239166666667, "fusion_lat": 0.0}, {"is_disabled": 0, "rental_uris": {"android": "https://dc.lft.to/lastmile_qr_scan", "ios": "https://dc.lft.to/lastmile_qr_scan"}, "is_reserved": 0, "name": "26b7e581f62fc157ae8d820f149c10b6", "lon": -77.03869133333333, "type": "electric_scooter", "bike_id": "26b7e581f62fc157ae8d820f149c10b6", "fusion_lon": 0.0, "lat": 38.912536333333335, "fusion_lat": 0.0}, {"is_disabled": 0, "rental_uris": {"android": "https://dc.lft.to/lastmile_qr_scan", "ios": "https://dc.lft.to/lastmile_qr_scan"}, "is_reserved": 0, "name": "c1eec555def9689d98232cdb51d797b9", "lon": -77.02956616666667, "type": "electric_scooter", "bike_id": "c1eec555def9689d98232cdb51d797b9", "fusion_lon": 0.0, "lat": 38.91200383333333, "fusion_lat": 0.0}, {"is_disabled": 0, "rental_uris": {"android": "https://dc.lft.to/lastmile_qr_scan", "ios": "https://dc.lft.to/lastmile_qr_scan"}, "is_reserved": 0, "name": "7227cb910137442e2884947efbadc7dd", "lon": -77.0653465, "type": "electric_scooter", "bike_id": "7227cb910137442e2884947efbadc7dd", "fusion_lon": 0.0, "lat": 38.90513116666666, "fusion_lat": 0.0}, {"is_disabled": 0, "rental_uris": {"android": "https://dc.lft.to/lastmile_qr_scan", "ios": "https://dc.lft.to/lastmile_qr_scan"}, "is_reserved": 0, "name": "c2f4be58b3fcd5173c3a045db9235dc1", "lon": -77.035227, "type": "electric_scooter", "bike_id": "c2f4be58b3fcd5173c3a045db9235dc1", "fusion_lon": 0.0, "lat": 38.92239883333333, "fusion_lat": 0.0}, {"is_disabled": 0, "rental_uris": {"android": "https://dc.lft.to/lastmile_qr_scan", "ios": "https://dc.lft.to/lastmile_qr_scan"}, "is_reserved": 0, "name": "b6aa65a3203a10065197fe9fc9d397a3", "lon": -77.0539475, "type": "electric_scooter", "bike_id": "b6aa65a3203a10065197fe9fc9d397a3", "fusion_lon": 0.0, "lat": 38.9277905, "fusion_lat": 0.0}, {"is_disabled": 0, "rental_uris": {"android": "https://dc.lft.to/lastmile_qr_scan", "ios": "https://dc.lft.to/lastmile_qr_scan"}, "is_reserved": 0, "name": "ad3fa599ae2b61cef852853b1feaa371", "lon": -77.0279335, "type": "electric_scooter", "bike_id": "ad3fa599ae2b61cef852853b1feaa371", "fusion_lon": 0.0, "lat": 38.884207833333335, "fusion_lat": 0.0}, {"is_disabled": 0, "rental_uris": {"android": "https://dc.lft.to/lastmile_qr_scan", "ios": "https://dc.lft.to/lastmile_qr_scan"}, "is_reserved": 0, "name": "621a5b68e18fd82a191c7edb7479978b", "lon": -77.04200033333333, "type": "electric_scooter", "bike_id": "621a5b68e18fd82a191c7edb7479978b", "fusion_lon": 0.0, "lat": 38.91680366666667, "fusion_lat": 0.0}, {"is_disabled": 0, "rental_uris": {"android": "https://dc.lft.to/lastmile_qr_scan", "ios": "https://dc.lft.to/lastmile_qr_scan"}, "is_reserved": 0, "name": "471f5df5edc47f177e95ceced70a7fd2", "lon": -77.059497, "type": "electric_scooter", "bike_id": "471f5df5edc47f177e95ceced70a7fd2", "fusion_lon": 0.0, "lat": 38.86240166666666, "fusion_lat": 0.0}, {"is_disabled": 0, "rental_uris": {"android": "https://dc.lft.to/lastmile_qr_scan", "ios": "https://dc.lft.to/lastmile_qr_scan"}, "is_reserved": 0, "name": "4e71ad5401b3881c1d28e5c61dee15e4", "lon": -77.02407183333334, "type": "electric_scooter", "bike_id": "4e71ad5401b3881c1d28e5c61dee15e4", "fusion_lon": 0.0, "lat": 38.89248683333334, "fusion_lat": 0.0}, {"is_disabled": 0, "rental_uris": {"android": "https://dc.lft.to/lastmile_qr_scan", "ios": "https://dc.lft.to/lastmile_qr_scan"}, "is_reserved": 0, "name": "f36f73818ddb8b8e98517cbf313a557c", "lon": -76.94866833333333, "type": "electric_bike", "bike_id": "f36f73818ddb8b8e98517cbf313a557c", "fusion_lon": 0.0, "lat": 38.88967266666667, "fusion_lat": 0.0}, {"is_disabled": 0, "rental_uris": {"android": "https://dc.lft.to/lastmile_qr_scan", "ios": "https://dc.lft.to/lastmile_qr_scan"}, "is_reserved": 0, "name": "3ef5af26819c4df750e516cc9a53190c", "lon": -76.9837565, "type": "electric_scooter", "bike_id": "3ef5af26819c4df750e516cc9a53190c", "fusion_lon": 0.0, "lat": 38.844385, "fusion_lat": 0.0}, {"is_disabled": 0, "rental_uris": {"android": "https://dc.lft.to/lastmile_qr_scan", "ios": "https://dc.lft.to/lastmile_qr_scan"}, "is_reserved": 0, "name": "a3908fff3a5b6e159223690f3d783054", "lon": -77.0163375, "type": "electric_scooter", "bike_id": "a3908fff3a5b6e159223690f3d783054", "fusion_lon": 0.0, "lat": 38.928871666666666, "fusion_lat": 0.0}, {"is_disabled": 0, "rental_uris": {"android": "https://dc.lft.to/lastmile_qr_scan", "ios": "https://dc.lft.to/lastmile_qr_scan"}, "is_reserved": 0, "name": "05990ca2f0da4dc8120e2713abdefccd", "lon": -77.01477366666667, "type": "electric_scooter", "bike_id": "05990ca2f0da4dc8120e2713abdefccd", "fusion_lon": 0.0, "lat": 38.8763005, "fusion_lat": 0.0}, {"is_disabled": 0, "rental_uris": {"android": "https://dc.lft.to/lastmile_qr_scan", "ios": "https://dc.lft.to/lastmile_qr_scan"}, "is_reserved": 0, "name": "be4392e07407093d9cce749241b502d5", "lon": -76.87771, "type": "electric_bike", "bike_id": "be4392e07407093d9cce749241b502d5", "fusion_lon": 0.0, "lat": 38.9922195, "fusion_lat": 0.0}, {"is_disabled": 0, "rental_uris": {"android": "https://dc.lft.to/lastmile_qr_scan", "ios": "https://dc.lft.to/lastmile_qr_scan"}, "is_reserved": 0, "name": "5a6a68bf42a90b4e410833a944f2385c", "lon": -77.01319966666667, "type": "electric_scooter", "bike_id": "5a6a68bf42a90b4e410833a944f2385c", "fusion_lon": 0.0, "lat": 38.901316666666666, "fusion_lat": 0.0}, {"is_disabled": 0, "rental_uris": {"android": "https://dc.lft.to/lastmile_qr_scan", "ios": "https://dc.lft.to/lastmile_qr_scan"}, "is_reserved": 0, "name": "b7190a161d3437ec9c2bf193294c76f5", "lon": -77.00779883333334, "type": "electric_bike", "bike_id": "b7190a161d3437ec9c2bf193294c76f5", "fusion_lon": 0.0, "lat": 38.98126416666667, "fusion_lat": 0.0}, {"is_disabled": 0, "rental_uris": {"android": "https://dc.lft.to/lastmile_qr_scan", "ios": "https://dc.lft.to/lastmile_qr_scan"}, "is_reserved": 0, "name": "9f2336c0b92ba29c8b2d52420ca2dc2c", "lon": -77.10727766666666, "type": "electric_bike", "bike_id": "9f2336c0b92ba29c8b2d52420ca2dc2c", "fusion_lon": 0.0, "lat": 38.85537633333333, "fusion_lat": 0.0}, {"is_disabled": 0, "rental_uris": {"android": "https://dc.lft.to/lastmile_qr_scan", "ios": "https://dc.lft.to/lastmile_qr_scan"}, "is_reserved": 0, "name": "b7a22befa0b651cb259d16e434b2a8c1", "lon": -77.02967916666667, "type": "electric_scooter", "bike_id": "b7a22befa0b651cb259d16e434b2a8c1", "fusion_lon": 0.0, "lat": 38.924639, "fusion_lat": 0.0}, {"is_disabled": 0, "rental_uris": {"android": "https://dc.lft.to/lastmile_qr_scan", "ios": "https://dc.lft.to/lastmile_qr_scan"}, "is_reserved": 0, "name": "5cf1c526f7322b11c1f72cdd43f0bd3a", "lon": -76.96386566666666, "type": "electric_bike", "bike_id": "5cf1c526f7322b11c1f72cdd43f0bd3a", "fusion_lon": 0.0, "lat": 38.97578516666667, "fusion_lat": 0.0}, {"is_disabled": 0, "rental_uris": {"android": "https://dc.lft.to/lastmile_qr_scan", "ios": "https://dc.lft.to/lastmile_qr_scan"}, "is_reserved": 0, "name": "23341d9cff5c0a0fbcfefd11c96b3ba9", "lon": -77.0399105, "type": "electric_scooter", "bike_id": "23341d9cff5c0a0fbcfefd11c96b3ba9", "fusion_lon": 0.0, "lat": 38.9141375, "fusion_lat": 0.0}, {"is_disabled": 0, "rental_uris": {"android": "https://dc.lft.to/lastmile_qr_scan", "ios": "https://dc.lft.to/lastmile_qr_scan"}, "is_reserved": 0, "name": "1d86e4a4933377f0eab50eeaaa10c747", "lon": -76.99054283333334, "type": "electric_scooter", "bike_id": "1d86e4a4933377f0eab50eeaaa10c747", "fusion_lon": 0.0, "lat": 38.858952333333335, "fusion_lat": 0.0}, {"is_disabled": 0, "rental_uris": {"android": "https://dc.lft.to/lastmile_qr_scan", "ios": "https://dc.lft.to/lastmile_qr_scan"}, "is_reserved": 0, "name": "97fd0be0fc1cee3fa72bc18f2722f819", "lon": -76.98307716666666, "type": "electric_scooter", "bike_id": "97fd0be0fc1cee3fa72bc18f2722f819", "fusion_lon": 0.0, "lat": 38.8688445, "fusion_lat": 0.0}, {"is_disabled": 0, "rental_uris": {"android": "https://dc.lft.to/lastmile_qr_scan", "ios": "https://dc.lft.to/lastmile_qr_scan"}, "is_reserved": 0, "name": "0b97a904ed437cfeb300df0078392947", "lon": -77.03479983333334, "type": "electric_scooter", "bike_id": "0b97a904ed437cfeb300df0078392947", "fusion_lon": 0.0, "lat": 38.907955, "fusion_lat": 0.0}, {"is_disabled": 0, "rental_uris": {"android": "https://dc.lft.to/lastmile_qr_scan", "ios": "https://dc.lft.to/lastmile_qr_scan"}, "is_reserved": 0, "name": "fbcd430431ee719700fb7bc2848ec32b", "lon": -76.9546365, "type": "electric_bike", "bike_id": "fbcd430431ee719700fb7bc2848ec32b", "fusion_lon": 0.0, "lat": 38.935635, "fusion_lat": 0.0}, {"is_disabled": 0, "rental_uris": {"android": "https://dc.lft.to/lastmile_qr_scan", "ios": "https://dc.lft.to/lastmile_qr_scan"}, "is_reserved": 0, "name": "14ca3c1d725dbabfc23b2572374fe395", "lon": -77.0122715, "type": "electric_scooter", "bike_id": "14ca3c1d725dbabfc23b2572374fe395", "fusion_lon": 0.0, "lat": 38.900394166666665, "fusion_lat": 0.0}, {"is_disabled": 0, "rental_uris": {"android": "https://dc.lft.to/lastmile_qr_scan", "ios": "https://dc.lft.to/lastmile_qr_scan"}, "is_reserved": 0, "name": "f43c57fe616672e1b86e10480a3853dc", "lon": -77.02918016666666, "type": "electric_bike", "bike_id": "f43c57fe616672e1b86e10480a3853dc", "fusion_lon": 0.0, "lat": 38.90567883333333, "fusion_lat": 0.0}, {"is_disabled": 0, "rental_uris": {"android": "https://dc.lft.to/lastmile_qr_scan", "ios": "https://dc.lft.to/lastmile_qr_scan"}, "is_reserved": 0, "name": "cf8e720ddd7927a0ce3c9018afb30a01", "lon": -77.03259866666667, "type": "electric_scooter", "bike_id": "cf8e720ddd7927a0ce3c9018afb30a01", "fusion_lon": 0.0, "lat": 38.91337583333333, "fusion_lat": 0.0}, {"is_disabled": 0, "rental_uris": {"android": "https://dc.lft.to/lastmile_qr_scan", "ios": "https://dc.lft.to/lastmile_qr_scan"}, "is_reserved": 0, "name": "5be1ff037a38d4df7f099621ae5c1a36", "lon": -77.032852, "type": "electric_scooter", "bike_id": "5be1ff037a38d4df7f099621ae5c1a36", "fusion_lon": 0.0, "lat": 38.920533166666665, "fusion_lat": 0.0}, {"is_disabled": 0, "rental_uris": {"android": "https://dc.lft.to/lastmile_qr_scan", "ios": "https://dc.lft.to/lastmile_qr_scan"}, "is_reserved": 0, "name": "c6c7740f328fd2067993f1abc30f29f3", "lon": -76.99006633333333, "type": "electric_scooter", "bike_id": "c6c7740f328fd2067993f1abc30f29f3", "fusion_lon": 0.0, "lat": 38.8650615, "fusion_lat": 0.0}, {"is_disabled": 0, "rental_uris": {"android": "https://dc.lft.to/lastmile_qr_scan", "ios": "https://dc.lft.to/lastmile_qr_scan"}, "is_reserved": 0, "name": "31d1c6ffb4498c0bfa7af051468e702e", "lon": -77.04328233333334, "type": "electric_scooter", "bike_id": "31d1c6ffb4498c0bfa7af051468e702e", "fusion_lon": 0.0, "lat": 38.898157833333336, "fusion_lat": 0.0}, {"is_disabled": 0, "rental_uris": {"android": "https://dc.lft.to/lastmile_qr_scan", "ios": "https://dc.lft.to/lastmile_qr_scan"}, "is_reserved": 0, "name": "dc9c31b5a9540b4045690ca4c2c145f1", "lon": -76.9963945, "type": "electric_scooter", "bike_id": "dc9c31b5a9540b4045690ca4c2c145f1", "fusion_lon": 0.0, "lat": 38.90036033333333, "fusion_lat": 0.0}, {"is_disabled": 0, "rental_uris": {"android": "https://dc.lft.to/lastmile_qr_scan", "ios": "https://dc.lft.to/lastmile_qr_scan"}, "is_reserved": 0, "name": "25885c839da9599d826a3ae1a2d69400", "lon": -76.954135, "type": "electric_scooter", "bike_id": "25885c839da9599d826a3ae1a2d69400", "fusion_lon": 0.0, "lat": 38.884479, "fusion_lat": 0.0}, {"is_disabled": 0, "rental_uris": {"android": "https://dc.lft.to/lastmile_qr_scan", "ios": "https://dc.lft.to/lastmile_qr_scan"}, "is_reserved": 0, "name": "121a9535c5ea89d5ece849194c5b863f", "lon": -77.02497333333334, "type": "electric_scooter", "bike_id": "121a9535c5ea89d5ece849194c5b863f", "fusion_lon": 0.0, "lat": 38.919174166666664, "fusion_lat": 0.0}, {"is_disabled": 0, "rental_uris": {"android": "https://dc.lft.to/lastmile_qr_scan", "ios": "https://dc.lft.to/lastmile_qr_scan"}, "is_reserved": 0, "name": "0a9f57ca4003cd611f8ccdaee2355e10", "lon": -77.003694, "type": "electric_scooter", "bike_id": "0a9f57ca4003cd611f8ccdaee2355e10", "fusion_lon": 0.0, "lat": 38.87753633333333, "fusion_lat": 0.0}, {"is_disabled": 0, "rental_uris": {"android": "https://dc.lft.to/lastmile_qr_scan", "ios": "https://dc.lft.to/lastmile_qr_scan"}, "is_reserved": 0, "name": "3ca9bf22b34c47c3fbe6cc8e7adc5875", "lon": -77.02835483333334, "type": "electric_scooter", "bike_id": "3ca9bf22b34c47c3fbe6cc8e7adc5875", "fusion_lon": 0.0, "lat": 38.93188933333333, "fusion_lat": 0.0}, {"is_disabled": 0, "rental_uris": {"android": "https://dc.lft.to/lastmile_qr_scan", "ios": "https://dc.lft.to/lastmile_qr_scan"}, "is_reserved": 0, "name": "546712e692651b6f982d61bd1d6d4ee0", "lon": -77.03582316666666, "type": "electric_scooter", "bike_id": "546712e692651b6f982d61bd1d6d4ee0", "fusion_lon": 0.0, "lat": 38.907579, "fusion_lat": 0.0}, {"is_disabled": 0, "rental_uris": {"android": "https://dc.lft.to/lastmile_qr_scan", "ios": "https://dc.lft.to/lastmile_qr_scan"}, "is_reserved": 0, "name": "176a7ebbfcb995b700c46551ca604bdd", "lon": -77.17801183333333, "type": "electric_bike", "bike_id": "176a7ebbfcb995b700c46551ca604bdd", "fusion_lon": 0.0, "lat": 39.088455, "fusion_lat": 0.0}, {"is_disabled": 0, "rental_uris": {"android": "https://dc.lft.to/lastmile_qr_scan", "ios": "https://dc.lft.to/lastmile_qr_scan"}, "is_reserved": 0, "name": "a798563bd3565549e3bd2a4ea7ea01be", "lon": -77.0512205, "type": "electric_scooter", "bike_id": "a798563bd3565549e3bd2a4ea7ea01be", "fusion_lon": 0.0, "lat": 38.923407, "fusion_lat": 0.0}, {"is_disabled": 0, "rental_uris": {"android": "https://dc.lft.to/lastmile_qr_scan", "ios": "https://dc.lft.to/lastmile_qr_scan"}, "is_reserved": 0, "name": "e202f7a6a6c48c737d249797a4c5ab29", "lon": -77.0500945, "type": "electric_scooter", "bike_id": "e202f7a6a6c48c737d249797a4c5ab29", "fusion_lon": 0.0, "lat": 38.89780983333333, "fusion_lat": 0.0}, {"is_disabled": 0, "rental_uris": {"android": "https://dc.lft.to/lastmile_qr_scan", "ios": "https://dc.lft.to/lastmile_qr_scan"}, "is_reserved": 0, "name": "a94765faddb197a1f767562cc0768ff4", "lon": -76.988873, "type": "electric_scooter", "bike_id": "a94765faddb197a1f767562cc0768ff4", "fusion_lon": 0.0, "lat": 38.866739333333335, "fusion_lat": 0.0}, {"is_disabled": 0, "rental_uris": {"android": "https://dc.lft.to/lastmile_qr_scan", "ios": "https://dc.lft.to/lastmile_qr_scan"}, "is_reserved": 0, "name": "623036ffc58a6031b875b864b639d659", "lon": -77.01612566666667, "type": "electric_scooter", "bike_id": "623036ffc58a6031b875b864b639d659", "fusion_lon": 0.0, "lat": 38.898520166666664, "fusion_lat": 0.0}, {"is_disabled": 0, "rental_uris": {"android": "https://dc.lft.to/lastmile_qr_scan", "ios": "https://dc.lft.to/lastmile_qr_scan"}, "is_reserved": 0, "name": "23c97693dacba575aef944f461a1102a", "lon": -77.00119833333333, "type": "electric_scooter", "bike_id": "23c97693dacba575aef944f461a1102a", "fusion_lon": 0.0, "lat": 38.912501, "fusion_lat": 0.0}, {"is_disabled": 0, "rental_uris": {"android": "https://dc.lft.to/lastmile_qr_scan", "ios": "https://dc.lft.to/lastmile_qr_scan"}, "is_reserved": 0, "name": "c72f06204fc4b577b5c11b6a0e1e7778", "lon": -77.02807, "type": "electric_scooter", "bike_id": "c72f06204fc4b577b5c11b6a0e1e7778", "fusion_lon": 0.0, "lat": 38.9175455, "fusion_lat": 0.0}, {"is_disabled": 0, "rental_uris": {"android": "https://dc.lft.to/lastmile_qr_scan", "ios": "https://dc.lft.to/lastmile_qr_scan"}, "is_reserved": 0, "name": "4ddde269342f07ec6edfd4a4f2223077", "lon": -76.99492533333333, "type": "electric_scooter", "bike_id": "4ddde269342f07ec6edfd4a4f2223077", "fusion_lon": 0.0, "lat": 38.932198666666665, "fusion_lat": 0.0}, {"is_disabled": 0, "rental_uris": {"android": "https://dc.lft.to/lastmile_qr_scan", "ios": "https://dc.lft.to/lastmile_qr_scan"}, "is_reserved": 0, "name": "378708d5936a20db71b3939d08ecc12a", "lon": -77.01010816666667, "type": "electric_scooter", "bike_id": "378708d5936a20db71b3939d08ecc12a", "fusion_lon": 0.0, "lat": 38.87965033333333, "fusion_lat": 0.0}, {"is_disabled": 0, "rental_uris": {"android": "https://dc.lft.to/lastmile_qr_scan", "ios": "https://dc.lft.to/lastmile_qr_scan"}, "is_reserved": 0, "name": "ea10b8632850ff177a034424cafc09ac", "lon": -77.0089785, "type": "electric_scooter", "bike_id": "ea10b8632850ff177a034424cafc09ac", "fusion_lon": 0.0, "lat": 38.895397, "fusion_lat": 0.0}, {"is_disabled": 0, "rental_uris": {"android": "https://dc.lft.to/lastmile_qr_scan", "ios": "https://dc.lft.to/lastmile_qr_scan"}, "is_reserved": 0, "name": "6725a9f06a1f61233b4316ce4c79b529", "lon": -77.0617405, "type": "electric_bike", "bike_id": "6725a9f06a1f61233b4316ce4c79b529", "fusion_lon": 0.0, "lat": 38.812709, "fusion_lat": 0.0}, {"is_disabled": 0, "rental_uris": {"android": "https://dc.lft.to/lastmile_qr_scan", "ios": "https://dc.lft.to/lastmile_qr_scan"}, "is_reserved": 0, "name": "a33c44967ce475b6a093cbe28c845174", "lon": -77.03396083333334, "type": "electric_scooter", "bike_id": "a33c44967ce475b6a093cbe28c845174", "fusion_lon": 0.0, "lat": 38.9196325, "fusion_lat": 0.0}, {"is_disabled": 0, "rental_uris": {"android": "https://dc.lft.to/lastmile_qr_scan", "ios": "https://dc.lft.to/lastmile_qr_scan"}, "is_reserved": 0, "name": "ff3f3513a7b4b3cffb86f98d1beacc83", "lon": -77.06118083333334, "type": "electric_scooter", "bike_id": "ff3f3513a7b4b3cffb86f98d1beacc83", "fusion_lon": 0.0, "lat": 38.943570333333334, "fusion_lat": 0.0}, {"is_disabled": 0, "rental_uris": {"android": "https://dc.lft.to/lastmile_qr_scan", "ios": "https://dc.lft.to/lastmile_qr_scan"}, "is_reserved": 0, "name": "cae11803d548f1d3f5798b5c04c0491f", "lon": -77.07902183333333, "type": "electric_bike", "bike_id": "cae11803d548f1d3f5798b5c04c0491f", "fusion_lon": 0.0, "lat": 38.839303, "fusion_lat": 0.0}, {"is_disabled": 0, "rental_uris": {"android": "https://dc.lft.to/lastmile_qr_scan", "ios": "https://dc.lft.to/lastmile_qr_scan"}, "is_reserved": 0, "name": "7078007ba2f82ff44261e26948a12fee", "lon": -77.04666516666667, "type": "electric_scooter", "bike_id": "7078007ba2f82ff44261e26948a12fee", "fusion_lon": 0.0, "lat": 38.907342, "fusion_lat": 0.0}, {"is_disabled": 0, "rental_uris": {"android": "https://dc.lft.to/lastmile_qr_scan", "ios": "https://dc.lft.to/lastmile_qr_scan"}, "is_reserved": 0, "name": "65967f84564887bbea00604a3ad6543e", "lon": -77.0239545, "type": "electric_scooter", "bike_id": "65967f84564887bbea00604a3ad6543e", "fusion_lon": 0.0, "lat": 38.91676116666667, "fusion_lat": 0.0}, {"is_disabled": 0, "rental_uris": {"android": "https://dc.lft.to/lastmile_qr_scan", "ios": "https://dc.lft.to/lastmile_qr_scan"}, "is_reserved": 0, "name": "bd7e6127fcb94e490be8e4b38c9e3293", "lon": -76.991677, "type": "electric_bike", "bike_id": "bd7e6127fcb94e490be8e4b38c9e3293", "fusion_lon": 0.0, "lat": 38.97255, "fusion_lat": 0.0}, {"is_disabled": 0, "rental_uris": {"android": "https://dc.lft.to/lastmile_qr_scan", "ios": "https://dc.lft.to/lastmile_qr_scan"}, "is_reserved": 0, "name": "8cb0f9aadf4efb55c54837d5f8ae18e6", "lon": -77.01751483333334, "type": "electric_scooter", "bike_id": "8cb0f9aadf4efb55c54837d5f8ae18e6", "fusion_lon": 0.0, "lat": 38.91350716666667, "fusion_lat": 0.0}, {"is_disabled": 0, "rental_uris": {"android": "https://dc.lft.to/lastmile_qr_scan", "ios": "https://dc.lft.to/lastmile_qr_scan"}, "is_reserved": 0, "name": "47501412d0403c45720ed03dfc04e7e8", "lon": -77.03371016666667, "type": "electric_scooter", "bike_id": "47501412d0403c45720ed03dfc04e7e8", "fusion_lon": 0.0, "lat": 38.9215835, "fusion_lat": 0.0}, {"is_disabled": 0, "rental_uris": {"android": "https://dc.lft.to/lastmile_qr_scan", "ios": "https://dc.lft.to/lastmile_qr_scan"}, "is_reserved": 0, "name": "81f841e3b87d75a11d9a50222cc8270e", "lon": -77.02804616666667, "type": "electric_scooter", "bike_id": "81f841e3b87d75a11d9a50222cc8270e", "fusion_lon": 0.0, "lat": 38.962148, "fusion_lat": 0.0}, {"is_disabled": 0, "rental_uris": {"android": "https://dc.lft.to/lastmile_qr_scan", "ios": "https://dc.lft.to/lastmile_qr_scan"}, "is_reserved": 0, "name": "29b677f89745f77bdc5226b3f50786d9", "lon": -77.036315, "type": "electric_scooter", "bike_id": "29b677f89745f77bdc5226b3f50786d9", "fusion_lon": 0.0, "lat": 38.94280233333333, "fusion_lat": 0.0}, {"is_disabled": 0, "rental_uris": {"android": "https://dc.lft.to/lastmile_qr_scan", "ios": "https://dc.lft.to/lastmile_qr_scan"}, "is_reserved": 0, "name": "746cdb867f795385af89c7caaa71924c", "lon": -77.03174516666667, "type": "electric_scooter", "bike_id": "746cdb867f795385af89c7caaa71924c", "fusion_lon": 0.0, "lat": 38.9141535, "fusion_lat": 0.0}, {"is_disabled": 0, "rental_uris": {"android": "https://dc.lft.to/lastmile_qr_scan", "ios": "https://dc.lft.to/lastmile_qr_scan"}, "is_reserved": 0, "name": "b7ccc5890bf9e7eaaedf3ab49ecf1037", "lon": -77.02701683333333, "type": "electric_scooter", "bike_id": "b7ccc5890bf9e7eaaedf3ab49ecf1037", "fusion_lon": 0.0, "lat": 38.949807666666665, "fusion_lat": 0.0}, {"is_disabled": 0, "rental_uris": {"android": "https://dc.lft.to/lastmile_qr_scan", "ios": "https://dc.lft.to/lastmile_qr_scan"}, "is_reserved": 0, "name": "04efcedea7c2fc080df92b7da731038d", "lon": -77.046919, "type": "electric_scooter", "bike_id": "04efcedea7c2fc080df92b7da731038d", "fusion_lon": 0.0, "lat": 38.897287166666665, "fusion_lat": 0.0}, {"is_disabled": 0, "rental_uris": {"android": "https://dc.lft.to/lastmile_qr_scan", "ios": "https://dc.lft.to/lastmile_qr_scan"}, "is_reserved": 0, "name": "6cc1583f674bdeb9bc0672f377914bba", "lon": -77.03155033333333, "type": "electric_scooter", "bike_id": "6cc1583f674bdeb9bc0672f377914bba", "fusion_lon": 0.0, "lat": 38.92864316666667, "fusion_lat": 0.0}, {"is_disabled": 0, "rental_uris": {"android": "https://dc.lft.to/lastmile_qr_scan", "ios": "https://dc.lft.to/lastmile_qr_scan"}, "is_reserved": 0, "name": "de535a00edcbee9e8fbc4d1597dd0b8e", "lon": -77.03631966666667, "type": "electric_scooter", "bike_id": "de535a00edcbee9e8fbc4d1597dd0b8e", "fusion_lon": 0.0, "lat": 38.93044183333333, "fusion_lat": 0.0}, {"is_disabled": 0, "rental_uris": {"android": "https://dc.lft.to/lastmile_qr_scan", "ios": "https://dc.lft.to/lastmile_qr_scan"}, "is_reserved": 0, "name": "045572f2b552088f6f5839e49d360684", "lon": -77.00663333333334, "type": "electric_bike", "bike_id": "045572f2b552088f6f5839e49d360684", "fusion_lon": 0.0, "lat": 38.94507766666667, "fusion_lat": 0.0}, {"is_disabled": 0, "rental_uris": {"android": "https://dc.lft.to/lastmile_qr_scan", "ios": "https://dc.lft.to/lastmile_qr_scan"}, "is_reserved": 0, "name": "211393c01a94392f9de5099b57bcfc2e", "lon": -77.02702616666667, "type": "electric_scooter", "bike_id": "211393c01a94392f9de5099b57bcfc2e", "fusion_lon": 0.0, "lat": 38.9062765, "fusion_lat": 0.0}, {"is_disabled": 0, "rental_uris": {"android": "https://dc.lft.to/lastmile_qr_scan", "ios": "https://dc.lft.to/lastmile_qr_scan"}, "is_reserved": 0, "name": "2e1bd5439969ca9997b5897f1d760284", "lon": -77.04939066666667, "type": "electric_scooter", "bike_id": "2e1bd5439969ca9997b5897f1d760284", "fusion_lon": 0.0, "lat": 38.9072405, "fusion_lat": 0.0}, {"is_disabled": 0, "rental_uris": {"android": "https://dc.lft.to/lastmile_qr_scan", "ios": "https://dc.lft.to/lastmile_qr_scan"}, "is_reserved": 0, "name": "e50ca5ad964d531cfe993523922459ca", "lon": -77.00116616666666, "type": "electric_scooter", "bike_id": "e50ca5ad964d531cfe993523922459ca", "fusion_lon": 0.0, "lat": 38.873853833333335, "fusion_lat": 0.0}, {"is_disabled": 0, "rental_uris": {"android": "https://dc.lft.to/lastmile_qr_scan", "ios": "https://dc.lft.to/lastmile_qr_scan"}, "is_reserved": 0, "name": "a32da1656d9856b25e5f56fb59b570da", "lon": -77.01191733333333, "type": "electric_scooter", "bike_id": "a32da1656d9856b25e5f56fb59b570da", "fusion_lon": 0.0, "lat": 38.90366066666667, "fusion_lat": 0.0}, {"is_disabled": 0, "rental_uris": {"android": "https://dc.lft.to/lastmile_qr_scan", "ios": "https://dc.lft.to/lastmile_qr_scan"}, "is_reserved": 0, "name": "596ad2d11b3e0c0e9b4b1ed8b9c0d577", "lon": -77.0246615, "type": "electric_scooter", "bike_id": "596ad2d11b3e0c0e9b4b1ed8b9c0d577", "fusion_lon": 0.0, "lat": 38.938539666666664, "fusion_lat": 0.0}, {"is_disabled": 0, "rental_uris": {"android": "https://dc.lft.to/lastmile_qr_scan", "ios": "https://dc.lft.to/lastmile_qr_scan"}, "is_reserved": 0, "name": "2bb5dbaa1fe8bf4d4111b06192e58200", "lon": -77.02881466666666, "type": "electric_scooter", "bike_id": "2bb5dbaa1fe8bf4d4111b06192e58200", "fusion_lon": 0.0, "lat": 38.9014445, "fusion_lat": 0.0}, {"is_disabled": 0, "rental_uris": {"android": "https://dc.lft.to/lastmile_qr_scan", "ios": "https://dc.lft.to/lastmile_qr_scan"}, "is_reserved": 0, "name": "7076268590ac7f18df008d088e1227fd", "lon": -77.01822166666666, "type": "electric_scooter", "bike_id": "7076268590ac7f18df008d088e1227fd", "fusion_lon": 0.0, "lat": 38.92209916666667, "fusion_lat": 0.0}, {"is_disabled": 0, "rental_uris": {"android": "https://dc.lft.to/lastmile_qr_scan", "ios": "https://dc.lft.to/lastmile_qr_scan"}, "is_reserved": 0, "name": "1fb8e05bebf60dd2633699c725a33ab9", "lon": -76.93224183333334, "type": "electric_bike", "bike_id": "1fb8e05bebf60dd2633699c725a33ab9", "fusion_lon": 0.0, "lat": 38.8659175, "fusion_lat": 0.0}, {"is_disabled": 0, "rental_uris": {"android": "https://dc.lft.to/lastmile_qr_scan", "ios": "https://dc.lft.to/lastmile_qr_scan"}, "is_reserved": 0, "name": "5c2218090f533993162279037fe429c5", "lon": -77.03718116666667, "type": "electric_scooter", "bike_id": "5c2218090f533993162279037fe429c5", "fusion_lon": 0.0, "lat": 38.91119783333333, "fusion_lat": 0.0}, {"is_disabled": 0, "rental_uris": {"android": "https://dc.lft.to/lastmile_qr_scan", "ios": "https://dc.lft.to/lastmile_qr_scan"}, "is_reserved": 0, "name": "42410897ef64e358597e092bfdef24ca", "lon": -77.04750783333333, "type": "electric_scooter", "bike_id": "42410897ef64e358597e092bfdef24ca", "fusion_lon": 0.0, "lat": 38.905826166666664, "fusion_lat": 0.0}, {"is_disabled": 0, "rental_uris": {"android": "https://dc.lft.to/lastmile_qr_scan", "ios": "https://dc.lft.to/lastmile_qr_scan"}, "is_reserved": 0, "name": "efed85a47f07dabbf83dbaec243195fd", "lon": -77.0401755, "type": "electric_scooter", "bike_id": "efed85a47f07dabbf83dbaec243195fd", "fusion_lon": 0.0, "lat": 38.91795166666667, "fusion_lat": 0.0}, {"is_disabled": 0, "rental_uris": {"android": "https://dc.lft.to/lastmile_qr_scan", "ios": "https://dc.lft.to/lastmile_qr_scan"}, "is_reserved": 0, "name": "691b84ae30a239b6b8706f1cf39ca067", "lon": -77.01990466666666, "type": "electric_scooter", "bike_id": "691b84ae30a239b6b8706f1cf39ca067", "fusion_lon": 0.0, "lat": 38.897422666666664, "fusion_lat": 0.0}, {"is_disabled": 0, "rental_uris": {"android": "https://dc.lft.to/lastmile_qr_scan", "ios": "https://dc.lft.to/lastmile_qr_scan"}, "is_reserved": 0, "name": "953603afa54f3544969292aebfa7aa7a", "lon": -77.03427333333333, "type": "electric_scooter", "bike_id": "953603afa54f3544969292aebfa7aa7a", "fusion_lon": 0.0, "lat": 38.93537283333333, "fusion_lat": 0.0}, {"is_disabled": 0, "rental_uris": {"android": "https://dc.lft.to/lastmile_qr_scan", "ios": "https://dc.lft.to/lastmile_qr_scan"}, "is_reserved": 0, "name": "1117903dba936e0635027cc4a40a959b", "lon": -77.0379775, "type": "electric_scooter", "bike_id": "1117903dba936e0635027cc4a40a959b", "fusion_lon": 0.0, "lat": 38.9301945, "fusion_lat": 0.0}, {"is_disabled": 0, "rental_uris": {"android": "https://dc.lft.to/lastmile_qr_scan", "ios": "https://dc.lft.to/lastmile_qr_scan"}, "is_reserved": 0, "name": "01a95998b3a24e65dc2fc722097df5c9", "lon": -76.976237, "type": "electric_scooter", "bike_id": "01a95998b3a24e65dc2fc722097df5c9", "fusion_lon": 0.0, "lat": 38.931427, "fusion_lat": 0.0}, {"is_disabled": 0, "rental_uris": {"android": "https://dc.lft.to/lastmile_qr_scan", "ios": "https://dc.lft.to/lastmile_qr_scan"}, "is_reserved": 0, "name": "c072c04ae965b57c289b4b21b520e285", "lon": -76.94062066666666, "type": "electric_scooter", "bike_id": "c072c04ae965b57c289b4b21b520e285", "fusion_lon": 0.0, "lat": 38.890373833333335, "fusion_lat": 0.0}, {"is_disabled": 0, "rental_uris": {"android": "https://dc.lft.to/lastmile_qr_scan", "ios": "https://dc.lft.to/lastmile_qr_scan"}, "is_reserved": 0, "name": "96ffcb8da3583752e9753b70aab208b5", "lon": -77.03200883333334, "type": "electric_scooter", "bike_id": "96ffcb8da3583752e9753b70aab208b5", "fusion_lon": 0.0, "lat": 38.9175625, "fusion_lat": 0.0}, {"is_disabled": 0, "rental_uris": {"android": "https://dc.lft.to/lastmile_qr_scan", "ios": "https://dc.lft.to/lastmile_qr_scan"}, "is_reserved": 0, "name": "f96460f5f33c7a59eb2d4cdb1f3ae908", "lon": -77.0305385, "type": "electric_scooter", "bike_id": "f96460f5f33c7a59eb2d4cdb1f3ae908", "fusion_lon": 0.0, "lat": 38.934531, "fusion_lat": 0.0}, {"is_disabled": 0, "rental_uris": {"android": "https://dc.lft.to/lastmile_qr_scan", "ios": "https://dc.lft.to/lastmile_qr_scan"}, "is_reserved": 0, "name": "bf689a5f0aab37a701660877e2adfb71", "lon": -76.98771016666667, "type": "electric_scooter", "bike_id": "bf689a5f0aab37a701660877e2adfb71", "fusion_lon": 0.0, "lat": 38.91172183333333, "fusion_lat": 0.0}, {"is_disabled": 0, "rental_uris": {"android": "https://dc.lft.to/lastmile_qr_scan", "ios": "https://dc.lft.to/lastmile_qr_scan"}, "is_reserved": 0, "name": "7686174769f25b2070b48c9458151731", "lon": -76.9373525, "type": "electric_scooter", "bike_id": "7686174769f25b2070b48c9458151731", "fusion_lon": 0.0, "lat": 38.89005433333333, "fusion_lat": 0.0}, {"is_disabled": 0, "rental_uris": {"android": "https://dc.lft.to/lastmile_qr_scan", "ios": "https://dc.lft.to/lastmile_qr_scan"}, "is_reserved": 0, "name": "68e79eba20e6c67d4430cb5f1b508959", "lon": -77.12581566666667, "type": "electric_bike", "bike_id": "68e79eba20e6c67d4430cb5f1b508959", "fusion_lon": 0.0, "lat": 38.851434166666664, "fusion_lat": 0.0}, {"is_disabled": 0, "rental_uris": {"android": "https://dc.lft.to/lastmile_qr_scan", "ios": "https://dc.lft.to/lastmile_qr_scan"}, "is_reserved": 0, "name": "826470bcc85db30ea192b00eb231a833", "lon": -77.04712783333333, "type": "electric_scooter", "bike_id": "826470bcc85db30ea192b00eb231a833", "fusion_lon": 0.0, "lat": 38.8972, "fusion_lat": 0.0}, {"is_disabled": 0, "rental_uris": {"android": "https://dc.lft.to/lastmile_qr_scan", "ios": "https://dc.lft.to/lastmile_qr_scan"}, "is_reserved": 0, "name": "6b08215e398f5d385b5dd7ff0945ee84", "lon": -77.037387, "type": "electric_scooter", "bike_id": "6b08215e398f5d385b5dd7ff0945ee84", "fusion_lon": 0.0, "lat": 38.91187583333333, "fusion_lat": 0.0}, {"is_disabled": 0, "rental_uris": {"android": "https://dc.lft.to/lastmile_qr_scan", "ios": "https://dc.lft.to/lastmile_qr_scan"}, "is_reserved": 0, "name": "207e7091c22616ff5d2f8a1c5b9775a0", "lon": -76.982681, "type": "electric_scooter", "bike_id": "207e7091c22616ff5d2f8a1c5b9775a0", "fusion_lon": 0.0, "lat": 38.88532466666667, "fusion_lat": 0.0}, {"is_disabled": 0, "rental_uris": {"android": "https://dc.lft.to/lastmile_qr_scan", "ios": "https://dc.lft.to/lastmile_qr_scan"}, "is_reserved": 0, "name": "bf6002ee3156409a624516ee146ccc72", "lon": -77.0708105, "type": "electric_scooter", "bike_id": "bf6002ee3156409a624516ee146ccc72", "fusion_lon": 0.0, "lat": 38.91936166666667, "fusion_lat": 0.0}, {"is_disabled": 0, "rental_uris": {"android": "https://dc.lft.to/lastmile_qr_scan", "ios": "https://dc.lft.to/lastmile_qr_scan"}, "is_reserved": 0, "name": "5e24cadacfb024bc53e452598f8a9b3a", "lon": -77.03467966666666, "type": "electric_scooter", "bike_id": "5e24cadacfb024bc53e452598f8a9b3a", "fusion_lon": 0.0, "lat": 38.9215705, "fusion_lat": 0.0}, {"is_disabled": 0, "rental_uris": {"android": "https://dc.lft.to/lastmile_qr_scan", "ios": "https://dc.lft.to/lastmile_qr_scan"}, "is_reserved": 0, "name": "0020f0c4239e234b7d2fa90ae246960c", "lon": -77.05116083333333, "type": "electric_scooter", "bike_id": "0020f0c4239e234b7d2fa90ae246960c", "fusion_lon": 0.0, "lat": 38.905907666666664, "fusion_lat": 0.0}, {"is_disabled": 0, "rental_uris": {"android": "https://dc.lft.to/lastmile_qr_scan", "ios": "https://dc.lft.to/lastmile_qr_scan"}, "is_reserved": 0, "name": "ca566a487c05d2fb30f212c00443b81a", "lon": -77.04336833333333, "type": "electric_scooter", "bike_id": "ca566a487c05d2fb30f212c00443b81a", "fusion_lon": 0.0, "lat": 38.89822783333334, "fusion_lat": 0.0}, {"is_disabled": 0, "rental_uris": {"android": "https://dc.lft.to/lastmile_qr_scan", "ios": "https://dc.lft.to/lastmile_qr_scan"}, "is_reserved": 0, "name": "9f6e5cf715861c9435ec284ef680acd2", "lon": -76.95206483333334, "type": "electric_scooter", "bike_id": "9f6e5cf715861c9435ec284ef680acd2", "fusion_lon": 0.0, "lat": 38.89247133333333, "fusion_lat": 0.0}, {"is_disabled": 0, "rental_uris": {"android": "https://dc.lft.to/lastmile_qr_scan", "ios": "https://dc.lft.to/lastmile_qr_scan"}, "is_reserved": 0, "name": "dda077eb93ae758c48e8214ffd925908", "lon": -77.04664516666666, "type": "electric_scooter", "bike_id": "dda077eb93ae758c48e8214ffd925908", "fusion_lon": 0.0, "lat": 38.904855, "fusion_lat": 0.0}, {"is_disabled": 0, "rental_uris": {"android": "https://dc.lft.to/lastmile_qr_scan", "ios": "https://dc.lft.to/lastmile_qr_scan"}, "is_reserved": 0, "name": "9f0837ae34bca1f0d45b6cd7a735718e", "lon": -76.983828, "type": "electric_scooter", "bike_id": "9f0837ae34bca1f0d45b6cd7a735718e", "fusion_lon": 0.0, "lat": 38.91498833333333, "fusion_lat": 0.0}, {"is_disabled": 0, "rental_uris": {"android": "https://dc.lft.to/lastmile_qr_scan", "ios": "https://dc.lft.to/lastmile_qr_scan"}, "is_reserved": 0, "name": "ac484f699bda9d96d63bec5b1ec7a134", "lon": -76.99906116666666, "type": "electric_scooter", "bike_id": "ac484f699bda9d96d63bec5b1ec7a134", "fusion_lon": 0.0, "lat": 38.90005883333333, "fusion_lat": 0.0}, {"is_disabled": 0, "rental_uris": {"android": "https://dc.lft.to/lastmile_qr_scan", "ios": "https://dc.lft.to/lastmile_qr_scan"}, "is_reserved": 0, "name": "b102a840a067310f0ed7895f36628099", "lon": -77.04457883333333, "type": "electric_scooter", "bike_id": "b102a840a067310f0ed7895f36628099", "fusion_lon": 0.0, "lat": 38.9186415, "fusion_lat": 0.0}, {"is_disabled": 0, "rental_uris": {"android": "https://dc.lft.to/lastmile_qr_scan", "ios": "https://dc.lft.to/lastmile_qr_scan"}, "is_reserved": 0, "name": "3659307723752a928c51c54e1226cd5d", "lon": -77.04014216666667, "type": "electric_scooter", "bike_id": "3659307723752a928c51c54e1226cd5d", "fusion_lon": 0.0, "lat": 38.920847333333334, "fusion_lat": 0.0}, {"is_disabled": 0, "rental_uris": {"android": "https://dc.lft.to/lastmile_qr_scan", "ios": "https://dc.lft.to/lastmile_qr_scan"}, "is_reserved": 0, "name": "12c8c7ebf35bb34db37485ac1c92e170", "lon": -77.00333366666666, "type": "electric_scooter", "bike_id": "12c8c7ebf35bb34db37485ac1c92e170", "fusion_lon": 0.0, "lat": 38.904622333333336, "fusion_lat": 0.0}, {"is_disabled": 0, "rental_uris": {"android": "https://dc.lft.to/lastmile_qr_scan", "ios": "https://dc.lft.to/lastmile_qr_scan"}, "is_reserved": 0, "name": "f8063b1db2496b4c3adb8ef23640e099", "lon": -77.07903233333333, "type": "electric_bike", "bike_id": "f8063b1db2496b4c3adb8ef23640e099", "fusion_lon": 0.0, "lat": 38.8393215, "fusion_lat": 0.0}, {"is_disabled": 0, "rental_uris": {"android": "https://dc.lft.to/lastmile_qr_scan", "ios": "https://dc.lft.to/lastmile_qr_scan"}, "is_reserved": 0, "name": "8631a6d64c95967629c50d5c45eab6a5", "lon": -77.03663966666667, "type": "electric_scooter", "bike_id": "8631a6d64c95967629c50d5c45eab6a5", "fusion_lon": 0.0, "lat": 38.92258366666667, "fusion_lat": 0.0}, {"is_disabled": 0, "rental_uris": {"android": "https://dc.lft.to/lastmile_qr_scan", "ios": "https://dc.lft.to/lastmile_qr_scan"}, "is_reserved": 0, "name": "0d2e0cb3671ddd6fda73252783918d43", "lon": -76.96837866666667, "type": "electric_bike", "bike_id": "0d2e0cb3671ddd6fda73252783918d43", "fusion_lon": 0.0, "lat": 38.924399333333334, "fusion_lat": 0.0}, {"is_disabled": 0, "rental_uris": {"android": "https://dc.lft.to/lastmile_qr_scan", "ios": "https://dc.lft.to/lastmile_qr_scan"}, "is_reserved": 0, "name": "02a2387c840e39702c048d11c2991716", "lon": -77.0398235, "type": "electric_scooter", "bike_id": "02a2387c840e39702c048d11c2991716", "fusion_lon": 0.0, "lat": 38.8988335, "fusion_lat": 0.0}, {"is_disabled": 0, "rental_uris": {"android": "https://dc.lft.to/lastmile_qr_scan", "ios": "https://dc.lft.to/lastmile_qr_scan"}, "is_reserved": 0, "name": "1438c3d137fb145727bfc3c16e75b342", "lon": -76.98322466666667, "type": "electric_scooter", "bike_id": "1438c3d137fb145727bfc3c16e75b342", "fusion_lon": 0.0, "lat": 38.86166983333333, "fusion_lat": 0.0}, {"is_disabled": 0, "rental_uris": {"android": "https://dc.lft.to/lastmile_qr_scan", "ios": "https://dc.lft.to/lastmile_qr_scan"}, "is_reserved": 0, "name": "7ca68e621f813747e9c393adcf0c73d9", "lon": -77.03210033333333, "type": "electric_scooter", "bike_id": "7ca68e621f813747e9c393adcf0c73d9", "fusion_lon": 0.0, "lat": 38.918282, "fusion_lat": 0.0},