{"data": {"bikes": [{"name": "2eb709e23f9c864f6e2d2cda4c6c5efa", "fusion_lon": 0.0, "lat": 38.92055366666666, "is_reserved": 0, "type": "electric_scooter", "bike_id": "2eb709e23f9c864f6e2d2cda4c6c5efa", "is_disabled": 0, "rental_uris": {"android": "https://dc.lft.to/lastmile_qr_scan", "ios": "https://dc.lft.to/lastmile_qr_scan"}, "lon": -77.02984016666667, "fusion_lat": 0.0}, {"name": "bb6d73f67e86ffea5c13159c31532fb9", "fusion_lon": 0.0, "lat": 38.941858, "is_reserved": 0, "type": "electric_scooter", "bike_id": "bb6d73f67e86ffea5c13159c31532fb9", "is_disabled": 0, "rental_uris": {"android": "https://dc.lft.to/lastmile_qr_scan", "ios": "https://dc.lft.to/lastmile_qr_scan"}, "lon": -77.02486866666666, "fusion_lat": 0.0}, {"name": "2af23b890b42ac3faa261d7f73bc41c0", "fusion_lon": 0.0, "lat": 38.9221705, "is_reserved": 0, "type": "electric_scooter", "bike_id": "2af23b890b42ac3faa261d7f73bc41c0", "is_disabled": 0, "rental_uris": {"android": "https://dc.lft.to/lastmile_qr_scan", "ios": "https://dc.lft.to/lastmile_qr_scan"}, "lon": -77.03289983333333, "fusion_lat": 0.0}, {"name": "9d132e1f8bbf116be79da5614b1ea5f1", "fusion_lon": 0.0, "lat": 38.91410116666667, "is_reserved": 0, "type": "electric_scooter", "bike_id": "9d132e1f8bbf116be79da5614b1ea5f1", "is_disabled": 0, "rental_uris": {"android": "https://dc.lft.to/lastmile_qr_scan", "ios": "https://dc.lft.to/lastmile_qr_scan"}, "lon": -77.02142766666667, "fusion_lat": 0.0}, {"name": "a7177ebeb93a4d108988344dd56f12f6", "fusion_lon": 0.0, "lat": 38.92699533333333, "is_reserved": 0, "type": "electric_scooter", "bike_id": "a7177ebeb93a4d108988344dd56f12f6", "is_disabled": 0, "rental_uris": {"android": "https://dc.lft.to/lastmile_qr_scan", "ios": "https://dc.lft.to/lastmile_qr_scan"}, "lon": -77.0241875, "fusion_lat": 0.0}, {"name": "19b755ba09381abdf7856a0b22ddd8da", "fusion_lon": 0.0, "lat": 38.807583666666666, "is_reserved": 0, "type": "electric_bike", "bike_id": "19b755ba09381abdf7856a0b22ddd8da", "is_disabled": 0, "rental_uris": {"android": "https://dc.lft.to/lastmile_qr_scan", "ios": "https://dc.lft.to/lastmile_qr_scan"}, "lon": -77.09466283333333, "fusion_lat": 0.0}, {"name": "51750e23645e4ba043ae73fed989c8f0", "fusion_lon": 0.0, "lat": 38.99347783333333, "is_reserved": 0, "type": "electric_bike", "bike_id": "51750e23645e4ba043ae73fed989c8f0", "is_disabled": 0, "rental_uris": {"android": "https://dc.lft.to/lastmile_qr_scan", "ios": "https://dc.lft.to/lastmile_qr_scan"}, "lon": -77.1157115, "fusion_lat": 0.0}, {"name": "56f01ee60213a57f1f6c0b448918370f", "fusion_lon": 0.0, "lat": 38.91963633333334, "is_reserved": 0, "type": "electric_scooter", "bike_id": "56f01ee60213a57f1f6c0b448918370f", "is_disabled": 0, "rental_uris": {"android": "https://dc.lft.to/lastmile_qr_scan", "ios": "https://dc.lft.to/lastmile_qr_scan"}, "lon": -77.0347505, "fusion_lat": 0.0}, {"name": "782164ef720f57ba4c8b1b4bae5474ea", "fusion_lon": 0.0, "lat": 38.898617, "is_reserved": 0, "type": "electric_scooter", "bike_id": "782164ef720f57ba4c8b1b4bae5474ea", "is_disabled": 0, "rental_uris": {"android": "https://dc.lft.to/lastmile_qr_scan", "ios": "https://dc.lft.to/lastmile_qr_scan"}, "lon": -77.02375583333334, "fusion_lat": 0.0}, {"name": "869b3617295feedbc5663a5af910d47b", "fusion_lon": 0.0, "lat": 38.865048333333334, "is_reserved": 0, "type": "electric_scooter", "bike_id": "869b3617295feedbc5663a5af910d47b", "is_disabled": 0, "rental_uris": {"android": "https://dc.lft.to/lastmile_qr_scan", "ios": "https://dc.lft.to/lastmile_qr_scan"}, "lon": -76.98997016666667, "fusion_lat": 0.0}, {"name": "3c6d2fc4dedb51849ec347121ff6c27a", "fusion_lon": 0.0, "lat": 38.9461605, "is_reserved": 0, "type": "electric_scooter", "bike_id": "3c6d2fc4dedb51849ec347121ff6c27a", "is_disabled": 0, "rental_uris": {"android": "https://dc.lft.to/lastmile_qr_scan", "ios": "https://dc.lft.to/lastmile_qr_scan"}, "lon": -77.02166133333333, "fusion_lat": 0.0}, {"name": "98482d7d74530f9fc51409a817e50158", "fusion_lon": 0.0, "lat": 38.916921, "is_reserved": 0, "type": "electric_scooter", "bike_id": "98482d7d74530f9fc51409a817e50158", "is_disabled": 0, "rental_uris": {"android": "https://dc.lft.to/lastmile_qr_scan", "ios": "https://dc.lft.to/lastmile_qr_scan"}, "lon": -77.025181, "fusion_lat": 0.0}, {"name": "c742ed11ba76f4d570eff039bfc6031e", "fusion_lon": 0.0, "lat": 38.921812333333335, "is_reserved": 0, "type": "electric_scooter", "bike_id": "c742ed11ba76f4d570eff039bfc6031e", "is_disabled": 0, "rental_uris": {"android": "https://dc.lft.to/lastmile_qr_scan", "ios": "https://dc.lft.to/lastmile_qr_scan"}, "lon": -77.0424405, "fusion_lat": 0.0}, {"name": "1f8dc7be4ac89b11c14c03d0349deb92", "fusion_lon": 0.0, "lat": 38.83732333333333, "is_reserved": 0, "type": "electric_bike", "bike_id": "1f8dc7be4ac89b11c14c03d0349deb92", "is_disabled": 0, "rental_uris": {"android": "https://dc.lft.to/lastmile_qr_scan", "ios": "https://dc.lft.to/lastmile_qr_scan"}, "lon": -77.09545683333333, "fusion_lat": 0.0}, {"name": "36a48236bc695fd0779112dacc6afc30", "fusion_lon": 0.0, "lat": 38.90279566666667, "is_reserved": 0, "type": "electric_scooter", "bike_id": "36a48236bc695fd0779112dacc6afc30", "is_disabled": 0, "rental_uris": {"android": "https://dc.lft.to/lastmile_qr_scan", "ios": "https://dc.lft.to/lastmile_qr_scan"}, "lon": -77.05803033333333, "fusion_lat": 0.0}, {"name": "0dcdb6b944e41d0746124974f8d8412c", "fusion_lon": 0.0, "lat": 38.909705333333335, "is_reserved": 0, "type": "electric_scooter", "bike_id": "0dcdb6b944e41d0746124974f8d8412c", "is_disabled": 0, "rental_uris": {"android": "https://dc.lft.to/lastmile_qr_scan", "ios": "https://dc.lft.to/lastmile_qr_scan"}, "lon": -77.04798783333334, "fusion_lat": 0.0}, {"name": "de4ba042350f7bd335099e4d0165045e", "fusion_lon": 0.0, "lat": 38.921274333333336, "is_reserved": 0, "type": "electric_scooter", "bike_id": "de4ba042350f7bd335099e4d0165045e", "is_disabled": 0, "rental_uris": {"android": "https://dc.lft.to/lastmile_qr_scan", "ios": "https://dc.lft.to/lastmile_qr_scan"}, "lon": -77.04430166666667, "fusion_lat": 0.0}, {"name": "35e79bcff24f316caea381710a632a73", "fusion_lon": 0.0, "lat": 38.9232615, "is_reserved": 0, "type": "electric_scooter", "bike_id": "35e79bcff24f316caea381710a632a73", "is_disabled": 0, "rental_uris": {"android": "https://dc.lft.to/lastmile_qr_scan", "ios": "https://dc.lft.to/lastmile_qr_scan"}, "lon": -77.02117683333333, "fusion_lat": 0.0}, {"name": "cb84eb6a03ac42f1a2a11080d81eec6f", "fusion_lon": 0.0, "lat": 38.93673033333334, "is_reserved": 0, "type": "electric_scooter", "bike_id": "cb84eb6a03ac42f1a2a11080d81eec6f", "is_disabled": 0, "rental_uris": {"android": "https://dc.lft.to/lastmile_qr_scan", "ios": "https://dc.lft.to/lastmile_qr_scan"}, "lon": -77.0328185, "fusion_lat": 0.0}, {"name": "2f23a732af995ea5ba9595861c238997", "fusion_lon": 0.0, "lat": 38.90058783333333, "is_reserved": 0, "type": "electric_scooter", "bike_id": "2f23a732af995ea5ba9595861c238997", "is_disabled": 0, "rental_uris": {"android": "https://dc.lft.to/lastmile_qr_scan", "ios": "https://dc.lft.to/lastmile_qr_scan"}, "lon": -76.93471566666666, "fusion_lat": 0.0}, {"name": "7988e1ccff52fe4e594f8727abbab732", "fusion_lon": 0.0, "lat": 38.930087, "is_reserved": 0, "type": "electric_scooter", "bike_id": "7988e1ccff52fe4e594f8727abbab732", "is_disabled": 0, "rental_uris": {"android": "https://dc.lft.to/lastmile_qr_scan", "ios": "https://dc.lft.to/lastmile_qr_scan"}, "lon": -77.01430816666667, "fusion_lat": 0.0}, {"name": "6e32a348504096c6449f92fb735dc011", "fusion_lon": 0.0, "lat": 38.856902166666664, "is_reserved": 0, "type": "electric_scooter", "bike_id": "6e32a348504096c6449f92fb735dc011", "is_disabled": 0, "rental_uris": {"android": "https://dc.lft.to/lastmile_qr_scan", "ios": "https://dc.lft.to/lastmile_qr_scan"}, "lon": -76.98944866666666, "fusion_lat": 0.0}, {"name": "5951d259144418cd4923b8e5d5879c7e", "fusion_lon": 0.0, "lat": 39.05783816666667, "is_reserved": 0, "type": "electric_bike", "bike_id": "5951d259144418cd4923b8e5d5879c7e", "is_disabled": 0, "rental_uris": {"android": "https://dc.lft.to/lastmile_qr_scan", "ios": "https://dc.lft.to/lastmile_qr_scan"}, "lon": -77.15015683333333, "fusion_lat": 0.0}, {"name": "f55e1f97d1e80314f75b115acd7ce006", "fusion_lon": 0.0, "lat": 38.920691833333336, "is_reserved": 0, "type": "electric_scooter", "bike_id": "f55e1f97d1e80314f75b115acd7ce006", "is_disabled": 0, "rental_uris": {"android": "https://dc.lft.to/lastmile_qr_scan", "ios": "https://dc.lft.to/lastmile_qr_scan"}, "lon": -77.024213, "fusion_lat": 0.0}, {"name": "5242e7b0c365065195fc484916828fd2", "fusion_lon": 0.0, "lat": 38.84426116666667, "is_reserved": 0, "type": "electric_scooter", "bike_id": "5242e7b0c365065195fc484916828fd2", "is_disabled": 0, "rental_uris": {"android": "https://dc.lft.to/lastmile_qr_scan", "ios": "https://dc.lft.to/lastmile_qr_scan"}, "lon": -76.9977735, "fusion_lat": 0.0}, {"name": "d62c2fd26b48ebb72b4fa4af462456fb", "fusion_lon": 0.0, "lat": 38.908904166666666, "is_reserved": 0, "type": "electric_scooter", "bike_id": "d62c2fd26b48ebb72b4fa4af462456fb", "is_disabled": 0, "rental_uris": {"android": "https://dc.lft.to/lastmile_qr_scan", "ios": "https://dc.lft.to/lastmile_qr_scan"}, "lon": -77.07265783333334, "fusion_lat": 0.0}, {"name": "cb8539a8703f2286fed0a554ebd717fa", "fusion_lon": 0.0, "lat": 38.918069833333334, "is_reserved": 0, "type": "electric_scooter", "bike_id": "cb8539a8703f2286fed0a554ebd717fa", "is_disabled": 0, "rental_uris": {"android": "https://dc.lft.to/lastmile_qr_scan", "ios": "https://dc.lft.to/lastmile_qr_scan"}, "lon": -77.0344065, "fusion_lat": 0.0}, {"name": "d56fceb4d60ba596efb313586063a1dc", "fusion_lon": 0.0, "lat": 38.920202833333335, "is_reserved": 0, "type": "electric_scooter", "bike_id": "d56fceb4d60ba596efb313586063a1dc", "is_disabled": 0, "rental_uris": {"android": "https://dc.lft.to/lastmile_qr_scan", "ios": "https://dc.lft.to/lastmile_qr_scan"}, "lon": -77.0314865, "fusion_lat": 0.0}, {"name": "f19937a9d0fadb600f58fb61f4e574a5", "fusion_lon": 0.0, "lat": 38.90119683333333, "is_reserved": 0, "type": "electric_scooter", "bike_id": "f19937a9d0fadb600f58fb61f4e574a5", "is_disabled": 0, "rental_uris": {"android": "https://dc.lft.to/lastmile_qr_scan", "ios": "https://dc.lft.to/lastmile_qr_scan"}, "lon": -77.04973233333334, "fusion_lat": 0.0}, {"name": "306a3ded048310ba85829ce9aacbe912", "fusion_lon": 0.0, "lat": 38.911378666666664, "is_reserved": 0, "type": "electric_scooter", "bike_id": "306a3ded048310ba85829ce9aacbe912", "is_disabled": 0, "rental_uris": {"android": "https://dc.lft.to/lastmile_qr_scan", "ios": "https://dc.lft.to/lastmile_qr_scan"}, "lon": -77.06534016666667, "fusion_lat": 0.0}, {"name": "22996bca540dccf2bc384c366ae89faa", "fusion_lon": 0.0, "lat": 38.90568066666667, "is_reserved": 0, "type": "electric_scooter", "bike_id": "22996bca540dccf2bc384c366ae89faa", "is_disabled": 0, "rental_uris": {"android": "https://dc.lft.to/lastmile_qr_scan", "ios": "https://dc.lft.to/lastmile_qr_scan"}, "lon": -77.03446833333334, "fusion_lat": 0.0}, {"name": "1e4f15c2873892888b294c688536024a", "fusion_lon": 0.0, "lat": 38.9156535, "is_reserved": 0, "type": "electric_scooter", "bike_id": "1e4f15c2873892888b294c688536024a", "is_disabled": 0, "rental_uris": {"android": "https://dc.lft.to/lastmile_qr_scan", "ios": "https://dc.lft.to/lastmile_qr_scan"}, "lon": -77.0428165, "fusion_lat": 0.0}, {"name": "2d8de31ccfd963de3b9e0b25bbe590c2", "fusion_lon": 0.0, "lat": 38.892892, "is_reserved": 0, "type": "electric_bike", "bike_id": "2d8de31ccfd963de3b9e0b25bbe590c2", "is_disabled": 0, "rental_uris": {"android": "https://dc.lft.to/lastmile_qr_scan", "ios": "https://dc.lft.to/lastmile_qr_scan"}, "lon": -76.9761565, "fusion_lat": 0.0}, {"name": "1c327be255dbbd9867e8f22258aff6a1", "fusion_lon": 0.0, "lat": 38.91770133333333, "is_reserved": 0, "type": "electric_scooter", "bike_id": "1c327be255dbbd9867e8f22258aff6a1", "is_disabled": 0, "rental_uris": {"android": "https://dc.lft.to/lastmile_qr_scan", "ios": "https://dc.lft.to/lastmile_qr_scan"}, "lon": -77.01494183333334, "fusion_lat": 0.0}, {"name": "9611682ec930d2deae726d6ed0b7a4e9", "fusion_lon": 0.0, "lat": 38.9140505, "is_reserved": 0, "type": "electric_scooter", "bike_id": "9611682ec930d2deae726d6ed0b7a4e9", "is_disabled": 0, "rental_uris": {"android": "https://dc.lft.to/lastmile_qr_scan", "ios": "https://dc.lft.to/lastmile_qr_scan"}, "lon": -77.00191166666667, "fusion_lat": 0.0}, {"name": "a7932c709f07fee92b76842c75e85fec", "fusion_lon": 0.0, "lat": 38.884898, "is_reserved": 0, "type": "electric_scooter", "bike_id": "a7932c709f07fee92b76842c75e85fec", "is_disabled": 0, "rental_uris": {"android": "https://dc.lft.to/lastmile_qr_scan", "ios": "https://dc.lft.to/lastmile_qr_scan"}, "lon": -77.00709633333334, "fusion_lat": 0.0}, {"name": "c2d3c19ec176ac858a3479db4a3f3a27", "fusion_lon": 0.0, "lat": 38.92460616666666, "is_reserved": 0, "type": "electric_scooter", "bike_id": "c2d3c19ec176ac858a3479db4a3f3a27", "is_disabled": 0, "rental_uris": {"android": "https://dc.lft.to/lastmile_qr_scan", "ios": "https://dc.lft.to/lastmile_qr_scan"}, "lon": -77.02711, "fusion_lat": 0.0}, {"name": "4dbae64a2cd08952821edd1f66193aa3", "fusion_lon": 0.0, "lat": 38.887509666666666, "is_reserved": 0, "type": "electric_scooter", "bike_id": "4dbae64a2cd08952821edd1f66193aa3", "is_disabled": 0, "rental_uris": {"android": "https://dc.lft.to/lastmile_qr_scan", "ios": "https://dc.lft.to/lastmile_qr_scan"}, "lon": -77.02837683333334, "fusion_lat": 0.0}, {"name": "cd2523f2d0654d154e50ea1efcda5b16", "fusion_lon": 0.0, "lat": 38.92227366666667, "is_reserved": 0, "type": "electric_scooter", "bike_id": "cd2523f2d0654d154e50ea1efcda5b16", "is_disabled": 0, "rental_uris": {"android": "https://dc.lft.to/lastmile_qr_scan", "ios": "https://dc.lft.to/lastmile_qr_scan"}, "lon": -77.0448975, "fusion_lat": 0.0}, {"name": "26a064f9a6b3eb751b096fab77f8182b", "fusion_lon": 0.0, "lat": 38.92695366666667, "is_reserved": 0, "type": "electric_scooter", "bike_id": "26a064f9a6b3eb751b096fab77f8182b", "is_disabled": 0, "rental_uris": {"android": "https://dc.lft.to/lastmile_qr_scan", "ios": "https://dc.lft.to/lastmile_qr_scan"}, "lon": -77.02100283333333, "fusion_lat": 0.0}, {"name": "3aab9ac1254d905d71ca1b6dfbc9aa84", "fusion_lon": 0.0, "lat": 38.912686666666666, "is_reserved": 0, "type": "electric_scooter", "bike_id": "3aab9ac1254d905d71ca1b6dfbc9aa84", "is_disabled": 0, "rental_uris": {"android": "https://dc.lft.to/lastmile_qr_scan", "ios": "https://dc.lft.to/lastmile_qr_scan"}, "lon": -77.03824733333333, "fusion_lat": 0.0}, {"name": "283a4a5c0c08563457b0a310ca02f9c5", "fusion_lon": 0.0, "lat": 38.897202666666665, "is_reserved": 0, "type": "electric_scooter", "bike_id": "283a4a5c0c08563457b0a310ca02f9c5", "is_disabled": 0, "rental_uris": {"android": "https://dc.lft.to/lastmile_qr_scan", "ios": "https://dc.lft.to/lastmile_qr_scan"}, "lon": -77.02153966666667, "fusion_lat": 0.0}, {"name": "d55c6f058b774e093a552e448331b176", "fusion_lon": 0.0, "lat": 38.90897433333333, "is_reserved": 0, "type": "electric_scooter", "bike_id": "d55c6f058b774e093a552e448331b176", "is_disabled": 0, "rental_uris": {"android": "https://dc.lft.to/lastmile_qr_scan", "ios": "https://dc.lft.to/lastmile_qr_scan"}, "lon": -77.0383305, "fusion_lat": 0.0}, {"name": "f9713f847187a6ecf4e9a1f851f7ba86", "fusion_lon": 0.0, "lat": 39.0430385, "is_reserved": 0, "type": "electric_bike", "bike_id": "f9713f847187a6ecf4e9a1f851f7ba86", "is_disabled": 0, "rental_uris": {"android": "https://dc.lft.to/lastmile_qr_scan", "ios": "https://dc.lft.to/lastmile_qr_scan"}, "lon": -77.051564, "fusion_lat": 0.0}, {"name": "0b360fdee7f69a93571c7eabcb7e16bf", "fusion_lon": 0.0, "lat": 38.8605875, "is_reserved": 0, "type": "electric_scooter", "bike_id": "0b360fdee7f69a93571c7eabcb7e16bf", "is_disabled": 0, "rental_uris": {"android": "https://dc.lft.to/lastmile_qr_scan", "ios": "https://dc.lft.to/lastmile_qr_scan"}, "lon": -76.98503, "fusion_lat": 0.0}, {"name": "a4b0029db0d7f4241cfbe4b7da93591f", "fusion_lon": 0.0, "lat": 38.900076166666665, "is_reserved": 0, "type": "electric_scooter", "bike_id": "a4b0029db0d7f4241cfbe4b7da93591f", "is_disabled": 0, "rental_uris": {"android": "https://dc.lft.to/lastmile_qr_scan", "ios": "https://dc.lft.to/lastmile_qr_scan"}, "lon": -76.9961415, "fusion_lat": 0.0}, {"name": "593c8c04d913677fc27fa8a0966776b6", "fusion_lon": 0.0, "lat": 38.91718516666667, "is_reserved": 0, "type": "electric_scooter", "bike_id": "593c8c04d913677fc27fa8a0966776b6", "is_disabled": 0, "rental_uris": {"android": "https://dc.lft.to/lastmile_qr_scan", "ios": "https://dc.lft.to/lastmile_qr_scan"}, "lon": -77.03858633333333, "fusion_lat": 0.0}, {"name": "d470f2d219de644facf7063ee31d4c28", "fusion_lon": 0.0, "lat": 38.91991216666667, "is_reserved": 0, "type": "electric_scooter", "bike_id": "d470f2d219de644facf7063ee31d4c28", "is_disabled": 0, "rental_uris": {"android": "https://dc.lft.to/lastmile_qr_scan", "ios": "https://dc.lft.to/lastmile_qr_scan"}, "lon": -77.04172183333333, "fusion_lat": 0.0}, {"name": "c624f9ed5c7c21e2c6c0ba7a9f993cde", "fusion_lon": 0.0, "lat": 38.90864583333333, "is_reserved": 0, "type": "electric_scooter", "bike_id": "c624f9ed5c7c21e2c6c0ba7a9f993cde", "is_disabled": 0, "rental_uris": {"android": "https://dc.lft.to/lastmile_qr_scan", "ios": "https://dc.lft.to/lastmile_qr_scan"}, "lon": -77.0241065, "fusion_lat": 0.0}, {"name": "49490aabbc3bf7e908e73b0415d72d55", "fusion_lon": 0.0, "lat": 38.892227166666665, "is_reserved": 0, "type": "electric_scooter", "bike_id": "49490aabbc3bf7e908e73b0415d72d55", "is_disabled": 0, "rental_uris": {"android": "https://dc.lft.to/lastmile_qr_scan", "ios": "https://dc.lft.to/lastmile_qr_scan"}, "lon": -77.0468505, "fusion_lat": 0.0}, {"name": "6267d499dea8dda0fd25ed7f71ae7f8d", "fusion_lon": 0.0, "lat": 38.9067, "is_reserved": 0, "type": "electric_scooter", "bike_id": "6267d499dea8dda0fd25ed7f71ae7f8d", "is_disabled": 0, "rental_uris": {"android": "https://dc.lft.to/lastmile_qr_scan", "ios": "https://dc.lft.to/lastmile_qr_scan"}, "lon": -77.07121616666667, "fusion_lat": 0.0}, {"name": "2c7d5d1df7f6092238a712793d4375a8", "fusion_lon": 0.0, "lat": 38.922138833333335, "is_reserved": 0, "type": "electric_scooter", "bike_id": "2c7d5d1df7f6092238a712793d4375a8", "is_disabled": 0, "rental_uris": {"android": "https://dc.lft.to/lastmile_qr_scan", "ios": "https://dc.lft.to/lastmile_qr_scan"}, "lon": -77.03656716666667, "fusion_lat": 0.0}, {"name": "e231027c37f0098b2235af86b50f2a14", "fusion_lon": 0.0, "lat": 38.912571166666666, "is_reserved": 0, "type": "electric_scooter", "bike_id": "e231027c37f0098b2235af86b50f2a14", "is_disabled": 0, "rental_uris": {"android": "https://dc.lft.to/lastmile_qr_scan", "ios": "https://dc.lft.to/lastmile_qr_scan"}, "lon": -77.03796066666666, "fusion_lat": 0.0}, {"name": "be49fff54ea6fcbb80013adde40add2a", "fusion_lon": 0.0, "lat": 38.915386833333336, "is_reserved": 0, "type": "electric_scooter", "bike_id": "be49fff54ea6fcbb80013adde40add2a", "is_disabled": 0, "rental_uris": {"android": "https://dc.lft.to/lastmile_qr_scan", "ios": "https://dc.lft.to/lastmile_qr_scan"}, "lon": -76.97002316666666, "fusion_lat": 0.0}, {"name": "554dd38661218ac3505e92337faf7414", "fusion_lon": 0.0, "lat": 38.910188166666664, "is_reserved": 0, "type": "electric_scooter", "bike_id": "554dd38661218ac3505e92337faf7414", "is_disabled": 0, "rental_uris": {"android": "https://dc.lft.to/lastmile_qr_scan", "ios": "https://dc.lft.to/lastmile_qr_scan"}, "lon": -77.00919266666666, "fusion_lat": 0.0}, {"name": "c611bf019607f123f0e641ee75c47424", "fusion_lon": 0.0, "lat": 38.903678166666666, "is_reserved": 0, "type": "electric_scooter", "bike_id": "c611bf019607f123f0e641ee75c47424", "is_disabled": 0, "rental_uris": {"android": "https://dc.lft.to/lastmile_qr_scan", "ios": "https://dc.lft.to/lastmile_qr_scan"}, "lon": -76.99703633333333, "fusion_lat": 0.0}, {"name": "8670309d1efcccf29e6a1252746dd7ac", "fusion_lon": 0.0, "lat": 38.90510366666667, "is_reserved": 0, "type": "electric_bike", "bike_id": "8670309d1efcccf29e6a1252746dd7ac", "is_disabled": 0, "rental_uris": {"android": "https://dc.lft.to/lastmile_qr_scan", "ios": "https://dc.lft.to/lastmile_qr_scan"}, "lon": -77.0601745, "fusion_lat": 0.0}, {"name": "9c99bc8d19c0b698991dd5ffc1f2e2ff", "fusion_lon": 0.0, "lat": 38.92161266666667, "is_reserved": 0, "type": "electric_scooter", "bike_id": "9c99bc8d19c0b698991dd5ffc1f2e2ff", "is_disabled": 0, "rental_uris": {"android": "https://dc.lft.to/lastmile_qr_scan", "ios": "https://dc.lft.to/lastmile_qr_scan"}, "lon": -77.03252916666666, "fusion_lat": 0.0}, {"name": "163bf8987187e6bd66c4f0f86b0503f0", "fusion_lon": 0.0, "lat": 38.89361266666667, "is_reserved": 0, "type": "electric_scooter", "bike_id": "163bf8987187e6bd66c4f0f86b0503f0", "is_disabled": 0, "rental_uris": {"android": "https://dc.lft.to/lastmile_qr_scan", "ios": "https://dc.lft.to/lastmile_qr_scan"}, "lon": -76.94932333333334, "fusion_lat": 0.0}, {"name": "4516263b4d0644fae96e19ef7b436cfd", "fusion_lon": 0.0, "lat": 38.899920333333334, "is_reserved": 0, "type": "electric_scooter", "bike_id": "4516263b4d0644fae96e19ef7b436cfd", "is_disabled": 0, "rental_uris": {"android": "https://dc.lft.to/lastmile_qr_scan", "ios": "https://dc.lft.to/lastmile_qr_scan"}, "lon": -76.99714716666666, "fusion_lat": 0.0}, {"name": "3bfbe88578307b1ce846f62d7ff694f5", "fusion_lon": 0.0, "lat": 38.87177116666667, "is_reserved": 0, "type": "electric_scooter", "bike_id": "3bfbe88578307b1ce846f62d7ff694f5", "is_disabled": 0, "rental_uris": {"android": "https://dc.lft.to/lastmile_qr_scan", "ios": "https://dc.lft.to/lastmile_qr_scan"}, "lon": -77.00610233333333, "fusion_lat": 0.0}, {"name": "bcd56eb9f14e59da81d065d52f3f9ffe", "fusion_lon": 0.0, "lat": 38.869395, "is_reserved": 0, "type": "electric_bike", "bike_id": "bcd56eb9f14e59da81d065d52f3f9ffe", "is_disabled": 0, "rental_uris": {"android": "https://dc.lft.to/lastmile_qr_scan", "ios": "https://dc.lft.to/lastmile_qr_scan"}, "lon": -77.09458133333334, "fusion_lat": 0.0}, {"name": "3c11bcc742d33b3cd7c383596a903b2c", "fusion_lon": 0.0, "lat": 38.91643233333333, "is_reserved": 0, "type": "electric_scooter", "bike_id": "3c11bcc742d33b3cd7c383596a903b2c", "is_disabled": 0, "rental_uris": {"android": "https://dc.lft.to/lastmile_qr_scan", "ios": "https://dc.lft.to/lastmile_qr_scan"}, "lon": -77.03187783333334, "fusion_lat": 0.0}, {"name": "208cf883d22034a233795c036d14ef46", "fusion_lon": 0.0, "lat": 38.92899166666667, "is_reserved": 0, "type": "electric_scooter", "bike_id": "208cf883d22034a233795c036d14ef46", "is_disabled": 0, "rental_uris": {"android": "https://dc.lft.to/lastmile_qr_scan", "ios": "https://dc.lft.to/lastmile_qr_scan"}, "lon": -77.01612516666667, "fusion_lat": 0.0}, {"name": "69d5461b7af0ffa22440ab748a36d987", "fusion_lon": 0.0, "lat": 38.90192916666667, "is_reserved": 0, "type": "electric_scooter", "bike_id": "69d5461b7af0ffa22440ab748a36d987", "is_disabled": 0, "rental_uris": {"android": "https://dc.lft.to/lastmile_qr_scan", "ios": "https://dc.lft.to/lastmile_qr_scan"}, "lon": -77.01295283333333, "fusion_lat": 0.0}, {"name": "c3d2b93107dd3385b084246721853e69", "fusion_lon": 0.0, "lat": 38.925220333333336, "is_reserved": 0, "type": "electric_scooter", "bike_id": "c3d2b93107dd3385b084246721853e69", "is_disabled": 0, "rental_uris": {"android": "https://dc.lft.to/lastmile_qr_scan", "ios": "https://dc.lft.to/lastmile_qr_scan"}, "lon": -77.02358116666667, "fusion_lat": 0.0}, {"name": "6b6a60ad67f2e960aea9ea18c061064e", "fusion_lon": 0.0, "lat": 38.8710155, "is_reserved": 0, "type": "electric_scooter", "bike_id": "6b6a60ad67f2e960aea9ea18c061064e", "is_disabled": 0, "rental_uris": {"android": "https://dc.lft.to/lastmile_qr_scan", "ios": "https://dc.lft.to/lastmile_qr_scan"}, "lon": -77.00752016666667, "fusion_lat": 0.0}, {"name": "42c5646ef1fae4167bbf3b00aeb6a7bc", "fusion_lon": 0.0, "lat": 38.8985275, "is_reserved": 0, "type": "electric_scooter", "bike_id": "42c5646ef1fae4167bbf3b00aeb6a7bc", "is_disabled": 0, "rental_uris": {"android": "https://dc.lft.to/lastmile_qr_scan", "ios": "https://dc.lft.to/lastmile_qr_scan"}, "lon": -77.02876183333333, "fusion_lat": 0.0}, {"name": "5daf3b1885130bf07d118bf4a254b926", "fusion_lon": 0.0, "lat": 38.887504166666666, "is_reserved": 0, "type": "electric_scooter", "bike_id": "5daf3b1885130bf07d118bf4a254b926", "is_disabled": 0, "rental_uris": {"android": "https://dc.lft.to/lastmile_qr_scan", "ios": "https://dc.lft.to/lastmile_qr_scan"}, "lon": -77.02840533333334, "fusion_lat": 0.0}, {"name": "6a77534da35a1c679623beadbde7ff60", "fusion_lon": 0.0, "lat": 38.8931275, "is_reserved": 0, "type": "electric_scooter", "bike_id": "6a77534da35a1c679623beadbde7ff60", "is_disabled": 0, "rental_uris": {"android": "https://dc.lft.to/lastmile_qr_scan", "ios": "https://dc.lft.to/lastmile_qr_scan"}, "lon": -77.05005783333333, "fusion_lat": 0.0}, {"name": "e4970267a46a1a945cbcd8ac19a1c919", "fusion_lon": 0.0, "lat": 38.93579183333333, "is_reserved": 0, "type": "electric_scooter", "bike_id": "e4970267a46a1a945cbcd8ac19a1c919", "is_disabled": 0, "rental_uris": {"android": "https://dc.lft.to/lastmile_qr_scan", "ios": "https://dc.lft.to/lastmile_qr_scan"}, "lon": -77.0212255, "fusion_lat": 0.0}, {"name": "eba879f48c01dffbb36ebdf72387b454", "fusion_lon": 0.0, "lat": 38.88433883333333, "is_reserved": 0, "type": "electric_scooter", "bike_id": "eba879f48c01dffbb36ebdf72387b454", "is_disabled": 0, "rental_uris": {"android": "https://dc.lft.to/lastmile_qr_scan", "ios": "https://dc.lft.to/lastmile_qr_scan"}, "lon": -76.95744566666667, "fusion_lat": 0.0}, {"name": "93801b9e9a49f68c54ccdf6fbb34ccbf", "fusion_lon": 0.0, "lat": 38.928683166666666, "is_reserved": 0, "type": "electric_scooter", "bike_id": "93801b9e9a49f68c54ccdf6fbb34ccbf", "is_disabled": 0, "rental_uris": {"android": "https://dc.lft.to/lastmile_qr_scan", "ios": "https://dc.lft.to/lastmile_qr_scan"}, "lon": -77.02852966666667, "fusion_lat": 0.0}, {"name": "a54855e1d67781bc35a50aa9d3746431", "fusion_lon": 0.0, "lat": 38.936526, "is_reserved": 0, "type": "electric_scooter", "bike_id": "a54855e1d67781bc35a50aa9d3746431", "is_disabled": 0, "rental_uris": {"android": "https://dc.lft.to/lastmile_qr_scan", "ios": "https://dc.lft.to/lastmile_qr_scan"}, "lon": -77.02633916666667, "fusion_lat": 0.0}, {"name": "f26b230500d9a8e88bee133450318af3", "fusion_lon": 0.0, "lat": 38.888496333333336, "is_reserved": 0, "type": "electric_scooter", "bike_id": "f26b230500d9a8e88bee133450318af3", "is_disabled": 0, "rental_uris": {"android": "https://dc.lft.to/lastmile_qr_scan", "ios": "https://dc.lft.to/lastmile_qr_scan"}, "lon": -76.92686783333333, "fusion_lat": 0.0}, {"name": "6fd001a5eadf009e7ac0628a1fc2908c", "fusion_lon": 0.0, "lat": 38.909072333333334, "is_reserved": 0, "type": "electric_scooter", "bike_id": "6fd001a5eadf009e7ac0628a1fc2908c", "is_disabled": 0, "rental_uris": {"android": "https://dc.lft.to/lastmile_qr_scan", "ios": "https://dc.lft.to/lastmile_qr_scan"}, "lon": -77.02712866666667, "fusion_lat": 0.0}, {"name": "6ca8156dc57da73227c1682aa403b816", "fusion_lon": 0.0, "lat": 38.928411833333335, "is_reserved": 0, "type": "electric_scooter", "bike_id": "6ca8156dc57da73227c1682aa403b816", "is_disabled": 0, "rental_uris": {"android": "https://dc.lft.to/lastmile_qr_scan", "ios": "https://dc.lft.to/lastmile_qr_scan"}, "lon": -77.0325955, "fusion_lat": 0.0}, {"name": "b8c181235555d00c6ac90711a09074ff", "fusion_lon": 0.0, "lat": 38.92787466666667, "is_reserved": 0, "type": "electric_scooter", "bike_id": "b8c181235555d00c6ac90711a09074ff", "is_disabled": 0, "rental_uris": {"android": "https://dc.lft.to/lastmile_qr_scan", "ios": "https://dc.lft.to/lastmile_qr_scan"}, "lon": -77.031469, "fusion_lat": 0.0}, {"name": "52a9d0f51e6ff17bba602b0d28347624", "fusion_lon": 0.0, "lat": 38.86660233333333, "is_reserved": 0, "type": "electric_scooter", "bike_id": "52a9d0f51e6ff17bba602b0d28347624", "is_disabled": 0, "rental_uris": {"android": "https://dc.lft.to/lastmile_qr_scan", "ios": "https://dc.lft.to/lastmile_qr_scan"}, "lon": -76.9888665, "fusion_lat": 0.0}, {"name": "d1fad4d15e7268ed1e7fdefb7544406d", "fusion_lon": 0.0, "lat": 38.86241483333333, "is_reserved": 0, "type": "electric_scooter", "bike_id": "d1fad4d15e7268ed1e7fdefb7544406d", "is_disabled": 0, "rental_uris": {"android": "https://dc.lft.to/lastmile_qr_scan", "ios": "https://dc.lft.to/lastmile_qr_scan"}, "lon": -76.99490533333334, "fusion_lat": 0.0}, {"name": "3d8fd8ca640e29c569f68cddaab3fd3f", "fusion_lon": 0.0, "lat": 38.99006633333333, "is_reserved": 0, "type": "electric_bike", "bike_id": "3d8fd8ca640e29c569f68cddaab3fd3f", "is_disabled": 0, "rental_uris": {"android": "https://dc.lft.to/lastmile_qr_scan", "ios": "https://dc.lft.to/lastmile_qr_scan"}, "lon": -77.00437316666667, "fusion_lat": 0.0}, {"name": "e4def7221ba8c646b4c6e9cb7189543a", "fusion_lon": 0.0, "lat": 38.92555316666667, "is_reserved": 0, "type": "electric_scooter", "bike_id": "e4def7221ba8c646b4c6e9cb7189543a", "is_disabled": 0, "rental_uris": {"android": "https://dc.lft.to/lastmile_qr_scan", "ios": "https://dc.lft.to/lastmile_qr_scan"}, "lon": -77.03310166666667, "fusion_lat": 0.0}, {"name": "029be5051cd2fbb9ee13587f58127106", "fusion_lon": 0.0, "lat": 38.865174333333336, "is_reserved": 0, "type": "electric_scooter", "bike_id": "029be5051cd2fbb9ee13587f58127106", "is_disabled": 0, "rental_uris": {"android": "https://dc.lft.to/lastmile_qr_scan", "ios": "https://dc.lft.to/lastmile_qr_scan"}, "lon": -76.97340883333334, "fusion_lat": 0.0}, {"name": "d460b256e98898113975d3cd6be9c8f9", "fusion_lon": 0.0, "lat": 38.92479266666667, "is_reserved": 0, "type": "electric_scooter", "bike_id": "d460b256e98898113975d3cd6be9c8f9", "is_disabled": 0, "rental_uris": {"android": "https://dc.lft.to/lastmile_qr_scan", "ios": "https://dc.lft.to/lastmile_qr_scan"}, "lon": -77.035014, "fusion_lat": 0.0}, {"name": "7402b4c778e0416e1e33d8fba22f4a15", "fusion_lon": 0.0, "lat": 38.8492075, "is_reserved": 0, "type": "electric_bike", "bike_id": "7402b4c778e0416e1e33d8fba22f4a15", "is_disabled": 0, "rental_uris": {"android": "https://dc.lft.to/lastmile_qr_scan", "ios": "https://dc.lft.to/lastmile_qr_scan"}, "lon": -77.07780483333333, "fusion_lat": 0.0}, {"name": "313553fd4f90149d31cd92386b930613", "fusion_lon": 0.0, "lat": 38.9020345, "is_reserved": 0, "type": "electric_scooter", "bike_id": "313553fd4f90149d31cd92386b930613", "is_disabled": 0, "rental_uris": {"android": "https://dc.lft.to/lastmile_qr_scan", "ios": "https://dc.lft.to/lastmile_qr_scan"}, "lon": -77.02156416666666, "fusion_lat": 0.0}, {"name": "4ed917258eb455034fa15dd3d0fea043", "fusion_lon": 0.0, "lat": 38.893685, "is_reserved": 0, "type": "electric_scooter", "bike_id": "4ed917258eb455034fa15dd3d0fea043", "is_disabled": 0, "rental_uris": {"android": "https://dc.lft.to/lastmile_qr_scan", "ios": "https://dc.lft.to/lastmile_qr_scan"}, "lon": -77.01541333333333, "fusion_lat": 0.0}, {"name": "5a7766822e7c2468c416b6d6ef1f1725", "fusion_lon": 0.0, "lat": 38.905141, "is_reserved": 0, "type": "electric_scooter", "bike_id": "5a7766822e7c2468c416b6d6ef1f1725", "is_disabled": 0, "rental_uris": {"android": "https://dc.lft.to/lastmile_qr_scan", "ios": "https://dc.lft.to/lastmile_qr_scan"}, "lon": -77.001281, "fusion_lat": 0.0}, {"name": "e7b6b9c35e1b9cb6235a1d549ffce06a", "fusion_lon": 0.0, "lat": 38.95656833333334, "is_reserved": 0, "type": "electric_bike", "bike_id": "e7b6b9c35e1b9cb6235a1d549ffce06a", "is_disabled": 0, "rental_uris": {"android": "https://dc.lft.to/lastmile_qr_scan", "ios": "https://dc.lft.to/lastmile_qr_scan"}, "lon": -77.01274583333333, "fusion_lat": 0.0}, {"name": "d292109777dd7b799f287427c789c401", "fusion_lon": 0.0, "lat": 38.91686383333333, "is_reserved": 0, "type": "electric_scooter", "bike_id": "d292109777dd7b799f287427c789c401", "is_disabled": 0, "rental_uris": {"android": "https://dc.lft.to/lastmile_qr_scan", "ios": "https://dc.lft.to/lastmile_qr_scan"}, "lon": -77.0414245, "fusion_lat": 0.0}, {"name": "951bb57c025cc5d58efaeb9c32aa647b", "fusion_lon": 0.0, "lat": 38.90666433333333, "is_reserved": 0, "type": "electric_scooter", "bike_id": "951bb57c025cc5d58efaeb9c32aa647b", "is_disabled": 0, "rental_uris": {"android": "https://dc.lft.to/lastmile_qr_scan", "ios": "https://dc.lft.to/lastmile_qr_scan"}, "lon": -77.07131383333333, "fusion_lat": 0.0}, {"name": "5ce4e4576b1daf95bdebb2a0c42b4d9c", "fusion_lon": 0.0, "lat": 38.831419, "is_reserved": 0, "type": "electric_scooter", "bike_id": "5ce4e4576b1daf95bdebb2a0c42b4d9c", "is_disabled": 0, "rental_uris": {"android": "https://dc.lft.to/lastmile_qr_scan", "ios": "https://dc.lft.to/lastmile_qr_scan"}, "lon": -77.05122083333333, "fusion_lat": 0.0}, {"name": "d74d6f298aae6c9967761427706f346f", "fusion_lon": 0.0, "lat": 38.92878616666667, "is_reserved": 0, "type": "electric_scooter", "bike_id": "d74d6f298aae6c9967761427706f346f", "is_disabled": 0, "rental_uris": {"android": "https://dc.lft.to/lastmile_qr_scan", "ios": "https://dc.lft.to/lastmile_qr_scan"}, "lon": -77.014168, "fusion_lat": 0.0}, {"name": "567be25899fc27bc769e90f511cac850", "fusion_lon": 0.0, "lat": 38.92900866666667, "is_reserved": 0, "type": "electric_scooter", "bike_id": "567be25899fc27bc769e90f511cac850", "is_disabled": 0, "rental_uris": {"android": "https://dc.lft.to/lastmile_qr_scan", "ios": "https://dc.lft.to/lastmile_qr_scan"}, "lon": -77.02613116666667, "fusion_lat": 0.0}, {"name": "41870dedff843f5b4aade2b4e90b72bd", "fusion_lon": 0.0, "lat": 38.945068666666664, "is_reserved": 0, "type": "electric_bike", "bike_id": "41870dedff843f5b4aade2b4e90b72bd", "is_disabled": 0, "rental_uris": {"android": "https://dc.lft.to/lastmile_qr_scan", "ios": "https://dc.lft.to/lastmile_qr_scan"}, "lon": -77.0066655, "fusion_lat": 0.0}, {"name": "fc01c94667e71afde228f78a3de45392", "fusion_lon": 0.0, "lat": 38.879301166666664, "is_reserved": 0, "type": "electric_scooter", "bike_id": "fc01c94667e71afde228f78a3de45392", "is_disabled": 0, "rental_uris": {"android": "https://dc.lft.to/lastmile_qr_scan", "ios": "https://dc.lft.to/lastmile_qr_scan"}, "lon": -77.00520633333333, "fusion_lat": 0.0}, {"name": "4217e2b44427bbcbe20b5764a72b0471", "fusion_lon": 0.0, "lat": 38.91548216666666, "is_reserved": 0, "type": "electric_scooter", "bike_id": "4217e2b44427bbcbe20b5764a72b0471", "is_disabled": 0, "rental_uris": {"android": "https://dc.lft.to/lastmile_qr_scan", "ios": "https://dc.lft.to/lastmile_qr_scan"}, "lon": -77.03850666666666, "fusion_lat": 0.0}, {"name": "bc96c32783df9fec0528c3be4a149682", "fusion_lon": 0.0, "lat": 38.87940866666667, "is_reserved": 0, "type": "electric_scooter", "bike_id": "bc96c32783df9fec0528c3be4a149682", "is_disabled": 0, "rental_uris": {"android": "https://dc.lft.to/lastmile_qr_scan", "ios": "https://dc.lft.to/lastmile_qr_scan"}, "lon": -77.00062516666667, "fusion_lat": 0.0}, {"name": "578976fb8aaeccd8a1a1592c5482bc13", "fusion_lon": 0.0, "lat": 38.901332, "is_reserved": 0, "type": "electric_scooter", "bike_id": "578976fb8aaeccd8a1a1592c5482bc13", "is_disabled": 0, "rental_uris": {"android": "https://dc.lft.to/lastmile_qr_scan", "ios": "https://dc.lft.to/lastmile_qr_scan"}, "lon": -77.04186316666667, "fusion_lat": 0.0}, {"name": "59ff2db72e6c4bf9ba8ecfd155e02754", "fusion_lon": 0.0, "lat": 38.90617116666667, "is_reserved": 0, "type": "electric_scooter", "bike_id": "59ff2db72e6c4bf9ba8ecfd155e02754", "is_disabled": 0, "rental_uris": {"android": "https://dc.lft.to/lastmile_qr_scan", "ios": "https://dc.lft.to/lastmile_qr_scan"}, "lon": -77.04119416666667, "fusion_lat": 0.0}, {"name": "c16c966b69d197bf78944a4a0724d004", "fusion_lon": 0.0, "lat": 38.90956883333333, "is_reserved": 0, "type": "electric_scooter", "bike_id": "c16c966b69d197bf78944a4a0724d004", "is_disabled": 0, "rental_uris": {"android": "https://dc.lft.to/lastmile_qr_scan", "ios": "https://dc.lft.to/lastmile_qr_scan"}, "lon": -77.02685883333334, "fusion_lat": 0.0}, {"name": "2c89a79d769272b709149503367585dc", "fusion_lon": 0.0, "lat": 38.8638675, "is_reserved": 0, "type": "electric_scooter", "bike_id": "2c89a79d769272b709149503367585dc", "is_disabled": 0, "rental_uris": {"android": "https://dc.lft.to/lastmile_qr_scan", "ios": "https://dc.lft.to/lastmile_qr_scan"}, "lon": -76.99042016666667, "fusion_lat": 0.0}, {"name": "cdef49268ba948894c9fafbb16d5dc43", "fusion_lon": 0.0, "lat": 38.801193833333336, "is_reserved": 0, "type": "electric_bike", "bike_id": "cdef49268ba948894c9fafbb16d5dc43", "is_disabled": 0, "rental_uris": {"android": "https://dc.lft.to/lastmile_qr_scan", "ios": "https://dc.lft.to/lastmile_qr_scan"}, "lon": -77.07038433333334, "fusion_lat": 0.0}, {"name": "8b6c05631a761cb9dc6a8e7ea4ccfcf7", "fusion_lon": 0.0, "lat": 38.9276565, "is_reserved": 0, "type": "electric_bike", "bike_id": "8b6c05631a761cb9dc6a8e7ea4ccfcf7", "is_disabled": 0, "rental_uris": {"android": "https://dc.lft.to/lastmile_qr_scan", "ios": "https://dc.lft.to/lastmile_qr_scan"}, "lon": -77.07007133333333, "fusion_lat": 0.0}, {"name": "aecbd707582dde0263cb82b85fa3bd9b", "fusion_lon": 0.0, "lat": 38.903832333333334, "is_reserved": 0, "type": "electric_scooter", "bike_id": "aecbd707582dde0263cb82b85fa3bd9b", "is_disabled": 0, "rental_uris": {"android": "https://dc.lft.to/lastmile_qr_scan", "ios": "https://dc.lft.to/lastmile_qr_scan"}, "lon": -77.036362, "fusion_lat": 0.0}, {"name": "7462ef2275f14f0e9ff87d23a90cee72", "fusion_lon": 0.0, "lat": 38.88389183333334, "is_reserved": 0, "type": "electric_scooter", "bike_id": "7462ef2275f14f0e9ff87d23a90cee72", "is_disabled": 0, "rental_uris": {"android": "https://dc.lft.to/lastmile_qr_scan", "ios": "https://dc.lft.to/lastmile_qr_scan"}, "lon": -76.93042066666666, "fusion_lat": 0.0}, {"name": "d0b983588219ce7cda0d7fa05b4e7298", "fusion_lon": 0.0, "lat": 38.9108605, "is_reserved": 0, "type": "electric_scooter", "bike_id": "d0b983588219ce7cda0d7fa05b4e7298", "is_disabled": 0, "rental_uris": {"android": "https://dc.lft.to/lastmile_qr_scan", "ios": "https://dc.lft.to/lastmile_qr_scan"}, "lon": -76.99269683333333, "fusion_lat": 0.0}, {"name": "e4d9569810be9861bc4a322db32bfff4", "fusion_lon": 0.0, "lat": 38.936272333333335, "is_reserved": 0, "type": "electric_bike", "bike_id": "e4d9569810be9861bc4a322db32bfff4", "is_disabled": 0, "rental_uris": {"android": "https://dc.lft.to/lastmile_qr_scan", "ios": "https://dc.lft.to/lastmile_qr_scan"}, "lon": -77.09021966666667, "fusion_lat": 0.0}, {"name": "6bcce5374855b4bce78ea38ffd30d5cd", "fusion_lon": 0.0, "lat": 38.886093833333334, "is_reserved": 0, "type": "electric_scooter", "bike_id": "6bcce5374855b4bce78ea38ffd30d5cd", "is_disabled": 0, "rental_uris": {"android": "https://dc.lft.to/lastmile_qr_scan", "ios": "https://dc.lft.to/lastmile_qr_scan"}, "lon": -76.995059, "fusion_lat": 0.0}, {"name": "5a677d9e7849ce95cebf6c0437d39832", "fusion_lon": 0.0, "lat": 38.90861783333333, "is_reserved": 0, "type": "electric_scooter", "bike_id": "5a677d9e7849ce95cebf6c0437d39832", "is_disabled": 0, "rental_uris": {"android": "https://dc.lft.to/lastmile_qr_scan", "ios": "https://dc.lft.to/lastmile_qr_scan"}, "lon": -77.02417816666667, "fusion_lat": 0.0}, {"name": "f951c27f21761c3957e5f2d938503aad", "fusion_lon": 0.0, "lat": 38.917978, "is_reserved": 0, "type": "electric_scooter", "bike_id": "f951c27f21761c3957e5f2d938503aad", "is_disabled": 0, "rental_uris": {"android": "https://dc.lft.to/lastmile_qr_scan", "ios": "https://dc.lft.to/lastmile_qr_scan"}, "lon": -77.0343575, "fusion_lat": 0.0}, {"name": "753a6a7cc048a6673ac9e75b10eaefb4", "fusion_lon": 0.0, "lat": 38.993276, "is_reserved": 0, "type": "electric_bike", "bike_id": "753a6a7cc048a6673ac9e75b10eaefb4", "is_disabled": 0, "rental_uris": {"android": "https://dc.lft.to/lastmile_qr_scan", "ios": "https://dc.lft.to/lastmile_qr_scan"}, "lon": -76.9461255, "fusion_lat": 0.0}, {"name": "e917104429a62ce5eabd11914351f6f0", "fusion_lon": 0.0, "lat": 38.91666883333333, "is_reserved": 0, "type": "electric_scooter", "bike_id": "e917104429a62ce5eabd11914351f6f0", "is_disabled": 0, "rental_uris": {"android": "https://dc.lft.to/lastmile_qr_scan", "ios": "https://dc.lft.to/lastmile_qr_scan"}, "lon": -77.0297075, "fusion_lat": 0.0}, {"name": "29fd9bc6f1e6879dd10db8e41c86a826", "fusion_lon": 0.0, "lat": 38.92866816666667, "is_reserved": 0, "type": "electric_scooter", "bike_id": "29fd9bc6f1e6879dd10db8e41c86a826", "is_disabled": 0, "rental_uris": {"android": "https://dc.lft.to/lastmile_qr_scan", "ios": "https://dc.lft.to/lastmile_qr_scan"}, "lon": -77.02725533333333, "fusion_lat": 0.0}, {"name": "760423d8b5f322c0873b17fc93d9aa3c", "fusion_lon": 0.0, "lat": 38.9057225, "is_reserved": 0, "type": "electric_scooter", "bike_id": "760423d8b5f322c0873b17fc93d9aa3c", "is_disabled": 0, "rental_uris": {"android": "https://dc.lft.to/lastmile_qr_scan", "ios": "https://dc.lft.to/lastmile_qr_scan"}, "lon": -77.00569333333334, "fusion_lat": 0.0}, {"name": "682ee493dd41bb75bef02ea45b86143e", "fusion_lon": 0.0, "lat": 38.929689333333336, "is_reserved": 0, "type": "electric_scooter", "bike_id": "682ee493dd41bb75bef02ea45b86143e", "is_disabled": 0, "rental_uris": {"android": "https://dc.lft.to/lastmile_qr_scan", "ios": "https://dc.lft.to/lastmile_qr_scan"}, "lon": -77.03272216666667, "fusion_lat": 0.0}, {"name": "51431a3b8121efeba2578db81c2dfdd3", "fusion_lon": 0.0, "lat": 38.855255166666666, "is_reserved": 0, "type": "electric_bike", "bike_id": "51431a3b8121efeba2578db81c2dfdd3", "is_disabled": 0, "rental_uris": {"android": "https://dc.lft.to/lastmile_qr_scan", "ios": "https://dc.lft.to/lastmile_qr_scan"}, "lon": -77.1200025, "fusion_lat": 0.0}, {"name": "7e073679e75d3ccd9c9848e6d8a70b04", "fusion_lon": 0.0, "lat": 38.91910133333333, "is_reserved": 0, "type": "electric_scooter", "bike_id": "7e073679e75d3ccd9c9848e6d8a70b04", "is_disabled": 0, "rental_uris": {"android": "https://dc.lft.to/lastmile_qr_scan", "ios": "https://dc.lft.to/lastmile_qr_scan"}, "lon": -77.044644, "fusion_lat": 0.0}, {"name": "1a31ffa507a0bcfcffe0677c5a1fe5ad", "fusion_lon": 0.0, "lat": 38.93938716666667, "is_reserved": 0, "type": "electric_scooter", "bike_id": "1a31ffa507a0bcfcffe0677c5a1fe5ad", "is_disabled": 0, "rental_uris": {"android": "https://dc.lft.to/lastmile_qr_scan", "ios": "https://dc.lft.to/lastmile_qr_scan"}, "lon": -77.02475083333333, "fusion_lat": 0.0}, {"name": "f4e19886b4deeb28e932d95a65dfac7c", "fusion_lon": 0.0, "lat": 38.9022235, "is_reserved": 0, "type": "electric_scooter", "bike_id": "f4e19886b4deeb28e932d95a65dfac7c", "is_disabled": 0, "rental_uris": {"android": "https://dc.lft.to/lastmile_qr_scan", "ios": "https://dc.lft.to/lastmile_qr_scan"}, "lon": -77.0215475, "fusion_lat": 0.0}, {"name": "0a5c0747e787b73fd5d8cea0a38e3471", "fusion_lon": 0.0, "lat": 38.86244383333333, "is_reserved": 0, "type": "electric_scooter", "bike_id": "0a5c0747e787b73fd5d8cea0a38e3471", "is_disabled": 0, "rental_uris": {"android": "https://dc.lft.to/lastmile_qr_scan", "ios": "https://dc.lft.to/lastmile_qr_scan"}, "lon": -76.99490166666666, "fusion_lat": 0.0}, {"name": "fd1820e389effe81214b6837929d492f", "fusion_lon": 0.0, "lat": 38.91744033333333, "is_reserved": 0, "type": "electric_scooter", "bike_id": "fd1820e389effe81214b6837929d492f", "is_disabled": 0, "rental_uris": {"android": "https://dc.lft.to/lastmile_qr_scan", "ios": "https://dc.lft.to/lastmile_qr_scan"}, "lon": -77.014594, "fusion_lat": 0.0}, {"name": "8e6c30e84f3ce4dc924bf014f9640ec9", "fusion_lon": 0.0, "lat": 38.902549, "is_reserved": 0, "type": "electric_scooter", "bike_id": "8e6c30e84f3ce4dc924bf014f9640ec9", "is_disabled": 0, "rental_uris": {"android": "https://dc.lft.to/lastmile_qr_scan", "ios": "https://dc.lft.to/lastmile_qr_scan"}, "lon": -77.03980633333333, "fusion_lat": 0.0}, {"name": "40b9c33f77fdc31bb17675ce6d1db2e9", "fusion_lon": 0.0, "lat": 38.95748183333333, "is_reserved": 0, "type": "electric_scooter", "bike_id": "40b9c33f77fdc31bb17675ce6d1db2e9", "is_disabled": 0, "rental_uris": {"android": "https://dc.lft.to/lastmile_qr_scan", "ios": "https://dc.lft.to/lastmile_qr_scan"}, "lon": -77.02059233333334, "fusion_lat": 0.0}, {"name": "0e7fb7ebca20161ee112b0666a441afb", "fusion_lon": 0.0, "lat": 38.831601666666664, "is_reserved": 0, "type": "electric_scooter", "bike_id": "0e7fb7ebca20161ee112b0666a441afb", "is_disabled": 0, "rental_uris": {"android": "https://dc.lft.to/lastmile_qr_scan", "ios": "https://dc.lft.to/lastmile_qr_scan"}, "lon": -77.0511535, "fusion_lat": 0.0}, {"name": "7c3a69e24db07e9c55dda6b4cb21866f", "fusion_lon": 0.0, "lat": 38.89718366666666, "is_reserved": 0, "type": "electric_scooter", "bike_id": "7c3a69e24db07e9c55dda6b4cb21866f", "is_disabled": 0, "rental_uris": {"android": "https://dc.lft.to/lastmile_qr_scan", "ios": "https://dc.lft.to/lastmile_qr_scan"}, "lon": -76.97343116666667, "fusion_lat": 0.0}, {"name": "abeeb4d2d0076b672d4f7e1d7078eee5", "fusion_lon": 0.0, "lat": 38.9182595, "is_reserved": 0, "type": "electric_scooter", "bike_id": "abeeb4d2d0076b672d4f7e1d7078eee5", "is_disabled": 0, "rental_uris": {"android": "https://dc.lft.to/lastmile_qr_scan", "ios": "https://dc.lft.to/lastmile_qr_scan"}, "lon": -77.02715733333334, "fusion_lat": 0.0}, {"name": "afaff671afc98b0a8ac0c75f8666403f", "fusion_lon": 0.0, "lat": 38.93153566666667, "is_reserved": 0, "type": "electric_bike", "bike_id": "afaff671afc98b0a8ac0c75f8666403f", "is_disabled": 0, "rental_uris": {"android": "https://dc.lft.to/lastmile_qr_scan", "ios": "https://dc.lft.to/lastmile_qr_scan"}, "lon": -77.027164, "fusion_lat": 0.0}, {"name": "0dc590c21cca2e4491a942940ca3e027", "fusion_lon": 0.0, "lat": 38.983685666666666, "is_reserved": 0, "type": "electric_bike", "bike_id": "0dc590c21cca2e4491a942940ca3e027", "is_disabled": 0, "rental_uris": {"android": "https://dc.lft.to/lastmile_qr_scan", "ios": "https://dc.lft.to/lastmile_qr_scan"}, "lon": -76.9721135, "fusion_lat": 0.0}, {"name": "c61de89e8adb2f4555a9d9e1e23b43b6", "fusion_lon": 0.0, "lat": 38.9234545, "is_reserved": 0, "type": "electric_scooter", "bike_id": "c61de89e8adb2f4555a9d9e1e23b43b6", "is_disabled": 0, "rental_uris": {"android": "https://dc.lft.to/lastmile_qr_scan", "ios": "https://dc.lft.to/lastmile_qr_scan"}, "lon": -77.05077733333333, "fusion_lat": 0.0}, {"name": "6f3749398e14287cb890591fd6028ca0", "fusion_lon": 0.0, "lat": 38.9241955, "is_reserved": 0, "type": "electric_scooter", "bike_id": "6f3749398e14287cb890591fd6028ca0", "is_disabled": 0, "rental_uris": {"android": "https://dc.lft.to/lastmile_qr_scan", "ios": "https://dc.lft.to/lastmile_qr_scan"}, "lon": -77.05062383333333, "fusion_lat": 0.0}, {"name": "4b69ef92f55837ae08097e3b33a25a78", "fusion_lon": 0.0, "lat": 38.884315666666666, "is_reserved": 0, "type": "electric_scooter", "bike_id": "4b69ef92f55837ae08097e3b33a25a78", "is_disabled": 0, "rental_uris": {"android": "https://dc.lft.to/lastmile_qr_scan", "ios": "https://dc.lft.to/lastmile_qr_scan"}, "lon": -77.0296565, "fusion_lat": 0.0}, {"name": "a45a127a8be4259dd8225e5bcda74174", "fusion_lon": 0.0, "lat": 38.92582016666667, "is_reserved": 0, "type": "electric_scooter", "bike_id": "a45a127a8be4259dd8225e5bcda74174", "is_disabled": 0, "rental_uris": {"android": "https://dc.lft.to/lastmile_qr_scan", "ios": "https://dc.lft.to/lastmile_qr_scan"}, "lon": -77.03912283333334, "fusion_lat": 0.0}, {"name": "eca4fc678dcad5d03f4a8f582f82da26", "fusion_lon": 0.0, "lat": 38.83692883333333, "is_reserved": 0, "type": "electric_scooter", "bike_id": "eca4fc678dcad5d03f4a8f582f82da26", "is_disabled": 0, "rental_uris": {"android": "https://dc.lft.to/lastmile_qr_scan", "ios": "https://dc.lft.to/lastmile_qr_scan"}, "lon": -77.005683, "fusion_lat": 0.0}, {"name": "2f6f6560ffe06e7d2cd7de571c434874", "fusion_lon": 0.0, "lat": 38.89221916666666, "is_reserved": 0, "type": "electric_scooter", "bike_id": "2f6f6560ffe06e7d2cd7de571c434874", "is_disabled": 0, "rental_uris": {"android": "https://dc.lft.to/lastmile_qr_scan", "ios": "https://dc.lft.to/lastmile_qr_scan"}, "lon": -77.047948, "fusion_lat": 0.0}, {"name": "6ca77f967a02649072cf348dcbccf9f4", "fusion_lon": 0.0, "lat": 38.90061083333333, "is_reserved": 0, "type": "electric_scooter", "bike_id": "6ca77f967a02649072cf348dcbccf9f4", "is_disabled": 0, "rental_uris": {"android": "https://dc.lft.to/lastmile_qr_scan", "ios": "https://dc.lft.to/lastmile_qr_scan"}, "lon": -77.048846, "fusion_lat": 0.0}, {"name": "1840391d47cc89c3d556395abbe55c7e", "fusion_lon": 0.0, "lat": 38.958532166666664, "is_reserved": 0, "type": "electric_scooter", "bike_id": "1840391d47cc89c3d556395abbe55c7e", "is_disabled": 0, "rental_uris": {"android": "https://dc.lft.to/lastmile_qr_scan", "ios": "https://dc.lft.to/lastmile_qr_scan"}, "lon": -77.070025, "fusion_lat": 0.0}, {"name": "3926adb2a6a2cb946b4eff41de6cbdcc", "fusion_lon": 0.0, "lat": 38.90449066666667, "is_reserved": 0, "type": "electric_scooter", "bike_id": "3926adb2a6a2cb946b4eff41de6cbdcc", "is_disabled": 0, "rental_uris": {"android": "https://dc.lft.to/lastmile_qr_scan", "ios": "https://dc.lft.to/lastmile_qr_scan"}, "lon": -77.04803133333333, "fusion_lat": 0.0}, {"name": "2fad75b3518daef77a44cc1f77b20fe1", "fusion_lon": 0.0, "lat": 38.84431083333333, "is_reserved": 0, "type": "electric_scooter", "bike_id": "2fad75b3518daef77a44cc1f77b20fe1", "is_disabled": 0, "rental_uris": {"android": "https://dc.lft.to/lastmile_qr_scan", "ios": "https://dc.lft.to/lastmile_qr_scan"}, "lon": -76.9977175, "fusion_lat": 0.0}, {"name": "e7be1e7073cae0491af5f2eee0ce9ce8", "fusion_lon": 0.0, "lat": 38.91673883333333, "is_reserved": 0, "type": "electric_scooter", "bike_id": "e7be1e7073cae0491af5f2eee0ce9ce8", "is_disabled": 0, "rental_uris": {"android": "https://dc.lft.to/lastmile_qr_scan", "ios": "https://dc.lft.to/lastmile_qr_scan"}, "lon": -77.033939, "fusion_lat": 0.0}, {"name": "2859cd9ecfb6b8a7e65f64dbf1c4f2d6", "fusion_lon": 0.0, "lat": 38.922579666666664, "is_reserved": 0, "type": "electric_bike", "bike_id": "2859cd9ecfb6b8a7e65f64dbf1c4f2d6", "is_disabled": 0, "rental_uris": {"android": "https://dc.lft.to/lastmile_qr_scan", "ios": "https://dc.lft.to/lastmile_qr_scan"}, "lon": -77.01946933333333, "fusion_lat": 0.0}, {"name": "53915da8a036a8961b53a5f79e53cc53", "fusion_lon": 0.0, "lat": 38.908256333333334, "is_reserved": 0, "type": "electric_scooter", "bike_id": "53915da8a036a8961b53a5f79e53cc53", "is_disabled": 0, "rental_uris": {"android": "https://dc.lft.to/lastmile_qr_scan", "ios": "https://dc.lft.to/lastmile_qr_scan"}, "lon": -77.03310216666667, "fusion_lat": 0.0}, {"name": "5cfd0f2ccb2c8c41a780110f73eadcb9", "fusion_lon": 0.0, "lat": 38.891175, "is_reserved": 0, "type": "electric_scooter", "bike_id": "5cfd0f2ccb2c8c41a780110f73eadcb9", "is_disabled": 0, "rental_uris": {"android": "https://dc.lft.to/lastmile_qr_scan", "ios": "https://dc.lft.to/lastmile_qr_scan"}, "lon": -76.99155216666666, "fusion_lat": 0.0}, {"name": "193d4b59db20eb2e01b619468c0769cb", "fusion_lon": 0.0, "lat": 38.9228075, "is_reserved": 0, "type": "electric_scooter", "bike_id": "193d4b59db20eb2e01b619468c0769cb", "is_disabled": 0, "rental_uris": {"android": "https://dc.lft.to/lastmile_qr_scan", "ios": "https://dc.lft.to/lastmile_qr_scan"}, "lon": -77.04469833333333, "fusion_lat": 0.0}, {"name": "8be4ef190d6eb96c474b24bbeee4b38c", "fusion_lon": 0.0, "lat": 38.88743316666667, "is_reserved": 0, "type": "electric_scooter", "bike_id": "8be4ef190d6eb96c474b24bbeee4b38c", "is_disabled": 0, "rental_uris": {"android": "https://dc.lft.to/lastmile_qr_scan", "ios": "https://dc.lft.to/lastmile_qr_scan"}, "lon": -77.02568466666666, "fusion_lat": 0.0}, {"name": "fc37ff006accf2c89a0805f69d7bd8cf", "fusion_lon": 0.0, "lat": 38.8953575, "is_reserved": 0, "type": "electric_scooter", "bike_id": "fc37ff006accf2c89a0805f69d7bd8cf", "is_disabled": 0, "rental_uris": {"android": "https://dc.lft.to/lastmile_qr_scan", "ios": "https://dc.lft.to/lastmile_qr_scan"}, "lon": -76.94896233333333, "fusion_lat": 0.0}, {"name": "09bc7cb0326bbc73a8366b0f983a2a3b", "fusion_lon": 0.0, "lat": 38.900172, "is_reserved": 0, "type": "electric_scooter", "bike_id": "09bc7cb0326bbc73a8366b0f983a2a3b", "is_disabled": 0, "rental_uris": {"android": "https://dc.lft.to/lastmile_qr_scan", "ios": "https://dc.lft.to/lastmile_qr_scan"}, "lon": -76.99893983333334, "fusion_lat": 0.0}, {"name": "44406a4ea9ca2c8e10abd851ff2e1d93", "fusion_lon": 0.0, "lat": 38.89847016666667, "is_reserved": 0, "type": "electric_scooter", "bike_id": "44406a4ea9ca2c8e10abd851ff2e1d93", "is_disabled": 0, "rental_uris": {"android": "https://dc.lft.to/lastmile_qr_scan", "ios": "https://dc.lft.to/lastmile_qr_scan"}, "lon": -77.0227135, "fusion_lat": 0.0}, {"name": "290dcb02e45ac7b2e0740157506b14b5", "fusion_lon": 0.0, "lat": 38.87933016666667, "is_reserved": 0, "type": "electric_scooter", "bike_id": "290dcb02e45ac7b2e0740157506b14b5", "is_disabled": 0, "rental_uris": {"android": "https://dc.lft.to/lastmile_qr_scan", "ios": "https://dc.lft.to/lastmile_qr_scan"}, "lon": -77.00403983333334, "fusion_lat": 0.0}, {"name": "d4603939e463bc0bc4919decd62609b8", "fusion_lon": 0.0, "lat": 38.91274683333333, "is_reserved": 0, "type": "electric_scooter", "bike_id": "d4603939e463bc0bc4919decd62609b8", "is_disabled": 0, "rental_uris": {"android": "https://dc.lft.to/lastmile_qr_scan", "ios": "https://dc.lft.to/lastmile_qr_scan"}, "lon": -77.02686133333333, "fusion_lat": 0.0}, {"name": "87f29ad701a8717a182eaec4934d6078", "fusion_lon": 0.0, "lat": 38.911047, "is_reserved": 0, "type": "electric_scooter", "bike_id": "87f29ad701a8717a182eaec4934d6078", "is_disabled": 0, "rental_uris": {"android": "https://dc.lft.to/lastmile_qr_scan", "ios": "https://dc.lft.to/lastmile_qr_scan"}, "lon": -77.011492, "fusion_lat": 0.0}, {"name": "85991b906f66b0d6b6ffa852c1cd60f5", "fusion_lon": 0.0, "lat": 38.8882445, "is_reserved": 0, "type": "electric_scooter", "bike_id": "85991b906f66b0d6b6ffa852c1cd60f5", "is_disabled": 0, "rental_uris": {"android": "https://dc.lft.to/lastmile_qr_scan", "ios": "https://dc.lft.to/lastmile_qr_scan"}, "lon": -76.9509475, "fusion_lat": 0.0}, {"name": "16c18ccd004946d500d6da525c64daca", "fusion_lon": 0.0, "lat": 38.92451416666667, "is_reserved": 0, "type": "electric_scooter", "bike_id": "16c18ccd004946d500d6da525c64daca", "is_disabled": 0, "rental_uris": {"android": "https://dc.lft.to/lastmile_qr_scan", "ios": "https://dc.lft.to/lastmile_qr_scan"}, "lon": -77.041098, "fusion_lat": 0.0}, {"name": "bf7f730a710a1612219350abcc8603fa", "fusion_lon": 0.0, "lat": 38.87212666666667, "is_reserved": 0, "type": "electric_scooter", "bike_id": "bf7f730a710a1612219350abcc8603fa", "is_disabled": 0, "rental_uris": {"android": "https://dc.lft.to/lastmile_qr_scan", "ios": "https://dc.lft.to/lastmile_qr_scan"}, "lon": -77.01638866666667, "fusion_lat": 0.0}, {"name": "11dd75555999e434794ba184048985e2", "fusion_lon": 0.0, "lat": 38.900101666666664, "is_reserved": 0, "type": "electric_scooter", "bike_id": "11dd75555999e434794ba184048985e2", "is_disabled": 0, "rental_uris": {"android": "https://dc.lft.to/lastmile_qr_scan", "ios": "https://dc.lft.to/lastmile_qr_scan"}, "lon": -77.00669466666666, "fusion_lat": 0.0}, {"name": "bce52bf0f9a34eb3ff7f7c1b3addfca5", "fusion_lon": 0.0, "lat": 38.91916166666667, "is_reserved": 0, "type": "electric_scooter", "bike_id": "bce52bf0f9a34eb3ff7f7c1b3addfca5", "is_disabled": 0, "rental_uris": {"android": "https://dc.lft.to/lastmile_qr_scan", "ios": "https://dc.lft.to/lastmile_qr_scan"}, "lon": -77.02612716666667, "fusion_lat": 0.0}, {"name": "709496e1a991febc009d1919cd6d06ea", "fusion_lon": 0.0, "lat": 38.902658833333334, "is_reserved": 0, "type": "electric_scooter", "bike_id": "709496e1a991febc009d1919cd6d06ea", "is_disabled": 0, "rental_uris": {"android": "https://dc.lft.to/lastmile_qr_scan", "ios": "https://dc.lft.to/lastmile_qr_scan"}, "lon": -77.01757483333333, "fusion_lat": 0.0}, {"name": "64918f4908fca60278e9797b0e39719d", "fusion_lon": 0.0, "lat": 38.901516666666666, "is_reserved": 0, "type": "electric_scooter", "bike_id": "64918f4908fca60278e9797b0e39719d", "is_disabled": 0, "rental_uris": {"android": "https://dc.lft.to/lastmile_qr_scan", "ios": "https://dc.lft.to/lastmile_qr_scan"}, "lon": -77.02386333333334, "fusion_lat": 0.0}, {"name": "0bbba8cf9da41dd5b1332e21875572c4", "fusion_lon": 0.0, "lat": 38.92101916666667, "is_reserved": 0, "type": "electric_scooter", "bike_id": "0bbba8cf9da41dd5b1332e21875572c4", "is_disabled": 0, "rental_uris": {"android": "https://dc.lft.to/lastmile_qr_scan", "ios": "https://dc.lft.to/lastmile_qr_scan"}, "lon": -77.024015, "fusion_lat": 0.0}, {"name": "299ad5650b390e9a2cb0770b56586443", "fusion_lon": 0.0, "lat": 38.92389383333333, "is_reserved": 0, "type": "electric_scooter", "bike_id": "299ad5650b390e9a2cb0770b56586443", "is_disabled": 0, "rental_uris": {"android": "https://dc.lft.to/lastmile_qr_scan", "ios": "https://dc.lft.to/lastmile_qr_scan"}, "lon": -77.03652633333333, "fusion_lat": 0.0}, {"name": "ffac3270f3dfd1a501938bf3ec2bad04", "fusion_lon": 0.0, "lat": 38.92354916666667, "is_reserved": 0, "type": "electric_scooter", "bike_id": "ffac3270f3dfd1a501938bf3ec2bad04", "is_disabled": 0, "rental_uris": {"android": "https://dc.lft.to/lastmile_qr_scan", "ios": "https://dc.lft.to/lastmile_qr_scan"}, "lon": -77.04160416666667, "fusion_lat": 0.0}, {"name": "9e14f738b6dca069b408ee6dbffff90e", "fusion_lon": 0.0, "lat": 38.9035315, "is_reserved": 0, "type": "electric_scooter", "bike_id": "9e14f738b6dca069b408ee6dbffff90e", "is_disabled": 0, "rental_uris": {"android": "https://dc.lft.to/lastmile_qr_scan", "ios": "https://dc.lft.to/lastmile_qr_scan"}, "lon": -77.025726, "fusion_lat": 0.0}, {"name": "c7e29af501338490affde15429a3823a", "fusion_lon": 0.0, "lat": 38.89773066666667, "is_reserved": 0, "type": "electric_scooter", "bike_id": "c7e29af501338490affde15429a3823a", "is_disabled": 0, "rental_uris": {"android": "https://dc.lft.to/lastmile_qr_scan", "ios": "https://dc.lft.to/lastmile_qr_scan"}, "lon": -77.05157716666666, "fusion_lat": 0.0}, {"name": "0faa76d3458d9099ba15a88031315449", "fusion_lon": 0.0, "lat": 38.87682133333333, "is_reserved": 0, "type": "electric_scooter", "bike_id": "0faa76d3458d9099ba15a88031315449", "is_disabled": 0, "rental_uris": {"android": "https://dc.lft.to/lastmile_qr_scan", "ios": "https://dc.lft.to/lastmile_qr_scan"}, "lon": -76.99824233333334, "fusion_lat": 0.0}, {"name": "076fe2b7c1031de4ede11208ce7e3684", "fusion_lon": 0.0, "lat": 38.9354835, "is_reserved": 0, "type": "electric_scooter", "bike_id": "076fe2b7c1031de4ede11208ce7e3684", "is_disabled": 0, "rental_uris": {"android": "https://dc.lft.to/lastmile_qr_scan", "ios": "https://dc.lft.to/lastmile_qr_scan"}, "lon": -77.05854116666667, "fusion_lat": 0.0}, {"name": "a2a12792f4875ae45010297f79bc2777", "fusion_lon": 0.0, "lat": 38.912741, "is_reserved": 0, "type": "electric_scooter", "bike_id": "a2a12792f4875ae45010297f79bc2777", "is_disabled": 0, "rental_uris": {"android": "https://dc.lft.to/lastmile_qr_scan", "ios": "https://dc.lft.to/lastmile_qr_scan"}, "lon": -77.0449115, "fusion_lat": 0.0}, {"name": "1ac1e198416f0d7c3f6f76c4799a2b15", "fusion_lon": 0.0, "lat": 39.03988233333333, "is_reserved": 0, "type": "electric_bike", "bike_id": "1ac1e198416f0d7c3f6f76c4799a2b15", "is_disabled": 0, "rental_uris": {"android": "https://dc.lft.to/lastmile_qr_scan", "ios": "https://dc.lft.to/lastmile_qr_scan"}, "lon": -76.99924266666666, "fusion_lat": 0.0}, {"name": "938004d07a4e3efb0e76d50cce28074b", "fusion_lon": 0.0, "lat": 38.9033805, "is_reserved": 0, "type": "electric_scooter", "bike_id": "938004d07a4e3efb0e76d50cce28074b", "is_disabled": 0, "rental_uris": {"android": "https://dc.lft.to/lastmile_qr_scan", "ios": "https://dc.lft.to/lastmile_qr_scan"}, "lon": -77.02691933333334, "fusion_lat": 0.0}, {"name": "9a757414c91f580ee744ec2c58df5c54", "fusion_lon": 0.0, "lat": 38.937687833333335, "is_reserved": 0, "type": "electric_scooter", "bike_id": "9a757414c91f580ee744ec2c58df5c54", "is_disabled": 0, "rental_uris": {"android": "https://dc.lft.to/lastmile_qr_scan", "ios": "https://dc.lft.to/lastmile_qr_scan"}, "lon": -77.02516683333333, "fusion_lat": 0.0}, {"name": "649fc038eb3d7aa676fa814e6873c001", "fusion_lon": 0.0, "lat": 38.961479, "is_reserved": 0, "type": "electric_scooter", "bike_id": "649fc038eb3d7aa676fa814e6873c001", "is_disabled": 0, "rental_uris": {"android": "https://dc.lft.to/lastmile_qr_scan", "ios": "https://dc.lft.to/lastmile_qr_scan"}, "lon": -77.0322905, "fusion_lat": 0.0}, {"name": "95279fb19aa54f792b7eb5325a08acb9", "fusion_lon": 0.0, "lat": 38.9053045, "is_reserved": 0, "type": "electric_scooter", "bike_id": "95279fb19aa54f792b7eb5325a08acb9", "is_disabled": 0, "rental_uris": {"android": "https://dc.lft.to/lastmile_qr_scan", "ios": "https://dc.lft.to/lastmile_qr_scan"}, "lon": -77.00695166666667, "fusion_lat": 0.0}, {"name": "1fd2e1c3bcf49304f401f866413a553a", "fusion_lon": 0.0, "lat": 38.91040816666667, "is_reserved": 0, "type": "electric_scooter", "bike_id": "1fd2e1c3bcf49304f401f866413a553a", "is_disabled": 0, "rental_uris": {"android": "https://dc.lft.to/lastmile_qr_scan", "ios": "https://dc.lft.to/lastmile_qr_scan"}, "lon": -77.01329883333334, "fusion_lat": 0.0}, {"name": "bb97d18af61fe6cfb41a6c126e775fab", "fusion_lon": 0.0, "lat": 38.9049155, "is_reserved": 0, "type": "electric_scooter", "bike_id": "bb97d18af61fe6cfb41a6c126e775fab", "is_disabled": 0, "rental_uris": {"android": "https://dc.lft.to/lastmile_qr_scan", "ios": "https://dc.lft.to/lastmile_qr_scan"}, "lon": -77.02593183333333, "fusion_lat": 0.0}, {"name": "7f783d98ae6a360ac90d28b078e2fba3", "fusion_lon": 0.0, "lat": 38.905132, "is_reserved": 0, "type": "electric_scooter", "bike_id": "7f783d98ae6a360ac90d28b078e2fba3", "is_disabled": 0, "rental_uris": {"android": "https://dc.lft.to/lastmile_qr_scan", "ios": "https://dc.lft.to/lastmile_qr_scan"}, "lon": -77.00133133333334, "fusion_lat": 0.0}, {"name": "678c76469a42ad595eeac5f1a80bf4ca", "fusion_lon": 0.0, "lat": 38.89474766666667, "is_reserved": 0, "type": "electric_scooter", "bike_id": "678c76469a42ad595eeac5f1a80bf4ca", "is_disabled": 0, "rental_uris": {"android": "https://dc.lft.to/lastmile_qr_scan", "ios": "https://dc.lft.to/lastmile_qr_scan"}, "lon": -77.02797, "fusion_lat": 0.0}, {"name": "5a8c503e48b7486b9e847ca33be37064", "fusion_lon": 0.0, "lat": 38.905389666666665, "is_reserved": 0, "type": "electric_scooter", "bike_id": "5a8c503e48b7486b9e847ca33be37064", "is_disabled": 0, "rental_uris": {"android": "https://dc.lft.to/lastmile_qr_scan", "ios": "https://dc.lft.to/lastmile_qr_scan"}, "lon": -76.981077, "fusion_lat": 0.0}, {"name": "4ed54de58cec7a12369ee9d5a6fa823e", "fusion_lon": 0.0, "lat": 38.91884233333333, "is_reserved": 0, "type": "electric_scooter", "bike_id": "4ed54de58cec7a12369ee9d5a6fa823e", "is_disabled": 0, "rental_uris": {"android": "https://dc.lft.to/lastmile_qr_scan", "ios": "https://dc.lft.to/lastmile_qr_scan"}, "lon": -77.0348885, "fusion_lat": 0.0}, {"name": "69e3fcc7688c1b301f8704f2073954ea", "fusion_lon": 0.0, "lat": 38.860620833333336, "is_reserved": 0, "type": "electric_scooter", "bike_id": "69e3fcc7688c1b301f8704f2073954ea", "is_disabled": 0, "rental_uris": {"android": "https://dc.lft.to/lastmile_qr_scan", "ios": "https://dc.lft.to/lastmile_qr_scan"}, "lon": -76.98420483333334, "fusion_lat": 0.0}, {"name": "f54e7dfa696dbe613c8a7fe9787ec70b", "fusion_lon": 0.0, "lat": 38.87580533333333, "is_reserved": 0, "type": "electric_scooter", "bike_id": "f54e7dfa696dbe613c8a7fe9787ec70b", "is_disabled": 0, "rental_uris": {"android": "https://dc.lft.to/lastmile_qr_scan", "ios": "https://dc.lft.to/lastmile_qr_scan"}, "lon": -77.005757, "fusion_lat": 0.0}, {"name": "69d8d1dfc8c173fb1ec14cf7d60c97f8", "fusion_lon": 0.0, "lat": 38.87641266666667, "is_reserved": 0, "type": "electric_scooter", "bike_id": "69d8d1dfc8c173fb1ec14cf7d60c97f8", "is_disabled": 0, "rental_uris": {"android": "https://dc.lft.to/lastmile_qr_scan", "ios": "https://dc.lft.to/lastmile_qr_scan"}, "lon": -77.004532, "fusion_lat": 0.0}, {"name": "8a21704d87dcdaac0fd436529765d133", "fusion_lon": 0.0, "lat": 38.93093416666667, "is_reserved": 0, "type": "electric_scooter", "bike_id": "8a21704d87dcdaac0fd436529765d133", "is_disabled": 0, "rental_uris": {"android": "https://dc.lft.to/lastmile_qr_scan", "ios": "https://dc.lft.to/lastmile_qr_scan"}, "lon": -77.03441483333333, "fusion_lat": 0.0}, {"name": "e20b58403d4e41afc7912f3127f42b6e", "fusion_lon": 0.0, "lat": 38.899562333333336, "is_reserved": 0, "type": "electric_scooter", "bike_id": "e20b58403d4e41afc7912f3127f42b6e", "is_disabled": 0, "rental_uris": {"android": "https://dc.lft.to/lastmile_qr_scan", "ios": "https://dc.lft.to/lastmile_qr_scan"}, "lon": -77.01600833333333, "fusion_lat": 0.0}, {"name": "6dd90ef3574f99e0bcdafd53f4d5ca23", "fusion_lon": 0.0, "lat": 38.89363083333333, "is_reserved": 0, "type": "electric_scooter", "bike_id": "6dd90ef3574f99e0bcdafd53f4d5ca23", "is_disabled": 0, "rental_uris": {"android": "https://dc.lft.to/lastmile_qr_scan", "ios": "https://dc.lft.to/lastmile_qr_scan"}, "lon": -77.00329683333334, "fusion_lat": 0.0}, {"name": "d72c64471875669b64db75f7ffebf5b2", "fusion_lon": 0.0, "lat": 38.916849166666665, "is_reserved": 0, "type": "electric_scooter", "bike_id": "d72c64471875669b64db75f7ffebf5b2", "is_disabled": 0, "rental_uris": {"android": "https://dc.lft.to/lastmile_qr_scan", "ios": "https://dc.lft.to/lastmile_qr_scan"}, "lon": -77.02523383333333, "fusion_lat": 0.0}, {"name": "d3dd34a047063838750ec792966391fd", "fusion_lon": 0.0, "lat": 38.903927333333336, "is_reserved": 0, "type": "electric_scooter", "bike_id": "d3dd34a047063838750ec792966391fd", "is_disabled": 0, "rental_uris": {"android": "https://dc.lft.to/lastmile_qr_scan", "ios": "https://dc.lft.to/lastmile_qr_scan"}, "lon": -77.0383035, "fusion_lat": 0.0}, {"name": "5c0063f8b50f75c46cd0b82facc6cf27", "fusion_lon": 0.0, "lat": 38.90572483333333, "is_reserved": 0, "type": "electric_scooter", "bike_id": "5c0063f8b50f75c46cd0b82facc6cf27", "is_disabled": 0, "rental_uris": {"android": "https://dc.lft.to/lastmile_qr_scan", "ios": "https://dc.lft.to/lastmile_qr_scan"}, "lon": -77.0057745, "fusion_lat": 0.0}, {"name": "0bd6f48cf568fbf25fb978e0643c3696", "fusion_lon": 0.0, "lat": 38.88787583333333, "is_reserved": 0, "type": "electric_scooter", "bike_id": "0bd6f48cf568fbf25fb978e0643c3696", "is_disabled": 0, "rental_uris": {"android": "https://dc.lft.to/lastmile_qr_scan", "ios": "https://dc.lft.to/lastmile_qr_scan"}, "lon": -76.9552815, "fusion_lat": 0.0}, {"name": "31728570e6951034cca16d9f2ad62639", "fusion_lon": 0.0, "lat": 38.86240633333333, "is_reserved": 0, "type": "electric_scooter", "bike_id": "31728570e6951034cca16d9f2ad62639", "is_disabled": 0, "rental_uris": {"android": "https://dc.lft.to/lastmile_qr_scan", "ios": "https://dc.lft.to/lastmile_qr_scan"}, "lon": -76.99491883333333, "fusion_lat": 0.0}, {"name": "d7ce88ccdd664b51eed6eec8794bddd0", "fusion_lon": 0.0, "lat": 38.92463016666667, "is_reserved": 0, "type": "electric_scooter", "bike_id": "d7ce88ccdd664b51eed6eec8794bddd0", "is_disabled": 0, "rental_uris": {"android": "https://dc.lft.to/lastmile_qr_scan", "ios": "https://dc.lft.to/lastmile_qr_scan"}, "lon": -77.03995516666667, "fusion_lat": 0.0}, {"name": "d564ca0efe5953d97adc8e686925f81b", "fusion_lon": 0.0, "lat": 38.8939085, "is_reserved": 0, "type": "electric_scooter", "bike_id": "d564ca0efe5953d97adc8e686925f81b", "is_disabled": 0, "rental_uris": {"android": "https://dc.lft.to/lastmile_qr_scan", "ios": "https://dc.lft.to/lastmile_qr_scan"}, "lon": -77.03169116666666, "fusion_lat": 0.0}, {"name": "b182af71fcbd3bd001c6fccc16753ddd", "fusion_lon": 0.0, "lat": 38.908319166666665, "is_reserved": 0, "type": "electric_scooter", "bike_id": "b182af71fcbd3bd001c6fccc16753ddd", "is_disabled": 0, "rental_uris": {"android": "https://dc.lft.to/lastmile_qr_scan", "ios": "https://dc.lft.to/lastmile_qr_scan"}, "lon": -77.04448866666667, "fusion_lat": 0.0}, {"name": "cb052fe52cc9cc8a36a171b4ff259d5b", "fusion_lon": 0.0, "lat": 38.913904333333335, "is_reserved": 0, "type": "electric_bike", "bike_id": "cb052fe52cc9cc8a36a171b4ff259d5b", "is_disabled": 0, "rental_uris": {"android": "https://dc.lft.to/lastmile_qr_scan", "ios": "https://dc.lft.to/lastmile_qr_scan"}, "lon": -77.08923233333333, "fusion_lat": 0.0}, {"name": "f704d2c2163e5106fcd95e5e322c9181", "fusion_lon": 0.0, "lat": 38.91499366666667, "is_reserved": 0, "type": "electric_scooter", "bike_id": "f704d2c2163e5106fcd95e5e322c9181", "is_disabled": 0, "rental_uris": {"android": "https://dc.lft.to/lastmile_qr_scan", "ios": "https://dc.lft.to/lastmile_qr_scan"}, "lon": -77.01211683333334, "fusion_lat": 0.0}, {"name": "4ae0a716952a6b00af22c8e8ecdc7c88", "fusion_lon": 0.0, "lat": 38.911001666666664, "is_reserved": 0, "type": "electric_scooter", "bike_id": "4ae0a716952a6b00af22c8e8ecdc7c88", "is_disabled": 0, "rental_uris": {"android": "https://dc.lft.to/lastmile_qr_scan", "ios": "https://dc.lft.to/lastmile_qr_scan"}, "lon": -77.04201933333333, "fusion_lat": 0.0}, {"name": "7b556f49cb2fdfc47356ea9a97865223", "fusion_lon": 0.0, "lat": 38.8342915, "is_reserved": 0, "type": "electric_bike", "bike_id": "7b556f49cb2fdfc47356ea9a97865223", "is_disabled": 0, "rental_uris": {"android": "https://dc.lft.to/lastmile_qr_scan", "ios": "https://dc.lft.to/lastmile_qr_scan"}, "lon": -77.103569, "fusion_lat": 0.0}, {"name": "1b43297a7207d8db309092b8afbfb89c", "fusion_lon": 0.0, "lat": 38.92416383333333, "is_reserved": 0, "type": "electric_scooter", "bike_id": "1b43297a7207d8db309092b8afbfb89c", "is_disabled": 0, "rental_uris": {"android": "https://dc.lft.to/lastmile_qr_scan", "ios": "https://dc.lft.to/lastmile_qr_scan"}, "lon": -77.01943816666666, "fusion_lat": 0.0}, {"name": "a7d618a87b9776770d977cb8d266d714", "fusion_lon": 0.0, "lat": 38.92507966666667, "is_reserved": 0, "type": "electric_scooter", "bike_id": "a7d618a87b9776770d977cb8d266d714", "is_disabled": 0, "rental_uris": {"android": "https://dc.lft.to/lastmile_qr_scan", "ios": "https://dc.lft.to/lastmile_qr_scan"}, "lon": -77.02691333333334, "fusion_lat": 0.0}, {"name": "8fa7f0d53a1fc4a59ef53301c15b40b2", "fusion_lon": 0.0, "lat": 38.844294, "is_reserved": 0, "type": "electric_scooter", "bike_id": "8fa7f0d53a1fc4a59ef53301c15b40b2", "is_disabled": 0, "rental_uris": {"android": "https://dc.lft.to/lastmile_qr_scan", "ios": "https://dc.lft.to/lastmile_qr_scan"}, "lon": -76.99812766666666, "fusion_lat": 0.0}, {"name": "8987834569afe849cf79a70d3fc0f456", "fusion_lon": 0.0, "lat": 38.928756, "is_reserved": 0, "type": "electric_scooter", "bike_id": "8987834569afe849cf79a70d3fc0f456", "is_disabled": 0, "rental_uris": {"android": "https://dc.lft.to/lastmile_qr_scan", "ios": "https://dc.lft.to/lastmile_qr_scan"}, "lon": -77.01394016666667, "fusion_lat": 0.0}, {"name": "bb2db42c80bac88485b26690d22ed79a", "fusion_lon": 0.0, "lat": 38.919826, "is_reserved": 0, "type": "electric_scooter", "bike_id": "bb2db42c80bac88485b26690d22ed79a", "is_disabled": 0, "rental_uris": {"android": "https://dc.lft.to/lastmile_qr_scan", "ios": "https://dc.lft.to/lastmile_qr_scan"}, "lon": -77.07694516666666, "fusion_lat": 0.0}, {"name": "50368474ddac6f8afe644932f114fa0c", "fusion_lon": 0.0, "lat": 38.9172505, "is_reserved": 0, "type": "electric_scooter", "bike_id": "50368474ddac6f8afe644932f114fa0c", "is_disabled": 0, "rental_uris": {"android": "https://dc.lft.to/lastmile_qr_scan", "ios": "https://dc.lft.to/lastmile_qr_scan"}, "lon": -77.0250665, "fusion_lat": 0.0}, {"name": "e5c7600abc45b3c381f820a1e622f17a", "fusion_lon": 0.0, "lat": 38.95660816666667, "is_reserved": 0, "type": "electric_scooter", "bike_id": "e5c7600abc45b3c381f820a1e622f17a", "is_disabled": 0, "rental_uris": {"android": "https://dc.lft.to/lastmile_qr_scan", "ios": "https://dc.lft.to/lastmile_qr_scan"}, "lon": -77.01033166666667, "fusion_lat": 0.0}, {"name": "7b2b03b7645d48729a03f7ce15d22f25", "fusion_lon": 0.0, "lat": 38.8887245, "is_reserved": 0, "type": "electric_bike", "bike_id": "7b2b03b7645d48729a03f7ce15d22f25", "is_disabled": 0, "rental_uris": {"android": "https://dc.lft.to/lastmile_qr_scan", "ios": "https://dc.lft.to/lastmile_qr_scan"}, "lon": -76.97844316666666, "fusion_lat": 0.0}, {"name": "84394cbe3d590f12ef09c730ae565dcd", "fusion_lon": 0.0, "lat": 38.93528933333333, "is_reserved": 0, "type": "electric_scooter", "bike_id": "84394cbe3d590f12ef09c730ae565dcd", "is_disabled": 0, "rental_uris": {"android": "https://dc.lft.to/lastmile_qr_scan", "ios": "https://dc.lft.to/lastmile_qr_scan"}, "lon": -77.03467516666667, "fusion_lat": 0.0}, {"name": "2d7bae0594e11e28fa93f56d1d212322", "fusion_lon": 0.0, "lat": 38.9074745, "is_reserved": 0, "type": "electric_scooter", "bike_id": "2d7bae0594e11e28fa93f56d1d212322", "is_disabled": 0, "rental_uris": {"android": "https://dc.lft.to/lastmile_qr_scan", "ios": "https://dc.lft.to/lastmile_qr_scan"}, "lon": -76.998712, "fusion_lat": 0.0}, {"name": "96a1353f8ec6fe0be22973d84eecf797", "fusion_lon": 0.0, "lat": 38.90609333333333, "is_reserved": 0, "type": "electric_scooter", "bike_id": "96a1353f8ec6fe0be22973d84eecf797", "is_disabled": 0, "rental_uris": {"android": "https://dc.lft.to/lastmile_qr_scan", "ios": "https://dc.lft.to/lastmile_qr_scan"}, "lon": -76.98516183333334, "fusion_lat": 0.0}, {"name": "06f2c1f1806fe127d9d73686ccb3fd98", "fusion_lon": 0.0, "lat": 38.92854416666667, "is_reserved": 0, "type": "electric_scooter", "bike_id": "06f2c1f1806fe127d9d73686ccb3fd98", "is_disabled": 0, "rental_uris": {"android": "https://dc.lft.to/lastmile_qr_scan", "ios": "https://dc.lft.to/lastmile_qr_scan"}, "lon": -77.01391533333333, "fusion_lat": 0.0}, {"name": "99689822a8ec8dadc6f466742f44187a", "fusion_lon": 0.0, "lat": 38.904956166666665, "is_reserved": 0, "type": "electric_scooter", "bike_id": "99689822a8ec8dadc6f466742f44187a", "is_disabled": 0, "rental_uris": {"android": "https://dc.lft.to/lastmile_qr_scan", "ios": "https://dc.lft.to/lastmile_qr_scan"}, "lon": -76.9495655, "fusion_lat": 0.0}, {"name": "b06d36c8f206c66930eb8b75c8cfaab4", "fusion_lon": 0.0, "lat": 38.90959866666667, "is_reserved": 0, "type": "electric_scooter", "bike_id": "b06d36c8f206c66930eb8b75c8cfaab4", "is_disabled": 0, "rental_uris": {"android": "https://dc.lft.to/lastmile_qr_scan", "ios": "https://dc.lft.to/lastmile_qr_scan"}, "lon": -77.02685933333333, "fusion_lat": 0.0}, {"name": "e9ef1cb8eab49935036331d88170026a", "fusion_lon": 0.0, "lat": 38.91843816666667, "is_reserved": 0, "type": "electric_scooter", "bike_id": "e9ef1cb8eab49935036331d88170026a", "is_disabled": 0, "rental_uris": {"android": "https://dc.lft.to/lastmile_qr_scan", "ios": "https://dc.lft.to/lastmile_qr_scan"}, "lon": -77.02304283333334, "fusion_lat": 0.0}, {"name": "450e8b6d42632a92e7f9fed6e2414c97", "fusion_lon": 0.0, "lat": 38.951742, "is_reserved": 0, "type": "electric_bike", "bike_id": "450e8b6d42632a92e7f9fed6e2414c97", "is_disabled": 0, "rental_uris": {"android": "https://dc.lft.to/lastmile_qr_scan", "ios": "https://dc.lft.to/lastmile_qr_scan"}, "lon": -76.97727333333333, "fusion_lat": 0.0}, {"name": "46a2162d906b793511af1911b0e5bfab", "fusion_lon": 0.0, "lat": 38.9627475, "is_reserved": 0, "type": "electric_bike", "bike_id": "46a2162d906b793511af1911b0e5bfab", "is_disabled": 0, "rental_uris": {"android": "https://dc.lft.to/lastmile_qr_scan", "ios": "https://dc.lft.to/lastmile_qr_scan"}, "lon": -77.0145255, "fusion_lat": 0.0}, {"name": "b2fdf28d4367545e90263113ae6c28a2", "fusion_lon": 0.0, "lat": 38.914156, "is_reserved": 0, "type": "electric_scooter", "bike_id": "b2fdf28d4367545e90263113ae6c28a2", "is_disabled": 0, "rental_uris": {"android": "https://dc.lft.to/lastmile_qr_scan", "ios": "https://dc.lft.to/lastmile_qr_scan"}, "lon": -77.04908633333334, "fusion_lat": 0.0}, {"name": "cb3496d9f8a91fec0fd06f4a59c148b8", "fusion_lon": 0.0, "lat": 38.8813575, "is_reserved": 0, "type": "electric_scooter", "bike_id": "cb3496d9f8a91fec0fd06f4a59c148b8", "is_disabled": 0, "rental_uris": {"android": "https://dc.lft.to/lastmile_qr_scan", "ios": "https://dc.lft.to/lastmile_qr_scan"}, "lon": -77.01661683333333, "fusion_lat": 0.0}, {"name": "1f9f6b259cdbecb3abd9b9bf61bdf28a", "fusion_lon": 0.0, "lat": 38.90241266666666, "is_reserved": 0, "type": "electric_scooter", "bike_id": "1f9f6b259cdbecb3abd9b9bf61bdf28a", "is_disabled": 0, "rental_uris": {"android": "https://dc.lft.to/lastmile_qr_scan", "ios": "https://dc.lft.to/lastmile_qr_scan"}, "lon": -77.00190316666666, "fusion_lat": 0.0}, {"name": "07193507f52ceed373ab9503447b437a", "fusion_lon": 0.0, "lat": 38.874696666666665, "is_reserved": 0, "type": "electric_scooter", "bike_id": "07193507f52ceed373ab9503447b437a", "is_disabled": 0, "rental_uris": {"android": "https://dc.lft.to/lastmile_qr_scan", "ios": "https://dc.lft.to/lastmile_qr_scan"}, "lon": -77.00555616666666, "fusion_lat": 0.0}, {"name": "678be7c254959ff8b5c8411625255a2e", "fusion_lon": 0.0, "lat": 38.90168933333333, "is_reserved": 0, "type": "electric_scooter", "bike_id": "678be7c254959ff8b5c8411625255a2e", "is_disabled": 0, "rental_uris": {"android": "https://dc.lft.to/lastmile_qr_scan", "ios": "https://dc.lft.to/lastmile_qr_scan"}, "lon": -76.93024033333333, "fusion_lat": 0.0}, {"name": "e4bc241a8943dd316d8fae0b305e9078", "fusion_lon": 0.0, "lat": 38.87479583333333, "is_reserved": 0, "type": "electric_bike", "bike_id": "e4bc241a8943dd316d8fae0b305e9078", "is_disabled": 0, "rental_uris": {"android": "https://dc.lft.to/lastmile_qr_scan", "ios": "https://dc.lft.to/lastmile_qr_scan"}, "lon": -76.96532266666667, "fusion_lat": 0.0}, {"name": "aeabef21258278eab564db65857dd519", "fusion_lon": 0.0, "lat": 38.95758516666667, "is_reserved": 0, "type": "electric_bike", "bike_id": "aeabef21258278eab564db65857dd519", "is_disabled": 0, "rental_uris": {"android": "https://dc.lft.to/lastmile_qr_scan", "ios": "https://dc.lft.to/lastmile_qr_scan"}, "lon": -77.0205255, "fusion_lat": 0.0}, {"name": "3cfda625a02c728824bf83254e7085a0", "fusion_lon": 0.0, "lat": 38.90731783333333, "is_reserved": 0, "type": "electric_scooter", "bike_id": "3cfda625a02c728824bf83254e7085a0", "is_disabled": 0, "rental_uris": {"android": "https://dc.lft.to/lastmile_qr_scan", "ios": "https://dc.lft.to/lastmile_qr_scan"}, "lon": -77.04006816666667, "fusion_lat": 0.0}, {"name": "ede0555323a37b0a9656d8164aaaf686", "fusion_lon": 0.0, "lat": 38.9241165, "is_reserved": 0, "type": "electric_scooter", "bike_id": "ede0555323a37b0a9656d8164aaaf686", "is_disabled": 0, "rental_uris": {"android": "https://dc.lft.to/lastmile_qr_scan", "ios": "https://dc.lft.to/lastmile_qr_scan"}, "lon": -77.05059116666666, "fusion_lat": 0.0}, {"name": "d8bb7417019f2d5ce33a743765b70188", "fusion_lon": 0.0, "lat": 38.90651483333333, "is_reserved": 0, "type": "electric_scooter", "bike_id": "d8bb7417019f2d5ce33a743765b70188", "is_disabled": 0, "rental_uris": {"android": "https://dc.lft.to/lastmile_qr_scan", "ios": "https://dc.lft.to/lastmile_qr_scan"}, "lon": -77.011272, "fusion_lat": 0.0}, {"name": "dd2a7a6bc7fbbc1adde03edbb3f57e44", "fusion_lon": 0.0, "lat": 38.9168635, "is_reserved": 0, "type": "electric_scooter", "bike_id": "dd2a7a6bc7fbbc1adde03edbb3f57e44", "is_disabled": 0, "rental_uris": {"android": "https://dc.lft.to/lastmile_qr_scan", "ios": "https://dc.lft.to/lastmile_qr_scan"}, "lon": -77.01575533333333, "fusion_lat": 0.0}, {"name": "d4db725cf2e2117a87ccc10917b88c9c", "fusion_lon": 0.0, "lat": 38.91541333333333, "is_reserved": 0, "type": "electric_scooter", "bike_id": "d4db725cf2e2117a87ccc10917b88c9c", "is_disabled": 0, "rental_uris": {"android": "https://dc.lft.to/lastmile_qr_scan", "ios": "https://dc.lft.to/lastmile_qr_scan"}, "lon": -77.03854516666667, "fusion_lat": 0.0}, {"name": "aade61b8a5e9e899b533cf4909e007f3", "fusion_lon": 0.0, "lat": 38.89317, "is_reserved": 0, "type": "electric_scooter", "bike_id": "aade61b8a5e9e899b533cf4909e007f3", "is_disabled": 0, "rental_uris": {"android": "https://dc.lft.to/lastmile_qr_scan", "ios": "https://dc.lft.to/lastmile_qr_scan"}, "lon": -77.0179875, "fusion_lat": 0.0}, {"name": "b805c916d498c5fc13b7f52515e1d9f6", "fusion_lon": 0.0, "lat": 38.8848535, "is_reserved": 0, "type": "electric_scooter", "bike_id": "b805c916d498c5fc13b7f52515e1d9f6", "is_disabled": 0, "rental_uris": {"android": "https://dc.lft.to/lastmile_qr_scan", "ios": "https://dc.lft.to/lastmile_qr_scan"}, "lon": -77.00913016666667, "fusion_lat": 0.0}, {"name": "a7bdc225f0943744ca03dd26d68b90f9", "fusion_lon": 0.0, "lat": 38.924146, "is_reserved": 0, "type": "electric_scooter", "bike_id": "a7bdc225f0943744ca03dd26d68b90f9", "is_disabled": 0, "rental_uris": {"android": "https://dc.lft.to/lastmile_qr_scan", "ios": "https://dc.lft.to/lastmile_qr_scan"}, "lon": -77.05059066666666, "fusion_lat": 0.0}, {"name": "ed1f17dd042124e324bbe53418150334", "fusion_lon": 0.0, "lat": 38.910289666666664, "is_reserved": 0, "type": "electric_scooter", "bike_id": "ed1f17dd042124e324bbe53418150334", "is_disabled": 0, "rental_uris": {"android": "https://dc.lft.to/lastmile_qr_scan", "ios": "https://dc.lft.to/lastmile_qr_scan"}, "lon": -77.00756116666666, "fusion_lat": 0.0}, {"name": "aa45bae0e720ebbeba7b7c3aa5ce2e3e", "fusion_lon": 0.0, "lat": 38.8888655, "is_reserved": 0, "type": "electric_scooter", "bike_id": "aa45bae0e720ebbeba7b7c3aa5ce2e3e", "is_disabled": 0, "rental_uris": {"android": "https://dc.lft.to/lastmile_qr_scan", "ios": "https://dc.lft.to/lastmile_qr_scan"}, "lon": -76.947709, "fusion_lat": 0.0}, {"name": "81f3e4866cb7621e15cbb9737d1128c7", "fusion_lon": 0.0, "lat": 38.97725333333333, "is_reserved": 0, "type": "electric_scooter", "bike_id": "81f3e4866cb7621e15cbb9737d1128c7", "is_disabled": 0, "rental_uris": {"android": "https://dc.lft.to/lastmile_qr_scan", "ios": "https://dc.lft.to/lastmile_qr_scan"}, "lon": -77.01724316666666, "fusion_lat": 0.0}, {"name": "61fbe445e1a95e23f2fe884d7859ac20", "fusion_lon": 0.0, "lat": 38.910287333333336, "is_reserved": 0, "type": "electric_scooter", "bike_id": "61fbe445e1a95e23f2fe884d7859ac20", "is_disabled": 0, "rental_uris": {"android": "https://dc.lft.to/lastmile_qr_scan", "ios": "https://dc.lft.to/lastmile_qr_scan"}, "lon": -77.00757733333333, "fusion_lat": 0.0}, {"name": "7245b75cd627231f7ce53f195baea208", "fusion_lon": 0.0, "lat": 38.90095766666666, "is_reserved": 0, "type": "electric_scooter", "bike_id": "7245b75cd627231f7ce53f195baea208", "is_disabled": 0, "rental_uris": {"android": "https://dc.lft.to/lastmile_qr_scan", "ios": "https://dc.lft.to/lastmile_qr_scan"}, "lon": -76.9832555, "fusion_lat": 0.0}, {"name": "c2c2b0a831176f2e4f29acbffb9ef182", "fusion_lon": 0.0, "lat": 38.79609816666667, "is_reserved": 0, "type": "electric_bike", "bike_id": "c2c2b0a831176f2e4f29acbffb9ef182", "is_disabled": 0, "rental_uris": {"android": "https://dc.lft.to/lastmile_qr_scan", "ios": "https://dc.lft.to/lastmile_qr_scan"}, "lon": -76.99745683333333, "fusion_lat": 0.0}, {"name": "0acec0d1cb9e39033a277e7aa8d1dd00", "fusion_lon": 0.0, "lat": 38.90582233333333, "is_reserved": 0, "type": "electric_scooter", "bike_id": "0acec0d1cb9e39033a277e7aa8d1dd00", "is_disabled": 0, "rental_uris": {"android": "https://dc.lft.to/lastmile_qr_scan", "ios": "https://dc.lft.to/lastmile_qr_scan"}, "lon": -77.00572783333334, "fusion_lat": 0.0}, {"name": "3ed9e8f871725ebc7919e708ca68feab", "fusion_lon": 0.0, "lat": 38.91689933333333, "is_reserved": 0, "type": "electric_scooter", "bike_id": "3ed9e8f871725ebc7919e708ca68feab", "is_disabled": 0, "rental_uris": {"android": "https://dc.lft.to/lastmile_qr_scan", "ios": "https://dc.lft.to/lastmile_qr_scan"}, "lon": -77.029512, "fusion_lat": 0.0}, {"name": "8abf3d56e83a95c437c49f802465c738", "fusion_lon": 0.0, "lat": 38.9184005, "is_reserved": 0, "type": "electric_bike", "bike_id": "8abf3d56e83a95c437c49f802465c738", "is_disabled": 0, "rental_uris": {"android": "https://dc.lft.to/lastmile_qr_scan", "ios": "https://dc.lft.to/lastmile_qr_scan"}, "lon": -77.06990133333333, "fusion_lat": 0.0}, {"name": "c98a0855ac556c1eed55d59c1b50d26d", "fusion_lon": 0.0, "lat": 38.915530833333335, "is_reserved": 0, "type": "electric_scooter", "bike_id": "c98a0855ac556c1eed55d59c1b50d26d", "is_disabled": 0, "rental_uris": {"android": "https://dc.lft.to/lastmile_qr_scan", "ios": "https://dc.lft.to/lastmile_qr_scan"}, "lon": -77.04177883333334, "fusion_lat": 0.0}, {"name": "c57f99297be0f71b2fd4fa77e6c5529b", "fusion_lon": 0.0, "lat": 38.91997333333333, "is_reserved": 0, "type": "electric_scooter", "bike_id": "c57f99297be0f71b2fd4fa77e6c5529b", "is_disabled": 0, "rental_uris": {"android": "https://dc.lft.to/lastmile_qr_scan", "ios": "https://dc.lft.to/lastmile_qr_scan"}, "lon": -77.032174, "fusion_lat": 0.0}, {"name": "5c529e954eb8bcadf7208c659174ce6b", "fusion_lon": 0.0, "lat": 38.897050666666665, "is_reserved": 0, "type": "electric_scooter", "bike_id": "5c529e954eb8bcadf7208c659174ce6b", "is_disabled": 0, "rental_uris": {"android": "https://dc.lft.to/lastmile_qr_scan", "ios": "https://dc.lft.to/lastmile_qr_scan"}, "lon": -76.93001233333334, "fusion_lat": 0.0}, {"name": "8618f60b9f240eb1458f6034c1505e17", "fusion_lon": 0.0, "lat": 38.916352833333335, "is_reserved": 0, "type": "electric_scooter", "bike_id": "8618f60b9f240eb1458f6034c1505e17", "is_disabled": 0, "rental_uris": {"android": "https://dc.lft.to/lastmile_qr_scan", "ios": "https://dc.lft.to/lastmile_qr_scan"}, "lon": -77.02390783333334, "fusion_lat": 0.0}, {"name": "6e0905f202aeb2dbcd2089472e066cb6", "fusion_lon": 0.0, "lat": 38.86627633333333, "is_reserved": 0, "type": "electric_scooter", "bike_id": "6e0905f202aeb2dbcd2089472e066cb6", "is_disabled": 0, "rental_uris": {"android": "https://dc.lft.to/lastmile_qr_scan", "ios": "https://dc.lft.to/lastmile_qr_scan"}, "lon": -76.9891435, "fusion_lat": 0.0}, {"name": "d5a6f61e5e1f30559af249972d40890c", "fusion_lon": 0.0, "lat": 38.91176, "is_reserved": 0, "type": "electric_scooter", "bike_id": "d5a6f61e5e1f30559af249972d40890c", "is_disabled": 0, "rental_uris": {"android": "https://dc.lft.to/lastmile_qr_scan", "ios": "https://dc.lft.to/lastmile_qr_scan"}, "lon": -77.0043895, "fusion_lat": 0.0}, {"name": "2d60378f5b5a95403f242c8c7cd6d10a", "fusion_lon": 0.0, "lat": 38.899272833333335, "is_reserved": 0, "type": "electric_scooter", "bike_id": "2d60378f5b5a95403f242c8c7cd6d10a", "is_disabled": 0, "rental_uris": {"android": "https://dc.lft.to/lastmile_qr_scan", "ios": "https://dc.lft.to/lastmile_qr_scan"}, "lon": -77.07054116666667, "fusion_lat": 0.0}, {"name": "a8e90ab2c4c82be68e38782fc90f9a74", "fusion_lon": 0.0, "lat": 38.92375966666667, "is_reserved": 0, "type": "electric_scooter", "bike_id": "a8e90ab2c4c82be68e38782fc90f9a74", "is_disabled": 0, "rental_uris": {"android": "https://dc.lft.to/lastmile_qr_scan", "ios": "https://dc.lft.to/lastmile_qr_scan"}, "lon": -77.0309015, "fusion_lat": 0.0}, {"name": "985f9062a877c123a14bfbd1659605e4", "fusion_lon": 0.0, "lat": 38.898546833333334, "is_reserved": 0, "type": "electric_scooter", "bike_id": "985f9062a877c123a14bfbd1659605e4", "is_disabled": 0, "rental_uris": {"android": "https://dc.lft.to/lastmile_qr_scan", "ios": "https://dc.lft.to/lastmile_qr_scan"}, "lon": -77.02377583333333, "fusion_lat": 0.0}, {"name": "0fca7a8c2b0e4bb17d043f6dc8f6a39b", "fusion_lon": 0.0, "lat": 38.899602333333334, "is_reserved": 0, "type": "electric_bike", "bike_id": "0fca7a8c2b0e4bb17d043f6dc8f6a39b", "is_disabled": 0, "rental_uris": {"android": "https://dc.lft.to/lastmile_qr_scan", "ios": "https://dc.lft.to/lastmile_qr_scan"}, "lon": -76.98563433333334, "fusion_lat": 0.0}, {"name": "3cefe13eca7b196ebf79111a9da8cf22", "fusion_lon": 0.0, "lat": 38.903621666666666, "is_reserved": 0, "type": "electric_scooter", "bike_id": "3cefe13eca7b196ebf79111a9da8cf22", "is_disabled": 0, "rental_uris": {"android": "https://dc.lft.to/lastmile_qr_scan", "ios": "https://dc.lft.to/lastmile_qr_scan"}, "lon": -77.04503566666666, "fusion_lat": 0.0}, {"name": "7dabf7b74272ffd1e82accf0cb2ee372", "fusion_lon": 0.0, "lat": 38.91566266666667, "is_reserved": 0, "type": "electric_scooter", "bike_id": "7dabf7b74272ffd1e82accf0cb2ee372", "is_disabled": 0, "rental_uris": {"android": "https://dc.lft.to/lastmile_qr_scan", "ios": "https://dc.lft.to/lastmile_qr_scan"}, "lon": -77.010316, "fusion_lat": 0.0}, {"name": "758a5c5234e8eb60c6d5554dcd30892e", "fusion_lon": 0.0, "lat": 38.92252783333333, "is_reserved": 0, "type": "electric_scooter", "bike_id": "758a5c5234e8eb60c6d5554dcd30892e", "is_disabled": 0, "rental_uris": {"android": "https://dc.lft.to/lastmile_qr_scan", "ios": "https://dc.lft.to/lastmile_qr_scan"}, "lon": -77.03022116666666, "fusion_lat": 0.0}, {"name": "1730bd7898f194f70250bb5511a592bf", "fusion_lon": 0.0, "lat": 38.90377066666667, "is_reserved": 0, "type": "electric_scooter", "bike_id": "1730bd7898f194f70250bb5511a592bf", "is_disabled": 0, "rental_uris": {"android": "https://dc.lft.to/lastmile_qr_scan", "ios": "https://dc.lft.to/lastmile_qr_scan"}, "lon": -77.0448215, "fusion_lat": 0.0}, {"name": "f1b5beca59c9c59079bd05734622428b", "fusion_lon": 0.0, "lat": 38.94511, "is_reserved": 0, "type": "electric_scooter", "bike_id": "f1b5beca59c9c59079bd05734622428b", "is_disabled": 0, "rental_uris": {"android": "https://dc.lft.to/lastmile_qr_scan", "ios": "https://dc.lft.to/lastmile_qr_scan"}, "lon": -77.03369983333333, "fusion_lat": 0.0}, {"name": "324e625843584c0e65c78b035fa465ad", "fusion_lon": 0.0, "lat": 38.89759033333333, "is_reserved": 0, "type": "electric_scooter", "bike_id": "324e625843584c0e65c78b035fa465ad", "is_disabled": 0, "rental_uris": {"android": "https://dc.lft.to/lastmile_qr_scan", "ios": "https://dc.lft.to/lastmile_qr_scan"}, "lon": -77.0269885, "fusion_lat": 0.0}, {"name": "a641c198d2475fc26bdf4aa3a6cf2af4", "fusion_lon": 0.0, "lat": 38.8891775, "is_reserved": 0, "type": "electric_scooter", "bike_id": "a641c198d2475fc26bdf4aa3a6cf2af4", "is_disabled": 0, "rental_uris": {"android": "https://dc.lft.to/lastmile_qr_scan", "ios": "https://dc.lft.to/lastmile_qr_scan"}, "lon": -76.99130766666667, "fusion_lat": 0.0}, {"name": "44fab4c67f9cf4993647ed273222dbbc", "fusion_lon": 0.0, "lat": 38.90567333333333, "is_reserved": 0, "type": "electric_scooter", "bike_id": "44fab4c67f9cf4993647ed273222dbbc", "is_disabled": 0, "rental_uris": {"android": "https://dc.lft.to/lastmile_qr_scan", "ios": "https://dc.lft.to/lastmile_qr_scan"}, "lon": -77.03452283333333, "fusion_lat": 0.0}, {"name": "e162c11af0b063b9a1f7b4b922fbc864", "fusion_lon": 0.0, "lat": 38.90383416666667, "is_reserved": 0, "type": "electric_scooter", "bike_id": "e162c11af0b063b9a1f7b4b922fbc864", "is_disabled": 0, "rental_uris": {"android": "https://dc.lft.to/lastmile_qr_scan", "ios": "https://dc.lft.to/lastmile_qr_scan"}, "lon": -77.04487116666667, "fusion_lat": 0.0}, {"name": "18ae8967ad1b5a4df0ebaa053be99ea4", "fusion_lon": 0.0, "lat": 38.9017355, "is_reserved": 0, "type": "electric_scooter", "bike_id": "18ae8967ad1b5a4df0ebaa053be99ea4", "is_disabled": 0, "rental_uris": {"android": "https://dc.lft.to/lastmile_qr_scan", "ios": "https://dc.lft.to/lastmile_qr_scan"}, "lon": -76.98059033333334, "fusion_lat": 0.0}, {"name": "597ec1391076d8857e2b3a9b07b618bf", "fusion_lon": 0.0, "lat": 38.9039535, "is_reserved": 0, "type": "electric_scooter", "bike_id": "597ec1391076d8857e2b3a9b07b618bf", "is_disabled": 0, "rental_uris": {"android": "https://dc.lft.to/lastmile_qr_scan", "ios": "https://dc.lft.to/lastmile_qr_scan"}, "lon": -77.01950816666667, "fusion_lat": 0.0}, {"name": "e974638647bef00610030b47e8955feb", "fusion_lon": 0.0, "lat": 38.90231766666667, "is_reserved": 0, "type": "electric_scooter", "bike_id": "e974638647bef00610030b47e8955feb", "is_disabled": 0, "rental_uris": {"android": "https://dc.lft.to/lastmile_qr_scan", "ios": "https://dc.lft.to/lastmile_qr_scan"}, "lon": -77.02829216666666, "fusion_lat": 0.0}, {"name": "be31072513e93a5b2c05d2e52f24b7c4", "fusion_lon": 0.0, "lat": 38.88484366666667, "is_reserved": 0, "type": "electric_bike", "bike_id": "be31072513e93a5b2c05d2e52f24b7c4", "is_disabled": 0, "rental_uris": {"android": "https://dc.lft.to/lastmile_qr_scan", "ios": "https://dc.lft.to/lastmile_qr_scan"}, "lon": -77.12767483333333, "fusion_lat": 0.0}, {"name": "819e0d2570b110981569469a8d53edde", "fusion_lon": 0.0, "lat": 38.933880333333335, "is_reserved": 0, "type": "electric_scooter", "bike_id": "819e0d2570b110981569469a8d53edde", "is_disabled": 0, "rental_uris": {"android": "https://dc.lft.to/lastmile_qr_scan", "ios": "https://dc.lft.to/lastmile_qr_scan"}, "lon": -77.03087683333334, "fusion_lat": 0.0}, {"name": "9fa3dcfac9266e57f8964fa4e563381a", "fusion_lon": 0.0, "lat": 38.9193915, "is_reserved": 0, "type": "electric_scooter", "bike_id": "9fa3dcfac9266e57f8964fa4e563381a", "is_disabled": 0, "rental_uris": {"android": "https://dc.lft.to/lastmile_qr_scan", "ios": "https://dc.lft.to/lastmile_qr_scan"}, "lon": -77.04486533333333, "fusion_lat": 0.0}, {"name": "113877a7daf56882fae77b7273778f24", "fusion_lon": 0.0, "lat": 38.93361133333333, "is_reserved": 0, "type": "electric_scooter", "bike_id": "113877a7daf56882fae77b7273778f24", "is_disabled": 0, "rental_uris": {"android": "https://dc.lft.to/lastmile_qr_scan", "ios": "https://dc.lft.to/lastmile_qr_scan"}, "lon": -77.08854483333333, "fusion_lat": 0.0}, {"name": "32362a6606798912fb116c2bf5b27d00", "fusion_lon": 0.0, "lat": 38.90736, "is_reserved": 0, "type": "electric_scooter", "bike_id": "32362a6606798912fb116c2bf5b27d00", "is_disabled": 0, "rental_uris": {"android": "https://dc.lft.to/lastmile_qr_scan", "ios": "https://dc.lft.to/lastmile_qr_scan"}, "lon": -77.0113725, "fusion_lat": 0.0}, {"name": "7fef03575a116b40cae7fdf8452ef90e", "fusion_lon": 0.0, "lat": 38.912045166666665, "is_reserved": 0, "type": "electric_scooter", "bike_id": "7fef03575a116b40cae7fdf8452ef90e", "is_disabled": 0, "rental_uris": {"android": "https://dc.lft.to/lastmile_qr_scan", "ios": "https://dc.lft.to/lastmile_qr_scan"}, "lon": -77.00180933333333, "fusion_lat": 0.0}, {"name": "65c99463e19a6f024098f006e2527461", "fusion_lon": 0.0, "lat": 38.90773983333333, "is_reserved": 0, "type": "electric_scooter", "bike_id": "65c99463e19a6f024098f006e2527461", "is_disabled": 0, "rental_uris": {"android": "https://dc.lft.to/lastmile_qr_scan", "ios": "https://dc.lft.to/lastmile_qr_scan"}, "lon": -77.0121235, "fusion_lat": 0.0}, {"name": "da905f0be63fd2a4c70063c61092e9e8", "fusion_lon": 0.0, "lat": 38.908169, "is_reserved": 0, "type": "electric_scooter", "bike_id": "da905f0be63fd2a4c70063c61092e9e8", "is_disabled": 0, "rental_uris": {"android": "https://dc.lft.to/lastmile_qr_scan", "ios": "https://dc.lft.to/lastmile_qr_scan"}, "lon": -77.08425083333333, "fusion_lat": 0.0}, {"name": "1f20e1362c89de363e81819dbaad96b3", "fusion_lon": 0.0, "lat": 38.905756333333336, "is_reserved": 0, "type": "electric_scooter", "bike_id": "1f20e1362c89de363e81819dbaad96b3", "is_disabled": 0, "rental_uris": {"android": "https://dc.lft.to/lastmile_qr_scan", "ios": "https://dc.lft.to/lastmile_qr_scan"}, "lon": -77.0435675, "fusion_lat": 0.0}, {"name": "e72bfce738639be4a3e423a3daf6e4a8", "fusion_lon": 0.0, "lat": 38.926980666666665, "is_reserved": 0, "type": "electric_scooter", "bike_id": "e72bfce738639be4a3e423a3daf6e4a8", "is_disabled": 0, "rental_uris": {"android": "https://dc.lft.to/lastmile_qr_scan", "ios": "https://dc.lft.to/lastmile_qr_scan"}, "lon": -77.02129766666667, "fusion_lat": 0.0}, {"name": "ebaf9dcd96990b3b5d78d621af7c68bc", "fusion_lon": 0.0, "lat": 38.85925866666667, "is_reserved": 0, "type": "electric_scooter", "bike_id": "ebaf9dcd96990b3b5d78d621af7c68bc", "is_disabled": 0, "rental_uris": {"android": "https://dc.lft.to/lastmile_qr_scan", "ios": "https://dc.lft.to/lastmile_qr_scan"}, "lon": -76.98977883333333, "fusion_lat": 0.0}, {"name": "580577e65b7dd160eb4b14a8e785f80a", "fusion_lon": 0.0, "lat": 38.920459666666666, "is_reserved": 0, "type": "electric_scooter", "bike_id": "580577e65b7dd160eb4b14a8e785f80a", "is_disabled": 0, "rental_uris": {"android": "https://dc.lft.to/lastmile_qr_scan", "ios": "https://dc.lft.to/lastmile_qr_scan"}, "lon": -76.9893305, "fusion_lat": 0.0}, {"name": "495ebaf10783e19f02ab11e9c6b9212c", "fusion_lon": 0.0, "lat": 38.92155666666667, "is_reserved": 0, "type": "electric_scooter", "bike_id": "495ebaf10783e19f02ab11e9c6b9212c", "is_disabled": 0, "rental_uris": {"android": "https://dc.lft.to/lastmile_qr_scan", "ios": "https://dc.lft.to/lastmile_qr_scan"}, "lon": -77.043567, "fusion_lat": 0.0}, {"name": "efc34e73f100c11f5b9cb537992040aa", "fusion_lon": 0.0, "lat": 38.90407316666667, "is_reserved": 0, "type": "electric_scooter", "bike_id": "efc34e73f100c11f5b9cb537992040aa", "is_disabled": 0, "rental_uris": {"android": "https://dc.lft.to/lastmile_qr_scan", "ios": "https://dc.lft.to/lastmile_qr_scan"}, "lon": -77.04895883333333, "fusion_lat": 0.0}, {"name": "6d3e25fb04ab524559c964caaddf33bb", "fusion_lon": 0.0, "lat": 38.829502833333336, "is_reserved": 0, "type": "electric_bike", "bike_id": "6d3e25fb04ab524559c964caaddf33bb", "is_disabled": 0, "rental_uris": {"android": "https://dc.lft.to/lastmile_qr_scan", "ios": "https://dc.lft.to/lastmile_qr_scan"}, "lon": -77.12355716666667, "fusion_lat": 0.0}, {"name": "4dfe7632a64cc953e31b46a8c17d98d3", "fusion_lon": 0.0, "lat": 38.9181265, "is_reserved": 0, "type": "electric_scooter", "bike_id": "4dfe7632a64cc953e31b46a8c17d98d3", "is_disabled": 0, "rental_uris": {"android": "https://dc.lft.to/lastmile_qr_scan", "ios": "https://dc.lft.to/lastmile_qr_scan"}, "lon": -77.040044, "fusion_lat": 0.0}, {"name": "66e3bd0b14128f19180b84162567566b", "fusion_lon": 0.0, "lat": 38.93312516666667, "is_reserved": 0, "type": "electric_bike", "bike_id": "66e3bd0b14128f19180b84162567566b", "is_disabled": 0, "rental_uris": {"android": "https://dc.lft.to/lastmile_qr_scan", "ios": "https://dc.lft.to/lastmile_qr_scan"}, "lon": -77.0320985, "fusion_lat": 0.0}, {"name": "0becbc7c261b08d4ef81413393fd639c", "fusion_lon": 0.0, "lat": 38.9120865, "is_reserved": 0, "type": "electric_scooter", "bike_id": "0becbc7c261b08d4ef81413393fd639c", "is_disabled": 0, "rental_uris": {"android": "https://dc.lft.to/lastmile_qr_scan", "ios": "https://dc.lft.to/lastmile_qr_scan"}, "lon": -77.03838866666666, "fusion_lat": 0.0}, {"name": "f9f47c899234d19362b295f72f8989e7", "fusion_lon": 0.0, "lat": 38.900402, "is_reserved": 0, "type": "electric_scooter", "bike_id": "f9f47c899234d19362b295f72f8989e7", "is_disabled": 0, "rental_uris": {"android": "https://dc.lft.to/lastmile_qr_scan", "ios": "https://dc.lft.to/lastmile_qr_scan"}, "lon": -77.00214133333333, "fusion_lat": 0.0}, {"name": "142f96c12889100e7b4301289bf35eda", "fusion_lon": 0.0, "lat": 38.89222183333333, "is_reserved": 0, "type": "electric_scooter", "bike_id": "142f96c12889100e7b4301289bf35eda", "is_disabled": 0, "rental_uris": {"android": "https://dc.lft.to/lastmile_qr_scan", "ios": "https://dc.lft.to/lastmile_qr_scan"}, "lon": -77.04801483333334, "fusion_lat": 0.0}, {"name": "236fd64b3689e197020b2f818cbcc7fb", "fusion_lon": 0.0, "lat": 38.916103666666665, "is_reserved": 0, "type": "electric_scooter", "bike_id": "236fd64b3689e197020b2f818cbcc7fb", "is_disabled": 0, "rental_uris": {"android": "https://dc.lft.to/lastmile_qr_scan", "ios": "https://dc.lft.to/lastmile_qr_scan"}, "lon": -77.00059833333333, "fusion_lat": 0.0}, {"name": "715a2ee399c0a721423173712f9c6b76", "fusion_lon": 0.0, "lat": 38.9427825, "is_reserved": 0, "type": "electric_bike", "bike_id": "715a2ee399c0a721423173712f9c6b76", "is_disabled": 0, "rental_uris": {"android": "https://dc.lft.to/lastmile_qr_scan", "ios": "https://dc.lft.to/lastmile_qr_scan"}, "lon": -76.98776516666666, "fusion_lat": 0.0}, {"name": "333fdc446237f6960e6b7749fade6567", "fusion_lon": 0.0, "lat": 38.8829465, "is_reserved": 0, "type": "electric_scooter", "bike_id": "333fdc446237f6960e6b7749fade6567", "is_disabled": 0, "rental_uris": {"android": "https://dc.lft.to/lastmile_qr_scan", "ios": "https://dc.lft.to/lastmile_qr_scan"}, "lon": -77.0084935, "fusion_lat": 0.0}, {"name": "a9c77c86ab2ddc9329e1703c2e9bcdeb", "fusion_lon": 0.0, "lat": 38.923188, "is_reserved": 0, "type": "electric_scooter", "bike_id": "a9c77c86ab2ddc9329e1703c2e9bcdeb", "is_disabled": 0, "rental_uris": {"android": "https://dc.lft.to/lastmile_qr_scan", "ios": "https://dc.lft.to/lastmile_qr_scan"}, "lon": -77.041809, "fusion_lat": 0.0},